{"last_updated":1742062307,"ttl":60,"version":"2.2","data":{"bikes":[{"bike_id":"b063c204-7046-4f1f-8eaa-b00d759e28a3","system_id":"levelo_inurba_marseille","lat":43.26952,"lon":5.38643,"is_reserved":false,"is_disabled":false,"rental_uris":{"android":"levelo://app?vid=b063c204-7046-4f1f-8eaa-b00d759e28a3","ios":"levelo://app?vid=b063c204-7046-4f1f-8eaa-b00d759e28a3"},"vehicle_type_id":"4","last_reported":1742062307,"current_range_meters":2800,"station_id":"ce4bhh92rcd13ifvqfh0","pricing_plan_id":"cebpf4jnsgd1na2vs0mg"},{"bike_id":"cf84f11a-3215-4043-9f3d-a9f5a46e80d5","system_id":"levelo_inurba_marseille","lat":43.292,"lon":5.39312,"is_reserved":false,"is_disabled":false,"rental_uris":{"android":"levelo://app?vid=cf84f11a-3215-4043-9f3d-a9f5a46e80d5","ios":"levelo://app?vid=cf84f11a-3215-4043-9f3d-a9f5a46e80d5"},"vehicle_type_id":"4","last_reported":1742062307,"current_range_meters":2800,"station_id":"ce4bh192rcd13ifvqdd0","pricing_plan_id":"cebpf4jnsgd1na2vs0mg"},{"bike_id":"72109953-5d52-40da-8f29-d5728cf8a67d","system_id":"levelo_inurba_marseille","lat":43.29029,"lon":5.38653,"is_reserved":false,"is_disabled":false,"rental_uris":{"android":"levelo://app?vid=72109953-5d52-40da-8f29-d5728cf8a67d","ios":"levelo://app?vid=72109953-5d52-40da-8f29-d5728cf8a67d"},"vehicle_type_id":"4","last_reported":1742062307,"current_range_meters":2800,"station_id":"ce4bh4p2rcd13ifvqe0g","pricing_plan_id":"cebpf4jnsgd1na2vs0mg"},{"bike_id":"def1cfb3-2cc2-4037-a28e-ec96adbd64eb","system_id":"levelo_inurba_marseille","lat":43.293,"lon":5.37148,"is_reserved":false,"is_disabled":false,"rental_uris":{"android":"levelo://app?vid=def1cfb3-2cc2-4037-a28e-ec96adbd64eb","ios":"levelo://app?vid=def1cfb3-2cc2-4037-a28e-ec96adbd64eb"},"vehicle_type_id":"4","last_reported":1742062307,"current_range_meters":2800,"station_id":"ce4bgh92rcd13ifvqb40","pricing_plan_id":"cebpf4jnsgd1na2vs0mg"},{"bike_id":"024a4e1a-bea3-4aac-8172-9804bc806a43","system_id":"levelo_inurba_marseille","lat":43.26499,"lon":5.39557,"is_reserved":false,"is_disabled":false,"rental_uris":{"android":"levelo://app?vid=024a4e1a-bea3-4aac-8172-9804bc806a43","ios":"levelo://app?vid=024a4e1a-bea3-4aac-8172-9804bc806a43"},"vehicle_type_id":"4","last_reported":1742062307,"current_range_meters":2800,"station_id":"ce4bhi12rcd13ifvqfq0","pricing_plan_id":"cebpf4jnsgd1na2vs0mg"},{"bike_id":"89f327ce-50f3-488a-b923-3877e5c3b470","system_id":"levelo_inurba_marseille","lat":43.29608,"lon":5.40569,"is_reserved":false,"is_disabled":false,"rental_uris":{"android":"levelo://app?vid=89f327ce-50f3-488a-b923-3877e5c3b470","ios":"levelo://app?vid=89f327ce-50f3-488a-b923-3877e5c3b470"},"vehicle_type_id":"4","last_reported":1742062307,"current_range_meters":2800,"station_id":"ce4bh0h2rcd13ifvqd60","pricing_plan_id":"cebpf4jnsgd1na2vs0mg"},{"bike_id":"66fea0d1-31ed-47af-ba8f-e7943fad773b","system_id":"levelo_inurba_marseille","lat":43.31482,"lon":5.37284,"is_reserved":false,"is_disabled":false,"rental_uris":{"android":"levelo://app?vid=66fea0d1-31ed-47af-ba8f-e7943fad773b","ios":"levelo://app?vid=66fea0d1-31ed-47af-ba8f-e7943fad773b"},"vehicle_type_id":"4","last_reported":1742062307,"current_range_meters":2800,"station_id":"ce4bgt12rcd13ifvqcd0","pricing_plan_id":"cebpf4jnsgd1na2vs0mg"},{"bike_id":"2003e689-e7ed-4eb8-b25b-72721c8773a0","system_id":"levelo_inurba_marseille","lat":43.28401,"lon":5.34991,"is_reserved":false,"is_disabled":false,"rental_uris":{"android":"levelo://app?vid=2003e689-e7ed-4eb8-b25b-72721c8773a0","ios":"levelo://app?vid=2003e689-e7ed-4eb8-b25b-72721c8773a0"},"vehicle_type_id":"4","last_reported":1742062307,"current_range_meters":2800,"station_id":"ce4bhbh2rcd13ifvqepg","pricing_plan_id":"cebpf4jnsgd1na2vs0mg"},{"bike_id":"912e8563-d036-4f6b-9f2c-63d4862b2970","system_id":"levelo_inurba_marseille","lat":43.28378,"lon":5.38636,"is_reserved":false,"is_disabled":false,"rental_uris":{"android":"levelo://app?vid=912e8563-d036-4f6b-9f2c-63d4862b2970","ios":"levelo://app?vid=912e8563-d036-4f6b-9f2c-63d4862b2970"},"vehicle_type_id":"4","last_reported":1742062307,"current_range_meters":2800,"station_id":"ce4bh492rcd13ifvqdvg","pricing_plan_id":"cebpf4jnsgd1na2vs0mg"},{"bike_id":"5635eaab-3b22-426d-899a-dc39b096d2f5","system_id":"levelo_inurba_marseille","lat":43.291005,"lon":5.381288,"is_reserved":false,"is_disabled":false,"rental_uris":{"android":"levelo://app?vid=5635eaab-3b22-426d-899a-dc39b096d2f5","ios":"levelo://app?vid=5635eaab-3b22-426d-899a-dc39b096d2f5"},"vehicle_type_id":"4","last_reported":1742062307,"current_range_meters":3200,"station_id":"cki0cbj6b192h4jlfktg","pricing_plan_id":"cebpf4jnsgd1na2vs0mg"},{"bike_id":"813b3d52-da15-46f3-8c93-bfbad06b2cc9","system_id":"levelo_inurba_marseille","lat":43.29998,"lon":5.38481,"is_reserved":false,"is_disabled":false,"rental_uris":{"android":"levelo://app?vid=813b3d52-da15-46f3-8c93-bfbad06b2cc9","ios":"levelo://app?vid=813b3d52-da15-46f3-8c93-bfbad06b2cc9"},"vehicle_type_id":"4","last_reported":1742062307,"current_range_meters":3200,"station_id":"ce4bgj92rcd13ifvqbd0","pricing_plan_id":"cebpf4jnsgd1na2vs0mg"},{"bike_id":"6d19e35c-1cdb-4d4b-94f1-62f1ceee51e1","system_id":"levelo_inurba_marseille","lat":43.31366,"lon":5.38493,"is_reserved":false,"is_disabled":false,"rental_uris":{"android":"levelo://app?vid=6d19e35c-1cdb-4d4b-94f1-62f1ceee51e1","ios":"levelo://app?vid=6d19e35c-1cdb-4d4b-94f1-62f1ceee51e1"},"vehicle_type_id":"4","last_reported":1742062307,"current_range_meters":3200,"station_id":"ce4bgt92rcd13ifvqcf0","pricing_plan_id":"cebpf4jnsgd1na2vs0mg"},{"bike_id":"4a30ba24-3077-48cf-bf8f-e1ca74328040","system_id":"levelo_inurba_marseille","lat":43.29027,"lon":5.38649,"is_reserved":false,"is_disabled":false,"rental_uris":{"android":"levelo://app?vid=4a30ba24-3077-48cf-bf8f-e1ca74328040","ios":"levelo://app?vid=4a30ba24-3077-48cf-bf8f-e1ca74328040"},"vehicle_type_id":"4","last_reported":1742062307,"current_range_meters":3200,"station_id":"ce4bh4p2rcd13ifvqe0g","pricing_plan_id":"cebpf4jnsgd1na2vs0mg"},{"bike_id":"b5fc927b-8cbe-494d-9135-01f7a786febb","system_id":"levelo_inurba_marseille","lat":43.30436,"lon":5.3889,"is_reserved":false,"is_disabled":false,"rental_uris":{"android":"levelo://app?vid=b5fc927b-8cbe-494d-9135-01f7a786febb","ios":"levelo://app?vid=b5fc927b-8cbe-494d-9135-01f7a786febb"},"vehicle_type_id":"4","last_reported":1742062307,"current_range_meters":3200,"station_id":"ce4bgk12rcd13ifvqbi0","pricing_plan_id":"cebpf4jnsgd1na2vs0mg"},{"bike_id":"6001e555-40a0-45d9-82a6-14d0cefecb44","system_id":"levelo_inurba_marseille","lat":43.258584,"lon":5.399083,"is_reserved":false,"is_disabled":false,"rental_uris":{"android":"levelo://app?vid=6001e555-40a0-45d9-82a6-14d0cefecb44","ios":"levelo://app?vid=6001e555-40a0-45d9-82a6-14d0cefecb44"},"vehicle_type_id":"4","last_reported":1742062307,"current_range_meters":3600,"station_id":"ce4bgpp2rcd13ifvqc3g","pricing_plan_id":"cebpf4jnsgd1na2vs0mg"},{"bike_id":"61542992-8dc5-4930-9d32-f71c683c54fa","system_id":"levelo_inurba_marseille","lat":43.28481,"lon":5.38402,"is_reserved":false,"is_disabled":false,"rental_uris":{"android":"levelo://app?vid=61542992-8dc5-4930-9d32-f71c683c54fa","ios":"levelo://app?vid=61542992-8dc5-4930-9d32-f71c683c54fa"},"vehicle_type_id":"4","last_reported":1742062307,"current_range_meters":3200,"station_id":"ce4bh512rcd13ifvqe3g","pricing_plan_id":"cebpf4jnsgd1na2vs0mg"},{"bike_id":"4489de69-e79b-4217-b581-8ef0bbff1fae","system_id":"levelo_inurba_marseille","lat":43.27949,"lon":5.41039,"is_reserved":false,"is_disabled":false,"rental_uris":{"android":"levelo://app?vid=4489de69-e79b-4217-b581-8ef0bbff1fae","ios":"levelo://app?vid=4489de69-e79b-4217-b581-8ef0bbff1fae"},"vehicle_type_id":"4","last_reported":1742062307,"current_range_meters":3600,"station_id":"ce4bhnp2rcd13ifvqh0g","pricing_plan_id":"cebpf4jnsgd1na2vs0mg"},{"bike_id":"c9a77325-f8b1-4019-854d-81f62533d1bd","system_id":"levelo_inurba_marseille","lat":43.29524,"lon":5.39038,"is_reserved":false,"is_disabled":false,"rental_uris":{"android":"levelo://app?vid=c9a77325-f8b1-4019-854d-81f62533d1bd","ios":"levelo://app?vid=c9a77325-f8b1-4019-854d-81f62533d1bd"},"vehicle_type_id":"4","last_reported":1742062307,"current_range_meters":3600,"station_id":"ce4bh3p2rcd13ifvqdp0","pricing_plan_id":"cebpf4jnsgd1na2vs0mg"},{"bike_id":"81e0a348-5cf5-4857-9e34-2773b6df195f","system_id":"levelo_inurba_marseille","lat":43.30597,"lon":5.39361,"is_reserved":false,"is_disabled":false,"rental_uris":{"android":"levelo://app?vid=81e0a348-5cf5-4857-9e34-2773b6df195f","ios":"levelo://app?vid=81e0a348-5cf5-4857-9e34-2773b6df195f"},"vehicle_type_id":"4","last_reported":1742062307,"current_range_meters":3600,"station_id":"ce4bh0p2rcd13ifvqd80","pricing_plan_id":"cebpf4jnsgd1na2vs0mg"},{"bike_id":"36ec5a15-215b-4367-a3ca-336aadd9a251","system_id":"levelo_inurba_marseille","lat":43.33746,"lon":5.3745,"is_reserved":false,"is_disabled":false,"rental_uris":{"android":"levelo://app?vid=36ec5a15-215b-4367-a3ca-336aadd9a251","ios":"levelo://app?vid=36ec5a15-215b-4367-a3ca-336aadd9a251"},"vehicle_type_id":"4","last_reported":1742062307,"current_range_meters":3600,"station_id":"","pricing_plan_id":"cebpf4jnsgd1na2vs0mg"},{"bike_id":"c75c947b-95e0-45d8-89e5-54f8ed4c6e60","system_id":"levelo_inurba_marseille","lat":43.29531,"lon":5.39046,"is_reserved":false,"is_disabled":false,"rental_uris":{"android":"levelo://app?vid=c75c947b-95e0-45d8-89e5-54f8ed4c6e60","ios":"levelo://app?vid=c75c947b-95e0-45d8-89e5-54f8ed4c6e60"},"vehicle_type_id":"4","last_reported":1742062307,"current_range_meters":4000,"station_id":"ce4bh3p2rcd13ifvqdp0","pricing_plan_id":"cebpf4jnsgd1na2vs0mg"},{"bike_id":"74d4834c-d691-4ceb-bcb6-4a7f07158d94","system_id":"levelo_inurba_marseille","lat":43.29542,"lon":5.39046,"is_reserved":false,"is_disabled":false,"rental_uris":{"android":"levelo://app?vid=74d4834c-d691-4ceb-bcb6-4a7f07158d94","ios":"levelo://app?vid=74d4834c-d691-4ceb-bcb6-4a7f07158d94"},"vehicle_type_id":"4","last_reported":1742062307,"current_range_meters":4000,"station_id":"ce4bh3p2rcd13ifvqdp0","pricing_plan_id":"cebpf4jnsgd1na2vs0mg"},{"bike_id":"c9433ef9-428b-46b9-9099-a928f180043a","system_id":"levelo_inurba_marseille","lat":43.2867,"lon":5.38673,"is_reserved":false,"is_disabled":false,"rental_uris":{"android":"levelo://app?vid=c9433ef9-428b-46b9-9099-a928f180043a","ios":"levelo://app?vid=c9433ef9-428b-46b9-9099-a928f180043a"},"vehicle_type_id":"4","last_reported":1742062307,"current_range_meters":3600,"station_id":"ce4bh492rcd13ifvqdug","pricing_plan_id":"cebpf4jnsgd1na2vs0mg"},{"bike_id":"1d98ae86-18fc-48eb-b2c6-d51b1a8b0f6a","system_id":"levelo_inurba_marseille","lat":43.28379,"lon":5.38619,"is_reserved":false,"is_disabled":false,"rental_uris":{"android":"levelo://app?vid=1d98ae86-18fc-48eb-b2c6-d51b1a8b0f6a","ios":"levelo://app?vid=1d98ae86-18fc-48eb-b2c6-d51b1a8b0f6a"},"vehicle_type_id":"4","last_reported":1742062307,"current_range_meters":4000,"station_id":"ce4bh492rcd13ifvqdvg","pricing_plan_id":"cebpf4jnsgd1na2vs0mg"},{"bike_id":"d029a3e3-9092-4b7a-9837-d77ad428d509","system_id":"levelo_inurba_marseille","lat":43.27988,"lon":5.38771,"is_reserved":false,"is_disabled":false,"rental_uris":{"android":"levelo://app?vid=d029a3e3-9092-4b7a-9837-d77ad428d509","ios":"levelo://app?vid=d029a3e3-9092-4b7a-9837-d77ad428d509"},"vehicle_type_id":"4","last_reported":1742062307,"current_range_meters":4000,"station_id":"ce4bhg12rcd13ifvqf80","pricing_plan_id":"cebpf4jnsgd1na2vs0mg"},{"bike_id":"71ff3fae-848f-4f98-b93e-45ed4912e802","system_id":"levelo_inurba_marseille","lat":43.29038,"lon":5.38664,"is_reserved":false,"is_disabled":false,"rental_uris":{"android":"levelo://app?vid=71ff3fae-848f-4f98-b93e-45ed4912e802","ios":"levelo://app?vid=71ff3fae-848f-4f98-b93e-45ed4912e802"},"vehicle_type_id":"4","last_reported":1742062307,"current_range_meters":3600,"station_id":"ce4bh4p2rcd13ifvqe0g","pricing_plan_id":"cebpf4jnsgd1na2vs0mg"},{"bike_id":"7707dfe5-4b5c-42f8-9a21-94f5638190a7","system_id":"levelo_inurba_marseille","lat":43.289676,"lon":5.378356,"is_reserved":false,"is_disabled":false,"rental_uris":{"android":"levelo://app?vid=7707dfe5-4b5c-42f8-9a21-94f5638190a7","ios":"levelo://app?vid=7707dfe5-4b5c-42f8-9a21-94f5638190a7"},"vehicle_type_id":"4","last_reported":1742062307,"current_range_meters":4000,"station_id":"ce4bh9p2rcd13ifvqed0","pricing_plan_id":"cebpf4jnsgd1na2vs0mg"},{"bike_id":"c15fa73d-ad98-4a36-8e0b-86c809cb70a6","system_id":"levelo_inurba_marseille","lat":43.29796,"lon":5.40396,"is_reserved":false,"is_disabled":false,"rental_uris":{"android":"levelo://app?vid=c15fa73d-ad98-4a36-8e0b-86c809cb70a6","ios":"levelo://app?vid=c15fa73d-ad98-4a36-8e0b-86c809cb70a6"},"vehicle_type_id":"4","last_reported":1742062307,"current_range_meters":4000,"station_id":"ce4bh112rcd13ifvqd90","pricing_plan_id":"cebpf4jnsgd1na2vs0mg"},{"bike_id":"da940fb7-62ec-48cc-95f2-00bbeab8418d","system_id":"levelo_inurba_marseille","lat":43.30889,"lon":5.3965,"is_reserved":false,"is_disabled":false,"rental_uris":{"android":"levelo://app?vid=da940fb7-62ec-48cc-95f2-00bbeab8418d","ios":"levelo://app?vid=da940fb7-62ec-48cc-95f2-00bbeab8418d"},"vehicle_type_id":"4","last_reported":1742062307,"current_range_meters":4000,"station_id":"ce4bh012rcd13ifvqcv0","pricing_plan_id":"cebpf4jnsgd1na2vs0mg"},{"bike_id":"580b5aca-b07a-438d-9b6c-793ecc517b9f","system_id":"levelo_inurba_marseille","lat":43.3014,"lon":5.38803,"is_reserved":false,"is_disabled":false,"rental_uris":{"android":"levelo://app?vid=580b5aca-b07a-438d-9b6c-793ecc517b9f","ios":"levelo://app?vid=580b5aca-b07a-438d-9b6c-793ecc517b9f"},"vehicle_type_id":"4","last_reported":1742062307,"current_range_meters":4000,"station_id":"ce4bghh2rcd13ifvqb60","pricing_plan_id":"cebpf4jnsgd1na2vs0mg"},{"bike_id":"a8db734b-bd7d-4d7a-a437-7c9f339f7518","system_id":"levelo_inurba_marseille","lat":43.29972,"lon":5.38489,"is_reserved":false,"is_disabled":false,"rental_uris":{"android":"levelo://app?vid=a8db734b-bd7d-4d7a-a437-7c9f339f7518","ios":"levelo://app?vid=a8db734b-bd7d-4d7a-a437-7c9f339f7518"},"vehicle_type_id":"4","last_reported":1742062307,"current_range_meters":4400,"station_id":"ce4bgj92rcd13ifvqbd0","pricing_plan_id":"cebpf4jnsgd1na2vs0mg"},{"bike_id":"59314b92-9702-40d9-8712-cd1bad4fbf7b","system_id":"levelo_inurba_marseille","lat":43.28122,"lon":5.39894,"is_reserved":false,"is_disabled":false,"rental_uris":{"android":"levelo://app?vid=59314b92-9702-40d9-8712-cd1bad4fbf7b","ios":"levelo://app?vid=59314b92-9702-40d9-8712-cd1bad4fbf7b"},"vehicle_type_id":"4","last_reported":1742062307,"current_range_meters":4400,"station_id":"","pricing_plan_id":"cebpf4jnsgd1na2vs0mg"},{"bike_id":"1df6feb5-b798-4a57-a0b2-64cd04459733","system_id":"levelo_inurba_marseille","lat":43.29798,"lon":5.38102,"is_reserved":false,"is_disabled":false,"rental_uris":{"android":"levelo://app?vid=1df6feb5-b798-4a57-a0b2-64cd04459733","ios":"levelo://app?vid=1df6feb5-b798-4a57-a0b2-64cd04459733"},"vehicle_type_id":"4","last_reported":1742062307,"current_range_meters":6000,"station_id":"ce4bgip2rcd13ifvqbb0","pricing_plan_id":"cebpf4jnsgd1na2vs0mg"},{"bike_id":"43d81e96-cdcc-4c5d-9b6e-181c13e8e406","system_id":"levelo_inurba_marseille","lat":43.31537,"lon":5.38034,"is_reserved":false,"is_disabled":false,"rental_uris":{"android":"levelo://app?vid=43d81e96-cdcc-4c5d-9b6e-181c13e8e406","ios":"levelo://app?vid=43d81e96-cdcc-4c5d-9b6e-181c13e8e406"},"vehicle_type_id":"4","last_reported":1742062307,"current_range_meters":4400,"station_id":"ce4bhsp2rcd13ifvqi50","pricing_plan_id":"cebpf4jnsgd1na2vs0mg"},{"bike_id":"b132bac4-1a50-4445-9a8f-3e9c1f5649e8","system_id":"levelo_inurba_marseille","lat":43.3117,"lon":5.38717,"is_reserved":false,"is_disabled":false,"rental_uris":{"android":"levelo://app?vid=b132bac4-1a50-4445-9a8f-3e9c1f5649e8","ios":"levelo://app?vid=b132bac4-1a50-4445-9a8f-3e9c1f5649e8"},"vehicle_type_id":"4","last_reported":1742062307,"current_range_meters":4400,"station_id":"ce4bgv12rcd13ifvqcp0","pricing_plan_id":"cebpf4jnsgd1na2vs0mg"},{"bike_id":"70c9beeb-26b7-4860-984d-eebc64b09ee9","system_id":"levelo_inurba_marseille","lat":43.31111,"lon":5.3784,"is_reserved":false,"is_disabled":false,"rental_uris":{"android":"levelo://app?vid=70c9beeb-26b7-4860-984d-eebc64b09ee9","ios":"levelo://app?vid=70c9beeb-26b7-4860-984d-eebc64b09ee9"},"vehicle_type_id":"4","last_reported":1742062307,"current_range_meters":4400,"station_id":"","pricing_plan_id":"cebpf4jnsgd1na2vs0mg"},{"bike_id":"31006a8d-0e08-4d93-8c22-8142fb8b38a7","system_id":"levelo_inurba_marseille","lat":43.28406,"lon":5.37506,"is_reserved":false,"is_disabled":false,"rental_uris":{"android":"levelo://app?vid=31006a8d-0e08-4d93-8c22-8142fb8b38a7","ios":"levelo://app?vid=31006a8d-0e08-4d93-8c22-8142fb8b38a7"},"vehicle_type_id":"4","last_reported":1742062307,"current_range_meters":4400,"station_id":"ce4bh412rcd13ifvqds0","pricing_plan_id":"cebpf4jnsgd1na2vs0mg"},{"bike_id":"564584c6-1cd6-4b35-a15e-3f1d636b73fb","system_id":"levelo_inurba_marseille","lat":43.30535,"lon":5.3842,"is_reserved":false,"is_disabled":false,"rental_uris":{"android":"levelo://app?vid=564584c6-1cd6-4b35-a15e-3f1d636b73fb","ios":"levelo://app?vid=564584c6-1cd6-4b35-a15e-3f1d636b73fb"},"vehicle_type_id":"4","last_reported":1742062307,"current_range_meters":4000,"station_id":"ce4bgg92rcd13ifvqb30","pricing_plan_id":"cebpf4jnsgd1na2vs0mg"},{"bike_id":"70c37a2a-9d1f-4e82-a0f1-fa1ad5459af0","system_id":"levelo_inurba_marseille","lat":43.2902,"lon":5.38635,"is_reserved":false,"is_disabled":false,"rental_uris":{"android":"levelo://app?vid=70c37a2a-9d1f-4e82-a0f1-fa1ad5459af0","ios":"levelo://app?vid=70c37a2a-9d1f-4e82-a0f1-fa1ad5459af0"},"vehicle_type_id":"4","last_reported":1742062307,"current_range_meters":4800,"station_id":"ce4bh4p2rcd13ifvqe0g","pricing_plan_id":"cebpf4jnsgd1na2vs0mg"},{"bike_id":"d647a1f1-e371-4119-b045-486f27db2db2","system_id":"levelo_inurba_marseille","lat":43.28418,"lon":5.34977,"is_reserved":false,"is_disabled":false,"rental_uris":{"android":"levelo://app?vid=d647a1f1-e371-4119-b045-486f27db2db2","ios":"levelo://app?vid=d647a1f1-e371-4119-b045-486f27db2db2"},"vehicle_type_id":"4","last_reported":1742062307,"current_range_meters":4800,"station_id":"ce4bhbh2rcd13ifvqepg","pricing_plan_id":"cebpf4jnsgd1na2vs0mg"},{"bike_id":"006540d6-681d-4757-b66a-75784379e67d","system_id":"levelo_inurba_marseille","lat":43.230608,"lon":5.354916,"is_reserved":false,"is_disabled":false,"rental_uris":{"android":"levelo://app?vid=006540d6-681d-4757-b66a-75784379e67d","ios":"levelo://app?vid=006540d6-681d-4757-b66a-75784379e67d"},"vehicle_type_id":"4","last_reported":1742062307,"current_range_meters":4800,"station_id":"ce4bhu92rcd13ifvqi70","pricing_plan_id":"cebpf4jnsgd1na2vs0mg"},{"bike_id":"e3fb0c16-21b7-4eaf-855c-96791517b956","system_id":"levelo_inurba_marseille","lat":43.26957,"lon":5.38633,"is_reserved":false,"is_disabled":false,"rental_uris":{"android":"levelo://app?vid=e3fb0c16-21b7-4eaf-855c-96791517b956","ios":"levelo://app?vid=e3fb0c16-21b7-4eaf-855c-96791517b956"},"vehicle_type_id":"4","last_reported":1742062307,"current_range_meters":4800,"station_id":"ce4bhh92rcd13ifvqfh0","pricing_plan_id":"cebpf4jnsgd1na2vs0mg"},{"bike_id":"ab1a0683-9c2e-4938-a758-ed7c09018388","system_id":"levelo_inurba_marseille","lat":43.31987,"lon":5.38136,"is_reserved":false,"is_disabled":false,"rental_uris":{"android":"levelo://app?vid=ab1a0683-9c2e-4938-a758-ed7c09018388","ios":"levelo://app?vid=ab1a0683-9c2e-4938-a758-ed7c09018388"},"vehicle_type_id":"4","last_reported":1742062307,"current_range_meters":4800,"station_id":"ce4bhr12rcd13ifvqhpg","pricing_plan_id":"cebpf4jnsgd1na2vs0mg"},{"bike_id":"1b1b8b7a-1bb1-4f65-a070-4a4cf74718ab","system_id":"levelo_inurba_marseille","lat":43.22938,"lon":5.35403,"is_reserved":false,"is_disabled":false,"rental_uris":{"android":"levelo://app?vid=1b1b8b7a-1bb1-4f65-a070-4a4cf74718ab","ios":"levelo://app?vid=1b1b8b7a-1bb1-4f65-a070-4a4cf74718ab"},"vehicle_type_id":"4","last_reported":1742062307,"current_range_meters":4800,"station_id":"cpo3532slgdg3j2ikp40","pricing_plan_id":"cebpf4jnsgd1na2vs0mg"},{"bike_id":"cd2914ff-5ddf-4465-add0-5220dd4b2e6a","system_id":"levelo_inurba_marseille","lat":43.27945,"lon":5.4105,"is_reserved":false,"is_disabled":false,"rental_uris":{"android":"levelo://app?vid=cd2914ff-5ddf-4465-add0-5220dd4b2e6a","ios":"levelo://app?vid=cd2914ff-5ddf-4465-add0-5220dd4b2e6a"},"vehicle_type_id":"4","last_reported":1742062307,"current_range_meters":4800,"station_id":"ce4bhnp2rcd13ifvqh0g","pricing_plan_id":"cebpf4jnsgd1na2vs0mg"},{"bike_id":"08c9e62b-a2db-4350-a8bf-524d7d420d21","system_id":"levelo_inurba_marseille","lat":43.23969,"lon":5.36626,"is_reserved":false,"is_disabled":false,"rental_uris":{"android":"levelo://app?vid=08c9e62b-a2db-4350-a8bf-524d7d420d21","ios":"levelo://app?vid=08c9e62b-a2db-4350-a8bf-524d7d420d21"},"vehicle_type_id":"4","last_reported":1742062307,"current_range_meters":4400,"station_id":"ce4bhi12rcd13ifvqfp0","pricing_plan_id":"cebpf4jnsgd1na2vs0mg"},{"bike_id":"431debac-412d-4166-b0e1-dc38d9eaae5c","system_id":"levelo_inurba_marseille","lat":43.29622,"lon":5.37735,"is_reserved":false,"is_disabled":false,"rental_uris":{"android":"levelo://app?vid=431debac-412d-4166-b0e1-dc38d9eaae5c","ios":"levelo://app?vid=431debac-412d-4166-b0e1-dc38d9eaae5c"},"vehicle_type_id":"4","last_reported":1742062307,"current_range_meters":4800,"station_id":"ce4bgi92rcd13ifvqb90","pricing_plan_id":"cebpf4jnsgd1na2vs0mg"},{"bike_id":"340488f0-9988-427b-a9bc-7386c392af7a","system_id":"levelo_inurba_marseille","lat":43.25728,"lon":5.41109,"is_reserved":false,"is_disabled":false,"rental_uris":{"android":"levelo://app?vid=340488f0-9988-427b-a9bc-7386c392af7a","ios":"levelo://app?vid=340488f0-9988-427b-a9bc-7386c392af7a"},"vehicle_type_id":"4","last_reported":1742062307,"current_range_meters":5600,"station_id":"ce4bhkp2rcd13ifvqgd0","pricing_plan_id":"cebpf4jnsgd1na2vs0mg"},{"bike_id":"849a1ccd-15ca-4d28-bf29-933bb3261288","system_id":"levelo_inurba_marseille","lat":43.30824,"lon":5.39196,"is_reserved":false,"is_disabled":false,"rental_uris":{"android":"levelo://app?vid=849a1ccd-15ca-4d28-bf29-933bb3261288","ios":"levelo://app?vid=849a1ccd-15ca-4d28-bf29-933bb3261288"},"vehicle_type_id":"4","last_reported":1742062307,"current_range_meters":5600,"station_id":"ce4bgv12rcd13ifvqcp0","pricing_plan_id":"cebpf4jnsgd1na2vs0mg"},{"bike_id":"fa5894d7-1c98-4f78-8661-afc7d0ea5566","system_id":"levelo_inurba_marseille","lat":43.26939,"lon":5.40333,"is_reserved":false,"is_disabled":false,"rental_uris":{"android":"levelo://app?vid=fa5894d7-1c98-4f78-8661-afc7d0ea5566","ios":"levelo://app?vid=fa5894d7-1c98-4f78-8661-afc7d0ea5566"},"vehicle_type_id":"4","last_reported":1742062307,"current_range_meters":5600,"station_id":"","pricing_plan_id":"cebpf4jnsgd1na2vs0mg"},{"bike_id":"d9ee2106-bdc4-4370-8844-cb38c7f204a7","system_id":"levelo_inurba_marseille","lat":43.29802,"lon":5.38099,"is_reserved":false,"is_disabled":false,"rental_uris":{"android":"levelo://app?vid=d9ee2106-bdc4-4370-8844-cb38c7f204a7","ios":"levelo://app?vid=d9ee2106-bdc4-4370-8844-cb38c7f204a7"},"vehicle_type_id":"4","last_reported":1742062307,"current_range_meters":5600,"station_id":"ce4bgip2rcd13ifvqbb0","pricing_plan_id":"cebpf4jnsgd1na2vs0mg"},{"bike_id":"96c95cc5-3655-4976-bd9e-8b622b598117","system_id":"levelo_inurba_marseille","lat":43.27997,"lon":5.41676,"is_reserved":false,"is_disabled":true,"rental_uris":{"android":"levelo://app?vid=96c95cc5-3655-4976-bd9e-8b622b598117","ios":"levelo://app?vid=96c95cc5-3655-4976-bd9e-8b622b598117"},"vehicle_type_id":"4","last_reported":1742062307,"current_range_meters":5600,"station_id":"ce4bho12rcd13ifvqh1g","pricing_plan_id":"cebpf4jnsgd1na2vs0mg"},{"bike_id":"d5c92bbd-bd28-405c-afcb-3cd59dfbd0b0","system_id":"levelo_inurba_marseille","lat":43.30248,"lon":5.40063,"is_reserved":false,"is_disabled":false,"rental_uris":{"android":"levelo://app?vid=d5c92bbd-bd28-405c-afcb-3cd59dfbd0b0","ios":"levelo://app?vid=d5c92bbd-bd28-405c-afcb-3cd59dfbd0b0"},"vehicle_type_id":"4","last_reported":1742062307,"current_range_meters":4800,"station_id":"ce4bgvh2rcd13ifvqcs0","pricing_plan_id":"cebpf4jnsgd1na2vs0mg"},{"bike_id":"dfb1890d-a53d-42f7-a687-0bca1634d203","system_id":"levelo_inurba_marseille","lat":43.27002,"lon":5.38708,"is_reserved":false,"is_disabled":false,"rental_uris":{"android":"levelo://app?vid=dfb1890d-a53d-42f7-a687-0bca1634d203","ios":"levelo://app?vid=dfb1890d-a53d-42f7-a687-0bca1634d203"},"vehicle_type_id":"4","last_reported":1742062307,"current_range_meters":5600,"station_id":"","pricing_plan_id":"cebpf4jnsgd1na2vs0mg"},{"bike_id":"b8dc8f59-88b2-4cec-b5bd-26e833ba9750","system_id":"levelo_inurba_marseille","lat":43.32492,"lon":5.36569,"is_reserved":false,"is_disabled":true,"rental_uris":{"android":"levelo://app?vid=b8dc8f59-88b2-4cec-b5bd-26e833ba9750","ios":"levelo://app?vid=b8dc8f59-88b2-4cec-b5bd-26e833ba9750"},"vehicle_type_id":"4","last_reported":1742062307,"current_range_meters":5600,"station_id":"ce4bhs12rcd13ifvqhvg","pricing_plan_id":"cebpf4jnsgd1na2vs0mg"},{"bike_id":"501be339-1c19-4d06-9051-86ecab057e18","system_id":"levelo_inurba_marseille","lat":43.291409,"lon":5.379175,"is_reserved":false,"is_disabled":false,"rental_uris":{"android":"levelo://app?vid=501be339-1c19-4d06-9051-86ecab057e18","ios":"levelo://app?vid=501be339-1c19-4d06-9051-86ecab057e18"},"vehicle_type_id":"4","last_reported":1742062307,"current_range_meters":6000,"station_id":"ce4bgop2rcd13ifvqc1g","pricing_plan_id":"cebpf4jnsgd1na2vs0mg"},{"bike_id":"c53f0866-36a3-43b0-814f-a11b1bce09aa","system_id":"levelo_inurba_marseille","lat":43.27815,"lon":5.40722,"is_reserved":false,"is_disabled":false,"rental_uris":{"android":"levelo://app?vid=c53f0866-36a3-43b0-814f-a11b1bce09aa","ios":"levelo://app?vid=c53f0866-36a3-43b0-814f-a11b1bce09aa"},"vehicle_type_id":"4","last_reported":1742062307,"current_range_meters":5600,"station_id":"ce4bhnh2rcd13ifvqgtg","pricing_plan_id":"cebpf4jnsgd1na2vs0mg"},{"bike_id":"eee32a22-1163-43a2-9b21-4932345dda2a","system_id":"levelo_inurba_marseille","lat":43.28493,"lon":5.38542,"is_reserved":false,"is_disabled":false,"rental_uris":{"android":"levelo://app?vid=eee32a22-1163-43a2-9b21-4932345dda2a","ios":"levelo://app?vid=eee32a22-1163-43a2-9b21-4932345dda2a"},"vehicle_type_id":"4","last_reported":1742062307,"current_range_meters":6000,"station_id":"ce4bh8p2rcd13ifvqeb0","pricing_plan_id":"cebpf4jnsgd1na2vs0mg"},{"bike_id":"9e47f4dd-e296-4fc3-ba49-3cb504725941","system_id":"levelo_inurba_marseille","lat":43.27997,"lon":5.40028,"is_reserved":false,"is_disabled":false,"rental_uris":{"android":"levelo://app?vid=9e47f4dd-e296-4fc3-ba49-3cb504725941","ios":"levelo://app?vid=9e47f4dd-e296-4fc3-ba49-3cb504725941"},"vehicle_type_id":"4","last_reported":1742062307,"current_range_meters":6000,"station_id":"ce4bho92rcd13ifvqh4g","pricing_plan_id":"cebpf4jnsgd1na2vs0mg"},{"bike_id":"32e54212-bcb0-4c34-9b2b-debf9a0c5310","system_id":"levelo_inurba_marseille","lat":43.2954,"lon":5.39025,"is_reserved":false,"is_disabled":false,"rental_uris":{"android":"levelo://app?vid=32e54212-bcb0-4c34-9b2b-debf9a0c5310","ios":"levelo://app?vid=32e54212-bcb0-4c34-9b2b-debf9a0c5310"},"vehicle_type_id":"4","last_reported":1742062307,"current_range_meters":6400,"station_id":"ce4bh3p2rcd13ifvqdp0","pricing_plan_id":"cebpf4jnsgd1na2vs0mg"},{"bike_id":"f5d879b5-4e8a-4e91-bc2b-907eff703e2f","system_id":"levelo_inurba_marseille","lat":43.24659,"lon":5.38166,"is_reserved":false,"is_disabled":false,"rental_uris":{"android":"levelo://app?vid=f5d879b5-4e8a-4e91-bc2b-907eff703e2f","ios":"levelo://app?vid=f5d879b5-4e8a-4e91-bc2b-907eff703e2f"},"vehicle_type_id":"4","last_reported":1742062307,"current_range_meters":6400,"station_id":"ce4bhih2rcd13ifvqfr0","pricing_plan_id":"cebpf4jnsgd1na2vs0mg"},{"bike_id":"a9751797-0237-4d2d-a6e1-8d4ff3202f9c","system_id":"levelo_inurba_marseille","lat":43.28721,"lon":5.36086,"is_reserved":false,"is_disabled":false,"rental_uris":{"android":"levelo://app?vid=a9751797-0237-4d2d-a6e1-8d4ff3202f9c","ios":"levelo://app?vid=a9751797-0237-4d2d-a6e1-8d4ff3202f9c"},"vehicle_type_id":"4","last_reported":1742062307,"current_range_meters":6400,"station_id":"cki0cbj6b192h4jlfktg","pricing_plan_id":"cebpf4jnsgd1na2vs0mg"},{"bike_id":"918a6af5-5e6d-46c2-a2fb-b31588b6e3b4","system_id":"levelo_inurba_marseille","lat":43.29258,"lon":5.37626,"is_reserved":false,"is_disabled":false,"rental_uris":{"android":"levelo://app?vid=918a6af5-5e6d-46c2-a2fb-b31588b6e3b4","ios":"levelo://app?vid=918a6af5-5e6d-46c2-a2fb-b31588b6e3b4"},"vehicle_type_id":"4","last_reported":1742062307,"current_range_meters":6400,"station_id":"ce4bgi12rcd13ifvqb80","pricing_plan_id":"cebpf4jnsgd1na2vs0mg"},{"bike_id":"36c7567d-bf94-4f07-b200-0dd9cc40b546","system_id":"levelo_inurba_marseille","lat":43.28433,"lon":5.35016,"is_reserved":false,"is_disabled":true,"rental_uris":{"android":"levelo://app?vid=36c7567d-bf94-4f07-b200-0dd9cc40b546","ios":"levelo://app?vid=36c7567d-bf94-4f07-b200-0dd9cc40b546"},"vehicle_type_id":"4","last_reported":1742062307,"current_range_meters":6400,"station_id":"ce4bhbh2rcd13ifvqepg","pricing_plan_id":"cebpf4jnsgd1na2vs0mg"},{"bike_id":"9b99f2c2-9b85-42b3-b993-628abcc703e1","system_id":"levelo_inurba_marseille","lat":43.29034,"lon":5.38642,"is_reserved":false,"is_disabled":false,"rental_uris":{"android":"levelo://app?vid=9b99f2c2-9b85-42b3-b993-628abcc703e1","ios":"levelo://app?vid=9b99f2c2-9b85-42b3-b993-628abcc703e1"},"vehicle_type_id":"4","last_reported":1742062307,"current_range_meters":6400,"station_id":"ce4bh4p2rcd13ifvqe0g","pricing_plan_id":"cebpf4jnsgd1na2vs0mg"},{"bike_id":"03ea6c2c-038e-4919-9e03-a60597c05eeb","system_id":"levelo_inurba_marseille","lat":43.28847,"lon":5.35851,"is_reserved":false,"is_disabled":false,"rental_uris":{"android":"levelo://app?vid=03ea6c2c-038e-4919-9e03-a60597c05eeb","ios":"levelo://app?vid=03ea6c2c-038e-4919-9e03-a60597c05eeb"},"vehicle_type_id":"4","last_reported":1742062307,"current_range_meters":6000,"station_id":"ce4bhb12rcd13ifvqem0","pricing_plan_id":"cebpf4jnsgd1na2vs0mg"},{"bike_id":"42e0d095-c27c-493a-86ff-99abf613206f","system_id":"levelo_inurba_marseille","lat":43.29041,"lon":5.39965,"is_reserved":false,"is_disabled":false,"rental_uris":{"android":"levelo://app?vid=42e0d095-c27c-493a-86ff-99abf613206f","ios":"levelo://app?vid=42e0d095-c27c-493a-86ff-99abf613206f"},"vehicle_type_id":"4","last_reported":1742062307,"current_range_meters":6800,"station_id":"ce4bh392rcd13ifvqdm0","pricing_plan_id":"cebpf4jnsgd1na2vs0mg"},{"bike_id":"82aa4d1e-6c2e-4ca0-b766-99350143f347","system_id":"levelo_inurba_marseille","lat":43.28635,"lon":5.35094,"is_reserved":false,"is_disabled":false,"rental_uris":{"android":"levelo://app?vid=82aa4d1e-6c2e-4ca0-b766-99350143f347","ios":"levelo://app?vid=82aa4d1e-6c2e-4ca0-b766-99350143f347"},"vehicle_type_id":"4","last_reported":1742062307,"current_range_meters":6400,"station_id":"ce4bhch2rcd13ifvqeug","pricing_plan_id":"cebpf4jnsgd1na2vs0mg"},{"bike_id":"d336da11-e642-4f7a-a740-447e8d0b494f","system_id":"levelo_inurba_marseille","lat":43.29967,"lon":5.38497,"is_reserved":false,"is_disabled":false,"rental_uris":{"android":"levelo://app?vid=d336da11-e642-4f7a-a740-447e8d0b494f","ios":"levelo://app?vid=d336da11-e642-4f7a-a740-447e8d0b494f"},"vehicle_type_id":"4","last_reported":1742062307,"current_range_meters":6400,"station_id":"ce4bgj92rcd13ifvqbd0","pricing_plan_id":"cebpf4jnsgd1na2vs0mg"},{"bike_id":"4fe4d210-e03d-4ccc-838d-b050dae311fa","system_id":"levelo_inurba_marseille","lat":43.30138,"lon":5.38789,"is_reserved":false,"is_disabled":false,"rental_uris":{"android":"levelo://app?vid=4fe4d210-e03d-4ccc-838d-b050dae311fa","ios":"levelo://app?vid=4fe4d210-e03d-4ccc-838d-b050dae311fa"},"vehicle_type_id":"4","last_reported":1742062307,"current_range_meters":6400,"station_id":"ce4bghh2rcd13ifvqb60","pricing_plan_id":"cebpf4jnsgd1na2vs0mg"},{"bike_id":"2058fab6-311b-4b23-b150-0c1291f3dcc6","system_id":"levelo_inurba_marseille","lat":43.291,"lon":5.3812,"is_reserved":false,"is_disabled":false,"rental_uris":{"android":"levelo://app?vid=2058fab6-311b-4b23-b150-0c1291f3dcc6","ios":"levelo://app?vid=2058fab6-311b-4b23-b150-0c1291f3dcc6"},"vehicle_type_id":"4","last_reported":1742062307,"current_range_meters":400,"station_id":"ce4bh512rcd13ifvqe2g","pricing_plan_id":"cebpf4jnsgd1na2vs0mg"},{"bike_id":"ecb68a85-bba2-4987-8def-b5d75752ab33","system_id":"levelo_inurba_marseille","lat":43.2791,"lon":5.38009,"is_reserved":false,"is_disabled":false,"rental_uris":{"android":"levelo://app?vid=ecb68a85-bba2-4987-8def-b5d75752ab33","ios":"levelo://app?vid=ecb68a85-bba2-4987-8def-b5d75752ab33"},"vehicle_type_id":"4","last_reported":1742062307,"current_range_meters":6800,"station_id":"ce4bhf92rcd13ifvqf50","pricing_plan_id":"cebpf4jnsgd1na2vs0mg"},{"bike_id":"48f968e9-2670-450c-9a50-b12a7ac1907f","system_id":"levelo_inurba_marseille","lat":43.25718,"lon":5.41115,"is_reserved":false,"is_disabled":false,"rental_uris":{"android":"levelo://app?vid=48f968e9-2670-450c-9a50-b12a7ac1907f","ios":"levelo://app?vid=48f968e9-2670-450c-9a50-b12a7ac1907f"},"vehicle_type_id":"4","last_reported":1742062307,"current_range_meters":6800,"station_id":"ce4bhkp2rcd13ifvqgd0","pricing_plan_id":"cebpf4jnsgd1na2vs0mg"},{"bike_id":"0e9ba241-7534-4624-a58d-e2f14234b7c6","system_id":"levelo_inurba_marseille","lat":43.28851,"lon":5.39299,"is_reserved":false,"is_disabled":false,"rental_uris":{"android":"levelo://app?vid=0e9ba241-7534-4624-a58d-e2f14234b7c6","ios":"levelo://app?vid=0e9ba241-7534-4624-a58d-e2f14234b7c6"},"vehicle_type_id":"4","last_reported":1742062307,"current_range_meters":6800,"station_id":"ce4bh2p2rcd13ifvqdi0","pricing_plan_id":"cebpf4jnsgd1na2vs0mg"},{"bike_id":"a8e67676-89ba-43e0-82dc-5ef4b0a5e328","system_id":"levelo_inurba_marseille","lat":43.31625,"lon":5.38623,"is_reserved":false,"is_disabled":false,"rental_uris":{"android":"levelo://app?vid=a8e67676-89ba-43e0-82dc-5ef4b0a5e328","ios":"levelo://app?vid=a8e67676-89ba-43e0-82dc-5ef4b0a5e328"},"vehicle_type_id":"4","last_reported":1742062307,"current_range_meters":6800,"station_id":"","pricing_plan_id":"cebpf4jnsgd1na2vs0mg"},{"bike_id":"b0709da0-3c86-4780-b61d-85667e937cc9","system_id":"levelo_inurba_marseille","lat":43.28423,"lon":5.34974,"is_reserved":false,"is_disabled":false,"rental_uris":{"android":"levelo://app?vid=b0709da0-3c86-4780-b61d-85667e937cc9","ios":"levelo://app?vid=b0709da0-3c86-4780-b61d-85667e937cc9"},"vehicle_type_id":"4","last_reported":1742062307,"current_range_meters":6800,"station_id":"ce4bhbh2rcd13ifvqepg","pricing_plan_id":"cebpf4jnsgd1na2vs0mg"},{"bike_id":"9e763656-124f-449b-8369-476a0acf3318","system_id":"levelo_inurba_marseille","lat":43.2907,"lon":5.37156,"is_reserved":false,"is_disabled":false,"rental_uris":{"android":"levelo://app?vid=9e763656-124f-449b-8369-476a0acf3318","ios":"levelo://app?vid=9e763656-124f-449b-8369-476a0acf3318"},"vehicle_type_id":"4","last_reported":1742062307,"current_range_meters":6800,"station_id":"ce4bh5p2rcd13ifvqe4g","pricing_plan_id":"cebpf4jnsgd1na2vs0mg"},{"bike_id":"4fba7e23-c0bd-469b-817e-c2e00b4ad63a","system_id":"levelo_inurba_marseille","lat":43.29035,"lon":5.38648,"is_reserved":false,"is_disabled":false,"rental_uris":{"android":"levelo://app?vid=4fba7e23-c0bd-469b-817e-c2e00b4ad63a","ios":"levelo://app?vid=4fba7e23-c0bd-469b-817e-c2e00b4ad63a"},"vehicle_type_id":"4","last_reported":1742062307,"current_range_meters":6800,"station_id":"ce4bh4p2rcd13ifvqe0g","pricing_plan_id":"cebpf4jnsgd1na2vs0mg"},{"bike_id":"c491e804-fc87-4c1d-bae5-12449e8e3260","system_id":"levelo_inurba_marseille","lat":43.29977,"lon":5.38514,"is_reserved":false,"is_disabled":false,"rental_uris":{"android":"levelo://app?vid=c491e804-fc87-4c1d-bae5-12449e8e3260","ios":"levelo://app?vid=c491e804-fc87-4c1d-bae5-12449e8e3260"},"vehicle_type_id":"4","last_reported":1742062307,"current_range_meters":6800,"station_id":"ce4bgj92rcd13ifvqbd0","pricing_plan_id":"cebpf4jnsgd1na2vs0mg"},{"bike_id":"ad9b219a-9020-4804-8dfd-0056419e9a43","system_id":"levelo_inurba_marseille","lat":43.29852,"lon":5.36285,"is_reserved":false,"is_disabled":false,"rental_uris":{"android":"levelo://app?vid=ad9b219a-9020-4804-8dfd-0056419e9a43","ios":"levelo://app?vid=ad9b219a-9020-4804-8dfd-0056419e9a43"},"vehicle_type_id":"4","last_reported":1742062307,"current_range_meters":6800,"station_id":"ce4bgpp2rcd13ifvqc3g","pricing_plan_id":"cebpf4jnsgd1na2vs0mg"},{"bike_id":"1da7d9bd-d61d-4663-b905-5c0682aa97f4","system_id":"levelo_inurba_marseille","lat":43.29517,"lon":5.39041,"is_reserved":false,"is_disabled":false,"rental_uris":{"android":"levelo://app?vid=1da7d9bd-d61d-4663-b905-5c0682aa97f4","ios":"levelo://app?vid=1da7d9bd-d61d-4663-b905-5c0682aa97f4"},"vehicle_type_id":"4","last_reported":1742062307,"current_range_meters":7200,"station_id":"ce4bh3p2rcd13ifvqdp0","pricing_plan_id":"cebpf4jnsgd1na2vs0mg"},{"bike_id":"daa3b352-95ac-42cd-a611-cfbcd1306a00","system_id":"levelo_inurba_marseille","lat":43.33611,"lon":5.41032,"is_reserved":false,"is_disabled":false,"rental_uris":{"android":"levelo://app?vid=daa3b352-95ac-42cd-a611-cfbcd1306a00","ios":"levelo://app?vid=daa3b352-95ac-42cd-a611-cfbcd1306a00"},"vehicle_type_id":"4","last_reported":1742062307,"current_range_meters":7200,"station_id":"ce4bhqh2rcd13ifvqhmg","pricing_plan_id":"cebpf4jnsgd1na2vs0mg"},{"bike_id":"b2a9d6a0-4c39-4344-9cc9-3b250f7b0712","system_id":"levelo_inurba_marseille","lat":43.28952,"lon":5.36405,"is_reserved":false,"is_disabled":false,"rental_uris":{"android":"levelo://app?vid=b2a9d6a0-4c39-4344-9cc9-3b250f7b0712","ios":"levelo://app?vid=b2a9d6a0-4c39-4344-9cc9-3b250f7b0712"},"vehicle_type_id":"4","last_reported":1742062307,"current_range_meters":7200,"station_id":"ce4bhc92rcd13ifvqetg","pricing_plan_id":"cebpf4jnsgd1na2vs0mg"},{"bike_id":"294e6385-0ebb-468a-be78-284807caaaf8","system_id":"levelo_inurba_marseille","lat":43.28424,"lon":5.34981,"is_reserved":false,"is_disabled":false,"rental_uris":{"android":"levelo://app?vid=294e6385-0ebb-468a-be78-284807caaaf8","ios":"levelo://app?vid=294e6385-0ebb-468a-be78-284807caaaf8"},"vehicle_type_id":"4","last_reported":1742062307,"current_range_meters":7200,"station_id":"ce4bhbh2rcd13ifvqepg","pricing_plan_id":"cebpf4jnsgd1na2vs0mg"},{"bike_id":"355fb77e-22da-4ed4-bab8-f395a5c5d15a","system_id":"levelo_inurba_marseille","lat":43.24677,"lon":5.38148,"is_reserved":false,"is_disabled":false,"rental_uris":{"android":"levelo://app?vid=355fb77e-22da-4ed4-bab8-f395a5c5d15a","ios":"levelo://app?vid=355fb77e-22da-4ed4-bab8-f395a5c5d15a"},"vehicle_type_id":"4","last_reported":1742062307,"current_range_meters":7200,"station_id":"ce4bhih2rcd13ifvqfr0","pricing_plan_id":"cebpf4jnsgd1na2vs0mg"},{"bike_id":"bd7fb638-a561-41df-90ca-f32685780427","system_id":"levelo_inurba_marseille","lat":43.22928,"lon":5.35374,"is_reserved":false,"is_disabled":false,"rental_uris":{"android":"levelo://app?vid=bd7fb638-a561-41df-90ca-f32685780427","ios":"levelo://app?vid=bd7fb638-a561-41df-90ca-f32685780427"},"vehicle_type_id":"4","last_reported":1742062307,"current_range_meters":7200,"station_id":"cpo3532slgdg3j2ikp40","pricing_plan_id":"cebpf4jnsgd1na2vs0mg"},{"bike_id":"0effbbb8-a931-404a-a47c-69bda0c677cc","system_id":"levelo_inurba_marseille","lat":43.22924,"lon":5.35415,"is_reserved":false,"is_disabled":false,"rental_uris":{"android":"levelo://app?vid=0effbbb8-a931-404a-a47c-69bda0c677cc","ios":"levelo://app?vid=0effbbb8-a931-404a-a47c-69bda0c677cc"},"vehicle_type_id":"4","last_reported":1742062307,"current_range_meters":7200,"station_id":"cpo3532slgdg3j2ikp40","pricing_plan_id":"cebpf4jnsgd1na2vs0mg"},{"bike_id":"31a0334a-e232-4ef2-8523-76e80a04f75f","system_id":"levelo_inurba_marseille","lat":43.29227,"lon":5.36062,"is_reserved":false,"is_disabled":false,"rental_uris":{"android":"levelo://app?vid=31a0334a-e232-4ef2-8523-76e80a04f75f","ios":"levelo://app?vid=31a0334a-e232-4ef2-8523-76e80a04f75f"},"vehicle_type_id":"4","last_reported":1742062307,"current_range_meters":7200,"station_id":"ce4bhbh2rcd13ifvqeqg","pricing_plan_id":"cebpf4jnsgd1na2vs0mg"},{"bike_id":"10bfbf93-f469-4c3a-81e0-401668958ed6","system_id":"levelo_inurba_marseille","lat":43.28428,"lon":5.34997,"is_reserved":false,"is_disabled":false,"rental_uris":{"android":"levelo://app?vid=10bfbf93-f469-4c3a-81e0-401668958ed6","ios":"levelo://app?vid=10bfbf93-f469-4c3a-81e0-401668958ed6"},"vehicle_type_id":"4","last_reported":1742062307,"current_range_meters":7200,"station_id":"ce4bhbh2rcd13ifvqepg","pricing_plan_id":"cebpf4jnsgd1na2vs0mg"},{"bike_id":"15e0842b-c269-4b51-b18c-f3cdac772bc0","system_id":"levelo_inurba_marseille","lat":43.29972,"lon":5.38491,"is_reserved":false,"is_disabled":false,"rental_uris":{"android":"levelo://app?vid=15e0842b-c269-4b51-b18c-f3cdac772bc0","ios":"levelo://app?vid=15e0842b-c269-4b51-b18c-f3cdac772bc0"},"vehicle_type_id":"4","last_reported":1742062307,"current_range_meters":7200,"station_id":"ce4bgj92rcd13ifvqbd0","pricing_plan_id":"cebpf4jnsgd1na2vs0mg"},{"bike_id":"3632362f-b9b0-468b-918a-66ceca772a7a","system_id":"levelo_inurba_marseille","lat":43.28413,"lon":5.37506,"is_reserved":false,"is_disabled":false,"rental_uris":{"android":"levelo://app?vid=3632362f-b9b0-468b-918a-66ceca772a7a","ios":"levelo://app?vid=3632362f-b9b0-468b-918a-66ceca772a7a"},"vehicle_type_id":"4","last_reported":1742062307,"current_range_meters":7200,"station_id":"ce4bh412rcd13ifvqds0","pricing_plan_id":"cebpf4jnsgd1na2vs0mg"},{"bike_id":"2ec0f046-4e68-4150-a618-5c892d6b2cb5","system_id":"levelo_inurba_marseille","lat":43.26242,"lon":5.40457,"is_reserved":false,"is_disabled":false,"rental_uris":{"android":"levelo://app?vid=2ec0f046-4e68-4150-a618-5c892d6b2cb5","ios":"levelo://app?vid=2ec0f046-4e68-4150-a618-5c892d6b2cb5"},"vehicle_type_id":"4","last_reported":1742062307,"current_range_meters":7200,"station_id":"ce4bhmh2rcd13ifvqgmg","pricing_plan_id":"cebpf4jnsgd1na2vs0mg"},{"bike_id":"988fb985-687c-45ee-a027-e1778614df3f","system_id":"levelo_inurba_marseille","lat":43.28576,"lon":5.39499,"is_reserved":false,"is_disabled":false,"rental_uris":{"android":"levelo://app?vid=988fb985-687c-45ee-a027-e1778614df3f","ios":"levelo://app?vid=988fb985-687c-45ee-a027-e1778614df3f"},"vehicle_type_id":"4","last_reported":1742062307,"current_range_meters":7200,"station_id":"ce4bh292rcd13ifvqdg0","pricing_plan_id":"cebpf4jnsgd1na2vs0mg"},{"bike_id":"5f3f62b5-aab8-4340-847e-c1296fae69db","system_id":"levelo_inurba_marseille","lat":43.29454,"lon":5.39744,"is_reserved":false,"is_disabled":false,"rental_uris":{"android":"levelo://app?vid=5f3f62b5-aab8-4340-847e-c1296fae69db","ios":"levelo://app?vid=5f3f62b5-aab8-4340-847e-c1296fae69db"},"vehicle_type_id":"4","last_reported":1742062307,"current_range_meters":8000,"station_id":"ce4bh3h2rcd13ifvqdo0","pricing_plan_id":"cebpf4jnsgd1na2vs0mg"},{"bike_id":"d4fc173d-681a-4e41-b8cb-9b4d19a7b40c","system_id":"levelo_inurba_marseille","lat":43.25826,"lon":5.39438,"is_reserved":false,"is_disabled":false,"rental_uris":{"android":"levelo://app?vid=d4fc173d-681a-4e41-b8cb-9b4d19a7b40c","ios":"levelo://app?vid=d4fc173d-681a-4e41-b8cb-9b4d19a7b40c"},"vehicle_type_id":"4","last_reported":1742062307,"current_range_meters":8000,"station_id":"ce4bhip2rcd13ifvqft0","pricing_plan_id":"cebpf4jnsgd1na2vs0mg"},{"bike_id":"48e3852f-35f5-4e9a-b643-6d02089bb747","system_id":"levelo_inurba_marseille","lat":43.29159,"lon":5.3806,"is_reserved":false,"is_disabled":false,"rental_uris":{"android":"levelo://app?vid=48e3852f-35f5-4e9a-b643-6d02089bb747","ios":"levelo://app?vid=48e3852f-35f5-4e9a-b643-6d02089bb747"},"vehicle_type_id":"4","last_reported":1742062307,"current_range_meters":8000,"station_id":"ce4bh0h2rcd13ifvqd40","pricing_plan_id":"cebpf4jnsgd1na2vs0mg"},{"bike_id":"8a5bd971-61c1-4475-933b-dffdb284dd01","system_id":"levelo_inurba_marseille","lat":43.25005,"lon":5.38931,"is_reserved":false,"is_disabled":false,"rental_uris":{"android":"levelo://app?vid=8a5bd971-61c1-4475-933b-dffdb284dd01","ios":"levelo://app?vid=8a5bd971-61c1-4475-933b-dffdb284dd01"},"vehicle_type_id":"4","last_reported":1742062307,"current_range_meters":8000,"station_id":"ce4bhgp2rcd13ifvqfd0","pricing_plan_id":"cebpf4jnsgd1na2vs0mg"},{"bike_id":"9ea681f5-2767-4a71-91eb-48c71cac8a2b","system_id":"levelo_inurba_marseille","lat":43.27972,"lon":5.38739,"is_reserved":false,"is_disabled":false,"rental_uris":{"android":"levelo://app?vid=9ea681f5-2767-4a71-91eb-48c71cac8a2b","ios":"levelo://app?vid=9ea681f5-2767-4a71-91eb-48c71cac8a2b"},"vehicle_type_id":"4","last_reported":1742062307,"current_range_meters":6800,"station_id":"ce4bhg12rcd13ifvqf80","pricing_plan_id":"cebpf4jnsgd1na2vs0mg"},{"bike_id":"88c2ec9c-c2ee-474d-a6aa-dbb7a53fc0ca","system_id":"levelo_inurba_marseille","lat":43.24182,"lon":5.39736,"is_reserved":false,"is_disabled":true,"rental_uris":{"android":"levelo://app?vid=88c2ec9c-c2ee-474d-a6aa-dbb7a53fc0ca","ios":"levelo://app?vid=88c2ec9c-c2ee-474d-a6aa-dbb7a53fc0ca"},"vehicle_type_id":"4","last_reported":1742062307,"current_range_meters":8000,"station_id":"ce4bhn12rcd13ifvqgpg","pricing_plan_id":"cebpf4jnsgd1na2vs0mg"},{"bike_id":"14672f34-519d-4b00-bfd5-d6ee5ef72e99","system_id":"levelo_inurba_marseille","lat":43.2481,"lon":5.3746,"is_reserved":false,"is_disabled":false,"rental_uris":{"android":"levelo://app?vid=14672f34-519d-4b00-bfd5-d6ee5ef72e99","ios":"levelo://app?vid=14672f34-519d-4b00-bfd5-d6ee5ef72e99"},"vehicle_type_id":"4","last_reported":1742062307,"current_range_meters":8000,"station_id":"ce4bhgh2rcd13ifvqfb0","pricing_plan_id":"cebpf4jnsgd1na2vs0mg"},{"bike_id":"05c70a7a-86e2-4ec8-a1d1-c1288539ed36","system_id":"levelo_inurba_marseille","lat":43.26573,"lon":5.39006,"is_reserved":false,"is_disabled":false,"rental_uris":{"android":"levelo://app?vid=05c70a7a-86e2-4ec8-a1d1-c1288539ed36","ios":"levelo://app?vid=05c70a7a-86e2-4ec8-a1d1-c1288539ed36"},"vehicle_type_id":"4","last_reported":1742062307,"current_range_meters":8000,"station_id":"ce4bhe12rcd13ifvqf30","pricing_plan_id":"cebpf4jnsgd1na2vs0mg"},{"bike_id":"0fa7f06d-4d6c-4d97-b8d9-bce44d43c22f","system_id":"levelo_inurba_marseille","lat":43.29313,"lon":5.3718,"is_reserved":false,"is_disabled":false,"rental_uris":{"android":"levelo://app?vid=0fa7f06d-4d6c-4d97-b8d9-bce44d43c22f","ios":"levelo://app?vid=0fa7f06d-4d6c-4d97-b8d9-bce44d43c22f"},"vehicle_type_id":"4","last_reported":1742062307,"current_range_meters":8000,"station_id":"ce4bgh92rcd13ifvqb40","pricing_plan_id":"cebpf4jnsgd1na2vs0mg"},{"bike_id":"c544ab48-8063-43e4-a015-5ca42369d07e","system_id":"levelo_inurba_marseille","lat":43.28924,"lon":5.36656,"is_reserved":false,"is_disabled":false,"rental_uris":{"android":"levelo://app?vid=c544ab48-8063-43e4-a015-5ca42369d07e","ios":"levelo://app?vid=c544ab48-8063-43e4-a015-5ca42369d07e"},"vehicle_type_id":"4","last_reported":1742062307,"current_range_meters":8000,"station_id":"ce4bhap2rcd13ifvqek0","pricing_plan_id":"cebpf4jnsgd1na2vs0mg"},{"bike_id":"305180a3-b470-4494-9d29-c79f11e3f2a2","system_id":"levelo_inurba_marseille","lat":43.29028,"lon":5.38651,"is_reserved":false,"is_disabled":false,"rental_uris":{"android":"levelo://app?vid=305180a3-b470-4494-9d29-c79f11e3f2a2","ios":"levelo://app?vid=305180a3-b470-4494-9d29-c79f11e3f2a2"},"vehicle_type_id":"4","last_reported":1742062307,"current_range_meters":8000,"station_id":"ce4bh4p2rcd13ifvqe0g","pricing_plan_id":"cebpf4jnsgd1na2vs0mg"},{"bike_id":"86f8a338-fbb0-4e3c-b6c5-e5f52fee66b9","system_id":"levelo_inurba_marseille","lat":43.29597,"lon":5.38084,"is_reserved":false,"is_disabled":false,"rental_uris":{"android":"levelo://app?vid=86f8a338-fbb0-4e3c-b6c5-e5f52fee66b9","ios":"levelo://app?vid=86f8a338-fbb0-4e3c-b6c5-e5f52fee66b9"},"vehicle_type_id":"4","last_reported":1742062307,"current_range_meters":8000,"station_id":"ce4bgl12rcd13ifvqbo0","pricing_plan_id":"cebpf4jnsgd1na2vs0mg"},{"bike_id":"3d32daa8-533f-4ade-ab31-611854a83f23","system_id":"levelo_inurba_marseille","lat":43.29033,"lon":5.38654,"is_reserved":false,"is_disabled":false,"rental_uris":{"android":"levelo://app?vid=3d32daa8-533f-4ade-ab31-611854a83f23","ios":"levelo://app?vid=3d32daa8-533f-4ade-ab31-611854a83f23"},"vehicle_type_id":"4","last_reported":1742062307,"current_range_meters":8400,"station_id":"ce4bh4p2rcd13ifvqe0g","pricing_plan_id":"cebpf4jnsgd1na2vs0mg"},{"bike_id":"2cdf3b18-0a82-4018-b15a-9fa6067e63d4","system_id":"levelo_inurba_marseille","lat":43.28953,"lon":5.36605,"is_reserved":false,"is_disabled":false,"rental_uris":{"android":"levelo://app?vid=2cdf3b18-0a82-4018-b15a-9fa6067e63d4","ios":"levelo://app?vid=2cdf3b18-0a82-4018-b15a-9fa6067e63d4"},"vehicle_type_id":"4","last_reported":1742062307,"current_range_meters":8400,"station_id":"ce4bhap2rcd13ifvqek0","pricing_plan_id":"cebpf4jnsgd1na2vs0mg"},{"bike_id":"0c6a8b31-a67f-43cb-8bfa-3caadabac9d1","system_id":"levelo_inurba_marseille","lat":43.289953,"lon":5.366425,"is_reserved":false,"is_disabled":false,"rental_uris":{"android":"levelo://app?vid=0c6a8b31-a67f-43cb-8bfa-3caadabac9d1","ios":"levelo://app?vid=0c6a8b31-a67f-43cb-8bfa-3caadabac9d1"},"vehicle_type_id":"4","last_reported":1742062307,"current_range_meters":8400,"station_id":"","pricing_plan_id":"cebpf4jnsgd1na2vs0mg"},{"bike_id":"f79b60d3-2c3c-439a-9e57-6d7f3d6ee44f","system_id":"levelo_inurba_marseille","lat":43.29973,"lon":5.38516,"is_reserved":false,"is_disabled":false,"rental_uris":{"android":"levelo://app?vid=f79b60d3-2c3c-439a-9e57-6d7f3d6ee44f","ios":"levelo://app?vid=f79b60d3-2c3c-439a-9e57-6d7f3d6ee44f"},"vehicle_type_id":"4","last_reported":1742062307,"current_range_meters":8400,"station_id":"ce4bgj92rcd13ifvqbd0","pricing_plan_id":"cebpf4jnsgd1na2vs0mg"},{"bike_id":"eafadd14-748e-4c3c-8896-2ea58909eaee","system_id":"levelo_inurba_marseille","lat":43.2783,"lon":5.39204,"is_reserved":false,"is_disabled":false,"rental_uris":{"android":"levelo://app?vid=eafadd14-748e-4c3c-8896-2ea58909eaee","ios":"levelo://app?vid=eafadd14-748e-4c3c-8896-2ea58909eaee"},"vehicle_type_id":"4","last_reported":1742062307,"current_range_meters":8400,"station_id":"ce4bhjp2rcd13ifvqga0","pricing_plan_id":"cebpf4jnsgd1na2vs0mg"},{"bike_id":"11877a08-1209-410f-8a57-ef814c57a390","system_id":"levelo_inurba_marseille","lat":43.24151,"lon":5.36456,"is_reserved":false,"is_disabled":false,"rental_uris":{"android":"levelo://app?vid=11877a08-1209-410f-8a57-ef814c57a390","ios":"levelo://app?vid=11877a08-1209-410f-8a57-ef814c57a390"},"vehicle_type_id":"4","last_reported":1742062307,"current_range_meters":8400,"station_id":"","pricing_plan_id":"cebpf4jnsgd1na2vs0mg"},{"bike_id":"385ae15c-2c3c-4490-a507-5eb20fb883a5","system_id":"levelo_inurba_marseille","lat":43.25937,"lon":5.40905,"is_reserved":false,"is_disabled":false,"rental_uris":{"android":"levelo://app?vid=385ae15c-2c3c-4490-a507-5eb20fb883a5","ios":"levelo://app?vid=385ae15c-2c3c-4490-a507-5eb20fb883a5"},"vehicle_type_id":"4","last_reported":1742062307,"current_range_meters":8400,"station_id":"ce4bhm92rcd13ifvqglg","pricing_plan_id":"cebpf4jnsgd1na2vs0mg"},{"bike_id":"74d04e7e-29ca-4cf3-b82a-9775acfeb45e","system_id":"levelo_inurba_marseille","lat":43.29038,"lon":5.38661,"is_reserved":false,"is_disabled":false,"rental_uris":{"android":"levelo://app?vid=74d04e7e-29ca-4cf3-b82a-9775acfeb45e","ios":"levelo://app?vid=74d04e7e-29ca-4cf3-b82a-9775acfeb45e"},"vehicle_type_id":"4","last_reported":1742062307,"current_range_meters":8400,"station_id":"ce4bh4p2rcd13ifvqe0g","pricing_plan_id":"cebpf4jnsgd1na2vs0mg"},{"bike_id":"74c8f1ef-49b4-49b3-937a-3ab552ca570e","system_id":"levelo_inurba_marseille","lat":43.27949,"lon":5.4107,"is_reserved":false,"is_disabled":false,"rental_uris":{"android":"levelo://app?vid=74c8f1ef-49b4-49b3-937a-3ab552ca570e","ios":"levelo://app?vid=74c8f1ef-49b4-49b3-937a-3ab552ca570e"},"vehicle_type_id":"4","last_reported":1742062307,"current_range_meters":8400,"station_id":"ce4bhnp2rcd13ifvqh0g","pricing_plan_id":"cebpf4jnsgd1na2vs0mg"},{"bike_id":"830c39e2-a7a7-4477-b1c6-9ee80558d0b2","system_id":"levelo_inurba_marseille","lat":43.28412,"lon":5.34971,"is_reserved":false,"is_disabled":false,"rental_uris":{"android":"levelo://app?vid=830c39e2-a7a7-4477-b1c6-9ee80558d0b2","ios":"levelo://app?vid=830c39e2-a7a7-4477-b1c6-9ee80558d0b2"},"vehicle_type_id":"4","last_reported":1742062307,"current_range_meters":8400,"station_id":"ce4bhbh2rcd13ifvqepg","pricing_plan_id":"cebpf4jnsgd1na2vs0mg"},{"bike_id":"a75b9f2f-f1c1-4b6d-ac8f-577368a4e69b","system_id":"levelo_inurba_marseille","lat":43.2693,"lon":5.40277,"is_reserved":false,"is_disabled":false,"rental_uris":{"android":"levelo://app?vid=a75b9f2f-f1c1-4b6d-ac8f-577368a4e69b","ios":"levelo://app?vid=a75b9f2f-f1c1-4b6d-ac8f-577368a4e69b"},"vehicle_type_id":"4","last_reported":1742062307,"current_range_meters":8800,"station_id":"cjm6bp8fraef2m0cb0m0","pricing_plan_id":"cebpf4jnsgd1na2vs0mg"},{"bike_id":"1ac0ebad-6828-4242-99b2-14a9f8209f79","system_id":"levelo_inurba_marseille","lat":43.2319,"lon":5.35556,"is_reserved":false,"is_disabled":false,"rental_uris":{"android":"levelo://app?vid=1ac0ebad-6828-4242-99b2-14a9f8209f79","ios":"levelo://app?vid=1ac0ebad-6828-4242-99b2-14a9f8209f79"},"vehicle_type_id":"4","last_reported":1742062307,"current_range_meters":8800,"station_id":"ce4bhu92rcd13ifvqi70","pricing_plan_id":"cebpf4jnsgd1na2vs0mg"},{"bike_id":"a51e83ee-53b4-4965-b5bb-694ae883e860","system_id":"levelo_inurba_marseille","lat":43.26212,"lon":5.37456,"is_reserved":false,"is_disabled":true,"rental_uris":{"android":"levelo://app?vid=a51e83ee-53b4-4965-b5bb-694ae883e860","ios":"levelo://app?vid=a51e83ee-53b4-4965-b5bb-694ae883e860"},"vehicle_type_id":"4","last_reported":1742062307,"current_range_meters":8800,"station_id":"ce4bhgp2rcd13ifvqfc0","pricing_plan_id":"cebpf4jnsgd1na2vs0mg"},{"bike_id":"573899f9-20ab-4211-a282-409e5482a59e","system_id":"levelo_inurba_marseille","lat":43.31475,"lon":5.37365,"is_reserved":false,"is_disabled":false,"rental_uris":{"android":"levelo://app?vid=573899f9-20ab-4211-a282-409e5482a59e","ios":"levelo://app?vid=573899f9-20ab-4211-a282-409e5482a59e"},"vehicle_type_id":"4","last_reported":1742062307,"current_range_meters":8800,"station_id":"","pricing_plan_id":"cebpf4jnsgd1na2vs0mg"},{"bike_id":"a21dbcf4-4d03-47ac-99de-e247f8292114","system_id":"levelo_inurba_marseille","lat":43.29631,"lon":5.37727,"is_reserved":false,"is_disabled":false,"rental_uris":{"android":"levelo://app?vid=a21dbcf4-4d03-47ac-99de-e247f8292114","ios":"levelo://app?vid=a21dbcf4-4d03-47ac-99de-e247f8292114"},"vehicle_type_id":"4","last_reported":1742062307,"current_range_meters":8800,"station_id":"ce4bgi92rcd13ifvqb90","pricing_plan_id":"cebpf4jnsgd1na2vs0mg"},{"bike_id":"99388530-3199-4a9b-85e9-15b56e29535b","system_id":"levelo_inurba_marseille","lat":43.31293,"lon":5.37323,"is_reserved":false,"is_disabled":false,"rental_uris":{"android":"levelo://app?vid=99388530-3199-4a9b-85e9-15b56e29535b","ios":"levelo://app?vid=99388530-3199-4a9b-85e9-15b56e29535b"},"vehicle_type_id":"4","last_reported":1742062307,"current_range_meters":8800,"station_id":"","pricing_plan_id":"cebpf4jnsgd1na2vs0mg"},{"bike_id":"2e54f6eb-ed96-442d-83ae-aacdcc6473fc","system_id":"levelo_inurba_marseille","lat":43.3127,"lon":5.3685,"is_reserved":false,"is_disabled":false,"rental_uris":{"android":"levelo://app?vid=2e54f6eb-ed96-442d-83ae-aacdcc6473fc","ios":"levelo://app?vid=2e54f6eb-ed96-442d-83ae-aacdcc6473fc"},"vehicle_type_id":"4","last_reported":1742062307,"current_range_meters":8800,"station_id":"","pricing_plan_id":"cebpf4jnsgd1na2vs0mg"},{"bike_id":"9c52b70e-7bc6-447a-aa97-e083572f44c9","system_id":"levelo_inurba_marseille","lat":43.29524,"lon":5.39027,"is_reserved":false,"is_disabled":false,"rental_uris":{"android":"levelo://app?vid=9c52b70e-7bc6-447a-aa97-e083572f44c9","ios":"levelo://app?vid=9c52b70e-7bc6-447a-aa97-e083572f44c9"},"vehicle_type_id":"4","last_reported":1742062307,"current_range_meters":8800,"station_id":"ce4bh3p2rcd13ifvqdp0","pricing_plan_id":"cebpf4jnsgd1na2vs0mg"},{"bike_id":"1999cecf-f38c-4961-9580-ef6a50d3e0be","system_id":"levelo_inurba_marseille","lat":43.2417,"lon":5.36402,"is_reserved":false,"is_disabled":false,"rental_uris":{"android":"levelo://app?vid=1999cecf-f38c-4961-9580-ef6a50d3e0be","ios":"levelo://app?vid=1999cecf-f38c-4961-9580-ef6a50d3e0be"},"vehicle_type_id":"4","last_reported":1742062307,"current_range_meters":8800,"station_id":"cpo36qri1sfpv3e86is0","pricing_plan_id":"cebpf4jnsgd1na2vs0mg"},{"bike_id":"10a414df-4d82-4277-b491-60aab706c4c1","system_id":"levelo_inurba_marseille","lat":43.28415,"lon":5.3753,"is_reserved":false,"is_disabled":false,"rental_uris":{"android":"levelo://app?vid=10a414df-4d82-4277-b491-60aab706c4c1","ios":"levelo://app?vid=10a414df-4d82-4277-b491-60aab706c4c1"},"vehicle_type_id":"4","last_reported":1742062307,"current_range_meters":8800,"station_id":"ce4bh412rcd13ifvqds0","pricing_plan_id":"cebpf4jnsgd1na2vs0mg"},{"bike_id":"54e06cef-9a87-440d-9392-45456fe486db","system_id":"levelo_inurba_marseille","lat":43.30135,"lon":5.38786,"is_reserved":false,"is_disabled":false,"rental_uris":{"android":"levelo://app?vid=54e06cef-9a87-440d-9392-45456fe486db","ios":"levelo://app?vid=54e06cef-9a87-440d-9392-45456fe486db"},"vehicle_type_id":"4","last_reported":1742062307,"current_range_meters":8800,"station_id":"ce4bghh2rcd13ifvqb60","pricing_plan_id":"cebpf4jnsgd1na2vs0mg"},{"bike_id":"5e4201b4-4fc8-4995-8a4c-12fccd520ca5","system_id":"levelo_inurba_marseille","lat":43.30909,"lon":5.37893,"is_reserved":false,"is_disabled":false,"rental_uris":{"android":"levelo://app?vid=5e4201b4-4fc8-4995-8a4c-12fccd520ca5","ios":"levelo://app?vid=5e4201b4-4fc8-4995-8a4c-12fccd520ca5"},"vehicle_type_id":"4","last_reported":1742062307,"current_range_meters":8800,"station_id":"ce4bhsp2rcd13ifvqi50","pricing_plan_id":"cebpf4jnsgd1na2vs0mg"},{"bike_id":"676e66c6-8e50-404c-b512-5f94c7d6a8fc","system_id":"levelo_inurba_marseille","lat":43.24159,"lon":5.36462,"is_reserved":false,"is_disabled":false,"rental_uris":{"android":"levelo://app?vid=676e66c6-8e50-404c-b512-5f94c7d6a8fc","ios":"levelo://app?vid=676e66c6-8e50-404c-b512-5f94c7d6a8fc"},"vehicle_type_id":"4","last_reported":1742062307,"current_range_meters":9200,"station_id":"cpo36qri1sfpv3e86is0","pricing_plan_id":"cebpf4jnsgd1na2vs0mg"},{"bike_id":"85d10f39-4b49-477c-b6e3-e96eb6cda2fc","system_id":"levelo_inurba_marseille","lat":43.27622,"lon":5.36105,"is_reserved":false,"is_disabled":false,"rental_uris":{"android":"levelo://app?vid=85d10f39-4b49-477c-b6e3-e96eb6cda2fc","ios":"levelo://app?vid=85d10f39-4b49-477c-b6e3-e96eb6cda2fc"},"vehicle_type_id":"4","last_reported":1742062307,"current_range_meters":9200,"station_id":"ce4bgj92rcd13ifvqbe0","pricing_plan_id":"cebpf4jnsgd1na2vs0mg"},{"bike_id":"03a23ea1-aefe-4432-bfbd-ca3373a470b1","system_id":"levelo_inurba_marseille","lat":43.30881,"lon":5.39638,"is_reserved":false,"is_disabled":false,"rental_uris":{"android":"levelo://app?vid=03a23ea1-aefe-4432-bfbd-ca3373a470b1","ios":"levelo://app?vid=03a23ea1-aefe-4432-bfbd-ca3373a470b1"},"vehicle_type_id":"4","last_reported":1742062307,"current_range_meters":9200,"station_id":"ce4bh012rcd13ifvqcv0","pricing_plan_id":"cebpf4jnsgd1na2vs0mg"},{"bike_id":"aa795381-5174-4265-abe3-ddbff84516c8","system_id":"levelo_inurba_marseille","lat":43.3017,"lon":5.37406,"is_reserved":false,"is_disabled":true,"rental_uris":{"android":"levelo://app?vid=aa795381-5174-4265-abe3-ddbff84516c8","ios":"levelo://app?vid=aa795381-5174-4265-abe3-ddbff84516c8"},"vehicle_type_id":"4","last_reported":1742062307,"current_range_meters":9200,"station_id":"ce4bgs92rcd13ifvqcc0","pricing_plan_id":"cebpf4jnsgd1na2vs0mg"},{"bike_id":"50c97caa-ca8a-4b03-99d5-4678c955e14d","system_id":"levelo_inurba_marseille","lat":43.248,"lon":5.37493,"is_reserved":false,"is_disabled":false,"rental_uris":{"android":"levelo://app?vid=50c97caa-ca8a-4b03-99d5-4678c955e14d","ios":"levelo://app?vid=50c97caa-ca8a-4b03-99d5-4678c955e14d"},"vehicle_type_id":"4","last_reported":1742062307,"current_range_meters":9200,"station_id":"ce4bhgh2rcd13ifvqfb0","pricing_plan_id":"cebpf4jnsgd1na2vs0mg"},{"bike_id":"141b7b11-4c90-4eeb-875b-4fcc438bee61","system_id":"levelo_inurba_marseille","lat":43.28356,"lon":5.38108,"is_reserved":false,"is_disabled":false,"rental_uris":{"android":"levelo://app?vid=141b7b11-4c90-4eeb-875b-4fcc438bee61","ios":"levelo://app?vid=141b7b11-4c90-4eeb-875b-4fcc438bee61"},"vehicle_type_id":"4","last_reported":1742062307,"current_range_meters":10000,"station_id":"ce4bh412rcd13ifvqdr0","pricing_plan_id":"cebpf4jnsgd1na2vs0mg"},{"bike_id":"267e94d6-8099-4f52-b032-b881de13c405","system_id":"levelo_inurba_marseille","lat":43.27966,"lon":5.38713,"is_reserved":false,"is_disabled":false,"rental_uris":{"android":"levelo://app?vid=267e94d6-8099-4f52-b032-b881de13c405","ios":"levelo://app?vid=267e94d6-8099-4f52-b032-b881de13c405"},"vehicle_type_id":"4","last_reported":1742062307,"current_range_meters":9200,"station_id":"ce4bhg12rcd13ifvqf80","pricing_plan_id":"cebpf4jnsgd1na2vs0mg"},{"bike_id":"1ce69257-9fdb-4677-84b5-31d22ae86b4f","system_id":"levelo_inurba_marseille","lat":43.29296,"lon":5.37466,"is_reserved":false,"is_disabled":false,"rental_uris":{"android":"levelo://app?vid=1ce69257-9fdb-4677-84b5-31d22ae86b4f","ios":"levelo://app?vid=1ce69257-9fdb-4677-84b5-31d22ae86b4f"},"vehicle_type_id":"4","last_reported":1742062307,"current_range_meters":9600,"station_id":"ce4bgi12rcd13ifvqb70","pricing_plan_id":"cebpf4jnsgd1na2vs0mg"},{"bike_id":"2ada218c-4e3e-433b-a33e-91e0fed6090b","system_id":"levelo_inurba_marseille","lat":43.29459,"lon":5.39776,"is_reserved":false,"is_disabled":true,"rental_uris":{"android":"levelo://app?vid=2ada218c-4e3e-433b-a33e-91e0fed6090b","ios":"levelo://app?vid=2ada218c-4e3e-433b-a33e-91e0fed6090b"},"vehicle_type_id":"4","last_reported":1742062307,"current_range_meters":9200,"station_id":"ce4bh3h2rcd13ifvqdo0","pricing_plan_id":"cebpf4jnsgd1na2vs0mg"},{"bike_id":"b0f8dea6-8cd3-4cb9-9f07-4cee3afdcd4f","system_id":"levelo_inurba_marseille","lat":43.2893,"lon":5.36636,"is_reserved":false,"is_disabled":false,"rental_uris":{"android":"levelo://app?vid=b0f8dea6-8cd3-4cb9-9f07-4cee3afdcd4f","ios":"levelo://app?vid=b0f8dea6-8cd3-4cb9-9f07-4cee3afdcd4f"},"vehicle_type_id":"4","last_reported":1742062307,"current_range_meters":9200,"station_id":"ce4bhap2rcd13ifvqek0","pricing_plan_id":"cebpf4jnsgd1na2vs0mg"},{"bike_id":"e3ea795b-725e-4c43-8c2e-ef9080d03639","system_id":"levelo_inurba_marseille","lat":43.29198,"lon":5.3932,"is_reserved":false,"is_disabled":false,"rental_uris":{"android":"levelo://app?vid=e3ea795b-725e-4c43-8c2e-ef9080d03639","ios":"levelo://app?vid=e3ea795b-725e-4c43-8c2e-ef9080d03639"},"vehicle_type_id":"4","last_reported":1742062307,"current_range_meters":9200,"station_id":"ce4bh192rcd13ifvqdd0","pricing_plan_id":"cebpf4jnsgd1na2vs0mg"},{"bike_id":"ff1b5254-5ba0-482d-b4b9-c2c8963629e8","system_id":"levelo_inurba_marseille","lat":43.30152,"lon":5.37423,"is_reserved":false,"is_disabled":false,"rental_uris":{"android":"levelo://app?vid=ff1b5254-5ba0-482d-b4b9-c2c8963629e8","ios":"levelo://app?vid=ff1b5254-5ba0-482d-b4b9-c2c8963629e8"},"vehicle_type_id":"4","last_reported":1742062307,"current_range_meters":9600,"station_id":"ce4bgs92rcd13ifvqcc0","pricing_plan_id":"cebpf4jnsgd1na2vs0mg"},{"bike_id":"cacdc69e-2cce-45b4-af61-b3e47ec54a51","system_id":"levelo_inurba_marseille","lat":43.3189,"lon":5.40752,"is_reserved":false,"is_disabled":false,"rental_uris":{"android":"levelo://app?vid=cacdc69e-2cce-45b4-af61-b3e47ec54a51","ios":"levelo://app?vid=cacdc69e-2cce-45b4-af61-b3e47ec54a51"},"vehicle_type_id":"4","last_reported":1742062307,"current_range_meters":9200,"station_id":"ce4bhq12rcd13ifvqhig","pricing_plan_id":"cebpf4jnsgd1na2vs0mg"},{"bike_id":"e0834956-e6d7-4bc3-862d-e76e3f887cbb","system_id":"levelo_inurba_marseille","lat":43.2306,"lon":5.355,"is_reserved":false,"is_disabled":false,"rental_uris":{"android":"levelo://app?vid=e0834956-e6d7-4bc3-862d-e76e3f887cbb","ios":"levelo://app?vid=e0834956-e6d7-4bc3-862d-e76e3f887cbb"},"vehicle_type_id":"4","last_reported":1742062307,"current_range_meters":9200,"station_id":"cpo3342slgdg3j2ifvpg","pricing_plan_id":"cebpf4jnsgd1na2vs0mg"},{"bike_id":"1f5def01-7b82-4f17-9373-9cc7bb311870","system_id":"levelo_inurba_marseille","lat":43.28727,"lon":5.37933,"is_reserved":false,"is_disabled":false,"rental_uris":{"android":"levelo://app?vid=1f5def01-7b82-4f17-9373-9cc7bb311870","ios":"levelo://app?vid=1f5def01-7b82-4f17-9373-9cc7bb311870"},"vehicle_type_id":"4","last_reported":1742062307,"current_range_meters":9200,"station_id":"ce4bh9p2rcd13ifvqec0","pricing_plan_id":"cebpf4jnsgd1na2vs0mg"},{"bike_id":"92bd2e8f-197b-47ad-8530-ee4394b2ecce","system_id":"levelo_inurba_marseille","lat":43.24188,"lon":5.36409,"is_reserved":false,"is_disabled":false,"rental_uris":{"android":"levelo://app?vid=92bd2e8f-197b-47ad-8530-ee4394b2ecce","ios":"levelo://app?vid=92bd2e8f-197b-47ad-8530-ee4394b2ecce"},"vehicle_type_id":"4","last_reported":1742062307,"current_range_meters":9200,"station_id":"cpo36qri1sfpv3e86is0","pricing_plan_id":"cebpf4jnsgd1na2vs0mg"},{"bike_id":"34b41436-20a2-4524-9e2f-27bd05d93b21","system_id":"levelo_inurba_marseille","lat":43.31711,"lon":5.40431,"is_reserved":false,"is_disabled":false,"rental_uris":{"android":"levelo://app?vid=34b41436-20a2-4524-9e2f-27bd05d93b21","ios":"levelo://app?vid=34b41436-20a2-4524-9e2f-27bd05d93b21"},"vehicle_type_id":"4","last_reported":1742062307,"current_range_meters":9200,"station_id":"ce4bh012rcd13ifvqd00","pricing_plan_id":"cebpf4jnsgd1na2vs0mg"},{"bike_id":"f6b3a511-92bb-49b4-ad08-ada46b8c21af","system_id":"levelo_inurba_marseille","lat":43.29311,"lon":5.37178,"is_reserved":false,"is_disabled":false,"rental_uris":{"android":"levelo://app?vid=f6b3a511-92bb-49b4-ad08-ada46b8c21af","ios":"levelo://app?vid=f6b3a511-92bb-49b4-ad08-ada46b8c21af"},"vehicle_type_id":"4","last_reported":1742062307,"current_range_meters":9200,"station_id":"ce4bgh92rcd13ifvqb40","pricing_plan_id":"cebpf4jnsgd1na2vs0mg"},{"bike_id":"7c91b241-7894-46f0-9280-7e8f18fd666d","system_id":"levelo_inurba_marseille","lat":43.26956,"lon":5.38633,"is_reserved":false,"is_disabled":false,"rental_uris":{"android":"levelo://app?vid=7c91b241-7894-46f0-9280-7e8f18fd666d","ios":"levelo://app?vid=7c91b241-7894-46f0-9280-7e8f18fd666d"},"vehicle_type_id":"4","last_reported":1742062307,"current_range_meters":9600,"station_id":"ce4bhh92rcd13ifvqfh0","pricing_plan_id":"cebpf4jnsgd1na2vs0mg"},{"bike_id":"f3a9db68-66f0-459a-88c9-1377b946669b","system_id":"levelo_inurba_marseille","lat":43.29793,"lon":5.40386,"is_reserved":false,"is_disabled":false,"rental_uris":{"android":"levelo://app?vid=f3a9db68-66f0-459a-88c9-1377b946669b","ios":"levelo://app?vid=f3a9db68-66f0-459a-88c9-1377b946669b"},"vehicle_type_id":"4","last_reported":1742062307,"current_range_meters":9600,"station_id":"ce4bh112rcd13ifvqd90","pricing_plan_id":"cebpf4jnsgd1na2vs0mg"},{"bike_id":"63cfaea5-f172-409c-93d3-875ff9136d61","system_id":"levelo_inurba_marseille","lat":43.24673,"lon":5.38161,"is_reserved":false,"is_disabled":false,"rental_uris":{"android":"levelo://app?vid=63cfaea5-f172-409c-93d3-875ff9136d61","ios":"levelo://app?vid=63cfaea5-f172-409c-93d3-875ff9136d61"},"vehicle_type_id":"4","last_reported":1742062307,"current_range_meters":9600,"station_id":"ce4bhih2rcd13ifvqfr0","pricing_plan_id":"cebpf4jnsgd1na2vs0mg"},{"bike_id":"b614f100-11d7-4ef9-8f84-7c5dea0b786b","system_id":"levelo_inurba_marseille","lat":43.26942,"lon":5.40265,"is_reserved":false,"is_disabled":false,"rental_uris":{"android":"levelo://app?vid=b614f100-11d7-4ef9-8f84-7c5dea0b786b","ios":"levelo://app?vid=b614f100-11d7-4ef9-8f84-7c5dea0b786b"},"vehicle_type_id":"4","last_reported":1742062307,"current_range_meters":9600,"station_id":"cjm6bp8fraef2m0cb0m0","pricing_plan_id":"cebpf4jnsgd1na2vs0mg"},{"bike_id":"c57a9691-9e95-4215-b428-845658242e5e","system_id":"levelo_inurba_marseille","lat":43.29615,"lon":5.38106,"is_reserved":false,"is_disabled":false,"rental_uris":{"android":"levelo://app?vid=c57a9691-9e95-4215-b428-845658242e5e","ios":"levelo://app?vid=c57a9691-9e95-4215-b428-845658242e5e"},"vehicle_type_id":"4","last_reported":1742062307,"current_range_meters":9600,"station_id":"ce4bgl12rcd13ifvqbo0","pricing_plan_id":"cebpf4jnsgd1na2vs0mg"},{"bike_id":"3034db0c-7cfa-4361-a8e5-85d8b0635402","system_id":"levelo_inurba_marseille","lat":43.23967,"lon":5.36621,"is_reserved":false,"is_disabled":false,"rental_uris":{"android":"levelo://app?vid=3034db0c-7cfa-4361-a8e5-85d8b0635402","ios":"levelo://app?vid=3034db0c-7cfa-4361-a8e5-85d8b0635402"},"vehicle_type_id":"4","last_reported":1742062307,"current_range_meters":9600,"station_id":"ce4bhi12rcd13ifvqfp0","pricing_plan_id":"cebpf4jnsgd1na2vs0mg"},{"bike_id":"3436e643-74e0-40cc-9ec4-11f60f5eaffe","system_id":"levelo_inurba_marseille","lat":43.29201,"lon":5.39329,"is_reserved":false,"is_disabled":false,"rental_uris":{"android":"levelo://app?vid=3436e643-74e0-40cc-9ec4-11f60f5eaffe","ios":"levelo://app?vid=3436e643-74e0-40cc-9ec4-11f60f5eaffe"},"vehicle_type_id":"4","last_reported":1742062307,"current_range_meters":9600,"station_id":"","pricing_plan_id":"cebpf4jnsgd1na2vs0mg"},{"bike_id":"9625f194-a853-4767-bda8-0eedb08b2cb3","system_id":"levelo_inurba_marseille","lat":43.28712,"lon":5.39993,"is_reserved":false,"is_disabled":true,"rental_uris":{"android":"levelo://app?vid=9625f194-a853-4767-bda8-0eedb08b2cb3","ios":"levelo://app?vid=9625f194-a853-4767-bda8-0eedb08b2cb3"},"vehicle_type_id":"4","last_reported":1742062307,"current_range_meters":9600,"station_id":"ce4bho92rcd13ifvqh3g","pricing_plan_id":"cebpf4jnsgd1na2vs0mg"},{"bike_id":"49a173d9-c0ae-4f30-8906-a1ef20c838ce","system_id":"levelo_inurba_marseille","lat":43.29599,"lon":5.37715,"is_reserved":false,"is_disabled":false,"rental_uris":{"android":"levelo://app?vid=49a173d9-c0ae-4f30-8906-a1ef20c838ce","ios":"levelo://app?vid=49a173d9-c0ae-4f30-8906-a1ef20c838ce"},"vehicle_type_id":"4","last_reported":1742062307,"current_range_meters":9600,"station_id":"ce4bgi92rcd13ifvqb90","pricing_plan_id":"cebpf4jnsgd1na2vs0mg"},{"bike_id":"efb53dda-871b-483c-8dec-e716116f9234","system_id":"levelo_inurba_marseille","lat":43.31064,"lon":5.36742,"is_reserved":false,"is_disabled":false,"rental_uris":{"android":"levelo://app?vid=efb53dda-871b-483c-8dec-e716116f9234","ios":"levelo://app?vid=efb53dda-871b-483c-8dec-e716116f9234"},"vehicle_type_id":"4","last_reported":1742062307,"current_range_meters":9600,"station_id":"","pricing_plan_id":"cebpf4jnsgd1na2vs0mg"},{"bike_id":"122d3c0b-8ce7-4d45-b19c-631c20d2088e","system_id":"levelo_inurba_marseille","lat":43.29033,"lon":5.3865,"is_reserved":false,"is_disabled":false,"rental_uris":{"android":"levelo://app?vid=122d3c0b-8ce7-4d45-b19c-631c20d2088e","ios":"levelo://app?vid=122d3c0b-8ce7-4d45-b19c-631c20d2088e"},"vehicle_type_id":"4","last_reported":1742062307,"current_range_meters":9600,"station_id":"ce4bh4p2rcd13ifvqe0g","pricing_plan_id":"cebpf4jnsgd1na2vs0mg"},{"bike_id":"f724f924-a9e9-4f3f-9a6d-86c1808e08cf","system_id":"levelo_inurba_marseille","lat":43.29711,"lon":5.3662,"is_reserved":false,"is_disabled":false,"rental_uris":{"android":"levelo://app?vid=f724f924-a9e9-4f3f-9a6d-86c1808e08cf","ios":"levelo://app?vid=f724f924-a9e9-4f3f-9a6d-86c1808e08cf"},"vehicle_type_id":"4","last_reported":1742062307,"current_range_meters":9600,"station_id":"ce4bgn12rcd13ifvqbt0","pricing_plan_id":"cebpf4jnsgd1na2vs0mg"},{"bike_id":"a6fa0ba6-25b7-42dc-9e3c-1b495a19f1e3","system_id":"levelo_inurba_marseille","lat":43.30877,"lon":5.39651,"is_reserved":false,"is_disabled":false,"rental_uris":{"android":"levelo://app?vid=a6fa0ba6-25b7-42dc-9e3c-1b495a19f1e3","ios":"levelo://app?vid=a6fa0ba6-25b7-42dc-9e3c-1b495a19f1e3"},"vehicle_type_id":"4","last_reported":1742062307,"current_range_meters":9600,"station_id":"ce4bh012rcd13ifvqcv0","pricing_plan_id":"cebpf4jnsgd1na2vs0mg"},{"bike_id":"0b7bfdb8-fd03-4687-9225-8085184f929c","system_id":"levelo_inurba_marseille","lat":43.3236,"lon":5.36767,"is_reserved":false,"is_disabled":false,"rental_uris":{"android":"levelo://app?vid=0b7bfdb8-fd03-4687-9225-8085184f929c","ios":"levelo://app?vid=0b7bfdb8-fd03-4687-9225-8085184f929c"},"vehicle_type_id":"4","last_reported":1742062307,"current_range_meters":10000,"station_id":"ce4bhsh2rcd13ifvqi2g","pricing_plan_id":"cebpf4jnsgd1na2vs0mg"},{"bike_id":"9b25d550-7078-4daa-81c3-6d7380b37229","system_id":"levelo_inurba_marseille","lat":43.28411,"lon":5.37528,"is_reserved":false,"is_disabled":false,"rental_uris":{"android":"levelo://app?vid=9b25d550-7078-4daa-81c3-6d7380b37229","ios":"levelo://app?vid=9b25d550-7078-4daa-81c3-6d7380b37229"},"vehicle_type_id":"4","last_reported":1742062307,"current_range_meters":10000,"station_id":"ce4bh412rcd13ifvqds0","pricing_plan_id":"cebpf4jnsgd1na2vs0mg"},{"bike_id":"f086f384-feec-4968-a0b6-7828464e346f","system_id":"levelo_inurba_marseille","lat":43.28414,"lon":5.37511,"is_reserved":false,"is_disabled":false,"rental_uris":{"android":"levelo://app?vid=f086f384-feec-4968-a0b6-7828464e346f","ios":"levelo://app?vid=f086f384-feec-4968-a0b6-7828464e346f"},"vehicle_type_id":"4","last_reported":1742062307,"current_range_meters":10000,"station_id":"ce4bh412rcd13ifvqds0","pricing_plan_id":"cebpf4jnsgd1na2vs0mg"},{"bike_id":"e52b41b5-52df-4c67-a85c-3cebb3bf7504","system_id":"levelo_inurba_marseille","lat":43.32368,"lon":5.36766,"is_reserved":false,"is_disabled":false,"rental_uris":{"android":"levelo://app?vid=e52b41b5-52df-4c67-a85c-3cebb3bf7504","ios":"levelo://app?vid=e52b41b5-52df-4c67-a85c-3cebb3bf7504"},"vehicle_type_id":"4","last_reported":1742062307,"current_range_meters":10000,"station_id":"ce4bhsh2rcd13ifvqi2g","pricing_plan_id":"cebpf4jnsgd1na2vs0mg"},{"bike_id":"7e31c382-9904-4855-a6d3-44fe1b6ab449","system_id":"levelo_inurba_marseille","lat":43.30164,"lon":5.38082,"is_reserved":false,"is_disabled":false,"rental_uris":{"android":"levelo://app?vid=7e31c382-9904-4855-a6d3-44fe1b6ab449","ios":"levelo://app?vid=7e31c382-9904-4855-a6d3-44fe1b6ab449"},"vehicle_type_id":"4","last_reported":1742062307,"current_range_meters":10000,"station_id":"ce4bgjp2rcd13ifvqbh0","pricing_plan_id":"cebpf4jnsgd1na2vs0mg"},{"bike_id":"2888920d-5337-4dad-b80c-b748fa94c0d3","system_id":"levelo_inurba_marseille","lat":43.24651,"lon":5.38893,"is_reserved":false,"is_disabled":false,"rental_uris":{"android":"levelo://app?vid=2888920d-5337-4dad-b80c-b748fa94c0d3","ios":"levelo://app?vid=2888920d-5337-4dad-b80c-b748fa94c0d3"},"vehicle_type_id":"4","last_reported":1742062307,"current_range_meters":10000,"station_id":"ce4bhg12rcd13ifvqf60","pricing_plan_id":"cebpf4jnsgd1na2vs0mg"},{"bike_id":"d9e192d6-9cce-4bf3-9232-b2be06542998","system_id":"levelo_inurba_marseille","lat":43.33725,"lon":5.39182,"is_reserved":false,"is_disabled":false,"rental_uris":{"android":"levelo://app?vid=d9e192d6-9cce-4bf3-9232-b2be06542998","ios":"levelo://app?vid=d9e192d6-9cce-4bf3-9232-b2be06542998"},"vehicle_type_id":"4","last_reported":1742062307,"current_range_meters":10000,"station_id":"ce4bhr92rcd13ifvqhsg","pricing_plan_id":"cebpf4jnsgd1na2vs0mg"},{"bike_id":"420f6db9-8e76-4cd3-8d29-c17146701561","system_id":"levelo_inurba_marseille","lat":43.31535,"lon":5.38046,"is_reserved":false,"is_disabled":false,"rental_uris":{"android":"levelo://app?vid=420f6db9-8e76-4cd3-8d29-c17146701561","ios":"levelo://app?vid=420f6db9-8e76-4cd3-8d29-c17146701561"},"vehicle_type_id":"4","last_reported":1742062307,"current_range_meters":10000,"station_id":"ce4bhsp2rcd13ifvqi50","pricing_plan_id":"cebpf4jnsgd1na2vs0mg"},{"bike_id":"1f9a9668-f20a-4b32-9dce-dfb024996834","system_id":"levelo_inurba_marseille","lat":43.29031,"lon":5.38649,"is_reserved":false,"is_disabled":true,"rental_uris":{"android":"levelo://app?vid=1f9a9668-f20a-4b32-9dce-dfb024996834","ios":"levelo://app?vid=1f9a9668-f20a-4b32-9dce-dfb024996834"},"vehicle_type_id":"4","last_reported":1742062307,"current_range_meters":10000,"station_id":"ce4bh4p2rcd13ifvqe0g","pricing_plan_id":"cebpf4jnsgd1na2vs0mg"},{"bike_id":"a7c61189-d39b-4cf7-a782-bd9ecbf9bfa4","system_id":"levelo_inurba_marseille","lat":43.29535,"lon":5.39043,"is_reserved":false,"is_disabled":false,"rental_uris":{"android":"levelo://app?vid=a7c61189-d39b-4cf7-a782-bd9ecbf9bfa4","ios":"levelo://app?vid=a7c61189-d39b-4cf7-a782-bd9ecbf9bfa4"},"vehicle_type_id":"4","last_reported":1742062307,"current_range_meters":10000,"station_id":"ce4bh3p2rcd13ifvqdp0","pricing_plan_id":"cebpf4jnsgd1na2vs0mg"},{"bike_id":"439a6d2b-dcee-49d8-b76a-07d7f26581f0","system_id":"levelo_inurba_marseille","lat":43.28939,"lon":5.36641,"is_reserved":false,"is_disabled":false,"rental_uris":{"android":"levelo://app?vid=439a6d2b-dcee-49d8-b76a-07d7f26581f0","ios":"levelo://app?vid=439a6d2b-dcee-49d8-b76a-07d7f26581f0"},"vehicle_type_id":"4","last_reported":1742062307,"current_range_meters":10000,"station_id":"ce4bhap2rcd13ifvqek0","pricing_plan_id":"cebpf4jnsgd1na2vs0mg"},{"bike_id":"2e57b3a3-b0f7-46e9-8467-c545170db7fe","system_id":"levelo_inurba_marseille","lat":43.29525,"lon":5.39036,"is_reserved":false,"is_disabled":false,"rental_uris":{"android":"levelo://app?vid=2e57b3a3-b0f7-46e9-8467-c545170db7fe","ios":"levelo://app?vid=2e57b3a3-b0f7-46e9-8467-c545170db7fe"},"vehicle_type_id":"4","last_reported":1742062307,"current_range_meters":10800,"station_id":"ce4bh3p2rcd13ifvqdp0","pricing_plan_id":"cebpf4jnsgd1na2vs0mg"},{"bike_id":"6d7902d3-f4d1-4269-aae7-559dbdf839a7","system_id":"levelo_inurba_marseille","lat":43.30094,"lon":5.39076,"is_reserved":false,"is_disabled":false,"rental_uris":{"android":"levelo://app?vid=6d7902d3-f4d1-4269-aae7-559dbdf839a7","ios":"levelo://app?vid=6d7902d3-f4d1-4269-aae7-559dbdf839a7"},"vehicle_type_id":"4","last_reported":1742062307,"current_range_meters":10800,"station_id":"ce4bh192rcd13ifvqdb0","pricing_plan_id":"cebpf4jnsgd1na2vs0mg"},{"bike_id":"f92dfebc-ce3d-441b-80cd-2d5511d270fb","system_id":"levelo_inurba_marseille","lat":43.26939,"lon":5.38926,"is_reserved":false,"is_disabled":false,"rental_uris":{"android":"levelo://app?vid=f92dfebc-ce3d-441b-80cd-2d5511d270fb","ios":"levelo://app?vid=f92dfebc-ce3d-441b-80cd-2d5511d270fb"},"vehicle_type_id":"4","last_reported":1742062307,"current_range_meters":10800,"station_id":"ce4bhhh2rcd13ifvqfl0","pricing_plan_id":"cebpf4jnsgd1na2vs0mg"},{"bike_id":"8a3971eb-9c27-4dbc-880f-82d1b9e18bf8","system_id":"levelo_inurba_marseille","lat":43.30181,"lon":5.36629,"is_reserved":false,"is_disabled":false,"rental_uris":{"android":"levelo://app?vid=8a3971eb-9c27-4dbc-880f-82d1b9e18bf8","ios":"levelo://app?vid=8a3971eb-9c27-4dbc-880f-82d1b9e18bf8"},"vehicle_type_id":"4","last_reported":1742062307,"current_range_meters":10800,"station_id":"ce4bgrh2rcd13ifvqc8g","pricing_plan_id":"cebpf4jnsgd1na2vs0mg"},{"bike_id":"5437db68-3830-4b4d-a9ad-c68f8ff28941","system_id":"levelo_inurba_marseille","lat":43.29599,"lon":5.38074,"is_reserved":false,"is_disabled":false,"rental_uris":{"android":"levelo://app?vid=5437db68-3830-4b4d-a9ad-c68f8ff28941","ios":"levelo://app?vid=5437db68-3830-4b4d-a9ad-c68f8ff28941"},"vehicle_type_id":"4","last_reported":1742062307,"current_range_meters":11200,"station_id":"ce4bgl12rcd13ifvqbo0","pricing_plan_id":"cebpf4jnsgd1na2vs0mg"},{"bike_id":"d1a74226-cbcb-4ad2-a7b6-438817a1017d","system_id":"levelo_inurba_marseille","lat":43.28949,"lon":5.36645,"is_reserved":false,"is_disabled":false,"rental_uris":{"android":"levelo://app?vid=d1a74226-cbcb-4ad2-a7b6-438817a1017d","ios":"levelo://app?vid=d1a74226-cbcb-4ad2-a7b6-438817a1017d"},"vehicle_type_id":"4","last_reported":1742062307,"current_range_meters":10800,"station_id":"ce4bhap2rcd13ifvqek0","pricing_plan_id":"cebpf4jnsgd1na2vs0mg"},{"bike_id":"0c590d2b-92a7-4d09-9282-b6e517c621c1","system_id":"levelo_inurba_marseille","lat":43.26942,"lon":5.40257,"is_reserved":false,"is_disabled":false,"rental_uris":{"android":"levelo://app?vid=0c590d2b-92a7-4d09-9282-b6e517c621c1","ios":"levelo://app?vid=0c590d2b-92a7-4d09-9282-b6e517c621c1"},"vehicle_type_id":"4","last_reported":1742062307,"current_range_meters":10800,"station_id":"cjm6bp8fraef2m0cb0m0","pricing_plan_id":"cebpf4jnsgd1na2vs0mg"},{"bike_id":"e88ae131-176d-4630-80c3-aa8013685d27","system_id":"levelo_inurba_marseille","lat":43.2962,"lon":5.37154,"is_reserved":false,"is_disabled":false,"rental_uris":{"android":"levelo://app?vid=e88ae131-176d-4630-80c3-aa8013685d27","ios":"levelo://app?vid=e88ae131-176d-4630-80c3-aa8013685d27"},"vehicle_type_id":"4","last_reported":1742062307,"current_range_meters":12000,"station_id":"ce4bgnh2rcd13ifvqc0g","pricing_plan_id":"cebpf4jnsgd1na2vs0mg"},{"bike_id":"782bd5d1-9b7f-4479-886b-191f69437a9d","system_id":"levelo_inurba_marseille","lat":43.29027,"lon":5.38645,"is_reserved":false,"is_disabled":false,"rental_uris":{"android":"levelo://app?vid=782bd5d1-9b7f-4479-886b-191f69437a9d","ios":"levelo://app?vid=782bd5d1-9b7f-4479-886b-191f69437a9d"},"vehicle_type_id":"4","last_reported":1742062307,"current_range_meters":11200,"station_id":"ce4bh4p2rcd13ifvqe0g","pricing_plan_id":"cebpf4jnsgd1na2vs0mg"},{"bike_id":"5f7f03a2-add7-44f0-9ebb-8428c5f0e58a","system_id":"levelo_inurba_marseille","lat":43.25947,"lon":5.40915,"is_reserved":false,"is_disabled":false,"rental_uris":{"android":"levelo://app?vid=5f7f03a2-add7-44f0-9ebb-8428c5f0e58a","ios":"levelo://app?vid=5f7f03a2-add7-44f0-9ebb-8428c5f0e58a"},"vehicle_type_id":"4","last_reported":1742062307,"current_range_meters":11200,"station_id":"ce4bhm92rcd13ifvqglg","pricing_plan_id":"cebpf4jnsgd1na2vs0mg"},{"bike_id":"ac4d7e29-418e-47d5-ba85-ff4777a5273a","system_id":"levelo_inurba_marseille","lat":43.298987,"lon":5.388319,"is_reserved":false,"is_disabled":false,"rental_uris":{"android":"levelo://app?vid=ac4d7e29-418e-47d5-ba85-ff4777a5273a","ios":"levelo://app?vid=ac4d7e29-418e-47d5-ba85-ff4777a5273a"},"vehicle_type_id":"4","last_reported":1742062307,"current_range_meters":11200,"station_id":"chh1huq6cuj3fo74tm60","pricing_plan_id":"cebpf4jnsgd1na2vs0mg"},{"bike_id":"1fa28d04-be9d-481a-9faf-149e441570d2","system_id":"levelo_inurba_marseille","lat":43.295155,"lon":5.390403,"is_reserved":false,"is_disabled":false,"rental_uris":{"android":"levelo://app?vid=1fa28d04-be9d-481a-9faf-149e441570d2","ios":"levelo://app?vid=1fa28d04-be9d-481a-9faf-149e441570d2"},"vehicle_type_id":"4","last_reported":1742062307,"current_range_meters":11200,"station_id":"ce4bh3p2rcd13ifvqdp0","pricing_plan_id":"cebpf4jnsgd1na2vs0mg"},{"bike_id":"82fb0625-b33b-4d01-9f26-afaf0b9368eb","system_id":"levelo_inurba_marseille","lat":43.27381,"lon":5.36264,"is_reserved":false,"is_disabled":false,"rental_uris":{"android":"levelo://app?vid=82fb0625-b33b-4d01-9f26-afaf0b9368eb","ios":"levelo://app?vid=82fb0625-b33b-4d01-9f26-afaf0b9368eb"},"vehicle_type_id":"4","last_reported":1742062307,"current_range_meters":11200,"station_id":"ce4bhbh2rcd13ifvqeo0","pricing_plan_id":"cebpf4jnsgd1na2vs0mg"},{"bike_id":"3a766561-d5df-4bb1-accb-85c347f27a70","system_id":"levelo_inurba_marseille","lat":43.33723,"lon":5.39186,"is_reserved":false,"is_disabled":false,"rental_uris":{"android":"levelo://app?vid=3a766561-d5df-4bb1-accb-85c347f27a70","ios":"levelo://app?vid=3a766561-d5df-4bb1-accb-85c347f27a70"},"vehicle_type_id":"4","last_reported":1742062307,"current_range_meters":11200,"station_id":"ce4bhr92rcd13ifvqhsg","pricing_plan_id":"cebpf4jnsgd1na2vs0mg"},{"bike_id":"31710fca-ccfa-43a5-ac6f-5ec923018ebf","system_id":"levelo_inurba_marseille","lat":43.27404,"lon":5.42055,"is_reserved":false,"is_disabled":false,"rental_uris":{"android":"levelo://app?vid=31710fca-ccfa-43a5-ac6f-5ec923018ebf","ios":"levelo://app?vid=31710fca-ccfa-43a5-ac6f-5ec923018ebf"},"vehicle_type_id":"4","last_reported":1742062307,"current_range_meters":11200,"station_id":"","pricing_plan_id":"cebpf4jnsgd1na2vs0mg"},{"bike_id":"6582e7c2-5aa5-4e6a-abc5-fa241e74aeb6","system_id":"levelo_inurba_marseille","lat":43.29895,"lon":5.43651,"is_reserved":false,"is_disabled":false,"rental_uris":{"android":"levelo://app?vid=6582e7c2-5aa5-4e6a-abc5-fa241e74aeb6","ios":"levelo://app?vid=6582e7c2-5aa5-4e6a-abc5-fa241e74aeb6"},"vehicle_type_id":"4","last_reported":1742062307,"current_range_meters":11600,"station_id":"ce4bhpp2rcd13ifvqhfg","pricing_plan_id":"cebpf4jnsgd1na2vs0mg"},{"bike_id":"3f51f1f5-7a39-4364-adc9-c4c0ef6e90b0","system_id":"levelo_inurba_marseille","lat":43.28621,"lon":5.35099,"is_reserved":false,"is_disabled":false,"rental_uris":{"android":"levelo://app?vid=3f51f1f5-7a39-4364-adc9-c4c0ef6e90b0","ios":"levelo://app?vid=3f51f1f5-7a39-4364-adc9-c4c0ef6e90b0"},"vehicle_type_id":"4","last_reported":1742062307,"current_range_meters":11600,"station_id":"ce4bhch2rcd13ifvqeug","pricing_plan_id":"cebpf4jnsgd1na2vs0mg"},{"bike_id":"28fa6ec1-80c0-4786-ae43-e5a0ceca200a","system_id":"levelo_inurba_marseille","lat":43.28935,"lon":5.38393,"is_reserved":false,"is_disabled":false,"rental_uris":{"android":"levelo://app?vid=28fa6ec1-80c0-4786-ae43-e5a0ceca200a","ios":"levelo://app?vid=28fa6ec1-80c0-4786-ae43-e5a0ceca200a"},"vehicle_type_id":"4","last_reported":1742062307,"current_range_meters":11600,"station_id":"ce4bh612rcd13ifvqe6g","pricing_plan_id":"cebpf4jnsgd1na2vs0mg"},{"bike_id":"3b068e33-38b9-49ca-a598-80961c1b8ef5","system_id":"levelo_inurba_marseille","lat":43.29848,"lon":5.36271,"is_reserved":false,"is_disabled":false,"rental_uris":{"android":"levelo://app?vid=3b068e33-38b9-49ca-a598-80961c1b8ef5","ios":"levelo://app?vid=3b068e33-38b9-49ca-a598-80961c1b8ef5"},"vehicle_type_id":"4","last_reported":1742062307,"current_range_meters":12000,"station_id":"ce4bgpp2rcd13ifvqc3g","pricing_plan_id":"cebpf4jnsgd1na2vs0mg"},{"bike_id":"a3e21697-5bfc-4258-985a-ee4306303cdc","system_id":"levelo_inurba_marseille","lat":43.296327,"lon":5.405966,"is_reserved":false,"is_disabled":false,"rental_uris":{"android":"levelo://app?vid=a3e21697-5bfc-4258-985a-ee4306303cdc","ios":"levelo://app?vid=a3e21697-5bfc-4258-985a-ee4306303cdc"},"vehicle_type_id":"4","last_reported":1742062307,"current_range_meters":11600,"station_id":"ce4bgv12rcd13ifvqcp0","pricing_plan_id":"cebpf4jnsgd1na2vs0mg"},{"bike_id":"b723aca3-8e78-42dc-aea3-2292da138d59","system_id":"levelo_inurba_marseille","lat":43.23054,"lon":5.35499,"is_reserved":false,"is_disabled":false,"rental_uris":{"android":"levelo://app?vid=b723aca3-8e78-42dc-aea3-2292da138d59","ios":"levelo://app?vid=b723aca3-8e78-42dc-aea3-2292da138d59"},"vehicle_type_id":"4","last_reported":1742062307,"current_range_meters":11600,"station_id":"cpo3342slgdg3j2ifvpg","pricing_plan_id":"cebpf4jnsgd1na2vs0mg"},{"bike_id":"8473bf4e-bce4-4915-beac-ba58d56310a4","system_id":"levelo_inurba_marseille","lat":43.296,"lon":5.38099,"is_reserved":false,"is_disabled":false,"rental_uris":{"android":"levelo://app?vid=8473bf4e-bce4-4915-beac-ba58d56310a4","ios":"levelo://app?vid=8473bf4e-bce4-4915-beac-ba58d56310a4"},"vehicle_type_id":"4","last_reported":1742062307,"current_range_meters":11600,"station_id":"ce4bgl12rcd13ifvqbo0","pricing_plan_id":"cebpf4jnsgd1na2vs0mg"},{"bike_id":"9b5bfb6c-cdc6-4f8c-b8c8-c8cddc221e18","system_id":"levelo_inurba_marseille","lat":43.29789,"lon":5.38098,"is_reserved":false,"is_disabled":false,"rental_uris":{"android":"levelo://app?vid=9b5bfb6c-cdc6-4f8c-b8c8-c8cddc221e18","ios":"levelo://app?vid=9b5bfb6c-cdc6-4f8c-b8c8-c8cddc221e18"},"vehicle_type_id":"4","last_reported":1742062307,"current_range_meters":11600,"station_id":"ce4bgip2rcd13ifvqbb0","pricing_plan_id":"cebpf4jnsgd1na2vs0mg"},{"bike_id":"10044722-9baa-416e-a6f1-7ac67f5372b1","system_id":"levelo_inurba_marseille","lat":43.29624,"lon":5.37747,"is_reserved":false,"is_disabled":true,"rental_uris":{"android":"levelo://app?vid=10044722-9baa-416e-a6f1-7ac67f5372b1","ios":"levelo://app?vid=10044722-9baa-416e-a6f1-7ac67f5372b1"},"vehicle_type_id":"4","last_reported":1742062307,"current_range_meters":12000,"station_id":"ce4bgi92rcd13ifvqb90","pricing_plan_id":"cebpf4jnsgd1na2vs0mg"},{"bike_id":"e2eeef0a-6097-43b2-ac9f-071e43b60347","system_id":"levelo_inurba_marseille","lat":43.2841,"lon":5.37513,"is_reserved":false,"is_disabled":false,"rental_uris":{"android":"levelo://app?vid=e2eeef0a-6097-43b2-ac9f-071e43b60347","ios":"levelo://app?vid=e2eeef0a-6097-43b2-ac9f-071e43b60347"},"vehicle_type_id":"4","last_reported":1742062307,"current_range_meters":12000,"station_id":"ce4bh412rcd13ifvqds0","pricing_plan_id":"cebpf4jnsgd1na2vs0mg"},{"bike_id":"be164deb-8af5-4bdf-8aef-4054d70ac001","system_id":"levelo_inurba_marseille","lat":43.3061,"lon":5.37193,"is_reserved":false,"is_disabled":false,"rental_uris":{"android":"levelo://app?vid=be164deb-8af5-4bdf-8aef-4054d70ac001","ios":"levelo://app?vid=be164deb-8af5-4bdf-8aef-4054d70ac001"},"vehicle_type_id":"4","last_reported":1742062307,"current_range_meters":12000,"station_id":"ce4bgqh2rcd13ifvqc4g","pricing_plan_id":"cebpf4jnsgd1na2vs0mg"},{"bike_id":"59fabd73-c806-41b6-bcf9-f66a2e415d54","system_id":"levelo_inurba_marseille","lat":43.26233,"lon":5.40436,"is_reserved":false,"is_disabled":false,"rental_uris":{"android":"levelo://app?vid=59fabd73-c806-41b6-bcf9-f66a2e415d54","ios":"levelo://app?vid=59fabd73-c806-41b6-bcf9-f66a2e415d54"},"vehicle_type_id":"4","last_reported":1742062307,"current_range_meters":12000,"station_id":"ce4bhmh2rcd13ifvqgmg","pricing_plan_id":"cebpf4jnsgd1na2vs0mg"},{"bike_id":"20fb1480-f038-46d0-a972-0f8a739c0e49","system_id":"levelo_inurba_marseille","lat":43.29914,"lon":5.38143,"is_reserved":false,"is_disabled":false,"rental_uris":{"android":"levelo://app?vid=20fb1480-f038-46d0-a972-0f8a739c0e49","ios":"levelo://app?vid=20fb1480-f038-46d0-a972-0f8a739c0e49"},"vehicle_type_id":"4","last_reported":1742062307,"current_range_meters":12000,"station_id":"ce4bgj12rcd13ifvqbc0","pricing_plan_id":"cebpf4jnsgd1na2vs0mg"},{"bike_id":"71d6b220-48b3-44b0-9feb-d7bbfca6b232","system_id":"levelo_inurba_marseille","lat":43.25497,"lon":5.37659,"is_reserved":false,"is_disabled":true,"rental_uris":{"android":"levelo://app?vid=71d6b220-48b3-44b0-9feb-d7bbfca6b232","ios":"levelo://app?vid=71d6b220-48b3-44b0-9feb-d7bbfca6b232"},"vehicle_type_id":"4","last_reported":1742062307,"current_range_meters":12000,"station_id":"ce4bhh12rcd13ifvqff0","pricing_plan_id":"cebpf4jnsgd1na2vs0mg"},{"bike_id":"71b342b8-694b-40d5-99e8-310baf77a970","system_id":"levelo_inurba_marseille","lat":43.23062,"lon":5.35489,"is_reserved":false,"is_disabled":false,"rental_uris":{"android":"levelo://app?vid=71b342b8-694b-40d5-99e8-310baf77a970","ios":"levelo://app?vid=71b342b8-694b-40d5-99e8-310baf77a970"},"vehicle_type_id":"4","last_reported":1742062307,"current_range_meters":12400,"station_id":"cpo3342slgdg3j2ifvpg","pricing_plan_id":"cebpf4jnsgd1na2vs0mg"},{"bike_id":"90c707aa-0edc-4e94-a911-252e6bd4d4c2","system_id":"levelo_inurba_marseille","lat":43.28632,"lon":5.35124,"is_reserved":false,"is_disabled":false,"rental_uris":{"android":"levelo://app?vid=90c707aa-0edc-4e94-a911-252e6bd4d4c2","ios":"levelo://app?vid=90c707aa-0edc-4e94-a911-252e6bd4d4c2"},"vehicle_type_id":"4","last_reported":1742062307,"current_range_meters":12400,"station_id":"ce4bhch2rcd13ifvqeug","pricing_plan_id":"cebpf4jnsgd1na2vs0mg"},{"bike_id":"8a351cba-b84e-41de-a819-876539dbece0","system_id":"levelo_inurba_marseille","lat":43.28681,"lon":5.37369,"is_reserved":false,"is_disabled":false,"rental_uris":{"android":"levelo://app?vid=8a351cba-b84e-41de-a819-876539dbece0","ios":"levelo://app?vid=8a351cba-b84e-41de-a819-876539dbece0"},"vehicle_type_id":"4","last_reported":1742062307,"current_range_meters":12400,"station_id":"ce4bh3p2rcd13ifvqdq0","pricing_plan_id":"cebpf4jnsgd1na2vs0mg"},{"bike_id":"fc071de1-2cc0-488a-a43e-f8037a5a9a49","system_id":"levelo_inurba_marseille","lat":43.23074,"lon":5.35492,"is_reserved":false,"is_disabled":false,"rental_uris":{"android":"levelo://app?vid=fc071de1-2cc0-488a-a43e-f8037a5a9a49","ios":"levelo://app?vid=fc071de1-2cc0-488a-a43e-f8037a5a9a49"},"vehicle_type_id":"4","last_reported":1742062307,"current_range_meters":12400,"station_id":"cpo3342slgdg3j2ifvpg","pricing_plan_id":"cebpf4jnsgd1na2vs0mg"},{"bike_id":"174c9c66-b172-484e-b7f9-5752aa18aabf","system_id":"levelo_inurba_marseille","lat":43.23075,"lon":5.35501,"is_reserved":false,"is_disabled":false,"rental_uris":{"android":"levelo://app?vid=174c9c66-b172-484e-b7f9-5752aa18aabf","ios":"levelo://app?vid=174c9c66-b172-484e-b7f9-5752aa18aabf"},"vehicle_type_id":"4","last_reported":1742062307,"current_range_meters":12400,"station_id":"cpo3342slgdg3j2ifvpg","pricing_plan_id":"cebpf4jnsgd1na2vs0mg"},{"bike_id":"e1bc5517-89cc-4fbd-afdb-e8d3c61b8e55","system_id":"levelo_inurba_marseille","lat":43.32374,"lon":5.36778,"is_reserved":false,"is_disabled":false,"rental_uris":{"android":"levelo://app?vid=e1bc5517-89cc-4fbd-afdb-e8d3c61b8e55","ios":"levelo://app?vid=e1bc5517-89cc-4fbd-afdb-e8d3c61b8e55"},"vehicle_type_id":"4","last_reported":1742062307,"current_range_meters":12400,"station_id":"ce4bhsh2rcd13ifvqi2g","pricing_plan_id":"cebpf4jnsgd1na2vs0mg"},{"bike_id":"a3da2e7c-abd3-4dd9-8699-e91a0886a8b6","system_id":"levelo_inurba_marseille","lat":43.26491,"lon":5.39543,"is_reserved":false,"is_disabled":false,"rental_uris":{"android":"levelo://app?vid=a3da2e7c-abd3-4dd9-8699-e91a0886a8b6","ios":"levelo://app?vid=a3da2e7c-abd3-4dd9-8699-e91a0886a8b6"},"vehicle_type_id":"4","last_reported":1742062307,"current_range_meters":12400,"station_id":"ce4bhi12rcd13ifvqfq0","pricing_plan_id":"cebpf4jnsgd1na2vs0mg"},{"bike_id":"ba183b5f-72d3-4a96-a2e5-fd5c28a77df1","system_id":"levelo_inurba_marseille","lat":43.29288,"lon":5.40118,"is_reserved":false,"is_disabled":false,"rental_uris":{"android":"levelo://app?vid=ba183b5f-72d3-4a96-a2e5-fd5c28a77df1","ios":"levelo://app?vid=ba183b5f-72d3-4a96-a2e5-fd5c28a77df1"},"vehicle_type_id":"4","last_reported":1742062307,"current_range_meters":12400,"station_id":"ce4bh312rcd13ifvqdk0","pricing_plan_id":"cebpf4jnsgd1na2vs0mg"},{"bike_id":"9a3b005d-73e3-4718-ad0a-b908fb501267","system_id":"levelo_inurba_marseille","lat":43.29883,"lon":5.38905,"is_reserved":false,"is_disabled":false,"rental_uris":{"android":"levelo://app?vid=9a3b005d-73e3-4718-ad0a-b908fb501267","ios":"levelo://app?vid=9a3b005d-73e3-4718-ad0a-b908fb501267"},"vehicle_type_id":"4","last_reported":1742062307,"current_range_meters":13600,"station_id":"ce4bh392rcd13ifvqdl0","pricing_plan_id":"cebpf4jnsgd1na2vs0mg"},{"bike_id":"6cc8a003-48bb-4098-b198-2415a9455723","system_id":"levelo_inurba_marseille","lat":43.27061,"lon":5.40261,"is_reserved":false,"is_disabled":false,"rental_uris":{"android":"levelo://app?vid=6cc8a003-48bb-4098-b198-2415a9455723","ios":"levelo://app?vid=6cc8a003-48bb-4098-b198-2415a9455723"},"vehicle_type_id":"4","last_reported":1742062307,"current_range_meters":12400,"station_id":"ce4bhk92rcd13ifvqgc0","pricing_plan_id":"cebpf4jnsgd1na2vs0mg"},{"bike_id":"ac28eb0b-f9e3-454d-8eb6-b1f5cccb5d84","system_id":"levelo_inurba_marseille","lat":43.29965,"lon":5.38496,"is_reserved":false,"is_disabled":false,"rental_uris":{"android":"levelo://app?vid=ac28eb0b-f9e3-454d-8eb6-b1f5cccb5d84","ios":"levelo://app?vid=ac28eb0b-f9e3-454d-8eb6-b1f5cccb5d84"},"vehicle_type_id":"4","last_reported":1742062307,"current_range_meters":12400,"station_id":"ce4bgj92rcd13ifvqbd0","pricing_plan_id":"cebpf4jnsgd1na2vs0mg"},{"bike_id":"4fa27d90-ae5c-4383-8b07-d59fefafbdde","system_id":"levelo_inurba_marseille","lat":43.30308,"lon":5.39192,"is_reserved":false,"is_disabled":false,"rental_uris":{"android":"levelo://app?vid=4fa27d90-ae5c-4383-8b07-d59fefafbdde","ios":"levelo://app?vid=4fa27d90-ae5c-4383-8b07-d59fefafbdde"},"vehicle_type_id":"4","last_reported":1742062307,"current_range_meters":12800,"station_id":"ce4bgkh2rcd13ifvqbk0","pricing_plan_id":"cebpf4jnsgd1na2vs0mg"},{"bike_id":"dabc5740-01e5-4dfd-b5c3-33816c157c08","system_id":"levelo_inurba_marseille","lat":43.230993,"lon":5.354783,"is_reserved":false,"is_disabled":false,"rental_uris":{"android":"levelo://app?vid=dabc5740-01e5-4dfd-b5c3-33816c157c08","ios":"levelo://app?vid=dabc5740-01e5-4dfd-b5c3-33816c157c08"},"vehicle_type_id":"4","last_reported":1742062307,"current_range_meters":12800,"station_id":"","pricing_plan_id":"cebpf4jnsgd1na2vs0mg"},{"bike_id":"c79bb127-8198-4096-96ea-1444569e00c1","system_id":"levelo_inurba_marseille","lat":43.23959,"lon":5.36626,"is_reserved":false,"is_disabled":true,"rental_uris":{"android":"levelo://app?vid=c79bb127-8198-4096-96ea-1444569e00c1","ios":"levelo://app?vid=c79bb127-8198-4096-96ea-1444569e00c1"},"vehicle_type_id":"4","last_reported":1742062307,"current_range_meters":12800,"station_id":"ce4bhi12rcd13ifvqfp0","pricing_plan_id":"cebpf4jnsgd1na2vs0mg"},{"bike_id":"0162ff87-7148-49d2-82e1-db37eca7d49d","system_id":"levelo_inurba_marseille","lat":43.28622,"lon":5.35109,"is_reserved":false,"is_disabled":false,"rental_uris":{"android":"levelo://app?vid=0162ff87-7148-49d2-82e1-db37eca7d49d","ios":"levelo://app?vid=0162ff87-7148-49d2-82e1-db37eca7d49d"},"vehicle_type_id":"4","last_reported":1742062307,"current_range_meters":12800,"station_id":"ce4bhch2rcd13ifvqeug","pricing_plan_id":"cebpf4jnsgd1na2vs0mg"},{"bike_id":"c2386259-d579-455e-a029-0c6788af76d2","system_id":"levelo_inurba_marseille","lat":43.29257,"lon":5.37641,"is_reserved":false,"is_disabled":false,"rental_uris":{"android":"levelo://app?vid=c2386259-d579-455e-a029-0c6788af76d2","ios":"levelo://app?vid=c2386259-d579-455e-a029-0c6788af76d2"},"vehicle_type_id":"4","last_reported":1742062307,"current_range_meters":12800,"station_id":"ce4bgi12rcd13ifvqb80","pricing_plan_id":"cebpf4jnsgd1na2vs0mg"},{"bike_id":"084e9cd0-ba7b-4410-911b-bd29122b16f6","system_id":"levelo_inurba_marseille","lat":43.24172,"lon":5.36429,"is_reserved":false,"is_disabled":false,"rental_uris":{"android":"levelo://app?vid=084e9cd0-ba7b-4410-911b-bd29122b16f6","ios":"levelo://app?vid=084e9cd0-ba7b-4410-911b-bd29122b16f6"},"vehicle_type_id":"4","last_reported":1742062307,"current_range_meters":12800,"station_id":"cpo36qri1sfpv3e86is0","pricing_plan_id":"cebpf4jnsgd1na2vs0mg"},{"bike_id":"1d94c08b-8f2b-46ba-a293-11c24d682e4e","system_id":"levelo_inurba_marseille","lat":43.28412,"lon":5.37529,"is_reserved":false,"is_disabled":false,"rental_uris":{"android":"levelo://app?vid=1d94c08b-8f2b-46ba-a293-11c24d682e4e","ios":"levelo://app?vid=1d94c08b-8f2b-46ba-a293-11c24d682e4e"},"vehicle_type_id":"4","last_reported":1742062307,"current_range_meters":13600,"station_id":"ce4bh412rcd13ifvqds0","pricing_plan_id":"cebpf4jnsgd1na2vs0mg"},{"bike_id":"7f085ede-3dd3-4648-a4bc-68694d0dbf60","system_id":"levelo_inurba_marseille","lat":43.29977,"lon":5.38487,"is_reserved":false,"is_disabled":false,"rental_uris":{"android":"levelo://app?vid=7f085ede-3dd3-4648-a4bc-68694d0dbf60","ios":"levelo://app?vid=7f085ede-3dd3-4648-a4bc-68694d0dbf60"},"vehicle_type_id":"4","last_reported":1742062307,"current_range_meters":13600,"station_id":"ce4bgj92rcd13ifvqbd0","pricing_plan_id":"cebpf4jnsgd1na2vs0mg"},{"bike_id":"d29954b9-94a9-4d4b-8f2a-4f834cdcd24e","system_id":"levelo_inurba_marseille","lat":43.30593,"lon":5.40106,"is_reserved":false,"is_disabled":false,"rental_uris":{"android":"levelo://app?vid=d29954b9-94a9-4d4b-8f2a-4f834cdcd24e","ios":"levelo://app?vid=d29954b9-94a9-4d4b-8f2a-4f834cdcd24e"},"vehicle_type_id":"4","last_reported":1742062307,"current_range_meters":13600,"station_id":"","pricing_plan_id":"cebpf4jnsgd1na2vs0mg"},{"bike_id":"c9b44e70-207e-46e4-a895-b34ec7d2bd46","system_id":"levelo_inurba_marseille","lat":43.306,"lon":5.37235,"is_reserved":false,"is_disabled":false,"rental_uris":{"android":"levelo://app?vid=c9b44e70-207e-46e4-a895-b34ec7d2bd46","ios":"levelo://app?vid=c9b44e70-207e-46e4-a895-b34ec7d2bd46"},"vehicle_type_id":"4","last_reported":1742062307,"current_range_meters":13600,"station_id":"ce4bgqh2rcd13ifvqc4g","pricing_plan_id":"cebpf4jnsgd1na2vs0mg"},{"bike_id":"83d91208-1e10-4cd7-930e-7a7c38222b84","system_id":"levelo_inurba_marseille","lat":43.32368,"lon":5.38881,"is_reserved":false,"is_disabled":false,"rental_uris":{"android":"levelo://app?vid=83d91208-1e10-4cd7-930e-7a7c38222b84","ios":"levelo://app?vid=83d91208-1e10-4cd7-930e-7a7c38222b84"},