{"last_updated":1736687584,"ttl":60,"version":"2.2","data":{"bikes":[{"bike_id":"a45576f7-42f1-4909-b017-bd1e8379966a","system_id":"levelo_inurba_marseille","lat":43.30022,"lon":5.43985,"is_reserved":false,"is_disabled":false,"rental_uris":{"android":"levelo://app?vid=a45576f7-42f1-4909-b017-bd1e8379966a","ios":"levelo://app?vid=a45576f7-42f1-4909-b017-bd1e8379966a"},"vehicle_type_id":"4","last_reported":1736687584,"current_range_meters":22000,"station_id":"","pricing_plan_id":"cebpf4jnsgd1na2vs0mg"},{"bike_id":"d4acb1e7-6657-4c60-803c-5aabd44a82c5","system_id":"levelo_inurba_marseille","lat":43.27998,"lon":5.40031,"is_reserved":false,"is_disabled":false,"rental_uris":{"android":"levelo://app?vid=d4acb1e7-6657-4c60-803c-5aabd44a82c5","ios":"levelo://app?vid=d4acb1e7-6657-4c60-803c-5aabd44a82c5"},"vehicle_type_id":"4","last_reported":1736687584,"current_range_meters":38400,"station_id":"ce4bho92rcd13ifvqh4g","pricing_plan_id":"cebpf4jnsgd1na2vs0mg"},{"bike_id":"d167f045-483d-4bbf-b9a5-2ae1bb59d319","system_id":"levelo_inurba_marseille","lat":43.3055,"lon":5.36558,"is_reserved":false,"is_disabled":false,"rental_uris":{"android":"levelo://app?vid=d167f045-483d-4bbf-b9a5-2ae1bb59d319","ios":"levelo://app?vid=d167f045-483d-4bbf-b9a5-2ae1bb59d319"},"vehicle_type_id":"4","last_reported":1736687584,"current_range_meters":19200,"station_id":"ce4bgs12rcd13ifvqcag","pricing_plan_id":"cebpf4jnsgd1na2vs0mg"},{"bike_id":"0d2e7ac9-9d26-4b13-8ebf-80d113f69d2d","system_id":"levelo_inurba_marseille","lat":43.28942,"lon":5.36398,"is_reserved":false,"is_disabled":false,"rental_uris":{"android":"levelo://app?vid=0d2e7ac9-9d26-4b13-8ebf-80d113f69d2d","ios":"levelo://app?vid=0d2e7ac9-9d26-4b13-8ebf-80d113f69d2d"},"vehicle_type_id":"4","last_reported":1736687584,"current_range_meters":30000,"station_id":"ce4bhc92rcd13ifvqetg","pricing_plan_id":"cebpf4jnsgd1na2vs0mg"},{"bike_id":"8ec1251a-8baf-4d63-8b7a-28e608dd863b","system_id":"levelo_inurba_marseille","lat":43.23958,"lon":5.36649,"is_reserved":false,"is_disabled":false,"rental_uris":{"android":"levelo://app?vid=8ec1251a-8baf-4d63-8b7a-28e608dd863b","ios":"levelo://app?vid=8ec1251a-8baf-4d63-8b7a-28e608dd863b"},"vehicle_type_id":"4","last_reported":1736687584,"current_range_meters":27600,"station_id":"ce4bhi12rcd13ifvqfp0","pricing_plan_id":"cebpf4jnsgd1na2vs0mg"},{"bike_id":"ce4ed575-1c9f-413c-9195-e45a164df8c1","system_id":"levelo_inurba_marseille","lat":43.27205,"lon":5.39194,"is_reserved":false,"is_disabled":false,"rental_uris":{"android":"levelo://app?vid=ce4ed575-1c9f-413c-9195-e45a164df8c1","ios":"levelo://app?vid=ce4ed575-1c9f-413c-9195-e45a164df8c1"},"vehicle_type_id":"4","last_reported":1736687584,"current_range_meters":28800,"station_id":"ce4bhhp2rcd13ifvqfm0","pricing_plan_id":"cebpf4jnsgd1na2vs0mg"},{"bike_id":"e757ce18-8092-4136-a84d-dacba370b233","system_id":"levelo_inurba_marseille","lat":43.30981,"lon":5.39074,"is_reserved":false,"is_disabled":false,"rental_uris":{"android":"levelo://app?vid=e757ce18-8092-4136-a84d-dacba370b233","ios":"levelo://app?vid=e757ce18-8092-4136-a84d-dacba370b233"},"vehicle_type_id":"4","last_reported":1736687584,"current_range_meters":14000,"station_id":"ce4bgup2rcd13ifvqco0","pricing_plan_id":"cebpf4jnsgd1na2vs0mg"},{"bike_id":"8edac17e-db8a-4fb5-8649-04ac51d96ef7","system_id":"levelo_inurba_marseille","lat":43.32538,"lon":5.41435,"is_reserved":false,"is_disabled":true,"rental_uris":{"android":"levelo://app?vid=8edac17e-db8a-4fb5-8649-04ac51d96ef7","ios":"levelo://app?vid=8edac17e-db8a-4fb5-8649-04ac51d96ef7"},"vehicle_type_id":"4","last_reported":1736687584,"current_range_meters":0,"station_id":"ce4bhq12rcd13ifvqhhg","pricing_plan_id":"cebpf4jnsgd1na2vs0mg"},{"bike_id":"ddca97d7-b7b1-48ff-88b8-3c9fefa123b6","system_id":"levelo_inurba_marseille","lat":43.30947,"lon":5.39049,"is_reserved":false,"is_disabled":false,"rental_uris":{"android":"levelo://app?vid=ddca97d7-b7b1-48ff-88b8-3c9fefa123b6","ios":"levelo://app?vid=ddca97d7-b7b1-48ff-88b8-3c9fefa123b6"},"vehicle_type_id":"4","last_reported":1736687584,"current_range_meters":38800,"station_id":"ce4bgup2rcd13ifvqco0","pricing_plan_id":"cebpf4jnsgd1na2vs0mg"},{"bike_id":"0ea60a2f-cda4-4308-83fa-1ed45460e073","system_id":"levelo_inurba_marseille","lat":43.32297,"lon":5.3828,"is_reserved":false,"is_disabled":false,"rental_uris":{"android":"levelo://app?vid=0ea60a2f-cda4-4308-83fa-1ed45460e073","ios":"levelo://app?vid=0ea60a2f-cda4-4308-83fa-1ed45460e073"},"vehicle_type_id":"4","last_reported":1736687584,"current_range_meters":38000,"station_id":"ce4bhr12rcd13ifvqhqg","pricing_plan_id":"cebpf4jnsgd1na2vs0mg"},{"bike_id":"03082523-27ee-4172-aa26-ed74a79a8f2e","system_id":"levelo_inurba_marseille","lat":43.30949,"lon":5.39037,"is_reserved":false,"is_disabled":false,"rental_uris":{"android":"levelo://app?vid=03082523-27ee-4172-aa26-ed74a79a8f2e","ios":"levelo://app?vid=03082523-27ee-4172-aa26-ed74a79a8f2e"},"vehicle_type_id":"4","last_reported":1736687584,"current_range_meters":23200,"station_id":"ce4bgup2rcd13ifvqco0","pricing_plan_id":"cebpf4jnsgd1na2vs0mg"},{"bike_id":"705a64db-6ba3-4327-aff7-80d2de17d629","system_id":"levelo_inurba_marseille","lat":43.25,"lon":5.38929,"is_reserved":false,"is_disabled":false,"rental_uris":{"android":"levelo://app?vid=705a64db-6ba3-4327-aff7-80d2de17d629","ios":"levelo://app?vid=705a64db-6ba3-4327-aff7-80d2de17d629"},"vehicle_type_id":"4","last_reported":1736687584,"current_range_meters":28000,"station_id":"ce4bhgp2rcd13ifvqfd0","pricing_plan_id":"cebpf4jnsgd1na2vs0mg"},{"bike_id":"51552a4b-874a-45d6-8a00-6c24cfee1729","system_id":"levelo_inurba_marseille","lat":43.25583,"lon":5.38236,"is_reserved":false,"is_disabled":false,"rental_uris":{"android":"levelo://app?vid=51552a4b-874a-45d6-8a00-6c24cfee1729","ios":"levelo://app?vid=51552a4b-874a-45d6-8a00-6c24cfee1729"},"vehicle_type_id":"4","last_reported":1736687584,"current_range_meters":10800,"station_id":"ce4bhih2rcd13ifvqfs0","pricing_plan_id":"cebpf4jnsgd1na2vs0mg"},{"bike_id":"16a0ec8c-48c2-474f-a5c0-6c5a74010f79","system_id":"levelo_inurba_marseille","lat":43.24804,"lon":5.37455,"is_reserved":false,"is_disabled":false,"rental_uris":{"android":"levelo://app?vid=16a0ec8c-48c2-474f-a5c0-6c5a74010f79","ios":"levelo://app?vid=16a0ec8c-48c2-474f-a5c0-6c5a74010f79"},"vehicle_type_id":"4","last_reported":1736687584,"current_range_meters":22800,"station_id":"ce4bhgh2rcd13ifvqfb0","pricing_plan_id":"cebpf4jnsgd1na2vs0mg"},{"bike_id":"acb9a0a1-214f-4876-8bd7-0f333a94cc78","system_id":"levelo_inurba_marseille","lat":43.25494,"lon":5.37657,"is_reserved":false,"is_disabled":false,"rental_uris":{"android":"levelo://app?vid=acb9a0a1-214f-4876-8bd7-0f333a94cc78","ios":"levelo://app?vid=acb9a0a1-214f-4876-8bd7-0f333a94cc78"},"vehicle_type_id":"4","last_reported":1736687584,"current_range_meters":32000,"station_id":"ce4bhh12rcd13ifvqff0","pricing_plan_id":"cebpf4jnsgd1na2vs0mg"},{"bike_id":"04de4abd-c042-4567-840f-67d9971c2b01","system_id":"levelo_inurba_marseille","lat":43.28361,"lon":5.38639,"is_reserved":false,"is_disabled":false,"rental_uris":{"android":"levelo://app?vid=04de4abd-c042-4567-840f-67d9971c2b01","ios":"levelo://app?vid=04de4abd-c042-4567-840f-67d9971c2b01"},"vehicle_type_id":"4","last_reported":1736687584,"current_range_meters":20400,"station_id":"ce4bh492rcd13ifvqdvg","pricing_plan_id":"cebpf4jnsgd1na2vs0mg"},{"bike_id":"5f160b55-fb3f-48ee-84e2-54e5caf10a0d","system_id":"levelo_inurba_marseille","lat":43.29021,"lon":5.35913,"is_reserved":false,"is_disabled":false,"rental_uris":{"android":"levelo://app?vid=5f160b55-fb3f-48ee-84e2-54e5caf10a0d","ios":"levelo://app?vid=5f160b55-fb3f-48ee-84e2-54e5caf10a0d"},"vehicle_type_id":"4","last_reported":1736687584,"current_range_meters":38800,"station_id":"ce4bha92rcd13ifvqeg0","pricing_plan_id":"cebpf4jnsgd1na2vs0mg"},{"bike_id":"3c1238b5-1583-453e-86e2-e7b84ac26e2a","system_id":"levelo_inurba_marseille","lat":43.23151,"lon":5.43724,"is_reserved":false,"is_disabled":false,"rental_uris":{"android":"levelo://app?vid=3c1238b5-1583-453e-86e2-e7b84ac26e2a","ios":"levelo://app?vid=3c1238b5-1583-453e-86e2-e7b84ac26e2a"},"vehicle_type_id":"4","last_reported":1736687584,"current_range_meters":19600,"station_id":"ce4bhmp2rcd13ifvqgog","pricing_plan_id":"cebpf4jnsgd1na2vs0mg"},{"bike_id":"d276c7b8-7f0b-44a5-aba2-294e6debc801","system_id":"levelo_inurba_marseille","lat":43.28941,"lon":5.36634,"is_reserved":false,"is_disabled":false,"rental_uris":{"android":"levelo://app?vid=d276c7b8-7f0b-44a5-aba2-294e6debc801","ios":"levelo://app?vid=d276c7b8-7f0b-44a5-aba2-294e6debc801"},"vehicle_type_id":"4","last_reported":1736687584,"current_range_meters":20400,"station_id":"ce4bhap2rcd13ifvqek0","pricing_plan_id":"cebpf4jnsgd1na2vs0mg"},{"bike_id":"b23692b2-6195-4df9-b352-52bf4c4cb683","system_id":"levelo_inurba_marseille","lat":43.23194,"lon":5.35553,"is_reserved":false,"is_disabled":false,"rental_uris":{"android":"levelo://app?vid=b23692b2-6195-4df9-b352-52bf4c4cb683","ios":"levelo://app?vid=b23692b2-6195-4df9-b352-52bf4c4cb683"},"vehicle_type_id":"4","last_reported":1736687584,"current_range_meters":28000,"station_id":"ce4bhu92rcd13ifvqi70","pricing_plan_id":"cebpf4jnsgd1na2vs0mg"},{"bike_id":"3afc3c08-3d38-47dc-92ac-f0a2f26bec20","system_id":"levelo_inurba_marseille","lat":43.313705,"lon":5.384969,"is_reserved":false,"is_disabled":false,"rental_uris":{"android":"levelo://app?vid=3afc3c08-3d38-47dc-92ac-f0a2f26bec20","ios":"levelo://app?vid=3afc3c08-3d38-47dc-92ac-f0a2f26bec20"},"vehicle_type_id":"4","last_reported":1736687584,"current_range_meters":37600,"station_id":"ce4bgt92rcd13ifvqcf0","pricing_plan_id":"cebpf4jnsgd1na2vs0mg"},{"bike_id":"004c2ac5-7f25-4e48-8a80-9a02537f6ba6","system_id":"levelo_inurba_marseille","lat":43.321,"lon":5.36763,"is_reserved":false,"is_disabled":false,"rental_uris":{"android":"levelo://app?vid=004c2ac5-7f25-4e48-8a80-9a02537f6ba6","ios":"levelo://app?vid=004c2ac5-7f25-4e48-8a80-9a02537f6ba6"},"vehicle_type_id":"4","last_reported":1736687584,"current_range_meters":25600,"station_id":"ce4bhrh2rcd13ifvqhug","pricing_plan_id":"cebpf4jnsgd1na2vs0mg"},{"bike_id":"6a8dc65c-8c47-4239-8815-8efa2acdc338","system_id":"levelo_inurba_marseille","lat":43.27989,"lon":5.41665,"is_reserved":false,"is_disabled":true,"rental_uris":{"android":"levelo://app?vid=6a8dc65c-8c47-4239-8815-8efa2acdc338","ios":"levelo://app?vid=6a8dc65c-8c47-4239-8815-8efa2acdc338"},"vehicle_type_id":"4","last_reported":1736687584,"current_range_meters":8000,"station_id":"ce4bho12rcd13ifvqh1g","pricing_plan_id":"cebpf4jnsgd1na2vs0mg"},{"bike_id":"94d00723-79f7-443c-bc62-0c89ddbb1d1c","system_id":"levelo_inurba_marseille","lat":43.28168,"lon":5.42674,"is_reserved":false,"is_disabled":true,"rental_uris":{"android":"levelo://app?vid=94d00723-79f7-443c-bc62-0c89ddbb1d1c","ios":"levelo://app?vid=94d00723-79f7-443c-bc62-0c89ddbb1d1c"},"vehicle_type_id":"4","last_reported":1736687584,"current_range_meters":25600,"station_id":"ce4bhnh2rcd13ifvqgug","pricing_plan_id":"cebpf4jnsgd1na2vs0mg"},{"bike_id":"23c60bcc-fe0d-41d1-83ce-c4de70ad2a46","system_id":"levelo_inurba_marseille","lat":43.3117,"lon":5.38753,"is_reserved":false,"is_disabled":false,"rental_uris":{"android":"levelo://app?vid=23c60bcc-fe0d-41d1-83ce-c4de70ad2a46","ios":"levelo://app?vid=23c60bcc-fe0d-41d1-83ce-c4de70ad2a46"},"vehicle_type_id":"4","last_reported":1736687584,"current_range_meters":38800,"station_id":"ce4bgv12rcd13ifvqcp0","pricing_plan_id":"cebpf4jnsgd1na2vs0mg"},{"bike_id":"c1dea8eb-dedb-48c3-82b9-ba4d059a0755","system_id":"levelo_inurba_marseille","lat":43.26556,"lon":5.37288,"is_reserved":false,"is_disabled":true,"rental_uris":{"android":"levelo://app?vid=c1dea8eb-dedb-48c3-82b9-ba4d059a0755","ios":"levelo://app?vid=c1dea8eb-dedb-48c3-82b9-ba4d059a0755"},"vehicle_type_id":"4","last_reported":1736687584,"current_range_meters":38800,"station_id":"ce4bhg12rcd13ifvqf70","pricing_plan_id":"cebpf4jnsgd1na2vs0mg"},{"bike_id":"f7253ea7-1840-46d0-b4c6-8bc8303cef00","system_id":"levelo_inurba_marseille","lat":43.24402,"lon":5.37045,"is_reserved":false,"is_disabled":false,"rental_uris":{"android":"levelo://app?vid=f7253ea7-1840-46d0-b4c6-8bc8303cef00","ios":"levelo://app?vid=f7253ea7-1840-46d0-b4c6-8bc8303cef00"},"vehicle_type_id":"4","last_reported":1736687584,"current_range_meters":38800,"station_id":"ce4bhhh2rcd13ifvqfk0","pricing_plan_id":"cebpf4jnsgd1na2vs0mg"},{"bike_id":"f07cf1e5-2261-46e4-9c9d-059f12c56910","system_id":"levelo_inurba_marseille","lat":43.25508,"lon":5.37649,"is_reserved":false,"is_disabled":false,"rental_uris":{"android":"levelo://app?vid=f07cf1e5-2261-46e4-9c9d-059f12c56910","ios":"levelo://app?vid=f07cf1e5-2261-46e4-9c9d-059f12c56910"},"vehicle_type_id":"4","last_reported":1736687584,"current_range_meters":23200,"station_id":"ce4bhh12rcd13ifvqff0","pricing_plan_id":"cebpf4jnsgd1na2vs0mg"},{"bike_id":"08ae3915-17de-4a4c-8174-f5e8b0a6a997","system_id":"levelo_inurba_marseille","lat":43.28263,"lon":5.35077,"is_reserved":false,"is_disabled":false,"rental_uris":{"android":"levelo://app?vid=08ae3915-17de-4a4c-8174-f5e8b0a6a997","ios":"levelo://app?vid=08ae3915-17de-4a4c-8174-f5e8b0a6a997"},"vehicle_type_id":"4","last_reported":1736687584,"current_range_meters":20400,"station_id":"ce4bhbp2rcd13ifvqerg","pricing_plan_id":"cebpf4jnsgd1na2vs0mg"},{"bike_id":"7f2aa2eb-72bb-4498-b8f3-da220d430db2","system_id":"levelo_inurba_marseille","lat":43.26569,"lon":5.39007,"is_reserved":false,"is_disabled":false,"rental_uris":{"android":"levelo://app?vid=7f2aa2eb-72bb-4498-b8f3-da220d430db2","ios":"levelo://app?vid=7f2aa2eb-72bb-4498-b8f3-da220d430db2"},"vehicle_type_id":"4","last_reported":1736687584,"current_range_meters":24400,"station_id":"ce4bhe12rcd13ifvqf30","pricing_plan_id":"cebpf4jnsgd1na2vs0mg"},{"bike_id":"5048781b-c4ca-44b4-a7cb-93ad5e27618d","system_id":"levelo_inurba_marseille","lat":43.300936,"lon":5.387257,"is_reserved":false,"is_disabled":false,"rental_uris":{"android":"levelo://app?vid=5048781b-c4ca-44b4-a7cb-93ad5e27618d","ios":"levelo://app?vid=5048781b-c4ca-44b4-a7cb-93ad5e27618d"},"vehicle_type_id":"4","last_reported":1736687584,"current_range_meters":15200,"station_id":"ce4bgv12rcd13ifvqcp0","pricing_plan_id":"cebpf4jnsgd1na2vs0mg"},{"bike_id":"44ad9bf6-9550-4530-b74c-7606b4dfb73a","system_id":"levelo_inurba_marseille","lat":43.27322,"lon":5.39112,"is_reserved":false,"is_disabled":false,"rental_uris":{"android":"levelo://app?vid=44ad9bf6-9550-4530-b74c-7606b4dfb73a","ios":"levelo://app?vid=44ad9bf6-9550-4530-b74c-7606b4dfb73a"},"vehicle_type_id":"4","last_reported":1736687584,"current_range_meters":12800,"station_id":"ce4bhgp2rcd13ifvqfe0","pricing_plan_id":"cebpf4jnsgd1na2vs0mg"},{"bike_id":"6b750947-fb43-40e2-9931-495446cc2b3f","system_id":"levelo_inurba_marseille","lat":43.2293,"lon":5.35371,"is_reserved":false,"is_disabled":false,"rental_uris":{"android":"levelo://app?vid=6b750947-fb43-40e2-9931-495446cc2b3f","ios":"levelo://app?vid=6b750947-fb43-40e2-9931-495446cc2b3f"},"vehicle_type_id":"4","last_reported":1736687584,"current_range_meters":34000,"station_id":"cpo3532slgdg3j2ikp40","pricing_plan_id":"cebpf4jnsgd1na2vs0mg"},{"bike_id":"c8e997c0-8580-4d0f-8d9f-0766596381e1","system_id":"levelo_inurba_marseille","lat":43.3403,"lon":5.37575,"is_reserved":false,"is_disabled":true,"rental_uris":{"android":"levelo://app?vid=c8e997c0-8580-4d0f-8d9f-0766596381e1","ios":"levelo://app?vid=c8e997c0-8580-4d0f-8d9f-0766596381e1"},"vehicle_type_id":"4","last_reported":1736687584,"current_range_meters":800,"station_id":"","pricing_plan_id":"cebpf4jnsgd1na2vs0mg"},{"bike_id":"4b46f18f-aac1-48a7-8621-63c9b65fbd68","system_id":"levelo_inurba_marseille","lat":43.28004,"lon":5.40004,"is_reserved":false,"is_disabled":true,"rental_uris":{"android":"levelo://app?vid=4b46f18f-aac1-48a7-8621-63c9b65fbd68","ios":"levelo://app?vid=4b46f18f-aac1-48a7-8621-63c9b65fbd68"},"vehicle_type_id":"4","last_reported":1736687584,"current_range_meters":2000,"station_id":"ce4bho92rcd13ifvqh4g","pricing_plan_id":"cebpf4jnsgd1na2vs0mg"},{"bike_id":"ba5df164-d25c-4a1c-8679-1bd1a1db0642","system_id":"levelo_inurba_marseille","lat":43.33724,"lon":5.39196,"is_reserved":false,"is_disabled":false,"rental_uris":{"android":"levelo://app?vid=ba5df164-d25c-4a1c-8679-1bd1a1db0642","ios":"levelo://app?vid=ba5df164-d25c-4a1c-8679-1bd1a1db0642"},"vehicle_type_id":"4","last_reported":1736687584,"current_range_meters":24400,"station_id":"ce4bhr92rcd13ifvqhsg","pricing_plan_id":"cebpf4jnsgd1na2vs0mg"},{"bike_id":"087f784c-6451-4665-896b-9e7c7cacc314","system_id":"levelo_inurba_marseille","lat":43.30056,"lon":5.37566,"is_reserved":false,"is_disabled":true,"rental_uris":{"android":"levelo://app?vid=087f784c-6451-4665-896b-9e7c7cacc314","ios":"levelo://app?vid=087f784c-6451-4665-896b-9e7c7cacc314"},"vehicle_type_id":"4","last_reported":1736687584,"current_range_meters":1200,"station_id":"","pricing_plan_id":"cebpf4jnsgd1na2vs0mg"},{"bike_id":"a0fcb8ae-3c62-42ed-9258-294b5ce23087","system_id":"levelo_inurba_marseille","lat":43.251066,"lon":5.403208,"is_reserved":false,"is_disabled":false,"rental_uris":{"android":"levelo://app?vid=a0fcb8ae-3c62-42ed-9258-294b5ce23087","ios":"levelo://app?vid=a0fcb8ae-3c62-42ed-9258-294b5ce23087"},"vehicle_type_id":"4","last_reported":1736687584,"current_range_meters":38800,"station_id":"ce4bhlh2rcd13ifvqgig","pricing_plan_id":"cebpf4jnsgd1na2vs0mg"},{"bike_id":"eb9b2df2-fdc1-4d66-abed-6bda4748c4f1","system_id":"levelo_inurba_marseille","lat":43.26233,"lon":5.37924,"is_reserved":false,"is_disabled":false,"rental_uris":{"android":"levelo://app?vid=eb9b2df2-fdc1-4d66-abed-6bda4748c4f1","ios":"levelo://app?vid=eb9b2df2-fdc1-4d66-abed-6bda4748c4f1"},"vehicle_type_id":"4","last_reported":1736687584,"current_range_meters":23200,"station_id":"ce4bhjp2rcd13ifvqg90","pricing_plan_id":"cebpf4jnsgd1na2vs0mg"},{"bike_id":"7dd5dd5e-1d75-4c5b-b5b8-248a34302cca","system_id":"levelo_inurba_marseille","lat":43.30445,"lon":5.37908,"is_reserved":false,"is_disabled":true,"rental_uris":{"android":"levelo://app?vid=7dd5dd5e-1d75-4c5b-b5b8-248a34302cca","ios":"levelo://app?vid=7dd5dd5e-1d75-4c5b-b5b8-248a34302cca"},"vehicle_type_id":"4","last_reported":1736687584,"current_range_meters":30000,"station_id":"ce4bgup2rcd13ifvqcn0","pricing_plan_id":"cebpf4jnsgd1na2vs0mg"},{"bike_id":"4e6a1fdd-84f1-4ff7-9556-c133bbbd986f","system_id":"levelo_inurba_marseille","lat":43.261906,"lon":5.374644,"is_reserved":false,"is_disabled":false,"rental_uris":{"android":"levelo://app?vid=4e6a1fdd-84f1-4ff7-9556-c133bbbd986f","ios":"levelo://app?vid=4e6a1fdd-84f1-4ff7-9556-c133bbbd986f"},"vehicle_type_id":"4","last_reported":1736687584,"current_range_meters":28800,"station_id":"ce4bhgp2rcd13ifvqfc0","pricing_plan_id":"cebpf4jnsgd1na2vs0mg"},{"bike_id":"226e6ef0-a4fc-4895-9ad6-89f66438544b","system_id":"levelo_inurba_marseille","lat":43.28996,"lon":5.35597,"is_reserved":false,"is_disabled":true,"rental_uris":{"android":"levelo://app?vid=226e6ef0-a4fc-4895-9ad6-89f66438544b","ios":"levelo://app?vid=226e6ef0-a4fc-4895-9ad6-89f66438544b"},"vehicle_type_id":"4","last_reported":1736687584,"current_range_meters":38800,"station_id":"ce4bhb92rcd13ifvqen0","pricing_plan_id":"cebpf4jnsgd1na2vs0mg"},{"bike_id":"d8327471-e10e-4e1d-a46b-c43156fc0620","system_id":"levelo_inurba_marseille","lat":43.267757,"lon":5.394216,"is_reserved":false,"is_disabled":true,"rental_uris":{"android":"levelo://app?vid=d8327471-e10e-4e1d-a46b-c43156fc0620","ios":"levelo://app?vid=d8327471-e10e-4e1d-a46b-c43156fc0620"},"vehicle_type_id":"4","last_reported":1736687584,"current_range_meters":0,"station_id":"ce4bhh12rcd13ifvqfg0","pricing_plan_id":"cebpf4jnsgd1na2vs0mg"},{"bike_id":"88a901cb-7f74-4019-a0f1-f661d13208c8","system_id":"levelo_inurba_marseille","lat":43.32435,"lon":5.36583,"is_reserved":false,"is_disabled":false,"rental_uris":{"android":"levelo://app?vid=88a901cb-7f74-4019-a0f1-f661d13208c8","ios":"levelo://app?vid=88a901cb-7f74-4019-a0f1-f661d13208c8"},"vehicle_type_id":"4","last_reported":1736687584,"current_range_meters":36800,"station_id":"ce4bhs12rcd13ifvqhvg","pricing_plan_id":"cebpf4jnsgd1na2vs0mg"},{"bike_id":"7d959c37-4d60-4094-901d-194afd224ca0","system_id":"levelo_inurba_marseille","lat":43.283687,"lon":5.386388,"is_reserved":false,"is_disabled":true,"rental_uris":{"android":"levelo://app?vid=7d959c37-4d60-4094-901d-194afd224ca0","ios":"levelo://app?vid=7d959c37-4d60-4094-901d-194afd224ca0"},"vehicle_type_id":"4","last_reported":1736687584,"current_range_meters":10800,"station_id":"ce4bh492rcd13ifvqdvg","pricing_plan_id":"cebpf4jnsgd1na2vs0mg"},{"bike_id":"2f89f973-f79d-4481-ae53-58827e22969c","system_id":"levelo_inurba_marseille","lat":43.25583,"lon":5.3824,"is_reserved":false,"is_disabled":false,"rental_uris":{"android":"levelo://app?vid=2f89f973-f79d-4481-ae53-58827e22969c","ios":"levelo://app?vid=2f89f973-f79d-4481-ae53-58827e22969c"},"vehicle_type_id":"4","last_reported":1736687584,"current_range_meters":19600,"station_id":"ce4bhih2rcd13ifvqfs0","pricing_plan_id":"cebpf4jnsgd1na2vs0mg"},{"bike_id":"426ee80e-06b0-4d0f-86a5-ea8ad64aaa11","system_id":"levelo_inurba_marseille","lat":43.28921,"lon":5.43786,"is_reserved":false,"is_disabled":false,"rental_uris":{"android":"levelo://app?vid=426ee80e-06b0-4d0f-86a5-ea8ad64aaa11","ios":"levelo://app?vid=426ee80e-06b0-4d0f-86a5-ea8ad64aaa11"},"vehicle_type_id":"4","last_reported":1736687584,"current_range_meters":12800,"station_id":"","pricing_plan_id":"cebpf4jnsgd1na2vs0mg"},{"bike_id":"be336945-5568-43dd-8e7d-85c12348a127","system_id":"levelo_inurba_marseille","lat":43.28267,"lon":5.35078,"is_reserved":false,"is_disabled":false,"rental_uris":{"android":"levelo://app?vid=be336945-5568-43dd-8e7d-85c12348a127","ios":"levelo://app?vid=be336945-5568-43dd-8e7d-85c12348a127"},"vehicle_type_id":"4","last_reported":1736687584,"current_range_meters":35600,"station_id":"ce4bhbp2rcd13ifvqerg","pricing_plan_id":"cebpf4jnsgd1na2vs0mg"},{"bike_id":"b29dca30-1f99-4556-8d02-1cd94cfb8ea1","system_id":"levelo_inurba_marseille","lat":43.32476,"lon":5.36563,"is_reserved":false,"is_disabled":false,"rental_uris":{"android":"levelo://app?vid=b29dca30-1f99-4556-8d02-1cd94cfb8ea1","ios":"levelo://app?vid=b29dca30-1f99-4556-8d02-1cd94cfb8ea1"},"vehicle_type_id":"4","last_reported":1736687584,"current_range_meters":14000,"station_id":"ce4bhs12rcd13ifvqhvg","pricing_plan_id":"cebpf4jnsgd1na2vs0mg"},{"bike_id":"2b8ddac0-7918-454e-af5a-f9c04a1d3f9e","system_id":"levelo_inurba_marseille","lat":43.29738,"lon":5.37888,"is_reserved":false,"is_disabled":false,"rental_uris":{"android":"levelo://app?vid=2b8ddac0-7918-454e-af5a-f9c04a1d3f9e","ios":"levelo://app?vid=2b8ddac0-7918-454e-af5a-f9c04a1d3f9e"},"vehicle_type_id":"4","last_reported":1736687584,"current_range_meters":5600,"station_id":"","pricing_plan_id":"cebpf4jnsgd1na2vs0mg"},{"bike_id":"969e27ab-5a9e-459e-9526-3b57e6f57682","system_id":"levelo_inurba_marseille","lat":43.22932,"lon":5.35387,"is_reserved":false,"is_disabled":false,"rental_uris":{"android":"levelo://app?vid=969e27ab-5a9e-459e-9526-3b57e6f57682","ios":"levelo://app?vid=969e27ab-5a9e-459e-9526-3b57e6f57682"},"vehicle_type_id":"4","last_reported":1736687584,"current_range_meters":8800,"station_id":"cpo3532slgdg3j2ikp40","pricing_plan_id":"cebpf4jnsgd1na2vs0mg"},{"bike_id":"9fa5613d-39b6-40e4-be80-3428e5831144","system_id":"levelo_inurba_marseille","lat":43.25875,"lon":5.39891,"is_reserved":false,"is_disabled":false,"rental_uris":{"android":"levelo://app?vid=9fa5613d-39b6-40e4-be80-3428e5831144","ios":"levelo://app?vid=9fa5613d-39b6-40e4-be80-3428e5831144"},"vehicle_type_id":"4","last_reported":1736687584,"current_range_meters":38800,"station_id":"ce4bhl92rcd13ifvqghg","pricing_plan_id":"cebpf4jnsgd1na2vs0mg"},{"bike_id":"47c8ceae-0c3a-4d79-891c-b7ba2ecf4c89","system_id":"levelo_inurba_marseille","lat":43.28154,"lon":5.4264,"is_reserved":false,"is_disabled":false,"rental_uris":{"android":"levelo://app?vid=47c8ceae-0c3a-4d79-891c-b7ba2ecf4c89","ios":"levelo://app?vid=47c8ceae-0c3a-4d79-891c-b7ba2ecf4c89"},"vehicle_type_id":"4","last_reported":1736687584,"current_range_meters":6800,"station_id":"ce4bhnh2rcd13ifvqgug","pricing_plan_id":"cebpf4jnsgd1na2vs0mg"},{"bike_id":"4346944f-0f02-4bdc-830d-af9eaa0ce737","system_id":"levelo_inurba_marseille","lat":43.29187,"lon":5.3579,"is_reserved":false,"is_disabled":false,"rental_uris":{"android":"levelo://app?vid=4346944f-0f02-4bdc-830d-af9eaa0ce737","ios":"levelo://app?vid=4346944f-0f02-4bdc-830d-af9eaa0ce737"},"vehicle_type_id":"4","last_reported":1736687584,"current_range_meters":36400,"station_id":"ce4bhb12rcd13ifvqel0","pricing_plan_id":"cebpf4jnsgd1na2vs0mg"},{"bike_id":"c57472a4-4d7d-4e98-a197-dfe0bfa4547f","system_id":"levelo_inurba_marseille","lat":43.28611,"lon":5.35101,"is_reserved":false,"is_disabled":false,"rental_uris":{"android":"levelo://app?vid=c57472a4-4d7d-4e98-a197-dfe0bfa4547f","ios":"levelo://app?vid=c57472a4-4d7d-4e98-a197-dfe0bfa4547f"},"vehicle_type_id":"4","last_reported":1736687584,"current_range_meters":31200,"station_id":"ce4bhch2rcd13ifvqeug","pricing_plan_id":"cebpf4jnsgd1na2vs0mg"},{"bike_id":"251bcb32-9754-4a96-be14-f473e0e9719e","system_id":"levelo_inurba_marseille","lat":43.32546,"lon":5.38024,"is_reserved":false,"is_disabled":false,"rental_uris":{"android":"levelo://app?vid=251bcb32-9754-4a96-be14-f473e0e9719e","ios":"levelo://app?vid=251bcb32-9754-4a96-be14-f473e0e9719e"},"vehicle_type_id":"4","last_reported":1736687584,"current_range_meters":4000,"station_id":"","pricing_plan_id":"cebpf4jnsgd1na2vs0mg"},{"bike_id":"878c9653-a54a-440f-99c2-bfaa16bfe19f","system_id":"levelo_inurba_marseille","lat":43.29195,"lon":5.39325,"is_reserved":false,"is_disabled":true,"rental_uris":{"android":"levelo://app?vid=878c9653-a54a-440f-99c2-bfaa16bfe19f","ios":"levelo://app?vid=878c9653-a54a-440f-99c2-bfaa16bfe19f"},"vehicle_type_id":"4","last_reported":1736687584,"current_range_meters":24000,"station_id":"ce4bh192rcd13ifvqdd0","pricing_plan_id":"cebpf4jnsgd1na2vs0mg"},{"bike_id":"f4dbc556-58b0-4dfd-be99-18a51c032520","system_id":"levelo_inurba_marseille","lat":43.24172,"lon":5.39723,"is_reserved":false,"is_disabled":true,"rental_uris":{"android":"levelo://app?vid=f4dbc556-58b0-4dfd-be99-18a51c032520","ios":"levelo://app?vid=f4dbc556-58b0-4dfd-be99-18a51c032520"},"vehicle_type_id":"4","last_reported":1736687584,"current_range_meters":35600,"station_id":"ce4bhn12rcd13ifvqgpg","pricing_plan_id":"cebpf4jnsgd1na2vs0mg"},{"bike_id":"9c62e164-6cf9-4292-996f-7c2ed5673e8e","system_id":"levelo_inurba_marseille","lat":43.23953,"lon":5.36658,"is_reserved":false,"is_disabled":false,"rental_uris":{"android":"levelo://app?vid=9c62e164-6cf9-4292-996f-7c2ed5673e8e","ios":"levelo://app?vid=9c62e164-6cf9-4292-996f-7c2ed5673e8e"},"vehicle_type_id":"4","last_reported":1736687584,"current_range_meters":27200,"station_id":"ce4bhi12rcd13ifvqfp0","pricing_plan_id":"cebpf4jnsgd1na2vs0mg"},{"bike_id":"017022fd-dfa9-45f9-bad9-de1885e08fc8","system_id":"levelo_inurba_marseille","lat":43.30539,"lon":5.36543,"is_reserved":false,"is_disabled":false,"rental_uris":{"android":"levelo://app?vid=017022fd-dfa9-45f9-bad9-de1885e08fc8","ios":"levelo://app?vid=017022fd-dfa9-45f9-bad9-de1885e08fc8"},"vehicle_type_id":"4","last_reported":1736687584,"current_range_meters":27600,"station_id":"ce4bgs12rcd13ifvqcag","pricing_plan_id":"cebpf4jnsgd1na2vs0mg"},{"bike_id":"45636413-29bd-43b6-bd8b-1246eb3c7c1a","system_id":"levelo_inurba_marseille","lat":43.27134,"lon":5.38503,"is_reserved":false,"is_disabled":false,"rental_uris":{"android":"levelo://app?vid=45636413-29bd-43b6-bd8b-1246eb3c7c1a","ios":"levelo://app?vid=45636413-29bd-43b6-bd8b-1246eb3c7c1a"},"vehicle_type_id":"4","last_reported":1736687584,"current_range_meters":8400,"station_id":"","pricing_plan_id":"cebpf4jnsgd1na2vs0mg"},{"bike_id":"4d2f8fd0-21ed-4425-9dc5-0ad45a59fb73","system_id":"levelo_inurba_marseille","lat":43.24664,"lon":5.38177,"is_reserved":false,"is_disabled":false,"rental_uris":{"android":"levelo://app?vid=4d2f8fd0-21ed-4425-9dc5-0ad45a59fb73","ios":"levelo://app?vid=4d2f8fd0-21ed-4425-9dc5-0ad45a59fb73"},"vehicle_type_id":"4","last_reported":1736687584,"current_range_meters":38800,"station_id":"ce4bhih2rcd13ifvqfr0","pricing_plan_id":"cebpf4jnsgd1na2vs0mg"},{"bike_id":"c1424551-ffe9-44cb-8151-458a215afc78","system_id":"levelo_inurba_marseille","lat":43.27619,"lon":5.36109,"is_reserved":false,"is_disabled":false,"rental_uris":{"android":"levelo://app?vid=c1424551-ffe9-44cb-8151-458a215afc78","ios":"levelo://app?vid=c1424551-ffe9-44cb-8151-458a215afc78"},"vehicle_type_id":"4","last_reported":1736687584,"current_range_meters":38800,"station_id":"ce4bgj92rcd13ifvqbe0","pricing_plan_id":"cebpf4jnsgd1na2vs0mg"},{"bike_id":"80609ff8-7d7d-4ae2-9159-aea837c7c52b","system_id":"levelo_inurba_marseille","lat":43.23945,"lon":5.36644,"is_reserved":false,"is_disabled":false,"rental_uris":{"android":"levelo://app?vid=80609ff8-7d7d-4ae2-9159-aea837c7c52b","ios":"levelo://app?vid=80609ff8-7d7d-4ae2-9159-aea837c7c52b"},"vehicle_type_id":"4","last_reported":1736687584,"current_range_meters":7200,"station_id":"ce4bhi12rcd13ifvqfp0","pricing_plan_id":"cebpf4jnsgd1na2vs0mg"},{"bike_id":"93a6957d-6e97-47d8-aa06-3e9ef7485399","system_id":"levelo_inurba_marseille","lat":43.23061,"lon":5.35488,"is_reserved":false,"is_disabled":false,"rental_uris":{"android":"levelo://app?vid=93a6957d-6e97-47d8-aa06-3e9ef7485399","ios":"levelo://app?vid=93a6957d-6e97-47d8-aa06-3e9ef7485399"},"vehicle_type_id":"4","last_reported":1736687584,"current_range_meters":4000,"station_id":"cpo3342slgdg3j2ifvpg","pricing_plan_id":"cebpf4jnsgd1na2vs0mg"},{"bike_id":"c2b657e0-67fb-4721-a4d6-0ebb2fa0fcbe","system_id":"levelo_inurba_marseille","lat":43.28608,"lon":5.35091,"is_reserved":false,"is_disabled":false,"rental_uris":{"android":"levelo://app?vid=c2b657e0-67fb-4721-a4d6-0ebb2fa0fcbe","ios":"levelo://app?vid=c2b657e0-67fb-4721-a4d6-0ebb2fa0fcbe"},"vehicle_type_id":"4","last_reported":1736687584,"current_range_meters":37600,"station_id":"ce4bhch2rcd13ifvqeug","pricing_plan_id":"cebpf4jnsgd1na2vs0mg"},{"bike_id":"fe00249c-72f6-4d2f-8c4a-5cf2515cd799","system_id":"levelo_inurba_marseille","lat":43.2846,"lon":5.38416,"is_reserved":false,"is_disabled":false,"rental_uris":{"android":"levelo://app?vid=fe00249c-72f6-4d2f-8c4a-5cf2515cd799","ios":"levelo://app?vid=fe00249c-72f6-4d2f-8c4a-5cf2515cd799"},"vehicle_type_id":"4","last_reported":1736687584,"current_range_meters":38800,"station_id":"ce4bh512rcd13ifvqe3g","pricing_plan_id":"cebpf4jnsgd1na2vs0mg"},{"bike_id":"d94721b4-6dca-4810-bc47-4db500525280","system_id":"levelo_inurba_marseille","lat":43.25489,"lon":5.37651,"is_reserved":false,"is_disabled":false,"rental_uris":{"android":"levelo://app?vid=d94721b4-6dca-4810-bc47-4db500525280","ios":"levelo://app?vid=d94721b4-6dca-4810-bc47-4db500525280"},"vehicle_type_id":"4","last_reported":1736687584,"current_range_meters":8800,"station_id":"ce4bhh12rcd13ifvqff0","pricing_plan_id":"cebpf4jnsgd1na2vs0mg"},{"bike_id":"3bf91848-c5d0-4524-ac3b-a43d812f5094","system_id":"levelo_inurba_marseille","lat":43.23057,"lon":5.35491,"is_reserved":false,"is_disabled":false,"rental_uris":{"android":"levelo://app?vid=3bf91848-c5d0-4524-ac3b-a43d812f5094","ios":"levelo://app?vid=3bf91848-c5d0-4524-ac3b-a43d812f5094"},"vehicle_type_id":"4","last_reported":1736687584,"current_range_meters":37600,"station_id":"cpo3342slgdg3j2ifvpg","pricing_plan_id":"cebpf4jnsgd1na2vs0mg"},{"bike_id":"1d92b4a0-d38e-4db6-8ea6-24954ceab268","system_id":"levelo_inurba_marseille","lat":43.25863,"lon":5.39908,"is_reserved":false,"is_disabled":false,"rental_uris":{"android":"levelo://app?vid=1d92b4a0-d38e-4db6-8ea6-24954ceab268","ios":"levelo://app?vid=1d92b4a0-d38e-4db6-8ea6-24954ceab268"},"vehicle_type_id":"4","last_reported":1736687584,"current_range_meters":36800,"station_id":"ce4bhl92rcd13ifvqghg","pricing_plan_id":"cebpf4jnsgd1na2vs0mg"},{"bike_id":"aa4fa961-77ec-4d6f-875d-5cba342b5b27","system_id":"levelo_inurba_marseille","lat":43.25584,"lon":5.38263,"is_reserved":false,"is_disabled":false,"rental_uris":{"android":"levelo://app?vid=aa4fa961-77ec-4d6f-875d-5cba342b5b27","ios":"levelo://app?vid=aa4fa961-77ec-4d6f-875d-5cba342b5b27"},"vehicle_type_id":"4","last_reported":1736687584,"current_range_meters":38800,"station_id":"ce4bhih2rcd13ifvqfs0","pricing_plan_id":"cebpf4jnsgd1na2vs0mg"},{"bike_id":"33f772a9-3316-47c9-ba2c-b8bb5b0473dc","system_id":"levelo_inurba_marseille","lat":43.29555,"lon":5.36777,"is_reserved":false,"is_disabled":true,"rental_uris":{"android":"levelo://app?vid=33f772a9-3316-47c9-ba2c-b8bb5b0473dc","ios":"levelo://app?vid=33f772a9-3316-47c9-ba2c-b8bb5b0473dc"},"vehicle_type_id":"4","last_reported":1736687584,"current_range_meters":38800,"station_id":"ce4bgph2rcd13ifvqc2g","pricing_plan_id":"cebpf4jnsgd1na2vs0mg"},{"bike_id":"5d7be82b-0ad1-4043-83db-163f64996ea8","system_id":"levelo_inurba_marseille","lat":43.30955,"lon":5.39051,"is_reserved":false,"is_disabled":false,"rental_uris":{"android":"levelo://app?vid=5d7be82b-0ad1-4043-83db-163f64996ea8","ios":"levelo://app?vid=5d7be82b-0ad1-4043-83db-163f64996ea8"},"vehicle_type_id":"4","last_reported":1736687584,"current_range_meters":9200,"station_id":"ce4bgup2rcd13ifvqco0","pricing_plan_id":"cebpf4jnsgd1na2vs0mg"},{"bike_id":"55ba99ed-985e-49c8-b072-957201c19c69","system_id":"levelo_inurba_marseille","lat":43.25121,"lon":5.40311,"is_reserved":false,"is_disabled":false,"rental_uris":{"android":"levelo://app?vid=55ba99ed-985e-49c8-b072-957201c19c69","ios":"levelo://app?vid=55ba99ed-985e-49c8-b072-957201c19c69"},"vehicle_type_id":"4","last_reported":1736687584,"current_range_meters":27200,"station_id":"ce4bhlh2rcd13ifvqgig","pricing_plan_id":"cebpf4jnsgd1na2vs0mg"},{"bike_id":"9c8c0f19-6acd-4047-9b73-cd2d2daf7c61","system_id":"levelo_inurba_marseille","lat":43.32105,"lon":5.36771,"is_reserved":false,"is_disabled":false,"rental_uris":{"android":"levelo://app?vid=9c8c0f19-6acd-4047-9b73-cd2d2daf7c61","ios":"levelo://app?vid=9c8c0f19-6acd-4047-9b73-cd2d2daf7c61"},"vehicle_type_id":"4","last_reported":1736687584,"current_range_meters":22400,"station_id":"ce4bhrh2rcd13ifvqhug","pricing_plan_id":"cebpf4jnsgd1na2vs0mg"},{"bike_id":"71c81acd-0706-4ff6-8fc6-0ff3fb1e1db5","system_id":"levelo_inurba_marseille","lat":43.31708,"lon":5.43708,"is_reserved":false,"is_disabled":false,"rental_uris":{"android":"levelo://app?vid=71c81acd-0706-4ff6-8fc6-0ff3fb1e1db5","ios":"levelo://app?vid=71c81acd-0706-4ff6-8fc6-0ff3fb1e1db5"},"vehicle_type_id":"4","last_reported":1736687584,"current_range_meters":17200,"station_id":"ce4bhp92rcd13ifvqhcg","pricing_plan_id":"cebpf4jnsgd1na2vs0mg"},{"bike_id":"7b261aa7-24b1-4708-affc-c989a7ec797a","system_id":"levelo_inurba_marseille","lat":43.28406,"lon":5.34994,"is_reserved":false,"is_disabled":false,"rental_uris":{"android":"levelo://app?vid=7b261aa7-24b1-4708-affc-c989a7ec797a","ios":"levelo://app?vid=7b261aa7-24b1-4708-affc-c989a7ec797a"},"vehicle_type_id":"4","last_reported":1736687584,"current_range_meters":32400,"station_id":"ce4bhbh2rcd13ifvqepg","pricing_plan_id":"cebpf4jnsgd1na2vs0mg"},{"bike_id":"066fc890-cce1-4b7e-a941-320c51e991c9","system_id":"levelo_inurba_marseille","lat":43.23961,"lon":5.3661,"is_reserved":false,"is_disabled":false,"rental_uris":{"android":"levelo://app?vid=066fc890-cce1-4b7e-a941-320c51e991c9","ios":"levelo://app?vid=066fc890-cce1-4b7e-a941-320c51e991c9"},"vehicle_type_id":"4","last_reported":1736687584,"current_range_meters":17200,"station_id":"ce4bhi12rcd13ifvqfp0","pricing_plan_id":"cebpf4jnsgd1na2vs0mg"},{"bike_id":"4100518d-ec21-4c20-9cbc-a715dd414659","system_id":"levelo_inurba_marseille","lat":43.27818,"lon":5.39208,"is_reserved":false,"is_disabled":false,"rental_uris":{"android":"levelo://app?vid=4100518d-ec21-4c20-9cbc-a715dd414659","ios":"levelo://app?vid=4100518d-ec21-4c20-9cbc-a715dd414659"},"vehicle_type_id":"4","last_reported":1736687584,"current_range_meters":38800,"station_id":"ce4bhjp2rcd13ifvqga0","pricing_plan_id":"cebpf4jnsgd1na2vs0mg"},{"bike_id":"c4a9f4d8-3097-4c73-b16c-f476d0136944","system_id":"levelo_inurba_marseille","lat":43.24994,"lon":5.38942,"is_reserved":false,"is_disabled":false,"rental_uris":{"android":"levelo://app?vid=c4a9f4d8-3097-4c73-b16c-f476d0136944","ios":"levelo://app?vid=c4a9f4d8-3097-4c73-b16c-f476d0136944"},"vehicle_type_id":"4","last_reported":1736687584,"current_range_meters":18000,"station_id":"ce4bhgp2rcd13ifvqfd0","pricing_plan_id":"cebpf4jnsgd1na2vs0mg"},{"bike_id":"f30cb7b0-bac8-46ac-92c6-53aa90cba244","system_id":"levelo_inurba_marseille","lat":43.31718,"lon":5.4242,"is_reserved":false,"is_disabled":false,"rental_uris":{"android":"levelo://app?vid=f30cb7b0-bac8-46ac-92c6-53aa90cba244","ios":"levelo://app?vid=f30cb7b0-bac8-46ac-92c6-53aa90cba244"},"vehicle_type_id":"4","last_reported":1736687584,"current_range_meters":38000,"station_id":"ce4bhp92rcd13ifvqhbg","pricing_plan_id":"cebpf4jnsgd1na2vs0mg"},{"bike_id":"da567bdb-4993-4272-9256-6e0ee72f41c0","system_id":"levelo_inurba_marseille","lat":43.2467,"lon":5.38159,"is_reserved":false,"is_disabled":false,"rental_uris":{"android":"levelo://app?vid=da567bdb-4993-4272-9256-6e0ee72f41c0","ios":"levelo://app?vid=da567bdb-4993-4272-9256-6e0ee72f41c0"},"vehicle_type_id":"4","last_reported":1736687584,"current_range_meters":38000,"station_id":"ce4bhih2rcd13ifvqfr0","pricing_plan_id":"cebpf4jnsgd1na2vs0mg"},{"bike_id":"a93f552d-b365-4ed0-9344-b6eeb5fc5fbc","system_id":"levelo_inurba_marseille","lat":43.24388,"lon":5.37056,"is_reserved":false,"is_disabled":false,"rental_uris":{"android":"levelo://app?vid=a93f552d-b365-4ed0-9344-b6eeb5fc5fbc","ios":"levelo://app?vid=a93f552d-b365-4ed0-9344-b6eeb5fc5fbc"},"vehicle_type_id":"4","last_reported":1736687584,"current_range_meters":18000,"station_id":"ce4bhhh2rcd13ifvqfk0","pricing_plan_id":"cebpf4jnsgd1na2vs0mg"},{"bike_id":"c95bc832-31da-4dbf-928e-6859377c632f","system_id":"levelo_inurba_marseille","lat":43.26203,"lon":5.37933,"is_reserved":false,"is_disabled":false,"rental_uris":{"android":"levelo://app?vid=c95bc832-31da-4dbf-928e-6859377c632f","ios":"levelo://app?vid=c95bc832-31da-4dbf-928e-6859377c632f"},"vehicle_type_id":"4","last_reported":1736687584,"current_range_meters":27200,"station_id":"ce4bhjp2rcd13ifvqg90","pricing_plan_id":"cebpf4jnsgd1na2vs0mg"},{"bike_id":"dc388f0e-5ba4-4401-b2b7-3e59da087469","system_id":"levelo_inurba_marseille","lat":43.28622,"lon":5.35107,"is_reserved":false,"is_disabled":false,"rental_uris":{"android":"levelo://app?vid=dc388f0e-5ba4-4401-b2b7-3e59da087469","ios":"levelo://app?vid=dc388f0e-5ba4-4401-b2b7-3e59da087469"},"vehicle_type_id":"4","last_reported":1736687584,"current_range_meters":17200,"station_id":"ce4bhch2rcd13ifvqeug","pricing_plan_id":"cebpf4jnsgd1na2vs0mg"},{"bike_id":"809dff1c-84f5-4e72-a4c0-e6de089c0ca9","system_id":"levelo_inurba_marseille","lat":43.22249,"lon":5.346053,"is_reserved":false,"is_disabled":false,"rental_uris":{"android":"levelo://app?vid=809dff1c-84f5-4e72-a4c0-e6de089c0ca9","ios":"levelo://app?vid=809dff1c-84f5-4e72-a4c0-e6de089c0ca9"},"vehicle_type_id":"4","last_reported":1736687584,"current_range_meters":16000,"station_id":"cpo3532slgdg3j2ikp40","pricing_plan_id":"cebpf4jnsgd1na2vs0mg"},{"bike_id":"dc8a1584-31f7-437f-87ba-924ddb6487ba","system_id":"levelo_inurba_marseille","lat":43.31358,"lon":5.38503,"is_reserved":false,"is_disabled":false,"rental_uris":{"android":"levelo://app?vid=dc8a1584-31f7-437f-87ba-924ddb6487ba","ios":"levelo://app?vid=dc8a1584-31f7-437f-87ba-924ddb6487ba"},"vehicle_type_id":"4","last_reported":1736687584,"current_range_meters":38800,"station_id":"ce4bgt92rcd13ifvqcf0","pricing_plan_id":"cebpf4jnsgd1na2vs0mg"},{"bike_id":"c84c60ce-c7f6-42eb-bb3c-f11a697bd396","system_id":"levelo_inurba_marseille","lat":43.2998,"lon":5.38505,"is_reserved":false,"is_disabled":true,"rental_uris":{"android":"levelo://app?vid=c84c60ce-c7f6-42eb-bb3c-f11a697bd396","ios":"levelo://app?vid=c84c60ce-c7f6-42eb-bb3c-f11a697bd396"},"vehicle_type_id":"4","last_reported":1736687584,"current_range_meters":5600,"station_id":"ce4bgj92rcd13ifvqbd0","pricing_plan_id":"cebpf4jnsgd1na2vs0mg"},{"bike_id":"bb0e6924-db68-45ea-bc51-679d076199dc","system_id":"levelo_inurba_marseille","lat":43.27993,"lon":5.39992,"is_reserved":false,"is_disabled":false,"rental_uris":{"android":"levelo://app?vid=bb0e6924-db68-45ea-bc51-679d076199dc","ios":"levelo://app?vid=bb0e6924-db68-45ea-bc51-679d076199dc"},"vehicle_type_id":"4","last_reported":1736687584,"current_range_meters":9600,"station_id":"ce4bho92rcd13ifvqh4g","pricing_plan_id":"cebpf4jnsgd1na2vs0mg"},{"bike_id":"125e826f-483b-47dc-9a84-f3a82cf45a8e","system_id":"levelo_inurba_marseille","lat":43.30091,"lon":5.37837,"is_reserved":false,"is_disabled":false,"rental_uris":{"android":"levelo://app?vid=125e826f-483b-47dc-9a84-f3a82cf45a8e","ios":"levelo://app?vid=125e826f-483b-47dc-9a84-f3a82cf45a8e"},"vehicle_type_id":"4","last_reported":1736687584,"current_range_meters":7200,"station_id":"","pricing_plan_id":"cebpf4jnsgd1na2vs0mg"},{"bike_id":"58ba27ab-c124-4665-ba9c-8ac9098850f3","system_id":"levelo_inurba_marseille","lat":43.26557,"lon":5.37292,"is_reserved":false,"is_disabled":false,"rental_uris":{"android":"levelo://app?vid=58ba27ab-c124-4665-ba9c-8ac9098850f3","ios":"levelo://app?vid=58ba27ab-c124-4665-ba9c-8ac9098850f3"},"vehicle_type_id":"4","last_reported":1736687584,"current_range_meters":38000,"station_id":"ce4bhg12rcd13ifvqf70","pricing_plan_id":"cebpf4jnsgd1na2vs0mg"},{"bike_id":"1630fc67-5223-4322-8b1e-6792185e1361","system_id":"levelo_inurba_marseille","lat":43.28266,"lon":5.3506,"is_reserved":false,"is_disabled":false,"rental_uris":{"android":"levelo://app?vid=1630fc67-5223-4322-8b1e-6792185e1361","ios":"levelo://app?vid=1630fc67-5223-4322-8b1e-6792185e1361"},"vehicle_type_id":"4","last_reported":1736687584,"current_range_meters":28000,"station_id":"ce4bhbp2rcd13ifvqerg","pricing_plan_id":"cebpf4jnsgd1na2vs0mg"},{"bike_id":"c1c51f67-6348-4482-a3d4-31704cefaf37","system_id":"levelo_inurba_marseille","lat":43.2862,"lon":5.35105,"is_reserved":false,"is_disabled":false,"rental_uris":{"android":"levelo://app?vid=c1c51f67-6348-4482-a3d4-31704cefaf37","ios":"levelo://app?vid=c1c51f67-6348-4482-a3d4-31704cefaf37"},"vehicle_type_id":"4","last_reported":1736687584,"current_range_meters":37600,"station_id":"ce4bhch2rcd13ifvqeug","pricing_plan_id":"cebpf4jnsgd1na2vs0mg"},{"bike_id":"91fb11d4-1c76-4f66-b3aa-69dae02619f9","system_id":"levelo_inurba_marseille","lat":43.32363,"lon":5.38878,"is_reserved":false,"is_disabled":false,"rental_uris":{"android":"levelo://app?vid=91fb11d4-1c76-4f66-b3aa-69dae02619f9","ios":"levelo://app?vid=91fb11d4-1c76-4f66-b3aa-69dae02619f9"},"vehicle_type_id":"4","last_reported":1736687584,"current_range_meters":38000,"station_id":"ce4bhqp2rcd13ifvqhog","pricing_plan_id":"cebpf4jnsgd1na2vs0mg"},{"bike_id":"a1f1f268-04ca-4934-a758-448d0aeedcd1","system_id":"levelo_inurba_marseille","lat":43.28693,"lon":5.39999,"is_reserved":false,"is_disabled":true,"rental_uris":{"android":"levelo://app?vid=a1f1f268-04ca-4934-a758-448d0aeedcd1","ios":"levelo://app?vid=a1f1f268-04ca-4934-a758-448d0aeedcd1"},"vehicle_type_id":"4","last_reported":1736687584,"current_range_meters":37600,"station_id":"ce4bho92rcd13ifvqh3g","pricing_plan_id":"cebpf4jnsgd1na2vs0mg"},{"bike_id":"d2633a04-2003-4606-ad5a-8ad4a43a5af2","system_id":"levelo_inurba_marseille","lat":43.30295,"lon":5.36901,"is_reserved":false,"is_disabled":false,"rental_uris":{"android":"levelo://app?vid=d2633a04-2003-4606-ad5a-8ad4a43a5af2","ios":"levelo://app?vid=d2633a04-2003-4606-ad5a-8ad4a43a5af2"},"vehicle_type_id":"4","last_reported":1736687584,"current_range_meters":36000,"station_id":"ce4bgqh2rcd13ifvqc5g","pricing_plan_id":"cebpf4jnsgd1na2vs0mg"},{"bike_id":"1a93e2db-cfef-44c3-88cb-cf63f25e1865","system_id":"levelo_inurba_marseille","lat":43.24381,"lon":5.37062,"is_reserved":false,"is_disabled":false,"rental_uris":{"android":"levelo://app?vid=1a93e2db-cfef-44c3-88cb-cf63f25e1865","ios":"levelo://app?vid=1a93e2db-cfef-44c3-88cb-cf63f25e1865"},"vehicle_type_id":"4","last_reported":1736687584,"current_range_meters":28800,"station_id":"ce4bhhh2rcd13ifvqfk0","pricing_plan_id":"cebpf4jnsgd1na2vs0mg"},{"bike_id":"3db15e78-0259-4d3a-9775-04349b1aed30","system_id":"levelo_inurba_marseille","lat":43.30549,"lon":5.365315,"is_reserved":false,"is_disabled":true,"rental_uris":{"android":"levelo://app?vid=3db15e78-0259-4d3a-9775-04349b1aed30","ios":"levelo://app?vid=3db15e78-0259-4d3a-9775-04349b1aed30"},"vehicle_type_id":"4","last_reported":1736687584,"current_range_meters":27200,"station_id":"ce4bgs12rcd13ifvqcag","pricing_plan_id":"cebpf4jnsgd1na2vs0mg"},{"bike_id":"a754abf4-87cb-4915-a97f-0b4d0e8971f5","system_id":"levelo_inurba_marseille","lat":43.28616,"lon":5.35105,"is_reserved":false,"is_disabled":false,"rental_uris":{"android":"levelo://app?vid=a754abf4-87cb-4915-a97f-0b4d0e8971f5","ios":"levelo://app?vid=a754abf4-87cb-4915-a97f-0b4d0e8971f5"},"vehicle_type_id":"4","last_reported":1736687584,"current_range_meters":37600,"station_id":"ce4bhch2rcd13ifvqeug","pricing_plan_id":"cebpf4jnsgd1na2vs0mg"},{"bike_id":"b51b8509-c21e-40ac-802b-edd56e55cdd0","system_id":"levelo_inurba_marseille","lat":43.303642,"lon":5.418927,"is_reserved":false,"is_disabled":true,"rental_uris":{"android":"levelo://app?vid=b51b8509-c21e-40ac-802b-edd56e55cdd0","ios":"levelo://app?vid=b51b8509-c21e-40ac-802b-edd56e55cdd0"},"vehicle_type_id":"4","last_reported":1736687584,"current_range_meters":26800,"station_id":"ce4bhop2rcd13ifvqh7g","pricing_plan_id":"cebpf4jnsgd1na2vs0mg"},{"bike_id":"f8e0c834-efc6-4ba0-aee6-be64686d4dd0","system_id":"levelo_inurba_marseille","lat":43.28707,"lon":5.37391,"is_reserved":false,"is_disabled":false,"rental_uris":{"android":"levelo://app?vid=f8e0c834-efc6-4ba0-aee6-be64686d4dd0","ios":"levelo://app?vid=f8e0c834-efc6-4ba0-aee6-be64686d4dd0"},"vehicle_type_id":"4","last_reported":1736687584,"current_range_meters":38000,"station_id":"ce4bh3p2rcd13ifvqdq0","pricing_plan_id":"cebpf4jnsgd1na2vs0mg"},{"bike_id":"78fc2529-851e-44ea-9e17-e5a76c9197b1","system_id":"levelo_inurba_marseille","lat":43.29724,"lon":5.37706,"is_reserved":false,"is_disabled":true,"rental_uris":{"android":"levelo://app?vid=78fc2529-851e-44ea-9e17-e5a76c9197b1","ios":"levelo://app?vid=78fc2529-851e-44ea-9e17-e5a76c9197b1"},"vehicle_type_id":"4","last_reported":1736687584,"current_range_meters":33600,"station_id":"ce4bgkh2rcd13ifvqbl0","pricing_plan_id":"cebpf4jnsgd1na2vs0mg"},{"bike_id":"6e0b7390-3f03-4896-850a-30b735b3a5fe","system_id":"levelo_inurba_marseille","lat":43.25494,"lon":5.37648,"is_reserved":false,"is_disabled":false,"rental_uris":{"android":"levelo://app?vid=6e0b7390-3f03-4896-850a-30b735b3a5fe","ios":"levelo://app?vid=6e0b7390-3f03-4896-850a-30b735b3a5fe"},"vehicle_type_id":"4","last_reported":1736687584,"current_range_meters":16400,"station_id":"ce4bhh12rcd13ifvqff0","pricing_plan_id":"cebpf4jnsgd1na2vs0mg"},{"bike_id":"b1d9940e-7d69-40ab-afd5-a3d7055a81ec","system_id":"levelo_inurba_marseille","lat":43.28411,"lon":5.37519,"is_reserved":false,"is_disabled":false,"rental_uris":{"android":"levelo://app?vid=b1d9940e-7d69-40ab-afd5-a3d7055a81ec","ios":"levelo://app?vid=b1d9940e-7d69-40ab-afd5-a3d7055a81ec"},"vehicle_type_id":"4","last_reported":1736687584,"current_range_meters":32400,"station_id":"ce4bh412rcd13ifvqds0","pricing_plan_id":"cebpf4jnsgd1na2vs0mg"},{"bike_id":"ebc55eb9-194f-4e99-8e23-b42fca6cc43d","system_id":"levelo_inurba_marseille","lat":43.27659,"lon":5.38899,"is_reserved":false,"is_disabled":true,"rental_uris":{"android":"levelo://app?vid=ebc55eb9-194f-4e99-8e23-b42fca6cc43d","ios":"levelo://app?vid=ebc55eb9-194f-4e99-8e23-b42fca6cc43d"},"vehicle_type_id":"4","last_reported":1736687584,"current_range_meters":36800,"station_id":"ce4bhi12rcd13ifvqfo0","pricing_plan_id":"cebpf4jnsgd1na2vs0mg"},{"bike_id":"599c608e-05d5-4297-84a8-b009d19cf393","system_id":"levelo_inurba_marseille","lat":43.28419,"lon":5.34981,"is_reserved":false,"is_disabled":false,"rental_uris":{"android":"levelo://app?vid=599c608e-05d5-4297-84a8-b009d19cf393","ios":"levelo://app?vid=599c608e-05d5-4297-84a8-b009d19cf393"},"vehicle_type_id":"4","last_reported":1736687584,"current_range_meters":30400,"station_id":"ce4bhbh2rcd13ifvqepg","pricing_plan_id":"cebpf4jnsgd1na2vs0mg"},{"bike_id":"61d782ba-8128-4912-b047-ce80212c83da","system_id":"levelo_inurba_marseille","lat":43.2318,"lon":5.39984,"is_reserved":false,"is_disabled":false,"rental_uris":{"android":"levelo://app?vid=61d782ba-8128-4912-b047-ce80212c83da","ios":"levelo://app?vid=61d782ba-8128-4912-b047-ce80212c83da"},"vehicle_type_id":"4","last_reported":1736687584,"current_range_meters":38800,"station_id":"ce4bhn12rcd13ifvqgqg","pricing_plan_id":"cebpf4jnsgd1na2vs0mg"},{"bike_id":"81894d57-6961-4ca9-8a73-3302ecbe940c","system_id":"levelo_inurba_marseille","lat":43.24808,"lon":5.37471,"is_reserved":false,"is_disabled":false,"rental_uris":{"android":"levelo://app?vid=81894d57-6961-4ca9-8a73-3302ecbe940c","ios":"levelo://app?vid=81894d57-6961-4ca9-8a73-3302ecbe940c"},"vehicle_type_id":"4","last_reported":1736687584,"current_range_meters":14800,"station_id":"ce4bhgh2rcd13ifvqfb0","pricing_plan_id":"cebpf4jnsgd1na2vs0mg"},{"bike_id":"d679e8ad-e35b-4604-a475-064f331d9c01","system_id":"levelo_inurba_marseille","lat":43.31536,"lon":5.38012,"is_reserved":false,"is_disabled":true,"rental_uris":{"android":"levelo://app?vid=d679e8ad-e35b-4604-a475-064f331d9c01","ios":"levelo://app?vid=d679e8ad-e35b-4604-a475-064f331d9c01"},"vehicle_type_id":"4","last_reported":1736687584,"current_range_meters":38800,"station_id":"ce4bhsp2rcd13ifvqi50","pricing_plan_id":"cebpf4jnsgd1na2vs0mg"},{"bike_id":"45324790-abcf-4a91-8b9e-6b7c17eae013","system_id":"levelo_inurba_marseille","lat":43.273736,"lon":5.362596,"is_reserved":false,"is_disabled":false,"rental_uris":{"android":"levelo://app?vid=45324790-abcf-4a91-8b9e-6b7c17eae013","ios":"levelo://app?vid=45324790-abcf-4a91-8b9e-6b7c17eae013"},"vehicle_type_id":"4","last_reported":1736687584,"current_range_meters":15200,"station_id":"ce4bhbh2rcd13ifvqeo0","pricing_plan_id":"cebpf4jnsgd1na2vs0mg"},{"bike_id":"a512f63a-7134-493d-8520-e5aa72e77d5b","system_id":"levelo_inurba_marseille","lat":43.32644,"lon":5.40975,"is_reserved":false,"is_disabled":false,"rental_uris":{"android":"levelo://app?vid=a512f63a-7134-493d-8520-e5aa72e77d5b","ios":"levelo://app?vid=a512f63a-7134-493d-8520-e5aa72e77d5b"},"vehicle_type_id":"4","last_reported":1736687584,"current_range_meters":30800,"station_id":"ce4bhpp2rcd13ifvqhgg","pricing_plan_id":"cebpf4jnsgd1na2vs0mg"},{"bike_id":"d81be4d6-920b-4fed-bab1-6e7b88c921f7","system_id":"levelo_inurba_marseille","lat":43.2318,"lon":5.39995,"is_reserved":false,"is_disabled":false,"rental_uris":{"android":"levelo://app?vid=d81be4d6-920b-4fed-bab1-6e7b88c921f7","ios":"levelo://app?vid=d81be4d6-920b-4fed-bab1-6e7b88c921f7"},"vehicle_type_id":"4","last_reported":1736687584,"current_range_meters":6800,"station_id":"ce4bhn12rcd13ifvqgqg","pricing_plan_id":"cebpf4jnsgd1na2vs0mg"},{"bike_id":"161c3139-00fa-499e-81c0-d9e735eae1c4","system_id":"levelo_inurba_marseille","lat":43.27314,"lon":5.39085,"is_reserved":false,"is_disabled":false,"rental_uris":{"android":"levelo://app?vid=161c3139-00fa-499e-81c0-d9e735eae1c4","ios":"levelo://app?vid=161c3139-00fa-499e-81c0-d9e735eae1c4"},"vehicle_type_id":"4","last_reported":1736687584,"current_range_meters":8400,"station_id":"ce4bhgp2rcd13ifvqfe0","pricing_plan_id":"cebpf4jnsgd1na2vs0mg"},{"bike_id":"d9edb216-ee47-40a8-8ccd-82ecd79a1993","system_id":"levelo_inurba_marseille","lat":43.29018,"lon":5.38146,"is_reserved":false,"is_disabled":true,"rental_uris":{"android":"levelo://app?vid=d9edb216-ee47-40a8-8ccd-82ecd79a1993","ios":"levelo://app?vid=d9edb216-ee47-40a8-8ccd-82ecd79a1993"},"vehicle_type_id":"4","last_reported":1736687584,"current_range_meters":38400,"station_id":"ce4bh4p2rcd13ifvqe1g","pricing_plan_id":"cebpf4jnsgd1na2vs0mg"},{"bike_id":"5fb05fa1-f82e-4151-8703-b3fe749d6f84","system_id":"levelo_inurba_marseille","lat":43.28268,"lon":5.35072,"is_reserved":false,"is_disabled":false,"rental_uris":{"android":"levelo://app?vid=5fb05fa1-f82e-4151-8703-b3fe749d6f84","ios":"levelo://app?vid=5fb05fa1-f82e-4151-8703-b3fe749d6f84"},"vehicle_type_id":"4","last_reported":1736687584,"current_range_meters":8800,"station_id":"ce4bhbp2rcd13ifvqerg","pricing_plan_id":"cebpf4jnsgd1na2vs0mg"},{"bike_id":"7190806d-6efc-4d5f-adc8-8e7c04344e9c","system_id":"levelo_inurba_marseille","lat":43.30553,"lon":5.36525,"is_reserved":false,"is_disabled":true,"rental_uris":{"android":"levelo://app?vid=7190806d-6efc-4d5f-adc8-8e7c04344e9c","ios":"levelo://app?vid=7190806d-6efc-4d5f-adc8-8e7c04344e9c"},"vehicle_type_id":"4","last_reported":1736687584,"current_range_meters":0,"station_id":"ce4bgs12rcd13ifvqcag","pricing_plan_id":"cebpf4jnsgd1na2vs0mg"},{"bike_id":"717c9b7d-e3d6-441e-a2b5-35caee37f8e8","system_id":"levelo_inurba_marseille","lat":43.2862,"lon":5.35146,"is_reserved":false,"is_disabled":false,"rental_uris":{"android":"levelo://app?vid=717c9b7d-e3d6-441e-a2b5-35caee37f8e8","ios":"levelo://app?vid=717c9b7d-e3d6-441e-a2b5-35caee37f8e8"},"vehicle_type_id":"4","last_reported":1736687584,"current_range_meters":36800,"station_id":"ce4bhch2rcd13ifvqeug","pricing_plan_id":"cebpf4jnsgd1na2vs0mg"},{"bike_id":"984142c0-d4a2-4494-81c8-f1a90bd7aee3","system_id":"levelo_inurba_marseille","lat":43.30959,"lon":5.39045,"is_reserved":false,"is_disabled":false,"rental_uris":{"android":"levelo://app?vid=984142c0-d4a2-4494-81c8-f1a90bd7aee3","ios":"levelo://app?vid=984142c0-d4a2-4494-81c8-f1a90bd7aee3"},"vehicle_type_id":"4","last_reported":1736687584,"current_range_meters":17200,"station_id":"ce4bgup2rcd13ifvqco0","pricing_plan_id":"cebpf4jnsgd1na2vs0mg"},{"bike_id":"1ff4d6af-d168-4206-80a1-8f85ab0c0a00","system_id":"levelo_inurba_marseille","lat":43.25854,"lon":5.39905,"is_reserved":false,"is_disabled":true,"rental_uris":{"android":"levelo://app?vid=1ff4d6af-d168-4206-80a1-8f85ab0c0a00","ios":"levelo://app?vid=1ff4d6af-d168-4206-80a1-8f85ab0c0a00"},"vehicle_type_id":"4","last_reported":1736687584,"current_range_meters":12400,"station_id":"ce4bhl92rcd13ifvqghg","pricing_plan_id":"cebpf4jnsgd1na2vs0mg"},{"bike_id":"a16fd609-1fc6-4798-b9e0-3ea7526c402a","system_id":"levelo_inurba_marseille","lat":43.23557,"lon":5.3789,"is_reserved":false,"is_disabled":false,"rental_uris":{"android":"levelo://app?vid=a16fd609-1fc6-4798-b9e0-3ea7526c402a","ios":"levelo://app?vid=a16fd609-1fc6-4798-b9e0-3ea7526c402a"},"vehicle_type_id":"4","last_reported":1736687584,"current_range_meters":27600,"station_id":"","pricing_plan_id":"cebpf4jnsgd1na2vs0mg"},{"bike_id":"55e10a13-573c-4876-a3f3-1d7244726716","system_id":"levelo_inurba_marseille","lat":43.2481,"lon":5.3747,"is_reserved":false,"is_disabled":false,"rental_uris":{"android":"levelo://app?vid=55e10a13-573c-4876-a3f3-1d7244726716","ios":"levelo://app?vid=55e10a13-573c-4876-a3f3-1d7244726716"},"vehicle_type_id":"4","last_reported":1736687584,"current_range_meters":38800,"station_id":"ce4bhgh2rcd13ifvqfb0","pricing_plan_id":"cebpf4jnsgd1na2vs0mg"},{"bike_id":"86abeea7-c434-4e10-8df8-12c24097eeb0","system_id":"levelo_inurba_marseille","lat":43.30437,"lon":5.39752,"is_reserved":false,"is_disabled":true,"rental_uris":{"android":"levelo://app?vid=86abeea7-c434-4e10-8df8-12c24097eeb0","ios":"levelo://app?vid=86abeea7-c434-4e10-8df8-12c24097eeb0"},"vehicle_type_id":"4","last_reported":1736687584,"current_range_meters":21600,"station_id":"ce4bh092rcd13ifvqd20","pricing_plan_id":"cebpf4jnsgd1na2vs0mg"},{"bike_id":"9e4b700b-0bd2-4742-b6bd-c75a8782c39a","system_id":"levelo_inurba_marseille","lat":43.269378,"lon":5.389304,"is_reserved":false,"is_disabled":false,"rental_uris":{"android":"levelo://app?vid=9e4b700b-0bd2-4742-b6bd-c75a8782c39a","ios":"levelo://app?vid=9e4b700b-0bd2-4742-b6bd-c75a8782c39a"},"vehicle_type_id":"4","last_reported":1736687584,"current_range_meters":16000,"station_id":"ce4bhhh2rcd13ifvqfl0","pricing_plan_id":"cebpf4jnsgd1na2vs0mg"},{"bike_id":"311416b5-73b1-46de-9478-39cfbd47dd40","system_id":"levelo_inurba_marseille","lat":43.28855,"lon":5.35876,"is_reserved":false,"is_disabled":false,"rental_uris":{"android":"levelo://app?vid=311416b5-73b1-46de-9478-39cfbd47dd40","ios":"levelo://app?vid=311416b5-73b1-46de-9478-39cfbd47dd40"},"vehicle_type_id":"4","last_reported":1736687584,"current_range_meters":38800,"station_id":"ce4bhb12rcd13ifvqem0","pricing_plan_id":"cebpf4jnsgd1na2vs0mg"},{"bike_id":"43bc34ed-a41e-4475-88af-9ba4016b7a24","system_id":"levelo_inurba_marseille","lat":43.30965,"lon":5.39063,"is_reserved":false,"is_disabled":false,"rental_uris":{"android":"levelo://app?vid=43bc34ed-a41e-4475-88af-9ba4016b7a24","ios":"levelo://app?vid=43bc34ed-a41e-4475-88af-9ba4016b7a24"},"vehicle_type_id":"4","last_reported":1736687584,"current_range_meters":28000,"station_id":"ce4bgup2rcd13ifvqco0","pricing_plan_id":"cebpf4jnsgd1na2vs0mg"},{"bike_id":"ee7d9d98-a8fd-4084-8207-499306a5f959","system_id":"levelo_inurba_marseille","lat":43.253432,"lon":5.383816,"is_reserved":false,"is_disabled":false,"rental_uris":{"android":"levelo://app?vid=ee7d9d98-a8fd-4084-8207-499306a5f959","ios":"levelo://app?vid=ee7d9d98-a8fd-4084-8207-499306a5f959"},"vehicle_type_id":"4","last_reported":1736687584,"current_range_meters":2800,"station_id":"ce4bgi92rcd13ifvqb90","pricing_plan_id":"cebpf4jnsgd1na2vs0mg"},{"bike_id":"c7a817d3-63e5-4652-8814-98e74bb31058","system_id":"levelo_inurba_marseille","lat":43.23979,"lon":5.36658,"is_reserved":false,"is_disabled":false,"rental_uris":{"android":"levelo://app?vid=c7a817d3-63e5-4652-8814-98e74bb31058","ios":"levelo://app?vid=c7a817d3-63e5-4652-8814-98e74bb31058"},"vehicle_type_id":"4","last_reported":1736687584,"current_range_meters":38800,"station_id":"ce4bhi12rcd13ifvqfp0","pricing_plan_id":"cebpf4jnsgd1na2vs0mg"},{"bike_id":"10f7d31a-ef8d-4e8a-acbf-8aa9a8c72143","system_id":"levelo_inurba_marseille","lat":43.24412,"lon":5.37061,"is_reserved":false,"is_disabled":false,"rental_uris":{"android":"levelo://app?vid=10f7d31a-ef8d-4e8a-acbf-8aa9a8c72143","ios":"levelo://app?vid=10f7d31a-ef8d-4e8a-acbf-8aa9a8c72143"},"vehicle_type_id":"4","last_reported":1736687584,"current_range_meters":12000,"station_id":"ce4bhhh2rcd13ifvqfk0","pricing_plan_id":"cebpf4jnsgd1na2vs0mg"},{"bike_id":"1fedc598-f70f-4c41-a2c3-d78b434b4e36","system_id":"levelo_inurba_marseille","lat":43.26217,"lon":5.37471,"is_reserved":false,"is_disabled":false,"rental_uris":{"android":"levelo://app?vid=1fedc598-f70f-4c41-a2c3-d78b434b4e36","ios":"levelo://app?vid=1fedc598-f70f-4c41-a2c3-d78b434b4e36"},"vehicle_type_id":"4","last_reported":1736687584,"current_range_meters":20400,"station_id":"ce4bhgp2rcd13ifvqfc0","pricing_plan_id":"cebpf4jnsgd1na2vs0mg"},{"bike_id":"488e5d3f-7080-456a-8875-7f1a5dce4fa1","system_id":"levelo_inurba_marseille","lat":43.30137,"lon":5.38792,"is_reserved":false,"is_disabled":true,"rental_uris":{"android":"levelo://app?vid=488e5d3f-7080-456a-8875-7f1a5dce4fa1","ios":"levelo://app?vid=488e5d3f-7080-456a-8875-7f1a5dce4fa1"},"vehicle_type_id":"4","last_reported":1736687584,"current_range_meters":32400,"station_id":"ce4bghh2rcd13ifvqb60","pricing_plan_id":"cebpf4jnsgd1na2vs0mg"},{"bike_id":"295bd26f-64bb-4f9a-b1ce-9227768f18ec","system_id":"levelo_inurba_marseille","lat":43.29162,"lon":5.37148,"is_reserved":false,"is_disabled":true,"rental_uris":{"android":"levelo://app?vid=295bd26f-64bb-4f9a-b1ce-9227768f18ec","ios":"levelo://app?vid=295bd26f-64bb-4f9a-b1ce-9227768f18ec"},"vehicle_type_id":"4","last_reported":1736687584,"current_range_meters":33200,"station_id":"ce4bha92rcd13ifvqeh0","pricing_plan_id":"cebpf4jnsgd1na2vs0mg"},{"bike_id":"844d390c-752e-4264-9901-099658c6446a","system_id":"levelo_inurba_marseille","lat":43.28145,"lon":5.42642,"is_reserved":false,"is_disabled":false,"rental_uris":{"android":"levelo://app?vid=844d390c-752e-4264-9901-099658c6446a","ios":"levelo://app?vid=844d390c-752e-4264-9901-099658c6446a"},"vehicle_type_id":"4","last_reported":1736687584,"current_range_meters":20400,"station_id":"ce4bhnh2rcd13ifvqgug","pricing_plan_id":"cebpf4jnsgd1na2vs0mg"},{"bike_id":"1bff2bac-4883-4019-adbe-2dc598af8aad","system_id":"levelo_inurba_marseille","lat":43.27434,"lon":5.39424,"is_reserved":false,"is_disabled":true,"rental_uris":{"android":"levelo://app?vid=1bff2bac-4883-4019-adbe-2dc598af8aad","ios":"levelo://app?vid=1bff2bac-4883-4019-adbe-2dc598af8aad"},"vehicle_type_id":"4","last_reported":1736687584,"current_range_meters":25600,"station_id":"ce4bhdp2rcd13ifvqf20","pricing_plan_id":"cebpf4jnsgd1na2vs0mg"},{"bike_id":"ae29e0de-7b5a-45d6-ace3-313c5e88010a","system_id":"levelo_inurba_marseille","lat":43.27994,"lon":5.41646,"is_reserved":false,"is_disabled":true,"rental_uris":{"android":"levelo://app?vid=ae29e0de-7b5a-45d6-ace3-313c5e88010a","ios":"levelo://app?vid=ae29e0de-7b5a-45d6-ace3-313c5e88010a"},"vehicle_type_id":"4","last_reported":1736687584,"current_range_meters":0,"station_id":"ce4bho12rcd13ifvqh1g","pricing_plan_id":"cebpf4jnsgd1na2vs0mg"},{"bike_id":"0bc3f5f5-60c2-41a0-a6ff-a38fba6be8aa","system_id":"levelo_inurba_marseille","lat":43.25487,"lon":5.37644,"is_reserved":false,"is_disabled":true,"rental_uris":{"android":"levelo://app?vid=0bc3f5f5-60c2-41a0-a6ff-a38fba6be8aa","ios":"levelo://app?vid=0bc3f5f5-60c2-41a0-a6ff-a38fba6be8aa"},"vehicle_type_id":"4","last_reported":1736687584,"current_range_meters":30000,"station_id":"ce4bhh12rcd13ifvqff0","pricing_plan_id":"cebpf4jnsgd1na2vs0mg"},{"bike_id":"572f0254-11cf-4ef2-b3f9-66737ed8298a","system_id":"levelo_inurba_marseille","lat":43.28414,"lon":5.3499,"is_reserved":false,"is_disabled":true,"rental_uris":{"android":"levelo://app?vid=572f0254-11cf-4ef2-b3f9-66737ed8298a","ios":"levelo://app?vid=572f0254-11cf-4ef2-b3f9-66737ed8298a"},"vehicle_type_id":"4","last_reported":1736687584,"current_range_meters":0,"station_id":"ce4bhbh2rcd13ifvqepg","pricing_plan_id":"cebpf4jnsgd1na2vs0mg"},{"bike_id":"62415d9d-489c-4e8c-b8c9-3fa376066a1b","system_id":"levelo_inurba_marseille","lat":43.28996,"lon":5.3561,"is_reserved":false,"is_disabled":true,"rental_uris":{"android":"levelo://app?vid=62415d9d-489c-4e8c-b8c9-3fa376066a1b","ios":"levelo://app?vid=62415d9d-489c-4e8c-b8c9-3fa376066a1b"},"vehicle_type_id":"4","last_reported":1736687584,"current_range_meters":2000,"station_id":"ce4bhb92rcd13ifvqen0","pricing_plan_id":"cebpf4jnsgd1na2vs0mg"},{"bike_id":"bd282491-ac7e-4fa8-b03f-68721e0da76a","system_id":"levelo_inurba_marseille","lat":43.25865,"lon":5.39896,"is_reserved":false,"is_disabled":false,"rental_uris":{"android":"levelo://app?vid=bd282491-ac7e-4fa8-b03f-68721e0da76a","ios":"levelo://app?vid=bd282491-ac7e-4fa8-b03f-68721e0da76a"},"vehicle_type_id":"4","last_reported":1736687584,"current_range_meters":7200,"station_id":"ce4bhl92rcd13ifvqghg","pricing_plan_id":"cebpf4jnsgd1na2vs0mg"},{"bike_id":"6845255b-3748-47a8-80ff-32e6d62dd708","system_id":"levelo_inurba_marseille","lat":43.23195,"lon":5.39993,"is_reserved":false,"is_disabled":false,"rental_uris":{"android":"levelo://app?vid=6845255b-3748-47a8-80ff-32e6d62dd708","ios":"levelo://app?vid=6845255b-3748-47a8-80ff-32e6d62dd708"},"vehicle_type_id":"4","last_reported":1736687584,"current_range_meters":38400,"station_id":"ce4bhn12rcd13ifvqgqg","pricing_plan_id":"cebpf4jnsgd1na2vs0mg"},{"bike_id":"136c61aa-a244-4f82-9113-620a348666ce","system_id":"levelo_inurba_marseille","lat":43.27528,"lon":5.38443,"is_reserved":false,"is_disabled":true,"rental_uris":{"android":"levelo://app?vid=136c61aa-a244-4f82-9113-620a348666ce","ios":"levelo://app?vid=136c61aa-a244-4f82-9113-620a348666ce"},"vehicle_type_id":"4","last_reported":1736687584,"current_range_meters":28800,"station_id":"ce4bhh92rcd13ifvqfi0","pricing_plan_id":"cebpf4jnsgd1na2vs0mg"},{"bike_id":"0aaab935-f9c3-4887-8cb0-dbe032cfbced","system_id":"levelo_inurba_marseille","lat":43.29922,"lon":5.36537,"is_reserved":false,"is_disabled":false,"rental_uris":{"android":"levelo://app?vid=0aaab935-f9c3-4887-8cb0-dbe032cfbced","ios":"levelo://app?vid=0aaab935-f9c3-4887-8cb0-dbe032cfbced"},"vehicle_type_id":"4","last_reported":1736687584,"current_range_meters":31200,"station_id":"ce4bgm92rcd13ifvqbr0","pricing_plan_id":"cebpf4jnsgd1na2vs0mg"},{"bike_id":"42ecc464-da44-487e-b0da-d25d9d2043d6","system_id":"levelo_inurba_marseille","lat":43.25723,"lon":5.4111,"is_reserved":false,"is_disabled":false,"rental_uris":{"android":"levelo://app?vid=42ecc464-da44-487e-b0da-d25d9d2043d6","ios":"levelo://app?vid=42ecc464-da44-487e-b0da-d25d9d2043d6"},"vehicle_type_id":"4","last_reported":1736687584,"current_range_meters":38400,"station_id":"ce4bhkp2rcd13ifvqgd0","pricing_plan_id":"cebpf4jnsgd1na2vs0mg"},{"bike_id":"41e61eda-8e18-417d-ba17-05b57138ef96","system_id":"levelo_inurba_marseille","lat":43.30951,"lon":5.39045,"is_reserved":false,"is_disabled":false,"rental_uris":{"android":"levelo://app?vid=41e61eda-8e18-417d-ba17-05b57138ef96","ios":"levelo://app?vid=41e61eda-8e18-417d-ba17-05b57138ef96"},"vehicle_type_id":"4","last_reported":1736687584,"current_range_meters":30000,"station_id":"ce4bgup2rcd13ifvqco0","pricing_plan_id":"cebpf4jnsgd1na2vs0mg"},{"bike_id":"b7e8dd08-60c6-4ec8-95ea-61794c9f9e48","system_id":"levelo_inurba_marseille","lat":43.25494,"lon":5.37658,"is_reserved":false,"is_disabled":false,"rental_uris":{"android":"levelo://app?vid=b7e8dd08-60c6-4ec8-95ea-61794c9f9e48","ios":"levelo://app?vid=b7e8dd08-60c6-4ec8-95ea-61794c9f9e48"},"vehicle_type_id":"4","last_reported":1736687584,"current_range_meters":38800,"station_id":"ce4bhh12rcd13ifvqff0","pricing_plan_id":"cebpf4jnsgd1na2vs0mg"},{"bike_id":"65e8b99d-cb00-44f8-a57f-7740743f51e0","system_id":"levelo_inurba_marseille","lat":43.25009,"lon":5.38919,"is_reserved":false,"is_disabled":true,"rental_uris":{"android":"levelo://app?vid=65e8b99d-cb00-44f8-a57f-7740743f51e0","ios":"levelo://app?vid=65e8b99d-cb00-44f8-a57f-7740743f51e0"},"vehicle_type_id":"4","last_reported":1736687584,"current_range_meters":28000,"station_id":"ce4bhgp2rcd13ifvqfd0","pricing_plan_id":"cebpf4jnsgd1na2vs0mg"},{"bike_id":"e7bed24c-76b8-4bfe-8ea5-51efa81df6c2","system_id":"levelo_inurba_marseille","lat":43.27495,"lon":5.4247,"is_reserved":false,"is_disabled":true,"rental_uris":{"android":"levelo://app?vid=e7bed24c-76b8-4bfe-8ea5-51efa81df6c2","ios":"levelo://app?vid=e7bed24c-76b8-4bfe-8ea5-51efa81df6c2"},"vehicle_type_id":"4","last_reported":1736687584,"current_range_meters":0,"station_id":"ce4bhn92rcd13ifvqgrg","pricing_plan_id":"cebpf4jnsgd1na2vs0mg"},{"bike_id":"931cb9ad-47d8-4cbe-b075-74cd5d5b2c80","system_id":"levelo_inurba_marseille","lat":43.30541,"lon":5.36539,"is_reserved":false,"is_disabled":false,"rental_uris":{"android":"levelo://app?vid=931cb9ad-47d8-4cbe-b075-74cd5d5b2c80","ios":"levelo://app?vid=931cb9ad-47d8-4cbe-b075-74cd5d5b2c80"},"vehicle_type_id":"4","last_reported":1736687584,"current_range_meters":38800,"station_id":"ce4bgs12rcd13ifvqcag","pricing_plan_id":"cebpf4jnsgd1na2vs0mg"},{"bike_id":"73dbc47e-0fb6-4b0d-8f73-46b1e7929e10","system_id":"levelo_inurba_marseille","lat":43.28425,"lon":5.34981,"is_reserved":false,"is_disabled":false,"rental_uris":{"android":"levelo://app?vid=73dbc47e-0fb6-4b0d-8f73-46b1e7929e10","ios":"levelo://app?vid=73dbc47e-0fb6-4b0d-8f73-46b1e7929e10"},"vehicle_type_id":"4","last_reported":1736687584,"current_range_meters":22400,"station_id":"ce4bhbh2rcd13ifvqepg","pricing_plan_id":"cebpf4jnsgd1na2vs0mg"},{"bike_id":"cc464ccb-457a-4c65-bb12-9e9cbd11ca96","system_id":"levelo_inurba_marseille","lat":43.25031,"lon":5.38964,"is_reserved":false,"is_disabled":false,"rental_uris":{"android":"levelo://app?vid=cc464ccb-457a-4c65-bb12-9e9cbd11ca96","ios":"levelo://app?vid=cc464ccb-457a-4c65-bb12-9e9cbd11ca96"},"vehicle_type_id":"4","last_reported":1736687584,"current_range_meters":32800,"station_id":"ce4bhgp2rcd13ifvqfd0","pricing_plan_id":"cebpf4jnsgd1na2vs0mg"},{"bike_id":"0e61ec43-c876-45d3-a431-7ad6cb87fc6c","system_id":"levelo_inurba_marseille","lat":43.25707,"lon":5.41113,"is_reserved":false,"is_disabled":false,"rental_uris":{"android":"levelo://app?vid=0e61ec43-c876-45d3-a431-7ad6cb87fc6c","ios":"levelo://app?vid=0e61ec43-c876-45d3-a431-7ad6cb87fc6c"},"vehicle_type_id":"4","last_reported":1736687584,"current_range_meters":38800,"station_id":"ce4bhkp2rcd13ifvqgd0","pricing_plan_id":"cebpf4jnsgd1na2vs0mg"},{"bike_id":"b704bf42-2bc7-4506-b669-8ca7a3330fef","system_id":"levelo_inurba_marseille","lat":43.28155,"lon":5.42654,"is_reserved":false,"is_disabled":true,"rental_uris":{"android":"levelo://app?vid=b704bf42-2bc7-4506-b669-8ca7a3330fef","ios":"levelo://app?vid=b704bf42-2bc7-4506-b669-8ca7a3330fef"},"vehicle_type_id":"4","last_reported":1736687584,"current_range_meters":28000,"station_id":"ce4bhnh2rcd13ifvqgug","pricing_plan_id":"cebpf4jnsgd1na2vs0mg"},{"bike_id":"c8a3f8d0-41bb-4306-89c7-778376ec8ce7","system_id":"levelo_inurba_marseille","lat":43.29574,"lon":5.36738,"is_reserved":false,"is_disabled":false,"rental_uris":{"android":"levelo://app?vid=c8a3f8d0-41bb-4306-89c7-778376ec8ce7","ios":"levelo://app?vid=c8a3f8d0-41bb-4306-89c7-778376ec8ce7"},"vehicle_type_id":"4","last_reported":1736687584,"current_range_meters":37600,"station_id":"ce4bgph2rcd13ifvqc2g","pricing_plan_id":"cebpf4jnsgd1na2vs0mg"},{"bike_id":"52cb6240-5285-4796-91cf-940d48fc7b61","system_id":"levelo_inurba_marseille","lat":43.24559,"lon":5.39524,"is_reserved":false,"is_disabled":false,"rental_uris":{"android":"levelo://app?vid=52cb6240-5285-4796-91cf-940d48fc7b61","ios":"levelo://app?vid=52cb6240-5285-4796-91cf-940d48fc7b61"},"vehicle_type_id":"4","last_reported":1736687584,"current_range_meters":26800,"station_id":"ce4bhlp2rcd13ifvqgjg","pricing_plan_id":"cebpf4jnsgd1na2vs0mg"},{"bike_id":"2767b2ee-ea57-48c2-8f05-1fe711b7d211","system_id":"levelo_inurba_marseille","lat":43.29279,"lon":5.36829,"is_reserved":false,"is_disabled":false,"rental_uris":{"android":"levelo://app?vid=2767b2ee-ea57-48c2-8f05-1fe711b7d211","ios":"levelo://app?vid=2767b2ee-ea57-48c2-8f05-1fe711b7d211"},"vehicle_type_id":"4","last_reported":1736687584,"current_range_meters":25600,"station_id":"ce4bhbp2rcd13ifvqesg","pricing_plan_id":"cebpf4jnsgd1na2vs0mg"},{"bike_id":"b599845f-207b-48ae-bfa3-e63f031f4dd8","system_id":"levelo_inurba_marseille","lat":43.32525,"lon":5.41446,"is_reserved":false,"is_disabled":false,"rental_uris":{"android":"levelo://app?vid=b599845f-207b-48ae-bfa3-e63f031f4dd8","ios":"levelo://app?vid=b599845f-207b-48ae-bfa3-e63f031f4dd8"},"vehicle_type_id":"4","last_reported":1736687584,"current_range_meters":12000,"station_id":"ce4bhq12rcd13ifvqhhg","pricing_plan_id":"cebpf4jnsgd1na2vs0mg"},{"bike_id":"99992ce0-e13f-4dee-95af-06d78d23df51","system_id":"levelo_inurba_marseille","lat":43.25933,"lon":5.40926,"is_reserved":false,"is_disabled":false,"rental_uris":{"android":"levelo://app?vid=99992ce0-e13f-4dee-95af-06d78d23df51","ios":"levelo://app?vid=99992ce0-e13f-4dee-95af-06d78d23df51"},"vehicle_type_id":"4","last_reported":1736687584,"current_range_meters":18000,"station_id":"ce4bhm92rcd13ifvqglg","pricing_plan_id":"cebpf4jnsgd1na2vs0mg"},{"bike_id":"f62a7ed4-7c80-4ed8-9568-a4dea62069d1","system_id":"levelo_inurba_marseille","lat":43.28085,"lon":5.39659,"is_reserved":false,"is_disabled":true,"rental_uris":{"android":"levelo://app?vid=f62a7ed4-7c80-4ed8-9568-a4dea62069d1","ios":"levelo://app?vid=f62a7ed4-7c80-4ed8-9568-a4dea62069d1"},"vehicle_type_id":"4","last_reported":1736687584,"current_range_meters":32800,"station_id":"ce4bho12rcd13ifvqh2g","pricing_plan_id":"cebpf4jnsgd1na2vs0mg"},{"bike_id":"e2744ec8-2f1a-4025-9ec0-6a07f5db3fc4","system_id":"levelo_inurba_marseille","lat":43.254996,"lon":5.376549,"is_reserved":false,"is_disabled":false,"rental_uris":{"android":"levelo://app?vid=e2744ec8-2f1a-4025-9ec0-6a07f5db3fc4","ios":"levelo://app?vid=e2744ec8-2f1a-4025-9ec0-6a07f5db3fc4"},"vehicle_type_id":"4","last_reported":1736687584,"current_range_meters":38800,"station_id":"ce4bhh12rcd13ifvqff0","pricing_plan_id":"cebpf4jnsgd1na2vs0mg"},{"bike_id":"326f525b-d004-4932-8bbe-cac5fddeff14","system_id":"levelo_inurba_marseille","lat":43.2907,"lon":5.37176,"is_reserved":false,"is_disabled":false,"rental_uris":{"android":"levelo://app?vid=326f525b-d004-4932-8bbe-cac5fddeff14","ios":"levelo://app?vid=326f525b-d004-4932-8bbe-cac5fddeff14"},"vehicle_type_id":"4","last_reported":1736687584,"current_range_meters":38800,"station_id":"ce4bh5p2rcd13ifvqe4g","pricing_plan_id":"cebpf4jnsgd1na2vs0mg"},{"bike_id":"8ca4708c-0d2b-4cf1-8563-927da3d18514","system_id":"levelo_inurba_marseille","lat":43.26794,"lon":5.40267,"is_reserved":false,"is_disabled":false,"rental_uris":{"android":"levelo://app?vid=8ca4708c-0d2b-4cf1-8563-927da3d18514","ios":"levelo://app?vid=8ca4708c-0d2b-4cf1-8563-927da3d18514"},"vehicle_type_id":"4","last_reported":1736687584,"current_range_meters":37600,"station_id":"ce501612rcd8frsf0b60","pricing_plan_id":"cebpf4jnsgd1na2vs0mg"},{"bike_id":"b66352f5-3d9c-44c6-87f0-f24e0cb0aab8","system_id":"levelo_inurba_marseille","lat":43.28613,"lon":5.35118,"is_reserved":false,"is_disabled":false,"rental_uris":{"android":"levelo://app?vid=b66352f5-3d9c-44c6-87f0-f24e0cb0aab8","ios":"levelo://app?vid=b66352f5-3d9c-44c6-87f0-f24e0cb0aab8"},"vehicle_type_id":"4","last_reported":1736687584,"current_range_meters":25600,"station_id":"ce4bhch2rcd13ifvqeug","pricing_plan_id":"cebpf4jnsgd1na2vs0mg"},{"bike_id":"79a6c167-29fc-4727-9530-0f2c5abf20a9","system_id":"levelo_inurba_marseille","lat":43.27985,"lon":5.40018,"is_reserved":false,"is_disabled":false,"rental_uris":{"android":"levelo://app?vid=79a6c167-29fc-4727-9530-0f2c5abf20a9","ios":"levelo://app?vid=79a6c167-29fc-4727-9530-0f2c5abf20a9"},"vehicle_type_id":"4","last_reported":1736687584,"current_range_meters":39200,"station_id":"ce4bho92rcd13ifvqh4g","pricing_plan_id":"cebpf4jnsgd1na2vs0mg"},{"bike_id":"a600f163-9520-4043-bbca-7e042ce60e39","system_id":"levelo_inurba_marseille","lat":43.28617,"lon":5.35103,"is_reserved":false,"is_disabled":false,"rental_uris":{"android":"levelo://app?vid=a600f163-9520-4043-bbca-7e042ce60e39","ios":"levelo://app?vid=a600f163-9520-4043-bbca-7e042ce60e39"},"vehicle_type_id":"4","last_reported":1736687584,"current_range_meters":27600,"station_id":"ce4bhch2rcd13ifvqeug","pricing_plan_id":"cebpf4jnsgd1na2vs0mg"},{"bike_id":"c0554c14-b732-413c-8451-54f8ec41ea32","system_id":"levelo_inurba_marseille","lat":43.27184,"lon":5.40997,"is_reserved":false,"is_disabled":false,"rental_uris":{"android":"levelo://app?vid=c0554c14-b732-413c-8451-54f8ec41ea32","ios":"levelo://app?vid=c0554c14-b732-413c-8451-54f8ec41ea32"},"vehicle_type_id":"4","last_reported":1736687584,"current_range_meters":38800,"station_id":"ce4bhl12rcd13ifvqgf0","pricing_plan_id":"cebpf4jnsgd1na2vs0mg"},{"bike_id":"31240ca4-9f64-4406-9c52-14b4354e548c","system_id":"levelo_inurba_marseille","lat":43.28617,"lon":5.35115,"is_reserved":false,"is_disabled":false,"rental_uris":{"android":"levelo://app?vid=31240ca4-9f64-4406-9c52-14b4354e548c","ios":"levelo://app?vid=31240ca4-9f64-4406-9c52-14b4354e548c"},"vehicle_type_id":"4","last_reported":1736687584,"current_range_meters":36800,"station_id":"ce4bhch2rcd13ifvqeug","pricing_plan_id":"cebpf4jnsgd1na2vs0mg"},{"bike_id":"d9b042e2-bbf3-47bf-851f-426caf4d0e01","system_id":"levelo_inurba_marseille","lat":43.24817,"lon":5.3746,"is_reserved":false,"is_disabled":false,"rental_uris":{"android":"levelo://app?vid=d9b042e2-bbf3-47bf-851f-426caf4d0e01","ios":"levelo://app?vid=d9b042e2-bbf3-47bf-851f-426caf4d0e01"},"vehicle_type_id":"4","last_reported":1736687584,"current_range_meters":38000,"station_id":"ce4bhgh2rcd13ifvqfb0","pricing_plan_id":"cebpf4jnsgd1na2vs0mg"},{"bike_id":"712fb1ac-a49b-4a1d-bf83-b2682dda137c","system_id":"levelo_inurba_marseille","lat":43.30393,"lon":5.37031,"is_reserved":false,"is_disabled":true,"rental_uris":{"android":"levelo://app?vid=712fb1ac-a49b-4a1d-bf83-b2682dda137c","ios":"levelo://app?vid=712fb1ac-a49b-4a1d-bf83-b2682dda137c"},"vehicle_type_id":"4","last_reported":1736687584,"current_range_meters":38000,"station_id":"","pricing_plan_id":"cebpf4jnsgd1na2vs0mg"},{"bike_id":"1e2223a2-c032-49e7-8dbf-982df86a0520","system_id":"levelo_inurba_marseille","lat":43.22925,"lon":5.3538,"is_reserved":false,"is_disabled":false,"rental_uris":{"android":"levelo://app?vid=1e2223a2-c032-49e7-8dbf-982df86a0520","ios":"levelo://app?vid=1e2223a2-c032-49e7-8dbf-982df86a0520"},"vehicle_type_id":"4","last_reported":1736687584,"current_range_meters":24800,"station_id":"cpo3532slgdg3j2ikp40","pricing_plan_id":"cebpf4jnsgd1na2vs0mg"},{"bike_id":"6771989f-277f-4450-9e44-1cdb8ae49ed9","system_id":"levelo_inurba_marseille","lat":43.28849,"lon":5.3584,"is_reserved":false,"is_disabled":false,"rental_uris":{"android":"levelo://app?vid=6771989f-277f-4450-9e44-1cdb8ae49ed9","ios":"levelo://app?vid=6771989f-277f-4450-9e44-1cdb8ae49ed9"},"vehicle_type_id":"4","last_reported":1736687584,"current_range_meters":34800,"station_id":"ce4bhb12rcd13ifvqem0","pricing_plan_id":"cebpf4jnsgd1na2vs0mg"},{"bike_id":"664f9f4a-8534-4c51-add9-7d7a19c27d05","system_id":"levelo_inurba_marseille","lat":43.30542,"lon":5.36532,"is_reserved":false,"is_disabled":false,"rental_uris":{"android":"levelo://app?vid=664f9f4a-8534-4c51-add9-7d7a19c27d05","ios":"levelo://app?vid=664f9f4a-8534-4c51-add9-7d7a19c27d05"},"vehicle_type_id":"4","last_reported":1736687584,"current_range_meters":32400,"station_id":"ce4bgs12rcd13ifvqcag","pricing_plan_id":"cebpf4jnsgd1na2vs0mg"},{"bike_id":"5f2cf356-122a-4d24-85ba-e38bc4612223","system_id":"levelo_inurba_marseille","lat":43.25581,"lon":5.3824,"is_reserved":false,"is_disabled":true,"rental_uris":{"android":"levelo://app?vid=5f2cf356-122a-4d24-85ba-e38bc4612223","ios":"levelo://app?vid=5f2cf356-122a-4d24-85ba-e38bc4612223"},"vehicle_type_id":"4","last_reported":1736687584,"current_range_meters":28800,"station_id":"ce4bhih2rcd13ifvqfs0","pricing_plan_id":"cebpf4jnsgd1na2vs0mg"},{"bike_id":"49c31dee-4966-44dd-a7c4-6161c98f5965","system_id":"levelo_inurba_marseille","lat":43.23197,"lon":5.35555,"is_reserved":false,"is_disabled":false,"rental_uris":{"android":"levelo://app?vid=49c31dee-4966-44dd-a7c4-6161c98f5965","ios":"levelo://app?vid=49c31dee-4966-44dd-a7c4-6161c98f5965"},"vehicle_type_id":"4","last_reported":1736687584,"current_range_meters":4400,"station_id":"ce4bhu92rcd13ifvqi70","pricing_plan_id":"cebpf4jnsgd1na2vs0mg"},{"bike_id":"ac5ad7d8-ccea-458d-83e0-31976cff9c0d","system_id":"levelo_inurba_marseille","lat":43.25729,"lon":5.41113,"is_reserved":false,"is_disabled":false,"rental_uris":{"android":"levelo://app?vid=ac5ad7d8-ccea-458d-83e0-31976cff9c0d","ios":"levelo://app?vid=ac5ad7d8-ccea-458d-83e0-31976cff9c0d"},"vehicle_type_id":"4","last_reported":1736687584,"current_range_meters":38800,"station_id":"ce4bhkp2rcd13ifvqgd0","pricing_plan_id":"cebpf4jnsgd1na2vs0mg"},{"bike_id":"4f290908-13e7-4ea6-a1df-1569e4274662","system_id":"levelo_inurba_marseille","lat":43.23962,"lon":5.36644,"is_reserved":false,"is_disabled":false,"rental_uris":{"android":"levelo://app?vid=4f290908-13e7-4ea6-a1df-1569e4274662","ios":"levelo://app?vid=4f290908-13e7-4ea6-a1df-1569e4274662"},"vehicle_type_id":"4","last_reported":1736687584,"current_range_meters":24000,"station_id":"ce4bhi12rcd13ifvqfp0","pricing_plan_id":"cebpf4jnsgd1na2vs0mg"},{"bike_id":"39c3c4a5-d4ec-4fce-95db-3823db8f6b82","system_id":"levelo_inurba_marseille","lat":43.25722,"lon":5.41112,"is_reserved":false,"is_disabled":false,"rental_uris":{"android":"levelo://app?vid=39c3c4a5-d4ec-4fce-95db-3823db8f6b82","ios":"levelo://app?vid=39c3c4a5-d4ec-4fce-95db-3823db8f6b82"},"vehicle_type_id":"4","last_reported":1736687584,"current_range_meters":31200,"station_id":"ce4bhkp2rcd13ifvqgd0","pricing_plan_id":"cebpf4jnsgd1na2vs0mg"},{"bike_id":"2d7f08b0-7753-43a5-945d-69901716d1f0","system_id":"levelo_inurba_marseille","lat":43.33023,"lon":5.39039,"is_reserved":false,"is_disabled":false,"rental_uris":{"android":"levelo://app?vid=2d7f08b0-7753-43a5-945d-69901716d1f0","ios":"levelo://app?vid=2d7f08b0-7753-43a5-945d-69901716d1f0"},"vehicle_type_id":"4","last_reported":1736687584,"current_range_meters":17200,"station_id":"ce4bhr92rcd13ifvqhrg","pricing_plan_id":"cebpf4jnsgd1na2vs0mg"},{"bike_id":"f3242b66-117d-4557-8198-68b40f6fc725","system_id":"levelo_inurba_marseille","lat":43.30946,"lon":5.39041,"is_reserved":false,"is_disabled":false,"rental_uris":{"android":"levelo://app?vid=f3242b66-117d-4557-8198-68b40f6fc725","ios":"levelo://app?vid=f3242b66-117d-4557-8198-68b40f6fc725"},"vehicle_type_id":"4","last_reported":1736687584,"current_range_meters":16000,"station_id":"ce4bgup2rcd13ifvqco0","pricing_plan_id":"cebpf4jnsgd1na2vs0mg"},{"bike_id":"8242826e-ab20-43ea-95c1-e76b426a119e","system_id":"levelo_inurba_marseille","lat":43.33754,"lon":5.37428,"is_reserved":false,"is_disabled":false,"rental_uris":{"android":"levelo://app?vid=8242826e-ab20-43ea-95c1-e76b426a119e","ios":"levelo://app?vid=8242826e-ab20-43ea-95c1-e76b426a119e"},"vehicle_type_id":"4","last_reported":1736687584,"current_range_meters":14000,"station_id":"","pricing_plan_id":"cebpf4jnsgd1na2vs0mg"},{"bike_id":"57f5a8a9-f2e5-4673-966d-ca04b8d8c8e6","system_id":"levelo_inurba_marseille","lat":43.311167,"lon":5.377728,"is_reserved":false,"is_disabled":true,"rental_uris":{"android":"levelo://app?vid=57f5a8a9-f2e5-4673-966d-ca04b8d8c8e6","ios":"levelo://app?vid=57f5a8a9-f2e5-4673-966d-ca04b8d8c8e6"},"vehicle_type_id":"4","last_reported":1736687584,"current_range_meters":1600,"station_id":"ce4bgt92rcd13ifvqcg0","pricing_plan_id":"cebpf4jnsgd1na2vs0mg"},{"bike_id":"41922604-c7b8-4e93-9da5-3903771d7233","system_id":"levelo_inurba_marseille","lat":43.248122,"lon":5.374594,"is_reserved":false,"is_disabled":false,"rental_uris":{"android":"levelo://app?vid=41922604-c7b8-4e93-9da5-3903771d7233","ios":"levelo://app?vid=41922604-c7b8-4e93-9da5-3903771d7233"},"vehicle_type_id":"4","last_reported":1736687584,"current_range_meters":30400,"station_id":"ce4bhgh2rcd13ifvqfb0","pricing_plan_id":"cebpf4jnsgd1na2vs0mg"},{"bike_id":"c327d484-c524-4142-9386-6268c4e1d223","system_id":"levelo_inurba_marseille","lat":43.2558,"lon":5.38231,"is_reserved":false,"is_disabled":false,"rental_uris":{"android":"levelo://app?vid=c327d484-c524-4142-9386-6268c4e1d223","ios":"levelo://app?vid=c327d484-c524-4142-9386-6268c4e1d223"},"vehicle_type_id":"4","last_reported":1736687584,"current_range_meters":23200,"station_id":"ce4bhih2rcd13ifvqfs0","pricing_plan_id":"cebpf4jnsgd1na2vs0mg"},{"bike_id":"9343157b-1c2d-4548-bf4c-6991e6c0cdde","system_id":"levelo_inurba_marseille","lat":43.29781,"lon":5.3711,"is_reserved":false,"is_disabled":true,"rental_uris":{"android":"levelo://app?vid=9343157b-1c2d-4548-bf4c-6991e6c0cdde","ios":"levelo://app?vid=9343157b-1c2d-4548-bf4c-6991e6c0cdde"},"vehicle_type_id":"4","last_reported":1736687584,"current_range_meters":27200,"station_id":"ce4bgop2rcd13ifvqc1g","pricing_plan_id":"cebpf4jnsgd1na2vs0mg"},{"bike_id":"61511a11-aa82-473b-9420-66e211903ab0","system_id":"levelo_inurba_marseille","lat":43.2791,"lon":5.3958,"is_reserved":false,"is_disabled":false,"rental_uris":{"android":"levelo://app?vid=61511a11-aa82-473b-9420-66e211903ab0","ios":"levelo://app?vid=61511a11-aa82-473b-9420-66e211903ab0"},"vehicle_type_id":"4","last_reported":1736687584,"current_range_meters":7200,"station_id":"ce4bhf92rcd13ifvqf40","pricing_plan_id":"cebpf4jnsgd1na2vs0mg"},{"bike_id":"f3d63fbe-0b15-4d5a-b8ba-74356810cdf7","system_id":"levelo_inurba_marseille","lat":43.27066,"lon":5.42278,"is_reserved":false,"is_disabled":false,"rental_uris":{"android":"levelo://app?vid=f3d63fbe-0b15-4d5a-b8ba-74356810cdf7","ios":"levelo://app?vid=f3d63fbe-0b15-4d5a-b8ba-74356810cdf7"},"vehicle_type_id":"4","last_reported":1736687584,"current_range_meters":38800,"station_id":"ce4bhk92rcd13ifvqgb0","pricing_plan_id":"cebpf4jnsgd1na2vs0mg"},{"bike_id":"cfc7d4e2-0371-4fb2-9ec5-116a185cb80c","system_id":"levelo_inurba_marseille","lat":43.23181,"lon":5.40008,"is_reserved":false,"is_disabled":false,"rental_uris":{"android":"levelo://app?vid=cfc7d4e2-0371-4fb2-9ec5-116a185cb80c","ios":"levelo://app?vid=cfc7d4e2-0371-4fb2-9ec5-116a185cb80c"},"vehicle_type_id":"4","last_reported":1736687584,"current_range_meters":20000,"station_id":"ce4bhn12rcd13ifvqgqg","pricing_plan_id":"cebpf4jnsgd1na2vs0mg"},{"bike_id":"6f8d5613-68e8-453b-9903-0b6c2da05e2d","system_id":"levelo_inurba_marseille","lat":43.24169,"lon":5.36417,"is_reserved":false,"is_disabled":false,"rental_uris":{"android":"levelo://app?vid=6f8d5613-68e8-453b-9903-0b6c2da05e2d","ios":"levelo://app?vid=6f8d5613-68e8-453b-9903-0b6c2da05e2d"},"vehicle_type_id":"4","last_reported":1736687584,"current_range_meters":36800,"station_id":"cpo36qri1sfpv3e86is0","pricing_plan_id":"cebpf4jnsgd1na2vs0mg"},{"bike_id":"72aa3313-2875-4fcf-8e52-31e89d1e547a","system_id":"levelo_inurba_marseille","lat":43.26564,"lon":5.39002,"is_reserved":false,"is_disabled":false,"rental_uris":{"android":"levelo://app?vid=72aa3313-2875-4fcf-8e52-31e89d1e547a","ios":"levelo://app?vid=72aa3313-2875-4fcf-8e52-31e89d1e547a"},"vehicle_type_id":"4","last_reported":1736687584,"current_range_meters":18800,"station_id":"ce4bhe12rcd13ifvqf30","pricing_plan_id":"cebpf4jnsgd1na2vs0mg"},{"bike_id":"cf11e11e-1e8b-42f7-a7ea-4ab24cbbde4c","system_id":"levelo_inurba_marseille","lat":43.28619,"lon":5.35112,"is_reserved":false,"is_disabled":false,"rental_uris":{"android":"levelo://app?vid=cf11e11e-1e8b-42f7-a7ea-4ab24cbbde4c","ios":"levelo://app?vid=cf11e11e-1e8b-42f7-a7ea-4ab24cbbde4c"},"vehicle_type_id":"4","last_reported":1736687584,"current_range_meters":33600,"station_id":"ce4bhch2rcd13ifvqeug","pricing_plan_id":"cebpf4jnsgd1na2vs0mg"},{"bike_id":"38b43d61-c781-4ed8-a84c-0cb997bdb7bf","system_id":"levelo_inurba_marseille","lat":43.25578,"lon":5.38234,"is_reserved":false,"is_disabled":false,"rental_uris":{"android":"levelo://app?vid=38b43d61-c781-4ed8-a84c-0cb997bdb7bf","ios":"levelo://app?vid=38b43d61-c781-4ed8-a84c-0cb997bdb7bf"},"vehicle_type_id":"4","last_reported":1736687584,"current_range_meters":24400,"station_id":"ce4bhih2rcd13ifvqfs0","pricing_plan_id":"cebpf4jnsgd1na2vs0mg"},{"bike_id":"4ea89943-560f-4480-a533-4fe6664bd873","system_id":"levelo_inurba_marseille","lat":43.26196,"lon":5.37462,"is_reserved":false,"is_disabled":false,"rental_uris":{"android":"levelo://app?vid=4ea89943-560f-4480-a533-4fe6664bd873","ios":"levelo://app?vid=4ea89943-560f-4480-a533-4fe6664bd873"},"vehicle_type_id":"4","last_reported":1736687584,"current_range_meters":14400,"station_id":"ce4bhgp2rcd13ifvqfc0","pricing_plan_id":"cebpf4jnsgd1na2vs0mg"},{"bike_id":"85603f95-286b-4848-8682-ec6ae6094237","system_id":"levelo_inurba_marseille","lat":43.27061,"lon":5.40267,"is_reserved":false,"is_disabled":true,"rental_uris":{"android":"levelo://app?vid=85603f95-286b-4848-8682-ec6ae6094237","ios":"levelo://app?vid=85603f95-286b-4848-8682-ec6ae6094237"},"vehicle_type_id":"4","last_reported":1736687584,"current_range_meters":8400,"station_id":"ce4bhk92rcd13ifvqgc0","pricing_plan_id":"cebpf4jnsgd1na2vs0mg"},{"bike_id":"b52cf5d7-d0ff-45b3-ac5b-ffe5c33591d4","system_id":"levelo_inurba_marseille","lat":43.23065,"lon":5.35492,"is_reserved":false,"is_disabled":true,"rental_uris":{"android":"levelo://app?vid=b52cf5d7-d0ff-45b3-ac5b-ffe5c33591d4","ios":"levelo://app?vid=b52cf5d7-d0ff-45b3-ac5b-ffe5c33591d4"},"vehicle_type_id":"4","last_reported":1736687584,"current_range_meters":1600,"station_id":"cpo3342slgdg3j2ifvpg","pricing_plan_id":"cebpf4jnsgd1na2vs0mg"},{"bike_id":"38be114b-470e-4111-93c3-2817f11b13a6","system_id":"levelo_inurba_marseille","lat":43.30555,"lon":5.36533,"is_reserved":false,"is_disabled":false,"rental_uris":{"android":"levelo://app?vid=38be114b-470e-4111-93c3-2817f11b13a6","ios":"levelo://app?vid=38be114b-470e-4111-93c3-2817f11b13a6"},"vehicle_type_id":"4","last_reported":1736687584,"current_range_meters":39200,"station_id":"ce4bgs12rcd13ifvqcag","pricing_plan_id":"cebpf4jnsgd1na2vs0mg"},{"bike_id":"8b88170d-e695-4530-8583-a66b3ec41a93","system_id":"levelo_inurba_marseille","lat":43.336139,"lon":5.410202,"is_reserved":false,"is_disabled":true,"rental_uris":{"android":"levelo://app?vid=8b88170d-e695-4530-8583-a66b3ec41a93","ios":"levelo://app?vid=8b88170d-e695-4530-8583-a66b3ec41a93"},"vehicle_type_id":"4","last_reported":1736687584,"current_range_meters":8400,"station_id":"ce4bhqh2rcd13ifvqhmg","pricing_plan_id":"cebpf4jnsgd1na2vs0mg"},{"bike_id":"05da1427-11d2-409f-b1a9-8274ceefa2b5","system_id":"levelo_inurba_marseille","lat":43.292751,"lon":5.368397,"is_reserved":false,"is_disabled":true,"rental_uris":{"android":"levelo://app?vid=05da1427-11d2-409f-b1a9-8274ceefa2b5","ios":"levelo://app?vid=05da1427-11d2-409f-b1a9-8274ceefa2b5"},"vehicle_type_id":"4","last_reported":1736687584,"current_range_meters":18800,"station_id":"ce4bhbp2rcd13ifvqesg","pricing_plan_id":"cebpf4jnsgd1na2vs0mg"},{"bike_id":"f4934656-738f-4662-97a8-3698094ebacb","system_id":"levelo_inurba_marseille","lat":43.28268,"lon":5.35075,"is_reserved":false,"is_disabled":false,"rental_uris":{"android":"levelo://app?vid=f4934656-738f-4662-97a8-3698094ebacb","ios":"levelo://app?vid=f4934656-738f-4662-97a8-3698094ebacb"},"vehicle_type_id":"4","last_reported":1736687584,"current_range_meters":32800,"station_id":"ce4bhbp2rcd13ifvqerg","pricing_plan_id":"cebpf4jnsgd1na2vs0mg"},{"bike_id":"b8acbba0-a715-4ced-a2aa-0517db10ac9d","system_id":"levelo_inurba_marseille","lat":43.229219,"lon":5.353869,"is_reserved":false,"is_disabled":true,"rental_uris":{"android":"levelo://app?vid=b8acbba0-a715-4ced-a2aa-0517db10ac9d","ios":"levelo://app?vid=b8acbba0-a715-4ced-a2aa-0517db10ac9d"},"vehicle_type_id":"4","last_reported":1736687584,"current_range_meters":31200,"station_id":"cpo3532slgdg3j2ikp40","pricing_plan_id":"cebpf4jnsgd1na2vs0mg"},{"bike_id":"76f6d3e5-4e43-48bf-b9a9-cb42c72509df","system_id":"levelo_inurba_marseille","lat":43.3095,"lon":5.39037,"is_reserved":false,"is_disabled":false,"rental_uris":{"android":"levelo://app?vid=76f6d3e5-4e43-48bf-b9a9-cb42c72509df","ios":"levelo://app?vid=76f6d3e5-4e43-48bf-b9a9-cb42c72509df"},"vehicle_type_id":"4","last_reported":1736687584,"current_range_meters":20800,"station_id":"ce4bgup2rcd13ifvqco0","pricing_plan_id":"cebpf4jnsgd1na2vs0mg"},{"bike_id":"74dc7ce0-eba1-4612-8ac3-30db9f174f56","system_id":"levelo_inurba_marseille","lat":43.22929,"lon":5.35376,"is_reserved":false,"is_disabled":false,"rental_uris":{"android":"levelo://app?vid=74dc7ce0-eba1-4612-8ac3-30db9f174f56","ios":"levelo://app?vid=74dc7ce0-eba1-4612-8ac3-30db9f174f56"},"vehicle_type_id":"4","last_reported":1736687584,"current_range_meters":12000,"station_id":"cpo3532slgdg3j2ikp40","pricing_plan_id":"cebpf4jnsgd1na2vs0mg"},{"bike_id":"1d1bf384-b950-43e6-a473-c903425185d1","system_id":"levelo_inurba_marseille","lat":43.23151,"lon":5.4371,"is_reserved":false,"is_disabled":false,"rental_uris":{"android":"levelo://app?vid=1d1bf384-b950-43e6-a473-c903425185d1","ios":"levelo://app?vid=1d1bf384-b950-43e6-a473-c903425185d1"},"vehicle_type_id":"4","last_reported":1736687584,"current_range_meters":12000,"station_id":"ce4bhmp2rcd13ifvqgog","pricing_plan_id":"cebpf4jnsgd1na2vs0mg"},{"bike_id":"b570ec5e-60fc-4629-819d-b32caf44ad24","system_id":"levelo_inurba_marseille","lat":43.29552,"lon":5.42294,"is_reserved":false,"is_disabled":false,"rental_uris":{"android":"levelo://app?vid=b570ec5e-60fc-4629-819d-b32caf44ad24","ios":"levelo://app?vid=b570ec5e-60fc-4629-819d-b32caf44ad24"},"vehicle_type_id":"4","last_reported":1736687584,"current_range_meters":38800,"station_id":"ce4bhph2rcd13ifvqhdg","pricing_plan_id":"cebpf4jnsgd1na2vs0mg"},{"bike_id":"05397833-93b9-47ea-9ffe-77ff186af919","system_id":"levelo_inurba_marseille","lat":43.28999,"lon":5.35615,"is_reserved":false,"is_disabled":false,"rental_uris":{"android":"levelo://app?vid=05397833-93b9-47ea-9ffe-77ff186af919","ios":"levelo://app?vid=05397833-93b9-47ea-9ffe-77ff186af919"},"vehicle_type_id":"4","last_reported":1736687584,"current_range_meters":27200,"station_id":"ce4bhb92rcd13ifvqen0","pricing_plan_id":"cebpf4jnsgd1na2vs0mg"},{"bike_id":"92c30b42-081d-4e76-8d30-e6b28eedfec0","system_id":"levelo_inurba_marseille","lat":43.30957,"lon":5.39067,"is_reserved":false,"is_disabled":false,"rental_uris":{"android":"levelo://app?vid=92c30b42-081d-4e76-8d30-e6b28eedfec0","ios":"levelo://app?vid=92c30b42-081d-4e76-8d30-e6b28eedfec0"},"vehicle_type_id":"4","last_reported":1736687584,"current_range_meters":20400,"station_id":"ce4bgup2rcd13ifvqco0","pricing_plan_id":"cebpf4jnsgd1na2vs0mg"},{"bike_id":"9e250c55-465f-42c8-b064-6e19a455849a","system_id":"levelo_inurba_marseille","lat":43.29782,"lon":5.37105,"is_reserved":false,"is_disabled":false,"rental_uris":{"android":"levelo://app?vid=9e250c55-465f-42c8-b064-6e19a455849a","ios":"levelo://app?vid=9e250c55-465f-42c8-b064-6e19a455849a"},"vehicle_type_id":"4","last_reported":1736687584,"current_range_meters":37600,"station_id":"ce4bgop2rcd13ifvqc1g","pricing_plan_id":"cebpf4jnsgd1na2vs0mg"},{"bike_id":"a5698a19-52c1-45d9-b6a6-bd07a196dc04","system_id":"levelo_inurba_marseille","lat":43.25565,"lon":5.38233,"is_reserved":false,"is_disabled":true,"rental_uris":{"android":"levelo://app?vid=a5698a19-52c1-45d9-b6a6-bd07a196dc04","ios":"levelo://app?vid=a5698a19-52c1-45d9-b6a6-bd07a196dc04"},"vehicle_type_id":"4","last_reported":1736687584,"current_range_meters":25600,"station_id":"ce4bhih2rcd13ifvqfs0","pricing_plan_id":"cebpf4jnsgd1na2vs0mg"},{"bike_id":"377730c6-0336-4c78-9c46-cdee41ff19a9","system_id":"levelo_inurba_marseille","lat":43.280275,"lon":5.4112,"is_reserved":false,"is_disabled":true,"rental_uris":{"android":"levelo://app?vid=377730c6-0336-4c78-9c46-cdee41ff19a9","ios":"levelo://app?vid=377730c6-0336-4c78-9c46-cdee41ff19a9"},"vehicle_type_id":"4","last_reported":1736687584,"current_range_meters":0,"station_id":"","pricing_plan_id":"cebpf4jnsgd1na2vs0mg"},{"bike_id":"70d39a1a-b620-4ac5-b7f1-93a514958222","system_id":"levelo_inurba_marseille","lat":43.30394,"lon":5.41276,"is_reserved":false,"is_disabled":false,"rental_uris":{"android":"levelo://app?vid=70d39a1a-b620-4ac5-b7f1-93a514958222","ios":"levelo://app?vid=70d39a1a-b620-4ac5-b7f1-93a514958222"},"vehicle_type_id":"4","last_reported":1736687584,"current_range_meters":38800,"station_id":"ce4bhop2rcd13ifvqh8g","pricing_plan_id":"cebpf4jnsgd1na2vs0mg"},{"bike_id":"054cd636-1c92-4b02-9f52-65bb09761079","system_id":"levelo_inurba_marseille","lat":43.27621,"lon":5.3611,"is_reserved":false,"is_disabled":true,"rental_uris":{"android":"levelo://app?vid=054cd636-1c92-4b02-9f52-65bb09761079","ios":"levelo://app?vid=054cd636-1c92-4b02-9f52-65bb09761079"},"vehicle_type_id":"4","last_reported":1736687584,"current_range_meters":38800,"station_id":"ce4bgj92rcd13ifvqbe0","pricing_plan_id":"cebpf4jnsgd1na2vs0mg"},{"bike_id":"e10aafed-e257-4fa4-a123-cdf726896765","system_id":"levelo_inurba_marseille","lat":43.31705,"lon":5.43701,"is_reserved":false,"is_disabled":false,"rental_uris":{"android":"levelo://app?vid=e10aafed-e257-4fa4-a123-cdf726896765","ios":"levelo://app?vid=e10aafed-e257-4fa4-a123-cdf726896765"},"vehicle_type_id":"4","last_reported":1736687584,"current_range_meters":38800,"station_id":"ce4bhp92rcd13ifvqhcg","pricing_plan_id":"cebpf4jnsgd1na2vs0mg"},{"bike_id":"266859f2-18fe-482a-8c9f-5bdad982c716","system_id":"levelo_inurba_marseille","lat":43.28037,"lon":5.41147,"is_reserved":false,"is_disabled":true,"rental_uris":{"android":"levelo://app?vid=266859f2-18fe-482a-8c9f-5bdad982c716","ios":"levelo://app?vid=266859f2-18fe-482a-8c9f-5bdad982c716"},"vehicle_type_id":"4","last_reported":1736687584,"current_range_meters":0,"station_id":"","pricing_plan_id":"cebpf4jnsgd1na2vs0mg"},{"bike_id":"fd01bc8c-af59-4352-a996-47a66c3328f9","system_id":"levelo_inurba_marseille","lat":43.29909,"lon":5.38148,"is_reserved":false,"is_disabled":true,"rental_uris":{"android":"levelo://app?vid=fd01bc8c-af59-4352-a996-47a66c3328f9","ios":"levelo://app?vid=fd01bc8c-af59-4352-a996-47a66c3328f9"},"vehicle_type_id":"4","last_reported":1736687584,"current_range_meters":38800,"station_id":"ce4bgj12rcd13ifvqbc0","pricing_plan_id":"cebpf4jnsgd1na2vs0mg"},{"bike_id":"eaf47db3-b877-4d32-a4e7-0a6eaabd994f","system_id":"levelo_inurba_marseille","lat":43.24809,"lon":5.37457,"is_reserved":false,"is_disabled":false,"rental_uris":{"android":"levelo://app?vid=eaf47db3-b877-4d32-a4e7-0a6eaabd994f","ios":"levelo://app?vid=eaf47db3-b877-4d32-a4e7-0a6eaabd994f"},"vehicle_type_id":"4","last_reported":1736687584,"current_range_meters":38800,"station_id":"ce4bhgh2rcd13ifvqfb0","pricing_plan_id":"cebpf4jnsgd1na2vs0mg"},{"bike_id":"f42d734e-e823-4062-a48f-6086e5240da7","system_id":"levelo_inurba_marseille","lat":43.24395,"lon":5.37058,"is_reserved":false,"is_disabled":false,"rental_uris":{"android":"levelo://app?vid=f42d734e-e823-4062-a48f-6086e5240da7","ios":"levelo://app?vid=f42d734e-e823-4062-a48f-6086e5240da7"},"vehicle_type_id":"4","last_reported":1736687584,"current_range_meters":12000,"station_id":"ce4bhhh2rcd13ifvqfk0","pricing_plan_id":"cebpf4jnsgd1na2vs0mg"},{"bike_id":"9174e29b-6f6e-439c-84cd-ac01f0575f83","system_id":"levelo_inurba_marseille","lat":43.30291,"lon":5.36937,"is_reserved":false,"is_disabled":false,"rental_uris":{"android":"levelo://app?vid=9174e29b-6f6e-439c-84cd-ac01f0575f83","ios":"levelo://app?vid=9174e29b-6f6e-439c-84cd-ac01f0575f83"},"vehicle_type_id":"4","last_reported":1736687584,"current_range_meters":28800,"station_id":"ce4bgqh2rcd13ifvqc5g","pricing_plan_id":"cebpf4jnsgd1na2vs0mg"},{"bike_id":"d54c667a-7088-431f-a933-abc60dcb949a","system_id":"levelo_inurba_marseille","lat":43.29012,"lon":5.35609,"is_reserved":false,"is_disabled":false,"rental_uris":{"android":"levelo://app?vid=d54c667a-7088-431f-a933-abc60dcb949a","ios":"levelo://app?vid=d54c667a-7088-431f-a933-abc60dcb949a"},"vehicle_type_id":"4","last_reported":1736687584,"current_range_meters":24400,"station_id":"ce4bhb92rcd13ifvqen0","pricing_plan_id":"cebpf4jnsgd1na2vs0mg"},{"bike_id":"b31c05a9-6487-4217-80a6-25821a78c060","system_id":"levelo_inurba_marseille","lat":43.23212,"lon":5.35556,"is_reserved":false,"is_disabled":false,"rental_uris":{"android":"levelo://app?vid=b31c05a9-6487-4217-80a6-25821a78c060","ios":"levelo://app?vid=b31c05a9-6487-4217-80a6-25821a78c060"},"vehicle_type_id":"4","last_reported":1736687584,"current_range_meters":38000,"station_id":"ce4bhu92rcd13ifvqi70","pricing_plan_id":"cebpf4jnsgd1na2vs0mg"},{"bike_id":"f23647a8-ac32-4e08-be8d-dff2e243f4ac","system_id":"levelo_inurba_marseille","lat":43.29468,"lon":5.38663,"is_reserved":false,"is_disabled":true,"rental_uris":{"android":"levelo://app?vid=f23647a8-ac32-4e08-be8d-dff2e243f4ac","ios":"levelo://app?vid=f23647a8-ac32-4e08-be8d-dff2e243f4ac"},"vehicle_type_id":"4","last_reported":1736687584,"current_range_meters":0,"station_id":"","pricing_plan_id":"cebpf4jnsgd1na2vs0mg"},{"bike_id":"78273c24-b9b9-430b-8842-172918655610","system_id":"levelo_inurba_marseille","lat":43.30946,"lon":5.3904,"is_reserved":false,"is_disabled":false,"rental_uris":{"android":"levelo://app?vid=78273c24-b9b9-430b-8842-172918655610","ios":"levelo://app?vid=78273c24-b9b9-430b-8842-172918655610"},"vehicle_type_id":"4","last_reported":1736687584,"current_range_meters":24400,"station_id":"ce4bgup2rcd13ifvqco0","pricing_plan_id":"cebpf4jnsgd1na2vs0mg"},{"bike_id":"7bbcae2b-4469-4ddd-9b6d-a2a0042d5420","system_id":"levelo_inurba_marseille","lat":43.29551,"lon":5.42231,"is_reserved":false,"is_disabled":false,"rental_uris":{"android":"levelo://app?vid=7bbcae2b-4469-4ddd-9b6d-a2a0042d5420","ios":"levelo://app?vid=7bbcae2b-4469-4ddd-9b6d-a2a0042d5420"},"vehicle_type_id":"4","last_reported":1736687584,"current_range_meters":24400,"station_id":"ce4bhph2rcd13ifvqhdg","pricing_plan_id":"cebpf4jnsgd1na2vs0mg"},