{"last_updated":1758136035,"ttl":60,"version":"2.2","data":{"bikes":[{"bike_id":"d765e876-dc94-417e-ad8c-0ac49bf5261a","system_id":"levelo_inurba_marseille","lat":43.3343,"lon":5.36382,"is_reserved":false,"is_disabled":false,"rental_uris":{"android":"levelo://app?vid=d765e876-dc94-417e-ad8c-0ac49bf5261a","ios":"levelo://app?vid=d765e876-dc94-417e-ad8c-0ac49bf5261a"},"vehicle_type_id":"4","last_reported":1758136035,"current_range_meters":2800,"station_id":"","pricing_plan_id":"cebpf4jnsgd1na2vs0mg"},{"bike_id":"322c1f5a-85db-4ef6-bcd4-1b5c417c8ee0","system_id":"levelo_inurba_marseille","lat":43.3377,"lon":5.37488,"is_reserved":false,"is_disabled":false,"rental_uris":{"android":"levelo://app?vid=322c1f5a-85db-4ef6-bcd4-1b5c417c8ee0","ios":"levelo://app?vid=322c1f5a-85db-4ef6-bcd4-1b5c417c8ee0"},"vehicle_type_id":"4","last_reported":1758136035,"current_range_meters":3200,"station_id":"","pricing_plan_id":"cebpf4jnsgd1na2vs0mg"},{"bike_id":"52cdb3c1-e8d4-4dd4-9023-1f93fdd744cf","system_id":"levelo_inurba_marseille","lat":43.29034,"lon":5.39969,"is_reserved":false,"is_disabled":false,"rental_uris":{"android":"levelo://app?vid=52cdb3c1-e8d4-4dd4-9023-1f93fdd744cf","ios":"levelo://app?vid=52cdb3c1-e8d4-4dd4-9023-1f93fdd744cf"},"vehicle_type_id":"4","last_reported":1758136035,"current_range_meters":3200,"station_id":"ce4bh392rcd13ifvqdm0","pricing_plan_id":"cebpf4jnsgd1na2vs0mg"},{"bike_id":"a288ee11-20da-4354-b5b0-83a3653d6a00","system_id":"levelo_inurba_marseille","lat":43.22488,"lon":5.34802,"is_reserved":false,"is_disabled":false,"rental_uris":{"android":"levelo://app?vid=a288ee11-20da-4354-b5b0-83a3653d6a00","ios":"levelo://app?vid=a288ee11-20da-4354-b5b0-83a3653d6a00"},"vehicle_type_id":"4","last_reported":1758136035,"current_range_meters":3200,"station_id":"","pricing_plan_id":"cebpf4jnsgd1na2vs0mg"},{"bike_id":"bf1f0dd3-5093-434c-b641-1612bc54d8d4","system_id":"levelo_inurba_marseille","lat":43.24701,"lon":5.39972,"is_reserved":false,"is_disabled":false,"rental_uris":{"android":"levelo://app?vid=bf1f0dd3-5093-434c-b641-1612bc54d8d4","ios":"levelo://app?vid=bf1f0dd3-5093-434c-b641-1612bc54d8d4"},"vehicle_type_id":"4","last_reported":1758136035,"current_range_meters":3200,"station_id":"","pricing_plan_id":"cebpf4jnsgd1na2vs0mg"},{"bike_id":"39f0ed0f-64cd-4820-b210-271129787b86","system_id":"levelo_inurba_marseille","lat":43.30543,"lon":5.38425,"is_reserved":false,"is_disabled":false,"rental_uris":{"android":"levelo://app?vid=39f0ed0f-64cd-4820-b210-271129787b86","ios":"levelo://app?vid=39f0ed0f-64cd-4820-b210-271129787b86"},"vehicle_type_id":"4","last_reported":1758136035,"current_range_meters":2800,"station_id":"ce4bgg92rcd13ifvqb30","pricing_plan_id":"cebpf4jnsgd1na2vs0mg"},{"bike_id":"979ff122-7c9e-4b0a-b11f-87ce9ea6569b","system_id":"levelo_inurba_marseille","lat":43.31674,"lon":5.39968,"is_reserved":false,"is_disabled":false,"rental_uris":{"android":"levelo://app?vid=979ff122-7c9e-4b0a-b11f-87ce9ea6569b","ios":"levelo://app?vid=979ff122-7c9e-4b0a-b11f-87ce9ea6569b"},"vehicle_type_id":"4","last_reported":1758136035,"current_range_meters":3200,"station_id":"","pricing_plan_id":"cebpf4jnsgd1na2vs0mg"},{"bike_id":"6fc70e4b-8747-414c-8f5a-308fe4430dc5","system_id":"levelo_inurba_marseille","lat":43.23969,"lon":5.3663,"is_reserved":false,"is_disabled":false,"rental_uris":{"android":"levelo://app?vid=6fc70e4b-8747-414c-8f5a-308fe4430dc5","ios":"levelo://app?vid=6fc70e4b-8747-414c-8f5a-308fe4430dc5"},"vehicle_type_id":"4","last_reported":1758136035,"current_range_meters":3200,"station_id":"ce4bhi12rcd13ifvqfp0","pricing_plan_id":"cebpf4jnsgd1na2vs0mg"},{"bike_id":"690b2ad9-2bc6-4024-95d1-95b998ee6573","system_id":"levelo_inurba_marseille","lat":43.31724,"lon":5.42402,"is_reserved":false,"is_disabled":false,"rental_uris":{"android":"levelo://app?vid=690b2ad9-2bc6-4024-95d1-95b998ee6573","ios":"levelo://app?vid=690b2ad9-2bc6-4024-95d1-95b998ee6573"},"vehicle_type_id":"4","last_reported":1758136035,"current_range_meters":3600,"station_id":"ce4bhp92rcd13ifvqhbg","pricing_plan_id":"cebpf4jnsgd1na2vs0mg"},{"bike_id":"13d204a4-4ad3-405c-9c7c-c1d353353b7f","system_id":"levelo_inurba_marseille","lat":43.29308,"lon":5.37176,"is_reserved":false,"is_disabled":false,"rental_uris":{"android":"levelo://app?vid=13d204a4-4ad3-405c-9c7c-c1d353353b7f","ios":"levelo://app?vid=13d204a4-4ad3-405c-9c7c-c1d353353b7f"},"vehicle_type_id":"4","last_reported":1758136035,"current_range_meters":3600,"station_id":"","pricing_plan_id":"cebpf4jnsgd1na2vs0mg"},{"bike_id":"c4e35617-9855-4c70-8d8e-0f14fdd7f639","system_id":"levelo_inurba_marseille","lat":43.3136,"lon":5.38303,"is_reserved":false,"is_disabled":false,"rental_uris":{"android":"levelo://app?vid=c4e35617-9855-4c70-8d8e-0f14fdd7f639","ios":"levelo://app?vid=c4e35617-9855-4c70-8d8e-0f14fdd7f639"},"vehicle_type_id":"4","last_reported":1758136035,"current_range_meters":3600,"station_id":"","pricing_plan_id":"cebpf4jnsgd1na2vs0mg"},{"bike_id":"c3ad4594-4e4a-42f9-93e2-c25c45a735b2","system_id":"levelo_inurba_marseille","lat":43.28881,"lon":5.42516,"is_reserved":false,"is_disabled":false,"rental_uris":{"android":"levelo://app?vid=c3ad4594-4e4a-42f9-93e2-c25c45a735b2","ios":"levelo://app?vid=c3ad4594-4e4a-42f9-93e2-c25c45a735b2"},"vehicle_type_id":"4","last_reported":1758136035,"current_range_meters":4000,"station_id":"","pricing_plan_id":"cebpf4jnsgd1na2vs0mg"},{"bike_id":"c07e7a2d-d8a6-4efd-8723-e965be4d1a74","system_id":"levelo_inurba_marseille","lat":43.22533,"lon":5.348367,"is_reserved":false,"is_disabled":false,"rental_uris":{"android":"levelo://app?vid=c07e7a2d-d8a6-4efd-8723-e965be4d1a74","ios":"levelo://app?vid=c07e7a2d-d8a6-4efd-8723-e965be4d1a74"},"vehicle_type_id":"4","last_reported":1758136035,"current_range_meters":4000,"station_id":"","pricing_plan_id":"cebpf4jnsgd1na2vs0mg"},{"bike_id":"20a0d791-7686-4354-882f-f439cd97ecb6","system_id":"levelo_inurba_marseille","lat":43.24541,"lon":5.39511,"is_reserved":false,"is_disabled":false,"rental_uris":{"android":"levelo://app?vid=20a0d791-7686-4354-882f-f439cd97ecb6","ios":"levelo://app?vid=20a0d791-7686-4354-882f-f439cd97ecb6"},"vehicle_type_id":"4","last_reported":1758136035,"current_range_meters":4000,"station_id":"ce4bhlp2rcd13ifvqgjg","pricing_plan_id":"cebpf4jnsgd1na2vs0mg"},{"bike_id":"c016eb2b-c422-4578-b962-4fcec351148d","system_id":"levelo_inurba_marseille","lat":43.31354,"lon":5.38495,"is_reserved":false,"is_disabled":false,"rental_uris":{"android":"levelo://app?vid=c016eb2b-c422-4578-b962-4fcec351148d","ios":"levelo://app?vid=c016eb2b-c422-4578-b962-4fcec351148d"},"vehicle_type_id":"4","last_reported":1758136035,"current_range_meters":4400,"station_id":"ce4bgt92rcd13ifvqcf0","pricing_plan_id":"cebpf4jnsgd1na2vs0mg"},{"bike_id":"11d98a91-aed7-43a9-a3a4-663e4a8efacd","system_id":"levelo_inurba_marseille","lat":43.31334,"lon":5.39694,"is_reserved":false,"is_disabled":false,"rental_uris":{"android":"levelo://app?vid=11d98a91-aed7-43a9-a3a4-663e4a8efacd","ios":"levelo://app?vid=11d98a91-aed7-43a9-a3a4-663e4a8efacd"},"vehicle_type_id":"4","last_reported":1758136035,"current_range_meters":4400,"station_id":"ce4bgvp2rcd13ifvqcu0","pricing_plan_id":"cebpf4jnsgd1na2vs0mg"},{"bike_id":"72382cf1-0d94-4b0f-b93e-c729c1dcd5b6","system_id":"levelo_inurba_marseille","lat":43.28923,"lon":5.38393,"is_reserved":false,"is_disabled":false,"rental_uris":{"android":"levelo://app?vid=72382cf1-0d94-4b0f-b93e-c729c1dcd5b6","ios":"levelo://app?vid=72382cf1-0d94-4b0f-b93e-c729c1dcd5b6"},"vehicle_type_id":"4","last_reported":1758136035,"current_range_meters":4800,"station_id":"ce4bh612rcd13ifvqe6g","pricing_plan_id":"cebpf4jnsgd1na2vs0mg"},{"bike_id":"60e190ba-5ff5-44bb-a6bf-0bd702d6240f","system_id":"levelo_inurba_marseille","lat":43.24164,"lon":5.36393,"is_reserved":false,"is_disabled":false,"rental_uris":{"android":"levelo://app?vid=60e190ba-5ff5-44bb-a6bf-0bd702d6240f","ios":"levelo://app?vid=60e190ba-5ff5-44bb-a6bf-0bd702d6240f"},"vehicle_type_id":"4","last_reported":1758136035,"current_range_meters":5600,"station_id":"cpo36qri1sfpv3e86is0","pricing_plan_id":"cebpf4jnsgd1na2vs0mg"},{"bike_id":"5dcc4f84-f57a-429a-9868-55d61cd67f94","system_id":"levelo_inurba_marseille","lat":43.28933,"lon":5.38405,"is_reserved":false,"is_disabled":false,"rental_uris":{"android":"levelo://app?vid=5dcc4f84-f57a-429a-9868-55d61cd67f94","ios":"levelo://app?vid=5dcc4f84-f57a-429a-9868-55d61cd67f94"},"vehicle_type_id":"4","last_reported":1758136035,"current_range_meters":4800,"station_id":"ce4bh612rcd13ifvqe6g","pricing_plan_id":"cebpf4jnsgd1na2vs0mg"},{"bike_id":"8c215171-2c18-42c0-b63d-0fef72035f16","system_id":"levelo_inurba_marseille","lat":43.29808,"lon":5.38088,"is_reserved":false,"is_disabled":false,"rental_uris":{"android":"levelo://app?vid=8c215171-2c18-42c0-b63d-0fef72035f16","ios":"levelo://app?vid=8c215171-2c18-42c0-b63d-0fef72035f16"},"vehicle_type_id":"4","last_reported":1758136035,"current_range_meters":6000,"station_id":"ce4bgip2rcd13ifvqbb0","pricing_plan_id":"cebpf4jnsgd1na2vs0mg"},{"bike_id":"439f2b82-4183-4fb2-af26-b0cd846b69d2","system_id":"levelo_inurba_marseille","lat":43.27898,"lon":5.38019,"is_reserved":false,"is_disabled":false,"rental_uris":{"android":"levelo://app?vid=439f2b82-4183-4fb2-af26-b0cd846b69d2","ios":"levelo://app?vid=439f2b82-4183-4fb2-af26-b0cd846b69d2"},"vehicle_type_id":"4","last_reported":1758136035,"current_range_meters":6000,"station_id":"ce4bhf92rcd13ifvqf50","pricing_plan_id":"cebpf4jnsgd1na2vs0mg"},{"bike_id":"32ca9d94-8781-4edc-b80f-cdc9cf1fb9fc","system_id":"levelo_inurba_marseille","lat":43.21756,"lon":5.34604,"is_reserved":false,"is_disabled":true,"rental_uris":{"android":"levelo://app?vid=32ca9d94-8781-4edc-b80f-cdc9cf1fb9fc","ios":"levelo://app?vid=32ca9d94-8781-4edc-b80f-cdc9cf1fb9fc"},"vehicle_type_id":"4","last_reported":1758136035,"current_range_meters":6000,"station_id":"st_cvj6r9ubvosntc0bgbag","pricing_plan_id":"cebpf4jnsgd1na2vs0mg"},{"bike_id":"8d7c8b5f-1806-49c2-a26b-9e24f474db10","system_id":"levelo_inurba_marseille","lat":43.29028,"lon":5.37564,"is_reserved":false,"is_disabled":false,"rental_uris":{"android":"levelo://app?vid=8d7c8b5f-1806-49c2-a26b-9e24f474db10","ios":"levelo://app?vid=8d7c8b5f-1806-49c2-a26b-9e24f474db10"},"vehicle_type_id":"4","last_reported":1758136035,"current_range_meters":6400,"station_id":"ce4bh692rcd13ifvqe90","pricing_plan_id":"cebpf4jnsgd1na2vs0mg"},{"bike_id":"47a98e22-c1d4-4476-ace0-3c1d2af66031","system_id":"levelo_inurba_marseille","lat":43.281498,"lon":5.426475,"is_reserved":false,"is_disabled":false,"rental_uris":{"android":"levelo://app?vid=47a98e22-c1d4-4476-ace0-3c1d2af66031","ios":"levelo://app?vid=47a98e22-c1d4-4476-ace0-3c1d2af66031"},"vehicle_type_id":"4","last_reported":1758136035,"current_range_meters":6400,"station_id":"ce4bhnh2rcd13ifvqgug","pricing_plan_id":"cebpf4jnsgd1na2vs0mg"},{"bike_id":"f4a38ad0-7880-445b-a097-afccb801205b","system_id":"levelo_inurba_marseille","lat":43.24176,"lon":5.39737,"is_reserved":false,"is_disabled":false,"rental_uris":{"android":"levelo://app?vid=f4a38ad0-7880-445b-a097-afccb801205b","ios":"levelo://app?vid=f4a38ad0-7880-445b-a097-afccb801205b"},"vehicle_type_id":"4","last_reported":1758136035,"current_range_meters":6400,"station_id":"ce4bhn12rcd13ifvqgpg","pricing_plan_id":"cebpf4jnsgd1na2vs0mg"},{"bike_id":"13d4eea8-9844-42fe-8267-eaf155e127a2","system_id":"levelo_inurba_marseille","lat":43.29987,"lon":5.371812,"is_reserved":false,"is_disabled":true,"rental_uris":{"android":"levelo://app?vid=13d4eea8-9844-42fe-8267-eaf155e127a2","ios":"levelo://app?vid=13d4eea8-9844-42fe-8267-eaf155e127a2"},"vehicle_type_id":"4","last_reported":1758136035,"current_range_meters":6400,"station_id":"","pricing_plan_id":"cebpf4jnsgd1na2vs0mg"},{"bike_id":"e183c86e-9482-49c3-8502-016dc2a33f16","system_id":"levelo_inurba_marseille","lat":43.31987,"lon":5.38152,"is_reserved":false,"is_disabled":false,"rental_uris":{"android":"levelo://app?vid=e183c86e-9482-49c3-8502-016dc2a33f16","ios":"levelo://app?vid=e183c86e-9482-49c3-8502-016dc2a33f16"},"vehicle_type_id":"4","last_reported":1758136035,"current_range_meters":6800,"station_id":"ce4bhr12rcd13ifvqhpg","pricing_plan_id":"cebpf4jnsgd1na2vs0mg"},{"bike_id":"ca81b0b9-da6b-4e4a-a8bb-6133e5216276","system_id":"levelo_inurba_marseille","lat":43.30649,"lon":5.40099,"is_reserved":false,"is_disabled":false,"rental_uris":{"android":"levelo://app?vid=ca81b0b9-da6b-4e4a-a8bb-6133e5216276","ios":"levelo://app?vid=ca81b0b9-da6b-4e4a-a8bb-6133e5216276"},"vehicle_type_id":"4","last_reported":1758136035,"current_range_meters":6800,"station_id":"ce4bh112rcd13ifvqda0","pricing_plan_id":"cebpf4jnsgd1na2vs0mg"},{"bike_id":"64acb283-bd81-40af-8bdf-b2630965db81","system_id":"levelo_inurba_marseille","lat":43.27496,"lon":5.42454,"is_reserved":false,"is_disabled":false,"rental_uris":{"android":"levelo://app?vid=64acb283-bd81-40af-8bdf-b2630965db81","ios":"levelo://app?vid=64acb283-bd81-40af-8bdf-b2630965db81"},"vehicle_type_id":"4","last_reported":1758136035,"current_range_meters":6800,"station_id":"ce4bhn92rcd13ifvqgrg","pricing_plan_id":"cebpf4jnsgd1na2vs0mg"},{"bike_id":"77961ee4-17ef-4f03-9028-d1a8e20101f8","system_id":"levelo_inurba_marseille","lat":43.306,"lon":5.372287,"is_reserved":false,"is_disabled":false,"rental_uris":{"android":"levelo://app?vid=77961ee4-17ef-4f03-9028-d1a8e20101f8","ios":"levelo://app?vid=77961ee4-17ef-4f03-9028-d1a8e20101f8"},"vehicle_type_id":"4","last_reported":1758136035,"current_range_meters":6800,"station_id":"ce4bgqh2rcd13ifvqc4g","pricing_plan_id":"cebpf4jnsgd1na2vs0mg"},{"bike_id":"f895eb90-d970-4448-b096-5a166a903f92","system_id":"levelo_inurba_marseille","lat":43.2657,"lon":5.37306,"is_reserved":false,"is_disabled":true,"rental_uris":{"android":"levelo://app?vid=f895eb90-d970-4448-b096-5a166a903f92","ios":"levelo://app?vid=f895eb90-d970-4448-b096-5a166a903f92"},"vehicle_type_id":"4","last_reported":1758136035,"current_range_meters":8000,"station_id":"ce4bhg12rcd13ifvqf70","pricing_plan_id":"cebpf4jnsgd1na2vs0mg"},{"bike_id":"1b6a995d-34ac-45d5-9528-44d2f8bbd183","system_id":"levelo_inurba_marseille","lat":43.28522,"lon":5.35922,"is_reserved":false,"is_disabled":false,"rental_uris":{"android":"levelo://app?vid=1b6a995d-34ac-45d5-9528-44d2f8bbd183","ios":"levelo://app?vid=1b6a995d-34ac-45d5-9528-44d2f8bbd183"},"vehicle_type_id":"4","last_reported":1758136035,"current_range_meters":8000,"station_id":"","pricing_plan_id":"cebpf4jnsgd1na2vs0mg"},{"bike_id":"1f5c8159-8d23-41a0-b85d-c56a05fd4cab","system_id":"levelo_inurba_marseille","lat":43.30098,"lon":5.39077,"is_reserved":false,"is_disabled":false,"rental_uris":{"android":"levelo://app?vid=1f5c8159-8d23-41a0-b85d-c56a05fd4cab","ios":"levelo://app?vid=1f5c8159-8d23-41a0-b85d-c56a05fd4cab"},"vehicle_type_id":"4","last_reported":1758136035,"current_range_meters":8000,"station_id":"ce4bh192rcd13ifvqdb0","pricing_plan_id":"cebpf4jnsgd1na2vs0mg"},{"bike_id":"2ac1e930-436e-464c-9b8c-7ed98f563626","system_id":"levelo_inurba_marseille","lat":43.29888,"lon":5.389,"is_reserved":false,"is_disabled":false,"rental_uris":{"android":"levelo://app?vid=2ac1e930-436e-464c-9b8c-7ed98f563626","ios":"levelo://app?vid=2ac1e930-436e-464c-9b8c-7ed98f563626"},"vehicle_type_id":"4","last_reported":1758136035,"current_range_meters":8000,"station_id":"ce4bh392rcd13ifvqdl0","pricing_plan_id":"cebpf4jnsgd1na2vs0mg"},{"bike_id":"e374bfb8-ecde-4f78-954f-97ab4e1b0bb3","system_id":"levelo_inurba_marseille","lat":43.25085,"lon":5.39483,"is_reserved":false,"is_disabled":false,"rental_uris":{"android":"levelo://app?vid=e374bfb8-ecde-4f78-954f-97ab4e1b0bb3","ios":"levelo://app?vid=e374bfb8-ecde-4f78-954f-97ab4e1b0bb3"},"vehicle_type_id":"4","last_reported":1758136035,"current_range_meters":8000,"station_id":"ce4bhm12rcd13ifvqgkg","pricing_plan_id":"cebpf4jnsgd1na2vs0mg"},{"bike_id":"9023d84f-8ef9-4749-9cb8-a2ef6b71e57a","system_id":"levelo_inurba_marseille","lat":43.27947,"lon":5.41063,"is_reserved":false,"is_disabled":true,"rental_uris":{"android":"levelo://app?vid=9023d84f-8ef9-4749-9cb8-a2ef6b71e57a","ios":"levelo://app?vid=9023d84f-8ef9-4749-9cb8-a2ef6b71e57a"},"vehicle_type_id":"4","last_reported":1758136035,"current_range_meters":8000,"station_id":"ce4bhnp2rcd13ifvqh0g","pricing_plan_id":"cebpf4jnsgd1na2vs0mg"},{"bike_id":"4e8df986-329f-4641-804c-4f1628745aee","system_id":"levelo_inurba_marseille","lat":43.31709,"lon":5.37746,"is_reserved":false,"is_disabled":false,"rental_uris":{"android":"levelo://app?vid=4e8df986-329f-4641-804c-4f1628745aee","ios":"levelo://app?vid=4e8df986-329f-4641-804c-4f1628745aee"},"vehicle_type_id":"4","last_reported":1758136035,"current_range_meters":8000,"station_id":"ce4bgth2rcd13ifvqch0","pricing_plan_id":"cebpf4jnsgd1na2vs0mg"},{"bike_id":"76b8342c-e665-4599-bc8b-e0d01a6dc59c","system_id":"levelo_inurba_marseille","lat":43.25727,"lon":5.41114,"is_reserved":false,"is_disabled":false,"rental_uris":{"android":"levelo://app?vid=76b8342c-e665-4599-bc8b-e0d01a6dc59c","ios":"levelo://app?vid=76b8342c-e665-4599-bc8b-e0d01a6dc59c"},"vehicle_type_id":"4","last_reported":1758136035,"current_range_meters":8000,"station_id":"ce4bhkp2rcd13ifvqgd0","pricing_plan_id":"cebpf4jnsgd1na2vs0mg"},{"bike_id":"ef526b9e-c777-4a8f-9d06-ab9e76825ccb","system_id":"levelo_inurba_marseille","lat":43.2509,"lon":5.39508,"is_reserved":false,"is_disabled":false,"rental_uris":{"android":"levelo://app?vid=ef526b9e-c777-4a8f-9d06-ab9e76825ccb","ios":"levelo://app?vid=ef526b9e-c777-4a8f-9d06-ab9e76825ccb"},"vehicle_type_id":"4","last_reported":1758136035,"current_range_meters":8400,"station_id":"ce4bhm12rcd13ifvqgkg","pricing_plan_id":"cebpf4jnsgd1na2vs0mg"},{"bike_id":"e43372f5-aa5b-4f9a-bab1-6d8798bf6753","system_id":"levelo_inurba_marseille","lat":43.27997,"lon":5.41659,"is_reserved":false,"is_disabled":false,"rental_uris":{"android":"levelo://app?vid=e43372f5-aa5b-4f9a-bab1-6d8798bf6753","ios":"levelo://app?vid=e43372f5-aa5b-4f9a-bab1-6d8798bf6753"},"vehicle_type_id":"4","last_reported":1758136035,"current_range_meters":8400,"station_id":"ce4bho12rcd13ifvqh1g","pricing_plan_id":"cebpf4jnsgd1na2vs0mg"},{"bike_id":"3b26aa0d-3679-4b4c-9b55-1096f6d08a9d","system_id":"levelo_inurba_marseille","lat":43.312978,"lon":5.393962,"is_reserved":false,"is_disabled":false,"rental_uris":{"android":"levelo://app?vid=3b26aa0d-3679-4b4c-9b55-1096f6d08a9d","ios":"levelo://app?vid=3b26aa0d-3679-4b4c-9b55-1096f6d08a9d"},"vehicle_type_id":"4","last_reported":1758136035,"current_range_meters":8400,"station_id":"","pricing_plan_id":"cebpf4jnsgd1na2vs0mg"},{"bike_id":"b878969e-0167-4bb0-b49f-f2c086c9b3d9","system_id":"levelo_inurba_marseille","lat":43.26857,"lon":5.40678,"is_reserved":false,"is_disabled":false,"rental_uris":{"android":"levelo://app?vid=b878969e-0167-4bb0-b49f-f2c086c9b3d9","ios":"levelo://app?vid=b878969e-0167-4bb0-b49f-f2c086c9b3d9"},"vehicle_type_id":"4","last_reported":1758136035,"current_range_meters":8400,"station_id":"","pricing_plan_id":"cebpf4jnsgd1na2vs0mg"},{"bike_id":"0ede21be-37d9-4495-b672-80274a6292be","system_id":"levelo_inurba_marseille","lat":43.35074,"lon":5.34112,"is_reserved":false,"is_disabled":false,"rental_uris":{"android":"levelo://app?vid=0ede21be-37d9-4495-b672-80274a6292be","ios":"levelo://app?vid=0ede21be-37d9-4495-b672-80274a6292be"},"vehicle_type_id":"4","last_reported":1758136035,"current_range_meters":8400,"station_id":"","pricing_plan_id":"cebpf4jnsgd1na2vs0mg"},{"bike_id":"a1bccc3e-30ae-4af5-b7fb-fa51d9ba8e5f","system_id":"levelo_inurba_marseille","lat":43.22568,"lon":5.41631,"is_reserved":false,"is_disabled":false,"rental_uris":{"android":"levelo://app?vid=a1bccc3e-30ae-4af5-b7fb-fa51d9ba8e5f","ios":"levelo://app?vid=a1bccc3e-30ae-4af5-b7fb-fa51d9ba8e5f"},"vehicle_type_id":"4","last_reported":1758136035,"current_range_meters":8400,"station_id":"st_d2o4gvlbi1j2169b742g","pricing_plan_id":"cebpf4jnsgd1na2vs0mg"},{"bike_id":"da9c05cf-0561-4cf2-8a4e-15961acc7ffa","system_id":"levelo_inurba_marseille","lat":43.2928,"lon":5.40123,"is_reserved":false,"is_disabled":false,"rental_uris":{"android":"levelo://app?vid=da9c05cf-0561-4cf2-8a4e-15961acc7ffa","ios":"levelo://app?vid=da9c05cf-0561-4cf2-8a4e-15961acc7ffa"},"vehicle_type_id":"4","last_reported":1758136035,"current_range_meters":8800,"station_id":"ce4bh312rcd13ifvqdk0","pricing_plan_id":"cebpf4jnsgd1na2vs0mg"},{"bike_id":"26f11633-397c-4bba-ad8c-b8c0c5bc4e03","system_id":"levelo_inurba_marseille","lat":43.29527,"lon":5.38543,"is_reserved":false,"is_disabled":false,"rental_uris":{"android":"levelo://app?vid=26f11633-397c-4bba-ad8c-b8c0c5bc4e03","ios":"levelo://app?vid=26f11633-397c-4bba-ad8c-b8c0c5bc4e03"},"vehicle_type_id":"4","last_reported":1758136035,"current_range_meters":8800,"station_id":"ce4bgih2rcd13ifvqba0","pricing_plan_id":"cebpf4jnsgd1na2vs0mg"},{"bike_id":"336c74d9-d9c9-46d7-a94b-134b36ad023a","system_id":"levelo_inurba_marseille","lat":43.298539,"lon":5.37842,"is_reserved":false,"is_disabled":false,"rental_uris":{"android":"levelo://app?vid=336c74d9-d9c9-46d7-a94b-134b36ad023a","ios":"levelo://app?vid=336c74d9-d9c9-46d7-a94b-134b36ad023a"},"vehicle_type_id":"4","last_reported":1758136035,"current_range_meters":8800,"station_id":"","pricing_plan_id":"cebpf4jnsgd1na2vs0mg"},{"bike_id":"8f57a0cb-df08-4c23-b9ff-6d9b47f401d3","system_id":"levelo_inurba_marseille","lat":43.28934,"lon":5.36648,"is_reserved":false,"is_disabled":false,"rental_uris":{"android":"levelo://app?vid=8f57a0cb-df08-4c23-b9ff-6d9b47f401d3","ios":"levelo://app?vid=8f57a0cb-df08-4c23-b9ff-6d9b47f401d3"},"vehicle_type_id":"4","last_reported":1758136035,"current_range_meters":8800,"station_id":"ce4bhap2rcd13ifvqek0","pricing_plan_id":"cebpf4jnsgd1na2vs0mg"},{"bike_id":"e4683ce2-a520-4f18-8fe3-54e79fc6b376","system_id":"levelo_inurba_marseille","lat":43.27813,"lon":5.40713,"is_reserved":false,"is_disabled":false,"rental_uris":{"android":"levelo://app?vid=e4683ce2-a520-4f18-8fe3-54e79fc6b376","ios":"levelo://app?vid=e4683ce2-a520-4f18-8fe3-54e79fc6b376"},"vehicle_type_id":"4","last_reported":1758136035,"current_range_meters":8800,"station_id":"ce4bhnh2rcd13ifvqgtg","pricing_plan_id":"cebpf4jnsgd1na2vs0mg"},{"bike_id":"775af279-8ac9-4585-9121-809be9b13265","system_id":"levelo_inurba_marseille","lat":43.33743,"lon":5.37432,"is_reserved":false,"is_disabled":false,"rental_uris":{"android":"levelo://app?vid=775af279-8ac9-4585-9121-809be9b13265","ios":"levelo://app?vid=775af279-8ac9-4585-9121-809be9b13265"},"vehicle_type_id":"4","last_reported":1758136035,"current_range_meters":9200,"station_id":"","pricing_plan_id":"cebpf4jnsgd1na2vs0mg"},{"bike_id":"8cea4c85-0d87-4131-a037-ce16b56fffd5","system_id":"levelo_inurba_marseille","lat":43.29962,"lon":5.385,"is_reserved":false,"is_disabled":false,"rental_uris":{"android":"levelo://app?vid=8cea4c85-0d87-4131-a037-ce16b56fffd5","ios":"levelo://app?vid=8cea4c85-0d87-4131-a037-ce16b56fffd5"},"vehicle_type_id":"4","last_reported":1758136035,"current_range_meters":9200,"station_id":"ce4bgj92rcd13ifvqbd0","pricing_plan_id":"cebpf4jnsgd1na2vs0mg"},{"bike_id":"50df05c5-9e78-4a32-8c15-ea1e068d3278","system_id":"levelo_inurba_marseille","lat":43.26942,"lon":5.38621,"is_reserved":false,"is_disabled":true,"rental_uris":{"android":"levelo://app?vid=50df05c5-9e78-4a32-8c15-ea1e068d3278","ios":"levelo://app?vid=50df05c5-9e78-4a32-8c15-ea1e068d3278"},"vehicle_type_id":"4","last_reported":1758136035,"current_range_meters":9200,"station_id":"ce4bhh92rcd13ifvqfh0","pricing_plan_id":"cebpf4jnsgd1na2vs0mg"},{"bike_id":"3a630c23-8893-4172-8064-6b26af1cfe50","system_id":"levelo_inurba_marseille","lat":43.30163,"lon":5.38088,"is_reserved":false,"is_disabled":false,"rental_uris":{"android":"levelo://app?vid=3a630c23-8893-4172-8064-6b26af1cfe50","ios":"levelo://app?vid=3a630c23-8893-4172-8064-6b26af1cfe50"},"vehicle_type_id":"4","last_reported":1758136035,"current_range_meters":9200,"station_id":"","pricing_plan_id":"cebpf4jnsgd1na2vs0mg"},{"bike_id":"b239a785-493f-4840-b299-2cac342ace92","system_id":"levelo_inurba_marseille","lat":43.30646,"lon":5.40094,"is_reserved":false,"is_disabled":false,"rental_uris":{"android":"levelo://app?vid=b239a785-493f-4840-b299-2cac342ace92","ios":"levelo://app?vid=b239a785-493f-4840-b299-2cac342ace92"},"vehicle_type_id":"4","last_reported":1758136035,"current_range_meters":9200,"station_id":"ce4bh112rcd13ifvqda0","pricing_plan_id":"cebpf4jnsgd1na2vs0mg"},{"bike_id":"3e34ba27-0e21-4b8b-9266-52014738a601","system_id":"levelo_inurba_marseille","lat":43.29289,"lon":5.40128,"is_reserved":false,"is_disabled":false,"rental_uris":{"android":"levelo://app?vid=3e34ba27-0e21-4b8b-9266-52014738a601","ios":"levelo://app?vid=3e34ba27-0e21-4b8b-9266-52014738a601"},"vehicle_type_id":"4","last_reported":1758136035,"current_range_meters":9600,"station_id":"ce4bh312rcd13ifvqdk0","pricing_plan_id":"cebpf4jnsgd1na2vs0mg"},{"bike_id":"003515e8-8117-44bb-979d-5f47e8d50fda","system_id":"levelo_inurba_marseille","lat":43.30623,"lon":5.37583,"is_reserved":false,"is_disabled":false,"rental_uris":{"android":"levelo://app?vid=003515e8-8117-44bb-979d-5f47e8d50fda","ios":"levelo://app?vid=003515e8-8117-44bb-979d-5f47e8d50fda"},"vehicle_type_id":"4","last_reported":1758136035,"current_range_meters":9600,"station_id":"","pricing_plan_id":"cebpf4jnsgd1na2vs0mg"},{"bike_id":"89214e53-3579-475b-8353-9715ca2a2b16","system_id":"levelo_inurba_marseille","lat":43.27551,"lon":5.38437,"is_reserved":false,"is_disabled":false,"rental_uris":{"android":"levelo://app?vid=89214e53-3579-475b-8353-9715ca2a2b16","ios":"levelo://app?vid=89214e53-3579-475b-8353-9715ca2a2b16"},"vehicle_type_id":"4","last_reported":1758136035,"current_range_meters":9600,"station_id":"ce4bhh92rcd13ifvqfi0","pricing_plan_id":"cebpf4jnsgd1na2vs0mg"},{"bike_id":"97ddb518-2f89-4102-881c-a6ae70a37814","system_id":"levelo_inurba_marseille","lat":43.31532,"lon":5.38021,"is_reserved":false,"is_disabled":false,"rental_uris":{"android":"levelo://app?vid=97ddb518-2f89-4102-881c-a6ae70a37814","ios":"levelo://app?vid=97ddb518-2f89-4102-881c-a6ae70a37814"},"vehicle_type_id":"4","last_reported":1758136035,"current_range_meters":10000,"station_id":"ce4bhsp2rcd13ifvqi50","pricing_plan_id":"cebpf4jnsgd1na2vs0mg"},{"bike_id":"05eeda8d-199a-458b-89bc-f4007da7d881","system_id":"levelo_inurba_marseille","lat":43.29304,"lon":5.37184,"is_reserved":false,"is_disabled":false,"rental_uris":{"android":"levelo://app?vid=05eeda8d-199a-458b-89bc-f4007da7d881","ios":"levelo://app?vid=05eeda8d-199a-458b-89bc-f4007da7d881"},"vehicle_type_id":"4","last_reported":1758136035,"current_range_meters":10000,"station_id":"ce4bgh92rcd13ifvqb40","pricing_plan_id":"cebpf4jnsgd1na2vs0mg"},{"bike_id":"e0d90ae9-b2e5-4500-9cbe-d6e0e75dbfc5","system_id":"levelo_inurba_marseille","lat":43.24545,"lon":5.39536,"is_reserved":false,"is_disabled":false,"rental_uris":{"android":"levelo://app?vid=e0d90ae9-b2e5-4500-9cbe-d6e0e75dbfc5","ios":"levelo://app?vid=e0d90ae9-b2e5-4500-9cbe-d6e0e75dbfc5"},"vehicle_type_id":"4","last_reported":1758136035,"current_range_meters":10000,"station_id":"ce4bhlp2rcd13ifvqgjg","pricing_plan_id":"cebpf4jnsgd1na2vs0mg"},{"bike_id":"fcd56ccc-f0ab-49ef-a538-8c498b5ecd49","system_id":"levelo_inurba_marseille","lat":43.22567,"lon":5.41674,"is_reserved":false,"is_disabled":false,"rental_uris":{"android":"levelo://app?vid=fcd56ccc-f0ab-49ef-a538-8c498b5ecd49","ios":"levelo://app?vid=fcd56ccc-f0ab-49ef-a538-8c498b5ecd49"},"vehicle_type_id":"4","last_reported":1758136035,"current_range_meters":10000,"station_id":"st_d2o4gvlbi1j2169b742g","pricing_plan_id":"cebpf4jnsgd1na2vs0mg"},{"bike_id":"3f9dec96-bbfe-422a-97f5-552c1de84a6e","system_id":"levelo_inurba_marseille","lat":43.25335,"lon":5.42178,"is_reserved":false,"is_disabled":false,"rental_uris":{"android":"levelo://app?vid=3f9dec96-bbfe-422a-97f5-552c1de84a6e","ios":"levelo://app?vid=3f9dec96-bbfe-422a-97f5-552c1de84a6e"},"vehicle_type_id":"4","last_reported":1758136035,"current_range_meters":10000,"station_id":"st_d2m65c5bi1j21697t3ng","pricing_plan_id":"cebpf4jnsgd1na2vs0mg"},{"bike_id":"dc056a5f-dd0c-437c-bb54-187cc2a010ce","system_id":"levelo_inurba_marseille","lat":43.29788,"lon":5.39363,"is_reserved":false,"is_disabled":true,"rental_uris":{"android":"levelo://app?vid=dc056a5f-dd0c-437c-bb54-187cc2a010ce","ios":"levelo://app?vid=dc056a5f-dd0c-437c-bb54-187cc2a010ce"},"vehicle_type_id":"4","last_reported":1758136035,"current_range_meters":10000,"station_id":"chh1huq6cuj3fo74tm60","pricing_plan_id":"cebpf4jnsgd1na2vs0mg"},{"bike_id":"8479c5b0-b344-4021-8efa-d3443810bc92","system_id":"levelo_inurba_marseille","lat":43.31711,"lon":5.37749,"is_reserved":false,"is_disabled":false,"rental_uris":{"android":"levelo://app?vid=8479c5b0-b344-4021-8efa-d3443810bc92","ios":"levelo://app?vid=8479c5b0-b344-4021-8efa-d3443810bc92"},"vehicle_type_id":"4","last_reported":1758136035,"current_range_meters":10000,"station_id":"ce4bgth2rcd13ifvqch0","pricing_plan_id":"cebpf4jnsgd1na2vs0mg"},{"bike_id":"335f12e9-618b-4092-bce8-c94e434d846c","system_id":"levelo_inurba_marseille","lat":43.25339,"lon":5.42171,"is_reserved":false,"is_disabled":false,"rental_uris":{"android":"levelo://app?vid=335f12e9-618b-4092-bce8-c94e434d846c","ios":"levelo://app?vid=335f12e9-618b-4092-bce8-c94e434d846c"},"vehicle_type_id":"4","last_reported":1758136035,"current_range_meters":10000,"station_id":"st_d2m65c5bi1j21697t3ng","pricing_plan_id":"cebpf4jnsgd1na2vs0mg"},{"bike_id":"c3eba974-490c-443c-926f-36b011354997","system_id":"levelo_inurba_marseille","lat":43.323364,"lon":5.406258,"is_reserved":false,"is_disabled":false,"rental_uris":{"android":"levelo://app?vid=c3eba974-490c-443c-926f-36b011354997","ios":"levelo://app?vid=c3eba974-490c-443c-926f-36b011354997"},"vehicle_type_id":"4","last_reported":1758136035,"current_range_meters":10000,"station_id":"ce4bhq92rcd13ifvqhjg","pricing_plan_id":"cebpf4jnsgd1na2vs0mg"},{"bike_id":"e51d0a08-ed72-438f-87cb-8f9f8f6dcd31","system_id":"levelo_inurba_marseille","lat":43.250837,"lon":5.39519,"is_reserved":false,"is_disabled":false,"rental_uris":{"android":"levelo://app?vid=e51d0a08-ed72-438f-87cb-8f9f8f6dcd31","ios":"levelo://app?vid=e51d0a08-ed72-438f-87cb-8f9f8f6dcd31"},"vehicle_type_id":"4","last_reported":1758136035,"current_range_meters":10800,"station_id":"ce4bhm12rcd13ifvqgkg","pricing_plan_id":"cebpf4jnsgd1na2vs0mg"},{"bike_id":"ea639d87-5a1b-4836-8f89-f1e2cebad916","system_id":"levelo_inurba_marseille","lat":43.28983,"lon":5.37837,"is_reserved":false,"is_disabled":false,"rental_uris":{"android":"levelo://app?vid=ea639d87-5a1b-4836-8f89-f1e2cebad916","ios":"levelo://app?vid=ea639d87-5a1b-4836-8f89-f1e2cebad916"},"vehicle_type_id":"4","last_reported":1758136035,"current_range_meters":10000,"station_id":"ce4bh9p2rcd13ifvqed0","pricing_plan_id":"cebpf4jnsgd1na2vs0mg"},{"bike_id":"b8d56c1c-5e2e-4d61-9681-f498edc9936f","system_id":"levelo_inurba_marseille","lat":43.29307,"lon":5.37155,"is_reserved":false,"is_disabled":false,"rental_uris":{"android":"levelo://app?vid=b8d56c1c-5e2e-4d61-9681-f498edc9936f","ios":"levelo://app?vid=b8d56c1c-5e2e-4d61-9681-f498edc9936f"},"vehicle_type_id":"4","last_reported":1758136035,"current_range_meters":10800,"station_id":"","pricing_plan_id":"cebpf4jnsgd1na2vs0mg"},{"bike_id":"5cebaa99-7be9-4a3f-9cc0-5cdfdaef03f0","system_id":"levelo_inurba_marseille","lat":43.225319,"lon":5.348348,"is_reserved":false,"is_disabled":false,"rental_uris":{"android":"levelo://app?vid=5cebaa99-7be9-4a3f-9cc0-5cdfdaef03f0","ios":"levelo://app?vid=5cebaa99-7be9-4a3f-9cc0-5cdfdaef03f0"},"vehicle_type_id":"4","last_reported":1758136035,"current_range_meters":10800,"station_id":"","pricing_plan_id":"cebpf4jnsgd1na2vs0mg"},{"bike_id":"792fda71-54ba-4d47-b1d6-a01c7fab6b7e","system_id":"levelo_inurba_marseille","lat":43.25336,"lon":5.42173,"is_reserved":false,"is_disabled":false,"rental_uris":{"android":"levelo://app?vid=792fda71-54ba-4d47-b1d6-a01c7fab6b7e","ios":"levelo://app?vid=792fda71-54ba-4d47-b1d6-a01c7fab6b7e"},"vehicle_type_id":"4","last_reported":1758136035,"current_range_meters":10800,"station_id":"st_d2m65c5bi1j21697t3ng","pricing_plan_id":"cebpf4jnsgd1na2vs0mg"},{"bike_id":"7617e3ba-453f-4a44-be41-7dfc5fc946b4","system_id":"levelo_inurba_marseille","lat":43.31489,"lon":5.37314,"is_reserved":false,"is_disabled":false,"rental_uris":{"android":"levelo://app?vid=7617e3ba-453f-4a44-be41-7dfc5fc946b4","ios":"levelo://app?vid=7617e3ba-453f-4a44-be41-7dfc5fc946b4"},"vehicle_type_id":"4","last_reported":1758136035,"current_range_meters":10800,"station_id":"ce4bgt12rcd13ifvqcd0","pricing_plan_id":"cebpf4jnsgd1na2vs0mg"},{"bike_id":"dc87237e-bb10-4f17-be98-ba5eae548f2e","system_id":"levelo_inurba_marseille","lat":43.32371,"lon":5.38888,"is_reserved":false,"is_disabled":false,"rental_uris":{"android":"levelo://app?vid=dc87237e-bb10-4f17-be98-ba5eae548f2e","ios":"levelo://app?vid=dc87237e-bb10-4f17-be98-ba5eae548f2e"},"vehicle_type_id":"4","last_reported":1758136035,"current_range_meters":10800,"station_id":"ce4bhqp2rcd13ifvqhog","pricing_plan_id":"cebpf4jnsgd1na2vs0mg"},{"bike_id":"94ffdd6d-185a-4b82-9f4d-fc67fd9dd066","system_id":"levelo_inurba_marseille","lat":43.29359,"lon":5.37868,"is_reserved":false,"is_disabled":false,"rental_uris":{"android":"levelo://app?vid=94ffdd6d-185a-4b82-9f4d-fc67fd9dd066","ios":"levelo://app?vid=94ffdd6d-185a-4b82-9f4d-fc67fd9dd066"},"vehicle_type_id":"4","last_reported":1758136035,"current_range_meters":11200,"station_id":"ce4bgjh2rcd13ifvqbf0","pricing_plan_id":"cebpf4jnsgd1na2vs0mg"},{"bike_id":"90de33db-5d79-498e-916e-c7f67a7732ac","system_id":"levelo_inurba_marseille","lat":43.29532,"lon":5.38546,"is_reserved":false,"is_disabled":false,"rental_uris":{"android":"levelo://app?vid=90de33db-5d79-498e-916e-c7f67a7732ac","ios":"levelo://app?vid=90de33db-5d79-498e-916e-c7f67a7732ac"},"vehicle_type_id":"4","last_reported":1758136035,"current_range_meters":11200,"station_id":"ce4bgih2rcd13ifvqba0","pricing_plan_id":"cebpf4jnsgd1na2vs0mg"},{"bike_id":"0a35be0d-a067-45b2-9370-304fafd90379","system_id":"levelo_inurba_marseille","lat":43.29371,"lon":5.37856,"is_reserved":false,"is_disabled":false,"rental_uris":{"android":"levelo://app?vid=0a35be0d-a067-45b2-9370-304fafd90379","ios":"levelo://app?vid=0a35be0d-a067-45b2-9370-304fafd90379"},"vehicle_type_id":"4","last_reported":1758136035,"current_range_meters":11200,"station_id":"ce4bgjh2rcd13ifvqbf0","pricing_plan_id":"cebpf4jnsgd1na2vs0mg"},{"bike_id":"ca5a1340-d41e-49f3-95f8-599734e0a36c","system_id":"levelo_inurba_marseille","lat":43.225336,"lon":5.348339,"is_reserved":false,"is_disabled":false,"rental_uris":{"android":"levelo://app?vid=ca5a1340-d41e-49f3-95f8-599734e0a36c","ios":"levelo://app?vid=ca5a1340-d41e-49f3-95f8-599734e0a36c"},"vehicle_type_id":"4","last_reported":1758136035,"current_range_meters":11200,"station_id":"","pricing_plan_id":"cebpf4jnsgd1na2vs0mg"},{"bike_id":"d2d21405-7d84-46d6-9542-57aa659023fa","system_id":"levelo_inurba_marseille","lat":43.331,"lon":5.37914,"is_reserved":false,"is_disabled":false,"rental_uris":{"android":"levelo://app?vid=d2d21405-7d84-46d6-9542-57aa659023fa","ios":"levelo://app?vid=d2d21405-7d84-46d6-9542-57aa659023fa"},"vehicle_type_id":"4","last_reported":1758136035,"current_range_meters":11200,"station_id":"","pricing_plan_id":"cebpf4jnsgd1na2vs0mg"},{"bike_id":"be647011-8116-479d-93ea-c63d089421f7","system_id":"levelo_inurba_marseille","lat":43.32052,"lon":5.41545,"is_reserved":false,"is_disabled":false,"rental_uris":{"android":"levelo://app?vid=be647011-8116-479d-93ea-c63d089421f7","ios":"levelo://app?vid=be647011-8116-479d-93ea-c63d089421f7"},"vehicle_type_id":"4","last_reported":1758136035,"current_range_meters":11200,"station_id":"ce4bhq92rcd13ifvqhkg","pricing_plan_id":"cebpf4jnsgd1na2vs0mg"},{"bike_id":"44a77851-e677-4194-9d04-5b82df6e2b61","system_id":"levelo_inurba_marseille","lat":43.29056,"lon":5.37172,"is_reserved":false,"is_disabled":false,"rental_uris":{"android":"levelo://app?vid=44a77851-e677-4194-9d04-5b82df6e2b61","ios":"levelo://app?vid=44a77851-e677-4194-9d04-5b82df6e2b61"},"vehicle_type_id":"4","last_reported":1758136035,"current_range_meters":11200,"station_id":"ce4bh5p2rcd13ifvqe4g","pricing_plan_id":"cebpf4jnsgd1na2vs0mg"},{"bike_id":"97fac187-45a1-4e8f-be9b-a5c24559a733","system_id":"levelo_inurba_marseille","lat":43.21726,"lon":5.34618,"is_reserved":false,"is_disabled":false,"rental_uris":{"android":"levelo://app?vid=97fac187-45a1-4e8f-be9b-a5c24559a733","ios":"levelo://app?vid=97fac187-45a1-4e8f-be9b-a5c24559a733"},"vehicle_type_id":"4","last_reported":1758136035,"current_range_meters":11600,"station_id":"st_cvj6r9ubvosntc0bgbag","pricing_plan_id":"cebpf4jnsgd1na2vs0mg"},{"bike_id":"86fe880e-3ffa-4ea9-94d2-5ddf783231d6","system_id":"levelo_inurba_marseille","lat":43.30208,"lon":5.39462,"is_reserved":false,"is_disabled":false,"rental_uris":{"android":"levelo://app?vid=86fe880e-3ffa-4ea9-94d2-5ddf783231d6","ios":"levelo://app?vid=86fe880e-3ffa-4ea9-94d2-5ddf783231d6"},"vehicle_type_id":"4","last_reported":1758136035,"current_range_meters":11600,"station_id":"ce4bh0p2rcd13ifvqd70","pricing_plan_id":"cebpf4jnsgd1na2vs0mg"},{"bike_id":"d6fcff4e-dd75-4120-9968-c33a8245e563","system_id":"levelo_inurba_marseille","lat":43.22927,"lon":5.35372,"is_reserved":false,"is_disabled":false,"rental_uris":{"android":"levelo://app?vid=d6fcff4e-dd75-4120-9968-c33a8245e563","ios":"levelo://app?vid=d6fcff4e-dd75-4120-9968-c33a8245e563"},"vehicle_type_id":"4","last_reported":1758136035,"current_range_meters":11600,"station_id":"cpo3532slgdg3j2ikp40","pricing_plan_id":"cebpf4jnsgd1na2vs0mg"},{"bike_id":"2a5e641a-ca90-4f3a-9350-63bb94d9cebf","system_id":"levelo_inurba_marseille","lat":43.2556,"lon":5.39186,"is_reserved":false,"is_disabled":false,"rental_uris":{"android":"levelo://app?vid=2a5e641a-ca90-4f3a-9350-63bb94d9cebf","ios":"levelo://app?vid=2a5e641a-ca90-4f3a-9350-63bb94d9cebf"},"vehicle_type_id":"4","last_reported":1758136035,"current_range_meters":11600,"station_id":"","pricing_plan_id":"cebpf4jnsgd1na2vs0mg"},{"bike_id":"1260fd0d-c099-4e6f-bc64-70d16b5df531","system_id":"levelo_inurba_marseille","lat":43.29903,"lon":5.3747,"is_reserved":false,"is_disabled":false,"rental_uris":{"android":"levelo://app?vid=1260fd0d-c099-4e6f-bc64-70d16b5df531","ios":"levelo://app?vid=1260fd0d-c099-4e6f-bc64-70d16b5df531"},"vehicle_type_id":"4","last_reported":1758136035,"current_range_meters":11600,"station_id":"ce4bgjh2rcd13ifvqbg0","pricing_plan_id":"cebpf4jnsgd1na2vs0mg"},{"bike_id":"7ff4d3ad-c01b-4e16-9e46-5bd96a58981b","system_id":"levelo_inurba_marseille","lat":43.29869,"lon":5.39734,"is_reserved":false,"is_disabled":false,"rental_uris":{"android":"levelo://app?vid=7ff4d3ad-c01b-4e16-9e46-5bd96a58981b","ios":"levelo://app?vid=7ff4d3ad-c01b-4e16-9e46-5bd96a58981b"},"vehicle_type_id":"4","last_reported":1758136035,"current_range_meters":11600,"station_id":"ce4bh0h2rcd13ifvqd50","pricing_plan_id":"cebpf4jnsgd1na2vs0mg"},{"bike_id":"e9505376-9085-4a23-8133-b98bc3589ca5","system_id":"levelo_inurba_marseille","lat":43.29529,"lon":5.38543,"is_reserved":false,"is_disabled":false,"rental_uris":{"android":"levelo://app?vid=e9505376-9085-4a23-8133-b98bc3589ca5","ios":"levelo://app?vid=e9505376-9085-4a23-8133-b98bc3589ca5"},"vehicle_type_id":"4","last_reported":1758136035,"current_range_meters":11600,"station_id":"ce4bgih2rcd13ifvqba0","pricing_plan_id":"cebpf4jnsgd1na2vs0mg"},{"bike_id":"99b38180-2610-43c2-93d1-2457e0a8b7e0","system_id":"levelo_inurba_marseille","lat":43.28665,"lon":5.36349,"is_reserved":false,"is_disabled":false,"rental_uris":{"android":"levelo://app?vid=99b38180-2610-43c2-93d1-2457e0a8b7e0","ios":"levelo://app?vid=99b38180-2610-43c2-93d1-2457e0a8b7e0"},"vehicle_type_id":"4","last_reported":1758136035,"current_range_meters":11600,"station_id":"ce4bhah2rcd13ifvqej0","pricing_plan_id":"cebpf4jnsgd1na2vs0mg"},{"bike_id":"01ff6d07-544b-4fc7-a32e-cba4b163eff3","system_id":"levelo_inurba_marseille","lat":43.29731,"lon":5.37692,"is_reserved":false,"is_disabled":false,"rental_uris":{"android":"levelo://app?vid=01ff6d07-544b-4fc7-a32e-cba4b163eff3","ios":"levelo://app?vid=01ff6d07-544b-4fc7-a32e-cba4b163eff3"},"vehicle_type_id":"4","last_reported":1758136035,"current_range_meters":11600,"station_id":"ce4bgkh2rcd13ifvqbl0","pricing_plan_id":"cebpf4jnsgd1na2vs0mg"},{"bike_id":"8feb5482-cf08-4440-a640-da4eaf5da31b","system_id":"levelo_inurba_marseille","lat":43.29279,"lon":5.40116,"is_reserved":false,"is_disabled":false,"rental_uris":{"android":"levelo://app?vid=8feb5482-cf08-4440-a640-da4eaf5da31b","ios":"levelo://app?vid=8feb5482-cf08-4440-a640-da4eaf5da31b"},"vehicle_type_id":"4","last_reported":1758136035,"current_range_meters":11600,"station_id":"ce4bh312rcd13ifvqdk0","pricing_plan_id":"cebpf4jnsgd1na2vs0mg"},{"bike_id":"0d7ca626-8625-454e-802b-45ee8808ba54","system_id":"levelo_inurba_marseille","lat":43.27941,"lon":5.41039,"is_reserved":false,"is_disabled":false,"rental_uris":{"android":"levelo://app?vid=0d7ca626-8625-454e-802b-45ee8808ba54","ios":"levelo://app?vid=0d7ca626-8625-454e-802b-45ee8808ba54"},"vehicle_type_id":"4","last_reported":1758136035,"current_range_meters":11600,"station_id":"ce4bhnp2rcd13ifvqh0g","pricing_plan_id":"cebpf4jnsgd1na2vs0mg"},{"bike_id":"ea2b8cb5-3aaa-4102-9089-ab6f9d168c5a","system_id":"levelo_inurba_marseille","lat":43.2904,"lon":5.375583,"is_reserved":false,"is_disabled":false,"rental_uris":{"android":"levelo://app?vid=ea2b8cb5-3aaa-4102-9089-ab6f9d168c5a","ios":"levelo://app?vid=ea2b8cb5-3aaa-4102-9089-ab6f9d168c5a"},"vehicle_type_id":"4","last_reported":1758136035,"current_range_meters":12000,"station_id":"ce4bh692rcd13ifvqe90","pricing_plan_id":"cebpf4jnsgd1na2vs0mg"},{"bike_id":"09734f56-1274-4913-8cd9-7e86f641ab44","system_id":"levelo_inurba_marseille","lat":43.29542,"lon":5.38554,"is_reserved":false,"is_disabled":true,"rental_uris":{"android":"levelo://app?vid=09734f56-1274-4913-8cd9-7e86f641ab44","ios":"levelo://app?vid=09734f56-1274-4913-8cd9-7e86f641ab44"},"vehicle_type_id":"4","last_reported":1758136035,"current_range_meters":12000,"station_id":"ce4bgih2rcd13ifvqba0","pricing_plan_id":"cebpf4jnsgd1na2vs0mg"},{"bike_id":"be7e6a52-5f32-4f5d-ab19-09bbc34d35a2","system_id":"levelo_inurba_marseille","lat":43.21187,"lon":5.35084,"is_reserved":false,"is_disabled":false,"rental_uris":{"android":"levelo://app?vid=be7e6a52-5f32-4f5d-ab19-09bbc34d35a2","ios":"levelo://app?vid=be7e6a52-5f32-4f5d-ab19-09bbc34d35a2"},"vehicle_type_id":"4","last_reported":1758136035,"current_range_meters":12000,"station_id":"st_cvj6sg6p6f1abm77japg","pricing_plan_id":"cebpf4jnsgd1na2vs0mg"},{"bike_id":"e051852e-5267-4d2e-9d0d-9d70aefdcd5e","system_id":"levelo_inurba_marseille","lat":43.25735,"lon":5.41044,"is_reserved":false,"is_disabled":false,"rental_uris":{"android":"levelo://app?vid=e051852e-5267-4d2e-9d0d-9d70aefdcd5e","ios":"levelo://app?vid=e051852e-5267-4d2e-9d0d-9d70aefdcd5e"},"vehicle_type_id":"4","last_reported":1758136035,"current_range_meters":12000,"station_id":"","pricing_plan_id":"cebpf4jnsgd1na2vs0mg"},{"bike_id":"0a2e2756-8bf6-4279-a120-8478c237834b","system_id":"levelo_inurba_marseille","lat":43.26486,"lon":5.39559,"is_reserved":false,"is_disabled":true,"rental_uris":{"android":"levelo://app?vid=0a2e2756-8bf6-4279-a120-8478c237834b","ios":"levelo://app?vid=0a2e2756-8bf6-4279-a120-8478c237834b"},"vehicle_type_id":"4","last_reported":1758136035,"current_range_meters":12000,"station_id":"ce4bhi12rcd13ifvqfq0","pricing_plan_id":"cebpf4jnsgd1na2vs0mg"},{"bike_id":"c86c217f-3765-406a-abfb-a3076f050670","system_id":"levelo_inurba_marseille","lat":43.3118,"lon":5.406881,"is_reserved":false,"is_disabled":false,"rental_uris":{"android":"levelo://app?vid=c86c217f-3765-406a-abfb-a3076f050670","ios":"levelo://app?vid=c86c217f-3765-406a-abfb-a3076f050670"},"vehicle_type_id":"4","last_reported":1758136035,"current_range_meters":12000,"station_id":"ce4bhq12rcd13ifvqhig","pricing_plan_id":"cebpf4jnsgd1na2vs0mg"},{"bike_id":"227a8bd9-5b6e-4dab-9490-8ae3adb669cc","system_id":"levelo_inurba_marseille","lat":43.28155,"lon":5.42642,"is_reserved":false,"is_disabled":false,"rental_uris":{"android":"levelo://app?vid=227a8bd9-5b6e-4dab-9490-8ae3adb669cc","ios":"levelo://app?vid=227a8bd9-5b6e-4dab-9490-8ae3adb669cc"},"vehicle_type_id":"4","last_reported":1758136035,"current_range_meters":11600,"station_id":"ce4bhnh2rcd13ifvqgug","pricing_plan_id":"cebpf4jnsgd1na2vs0mg"},{"bike_id":"62ad0034-2f00-484d-b4a7-d0313ae59052","system_id":"levelo_inurba_marseille","lat":43.28179,"lon":5.42684,"is_reserved":false,"is_disabled":false,"rental_uris":{"android":"levelo://app?vid=62ad0034-2f00-484d-b4a7-d0313ae59052","ios":"levelo://app?vid=62ad0034-2f00-484d-b4a7-d0313ae59052"},"vehicle_type_id":"4","last_reported":1758136035,"current_range_meters":12400,"station_id":"ce4bhnh2rcd13ifvqgug","pricing_plan_id":"cebpf4jnsgd1na2vs0mg"},{"bike_id":"63c7e10e-505c-446a-80a6-2c8502cd95f2","system_id":"levelo_inurba_marseille","lat":43.24391,"lon":5.37062,"is_reserved":false,"is_disabled":false,"rental_uris":{"android":"levelo://app?vid=63c7e10e-505c-446a-80a6-2c8502cd95f2","ios":"levelo://app?vid=63c7e10e-505c-446a-80a6-2c8502cd95f2"},"vehicle_type_id":"4","last_reported":1758136035,"current_range_meters":12000,"station_id":"ce4bhhh2rcd13ifvqfk0","pricing_plan_id":"cebpf4jnsgd1na2vs0mg"},{"bike_id":"b7a9be1c-6745-4e91-a42a-7e1c96585cec","system_id":"levelo_inurba_marseille","lat":43.29307,"lon":5.37171,"is_reserved":false,"is_disabled":false,"rental_uris":{"android":"levelo://app?vid=b7a9be1c-6745-4e91-a42a-7e1c96585cec","ios":"levelo://app?vid=b7a9be1c-6745-4e91-a42a-7e1c96585cec"},"vehicle_type_id":"4","last_reported":1758136035,"current_range_meters":12400,"station_id":"","pricing_plan_id":"cebpf4jnsgd1na2vs0mg"},{"bike_id":"5701fe9c-3e98-4b9f-a910-5eb395d4e5d3","system_id":"levelo_inurba_marseille","lat":43.305389,"lon":5.384223,"is_reserved":false,"is_disabled":false,"rental_uris":{"android":"levelo://app?vid=5701fe9c-3e98-4b9f-a910-5eb395d4e5d3","ios":"levelo://app?vid=5701fe9c-3e98-4b9f-a910-5eb395d4e5d3"},"vehicle_type_id":"4","last_reported":1758136035,"current_range_meters":12400,"station_id":"ce4bgg92rcd13ifvqb30","pricing_plan_id":"cebpf4jnsgd1na2vs0mg"},{"bike_id":"296d352d-3050-4fe7-bd51-4154aed8ad1c","system_id":"levelo_inurba_marseille","lat":43.28159,"lon":5.42646,"is_reserved":false,"is_disabled":false,"rental_uris":{"android":"levelo://app?vid=296d352d-3050-4fe7-bd51-4154aed8ad1c","ios":"levelo://app?vid=296d352d-3050-4fe7-bd51-4154aed8ad1c"},"vehicle_type_id":"4","last_reported":1758136035,"current_range_meters":12000,"station_id":"ce4bhnh2rcd13ifvqgug","pricing_plan_id":"cebpf4jnsgd1na2vs0mg"},{"bike_id":"230123bd-f2c4-4130-8af9-fa66a4018009","system_id":"levelo_inurba_marseille","lat":43.28493,"lon":5.3842,"is_reserved":false,"is_disabled":false,"rental_uris":{"android":"levelo://app?vid=230123bd-f2c4-4130-8af9-fa66a4018009","ios":"levelo://app?vid=230123bd-f2c4-4130-8af9-fa66a4018009"},"vehicle_type_id":"4","last_reported":1758136035,"current_range_meters":12800,"station_id":"ce4bh512rcd13ifvqe3g","pricing_plan_id":"cebpf4jnsgd1na2vs0mg"},{"bike_id":"7ec57675-dc29-4d09-9bc3-594f4a4d9f75","system_id":"levelo_inurba_marseille","lat":43.281483,"lon":5.426251,"is_reserved":false,"is_disabled":false,"rental_uris":{"android":"levelo://app?vid=7ec57675-dc29-4d09-9bc3-594f4a4d9f75","ios":"levelo://app?vid=7ec57675-dc29-4d09-9bc3-594f4a4d9f75"},"vehicle_type_id":"4","last_reported":1758136035,"current_range_meters":12800,"station_id":"ce4bhnh2rcd13ifvqgug","pricing_plan_id":"cebpf4jnsgd1na2vs0mg"},{"bike_id":"7c53e1e0-9efc-4c15-9c29-668d4dac4c59","system_id":"levelo_inurba_marseille","lat":43.22511,"lon":5.34848,"is_reserved":false,"is_disabled":false,"rental_uris":{"android":"levelo://app?vid=7c53e1e0-9efc-4c15-9c29-668d4dac4c59","ios":"levelo://app?vid=7c53e1e0-9efc-4c15-9c29-668d4dac4c59"},"vehicle_type_id":"4","last_reported":1758136035,"current_range_meters":12800,"station_id":"","pricing_plan_id":"cebpf4jnsgd1na2vs0mg"},{"bike_id":"980f26fe-60a0-48a6-99b1-d571fb2c3582","system_id":"levelo_inurba_marseille","lat":43.23155,"lon":5.43713,"is_reserved":false,"is_disabled":false,"rental_uris":{"android":"levelo://app?vid=980f26fe-60a0-48a6-99b1-d571fb2c3582","ios":"levelo://app?vid=980f26fe-60a0-48a6-99b1-d571fb2c3582"},"vehicle_type_id":"4","last_reported":1758136035,"current_range_meters":12800,"station_id":"ce4bhmp2rcd13ifvqgog","pricing_plan_id":"cebpf4jnsgd1na2vs0mg"},{"bike_id":"53923efc-dde2-4b83-9b67-8acec49fce5b","system_id":"levelo_inurba_marseille","lat":43.29535,"lon":5.39058,"is_reserved":false,"is_disabled":false,"rental_uris":{"android":"levelo://app?vid=53923efc-dde2-4b83-9b67-8acec49fce5b","ios":"levelo://app?vid=53923efc-dde2-4b83-9b67-8acec49fce5b"},"vehicle_type_id":"4","last_reported":1758136035,"current_range_meters":12800,"station_id":"ce4bh3p2rcd13ifvqdp0","pricing_plan_id":"cebpf4jnsgd1na2vs0mg"},{"bike_id":"65854fe7-484f-4538-8c9b-93eeb0063f0f","system_id":"levelo_inurba_marseille","lat":43.25338,"lon":5.42166,"is_reserved":false,"is_disabled":false,"rental_uris":{"android":"levelo://app?vid=65854fe7-484f-4538-8c9b-93eeb0063f0f","ios":"levelo://app?vid=65854fe7-484f-4538-8c9b-93eeb0063f0f"},"vehicle_type_id":"4","last_reported":1758136035,"current_range_meters":13600,"station_id":"st_d2m65c5bi1j21697t3ng","pricing_plan_id":"cebpf4jnsgd1na2vs0mg"},{"bike_id":"9d0ea263-c611-4605-bd2e-497041306194","system_id":"levelo_inurba_marseille","lat":43.24674,"lon":5.38153,"is_reserved":false,"is_disabled":false,"rental_uris":{"android":"levelo://app?vid=9d0ea263-c611-4605-bd2e-497041306194","ios":"levelo://app?vid=9d0ea263-c611-4605-bd2e-497041306194"},"vehicle_type_id":"4","last_reported":1758136035,"current_range_meters":13600,"station_id":"ce4bhih2rcd13ifvqfr0","pricing_plan_id":"cebpf4jnsgd1na2vs0mg"},{"bike_id":"c1cb85bf-58f5-47d2-b093-c0da29c4d2c3","system_id":"levelo_inurba_marseille","lat":43.29527,"lon":5.38548,"is_reserved":false,"is_disabled":false,"rental_uris":{"android":"levelo://app?vid=c1cb85bf-58f5-47d2-b093-c0da29c4d2c3","ios":"levelo://app?vid=c1cb85bf-58f5-47d2-b093-c0da29c4d2c3"},"vehicle_type_id":"4","last_reported":1758136035,"current_range_meters":13600,"station_id":"ce4bgih2rcd13ifvqba0","pricing_plan_id":"cebpf4jnsgd1na2vs0mg"},{"bike_id":"5a52c38f-aec4-42fe-a70e-472f984dcfb9","system_id":"levelo_inurba_marseille","lat":43.30459,"lon":5.37903,"is_reserved":false,"is_disabled":false,"rental_uris":{"android":"levelo://app?vid=5a52c38f-aec4-42fe-a70e-472f984dcfb9","ios":"levelo://app?vid=5a52c38f-aec4-42fe-a70e-472f984dcfb9"},"vehicle_type_id":"4","last_reported":1758136035,"current_range_meters":14000,"station_id":"","pricing_plan_id":"cebpf4jnsgd1na2vs0mg"},{"bike_id":"55dfb17a-dc13-4669-82ac-2c676d600c2d","system_id":"levelo_inurba_marseille","lat":43.31351,"lon":5.37936,"is_reserved":false,"is_disabled":false,"rental_uris":{"android":"levelo://app?vid=55dfb17a-dc13-4669-82ac-2c676d600c2d","ios":"levelo://app?vid=55dfb17a-dc13-4669-82ac-2c676d600c2d"},"vehicle_type_id":"4","last_reported":1758136035,"current_range_meters":14000,"station_id":"","pricing_plan_id":"cebpf4jnsgd1na2vs0mg"},{"bike_id":"8c746f6f-5557-487b-a460-d45681b022d2","system_id":"levelo_inurba_marseille","lat":43.292786,"lon":5.385427,"is_reserved":false,"is_disabled":false,"rental_uris":{"android":"levelo://app?vid=8c746f6f-5557-487b-a460-d45681b022d2","ios":"levelo://app?vid=8c746f6f-5557-487b-a460-d45681b022d2"},"vehicle_type_id":"4","last_reported":1758136035,"current_range_meters":14000,"station_id":"ce4bh692rcd13ifvqea0","pricing_plan_id":"cebpf4jnsgd1na2vs0mg"},{"bike_id":"77046e07-7546-4a10-a224-2a819de49e52","system_id":"levelo_inurba_marseille","lat":43.29802,"lon":5.38088,"is_reserved":false,"is_disabled":false,"rental_uris":{"android":"levelo://app?vid=77046e07-7546-4a10-a224-2a819de49e52","ios":"levelo://app?vid=77046e07-7546-4a10-a224-2a819de49e52"},"vehicle_type_id":"4","last_reported":1758136035,"current_range_meters":14000,"station_id":"ce4bgip2rcd13ifvqbb0","pricing_plan_id":"cebpf4jnsgd1na2vs0mg"},{"bike_id":"99ea5b04-a1d4-49cf-ad67-e58228257d32","system_id":"levelo_inurba_marseille","lat":43.31718,"lon":5.43709,"is_reserved":false,"is_disabled":false,"rental_uris":{"android":"levelo://app?vid=99ea5b04-a1d4-49cf-ad67-e58228257d32","ios":"levelo://app?vid=99ea5b04-a1d4-49cf-ad67-e58228257d32"},"vehicle_type_id":"4","last_reported":1758136035,"current_range_meters":14000,"station_id":"ce4bhp92rcd13ifvqhcg","pricing_plan_id":"cebpf4jnsgd1na2vs0mg"},{"bike_id":"c99b6713-7403-4fdf-8afe-2c146097a93c","system_id":"levelo_inurba_marseille","lat":43.29311,"lon":5.37164,"is_reserved":false,"is_disabled":false,"rental_uris":{"android":"levelo://app?vid=c99b6713-7403-4fdf-8afe-2c146097a93c","ios":"levelo://app?vid=c99b6713-7403-4fdf-8afe-2c146097a93c"},"vehicle_type_id":"4","last_reported":1758136035,"current_range_meters":14000,"station_id":"","pricing_plan_id":"cebpf4jnsgd1na2vs0mg"},{"bike_id":"cec5e2eb-9221-4977-8dac-f452678d1578","system_id":"levelo_inurba_marseille","lat":43.2926,"lon":5.38452,"is_reserved":false,"is_disabled":false,"rental_uris":{"android":"levelo://app?vid=cec5e2eb-9221-4977-8dac-f452678d1578","ios":"levelo://app?vid=cec5e2eb-9221-4977-8dac-f452678d1578"},"vehicle_type_id":"4","last_reported":1758136035,"current_range_meters":14400,"station_id":"ce4bh692rcd13ifvqea0","pricing_plan_id":"cebpf4jnsgd1na2vs0mg"},{"bike_id":"f7254990-f51d-45fe-83e3-57aceffccbc4","system_id":"levelo_inurba_marseille","lat":43.22562,"lon":5.41635,"is_reserved":false,"is_disabled":false,"rental_uris":{"android":"levelo://app?vid=f7254990-f51d-45fe-83e3-57aceffccbc4","ios":"levelo://app?vid=f7254990-f51d-45fe-83e3-57aceffccbc4"},"vehicle_type_id":"4","last_reported":1758136035,"current_range_meters":14400,"station_id":"st_d2o4gvlbi1j2169b742g","pricing_plan_id":"cebpf4jnsgd1na2vs0mg"},{"bike_id":"046ba709-b940-4fa3-9690-1d81db536e4b","system_id":"levelo_inurba_marseille","lat":43.22555,"lon":5.41635,"is_reserved":false,"is_disabled":false,"rental_uris":{"android":"levelo://app?vid=046ba709-b940-4fa3-9690-1d81db536e4b","ios":"levelo://app?vid=046ba709-b940-4fa3-9690-1d81db536e4b"},"vehicle_type_id":"4","last_reported":1758136035,"current_range_meters":14400,"station_id":"st_d2o4gvlbi1j2169b742g","pricing_plan_id":"cebpf4jnsgd1na2vs0mg"},{"bike_id":"2fcc52b3-83bc-4b17-ac5c-0695077c4514","system_id":"levelo_inurba_marseille","lat":43.29626,"lon":5.37704,"is_reserved":false,"is_disabled":false,"rental_uris":{"android":"levelo://app?vid=2fcc52b3-83bc-4b17-ac5c-0695077c4514","ios":"levelo://app?vid=2fcc52b3-83bc-4b17-ac5c-0695077c4514"},"vehicle_type_id":"4","last_reported":1758136035,"current_range_meters":14400,"station_id":"","pricing_plan_id":"cebpf4jnsgd1na2vs0mg"},{"bike_id":"4a9f1525-bb38-489e-be29-d6e9a5dc713e","system_id":"levelo_inurba_marseille","lat":43.275,"lon":5.42443,"is_reserved":false,"is_disabled":false,"rental_uris":{"android":"levelo://app?vid=4a9f1525-bb38-489e-be29-d6e9a5dc713e","ios":"levelo://app?vid=4a9f1525-bb38-489e-be29-d6e9a5dc713e"},"vehicle_type_id":"4","last_reported":1758136035,"current_range_meters":14400,"station_id":"ce4bhn92rcd13ifvqgrg","pricing_plan_id":"cebpf4jnsgd1na2vs0mg"},{"bike_id":"963eafaf-b355-4d34-83c6-b1fe8d990f92","system_id":"levelo_inurba_marseille","lat":43.319304,"lon":5.408054,"is_reserved":false,"is_disabled":false,"rental_uris":{"android":"levelo://app?vid=963eafaf-b355-4d34-83c6-b1fe8d990f92","ios":"levelo://app?vid=963eafaf-b355-4d34-83c6-b1fe8d990f92"},"vehicle_type_id":"4","last_reported":1758136035,"current_range_meters":14400,"station_id":"ce4bhq12rcd13ifvqhig","pricing_plan_id":"cebpf4jnsgd1na2vs0mg"},{"bike_id":"0de50e33-7277-4e9a-a30a-d39eea5dd4f7","system_id":"levelo_inurba_marseille","lat":43.31893,"lon":5.40737,"is_reserved":false,"is_disabled":false,"rental_uris":{"android":"levelo://app?vid=0de50e33-7277-4e9a-a30a-d39eea5dd4f7","ios":"levelo://app?vid=0de50e33-7277-4e9a-a30a-d39eea5dd4f7"},"vehicle_type_id":"4","last_reported":1758136035,"current_range_meters":14400,"station_id":"ce4bhq12rcd13ifvqhig","pricing_plan_id":"cebpf4jnsgd1na2vs0mg"},{"bike_id":"9ee064a5-fa54-4658-9b31-d4ca3995f097","system_id":"levelo_inurba_marseille","lat":43.27173,"lon":5.40993,"is_reserved":false,"is_disabled":false,"rental_uris":{"android":"levelo://app?vid=9ee064a5-fa54-4658-9b31-d4ca3995f097","ios":"levelo://app?vid=9ee064a5-fa54-4658-9b31-d4ca3995f097"},"vehicle_type_id":"4","last_reported":1758136035,"current_range_meters":14800,"station_id":"ce4bhl12rcd13ifvqgf0","pricing_plan_id":"cebpf4jnsgd1na2vs0mg"},{"bike_id":"0a714f01-7287-46f8-bbb6-81d9c8aaefe2","system_id":"levelo_inurba_marseille","lat":43.29696,"lon":5.39146,"is_reserved":false,"is_disabled":false,"rental_uris":{"android":"levelo://app?vid=0a714f01-7287-46f8-bbb6-81d9c8aaefe2","ios":"levelo://app?vid=0a714f01-7287-46f8-bbb6-81d9c8aaefe2"},"vehicle_type_id":"4","last_reported":1758136035,"current_range_meters":14800,"station_id":"","pricing_plan_id":"cebpf4jnsgd1na2vs0mg"},{"bike_id":"df2c6ce1-3df7-4976-bcc8-22b068fb0f46","system_id":"levelo_inurba_marseille","lat":43.293037,"lon":5.371703,"is_reserved":false,"is_disabled":false,"rental_uris":{"android":"levelo://app?vid=df2c6ce1-3df7-4976-bcc8-22b068fb0f46","ios":"levelo://app?vid=df2c6ce1-3df7-4976-bcc8-22b068fb0f46"},"vehicle_type_id":"4","last_reported":1758136035,"current_range_meters":14800,"station_id":"","pricing_plan_id":"cebpf4jnsgd1na2vs0mg"},{"bike_id":"9e73ec35-0636-49f3-aee9-663aa93cad0d","system_id":"levelo_inurba_marseille","lat":43.27074,"lon":5.42281,"is_reserved":false,"is_disabled":false,"rental_uris":{"android":"levelo://app?vid=9e73ec35-0636-49f3-aee9-663aa93cad0d","ios":"levelo://app?vid=9e73ec35-0636-49f3-aee9-663aa93cad0d"},"vehicle_type_id":"4","last_reported":1758136035,"current_range_meters":14800,"station_id":"ce4bhk92rcd13ifvqgb0","pricing_plan_id":"cebpf4jnsgd1na2vs0mg"},{"bike_id":"49230824-e0b0-4942-b254-aed72b06d282","system_id":"levelo_inurba_marseille","lat":43.269572,"lon":5.405502,"is_reserved":false,"is_disabled":false,"rental_uris":{"android":"levelo://app?vid=49230824-e0b0-4942-b254-aed72b06d282","ios":"levelo://app?vid=49230824-e0b0-4942-b254-aed72b06d282"},"vehicle_type_id":"4","last_reported":1758136035,"current_range_meters":15200,"station_id":"","pricing_plan_id":"cebpf4jnsgd1na2vs0mg"},{"bike_id":"ef4aea51-394e-4cd3-959b-84ccd2c40cf6","system_id":"levelo_inurba_marseille","lat":43.30607,"lon":5.37229,"is_reserved":false,"is_disabled":false,"rental_uris":{"android":"levelo://app?vid=ef4aea51-394e-4cd3-959b-84ccd2c40cf6","ios":"levelo://app?vid=ef4aea51-394e-4cd3-959b-84ccd2c40cf6"},"vehicle_type_id":"4","last_reported":1758136035,"current_range_meters":14800,"station_id":"ce4bgqh2rcd13ifvqc4g","pricing_plan_id":"cebpf4jnsgd1na2vs0mg"},{"bike_id":"8896123d-fa58-4a8c-8e0c-938af8d18587","system_id":"levelo_inurba_marseille","lat":43.27496,"lon":5.42452,"is_reserved":false,"is_disabled":false,"rental_uris":{"android":"levelo://app?vid=8896123d-fa58-4a8c-8e0c-938af8d18587","ios":"levelo://app?vid=8896123d-fa58-4a8c-8e0c-938af8d18587"},"vehicle_type_id":"4","last_reported":1758136035,"current_range_meters":15200,"station_id":"ce4bhn92rcd13ifvqgrg","pricing_plan_id":"cebpf4jnsgd1na2vs0mg"},{"bike_id":"f686b32f-0a3c-4732-a2f2-3df8c0c22d86","system_id":"levelo_inurba_marseille","lat":43.24683,"lon":5.38163,"is_reserved":false,"is_disabled":false,"rental_uris":{"android":"levelo://app?vid=f686b32f-0a3c-4732-a2f2-3df8c0c22d86","ios":"levelo://app?vid=f686b32f-0a3c-4732-a2f2-3df8c0c22d86"},"vehicle_type_id":"4","last_reported":1758136035,"current_range_meters":15200,"station_id":"ce4bhih2rcd13ifvqfr0","pricing_plan_id":"cebpf4jnsgd1na2vs0mg"},{"bike_id":"22f0687d-25d3-4094-9c4a-293a61e189a6","system_id":"levelo_inurba_marseille","lat":43.24711,"lon":5.3977,"is_reserved":false,"is_disabled":false,"rental_uris":{"android":"levelo://app?vid=22f0687d-25d3-4094-9c4a-293a61e189a6","ios":"levelo://app?vid=22f0687d-25d3-4094-9c4a-293a61e189a6"},"vehicle_type_id":"4","last_reported":1758136035,"current_range_meters":15200,"station_id":"","pricing_plan_id":"cebpf4jnsgd1na2vs0mg"},{"bike_id":"3d158815-0ba1-449f-90dd-2b69cf190d13","system_id":"levelo_inurba_marseille","lat":43.329605,"lon":5.392675,"is_reserved":false,"is_disabled":false,"rental_uris":{"android":"levelo://app?vid=3d158815-0ba1-449f-90dd-2b69cf190d13","ios":"levelo://app?vid=3d158815-0ba1-449f-90dd-2b69cf190d13"},"vehicle_type_id":"4","last_reported":1758136035,"current_range_meters":16000,"station_id":"","pricing_plan_id":"cebpf4jnsgd1na2vs0mg"},{"bike_id":"4201a43a-b7f8-4500-9eca-af508395723c","system_id":"levelo_inurba_marseille","lat":43.28269,"lon":5.35061,"is_reserved":false,"is_disabled":false,"rental_uris":{"android":"levelo://app?vid=4201a43a-b7f8-4500-9eca-af508395723c","ios":"levelo://app?vid=4201a43a-b7f8-4500-9eca-af508395723c"},"vehicle_type_id":"4","last_reported":1758136035,"current_range_meters":16000,"station_id":"ce4bhbp2rcd13ifvqerg","pricing_plan_id":"cebpf4jnsgd1na2vs0mg"},{"bike_id":"d1788760-0706-4b90-8999-db00a9e42210","system_id":"levelo_inurba_marseille","lat":43.32797,"lon":5.41011,"is_reserved":false,"is_disabled":false,"rental_uris":{"android":"levelo://app?vid=d1788760-0706-4b90-8999-db00a9e42210","ios":"levelo://app?vid=d1788760-0706-4b90-8999-db00a9e42210"},"vehicle_type_id":"4","last_reported":1758136035,"current_range_meters":16000,"station_id":"","pricing_plan_id":"cebpf4jnsgd1na2vs0mg"},{"bike_id":"d26ecb6f-c6de-4d2b-86d3-827240a9f84d","system_id":"levelo_inurba_marseille","lat":43.31762,"lon":5.39008,"is_reserved":false,"is_disabled":false,"rental_uris":{"android":"levelo://app?vid=d26ecb6f-c6de-4d2b-86d3-827240a9f84d","ios":"levelo://app?vid=d26ecb6f-c6de-4d2b-86d3-827240a9f84d"},"vehicle_type_id":"4","last_reported":1758136035,"current_range_meters":16000,"station_id":"ce4bhqp2rcd13ifvqhng","pricing_plan_id":"cebpf4jnsgd1na2vs0mg"},{"bike_id":"37e76439-078c-452a-ae78-53460982098c","system_id":"levelo_inurba_marseille","lat":43.3361,"lon":5.41037,"is_reserved":false,"is_disabled":false,"rental_uris":{"android":"levelo://app?vid=37e76439-078c-452a-ae78-53460982098c","ios":"levelo://app?vid=37e76439-078c-452a-ae78-53460982098c"},"vehicle_type_id":"4","last_reported":1758136035,"current_range_meters":16000,"station_id":"ce4bhqh2rcd13ifvqhmg","pricing_plan_id":"cebpf4jnsgd1na2vs0mg"},{"bike_id":"2ed0296a-0b53-4da9-9ae7-01aa1e30049e","system_id":"levelo_inurba_marseille","lat":43.24662,"lon":5.38165,"is_reserved":false,"is_disabled":false,"rental_uris":{"android":"levelo://app?vid=2ed0296a-0b53-4da9-9ae7-01aa1e30049e","ios":"levelo://app?vid=2ed0296a-0b53-4da9-9ae7-01aa1e30049e"},"vehicle_type_id":"4","last_reported":1758136035,"current_range_meters":16400,"station_id":"ce4bhih2rcd13ifvqfr0","pricing_plan_id":"cebpf4jnsgd1na2vs0mg"},{"bike_id":"c9663e89-1884-4dfe-81e9-3d530f9908e1","system_id":"levelo_inurba_marseille","lat":43.2455,"lon":5.39527,"is_reserved":false,"is_disabled":false,"rental_uris":{"android":"levelo://app?vid=c9663e89-1884-4dfe-81e9-3d530f9908e1","ios":"levelo://app?vid=c9663e89-1884-4dfe-81e9-3d530f9908e1"},"vehicle_type_id":"4","last_reported":1758136035,"current_range_meters":16400,"station_id":"ce4bhlp2rcd13ifvqgjg","pricing_plan_id":"cebpf4jnsgd1na2vs0mg"},{"bike_id":"5d48e186-d2d5-43b6-b2f1-c83dbd3cced0","system_id":"levelo_inurba_marseille","lat":43.25717,"lon":5.41114,"is_reserved":false,"is_disabled":false,"rental_uris":{"android":"levelo://app?vid=5d48e186-d2d5-43b6-b2f1-c83dbd3cced0","ios":"levelo://app?vid=5d48e186-d2d5-43b6-b2f1-c83dbd3cced0"},"vehicle_type_id":"4","last_reported":1758136035,"current_range_meters":16400,"station_id":"ce4bhkp2rcd13ifvqgd0","pricing_plan_id":"cebpf4jnsgd1na2vs0mg"},{"bike_id":"14f169f8-4c51-4b69-bc87-e839241df13f","system_id":"levelo_inurba_marseille","lat":43.34141,"lon":5.40905,"is_reserved":false,"is_disabled":false,"rental_uris":{"android":"levelo://app?vid=14f169f8-4c51-4b69-bc87-e839241df13f","ios":"levelo://app?vid=14f169f8-4c51-4b69-bc87-e839241df13f"},"vehicle_type_id":"4","last_reported":1758136035,"current_range_meters":16400,"station_id":"ce4bhqh2rcd13ifvqhlg","pricing_plan_id":"cebpf4jnsgd1na2vs0mg"},{"bike_id":"152b725d-6f61-44b0-bc66-f31437aa6fe9","system_id":"levelo_inurba_marseille","lat":43.22558,"lon":5.41623,"is_reserved":false,"is_disabled":false,"rental_uris":{"android":"levelo://app?vid=152b725d-6f61-44b0-bc66-f31437aa6fe9","ios":"levelo://app?vid=152b725d-6f61-44b0-bc66-f31437aa6fe9"},"vehicle_type_id":"4","last_reported":1758136035,"current_range_meters":16400,"station_id":"st_d2o4gvlbi1j2169b742g","pricing_plan_id":"cebpf4jnsgd1na2vs0mg"},{"bike_id":"387c8295-5c1a-4e62-91c6-560b703e4279","system_id":"levelo_inurba_marseille","lat":43.32472,"lon":5.42683,"is_reserved":false,"is_disabled":false,"rental_uris":{"android":"levelo://app?vid=387c8295-5c1a-4e62-91c6-560b703e4279","ios":"levelo://app?vid=387c8295-5c1a-4e62-91c6-560b703e4279"},"vehicle_type_id":"4","last_reported":1758136035,"current_range_meters":16400,"station_id":"","pricing_plan_id":"cebpf4jnsgd1na2vs0mg"},{"bike_id":"80332322-52bb-49f4-b738-0ea587c53538","system_id":"levelo_inurba_marseille","lat":43.225357,"lon":5.34837,"is_reserved":false,"is_disabled":false,"rental_uris":{"android":"levelo://app?vid=80332322-52bb-49f4-b738-0ea587c53538","ios":"levelo://app?vid=80332322-52bb-49f4-b738-0ea587c53538"},"vehicle_type_id":"4","last_reported":1758136035,"current_range_meters":16400,"station_id":"","pricing_plan_id":"cebpf4jnsgd1na2vs0mg"},{"bike_id":"54fd1d29-ba7c-44bf-88c6-2c53b1649ac2","system_id":"levelo_inurba_marseille","lat":43.25873,"lon":5.39899,"is_reserved":false,"is_disabled":false,"rental_uris":{"android":"levelo://app?vid=54fd1d29-ba7c-44bf-88c6-2c53b1649ac2","ios":"levelo://app?vid=54fd1d29-ba7c-44bf-88c6-2c53b1649ac2"},"vehicle_type_id":"4","last_reported":1758136035,"current_range_meters":16400,"station_id":"ce4bhl92rcd13ifvqghg","pricing_plan_id":"cebpf4jnsgd1na2vs0mg"},{"bike_id":"9d181f5a-58ca-49a0-bbcc-8286d3ed3228","system_id":"levelo_inurba_marseille","lat":43.313691,"lon":5.383466,"is_reserved":false,"is_disabled":false,"rental_uris":{"android":"levelo://app?vid=9d181f5a-58ca-49a0-bbcc-8286d3ed3228","ios":"levelo://app?vid=9d181f5a-58ca-49a0-bbcc-8286d3ed3228"},"vehicle_type_id":"4","last_reported":1758136035,"current_range_meters":16400,"station_id":"","pricing_plan_id":"cebpf4jnsgd1na2vs0mg"},{"bike_id":"03ee088f-5e1a-4686-8577-bf3190c2f3f3","system_id":"levelo_inurba_marseille","lat":43.29527,"lon":5.38533,"is_reserved":false,"is_disabled":false,"rental_uris":{"android":"levelo://app?vid=03ee088f-5e1a-4686-8577-bf3190c2f3f3","ios":"levelo://app?vid=03ee088f-5e1a-4686-8577-bf3190c2f3f3"},"vehicle_type_id":"4","last_reported":1758136035,"current_range_meters":16400,"station_id":"ce4bgih2rcd13ifvqba0","pricing_plan_id":"cebpf4jnsgd1na2vs0mg"},{"bike_id":"30365912-7779-4a70-9afc-f32986e831b1","system_id":"levelo_inurba_marseille","lat":43.318866,"lon":5.407411,"is_reserved":false,"is_disabled":false,"rental_uris":{"android":"levelo://app?vid=30365912-7779-4a70-9afc-f32986e831b1","ios":"levelo://app?vid=30365912-7779-4a70-9afc-f32986e831b1"},"vehicle_type_id":"4","last_reported":1758136035,"current_range_meters":16400,"station_id":"ce4bhq12rcd13ifvqhig","pricing_plan_id":"cebpf4jnsgd1na2vs0mg"},{"bike_id":"4e6f9d08-fb5c-42d2-a817-8c4ec2eafe7a","system_id":"levelo_inurba_marseille","lat":43.29302,"lon":5.37152,"is_reserved":false,"is_disabled":false,"rental_uris":{"android":"levelo://app?vid=4e6f9d08-fb5c-42d2-a817-8c4ec2eafe7a","ios":"levelo://app?vid=4e6f9d08-fb5c-42d2-a817-8c4ec2eafe7a"},"vehicle_type_id":"4","last_reported":1758136035,"current_range_meters":16400,"station_id":"","pricing_plan_id":"cebpf4jnsgd1na2vs0mg"},{"bike_id":"42006df5-a930-4c6d-b1f8-06971735d779","system_id":"levelo_inurba_marseille","lat":43.29261,"lon":5.38438,"is_reserved":false,"is_disabled":false,"rental_uris":{"android":"levelo://app?vid=42006df5-a930-4c6d-b1f8-06971735d779","ios":"levelo://app?vid=42006df5-a930-4c6d-b1f8-06971735d779"},"vehicle_type_id":"4","last_reported":1758136035,"current_range_meters":16800,"station_id":"ce4bh692rcd13ifvqea0","pricing_plan_id":"cebpf4jnsgd1na2vs0mg"},{"bike_id":"bc26c92b-ba4c-4b10-a2aa-337b9ef53802","system_id":"levelo_inurba_marseille","lat":43.29982,"lon":5.37185,"is_reserved":false,"is_disabled":false,"rental_uris":{"android":"levelo://app?vid=bc26c92b-ba4c-4b10-a2aa-337b9ef53802","ios":"levelo://app?vid=bc26c92b-ba4c-4b10-a2aa-337b9ef53802"},"vehicle_type_id":"4","last_reported":1758136035,"current_range_meters":16800,"station_id":"ce4bgr92rcd13ifvqc7g","pricing_plan_id":"cebpf4jnsgd1na2vs0mg"},{"bike_id":"2dae5327-390a-481f-ba9f-5b26d663f259","system_id":"levelo_inurba_marseille","lat":43.2796,"lon":5.41037,"is_reserved":false,"is_disabled":false,"rental_uris":{"android":"levelo://app?vid=2dae5327-390a-481f-ba9f-5b26d663f259","ios":"levelo://app?vid=2dae5327-390a-481f-ba9f-5b26d663f259"},"vehicle_type_id":"4","last_reported":1758136035,"current_range_meters":16800,"station_id":"ce4bhnp2rcd13ifvqh0g","pricing_plan_id":"cebpf4jnsgd1na2vs0mg"},{"bike_id":"5a08afc6-e248-4f35-ab95-79a67e40c1d5","system_id":"levelo_inurba_marseille","lat":43.29195,"lon":5.3932,"is_reserved":false,"is_disabled":false,"rental_uris":{"android":"levelo://app?vid=5a08afc6-e248-4f35-ab95-79a67e40c1d5","ios":"levelo://app?vid=5a08afc6-e248-4f35-ab95-79a67e40c1d5"},"vehicle_type_id":"4","last_reported":1758136035,"current_range_meters":16800,"station_id":"ce4bh192rcd13ifvqdd0","pricing_plan_id":"cebpf4jnsgd1na2vs0mg"},{"bike_id":"67e391bd-c9ee-4557-a108-56f7f6b7084d","system_id":"levelo_inurba_marseille","lat":43.29607,"lon":5.38105,"is_reserved":false,"is_disabled":false,"rental_uris":{"android":"levelo://app?vid=67e391bd-c9ee-4557-a108-56f7f6b7084d","ios":"levelo://app?vid=67e391bd-c9ee-4557-a108-56f7f6b7084d"},"vehicle_type_id":"4","last_reported":1758136035,"current_range_meters":16800,"station_id":"","pricing_plan_id":"cebpf4jnsgd1na2vs0mg"},{"bike_id":"ccfa29ef-df7d-422b-bdec-b8b869902862","system_id":"levelo_inurba_marseille","lat":43.31764,"lon":5.38997,"is_reserved":false,"is_disabled":false,"rental_uris":{"android":"levelo://app?vid=ccfa29ef-df7d-422b-bdec-b8b869902862","ios":"levelo://app?vid=ccfa29ef-df7d-422b-bdec-b8b869902862"},"vehicle_type_id":"4","last_reported":1758136035,"current_range_meters":16800,"station_id":"ce4bhqp2rcd13ifvqhng","pricing_plan_id":"cebpf4jnsgd1na2vs0mg"},{"bike_id":"3a5880cd-3aaa-45e3-acd9-2ccd914d29dd","system_id":"levelo_inurba_marseille","lat":43.24062,"lon":5.37717,"is_reserved":false,"is_disabled":false,"rental_uris":{"android":"levelo://app?vid=3a5880cd-3aaa-45e3-acd9-2ccd914d29dd","ios":"levelo://app?vid=3a5880cd-3aaa-45e3-acd9-2ccd914d29dd"},"vehicle_type_id":"4","last_reported":1758136035,"current_range_meters":16800,"station_id":"ce4bhnp2rcd13ifvqgvg","pricing_plan_id":"cebpf4jnsgd1na2vs0mg"},{"bike_id":"b3ebf77d-e528-4094-8021-576f6cd25d13","system_id":"levelo_inurba_marseille","lat":43.243065,"lon":5.375261,"is_reserved":false,"is_disabled":false,"rental_uris":{"android":"levelo://app?vid=b3ebf77d-e528-4094-8021-576f6cd25d13","ios":"levelo://app?vid=b3ebf77d-e528-4094-8021-576f6cd25d13"},"vehicle_type_id":"4","last_reported":1758136035,"current_range_meters":16800,"station_id":"","pricing_plan_id":"cebpf4jnsgd1na2vs0mg"},{"bike_id":"0609b588-e68f-4395-bb7a-acadd140d875","system_id":"levelo_inurba_marseille","lat":43.21192,"lon":5.3509,"is_reserved":false,"is_disabled":false,"rental_uris":{"android":"levelo://app?vid=0609b588-e68f-4395-bb7a-acadd140d875","ios":"levelo://app?vid=0609b588-e68f-4395-bb7a-acadd140d875"},"vehicle_type_id":"4","last_reported":1758136035,"current_range_meters":16800,"station_id":"st_cvj6sg6p6f1abm77japg","pricing_plan_id":"cebpf4jnsgd1na2vs0mg"},{"bike_id":"162dbf71-41d9-4795-a794-84df6b34b338","system_id":"levelo_inurba_marseille","lat":43.30795,"lon":5.43535,"is_reserved":false,"is_disabled":false,"rental_uris":{"android":"levelo://app?vid=162dbf71-41d9-4795-a794-84df6b34b338","ios":"levelo://app?vid=162dbf71-41d9-4795-a794-84df6b34b338"},"vehicle_type_id":"4","last_reported":1758136035,"current_range_meters":17200,"station_id":"ce4bhph2rcd13ifvqheg","pricing_plan_id":"cebpf4jnsgd1na2vs0mg"},{"bike_id":"1977b5c6-dba9-4a16-b32b-37129b48ac88","system_id":"levelo_inurba_marseille","lat":43.295074,"lon":5.390517,"is_reserved":false,"is_disabled":false,"rental_uris":{"android":"levelo://app?vid=1977b5c6-dba9-4a16-b32b-37129b48ac88","ios":"levelo://app?vid=1977b5c6-dba9-4a16-b32b-37129b48ac88"},"vehicle_type_id":"4","last_reported":1758136035,"current_range_meters":17200,"station_id":"ce4bh3p2rcd13ifvqdp0","pricing_plan_id":"cebpf4jnsgd1na2vs0mg"},{"bike_id":"bcd6c9be-0506-49a6-a9e4-308b9d314b85","system_id":"levelo_inurba_marseille","lat":43.29604,"lon":5.38106,"is_reserved":false,"is_disabled":false,"rental_uris":{"android":"levelo://app?vid=bcd6c9be-0506-49a6-a9e4-308b9d314b85","ios":"levelo://app?vid=bcd6c9be-0506-49a6-a9e4-308b9d314b85"},"vehicle_type_id":"4","last_reported":1758136035,"current_range_meters":17200,"station_id":"","pricing_plan_id":"cebpf4jnsgd1na2vs0mg"},{"bike_id":"cf66592a-d8fa-4c6c-9927-5d7a9fef5026","system_id":"levelo_inurba_marseille","lat":43.262713,"lon":5.398457,"is_reserved":false,"is_disabled":false,"rental_uris":{"android":"levelo://app?vid=cf66592a-d8fa-4c6c-9927-5d7a9fef5026","ios":"levelo://app?vid=cf66592a-d8fa-4c6c-9927-5d7a9fef5026"},"vehicle_type_id":"4","last_reported":1758136035,"current_range_meters":17200,"station_id":"","pricing_plan_id":"cebpf4jnsgd1na2vs0mg"},{"bike_id":"b2c799b6-987a-4afd-98ce-a4bfccab9b02","system_id":"levelo_inurba_marseille","lat":43.31881,"lon":5.40744,"is_reserved":false,"is_disabled":false,"rental_uris":{"android":"levelo://app?vid=b2c799b6-987a-4afd-98ce-a4bfccab9b02","ios":"levelo://app?vid=b2c799b6-987a-4afd-98ce-a4bfccab9b02"},"vehicle_type_id":"4","last_reported":1758136035,"current_range_meters":17200,"station_id":"ce4bhq12rcd13ifvqhig","pricing_plan_id":"cebpf4jnsgd1na2vs0mg"},{"bike_id":"b3d3185e-f1cf-4ef3-a242-f70e384a393c","system_id":"levelo_inurba_marseille","lat":43.29258,"lon":5.38435,"is_reserved":false,"is_disabled":false,"rental_uris":{"android":"levelo://app?vid=b3d3185e-f1cf-4ef3-a242-f70e384a393c","ios":"levelo://app?vid=b3d3185e-f1cf-4ef3-a242-f70e384a393c"},"vehicle_type_id":"4","last_reported":1758136035,"current_range_meters":17200,"station_id":"ce4bh692rcd13ifvqea0","pricing_plan_id":"cebpf4jnsgd1na2vs0mg"},{"bike_id":"e37bbf05-7111-446c-9a71-36af190b151e","system_id":"levelo_inurba_marseille","lat":43.22935,"lon":5.35381,"is_reserved":false,"is_disabled":false,"rental_uris":{"android":"levelo://app?vid=e37bbf05-7111-446c-9a71-36af190b151e","ios":"levelo://app?vid=e37bbf05-7111-446c-9a71-36af190b151e"},"vehicle_type_id":"4","last_reported":1758136035,"current_range_meters":17600,"station_id":"cpo3532slgdg3j2ikp40","pricing_plan_id":"cebpf4jnsgd1na2vs0mg"},{"bike_id":"80a9a218-f77f-42ce-8136-b0dceb9fc366","system_id":"levelo_inurba_marseille","lat":43.267867,"lon":5.394102,"is_reserved":false,"is_disabled":true,"rental_uris":{"android":"levelo://app?vid=80a9a218-f77f-42ce-8136-b0dceb9fc366","ios":"levelo://app?vid=80a9a218-f77f-42ce-8136-b0dceb9fc366"},"vehicle_type_id":"4","last_reported":1758136035,"current_range_meters":17600,"station_id":"ce4bhh12rcd13ifvqfg0","pricing_plan_id":"cebpf4jnsgd1na2vs0mg"},{"bike_id":"726b6a1b-ce85-473e-a7dd-786dede45743","system_id":"levelo_inurba_marseille","lat":43.28847,"lon":5.39305,"is_reserved":false,"is_disabled":false,"rental_uris":{"android":"levelo://app?vid=726b6a1b-ce85-473e-a7dd-786dede45743","ios":"levelo://app?vid=726b6a1b-ce85-473e-a7dd-786dede45743"},"vehicle_type_id":"4","last_reported":1758136035,"current_range_meters":17600,"station_id":"ce4bh2p2rcd13ifvqdi0","pricing_plan_id":"cebpf4jnsgd1na2vs0mg"},{"bike_id":"8b911268-c055-48aa-a297-584fd3a9cf6e","system_id":"levelo_inurba_marseille","lat":43.28405,"lon":5.35006,"is_reserved":false,"is_disabled":true,"rental_uris":{"android":"levelo://app?vid=8b911268-c055-48aa-a297-584fd3a9cf6e","ios":"levelo://app?vid=8b911268-c055-48aa-a297-584fd3a9cf6e"},"vehicle_type_id":"4","last_reported":1758136035,"current_range_meters":17600,"station_id":"ce4bhbh2rcd13ifvqepg","pricing_plan_id":"cebpf4jnsgd1na2vs0mg"},{"bike_id":"a1143759-cff7-4b60-845a-0624c236e0e2","system_id":"levelo_inurba_marseille","lat":43.25336,"lon":5.42179,"is_reserved":false,"is_disabled":false,"rental_uris":{"android":"levelo://app?vid=a1143759-cff7-4b60-845a-0624c236e0e2","ios":"levelo://app?vid=a1143759-cff7-4b60-845a-0624c236e0e2"},"vehicle_type_id":"4","last_reported":1758136035,"current_range_meters":17600,"station_id":"st_d2m65c5bi1j21697t3ng","pricing_plan_id":"cebpf4jnsgd1na2vs0mg"},{"bike_id":"42323a1a-489c-43cb-90ae-c675b27444d5","system_id":"levelo_inurba_marseille","lat":43.21647,"lon":5.34376,"is_reserved":false,"is_disabled":false,"rental_uris":{"android":"levelo://app?vid=42323a1a-489c-43cb-90ae-c675b27444d5","ios":"levelo://app?vid=42323a1a-489c-43cb-90ae-c675b27444d5"},"vehicle_type_id":"4","last_reported":1758136035,"current_range_meters":17600,"station_id":"","pricing_plan_id":"cebpf4jnsgd1na2vs0mg"},{"bike_id":"40495e59-b743-486e-987c-cb0c3ab2f191","system_id":"levelo_inurba_marseille","lat":43.332,"lon":5.41075,"is_reserved":false,"is_disabled":false,"rental_uris":{"android":"levelo://app?vid=40495e59-b743-486e-987c-cb0c3ab2f191","ios":"levelo://app?vid=40495e59-b743-486e-987c-cb0c3ab2f191"},"vehicle_type_id":"4","last_reported":1758136035,"current_range_meters":17600,"station_id":"","pricing_plan_id":"cebpf4jnsgd1na2vs0mg"},{"bike_id":"b57fa0ee-0bf9-491f-a9cd-fd94054e206e","system_id":"levelo_inurba_marseille","lat":43.24951,"lon":5.40487,"is_reserved":false,"is_disabled":false,"rental_uris":{"android":"levelo://app?vid=b57fa0ee-0bf9-491f-a9cd-fd94054e206e","ios":"levelo://app?vid=b57fa0ee-0bf9-491f-a9cd-fd94054e206e"},"vehicle_type_id":"4","last_reported":1758136035,"current_range_meters":17600,"station_id":"st_d2ngiaodas8pm72gd1h0","pricing_plan_id":"cebpf4jnsgd1na2vs0mg"},{"bike_id":"be9ee84b-9ec1-497c-800c-5907ad1418ae","system_id":"levelo_inurba_marseille","lat":43.22561,"lon":5.41631,"is_reserved":false,"is_disabled":false,"rental_uris":{"android":"levelo://app?vid=be9ee84b-9ec1-497c-800c-5907ad1418ae","ios":"levelo://app?vid=be9ee84b-9ec1-497c-800c-5907ad1418ae"},"vehicle_type_id":"4","last_reported":1758136035,"current_range_meters":17600,"station_id":"st_d2o4gvlbi1j2169b742g","pricing_plan_id":"cebpf4jnsgd1na2vs0mg"},{"bike_id":"1f813e93-735c-40a4-9f57-b9151f8c001c","system_id":"levelo_inurba_marseille","lat":43.29681,"lon":5.37289,"is_reserved":false,"is_disabled":false,"rental_uris":{"android":"levelo://app?vid=1f813e93-735c-40a4-9f57-b9151f8c001c","ios":"levelo://app?vid=1f813e93-735c-40a4-9f57-b9151f8c001c"},"vehicle_type_id":"4","last_reported":1758136035,"current_range_meters":17600,"station_id":"","pricing_plan_id":"cebpf4jnsgd1na2vs0mg"},{"bike_id":"81f1a9f1-16ae-4f40-9b78-c887615174fc","system_id":"levelo_inurba_marseille","lat":43.29531,"lon":5.38547,"is_reserved":false,"is_disabled":false,"rental_uris":{"android":"levelo://app?vid=81f1a9f1-16ae-4f40-9b78-c887615174fc","ios":"levelo://app?vid=81f1a9f1-16ae-4f40-9b78-c887615174fc"},"vehicle_type_id":"4","last_reported":1758136035,"current_range_meters":17600,"station_id":"ce4bgih2rcd13ifvqba0","pricing_plan_id":"cebpf4jnsgd1na2vs0mg"},{"bike_id":"a66b8944-6cea-4817-8024-8e532f57f1cc","system_id":"levelo_inurba_marseille","lat":43.2799,"lon":5.41659,"is_reserved":false,"is_disabled":false,"rental_uris":{"android":"levelo://app?vid=a66b8944-6cea-4817-8024-8e532f57f1cc","ios":"levelo://app?vid=a66b8944-6cea-4817-8024-8e532f57f1cc"},"vehicle_type_id":"4","last_reported":1758136035,"current_range_meters":18000,"station_id":"ce4bho12rcd13ifvqh1g","pricing_plan_id":"cebpf4jnsgd1na2vs0mg"},{"bike_id":"6fbe6c95-a0de-402c-983d-47167101c50f","system_id":"levelo_inurba_marseille","lat":43.3043,"lon":5.38891,"is_reserved":false,"is_disabled":false,"rental_uris":{"android":"levelo://app?vid=6fbe6c95-a0de-402c-983d-47167101c50f","ios":"levelo://app?vid=6fbe6c95-a0de-402c-983d-47167101c50f"},"vehicle_type_id":"4","last_reported":1758136035,"current_range_meters":18000,"station_id":"ce4bgk12rcd13ifvqbi0","pricing_plan_id":"cebpf4jnsgd1na2vs0mg"},{"bike_id":"a4faa1fd-62ee-404a-aff8-b79ea6b6b5d2","system_id":"levelo_inurba_marseille","lat":43.32986,"lon":5.39245,"is_reserved":false,"is_disabled":false,"rental_uris":{"android":"levelo://app?vid=a4faa1fd-62ee-404a-aff8-b79ea6b6b5d2","ios":"levelo://app?vid=a4faa1fd-62ee-404a-aff8-b79ea6b6b5d2"},"vehicle_type_id":"4","last_reported":1758136035,"current_range_meters":18000,"station_id":"","pricing_plan_id":"cebpf4jnsgd1na2vs0mg"},{"bike_id":"d9f0ae84-d732-44f5-b420-064e325a0d60","system_id":"levelo_inurba_marseille","lat":43.320183,"lon":5.381343,"is_reserved":false,"is_disabled":false,"rental_uris":{"android":"levelo://app?vid=d9f0ae84-d732-44f5-b420-064e325a0d60","ios":"levelo://app?vid=d9f0ae84-d732-44f5-b420-064e325a0d60"},"vehicle_type_id":"4","last_reported":1758136035,"current_range_meters":18000,"station_id":"","pricing_plan_id":"cebpf4jnsgd1na2vs0mg"},{"bike_id":"fa0847a4-8d8b-47a2-9c0d-c16fe7a48c9b","system_id":"levelo_inurba_marseille","lat":43.330285,"lon":5.390556,"is_reserved":false,"is_disabled":false,"rental_uris":{"android":"levelo://app?vid=fa0847a4-8d8b-47a2-9c0d-c16fe7a48c9b","ios":"levelo://app?vid=fa0847a4-8d8b-47a2-9c0d-c16fe7a48c9b"},"vehicle_type_id":"4","last_reported":1758136035,"current_range_meters":18000,"station_id":"","pricing_plan_id":"cebpf4jnsgd1na2vs0mg"},{"bike_id":"a5908f4d-3c90-4b88-bcaa-6b79279fb4f3","system_id":"levelo_inurba_marseille","lat":43.29268,"lon":5.40864,"is_reserved":false,"is_disabled":false,"rental_uris":{"android":"levelo://app?vid=a5908f4d-3c90-4b88-bcaa-6b79279fb4f3","ios":"levelo://app?vid=a5908f4d-3c90-4b88-bcaa-6b79279fb4f3"},"vehicle_type_id":"4","last_reported":1758136035,"current_range_meters":18000,"station_id":"ce4bh192rcd13ifvqdc0","pricing_plan_id":"cebpf4jnsgd1na2vs0mg"},{"bike_id":"db09c34a-61c9-4720-a90f-79d13a4a7ebf","system_id":"levelo_inurba_marseille","lat":43.31114,"lon":5.37773,"is_reserved":false,"is_disabled":false,"rental_uris":{"android":"levelo://app?vid=db09c34a-61c9-4720-a90f-79d13a4a7ebf","ios":"levelo://app?vid=db09c34a-61c9-4720-a90f-79d13a4a7ebf"},"vehicle_type_id":"4","last_reported":1758136035,"current_range_meters":18000,"station_id":"ce4bgt92rcd13ifvqcg0","pricing_plan_id":"cebpf4jnsgd1na2vs0mg"},{"bike_id":"e1f51025-1404-4cca-96b7-273119670d5f","system_id":"levelo_inurba_marseille","lat":43.25347,"lon":5.42694,"is_reserved":false,"is_disabled":false,"rental_uris":{"android":"levelo://app?vid=e1f51025-1404-4cca-96b7-273119670d5f","ios":"levelo://app?vid=e1f51025-1404-4cca-96b7-273119670d5f"},"vehicle_type_id":"4","last_reported":1758136035,"current_range_meters":18000,"station_id":"","pricing_plan_id":"cebpf4jnsgd1na2vs0mg"},{"bike_id":"378b24aa-f1fe-487b-858c-06bce42ef970","system_id":"levelo_inurba_marseille","lat":43.29526,"lon":5.3854,"is_reserved":false,"is_disabled":false,"rental_uris":{"android":"levelo://app?vid=378b24aa-f1fe-487b-858c-06bce42ef970","ios":"levelo://app?vid=378b24aa-f1fe-487b-858c-06bce42ef970"},"vehicle_type_id":"4","last_reported":1758136035,"current_range_meters":18000,"station_id":"ce4bgih2rcd13ifvqba0","pricing_plan_id":"cebpf4jnsgd1na2vs0mg"},{"bike_id":"adf19941-6925-49e3-b023-4f911ffc887f","system_id":"levelo_inurba_marseille","lat":43.32361,"lon":5.36722,"is_reserved":false,"is_disabled":true,"rental_uris":{"android":"levelo://app?vid=adf19941-6925-49e3-b023-4f911ffc887f","ios":"levelo://app?vid=adf19941-6925-49e3-b023-4f911ffc887f"},"vehicle_type_id":"4","last_reported":1758136035,"current_range_meters":18000,"station_id":"ce4bhsh2rcd13ifvqi2g","pricing_plan_id":"cebpf4jnsgd1na2vs0mg"},{"bike_id":"c58c85be-1e35-4873-9cb0-4f7304dfeea6","system_id":"levelo_inurba_marseille","lat":43.23183,"lon":5.39989,"is_reserved":false,"is_disabled":false,"rental_uris":{"android":"levelo://app?vid=c58c85be-1e35-4873-9cb0-4f7304dfeea6","ios":"levelo://app?vid=c58c85be-1e35-4873-9cb0-4f7304dfeea6"},"vehicle_type_id":"4","last_reported":1758136035,"current_range_meters":18000,"station_id":"ce4bhn12rcd13ifvqgqg","pricing_plan_id":"cebpf4jnsgd1na2vs0mg"},{"bike_id":"1da37b3a-d772-478a-a85c-fb719c8bc7a9","system_id":"levelo_inurba_marseille","lat":43.26574,"lon":5.39647,"is_reserved":false,"is_disabled":false,"rental_uris":{"android":"levelo://app?vid=1da37b3a-d772-478a-a85c-fb719c8bc7a9","ios":"levelo://app?vid=1da37b3a-d772-478a-a85c-fb719c8bc7a9"},"vehicle_type_id":"4","last_reported":1758136035,"current_range_meters":18000,"station_id":"","pricing_plan_id":"cebpf4jnsgd1na2vs0mg"},{"bike_id":"0a68362e-f5d3-40c2-8eb6-58b476c1e495","system_id":"levelo_inurba_marseille","lat":43.27747,"lon":5.40999,"is_reserved":false,"is_disabled":false,"rental_uris":{"android":"levelo://app?vid=0a68362e-f5d3-40c2-8eb6-58b476c1e495","ios":"levelo://app?vid=0a68362e-f5d3-40c2-8eb6-58b476c1e495"},"vehicle_type_id":"4","last_reported":1758136035,"current_range_meters":18800,"station_id":"","pricing_plan_id":"cebpf4jnsgd1na2vs0mg"},{"bike_id":"17e32bd2-1c59-42b3-819b-651708de8579","system_id":"levelo_inurba_marseille","lat":43.28336,"lon":5.38115,"is_reserved":false,"is_disabled":true,"rental_uris":{"android":"levelo://app?vid=17e32bd2-1c59-42b3-819b-651708de8579","ios":"levelo://app?vid=17e32bd2-1c59-42b3-819b-651708de8579"},"vehicle_type_id":"4","last_reported":1758136035,"current_range_meters":18800,"station_id":"ce4bh412rcd13ifvqdr0","pricing_plan_id":"cebpf4jnsgd1na2vs0mg"},{"bike_id":"d93f6aec-282b-42a6-9be0-fe23bad38a2b","system_id":"levelo_inurba_marseille","lat":43.246401,"lon":5.43139,"is_reserved":false,"is_disabled":true,"rental_uris":{"android":"levelo://app?vid=d93f6aec-282b-42a6-9be0-fe23bad38a2b","ios":"levelo://app?vid=d93f6aec-282b-42a6-9be0-fe23bad38a2b"},"vehicle_type_id":"4","last_reported":1758136035,"current_range_meters":18800,"station_id":"st_d2m6c4gdas8pm72e190g","pricing_plan_id":"cebpf4jnsgd1na2vs0mg"},{"bike_id":"d9fbdefa-6598-4c0d-b9bb-306fb3f466a4","system_id":"levelo_inurba_marseille","lat":43.29538,"lon":5.38552,"is_reserved":false,"is_disabled":false,"rental_uris":{"android":"levelo://app?vid=d9fbdefa-6598-4c0d-b9bb-306fb3f466a4","ios":"levelo://app?vid=d9fbdefa-6598-4c0d-b9bb-306fb3f466a4"},"vehicle_type_id":"4","last_reported":1758136035,"current_range_meters":18800,"station_id":"ce4bgih2rcd13ifvqba0","pricing_plan_id":"cebpf4jnsgd1na2vs0mg"},{"bike_id":"46e65fa8-56ad-4558-b284-11998c5e4def","system_id":"levelo_inurba_marseille","lat":43.26681,"lon":5.38268,"is_reserved":false,"is_disabled":false,"rental_uris":{"android":"levelo://app?vid=46e65fa8-56ad-4558-b284-11998c5e4def","ios":"levelo://app?vid=46e65fa8-56ad-4558-b284-11998c5e4def"},"vehicle_type_id":"4","last_reported":1758136035,"current_range_meters":18800,"station_id":"ce4bhg92rcd13ifvqf90","pricing_plan_id":"cebpf4jnsgd1na2vs0mg"},{"bike_id":"6499745b-7b8b-4d81-afa4-ba9c05652a7b","system_id":"levelo_inurba_marseille","lat":43.28551,"lon":5.37768,"is_reserved":false,"is_disabled":false,"rental_uris":{"android":"levelo://app?vid=6499745b-7b8b-4d81-afa4-ba9c05652a7b","ios":"levelo://app?vid=6499745b-7b8b-4d81-afa4-ba9c05652a7b"},"vehicle_type_id":"4","last_reported":1758136035,"current_range_meters":18800,"station_id":"","pricing_plan_id":"cebpf4jnsgd1na2vs0mg"},{"bike_id":"b91d0a16-54ed-46e3-a80d-7ad17205d3d3","system_id":"levelo_inurba_marseille","lat":43.28663,"lon":5.36359,"is_reserved":false,"is_disabled":false,"rental_uris":{"android":"levelo://app?vid=b91d0a16-54ed-46e3-a80d-7ad17205d3d3","ios":"levelo://app?vid=b91d0a16-54ed-46e3-a80d-7ad17205d3d3"},"vehicle_type_id":"4","last_reported":1758136035,"current_range_meters":18800,"station_id":"ce4bhah2rcd13ifvqej0","pricing_plan_id":"cebpf4jnsgd1na2vs0mg"},{"bike_id":"0bf25e28-8c37-4e20-92ce-f2781497b93c","system_id":"levelo_inurba_marseille","lat":43.29087,"lon":5.38164,"is_reserved":false,"is_disabled":false,"rental_uris":{"android":"levelo://app?vid=0bf25e28-8c37-4e20-92ce-f2781497b93c","ios":"levelo://app?vid=0bf25e28-8c37-4e20-92ce-f2781497b93c"},"vehicle_type_id":"4","last_reported":1758136035,"current_range_meters":18800,"station_id":"ce4bh512rcd13ifvqe2g","pricing_plan_id":"cebpf4jnsgd1na2vs0mg"},{"bike_id":"acfec73f-5435-48eb-a869-eeb3dc5252c8","system_id":"levelo_inurba_marseille","lat":43.31297,"lon":5.37867,"is_reserved":false,"is_disabled":false,"rental_uris":{"android":"levelo://app?vid=acfec73f-5435-48eb-a869-eeb3dc5252c8","ios":"levelo://app?vid=acfec73f-5435-48eb-a869-eeb3dc5252c8"},"vehicle_type_id":"4","last_reported":1758136035,"current_range_meters":18800,"station_id":"","pricing_plan_id":"cebpf4jnsgd1na2vs0mg"},{"bike_id":"17189ffe-42c4-4ed7-b2f5-ce9f4678d6b4","system_id":"levelo_inurba_marseille","lat":43.2885,"lon":5.39305,"is_reserved":false,"is_disabled":false,"rental_uris":{"android":"levelo://app?vid=17189ffe-42c4-4ed7-b2f5-ce9f4678d6b4","ios":"levelo://app?vid=17189ffe-42c4-4ed7-b2f5-ce9f4678d6b4"},"vehicle_type_id":"4","last_reported":1758136035,"current_range_meters":18800,"station_id":"ce4bh2p2rcd13ifvqdi0","pricing_plan_id":"cebpf4jnsgd1na2vs0mg"},{"bike_id":"c9e40109-3dfe-4aad-b491-bd93fd00d81a","system_id":"levelo_inurba_marseille","lat":43.291994,"lon":5.393309,"is_reserved":false,"is_disabled":false,"rental_uris":{"android":"levelo://app?vid=c9e40109-3dfe-4aad-b491-bd93fd00d81a","ios":"levelo://app?vid=c9e40109-3dfe-4aad-b491-bd93fd00d81a"},"vehicle_type_id":"4","last_reported":1758136035,"current_range_meters":19200,"station_id":"ce4bh192rcd13ifvqdd0","pricing_plan_id":"cebpf4jnsgd1na2vs0mg"},{"bike_id":"2629186d-091d-4262-b45e-1bc42bdd62e9","system_id":"levelo_inurba_marseille","lat":43.29102,"lon":5.38178,"is_reserved":false,"is_disabled":true,"rental_uris":{"android":"levelo://app?vid=2629186d-091d-4262-b45e-1bc42bdd62e9","ios":"levelo://app?vid=2629186d-091d-4262-b45e-1bc42bdd62e9"},"vehicle_type_id":"4","last_reported":1758136035,"current_range_meters":19200,"station_id":"ce4bh512rcd13ifvqe2g","pricing_plan_id":"cebpf4jnsgd1na2vs0mg"},{"bike_id":"8c28d726-40ee-44cb-871f-c030e17382ee","system_id":"levelo_inurba_marseille","lat":43.29336,"lon":5.37166,"is_reserved":false,"is_disabled":false,"rental_uris":{"android":"levelo://app?vid=8c28d726-40ee-44cb-871f-c030e17382ee","ios":"levelo://app?vid=8c28d726-40ee-44cb-871f-c030e17382ee"},"vehicle_type_id":"4","last_reported":1758136035,"current_range_meters":19200,"station_id":"","pricing_plan_id":"cebpf4jnsgd1na2vs0mg"},{"bike_id":"38f754fa-6a3e-41dd-91bc-019719dece69","system_id":"levelo_inurba_marseille","lat":43.341392,"lon":5.409106,"is_reserved":false,"is_disabled":false,"rental_uris":{"android":"levelo://app?vid=38f754fa-6a3e-41dd-91bc-019719dece69","ios":"levelo://app?vid=38f754fa-6a3e-41dd-91bc-019719dece69"},"vehicle_type_id":"4","last_reported":1758136035,"current_range_meters":18800,"station_id":"ce4bhqh2rcd13ifvqhlg","pricing_plan_id":"cebpf4jnsgd1na2vs0mg"},{"bike_id":"213cad03-d2f6-45b9-b994-e73240a9f17b","system_id":"levelo_inurba_marseille","lat":43.291967,"lon":5.393166,"is_reserved":false,"is_disabled":false,"rental_uris":{"android":"levelo://app?vid=213cad03-d2f6-45b9-b994-e73240a9f17b","ios":"levelo://app?vid=213cad03-d2f6-45b9-b994-e73240a9f17b"},"vehicle_type_id":"4","last_reported":1758136035,"current_range_meters":19200,"station_id":"ce4bh192rcd13ifvqdd0","pricing_plan_id":"cebpf4jnsgd1na2vs0mg"},{"bike_id":"bd185fbb-729f-4221-8aa9-562ca885c1f5","system_id":"levelo_inurba_marseille","lat":43.225653,"lon":5.416272,"is_reserved":false,"is_disabled":false,"rental_uris":{"android":"levelo://app?vid=bd185fbb-729f-4221-8aa9-562ca885c1f5","ios":"levelo://app?vid=bd185fbb-729f-4221-8aa9-562ca885c1f5"},"vehicle_type_id":"4","last_reported":1758136035,"current_range_meters":19200,"station_id":"st_d2o4gvlbi1j2169b742g","pricing_plan_id":"cebpf4jnsgd1na2vs0mg"},{"bike_id":"dee0908a-7226-4b92-ac4e-c69b7d1dc77f","system_id":"levelo_inurba_marseille","lat":43.23177,"lon":5.3999,"is_reserved":false,"is_disabled":false,"rental_uris":{"android":"levelo://app?vid=dee0908a-7226-4b92-ac4e-c69b7d1dc77f","ios":"levelo://app?vid=dee0908a-7226-4b92-ac4e-c69b7d1dc77f"},"vehicle_type_id":"4","last_reported":1758136035,"current_range_meters":19600,"station_id":"ce4bhn12rcd13ifvqgqg","pricing_plan_id":"cebpf4jnsgd1na2vs0mg"},{"bike_id":"45f6ceba-3123-4bb2-a6a1-083f1e953c55","system_id":"levelo_inurba_marseille","lat":43.30793,"lon":5.43529,"is_reserved":false,"is_disabled":false,"rental_uris":{"android":"levelo://app?vid=45f6ceba-3123-4bb2-a6a1-083f1e953c55","ios":"levelo://app?vid=45f6ceba-3123-4bb2-a6a1-083f1e953c55"},"vehicle_type_id":"4","last_reported":1758136035,"current_range_meters":19600,"station_id":"ce4bhph2rcd13ifvqheg","pricing_plan_id":"cebpf4jnsgd1na2vs0mg"},{"bike_id":"594bfe92-f6ce-445d-b8b1-ba04ac6cfda1","system_id":"levelo_inurba_marseille","lat":43.28744,"lon":5.38548,"is_reserved":false,"is_disabled":false,"rental_uris":{"android":"levelo://app?vid=594bfe92-f6ce-445d-b8b1-ba04ac6cfda1","ios":"levelo://app?vid=594bfe92-f6ce-445d-b8b1-ba04ac6cfda1"},"vehicle_type_id":"4","last_reported":1758136035,"current_range_meters":19600,"station_id":"","pricing_plan_id":"cebpf4jnsgd1na2vs0mg"},{"bike_id":"7eed94c4-182d-4460-826b-78b4ef60c719","system_id":"levelo_inurba_marseille","lat":43.295859,"lon":5.375163,"is_reserved":false,"is_disabled":false,"rental_uris":{"android":"levelo://app?vid=7eed94c4-182d-4460-826b-78b4ef60c719","ios":"levelo://app?vid=7eed94c4-182d-4460-826b-78b4ef60c719"},"vehicle_type_id":"4","last_reported":1758136035,"current_range_meters":19600,"station_id":"","pricing_plan_id":"cebpf4jnsgd1na2vs0mg"},{"bike_id":"e758d7ef-59f8-4bed-9771-0f2776f3826b","system_id":"levelo_inurba_marseille","lat":43.33741,"lon":5.37476,"is_reserved":false,"is_disabled":false,"rental_uris":{"android":"levelo://app?vid=e758d7ef-59f8-4bed-9771-0f2776f3826b","ios":"levelo://app?vid=e758d7ef-59f8-4bed-9771-0f2776f3826b"},"vehicle_type_id":"4","last_reported":1758136035,"current_range_meters":19600,"station_id":"","pricing_plan_id":"cebpf4jnsgd1na2vs0mg"},{"bike_id":"3c2ee7e0-8437-4e44-9990-d71d9be4f7d5","system_id":"levelo_inurba_marseille","lat":43.24184,"lon":5.39736,"is_reserved":false,"is_disabled":false,"rental_uris":{"android":"levelo://app?vid=3c2ee7e0-8437-4e44-9990-d71d9be4f7d5","ios":"levelo://app?vid=3c2ee7e0-8437-4e44-9990-d71d9be4f7d5"},"vehicle_type_id":"4","last_reported":1758136035,"current_range_meters":19600,"station_id":"ce4bhn12rcd13ifvqgpg","pricing_plan_id":"cebpf4jnsgd1na2vs0mg"},{"bike_id":"3ab03a73-dcfa-41d4-ad21-8eaedb5b4c8c","system_id":"levelo_inurba_marseille","lat":43.29261,"lon":5.3844,"is_reserved":false,"is_disabled":false,"rental_uris":{"android":"levelo://app?vid=3ab03a73-dcfa-41d4-ad21-8eaedb5b4c8c","ios":"levelo://app?vid=3ab03a73-dcfa-41d4-ad21-8eaedb5b4c8c"},"vehicle_type_id":"4","last_reported":1758136035,"current_range_meters":19600,"station_id":"ce4bh692rcd13ifvqea0","pricing_plan_id":"cebpf4jnsgd1na2vs0mg"},{"bike_id":"f9418cc9-c64d-43d9-9060-3aeedd69cdee","system_id":"levelo_inurba_marseille","lat":43.33076,"lon":5.37855,"is_reserved":false,"is_disabled":false,"rental_uris":{"android":"levelo://app?vid=f9418cc9-c64d-43d9-9060-3aeedd69cdee","ios":"levelo://app?vid=f9418cc9-c64d-43d9-9060-3aeedd69cdee"},"vehicle_type_id":"4","last_reported":1758136035,"current_range_meters":19600,"station_id":"","pricing_plan_id":"cebpf4jnsgd1na2vs0mg"},{"bike_id":"eef07bdc-2592-47ec-b693-e0c4be9c19ff","system_id":"levelo_inurba_marseille","lat":43.258198,"lon":5.39441,"is_reserved":false,"is_disabled":false,"rental_uris":{"android":"levelo://app?vid=eef07bdc-2592-47ec-b693-e0c4be9c19ff","ios":"levelo://app?vid=eef07bdc-2592-47ec-b693-e0c4be9c19ff"},"vehicle_type_id":"4","last_reported":1758136035,"current_range_meters":20000,"station_id":"","pricing_plan_id":"cebpf4jnsgd1na2vs0mg"},{"bike_id":"6ce3762e-c07d-4f48-b4f8-45a74efbe3e7","system_id":"levelo_inurba_marseille","lat":43.31873,"lon":5.4075,"is_reserved":false,"is_disabled":false,"rental_uris":{"android":"levelo://app?vid=6ce3762e-c07d-4f48-b4f8-45a74efbe3e7","ios":"levelo://app?vid=6ce3762e-c07d-4f48-b4f8-45a74efbe3e7"},"vehicle_type_id":"4","last_reported":1758136035,"current_range_meters":20000,"station_id":"ce4bhq12rcd13ifvqhig","pricing_plan_id":"cebpf4jnsgd1na2vs0mg"},{"bike_id":"67dd00f8-ae48-42dc-83ad-07adfe3acb0a","system_id":"levelo_inurba_marseille","lat":43.31274,"lon":5.40169,"is_reserved":false,"is_disabled":false,"rental_uris":{"android":"levelo://app?vid=67dd00f8-ae48-42dc-83ad-07adfe3acb0a","ios":"levelo://app?vid=67dd00f8-ae48-42dc-83ad-07adfe3acb0a"},"vehicle_type_id":"4","last_reported":1758136035,"current_range_meters":20000,"station_id":"ce4bh092rcd13ifvqd30","pricing_plan_id":"cebpf4jnsgd1na2vs0mg"},{"bike_id":"e942f984-8fe7-48d1-8f04-3806656b9996","system_id":"levelo_inurba_marseille","lat":43.33648,"lon":5.37917,"is_reserved":false,"is_disabled":false,"rental_uris":{"android":"levelo://app?vid=e942f984-8fe7-48d1-8f04-3806656b9996","ios":"levelo://app?vid=e942f984-8fe7-48d1-8f04-3806656b9996"},"vehicle_type_id":"4","last_reported":1758136035,"current_range_meters":20000,"station_id":"","pricing_plan_id":"cebpf4jnsgd1na2vs0mg"},{"bike_id":"ce024518-52a7-4a1c-90dd-71ecd7414fa9","system_id":"levelo_inurba_marseille","lat":43.29608,"lon":5.38095,"is_reserved":false,"is_disabled":false,"rental_uris":{"android":"levelo://app?vid=ce024518-52a7-4a1c-90dd-71ecd7414fa9","ios":"levelo://app?vid=ce024518-52a7-4a1c-90dd-71ecd7414fa9"},"vehicle_type_id":"4","last_reported":1758136035,"current_range_meters":20000,"station_id":"","pricing_plan_id":"cebpf4jnsgd1na2vs0mg"},{"bike_id":"46ea44a3-16d5-484f-bb22-ccdade8c2fea","system_id":"levelo_inurba_marseille","lat":43.28423,"lon":5.37517,"is_reserved":false,"is_disabled":false,"rental_uris":{"android":"levelo://app?vid=46ea44a3-16d5-484f-bb22-ccdade8c2fea","ios":"levelo://app?vid=46ea44a3-16d5-484f-bb22-ccdade8c2fea"},"vehicle_type_id":"4","last_reported":1758136035,"current_range_meters":20400,"station_id":"ce4bh412rcd13ifvqds0","pricing_plan_id":"cebpf4jnsgd1na2vs0mg"},{"bike_id":"fc407023-5868-46e8-85cf-edd69ce1aa39","system_id":"levelo_inurba_marseille","lat":43.273105,"lon":5.390725,"is_reserved":false,"is_disabled":true,"rental_uris":{"android":"levelo://app?vid=fc407023-5868-46e8-85cf-edd69ce1aa39","ios":"levelo://app?vid=fc407023-5868-46e8-85cf-edd69ce1aa39"},"vehicle_type_id":"4","last_reported":1758136035,"current_range_meters":20400,"station_id":"","pricing_plan_id":"cebpf4jnsgd1na2vs0mg"},{"bike_id":"fc0c66cf-89b5-41c2-bfb3-5293141e1b08","system_id":"levelo_inurba_marseille","lat":43.28926,"lon":5.38404,"is_reserved":false,"is_disabled":false,"rental_uris":{"android":"levelo://app?vid=fc0c66cf-89b5-41c2-bfb3-5293141e1b08","ios":"levelo://app?vid=fc0c66cf-89b5-41c2-bfb3-5293141e1b08"},"vehicle_type_id":"4","last_reported":1758136035,"current_range_meters":20400,"station_id":"ce4bh612rcd13ifvqe6g","pricing_plan_id":"cebpf4jnsgd1na2vs0mg"},{"bike_id":"4bee38a1-2b14-4260-853d-0c2109938b59","system_id":"levelo_inurba_marseille","lat":43.29353,"lon":5.37857,"is_reserved":false,"is_disabled":false,"rental_uris":{"android":"levelo://app?vid=4bee38a1-2b14-4260-853d-0c2109938b59","ios":"levelo://app?vid=4bee38a1-2b14-4260-853d-0c2109938b59"},"vehicle_type_id":"4","last_reported":1758136035,"current_range_meters":20400,"station_id":"ce4bgjh2rcd13ifvqbf0","pricing_plan_id":"cebpf4jnsgd1na2vs0mg"},