{"last_updated":1767453028,"ttl":60,"version":"2.2","data":{"bikes":[{"bike_id":"aa4c0c3c-20a8-4dcd-8254-3a59efbed1dc","system_id":"levelo_inurba_marseille","lat":43.2842,"lon":5.38463,"is_reserved":false,"is_disabled":false,"rental_uris":{"android":"levelo://app?vid=aa4c0c3c-20a8-4dcd-8254-3a59efbed1dc","ios":"levelo://app?vid=aa4c0c3c-20a8-4dcd-8254-3a59efbed1dc"},"vehicle_type_id":"4","last_reported":1767453028,"current_range_meters":2800,"station_id":"","pricing_plan_id":"cebpf4jnsgd1na2vs0mg"},{"bike_id":"a7a6eabd-13e9-42c2-9f14-94ae5db641bf","system_id":"levelo_inurba_marseille","lat":43.296226,"lon":5.371469,"is_reserved":false,"is_disabled":false,"rental_uris":{"android":"levelo://app?vid=a7a6eabd-13e9-42c2-9f14-94ae5db641bf","ios":"levelo://app?vid=a7a6eabd-13e9-42c2-9f14-94ae5db641bf"},"vehicle_type_id":"4","last_reported":1767453028,"current_range_meters":2800,"station_id":"ce4bgnh2rcd13ifvqc0g","pricing_plan_id":"cebpf4jnsgd1na2vs0mg"},{"bike_id":"b7c65842-363d-43c4-92b2-529d07ea43d3","system_id":"levelo_inurba_marseille","lat":43.25838,"lon":5.39834,"is_reserved":false,"is_disabled":false,"rental_uris":{"android":"levelo://app?vid=b7c65842-363d-43c4-92b2-529d07ea43d3","ios":"levelo://app?vid=b7c65842-363d-43c4-92b2-529d07ea43d3"},"vehicle_type_id":"4","last_reported":1767453028,"current_range_meters":2800,"station_id":"","pricing_plan_id":"cebpf4jnsgd1na2vs0mg"},{"bike_id":"f82d391f-fa54-4944-99a1-f43326016a14","system_id":"levelo_inurba_marseille","lat":43.312797,"lon":5.368668,"is_reserved":false,"is_disabled":false,"rental_uris":{"android":"levelo://app?vid=f82d391f-fa54-4944-99a1-f43326016a14","ios":"levelo://app?vid=f82d391f-fa54-4944-99a1-f43326016a14"},"vehicle_type_id":"4","last_reported":1767453028,"current_range_meters":2800,"station_id":"ce4bhqp2rcd13ifvqhng","pricing_plan_id":"cebpf4jnsgd1na2vs0mg"},{"bike_id":"6049a014-8dc3-46e9-ba2a-e2d3fbe7afc4","system_id":"levelo_inurba_marseille","lat":43.225338,"lon":5.348366,"is_reserved":false,"is_disabled":false,"rental_uris":{"android":"levelo://app?vid=6049a014-8dc3-46e9-ba2a-e2d3fbe7afc4","ios":"levelo://app?vid=6049a014-8dc3-46e9-ba2a-e2d3fbe7afc4"},"vehicle_type_id":"4","last_reported":1767453028,"current_range_meters":2800,"station_id":"","pricing_plan_id":"cebpf4jnsgd1na2vs0mg"},{"bike_id":"50a1ce80-e2ae-4637-b1b3-c5d653d75cd1","system_id":"levelo_inurba_marseille","lat":43.31887,"lon":5.39028,"is_reserved":false,"is_disabled":true,"rental_uris":{"android":"levelo://app?vid=50a1ce80-e2ae-4637-b1b3-c5d653d75cd1","ios":"levelo://app?vid=50a1ce80-e2ae-4637-b1b3-c5d653d75cd1"},"vehicle_type_id":"4","last_reported":1767453028,"current_range_meters":2800,"station_id":"","pricing_plan_id":"cebpf4jnsgd1na2vs0mg"},{"bike_id":"d8431e58-d3e8-4456-9570-729e3ebbcc73","system_id":"levelo_inurba_marseille","lat":43.30165,"lon":5.37255,"is_reserved":false,"is_disabled":false,"rental_uris":{"android":"levelo://app?vid=d8431e58-d3e8-4456-9570-729e3ebbcc73","ios":"levelo://app?vid=d8431e58-d3e8-4456-9570-729e3ebbcc73"},"vehicle_type_id":"4","last_reported":1767453028,"current_range_meters":2800,"station_id":"","pricing_plan_id":"cebpf4jnsgd1na2vs0mg"},{"bike_id":"a025210a-5c73-4718-a422-960259065f2a","system_id":"levelo_inurba_marseille","lat":43.25484,"lon":5.37657,"is_reserved":false,"is_disabled":false,"rental_uris":{"android":"levelo://app?vid=a025210a-5c73-4718-a422-960259065f2a","ios":"levelo://app?vid=a025210a-5c73-4718-a422-960259065f2a"},"vehicle_type_id":"4","last_reported":1767453028,"current_range_meters":2800,"station_id":"ce4bhh12rcd13ifvqff0","pricing_plan_id":"cebpf4jnsgd1na2vs0mg"},{"bike_id":"185e0c2e-84e6-4755-93a3-88817b0eaaae","system_id":"levelo_inurba_marseille","lat":43.23796,"lon":5.36619,"is_reserved":false,"is_disabled":false,"rental_uris":{"android":"levelo://app?vid=185e0c2e-84e6-4755-93a3-88817b0eaaae","ios":"levelo://app?vid=185e0c2e-84e6-4755-93a3-88817b0eaaae"},"vehicle_type_id":"4","last_reported":1767453028,"current_range_meters":2800,"station_id":"st_d3nk18o9ro0c73en2l3g","pricing_plan_id":"cebpf4jnsgd1na2vs0mg"},{"bike_id":"4a92a9c2-b965-449a-ad6f-29719343a5f1","system_id":"levelo_inurba_marseille","lat":43.26219,"lon":5.37434,"is_reserved":false,"is_disabled":false,"rental_uris":{"android":"levelo://app?vid=4a92a9c2-b965-449a-ad6f-29719343a5f1","ios":"levelo://app?vid=4a92a9c2-b965-449a-ad6f-29719343a5f1"},"vehicle_type_id":"4","last_reported":1767453028,"current_range_meters":2800,"station_id":"ce4bhgp2rcd13ifvqfc0","pricing_plan_id":"cebpf4jnsgd1na2vs0mg"},{"bike_id":"0cff7cec-32b0-4078-b0c8-dedb04f97ad1","system_id":"levelo_inurba_marseille","lat":43.27174,"lon":5.40992,"is_reserved":false,"is_disabled":false,"rental_uris":{"android":"levelo://app?vid=0cff7cec-32b0-4078-b0c8-dedb04f97ad1","ios":"levelo://app?vid=0cff7cec-32b0-4078-b0c8-dedb04f97ad1"},"vehicle_type_id":"4","last_reported":1767453028,"current_range_meters":2800,"station_id":"ce4bhl12rcd13ifvqgf0","pricing_plan_id":"cebpf4jnsgd1na2vs0mg"},{"bike_id":"e0decbbd-66f2-41ff-95bf-ae2a7b2f4e23","system_id":"levelo_inurba_marseille","lat":43.28628,"lon":5.42647,"is_reserved":false,"is_disabled":false,"rental_uris":{"android":"levelo://app?vid=e0decbbd-66f2-41ff-95bf-ae2a7b2f4e23","ios":"levelo://app?vid=e0decbbd-66f2-41ff-95bf-ae2a7b2f4e23"},"vehicle_type_id":"4","last_reported":1767453028,"current_range_meters":2800,"station_id":"","pricing_plan_id":"cebpf4jnsgd1na2vs0mg"},{"bike_id":"22b53251-4eb8-4093-9e9c-b1944476d0d8","system_id":"levelo_inurba_marseille","lat":43.29874,"lon":5.3661,"is_reserved":false,"is_disabled":false,"rental_uris":{"android":"levelo://app?vid=22b53251-4eb8-4093-9e9c-b1944476d0d8","ios":"levelo://app?vid=22b53251-4eb8-4093-9e9c-b1944476d0d8"},"vehicle_type_id":"4","last_reported":1767453028,"current_range_meters":2800,"station_id":"","pricing_plan_id":"cebpf4jnsgd1na2vs0mg"},{"bike_id":"3ea63038-6c6b-45f0-b75e-c21acaf1cee5","system_id":"levelo_inurba_marseille","lat":43.27406,"lon":5.39367,"is_reserved":false,"is_disabled":false,"rental_uris":{"android":"levelo://app?vid=3ea63038-6c6b-45f0-b75e-c21acaf1cee5","ios":"levelo://app?vid=3ea63038-6c6b-45f0-b75e-c21acaf1cee5"},"vehicle_type_id":"4","last_reported":1767453028,"current_range_meters":2800,"station_id":"ce4bhdp2rcd13ifvqf20","pricing_plan_id":"cebpf4jnsgd1na2vs0mg"},{"bike_id":"4e9b7826-9833-4a84-8916-93badf36f6d2","system_id":"levelo_inurba_marseille","lat":43.225351,"lon":5.348319,"is_reserved":false,"is_disabled":false,"rental_uris":{"android":"levelo://app?vid=4e9b7826-9833-4a84-8916-93badf36f6d2","ios":"levelo://app?vid=4e9b7826-9833-4a84-8916-93badf36f6d2"},"vehicle_type_id":"4","last_reported":1767453028,"current_range_meters":3200,"station_id":"","pricing_plan_id":"cebpf4jnsgd1na2vs0mg"},{"bike_id":"2d42aa17-c3b7-4399-a80f-3190c91cb12e","system_id":"levelo_inurba_marseille","lat":43.29817,"lon":5.44057,"is_reserved":false,"is_disabled":false,"rental_uris":{"android":"levelo://app?vid=2d42aa17-c3b7-4399-a80f-3190c91cb12e","ios":"levelo://app?vid=2d42aa17-c3b7-4399-a80f-3190c91cb12e"},"vehicle_type_id":"4","last_reported":1767453028,"current_range_meters":3200,"station_id":"st_d3jp68qikq2c7381ktn0","pricing_plan_id":"cebpf4jnsgd1na2vs0mg"},{"bike_id":"e385eb1b-cb1e-49e6-8e0d-4d906b7d149f","system_id":"levelo_inurba_marseille","lat":43.23957,"lon":5.36645,"is_reserved":false,"is_disabled":true,"rental_uris":{"android":"levelo://app?vid=e385eb1b-cb1e-49e6-8e0d-4d906b7d149f","ios":"levelo://app?vid=e385eb1b-cb1e-49e6-8e0d-4d906b7d149f"},"vehicle_type_id":"4","last_reported":1767453028,"current_range_meters":3200,"station_id":"ce4bhi12rcd13ifvqfp0","pricing_plan_id":"cebpf4jnsgd1na2vs0mg"},{"bike_id":"9f721257-6fa9-436e-8f16-6a8001a4f6af","system_id":"levelo_inurba_marseille","lat":43.26554,"lon":5.37284,"is_reserved":false,"is_disabled":false,"rental_uris":{"android":"levelo://app?vid=9f721257-6fa9-436e-8f16-6a8001a4f6af","ios":"levelo://app?vid=9f721257-6fa9-436e-8f16-6a8001a4f6af"},"vehicle_type_id":"4","last_reported":1767453028,"current_range_meters":3200,"station_id":"ce4bhg12rcd13ifvqf70","pricing_plan_id":"cebpf4jnsgd1na2vs0mg"},{"bike_id":"79c656c5-35a3-4d68-80a9-b73151c9016f","system_id":"levelo_inurba_marseille","lat":43.24952,"lon":5.40489,"is_reserved":false,"is_disabled":false,"rental_uris":{"android":"levelo://app?vid=79c656c5-35a3-4d68-80a9-b73151c9016f","ios":"levelo://app?vid=79c656c5-35a3-4d68-80a9-b73151c9016f"},"vehicle_type_id":"4","last_reported":1767453028,"current_range_meters":3200,"station_id":"st_d2ngiaodas8pm72gd1h0","pricing_plan_id":"cebpf4jnsgd1na2vs0mg"},{"bike_id":"081e0fab-3d03-4c48-bb94-cc3c47c837cb","system_id":"levelo_inurba_marseille","lat":43.23066,"lon":5.3549,"is_reserved":false,"is_disabled":true,"rental_uris":{"android":"levelo://app?vid=081e0fab-3d03-4c48-bb94-cc3c47c837cb","ios":"levelo://app?vid=081e0fab-3d03-4c48-bb94-cc3c47c837cb"},"vehicle_type_id":"4","last_reported":1767453028,"current_range_meters":3200,"station_id":"cpo3342slgdg3j2ifvpg","pricing_plan_id":"cebpf4jnsgd1na2vs0mg"},{"bike_id":"b888fc2a-374f-4aa3-9e59-27f51e7b7aeb","system_id":"levelo_inurba_marseille","lat":43.217475,"lon":5.345974,"is_reserved":false,"is_disabled":false,"rental_uris":{"android":"levelo://app?vid=b888fc2a-374f-4aa3-9e59-27f51e7b7aeb","ios":"levelo://app?vid=b888fc2a-374f-4aa3-9e59-27f51e7b7aeb"},"vehicle_type_id":"4","last_reported":1767453028,"current_range_meters":3200,"station_id":"","pricing_plan_id":"cebpf4jnsgd1na2vs0mg"},{"bike_id":"bfaad6e5-f911-4d86-852a-ebe818f35ee7","system_id":"levelo_inurba_marseille","lat":43.21886,"lon":5.34437,"is_reserved":false,"is_disabled":false,"rental_uris":{"android":"levelo://app?vid=bfaad6e5-f911-4d86-852a-ebe818f35ee7","ios":"levelo://app?vid=bfaad6e5-f911-4d86-852a-ebe818f35ee7"},"vehicle_type_id":"4","last_reported":1767453028,"current_range_meters":3200,"station_id":"","pricing_plan_id":"cebpf4jnsgd1na2vs0mg"},{"bike_id":"8aaa8168-ff37-46d5-9fd2-4087a72ee2c2","system_id":"levelo_inurba_marseille","lat":43.24167,"lon":5.36394,"is_reserved":false,"is_disabled":false,"rental_uris":{"android":"levelo://app?vid=8aaa8168-ff37-46d5-9fd2-4087a72ee2c2","ios":"levelo://app?vid=8aaa8168-ff37-46d5-9fd2-4087a72ee2c2"},"vehicle_type_id":"4","last_reported":1767453028,"current_range_meters":3200,"station_id":"cpo36qri1sfpv3e86is0","pricing_plan_id":"cebpf4jnsgd1na2vs0mg"},{"bike_id":"f89a7ab5-4f10-40db-80a7-7c57c53bb059","system_id":"levelo_inurba_marseille","lat":43.2672,"lon":5.40671,"is_reserved":false,"is_disabled":false,"rental_uris":{"android":"levelo://app?vid=f89a7ab5-4f10-40db-80a7-7c57c53bb059","ios":"levelo://app?vid=f89a7ab5-4f10-40db-80a7-7c57c53bb059"},"vehicle_type_id":"4","last_reported":1767453028,"current_range_meters":3200,"station_id":"","pricing_plan_id":"cebpf4jnsgd1na2vs0mg"},{"bike_id":"465c2aa7-1647-4624-b6ed-1f27d58d95fd","system_id":"levelo_inurba_marseille","lat":43.28522,"lon":5.441,"is_reserved":false,"is_disabled":false,"rental_uris":{"android":"levelo://app?vid=465c2aa7-1647-4624-b6ed-1f27d58d95fd","ios":"levelo://app?vid=465c2aa7-1647-4624-b6ed-1f27d58d95fd"},"vehicle_type_id":"4","last_reported":1767453028,"current_range_meters":3200,"station_id":"st_d3j3df2ikq2c7380ej80","pricing_plan_id":"cebpf4jnsgd1na2vs0mg"},{"bike_id":"edb9be2e-76cb-4cde-a2cb-ab8263d16ece","system_id":"levelo_inurba_marseille","lat":43.29964,"lon":5.38493,"is_reserved":false,"is_disabled":false,"rental_uris":{"android":"levelo://app?vid=edb9be2e-76cb-4cde-a2cb-ab8263d16ece","ios":"levelo://app?vid=edb9be2e-76cb-4cde-a2cb-ab8263d16ece"},"vehicle_type_id":"4","last_reported":1767453028,"current_range_meters":3200,"station_id":"ce4bgj92rcd13ifvqbd0","pricing_plan_id":"cebpf4jnsgd1na2vs0mg"},{"bike_id":"ad04117d-b152-4ebe-9d0d-f71c42ab46e0","system_id":"levelo_inurba_marseille","lat":43.295703,"lon":5.375049,"is_reserved":false,"is_disabled":false,"rental_uris":{"android":"levelo://app?vid=ad04117d-b152-4ebe-9d0d-f71c42ab46e0","ios":"levelo://app?vid=ad04117d-b152-4ebe-9d0d-f71c42ab46e0"},"vehicle_type_id":"4","last_reported":1767453028,"current_range_meters":3200,"station_id":"ce4bgh92rcd13ifvqb50","pricing_plan_id":"cebpf4jnsgd1na2vs0mg"},{"bike_id":"81640354-1fdb-4e0c-8b2a-c31f90862a44","system_id":"levelo_inurba_marseille","lat":43.30504,"lon":5.39421,"is_reserved":false,"is_disabled":false,"rental_uris":{"android":"levelo://app?vid=81640354-1fdb-4e0c-8b2a-c31f90862a44","ios":"levelo://app?vid=81640354-1fdb-4e0c-8b2a-c31f90862a44"},"vehicle_type_id":"4","last_reported":1767453028,"current_range_meters":3200,"station_id":"","pricing_plan_id":"cebpf4jnsgd1na2vs0mg"},{"bike_id":"a028f22a-7855-4b12-a426-9cb940dba865","system_id":"levelo_inurba_marseille","lat":43.22565,"lon":5.41625,"is_reserved":false,"is_disabled":false,"rental_uris":{"android":"levelo://app?vid=a028f22a-7855-4b12-a426-9cb940dba865","ios":"levelo://app?vid=a028f22a-7855-4b12-a426-9cb940dba865"},"vehicle_type_id":"4","last_reported":1767453028,"current_range_meters":3600,"station_id":"st_d2o4gvlbi1j2169b742g","pricing_plan_id":"cebpf4jnsgd1na2vs0mg"},{"bike_id":"b62193e6-744b-4181-8bcc-23d13e78d12b","system_id":"levelo_inurba_marseille","lat":43.26558,"lon":5.40318,"is_reserved":false,"is_disabled":false,"rental_uris":{"android":"levelo://app?vid=b62193e6-744b-4181-8bcc-23d13e78d12b","ios":"levelo://app?vid=b62193e6-744b-4181-8bcc-23d13e78d12b"},"vehicle_type_id":"4","last_reported":1767453028,"current_range_meters":3600,"station_id":"ce4bhmp2rcd13ifvqgng","pricing_plan_id":"cebpf4jnsgd1na2vs0mg"},{"bike_id":"d17e6fe2-7a1e-4970-bf2f-cb8626ca5cf3","system_id":"levelo_inurba_marseille","lat":43.28618,"lon":5.3508,"is_reserved":false,"is_disabled":false,"rental_uris":{"android":"levelo://app?vid=d17e6fe2-7a1e-4970-bf2f-cb8626ca5cf3","ios":"levelo://app?vid=d17e6fe2-7a1e-4970-bf2f-cb8626ca5cf3"},"vehicle_type_id":"4","last_reported":1767453028,"current_range_meters":3600,"station_id":"ce4bhch2rcd13ifvqeug","pricing_plan_id":"cebpf4jnsgd1na2vs0mg"},{"bike_id":"25f1743a-a2b2-454e-84ce-5c43f5ea30d3","system_id":"levelo_inurba_marseille","lat":43.29888,"lon":5.43643,"is_reserved":false,"is_disabled":true,"rental_uris":{"android":"levelo://app?vid=25f1743a-a2b2-454e-84ce-5c43f5ea30d3","ios":"levelo://app?vid=25f1743a-a2b2-454e-84ce-5c43f5ea30d3"},"vehicle_type_id":"4","last_reported":1767453028,"current_range_meters":3600,"station_id":"ce4bhpp2rcd13ifvqhfg","pricing_plan_id":"cebpf4jnsgd1na2vs0mg"},{"bike_id":"7eb527da-1a9a-480a-a474-299b2b0b83bd","system_id":"levelo_inurba_marseille","lat":43.25736,"lon":5.41081,"is_reserved":false,"is_disabled":false,"rental_uris":{"android":"levelo://app?vid=7eb527da-1a9a-480a-a474-299b2b0b83bd","ios":"levelo://app?vid=7eb527da-1a9a-480a-a474-299b2b0b83bd"},"vehicle_type_id":"4","last_reported":1767453028,"current_range_meters":3600,"station_id":"ce4bhkp2rcd13ifvqgd0","pricing_plan_id":"cebpf4jnsgd1na2vs0mg"},{"bike_id":"42d77009-fa58-4df2-b896-ba647ada43e5","system_id":"levelo_inurba_marseille","lat":43.27898,"lon":5.4047,"is_reserved":false,"is_disabled":false,"rental_uris":{"android":"levelo://app?vid=42d77009-fa58-4df2-b896-ba647ada43e5","ios":"levelo://app?vid=42d77009-fa58-4df2-b896-ba647ada43e5"},"vehicle_type_id":"4","last_reported":1767453028,"current_range_meters":3600,"station_id":"","pricing_plan_id":"cebpf4jnsgd1na2vs0mg"},{"bike_id":"83e50346-c21e-466e-8922-aea3198152db","system_id":"levelo_inurba_marseille","lat":43.23778,"lon":5.36643,"is_reserved":false,"is_disabled":false,"rental_uris":{"android":"levelo://app?vid=83e50346-c21e-466e-8922-aea3198152db","ios":"levelo://app?vid=83e50346-c21e-466e-8922-aea3198152db"},"vehicle_type_id":"4","last_reported":1767453028,"current_range_meters":3600,"station_id":"st_d3nk18o9ro0c73en2l3g","pricing_plan_id":"cebpf4jnsgd1na2vs0mg"},{"bike_id":"8003050f-3f3d-4c40-a348-05d4a5117e5a","system_id":"levelo_inurba_marseille","lat":43.311748,"lon":5.38737,"is_reserved":false,"is_disabled":false,"rental_uris":{"android":"levelo://app?vid=8003050f-3f3d-4c40-a348-05d4a5117e5a","ios":"levelo://app?vid=8003050f-3f3d-4c40-a348-05d4a5117e5a"},"vehicle_type_id":"4","last_reported":1767453028,"current_range_meters":3600,"station_id":"","pricing_plan_id":"cebpf4jnsgd1na2vs0mg"},{"bike_id":"264f6b0f-68ed-483a-a0c0-7b40e6e8d241","system_id":"levelo_inurba_marseille","lat":43.29257,"lon":5.38442,"is_reserved":false,"is_disabled":true,"rental_uris":{"android":"levelo://app?vid=264f6b0f-68ed-483a-a0c0-7b40e6e8d241","ios":"levelo://app?vid=264f6b0f-68ed-483a-a0c0-7b40e6e8d241"},"vehicle_type_id":"4","last_reported":1767453028,"current_range_meters":4000,"station_id":"ce4bh692rcd13ifvqea0","pricing_plan_id":"cebpf4jnsgd1na2vs0mg"},{"bike_id":"9feea015-e373-4e65-a8f2-66772efb3348","system_id":"levelo_inurba_marseille","lat":43.24756,"lon":5.37608,"is_reserved":false,"is_disabled":false,"rental_uris":{"android":"levelo://app?vid=9feea015-e373-4e65-a8f2-66772efb3348","ios":"levelo://app?vid=9feea015-e373-4e65-a8f2-66772efb3348"},"vehicle_type_id":"4","last_reported":1767453028,"current_range_meters":4000,"station_id":"","pricing_plan_id":"cebpf4jnsgd1na2vs0mg"},{"bike_id":"60a24bfa-71d1-4394-8423-89ffbc06474e","system_id":"levelo_inurba_marseille","lat":43.30283,"lon":5.37655,"is_reserved":false,"is_disabled":false,"rental_uris":{"android":"levelo://app?vid=60a24bfa-71d1-4394-8423-89ffbc06474e","ios":"levelo://app?vid=60a24bfa-71d1-4394-8423-89ffbc06474e"},"vehicle_type_id":"4","last_reported":1767453028,"current_range_meters":4000,"station_id":"ce4bguh2rcd13ifvqcj0","pricing_plan_id":"cebpf4jnsgd1na2vs0mg"},{"bike_id":"b6b7a146-8a76-4eb7-abd8-58e5d94b3994","system_id":"levelo_inurba_marseille","lat":43.24653,"lon":5.43136,"is_reserved":false,"is_disabled":false,"rental_uris":{"android":"levelo://app?vid=b6b7a146-8a76-4eb7-abd8-58e5d94b3994","ios":"levelo://app?vid=b6b7a146-8a76-4eb7-abd8-58e5d94b3994"},"vehicle_type_id":"4","last_reported":1767453028,"current_range_meters":4000,"station_id":"st_d2m6c4gdas8pm72e190g","pricing_plan_id":"cebpf4jnsgd1na2vs0mg"},{"bike_id":"b6633023-7126-4061-b725-029707af05dd","system_id":"levelo_inurba_marseille","lat":43.28085,"lon":5.39661,"is_reserved":false,"is_disabled":false,"rental_uris":{"android":"levelo://app?vid=b6633023-7126-4061-b725-029707af05dd","ios":"levelo://app?vid=b6633023-7126-4061-b725-029707af05dd"},"vehicle_type_id":"4","last_reported":1767453028,"current_range_meters":4000,"station_id":"ce4bho12rcd13ifvqh2g","pricing_plan_id":"cebpf4jnsgd1na2vs0mg"},{"bike_id":"8e008a1d-2d53-44d3-9066-d926a201f02b","system_id":"levelo_inurba_marseille","lat":43.269328,"lon":5.389205,"is_reserved":false,"is_disabled":false,"rental_uris":{"android":"levelo://app?vid=8e008a1d-2d53-44d3-9066-d926a201f02b","ios":"levelo://app?vid=8e008a1d-2d53-44d3-9066-d926a201f02b"},"vehicle_type_id":"4","last_reported":1767453028,"current_range_meters":4000,"station_id":"ce4bhhh2rcd13ifvqfl0","pricing_plan_id":"cebpf4jnsgd1na2vs0mg"},{"bike_id":"ebdd5f34-7c05-4142-b108-09bf63aa8869","system_id":"levelo_inurba_marseille","lat":43.28871,"lon":5.42522,"is_reserved":false,"is_disabled":false,"rental_uris":{"android":"levelo://app?vid=ebdd5f34-7c05-4142-b108-09bf63aa8869","ios":"levelo://app?vid=ebdd5f34-7c05-4142-b108-09bf63aa8869"},"vehicle_type_id":"4","last_reported":1767453028,"current_range_meters":4000,"station_id":"st_d3b462108ojc7389ooeg","pricing_plan_id":"cebpf4jnsgd1na2vs0mg"},{"bike_id":"dab6d164-1bd4-4181-8358-90a690239230","system_id":"levelo_inurba_marseille","lat":43.30908,"lon":5.36839,"is_reserved":false,"is_disabled":false,"rental_uris":{"android":"levelo://app?vid=dab6d164-1bd4-4181-8358-90a690239230","ios":"levelo://app?vid=dab6d164-1bd4-4181-8358-90a690239230"},"vehicle_type_id":"4","last_reported":1767453028,"current_range_meters":4000,"station_id":"ce4bgn92rcd13ifvqbvg","pricing_plan_id":"cebpf4jnsgd1na2vs0mg"},{"bike_id":"1b60d7d2-7dac-4782-8161-2cd8d0681db6","system_id":"levelo_inurba_marseille","lat":43.27379,"lon":5.36265,"is_reserved":false,"is_disabled":false,"rental_uris":{"android":"levelo://app?vid=1b60d7d2-7dac-4782-8161-2cd8d0681db6","ios":"levelo://app?vid=1b60d7d2-7dac-4782-8161-2cd8d0681db6"},"vehicle_type_id":"4","last_reported":1767453028,"current_range_meters":4000,"station_id":"ce4bhbh2rcd13ifvqeo0","pricing_plan_id":"cebpf4jnsgd1na2vs0mg"},{"bike_id":"1c049e5b-b3eb-4985-9f60-a621f5ea8094","system_id":"levelo_inurba_marseille","lat":43.29983,"lon":5.40322,"is_reserved":false,"is_disabled":false,"rental_uris":{"android":"levelo://app?vid=1c049e5b-b3eb-4985-9f60-a621f5ea8094","ios":"levelo://app?vid=1c049e5b-b3eb-4985-9f60-a621f5ea8094"},"vehicle_type_id":"4","last_reported":1767453028,"current_range_meters":4000,"station_id":"","pricing_plan_id":"cebpf4jnsgd1na2vs0mg"},{"bike_id":"a6b30b96-6422-4f6a-a539-620dc43a669f","system_id":"levelo_inurba_marseille","lat":43.2854,"lon":5.44099,"is_reserved":false,"is_disabled":false,"rental_uris":{"android":"levelo://app?vid=a6b30b96-6422-4f6a-a539-620dc43a669f","ios":"levelo://app?vid=a6b30b96-6422-4f6a-a539-620dc43a669f"},"vehicle_type_id":"4","last_reported":1767453028,"current_range_meters":4000,"station_id":"st_d3j3df2ikq2c7380ej80","pricing_plan_id":"cebpf4jnsgd1na2vs0mg"},{"bike_id":"b3d7e9be-4b0c-433d-a227-ff645aa619cb","system_id":"levelo_inurba_marseille","lat":43.23188,"lon":5.35543,"is_reserved":false,"is_disabled":false,"rental_uris":{"android":"levelo://app?vid=b3d7e9be-4b0c-433d-a227-ff645aa619cb","ios":"levelo://app?vid=b3d7e9be-4b0c-433d-a227-ff645aa619cb"},"vehicle_type_id":"4","last_reported":1767453028,"current_range_meters":4000,"station_id":"ce4bhu92rcd13ifvqi70","pricing_plan_id":"cebpf4jnsgd1na2vs0mg"},{"bike_id":"b7a7f393-bac1-4d3b-8526-e86a918344f7","system_id":"levelo_inurba_marseille","lat":43.23139,"lon":5.43719,"is_reserved":false,"is_disabled":false,"rental_uris":{"android":"levelo://app?vid=b7a7f393-bac1-4d3b-8526-e86a918344f7","ios":"levelo://app?vid=b7a7f393-bac1-4d3b-8526-e86a918344f7"},"vehicle_type_id":"4","last_reported":1767453028,"current_range_meters":4000,"station_id":"ce4bhmp2rcd13ifvqgog","pricing_plan_id":"cebpf4jnsgd1na2vs0mg"},{"bike_id":"10f3bcfa-52fd-4457-a83a-e6849d98ff8f","system_id":"levelo_inurba_marseille","lat":43.24944,"lon":5.40468,"is_reserved":false,"is_disabled":false,"rental_uris":{"android":"levelo://app?vid=10f3bcfa-52fd-4457-a83a-e6849d98ff8f","ios":"levelo://app?vid=10f3bcfa-52fd-4457-a83a-e6849d98ff8f"},"vehicle_type_id":"4","last_reported":1767453028,"current_range_meters":4400,"station_id":"st_d2ngiaodas8pm72gd1h0","pricing_plan_id":"cebpf4jnsgd1na2vs0mg"},{"bike_id":"649b874c-2158-4c53-8651-f5e61cfdd6d4","system_id":"levelo_inurba_marseille","lat":43.22538,"lon":5.34837,"is_reserved":false,"is_disabled":false,"rental_uris":{"android":"levelo://app?vid=649b874c-2158-4c53-8651-f5e61cfdd6d4","ios":"levelo://app?vid=649b874c-2158-4c53-8651-f5e61cfdd6d4"},"vehicle_type_id":"4","last_reported":1767453028,"current_range_meters":4400,"station_id":"","pricing_plan_id":"cebpf4jnsgd1na2vs0mg"},{"bike_id":"d315c333-f174-48b1-aaed-b6cca0a078d8","system_id":"levelo_inurba_marseille","lat":43.29227,"lon":5.36055,"is_reserved":false,"is_disabled":false,"rental_uris":{"android":"levelo://app?vid=d315c333-f174-48b1-aaed-b6cca0a078d8","ios":"levelo://app?vid=d315c333-f174-48b1-aaed-b6cca0a078d8"},"vehicle_type_id":"4","last_reported":1767453028,"current_range_meters":4400,"station_id":"ce4bhbh2rcd13ifvqeqg","pricing_plan_id":"cebpf4jnsgd1na2vs0mg"},{"bike_id":"3e9b8a52-1c26-4230-9ad9-77fb07c3ca7e","system_id":"levelo_inurba_marseille","lat":43.314971,"lon":5.373154,"is_reserved":false,"is_disabled":false,"rental_uris":{"android":"levelo://app?vid=3e9b8a52-1c26-4230-9ad9-77fb07c3ca7e","ios":"levelo://app?vid=3e9b8a52-1c26-4230-9ad9-77fb07c3ca7e"},"vehicle_type_id":"4","last_reported":1767453028,"current_range_meters":4400,"station_id":"","pricing_plan_id":"cebpf4jnsgd1na2vs0mg"},{"bike_id":"7fae1126-b1b6-44eb-af98-09f5131a7ed7","system_id":"levelo_inurba_marseille","lat":43.28273,"lon":5.35072,"is_reserved":false,"is_disabled":false,"rental_uris":{"android":"levelo://app?vid=7fae1126-b1b6-44eb-af98-09f5131a7ed7","ios":"levelo://app?vid=7fae1126-b1b6-44eb-af98-09f5131a7ed7"},"vehicle_type_id":"4","last_reported":1767453028,"current_range_meters":4400,"station_id":"ce4bhbp2rcd13ifvqerg","pricing_plan_id":"cebpf4jnsgd1na2vs0mg"},{"bike_id":"52586f3c-ad5f-4a4a-a857-4d898c856972","system_id":"levelo_inurba_marseille","lat":43.262102,"lon":5.374476,"is_reserved":false,"is_disabled":false,"rental_uris":{"android":"levelo://app?vid=52586f3c-ad5f-4a4a-a857-4d898c856972","ios":"levelo://app?vid=52586f3c-ad5f-4a4a-a857-4d898c856972"},"vehicle_type_id":"4","last_reported":1767453028,"current_range_meters":4400,"station_id":"ce4bhgp2rcd13ifvqfc0","pricing_plan_id":"cebpf4jnsgd1na2vs0mg"},{"bike_id":"74fab8ad-69e1-4e6c-bc56-090b8bdb9f5c","system_id":"levelo_inurba_marseille","lat":43.30609,"lon":5.37229,"is_reserved":false,"is_disabled":false,"rental_uris":{"android":"levelo://app?vid=74fab8ad-69e1-4e6c-bc56-090b8bdb9f5c","ios":"levelo://app?vid=74fab8ad-69e1-4e6c-bc56-090b8bdb9f5c"},"vehicle_type_id":"4","last_reported":1767453028,"current_range_meters":4800,"station_id":"ce4bgqh2rcd13ifvqc4g","pricing_plan_id":"cebpf4jnsgd1na2vs0mg"},{"bike_id":"0b4ae04b-456c-4d00-895b-9ef061b6db3f","system_id":"levelo_inurba_marseille","lat":43.260302,"lon":5.375491,"is_reserved":false,"is_disabled":false,"rental_uris":{"android":"levelo://app?vid=0b4ae04b-456c-4d00-895b-9ef061b6db3f","ios":"levelo://app?vid=0b4ae04b-456c-4d00-895b-9ef061b6db3f"},"vehicle_type_id":"4","last_reported":1767453028,"current_range_meters":4800,"station_id":"ce4bhgh2rcd13ifvqfa0","pricing_plan_id":"cebpf4jnsgd1na2vs0mg"},{"bike_id":"b1ea01e8-bfb1-4c5d-927e-78316f3a4fd0","system_id":"levelo_inurba_marseille","lat":43.24394,"lon":5.37072,"is_reserved":false,"is_disabled":false,"rental_uris":{"android":"levelo://app?vid=b1ea01e8-bfb1-4c5d-927e-78316f3a4fd0","ios":"levelo://app?vid=b1ea01e8-bfb1-4c5d-927e-78316f3a4fd0"},"vehicle_type_id":"4","last_reported":1767453028,"current_range_meters":4800,"station_id":"ce4bhhh2rcd13ifvqfk0","pricing_plan_id":"cebpf4jnsgd1na2vs0mg"},{"bike_id":"c7520a13-b022-4cba-860a-1d0a7964595c","system_id":"levelo_inurba_marseille","lat":43.23069,"lon":5.35493,"is_reserved":false,"is_disabled":false,"rental_uris":{"android":"levelo://app?vid=c7520a13-b022-4cba-860a-1d0a7964595c","ios":"levelo://app?vid=c7520a13-b022-4cba-860a-1d0a7964595c"},"vehicle_type_id":"4","last_reported":1767453028,"current_range_meters":4800,"station_id":"cpo3342slgdg3j2ifvpg","pricing_plan_id":"cebpf4jnsgd1na2vs0mg"},{"bike_id":"fdd9afc5-2105-47c4-9830-187ff572ca18","system_id":"levelo_inurba_marseille","lat":43.28264,"lon":5.35078,"is_reserved":false,"is_disabled":false,"rental_uris":{"android":"levelo://app?vid=fdd9afc5-2105-47c4-9830-187ff572ca18","ios":"levelo://app?vid=fdd9afc5-2105-47c4-9830-187ff572ca18"},"vehicle_type_id":"4","last_reported":1767453028,"current_range_meters":4800,"station_id":"ce4bhbp2rcd13ifvqerg","pricing_plan_id":"cebpf4jnsgd1na2vs0mg"},{"bike_id":"793e96b1-b3de-4fa2-ac20-161270d37920","system_id":"levelo_inurba_marseille","lat":43.32103,"lon":5.36765,"is_reserved":false,"is_disabled":false,"rental_uris":{"android":"levelo://app?vid=793e96b1-b3de-4fa2-ac20-161270d37920","ios":"levelo://app?vid=793e96b1-b3de-4fa2-ac20-161270d37920"},"vehicle_type_id":"4","last_reported":1767453028,"current_range_meters":4800,"station_id":"ce4bhrh2rcd13ifvqhug","pricing_plan_id":"cebpf4jnsgd1na2vs0mg"},{"bike_id":"3a346f56-8d74-4b01-9ca3-52cd0a16541d","system_id":"levelo_inurba_marseille","lat":43.2998,"lon":5.38497,"is_reserved":false,"is_disabled":false,"rental_uris":{"android":"levelo://app?vid=3a346f56-8d74-4b01-9ca3-52cd0a16541d","ios":"levelo://app?vid=3a346f56-8d74-4b01-9ca3-52cd0a16541d"},"vehicle_type_id":"4","last_reported":1767453028,"current_range_meters":4800,"station_id":"ce4bgj92rcd13ifvqbd0","pricing_plan_id":"cebpf4jnsgd1na2vs0mg"},{"bike_id":"eee4bf0d-fa3e-49db-aa40-908685ca30f9","system_id":"levelo_inurba_marseille","lat":43.2695,"lon":5.38632,"is_reserved":false,"is_disabled":false,"rental_uris":{"android":"levelo://app?vid=eee4bf0d-fa3e-49db-aa40-908685ca30f9","ios":"levelo://app?vid=eee4bf0d-fa3e-49db-aa40-908685ca30f9"},"vehicle_type_id":"4","last_reported":1767453028,"current_range_meters":4800,"station_id":"ce4bhh92rcd13ifvqfh0","pricing_plan_id":"cebpf4jnsgd1na2vs0mg"},{"bike_id":"650cf425-f87e-4c30-9156-354d5fef94cd","system_id":"levelo_inurba_marseille","lat":43.30116,"lon":5.36764,"is_reserved":false,"is_disabled":false,"rental_uris":{"android":"levelo://app?vid=650cf425-f87e-4c30-9156-354d5fef94cd","ios":"levelo://app?vid=650cf425-f87e-4c30-9156-354d5fef94cd"},"vehicle_type_id":"4","last_reported":1767453028,"current_range_meters":4800,"station_id":"","pricing_plan_id":"cebpf4jnsgd1na2vs0mg"},{"bike_id":"70863109-1d9f-4cf0-8c43-29a5e3efd5a3","system_id":"levelo_inurba_marseille","lat":43.28,"lon":5.40416,"is_reserved":false,"is_disabled":false,"rental_uris":{"android":"levelo://app?vid=70863109-1d9f-4cf0-8c43-29a5e3efd5a3","ios":"levelo://app?vid=70863109-1d9f-4cf0-8c43-29a5e3efd5a3"},"vehicle_type_id":"4","last_reported":1767453028,"current_range_meters":4800,"station_id":"","pricing_plan_id":"cebpf4jnsgd1na2vs0mg"},{"bike_id":"fc819341-147a-4cc3-959f-438bff95ed9d","system_id":"levelo_inurba_marseille","lat":43.29592,"lon":5.36752,"is_reserved":false,"is_disabled":false,"rental_uris":{"android":"levelo://app?vid=fc819341-147a-4cc3-959f-438bff95ed9d","ios":"levelo://app?vid=fc819341-147a-4cc3-959f-438bff95ed9d"},"vehicle_type_id":"4","last_reported":1767453028,"current_range_meters":4800,"station_id":"ce4bgph2rcd13ifvqc2g","pricing_plan_id":"cebpf4jnsgd1na2vs0mg"},{"bike_id":"0d6bb5ad-dcd1-405b-b68d-99b30db1c271","system_id":"levelo_inurba_marseille","lat":43.27856,"lon":5.38598,"is_reserved":false,"is_disabled":false,"rental_uris":{"android":"levelo://app?vid=0d6bb5ad-dcd1-405b-b68d-99b30db1c271","ios":"levelo://app?vid=0d6bb5ad-dcd1-405b-b68d-99b30db1c271"},"vehicle_type_id":"4","last_reported":1767453028,"current_range_meters":4800,"station_id":"","pricing_plan_id":"cebpf4jnsgd1na2vs0mg"},{"bike_id":"c172882e-e5f8-4ba2-9d75-f1ecf186ed45","system_id":"levelo_inurba_marseille","lat":43.30531,"lon":5.36558,"is_reserved":false,"is_disabled":false,"rental_uris":{"android":"levelo://app?vid=c172882e-e5f8-4ba2-9d75-f1ecf186ed45","ios":"levelo://app?vid=c172882e-e5f8-4ba2-9d75-f1ecf186ed45"},"vehicle_type_id":"4","last_reported":1767453028,"current_range_meters":4800,"station_id":"ce4bgs12rcd13ifvqcag","pricing_plan_id":"cebpf4jnsgd1na2vs0mg"},{"bike_id":"a69f5702-a727-4e11-b236-d1f7b2ff1174","system_id":"levelo_inurba_marseille","lat":43.30808,"lon":5.43525,"is_reserved":false,"is_disabled":false,"rental_uris":{"android":"levelo://app?vid=a69f5702-a727-4e11-b236-d1f7b2ff1174","ios":"levelo://app?vid=a69f5702-a727-4e11-b236-d1f7b2ff1174"},"vehicle_type_id":"4","last_reported":1767453028,"current_range_meters":5600,"station_id":"","pricing_plan_id":"cebpf4jnsgd1na2vs0mg"},{"bike_id":"a29324ba-2eb0-4583-8e17-136bc1812f67","system_id":"levelo_inurba_marseille","lat":43.295277,"lon":5.390483,"is_reserved":false,"is_disabled":false,"rental_uris":{"android":"levelo://app?vid=a29324ba-2eb0-4583-8e17-136bc1812f67","ios":"levelo://app?vid=a29324ba-2eb0-4583-8e17-136bc1812f67"},"vehicle_type_id":"4","last_reported":1767453028,"current_range_meters":5600,"station_id":"ce4bh3p2rcd13ifvqdp0","pricing_plan_id":"cebpf4jnsgd1na2vs0mg"},{"bike_id":"b079a1b1-af34-461f-9192-c452835a78e4","system_id":"levelo_inurba_marseille","lat":43.299681,"lon":5.384813,"is_reserved":false,"is_disabled":false,"rental_uris":{"android":"levelo://app?vid=b079a1b1-af34-461f-9192-c452835a78e4","ios":"levelo://app?vid=b079a1b1-af34-461f-9192-c452835a78e4"},"vehicle_type_id":"4","last_reported":1767453028,"current_range_meters":5600,"station_id":"","pricing_plan_id":"cebpf4jnsgd1na2vs0mg"},{"bike_id":"61fae4ff-2397-4842-852a-e1069beef8c4","system_id":"levelo_inurba_marseille","lat":43.2856,"lon":5.44069,"is_reserved":false,"is_disabled":false,"rental_uris":{"android":"levelo://app?vid=61fae4ff-2397-4842-852a-e1069beef8c4","ios":"levelo://app?vid=61fae4ff-2397-4842-852a-e1069beef8c4"},"vehicle_type_id":"4","last_reported":1767453028,"current_range_meters":5600,"station_id":"st_d3j3df2ikq2c7380ej80","pricing_plan_id":"cebpf4jnsgd1na2vs0mg"},{"bike_id":"222fb9ec-2875-4ac5-9c40-850f5a12dca5","system_id":"levelo_inurba_marseille","lat":43.22553,"lon":5.41631,"is_reserved":false,"is_disabled":false,"rental_uris":{"android":"levelo://app?vid=222fb9ec-2875-4ac5-9c40-850f5a12dca5","ios":"levelo://app?vid=222fb9ec-2875-4ac5-9c40-850f5a12dca5"},"vehicle_type_id":"4","last_reported":1767453028,"current_range_meters":5600,"station_id":"st_d2o4gvlbi1j2169b742g","pricing_plan_id":"cebpf4jnsgd1na2vs0mg"},{"bike_id":"2db47115-808a-4ac8-910d-4c11dd79613c","system_id":"levelo_inurba_marseille","lat":43.26695,"lon":5.38262,"is_reserved":false,"is_disabled":false,"rental_uris":{"android":"levelo://app?vid=2db47115-808a-4ac8-910d-4c11dd79613c","ios":"levelo://app?vid=2db47115-808a-4ac8-910d-4c11dd79613c"},"vehicle_type_id":"4","last_reported":1767453028,"current_range_meters":5600,"station_id":"ce4bhg92rcd13ifvqf90","pricing_plan_id":"cebpf4jnsgd1na2vs0mg"},{"bike_id":"94f4585e-77eb-47a3-963e-6921392ebd70","system_id":"levelo_inurba_marseille","lat":43.2293,"lon":5.3538,"is_reserved":false,"is_disabled":false,"rental_uris":{"android":"levelo://app?vid=94f4585e-77eb-47a3-963e-6921392ebd70","ios":"levelo://app?vid=94f4585e-77eb-47a3-963e-6921392ebd70"},"vehicle_type_id":"4","last_reported":1767453028,"current_range_meters":5600,"station_id":"cpo3532slgdg3j2ikp40","pricing_plan_id":"cebpf4jnsgd1na2vs0mg"},{"bike_id":"d81a165e-1695-4f0e-8e23-d9fb582760c0","system_id":"levelo_inurba_marseille","lat":43.27053,"lon":5.40264,"is_reserved":false,"is_disabled":false,"rental_uris":{"android":"levelo://app?vid=d81a165e-1695-4f0e-8e23-d9fb582760c0","ios":"levelo://app?vid=d81a165e-1695-4f0e-8e23-d9fb582760c0"},"vehicle_type_id":"4","last_reported":1767453028,"current_range_meters":5600,"station_id":"ce4bhk92rcd13ifvqgc0","pricing_plan_id":"cebpf4jnsgd1na2vs0mg"},{"bike_id":"255e8648-2844-443f-8ef2-46cce11b777c","system_id":"levelo_inurba_marseille","lat":43.28424,"lon":5.34981,"is_reserved":false,"is_disabled":false,"rental_uris":{"android":"levelo://app?vid=255e8648-2844-443f-8ef2-46cce11b777c","ios":"levelo://app?vid=255e8648-2844-443f-8ef2-46cce11b777c"},"vehicle_type_id":"4","last_reported":1767453028,"current_range_meters":5600,"station_id":"ce4bhbh2rcd13ifvqepg","pricing_plan_id":"cebpf4jnsgd1na2vs0mg"},{"bike_id":"5b8e0877-74d0-4505-84b4-8c7975a373e7","system_id":"levelo_inurba_marseille","lat":43.29681,"lon":5.38018,"is_reserved":false,"is_disabled":false,"rental_uris":{"android":"levelo://app?vid=5b8e0877-74d0-4505-84b4-8c7975a373e7","ios":"levelo://app?vid=5b8e0877-74d0-4505-84b4-8c7975a373e7"},"vehicle_type_id":"4","last_reported":1767453028,"current_range_meters":5600,"station_id":"","pricing_plan_id":"cebpf4jnsgd1na2vs0mg"},{"bike_id":"ce86fdf6-e10c-40d8-8f1d-92c00382a5b2","system_id":"levelo_inurba_marseille","lat":43.24397,"lon":5.37052,"is_reserved":false,"is_disabled":false,"rental_uris":{"android":"levelo://app?vid=ce86fdf6-e10c-40d8-8f1d-92c00382a5b2","ios":"levelo://app?vid=ce86fdf6-e10c-40d8-8f1d-92c00382a5b2"},"vehicle_type_id":"4","last_reported":1767453028,"current_range_meters":5600,"station_id":"ce4bhhh2rcd13ifvqfk0","pricing_plan_id":"cebpf4jnsgd1na2vs0mg"},{"bike_id":"2aad5c19-7962-4a02-9f37-3368ef728fe6","system_id":"levelo_inurba_marseille","lat":43.27508,"lon":5.42454,"is_reserved":false,"is_disabled":false,"rental_uris":{"android":"levelo://app?vid=2aad5c19-7962-4a02-9f37-3368ef728fe6","ios":"levelo://app?vid=2aad5c19-7962-4a02-9f37-3368ef728fe6"},"vehicle_type_id":"4","last_reported":1767453028,"current_range_meters":6000,"station_id":"ce4bhn92rcd13ifvqgrg","pricing_plan_id":"cebpf4jnsgd1na2vs0mg"},{"bike_id":"ed66bf8a-0755-4214-ab92-16f8a5a8cb2f","system_id":"levelo_inurba_marseille","lat":43.29844,"lon":5.36271,"is_reserved":false,"is_disabled":false,"rental_uris":{"android":"levelo://app?vid=ed66bf8a-0755-4214-ab92-16f8a5a8cb2f","ios":"levelo://app?vid=ed66bf8a-0755-4214-ab92-16f8a5a8cb2f"},"vehicle_type_id":"4","last_reported":1767453028,"current_range_meters":6000,"station_id":"ce4bgpp2rcd13ifvqc3g","pricing_plan_id":"cebpf4jnsgd1na2vs0mg"},{"bike_id":"4278291f-1d21-4880-a0e3-52116de91cbe","system_id":"levelo_inurba_marseille","lat":43.2294,"lon":5.35364,"is_reserved":false,"is_disabled":false,"rental_uris":{"android":"levelo://app?vid=4278291f-1d21-4880-a0e3-52116de91cbe","ios":"levelo://app?vid=4278291f-1d21-4880-a0e3-52116de91cbe"},"vehicle_type_id":"4","last_reported":1767453028,"current_range_meters":6000,"station_id":"cpo3532slgdg3j2ikp40","pricing_plan_id":"cebpf4jnsgd1na2vs0mg"},{"bike_id":"5fa29f98-5fa2-4f07-b3da-54250996ebf5","system_id":"levelo_inurba_marseille","lat":43.28283,"lon":5.35088,"is_reserved":false,"is_disabled":false,"rental_uris":{"android":"levelo://app?vid=5fa29f98-5fa2-4f07-b3da-54250996ebf5","ios":"levelo://app?vid=5fa29f98-5fa2-4f07-b3da-54250996ebf5"},"vehicle_type_id":"4","last_reported":1767453028,"current_range_meters":6000,"station_id":"ce4bhbp2rcd13ifvqerg","pricing_plan_id":"cebpf4jnsgd1na2vs0mg"},{"bike_id":"83c93d47-f18b-4628-910f-4db9fa42d2c3","system_id":"levelo_inurba_marseille","lat":43.24661,"lon":5.38157,"is_reserved":false,"is_disabled":false,"rental_uris":{"android":"levelo://app?vid=83c93d47-f18b-4628-910f-4db9fa42d2c3","ios":"levelo://app?vid=83c93d47-f18b-4628-910f-4db9fa42d2c3"},"vehicle_type_id":"4","last_reported":1767453028,"current_range_meters":6000,"station_id":"ce4bhih2rcd13ifvqfr0","pricing_plan_id":"cebpf4jnsgd1na2vs0mg"},{"bike_id":"65131df1-0bed-43f7-938b-a392665de4f0","system_id":"levelo_inurba_marseille","lat":43.27062,"lon":5.42259,"is_reserved":false,"is_disabled":false,"rental_uris":{"android":"levelo://app?vid=65131df1-0bed-43f7-938b-a392665de4f0","ios":"levelo://app?vid=65131df1-0bed-43f7-938b-a392665de4f0"},"vehicle_type_id":"4","last_reported":1767453028,"current_range_meters":6000,"station_id":"ce4bhk92rcd13ifvqgb0","pricing_plan_id":"cebpf4jnsgd1na2vs0mg"},{"bike_id":"2e8adfc1-2e5a-4224-b522-d7f7bc616aa6","system_id":"levelo_inurba_marseille","lat":43.21742,"lon":5.34596,"is_reserved":false,"is_disabled":false,"rental_uris":{"android":"levelo://app?vid=2e8adfc1-2e5a-4224-b522-d7f7bc616aa6","ios":"levelo://app?vid=2e8adfc1-2e5a-4224-b522-d7f7bc616aa6"},"vehicle_type_id":"4","last_reported":1767453028,"current_range_meters":6000,"station_id":"st_cvj6r9ubvosntc0bgbag","pricing_plan_id":"cebpf4jnsgd1na2vs0mg"},{"bike_id":"67bf8f90-a5df-42e7-b267-9ae66edff758","system_id":"levelo_inurba_marseille","lat":43.3062,"lon":5.37621,"is_reserved":false,"is_disabled":false,"rental_uris":{"android":"levelo://app?vid=67bf8f90-a5df-42e7-b267-9ae66edff758","ios":"levelo://app?vid=67bf8f90-a5df-42e7-b267-9ae66edff758"},"vehicle_type_id":"4","last_reported":1767453028,"current_range_meters":6000,"station_id":"","pricing_plan_id":"cebpf4jnsgd1na2vs0mg"},{"bike_id":"eb776308-62b2-4bdc-b707-0ba4645374b5","system_id":"levelo_inurba_marseille","lat":43.24652,"lon":5.38892,"is_reserved":false,"is_disabled":false,"rental_uris":{"android":"levelo://app?vid=eb776308-62b2-4bdc-b707-0ba4645374b5","ios":"levelo://app?vid=eb776308-62b2-4bdc-b707-0ba4645374b5"},"vehicle_type_id":"4","last_reported":1767453028,"current_range_meters":6000,"station_id":"ce4bhg12rcd13ifvqf60","pricing_plan_id":"cebpf4jnsgd1na2vs0mg"},{"bike_id":"6f089a7e-e81b-483c-a174-dfec5ca5abcf","system_id":"levelo_inurba_marseille","lat":43.24078,"lon":5.37757,"is_reserved":false,"is_disabled":false,"rental_uris":{"android":"levelo://app?vid=6f089a7e-e81b-483c-a174-dfec5ca5abcf","ios":"levelo://app?vid=6f089a7e-e81b-483c-a174-dfec5ca5abcf"},"vehicle_type_id":"4","last_reported":1767453028,"current_range_meters":6000,"station_id":"ce4bhnp2rcd13ifvqgvg","pricing_plan_id":"cebpf4jnsgd1na2vs0mg"},{"bike_id":"2400078e-606d-48a2-a72c-1c7cac6d979d","system_id":"levelo_inurba_marseille","lat":43.30321,"lon":5.36915,"is_reserved":false,"is_disabled":false,"rental_uris":{"android":"levelo://app?vid=2400078e-606d-48a2-a72c-1c7cac6d979d","ios":"levelo://app?vid=2400078e-606d-48a2-a72c-1c7cac6d979d"},"vehicle_type_id":"4","last_reported":1767453028,"current_range_meters":6000,"station_id":"ce4bgqh2rcd13ifvqc5g","pricing_plan_id":"cebpf4jnsgd1na2vs0mg"},{"bike_id":"430881a2-ec0b-4a4c-b8c9-a5e85efe9cef","system_id":"levelo_inurba_marseille","lat":43.25579,"lon":5.38253,"is_reserved":false,"is_disabled":false,"rental_uris":{"android":"levelo://app?vid=430881a2-ec0b-4a4c-b8c9-a5e85efe9cef","ios":"levelo://app?vid=430881a2-ec0b-4a4c-b8c9-a5e85efe9cef"},"vehicle_type_id":"4","last_reported":1767453028,"current_range_meters":6000,"station_id":"ce4bhih2rcd13ifvqfs0","pricing_plan_id":"cebpf4jnsgd1na2vs0mg"},{"bike_id":"135f5aae-6876-4e42-bdaa-6c13991f4488","system_id":"levelo_inurba_marseille","lat":43.24165,"lon":5.36373,"is_reserved":false,"is_disabled":false,"rental_uris":{"android":"levelo://app?vid=135f5aae-6876-4e42-bdaa-6c13991f4488","ios":"levelo://app?vid=135f5aae-6876-4e42-bdaa-6c13991f4488"},"vehicle_type_id":"4","last_reported":1767453028,"current_range_meters":6000,"station_id":"cpo36qri1sfpv3e86is0","pricing_plan_id":"cebpf4jnsgd1na2vs0mg"},{"bike_id":"d412deb0-6ec3-42b4-ac65-14f0ea6939c7","system_id":"levelo_inurba_marseille","lat":43.25496,"lon":5.37646,"is_reserved":false,"is_disabled":false,"rental_uris":{"android":"levelo://app?vid=d412deb0-6ec3-42b4-ac65-14f0ea6939c7","ios":"levelo://app?vid=d412deb0-6ec3-42b4-ac65-14f0ea6939c7"},"vehicle_type_id":"4","last_reported":1767453028,"current_range_meters":6000,"station_id":"ce4bhh12rcd13ifvqff0","pricing_plan_id":"cebpf4jnsgd1na2vs0mg"},{"bike_id":"be34864a-9081-4de9-80b6-37a3cde517d0","system_id":"levelo_inurba_marseille","lat":43.28088,"lon":5.39652,"is_reserved":false,"is_disabled":false,"rental_uris":{"android":"levelo://app?vid=be34864a-9081-4de9-80b6-37a3cde517d0","ios":"levelo://app?vid=be34864a-9081-4de9-80b6-37a3cde517d0"},"vehicle_type_id":"4","last_reported":1767453028,"current_range_meters":6000,"station_id":"ce4bho12rcd13ifvqh2g","pricing_plan_id":"cebpf4jnsgd1na2vs0mg"},{"bike_id":"86b3ab90-56c2-4931-b543-c3a7edaf3cbe","system_id":"levelo_inurba_marseille","lat":43.2952,"lon":5.37505,"is_reserved":false,"is_disabled":false,"rental_uris":{"android":"levelo://app?vid=86b3ab90-56c2-4931-b543-c3a7edaf3cbe","ios":"levelo://app?vid=86b3ab90-56c2-4931-b543-c3a7edaf3cbe"},"vehicle_type_id":"4","last_reported":1767453028,"current_range_meters":6000,"station_id":"ce4bgkp2rcd13ifvqbmg","pricing_plan_id":"cebpf4jnsgd1na2vs0mg"},{"bike_id":"2be57466-a646-4f79-84c2-74019bc2d375","system_id":"levelo_inurba_marseille","lat":43.27941,"lon":5.41044,"is_reserved":false,"is_disabled":false,"rental_uris":{"android":"levelo://app?vid=2be57466-a646-4f79-84c2-74019bc2d375","ios":"levelo://app?vid=2be57466-a646-4f79-84c2-74019bc2d375"},"vehicle_type_id":"4","last_reported":1767453028,"current_range_meters":6400,"station_id":"ce4bhnp2rcd13ifvqh0g","pricing_plan_id":"cebpf4jnsgd1na2vs0mg"},{"bike_id":"254d6762-eb43-421e-8fab-2322b3287dad","system_id":"levelo_inurba_marseille","lat":43.279816,"lon":5.387351,"is_reserved":false,"is_disabled":false,"rental_uris":{"android":"levelo://app?vid=254d6762-eb43-421e-8fab-2322b3287dad","ios":"levelo://app?vid=254d6762-eb43-421e-8fab-2322b3287dad"},"vehicle_type_id":"4","last_reported":1767453028,"current_range_meters":6400,"station_id":"ce4bhg12rcd13ifvqf80","pricing_plan_id":"cebpf4jnsgd1na2vs0mg"},{"bike_id":"9255467e-14b4-4b38-a086-cb9c5423bc3f","system_id":"levelo_inurba_marseille","lat":43.29372,"lon":5.37859,"is_reserved":false,"is_disabled":false,"rental_uris":{"android":"levelo://app?vid=9255467e-14b4-4b38-a086-cb9c5423bc3f","ios":"levelo://app?vid=9255467e-14b4-4b38-a086-cb9c5423bc3f"},"vehicle_type_id":"4","last_reported":1767453028,"current_range_meters":6400,"station_id":"ce4bgjh2rcd13ifvqbf0","pricing_plan_id":"cebpf4jnsgd1na2vs0mg"},{"bike_id":"cacd189b-364d-4b1a-8882-a16ba27a8c11","system_id":"levelo_inurba_marseille","lat":43.23794,"lon":5.36638,"is_reserved":false,"is_disabled":false,"rental_uris":{"android":"levelo://app?vid=cacd189b-364d-4b1a-8882-a16ba27a8c11","ios":"levelo://app?vid=cacd189b-364d-4b1a-8882-a16ba27a8c11"},"vehicle_type_id":"4","last_reported":1767453028,"current_range_meters":6400,"station_id":"st_d3nk18o9ro0c73en2l3g","pricing_plan_id":"cebpf4jnsgd1na2vs0mg"},{"bike_id":"3439f9f8-20d2-45fb-b4eb-3febf12703e0","system_id":"levelo_inurba_marseille","lat":43.21753,"lon":5.34601,"is_reserved":false,"is_disabled":false,"rental_uris":{"android":"levelo://app?vid=3439f9f8-20d2-45fb-b4eb-3febf12703e0","ios":"levelo://app?vid=3439f9f8-20d2-45fb-b4eb-3febf12703e0"},"vehicle_type_id":"4","last_reported":1767453028,"current_range_meters":6400,"station_id":"st_cvj6r9ubvosntc0bgbag","pricing_plan_id":"cebpf4jnsgd1na2vs0mg"},{"bike_id":"2cd74853-5047-4511-932d-69e4273bcd1e","system_id":"levelo_inurba_marseille","lat":43.229275,"lon":5.353798,"is_reserved":false,"is_disabled":false,"rental_uris":{"android":"levelo://app?vid=2cd74853-5047-4511-932d-69e4273bcd1e","ios":"levelo://app?vid=2cd74853-5047-4511-932d-69e4273bcd1e"},"vehicle_type_id":"4","last_reported":1767453028,"current_range_meters":6400,"station_id":"cpo3532slgdg3j2ikp40","pricing_plan_id":"cebpf4jnsgd1na2vs0mg"},{"bike_id":"fff5ca22-56c1-42a5-9e0d-681d8274bfd9","system_id":"levelo_inurba_marseille","lat":43.29593,"lon":5.3811,"is_reserved":false,"is_disabled":false,"rental_uris":{"android":"levelo://app?vid=fff5ca22-56c1-42a5-9e0d-681d8274bfd9","ios":"levelo://app?vid=fff5ca22-56c1-42a5-9e0d-681d8274bfd9"},"vehicle_type_id":"4","last_reported":1767453028,"current_range_meters":6400,"station_id":"ce4bgl12rcd13ifvqbo0","pricing_plan_id":"cebpf4jnsgd1na2vs0mg"},{"bike_id":"85d43a0e-6a83-42b0-89b5-579254181fbe","system_id":"levelo_inurba_marseille","lat":43.310792,"lon":5.383457,"is_reserved":false,"is_disabled":false,"rental_uris":{"android":"levelo://app?vid=85d43a0e-6a83-42b0-89b5-579254181fbe","ios":"levelo://app?vid=85d43a0e-6a83-42b0-89b5-579254181fbe"},"vehicle_type_id":"4","last_reported":1767453028,"current_range_meters":6400,"station_id":"ce4bgv92rcd13ifvqcr0","pricing_plan_id":"cebpf4jnsgd1na2vs0mg"},{"bike_id":"b069e66b-3d24-44ee-a3b6-26964d74bee5","system_id":"levelo_inurba_marseille","lat":43.28023,"lon":5.40599,"is_reserved":false,"is_disabled":false,"rental_uris":{"android":"levelo://app?vid=b069e66b-3d24-44ee-a3b6-26964d74bee5","ios":"levelo://app?vid=b069e66b-3d24-44ee-a3b6-26964d74bee5"},"vehicle_type_id":"4","last_reported":1767453028,"current_range_meters":6400,"station_id":"","pricing_plan_id":"cebpf4jnsgd1na2vs0mg"},{"bike_id":"f67fdd8e-3a18-4359-8f12-09494150cb39","system_id":"levelo_inurba_marseille","lat":43.24399,"lon":5.37079,"is_reserved":false,"is_disabled":false,"rental_uris":{"android":"levelo://app?vid=f67fdd8e-3a18-4359-8f12-09494150cb39","ios":"levelo://app?vid=f67fdd8e-3a18-4359-8f12-09494150cb39"},"vehicle_type_id":"4","last_reported":1767453028,"current_range_meters":6400,"station_id":"ce4bhhh2rcd13ifvqfk0","pricing_plan_id":"cebpf4jnsgd1na2vs0mg"},{"bike_id":"9ac66994-272c-4446-9157-a3f28373efae","system_id":"levelo_inurba_marseille","lat":43.24626,"lon":5.43134,"is_reserved":false,"is_disabled":false,"rental_uris":{"android":"levelo://app?vid=9ac66994-272c-4446-9157-a3f28373efae","ios":"levelo://app?vid=9ac66994-272c-4446-9157-a3f28373efae"},"vehicle_type_id":"4","last_reported":1767453028,"current_range_meters":6400,"station_id":"st_d2m6c4gdas8pm72e190g","pricing_plan_id":"cebpf4jnsgd1na2vs0mg"},{"bike_id":"3ecab405-d6ca-4057-a83d-0721b8a2b9e2","system_id":"levelo_inurba_marseille","lat":43.25489,"lon":5.37645,"is_reserved":false,"is_disabled":false,"rental_uris":{"android":"levelo://app?vid=3ecab405-d6ca-4057-a83d-0721b8a2b9e2","ios":"levelo://app?vid=3ecab405-d6ca-4057-a83d-0721b8a2b9e2"},"vehicle_type_id":"4","last_reported":1767453028,"current_range_meters":6400,"station_id":"ce4bhh12rcd13ifvqff0","pricing_plan_id":"cebpf4jnsgd1na2vs0mg"},{"bike_id":"93e27f2e-18ba-40e2-aeee-5f11ac3d2fb5","system_id":"levelo_inurba_marseille","lat":43.29921,"lon":5.36538,"is_reserved":false,"is_disabled":false,"rental_uris":{"android":"levelo://app?vid=93e27f2e-18ba-40e2-aeee-5f11ac3d2fb5","ios":"levelo://app?vid=93e27f2e-18ba-40e2-aeee-5f11ac3d2fb5"},"vehicle_type_id":"4","last_reported":1767453028,"current_range_meters":6400,"station_id":"ce4bgm92rcd13ifvqbr0","pricing_plan_id":"cebpf4jnsgd1na2vs0mg"},{"bike_id":"02cb24cc-e062-4b73-80fd-141f91a697f7","system_id":"levelo_inurba_marseille","lat":43.31566,"lon":5.37649,"is_reserved":false,"is_disabled":false,"rental_uris":{"android":"levelo://app?vid=02cb24cc-e062-4b73-80fd-141f91a697f7","ios":"levelo://app?vid=02cb24cc-e062-4b73-80fd-141f91a697f7"},"vehicle_type_id":"4","last_reported":1767453028,"current_range_meters":6400,"station_id":"","pricing_plan_id":"cebpf4jnsgd1na2vs0mg"},{"bike_id":"0adbbbca-aa96-4359-84ce-770238edac5c","system_id":"levelo_inurba_marseille","lat":43.26957,"lon":5.38617,"is_reserved":false,"is_disabled":false,"rental_uris":{"android":"levelo://app?vid=0adbbbca-aa96-4359-84ce-770238edac5c","ios":"levelo://app?vid=0adbbbca-aa96-4359-84ce-770238edac5c"},"vehicle_type_id":"4","last_reported":1767453028,"current_range_meters":6400,"station_id":"ce4bhh92rcd13ifvqfh0","pricing_plan_id":"cebpf4jnsgd1na2vs0mg"},{"bike_id":"96aacd5c-303f-4a23-bce1-d9e6be6d7566","system_id":"levelo_inurba_marseille","lat":43.267762,"lon":5.394272,"is_reserved":false,"is_disabled":false,"rental_uris":{"android":"levelo://app?vid=96aacd5c-303f-4a23-bce1-d9e6be6d7566","ios":"levelo://app?vid=96aacd5c-303f-4a23-bce1-d9e6be6d7566"},"vehicle_type_id":"4","last_reported":1767453028,"current_range_meters":6800,"station_id":"ce4bhh12rcd13ifvqfg0","pricing_plan_id":"cebpf4jnsgd1na2vs0mg"},{"bike_id":"ddadb22a-87ae-403a-8f50-fcfddb4a2105","system_id":"levelo_inurba_marseille","lat":43.28473,"lon":5.38417,"is_reserved":false,"is_disabled":false,"rental_uris":{"android":"levelo://app?vid=ddadb22a-87ae-403a-8f50-fcfddb4a2105","ios":"levelo://app?vid=ddadb22a-87ae-403a-8f50-fcfddb4a2105"},"vehicle_type_id":"4","last_reported":1767453028,"current_range_meters":6800,"station_id":"ce4bh512rcd13ifvqe3g","pricing_plan_id":"cebpf4jnsgd1na2vs0mg"},{"bike_id":"e614cec8-6960-457b-8512-3755654f9453","system_id":"levelo_inurba_marseille","lat":43.28621,"lon":5.351,"is_reserved":false,"is_disabled":false,"rental_uris":{"android":"levelo://app?vid=e614cec8-6960-457b-8512-3755654f9453","ios":"levelo://app?vid=e614cec8-6960-457b-8512-3755654f9453"},"vehicle_type_id":"4","last_reported":1767453028,"current_range_meters":6800,"station_id":"ce4bhch2rcd13ifvqeug","pricing_plan_id":"cebpf4jnsgd1na2vs0mg"},{"bike_id":"c4132bbb-772e-48f0-90d7-cbd352ee8290","system_id":"levelo_inurba_marseille","lat":43.29616,"lon":5.37727,"is_reserved":false,"is_disabled":false,"rental_uris":{"android":"levelo://app?vid=c4132bbb-772e-48f0-90d7-cbd352ee8290","ios":"levelo://app?vid=c4132bbb-772e-48f0-90d7-cbd352ee8290"},"vehicle_type_id":"4","last_reported":1767453028,"current_range_meters":6800,"station_id":"ce4bgi92rcd13ifvqb90","pricing_plan_id":"cebpf4jnsgd1na2vs0mg"},{"bike_id":"76ec9d64-19dc-4eb3-b663-a577b9c95d4a","system_id":"levelo_inurba_marseille","lat":43.30138,"lon":5.37411,"is_reserved":false,"is_disabled":false,"rental_uris":{"android":"levelo://app?vid=76ec9d64-19dc-4eb3-b663-a577b9c95d4a","ios":"levelo://app?vid=76ec9d64-19dc-4eb3-b663-a577b9c95d4a"},"vehicle_type_id":"4","last_reported":1767453028,"current_range_meters":6800,"station_id":"ce4bgs92rcd13ifvqcc0","pricing_plan_id":"cebpf4jnsgd1na2vs0mg"},{"bike_id":"eaa366bf-7a72-4e10-a28b-31349d7b017f","system_id":"levelo_inurba_marseille","lat":43.2533,"lon":5.42169,"is_reserved":false,"is_disabled":false,"rental_uris":{"android":"levelo://app?vid=eaa366bf-7a72-4e10-a28b-31349d7b017f","ios":"levelo://app?vid=eaa366bf-7a72-4e10-a28b-31349d7b017f"},"vehicle_type_id":"4","last_reported":1767453028,"current_range_meters":6800,"station_id":"st_d2m65c5bi1j21697t3ng","pricing_plan_id":"cebpf4jnsgd1na2vs0mg"},{"bike_id":"0c228882-ba84-42af-9164-e1d2e93c6d3c","system_id":"levelo_inurba_marseille","lat":43.29793,"lon":5.39345,"is_reserved":false,"is_disabled":false,"rental_uris":{"android":"levelo://app?vid=0c228882-ba84-42af-9164-e1d2e93c6d3c","ios":"levelo://app?vid=0c228882-ba84-42af-9164-e1d2e93c6d3c"},"vehicle_type_id":"4","last_reported":1767453028,"current_range_meters":6800,"station_id":"chh1huq6cuj3fo74tm60","pricing_plan_id":"cebpf4jnsgd1na2vs0mg"},{"bike_id":"ccf38c3b-15e4-4fc7-942f-a16203e7d149","system_id":"levelo_inurba_marseille","lat":43.29028,"lon":5.38646,"is_reserved":false,"is_disabled":false,"rental_uris":{"android":"levelo://app?vid=ccf38c3b-15e4-4fc7-942f-a16203e7d149","ios":"levelo://app?vid=ccf38c3b-15e4-4fc7-942f-a16203e7d149"},"vehicle_type_id":"4","last_reported":1767453028,"current_range_meters":6800,"station_id":"ce4bh4p2rcd13ifvqe0g","pricing_plan_id":"cebpf4jnsgd1na2vs0mg"},{"bike_id":"3b391aa1-1907-4005-88cc-7a9ac12c81d0","system_id":"levelo_inurba_marseille","lat":43.23954,"lon":5.36635,"is_reserved":false,"is_disabled":false,"rental_uris":{"android":"levelo://app?vid=3b391aa1-1907-4005-88cc-7a9ac12c81d0","ios":"levelo://app?vid=3b391aa1-1907-4005-88cc-7a9ac12c81d0"},"vehicle_type_id":"4","last_reported":1767453028,"current_range_meters":6800,"station_id":"ce4bhi12rcd13ifvqfp0","pricing_plan_id":"cebpf4jnsgd1na2vs0mg"},{"bike_id":"7008e57e-5b7c-4543-8764-0e19e93f9732","system_id":"levelo_inurba_marseille","lat":43.29045,"lon":5.38118,"is_reserved":false,"is_disabled":false,"rental_uris":{"android":"levelo://app?vid=7008e57e-5b7c-4543-8764-0e19e93f9732","ios":"levelo://app?vid=7008e57e-5b7c-4543-8764-0e19e93f9732"},"vehicle_type_id":"4","last_reported":1767453028,"current_range_meters":6800,"station_id":"ce4bh4p2rcd13ifvqe1g","pricing_plan_id":"cebpf4jnsgd1na2vs0mg"},{"bike_id":"0c95dd9f-c660-4b76-b09f-1fe6a5fcdd5e","system_id":"levelo_inurba_marseille","lat":43.32362,"lon":5.36744,"is_reserved":false,"is_disabled":false,"rental_uris":{"android":"levelo://app?vid=0c95dd9f-c660-4b76-b09f-1fe6a5fcdd5e","ios":"levelo://app?vid=0c95dd9f-c660-4b76-b09f-1fe6a5fcdd5e"},"vehicle_type_id":"4","last_reported":1767453028,"current_range_meters":6800,"station_id":"ce4bhsh2rcd13ifvqi2g","pricing_plan_id":"cebpf4jnsgd1na2vs0mg"},{"bike_id":"1e895ccc-52e7-4971-b1eb-1726250f7268","system_id":"levelo_inurba_marseille","lat":43.22929,"lon":5.35381,"is_reserved":false,"is_disabled":false,"rental_uris":{"android":"levelo://app?vid=1e895ccc-52e7-4971-b1eb-1726250f7268","ios":"levelo://app?vid=1e895ccc-52e7-4971-b1eb-1726250f7268"},"vehicle_type_id":"4","last_reported":1767453028,"current_range_meters":6800,"station_id":"cpo3532slgdg3j2ikp40","pricing_plan_id":"cebpf4jnsgd1na2vs0mg"},{"bike_id":"21d2dfb4-401e-4105-8bb7-42805713be01","system_id":"levelo_inurba_marseille","lat":43.27934,"lon":5.41047,"is_reserved":false,"is_disabled":false,"rental_uris":{"android":"levelo://app?vid=21d2dfb4-401e-4105-8bb7-42805713be01","ios":"levelo://app?vid=21d2dfb4-401e-4105-8bb7-42805713be01"},"vehicle_type_id":"4","last_reported":1767453028,"current_range_meters":6800,"station_id":"ce4bhnp2rcd13ifvqh0g","pricing_plan_id":"cebpf4jnsgd1na2vs0mg"},{"bike_id":"8b720c35-4823-48af-825c-0c71ab5317be","system_id":"levelo_inurba_marseille","lat":43.2796,"lon":5.4104,"is_reserved":false,"is_disabled":true,"rental_uris":{"android":"levelo://app?vid=8b720c35-4823-48af-825c-0c71ab5317be","ios":"levelo://app?vid=8b720c35-4823-48af-825c-0c71ab5317be"},"vehicle_type_id":"4","last_reported":1767453028,"current_range_meters":6800,"station_id":"ce4bhnp2rcd13ifvqh0g","pricing_plan_id":"cebpf4jnsgd1na2vs0mg"},{"bike_id":"aafe2464-719d-4112-a955-384e87382311","system_id":"levelo_inurba_marseille","lat":43.297884,"lon":5.371015,"is_reserved":false,"is_disabled":false,"rental_uris":{"android":"levelo://app?vid=aafe2464-719d-4112-a955-384e87382311","ios":"levelo://app?vid=aafe2464-719d-4112-a955-384e87382311"},"vehicle_type_id":"4","last_reported":1767453028,"current_range_meters":6800,"station_id":"ce4bgop2rcd13ifvqc1g","pricing_plan_id":"cebpf4jnsgd1na2vs0mg"},{"bike_id":"1d9a7c60-a365-4c7d-9cb0-760278aec7df","system_id":"levelo_inurba_marseille","lat":43.28423,"lon":5.34993,"is_reserved":false,"is_disabled":false,"rental_uris":{"android":"levelo://app?vid=1d9a7c60-a365-4c7d-9cb0-760278aec7df","ios":"levelo://app?vid=1d9a7c60-a365-4c7d-9cb0-760278aec7df"},"vehicle_type_id":"4","last_reported":1767453028,"current_range_meters":6800,"station_id":"ce4bhbh2rcd13ifvqepg","pricing_plan_id":"cebpf4jnsgd1na2vs0mg"},{"bike_id":"59bca459-f8ba-4ca0-be09-8ae241edab81","system_id":"levelo_inurba_marseille","lat":43.33353,"lon":5.41114,"is_reserved":false,"is_disabled":false,"rental_uris":{"android":"levelo://app?vid=59bca459-f8ba-4ca0-be09-8ae241edab81","ios":"levelo://app?vid=59bca459-f8ba-4ca0-be09-8ae241edab81"},"vehicle_type_id":"4","last_reported":1767453028,"current_range_meters":6800,"station_id":"","pricing_plan_id":"cebpf4jnsgd1na2vs0mg"},{"bike_id":"7304dd23-e185-4b36-b681-fec4a7828f7d","system_id":"levelo_inurba_marseille","lat":43.24177,"lon":5.39722,"is_reserved":false,"is_disabled":false,"rental_uris":{"android":"levelo://app?vid=7304dd23-e185-4b36-b681-fec4a7828f7d","ios":"levelo://app?vid=7304dd23-e185-4b36-b681-fec4a7828f7d"},"vehicle_type_id":"4","last_reported":1767453028,"current_range_meters":6800,"station_id":"ce4bhn12rcd13ifvqgpg","pricing_plan_id":"cebpf4jnsgd1na2vs0mg"},{"bike_id":"aebae782-b3d0-4344-bcd0-c73188866b43","system_id":"levelo_inurba_marseille","lat":43.3046,"lon":5.37896,"is_reserved":false,"is_disabled":false,"rental_uris":{"android":"levelo://app?vid=aebae782-b3d0-4344-bcd0-c73188866b43","ios":"levelo://app?vid=aebae782-b3d0-4344-bcd0-c73188866b43"},"vehicle_type_id":"4","last_reported":1767453028,"current_range_meters":6800,"station_id":"ce4bgup2rcd13ifvqcn0","pricing_plan_id":"cebpf4jnsgd1na2vs0mg"},{"bike_id":"73b27b4f-31a0-4739-afbf-b9a30438935b","system_id":"levelo_inurba_marseille","lat":43.27672,"lon":5.38366,"is_reserved":false,"is_disabled":false,"rental_uris":{"android":"levelo://app?vid=73b27b4f-31a0-4739-afbf-b9a30438935b","ios":"levelo://app?vid=73b27b4f-31a0-4739-afbf-b9a30438935b"},"vehicle_type_id":"4","last_reported":1767453028,"current_range_meters":6800,"station_id":"","pricing_plan_id":"cebpf4jnsgd1na2vs0mg"},{"bike_id":"73746fc2-0cca-4d6b-bb1a-2cc0e5438612","system_id":"levelo_inurba_marseille","lat":43.25089,"lon":5.39532,"is_reserved":false,"is_disabled":false,"rental_uris":{"android":"levelo://app?vid=73746fc2-0cca-4d6b-bb1a-2cc0e5438612","ios":"levelo://app?vid=73746fc2-0cca-4d6b-bb1a-2cc0e5438612"},"vehicle_type_id":"4","last_reported":1767453028,"current_range_meters":6800,"station_id":"ce4bhm12rcd13ifvqgkg","pricing_plan_id":"cebpf4jnsgd1na2vs0mg"},{"bike_id":"e493b9f3-75a9-4b83-a37d-a0c34b5cbb80","system_id":"levelo_inurba_marseille","lat":43.24647,"lon":5.38906,"is_reserved":false,"is_disabled":false,"rental_uris":{"android":"levelo://app?vid=e493b9f3-75a9-4b83-a37d-a0c34b5cbb80","ios":"levelo://app?vid=e493b9f3-75a9-4b83-a37d-a0c34b5cbb80"},"vehicle_type_id":"4","last_reported":1767453028,"current_range_meters":6800,"station_id":"ce4bhg12rcd13ifvqf60","pricing_plan_id":"cebpf4jnsgd1na2vs0mg"},{"bike_id":"42d9e107-b2a6-4b81-b9a0-7db96c31f6d4","system_id":"levelo_inurba_marseille","lat":43.29369,"lon":5.37842,"is_reserved":false,"is_disabled":false,"rental_uris":{"android":"levelo://app?vid=42d9e107-b2a6-4b81-b9a0-7db96c31f6d4","ios":"levelo://app?vid=42d9e107-b2a6-4b81-b9a0-7db96c31f6d4"},"vehicle_type_id":"4","last_reported":1767453028,"current_range_meters":7200,"station_id":"ce4bgjh2rcd13ifvqbf0","pricing_plan_id":"cebpf4jnsgd1na2vs0mg"},{"bike_id":"62d99a00-3637-46ba-a6ee-d8aa40079683","system_id":"levelo_inurba_marseille","lat":43.29076,"lon":5.37186,"is_reserved":false,"is_disabled":false,"rental_uris":{"android":"levelo://app?vid=62d99a00-3637-46ba-a6ee-d8aa40079683","ios":"levelo://app?vid=62d99a00-3637-46ba-a6ee-d8aa40079683"},"vehicle_type_id":"4","last_reported":1767453028,"current_range_meters":7200,"station_id":"ce4bh5p2rcd13ifvqe4g","pricing_plan_id":"cebpf4jnsgd1na2vs0mg"},{"bike_id":"34f3a292-6f55-4da9-baea-9c8e3ef09af6","system_id":"levelo_inurba_marseille","lat":43.25501,"lon":5.37649,"is_reserved":false,"is_disabled":false,"rental_uris":{"android":"levelo://app?vid=34f3a292-6f55-4da9-baea-9c8e3ef09af6","ios":"levelo://app?vid=34f3a292-6f55-4da9-baea-9c8e3ef09af6"},"vehicle_type_id":"4","last_reported":1767453028,"current_range_meters":7200,"station_id":"ce4bhh12rcd13ifvqff0","pricing_plan_id":"cebpf4jnsgd1na2vs0mg"},{"bike_id":"8eda2336-e2b8-424c-a67b-8c6ba0520c23","system_id":"levelo_inurba_marseille","lat":43.2956,"lon":5.37522,"is_reserved":false,"is_disabled":false,"rental_uris":{"android":"levelo://app?vid=8eda2336-e2b8-424c-a67b-8c6ba0520c23","ios":"levelo://app?vid=8eda2336-e2b8-424c-a67b-8c6ba0520c23"},"vehicle_type_id":"4","last_reported":1767453028,"current_range_meters":7200,"station_id":"ce4bgh92rcd13ifvqb50","pricing_plan_id":"cebpf4jnsgd1na2vs0mg"},{"bike_id":"607f6356-92f4-49b1-8436-7911c576c661","system_id":"levelo_inurba_marseille","lat":43.292749,"lon":5.374135,"is_reserved":false,"is_disabled":false,"rental_uris":{"android":"levelo://app?vid=607f6356-92f4-49b1-8436-7911c576c661","ios":"levelo://app?vid=607f6356-92f4-49b1-8436-7911c576c661"},"vehicle_type_id":"4","last_reported":1767453028,"current_range_meters":7200,"station_id":"ce4bgi12rcd13ifvqb70","pricing_plan_id":"cebpf4jnsgd1na2vs0mg"},{"bike_id":"6af309a2-8f26-4463-a2f8-b68c7d811285","system_id":"levelo_inurba_marseille","lat":43.30841,"lon":5.37516,"is_reserved":false,"is_disabled":false,"rental_uris":{"android":"levelo://app?vid=6af309a2-8f26-4463-a2f8-b68c7d811285","ios":"levelo://app?vid=6af309a2-8f26-4463-a2f8-b68c7d811285"},"vehicle_type_id":"4","last_reported":1767453028,"current_range_meters":7200,"station_id":"","pricing_plan_id":"cebpf4jnsgd1na2vs0mg"},{"bike_id":"1cb07a07-9f8b-49b3-899d-e4d88daca5ff","system_id":"levelo_inurba_marseille","lat":43.26019,"lon":5.40747,"is_reserved":false,"is_disabled":false,"rental_uris":{"android":"levelo://app?vid=1cb07a07-9f8b-49b3-899d-e4d88daca5ff","ios":"levelo://app?vid=1cb07a07-9f8b-49b3-899d-e4d88daca5ff"},"vehicle_type_id":"4","last_reported":1767453028,"current_range_meters":7200,"station_id":"","pricing_plan_id":"cebpf4jnsgd1na2vs0mg"},{"bike_id":"dc9feb7e-742c-4c15-83bb-7db4fa4848d4","system_id":"levelo_inurba_marseille","lat":43.32845,"lon":5.36683,"is_reserved":false,"is_disabled":false,"rental_uris":{"android":"levelo://app?vid=dc9feb7e-742c-4c15-83bb-7db4fa4848d4","ios":"levelo://app?vid=dc9feb7e-742c-4c15-83bb-7db4fa4848d4"},"vehicle_type_id":"4","last_reported":1767453028,"current_range_meters":7200,"station_id":"","pricing_plan_id":"cebpf4jnsgd1na2vs0mg"},{"bike_id":"be59f674-a0bd-4fc3-a219-9eada39112de","system_id":"levelo_inurba_marseille","lat":43.2996,"lon":5.37374,"is_reserved":false,"is_disabled":false,"rental_uris":{"android":"levelo://app?vid=be59f674-a0bd-4fc3-a219-9eada39112de","ios":"levelo://app?vid=be59f674-a0bd-4fc3-a219-9eada39112de"},"vehicle_type_id":"4","last_reported":1767453028,"current_range_meters":7200,"station_id":"","pricing_plan_id":"cebpf4jnsgd1na2vs0mg"},{"bike_id":"3170b344-ccb5-4e10-87d2-0bfacd70bd7f","system_id":"levelo_inurba_marseille","lat":43.29609,"lon":5.37724,"is_reserved":false,"is_disabled":false,"rental_uris":{"android":"levelo://app?vid=3170b344-ccb5-4e10-87d2-0bfacd70bd7f","ios":"levelo://app?vid=3170b344-ccb5-4e10-87d2-0bfacd70bd7f"},"vehicle_type_id":"4","last_reported":1767453028,"current_range_meters":7200,"station_id":"ce4bgi92rcd13ifvqb90","pricing_plan_id":"cebpf4jnsgd1na2vs0mg"},{"bike_id":"47a9e8ce-5a44-441a-9695-e8dc7f3c9dfa","system_id":"levelo_inurba_marseille","lat":43.3074,"lon":5.42448,"is_reserved":false,"is_disabled":false,"rental_uris":{"android":"levelo://app?vid=47a9e8ce-5a44-441a-9695-e8dc7f3c9dfa","ios":"levelo://app?vid=47a9e8ce-5a44-441a-9695-e8dc7f3c9dfa"},"vehicle_type_id":"4","last_reported":1767453028,"current_range_meters":7200,"station_id":"st_cvj6ca6bvosntc0bfgr0","pricing_plan_id":"cebpf4jnsgd1na2vs0mg"},{"bike_id":"8ee49267-6908-4fbc-b067-b518709b7c1d","system_id":"levelo_inurba_marseille","lat":43.26208,"lon":5.37441,"is_reserved":false,"is_disabled":false,"rental_uris":{"android":"levelo://app?vid=8ee49267-6908-4fbc-b067-b518709b7c1d","ios":"levelo://app?vid=8ee49267-6908-4fbc-b067-b518709b7c1d"},"vehicle_type_id":"4","last_reported":1767453028,"current_range_meters":7200,"station_id":"ce4bhgp2rcd13ifvqfc0","pricing_plan_id":"cebpf4jnsgd1na2vs0mg"},{"bike_id":"d21a3e34-58bc-4d1b-9ac9-a8532bb50fd1","system_id":"levelo_inurba_marseille","lat":43.29824,"lon":5.44057,"is_reserved":false,"is_disabled":false,"rental_uris":{"android":"levelo://app?vid=d21a3e34-58bc-4d1b-9ac9-a8532bb50fd1","ios":"levelo://app?vid=d21a3e34-58bc-4d1b-9ac9-a8532bb50fd1"},"vehicle_type_id":"4","last_reported":1767453028,"current_range_meters":7200,"station_id":"st_d3jp68qikq2c7381ktn0","pricing_plan_id":"cebpf4jnsgd1na2vs0mg"},{"bike_id":"d93bab33-897f-48fa-b500-67e9555d77df","system_id":"levelo_inurba_marseille","lat":43.30552,"lon":5.36545,"is_reserved":false,"is_disabled":false,"rental_uris":{"android":"levelo://app?vid=d93bab33-897f-48fa-b500-67e9555d77df","ios":"levelo://app?vid=d93bab33-897f-48fa-b500-67e9555d77df"},"vehicle_type_id":"4","last_reported":1767453028,"current_range_meters":7200,"station_id":"ce4bgs12rcd13ifvqcag","pricing_plan_id":"cebpf4jnsgd1na2vs0mg"},{"bike_id":"5ec75759-55d6-4224-b4a0-635e337d68b2","system_id":"levelo_inurba_marseille","lat":43.3056,"lon":5.36551,"is_reserved":false,"is_disabled":false,"rental_uris":{"android":"levelo://app?vid=5ec75759-55d6-4224-b4a0-635e337d68b2","ios":"levelo://app?vid=5ec75759-55d6-4224-b4a0-635e337d68b2"},"vehicle_type_id":"4","last_reported":1767453028,"current_range_meters":7200,"station_id":"ce4bgs12rcd13ifvqcag","pricing_plan_id":"cebpf4jnsgd1na2vs0mg"},{"bike_id":"4851aff3-4329-4daf-8b95-31e62fd176f3","system_id":"levelo_inurba_marseille","lat":43.21752,"lon":5.34603,"is_reserved":false,"is_disabled":false,"rental_uris":{"android":"levelo://app?vid=4851aff3-4329-4daf-8b95-31e62fd176f3","ios":"levelo://app?vid=4851aff3-4329-4daf-8b95-31e62fd176f3"},"vehicle_type_id":"4","last_reported":1767453028,"current_range_meters":7200,"station_id":"st_cvj6r9ubvosntc0bgbag","pricing_plan_id":"cebpf4jnsgd1na2vs0mg"},{"bike_id":"bd924e10-8231-45b3-bca5-8514ca3cbf21","system_id":"levelo_inurba_marseille","lat":43.29976,"lon":5.38489,"is_reserved":false,"is_disabled":false,"rental_uris":{"android":"levelo://app?vid=bd924e10-8231-45b3-bca5-8514ca3cbf21","ios":"levelo://app?vid=bd924e10-8231-45b3-bca5-8514ca3cbf21"},"vehicle_type_id":"4","last_reported":1767453028,"current_range_meters":7200,"station_id":"ce4bgj92rcd13ifvqbd0","pricing_plan_id":"cebpf4jnsgd1na2vs0mg"},{"bike_id":"f409d7c6-6aba-423d-98a4-0587663967a6","system_id":"levelo_inurba_marseille","lat":43.25006,"lon":5.38922,"is_reserved":false,"is_disabled":false,"rental_uris":{"android":"levelo://app?vid=f409d7c6-6aba-423d-98a4-0587663967a6","ios":"levelo://app?vid=f409d7c6-6aba-423d-98a4-0587663967a6"},"vehicle_type_id":"4","last_reported":1767453028,"current_range_meters":7200,"station_id":"ce4bhgp2rcd13ifvqfd0","pricing_plan_id":"cebpf4jnsgd1na2vs0mg"},{"bike_id":"a5e341dd-f678-4ec1-a7c6-1c53bd98d5b6","system_id":"levelo_inurba_marseille","lat":43.29722,"lon":5.38054,"is_reserved":false,"is_disabled":false,"rental_uris":{"android":"levelo://app?vid=a5e341dd-f678-4ec1-a7c6-1c53bd98d5b6","ios":"levelo://app?vid=a5e341dd-f678-4ec1-a7c6-1c53bd98d5b6"},"vehicle_type_id":"4","last_reported":1767453028,"current_range_meters":7200,"station_id":"","pricing_plan_id":"cebpf4jnsgd1na2vs0mg"},{"bike_id":"8378b445-5e46-4caf-bf6c-75a393b5e34e","system_id":"levelo_inurba_marseille","lat":43.27615,"lon":5.36107,"is_reserved":false,"is_disabled":false,"rental_uris":{"android":"levelo://app?vid=8378b445-5e46-4caf-bf6c-75a393b5e34e","ios":"levelo://app?vid=8378b445-5e46-4caf-bf6c-75a393b5e34e"},"vehicle_type_id":"4","last_reported":1767453028,"current_range_meters":7200,"station_id":"ce4bgj92rcd13ifvqbe0","pricing_plan_id":"cebpf4jnsgd1na2vs0mg"},{"bike_id":"eebd9e1f-1ba5-43d8-ba3e-599639161f1a","system_id":"levelo_inurba_marseille","lat":43.27328,"lon":5.3906,"is_reserved":false,"is_disabled":false,"rental_uris":{"android":"levelo://app?vid=eebd9e1f-1ba5-43d8-ba3e-599639161f1a","ios":"levelo://app?vid=eebd9e1f-1ba5-43d8-ba3e-599639161f1a"},"vehicle_type_id":"4","last_reported":1767453028,"current_range_meters":7200,"station_id":"ce4bhgp2rcd13ifvqfe0","pricing_plan_id":"cebpf4jnsgd1na2vs0mg"},{"bike_id":"d58ad07a-4e5c-4c26-b0e6-9c21fd2f92fc","system_id":"levelo_inurba_marseille","lat":43.2993,"lon":5.36546,"is_reserved":false,"is_disabled":false,"rental_uris":{"android":"levelo://app?vid=d58ad07a-4e5c-4c26-b0e6-9c21fd2f92fc","ios":"levelo://app?vid=d58ad07a-4e5c-4c26-b0e6-9c21fd2f92fc"},"vehicle_type_id":"4","last_reported":1767453028,"current_range_meters":8000,"station_id":"ce4bgm92rcd13ifvqbr0","pricing_plan_id":"cebpf4jnsgd1na2vs0mg"},{"bike_id":"f02b51c1-7fb3-4725-9f9f-cd35572fe48b","system_id":"levelo_inurba_marseille","lat":43.298013,"lon":5.380928,"is_reserved":false,"is_disabled":false,"rental_uris":{"android":"levelo://app?vid=f02b51c1-7fb3-4725-9f9f-cd35572fe48b","ios":"levelo://app?vid=f02b51c1-7fb3-4725-9f9f-cd35572fe48b"},"vehicle_type_id":"4","last_reported":1767453028,"current_range_meters":8000,"station_id":"","pricing_plan_id":"cebpf4jnsgd1na2vs0mg"},{"bike_id":"a3daa64e-f7ac-44f1-a719-32761d3999f5","system_id":"levelo_inurba_marseille","lat":43.29729,"lon":5.37636,"is_reserved":false,"is_disabled":false,"rental_uris":{"android":"levelo://app?vid=a3daa64e-f7ac-44f1-a719-32761d3999f5","ios":"levelo://app?vid=a3daa64e-f7ac-44f1-a719-32761d3999f5"},"vehicle_type_id":"4","last_reported":1767453028,"current_range_meters":8000,"station_id":"ce4bgkh2rcd13ifvqbl0","pricing_plan_id":"cebpf4jnsgd1na2vs0mg"},{"bike_id":"1a9cb749-bacd-49f4-9f8b-e93e98ea3f8f","system_id":"levelo_inurba_marseille","lat":43.30113,"lon":5.38227,"is_reserved":false,"is_disabled":false,"rental_uris":{"android":"levelo://app?vid=1a9cb749-bacd-49f4-9f8b-e93e98ea3f8f","ios":"levelo://app?vid=1a9cb749-bacd-49f4-9f8b-e93e98ea3f8f"},"vehicle_type_id":"4","last_reported":1767453028,"current_range_meters":8000,"station_id":"","pricing_plan_id":"cebpf4jnsgd1na2vs0mg"},{"bike_id":"5252e4c3-9741-4888-8fa2-97525ca81144","system_id":"levelo_inurba_marseille","lat":43.24062,"lon":5.37755,"is_reserved":false,"is_disabled":false,"rental_uris":{"android":"levelo://app?vid=5252e4c3-9741-4888-8fa2-97525ca81144","ios":"levelo://app?vid=5252e4c3-9741-4888-8fa2-97525ca81144"},"vehicle_type_id":"4","last_reported":1767453028,"current_range_meters":8000,"station_id":"ce4bhnp2rcd13ifvqgvg","pricing_plan_id":"cebpf4jnsgd1na2vs0mg"},{"bike_id":"bbd145e1-db8d-40b0-b146-2b7542d40bf1","system_id":"levelo_inurba_marseille","lat":43.26803,"lon":5.40243,"is_reserved":false,"is_disabled":false,"rental_uris":{"android":"levelo://app?vid=bbd145e1-db8d-40b0-b146-2b7542d40bf1","ios":"levelo://app?vid=bbd145e1-db8d-40b0-b146-2b7542d40bf1"},"vehicle_type_id":"4","last_reported":1767453028,"current_range_meters":8000,"station_id":"ce501612rcd8frsf0b60","pricing_plan_id":"cebpf4jnsgd1na2vs0mg"},{"bike_id":"2e06a610-8ce6-45ed-8a50-e98c65364bfe","system_id":"levelo_inurba_marseille","lat":43.2862,"lon":5.38339,"is_reserved":false,"is_disabled":false,"rental_uris":{"android":"levelo://app?vid=2e06a610-8ce6-45ed-8a50-e98c65364bfe","ios":"levelo://app?vid=2e06a610-8ce6-45ed-8a50-e98c65364bfe"},"vehicle_type_id":"4","last_reported":1767453028,"current_range_meters":8000,"station_id":"","pricing_plan_id":"cebpf4jnsgd1na2vs0mg"},{"bike_id":"27612265-e008-433b-95e2-19d796db8b2b","system_id":"levelo_inurba_marseille","lat":43.288613,"lon":5.425214,"is_reserved":false,"is_disabled":false,"rental_uris":{"android":"levelo://app?vid=27612265-e008-433b-95e2-19d796db8b2b","ios":"levelo://app?vid=27612265-e008-433b-95e2-19d796db8b2b"},"vehicle_type_id":"4","last_reported":1767453028,"current_range_meters":8000,"station_id":"st_d3b462108ojc7389ooeg","pricing_plan_id":"cebpf4jnsgd1na2vs0mg"},{"bike_id":"61de8b69-7704-4d24-bebb-39e846fd4b45","system_id":"levelo_inurba_marseille","lat":43.30105,"lon":5.37797,"is_reserved":false,"is_disabled":false,"rental_uris":{"android":"levelo://app?vid=61de8b69-7704-4d24-bebb-39e846fd4b45","ios":"levelo://app?vid=61de8b69-7704-4d24-bebb-39e846fd4b45"},"vehicle_type_id":"4","last_reported":1767453028,"current_range_meters":8000,"station_id":"","pricing_plan_id":"cebpf4jnsgd1na2vs0mg"},{"bike_id":"e12e40c2-bd4b-4944-ae3a-364b1bf04ed9","system_id":"levelo_inurba_marseille","lat":43.27055,"lon":5.4028,"is_reserved":false,"is_disabled":false,"rental_uris":{"android":"levelo://app?vid=e12e40c2-bd4b-4944-ae3a-364b1bf04ed9","ios":"levelo://app?vid=e12e40c2-bd4b-4944-ae3a-364b1bf04ed9"},"vehicle_type_id":"4","last_reported":1767453028,"current_range_meters":8000,"station_id":"ce4bhk92rcd13ifvqgc0","pricing_plan_id":"cebpf4jnsgd1na2vs0mg"},{"bike_id":"f73476a1-8b2a-42dc-b112-79fd77bdf5e0","system_id":"levelo_inurba_marseille","lat":43.2717,"lon":5.41005,"is_reserved":false,"is_disabled":false,"rental_uris":{"android":"levelo://app?vid=f73476a1-8b2a-42dc-b112-79fd77bdf5e0","ios":"levelo://app?vid=f73476a1-8b2a-42dc-b112-79fd77bdf5e0"},"vehicle_type_id":"4","last_reported":1767453028,"current_range_meters":8000,"station_id":"ce4bhl12rcd13ifvqgf0","pricing_plan_id":"cebpf4jnsgd1na2vs0mg"},{"bike_id":"b8312627-13c4-4db1-bc05-2c9ecea4546c","system_id":"levelo_inurba_marseille","lat":43.28454,"lon":5.39241,"is_reserved":false,"is_disabled":false,"rental_uris":{"android":"levelo://app?vid=b8312627-13c4-4db1-bc05-2c9ecea4546c","ios":"levelo://app?vid=b8312627-13c4-4db1-bc05-2c9ecea4546c"},"vehicle_type_id":"4","last_reported":1767453028,"current_range_meters":8000,"station_id":"ce4bhoh2rcd13ifvqh5g","pricing_plan_id":"cebpf4jnsgd1na2vs0mg"},{"bike_id":"d487c242-b7e2-4ce1-9f14-f39bd38dfd2a","system_id":"levelo_inurba_marseille","lat":43.21747,"lon":5.34604,"is_reserved":false,"is_disabled":false,"rental_uris":{"android":"levelo://app?vid=d487c242-b7e2-4ce1-9f14-f39bd38dfd2a","ios":"levelo://app?vid=d487c242-b7e2-4ce1-9f14-f39bd38dfd2a"},"vehicle_type_id":"4","last_reported":1767453028,"current_range_meters":8000,"station_id":"st_cvj6r9ubvosntc0bgbag","pricing_plan_id":"cebpf4jnsgd1na2vs0mg"},{"bike_id":"03395ae2-aecb-4dc7-941a-44274a6d702f","system_id":"levelo_inurba_marseille","lat":43.281076,"lon":5.378516,"is_reserved":false,"is_disabled":false,"rental_uris":{"android":"levelo://app?vid=03395ae2-aecb-4dc7-941a-44274a6d702f","ios":"levelo://app?vid=03395ae2-aecb-4dc7-941a-44274a6d702f"},"vehicle_type_id":"4","last_reported":1767453028,"current_range_meters":8000,"station_id":"ce4bha12rcd13ifvqee0","pricing_plan_id":"cebpf4jnsgd1na2vs0mg"},{"bike_id":"1543eb88-e233-43c6-b08e-54d2a1b645db","system_id":"levelo_inurba_marseille","lat":43.33548,"lon":5.37464,"is_reserved":false,"is_disabled":false,"rental_uris":{"android":"levelo://app?vid=1543eb88-e233-43c6-b08e-54d2a1b645db","ios":"levelo://app?vid=1543eb88-e233-43c6-b08e-54d2a1b645db"},"vehicle_type_id":"4","last_reported":1767453028,"current_range_meters":8000,"station_id":"st_d46tts09ee8s73dlu43g","pricing_plan_id":"cebpf4jnsgd1na2vs0mg"},{"bike_id":"604986d5-d3dd-4f4e-92ae-738d711821fd","system_id":"levelo_inurba_marseille","lat":43.2928,"lon":5.40133,"is_reserved":false,"is_disabled":false,"rental_uris":{"android":"levelo://app?vid=604986d5-d3dd-4f4e-92ae-738d711821fd","ios":"levelo://app?vid=604986d5-d3dd-4f4e-92ae-738d711821fd"},"vehicle_type_id":"4","last_reported":1767453028,"current_range_meters":8000,"station_id":"ce4bh312rcd13ifvqdk0","pricing_plan_id":"cebpf4jnsgd1na2vs0mg"},{"bike_id":"cf1dde7c-2421-4aa1-aa32-84342583dd5b","system_id":"levelo_inurba_marseille","lat":43.24081,"lon":5.37749,"is_reserved":false,"is_disabled":false,"rental_uris":{"android":"levelo://app?vid=cf1dde7c-2421-4aa1-aa32-84342583dd5b","ios":"levelo://app?vid=cf1dde7c-2421-4aa1-aa32-84342583dd5b"},"vehicle_type_id":"4","last_reported":1767453028,"current_range_meters":8000,"station_id":"ce4bhnp2rcd13ifvqgvg","pricing_plan_id":"cebpf4jnsgd1na2vs0mg"},{"bike_id":"91458b19-cb25-4f18-83db-4ba9d96005a9","system_id":"levelo_inurba_marseille","lat":43.28616,"lon":5.39873,"is_reserved":false,"is_disabled":false,"rental_uris":{"android":"levelo://app?vid=91458b19-cb25-4f18-83db-4ba9d96005a9","ios":"levelo://app?vid=91458b19-cb25-4f18-83db-4ba9d96005a9"},"vehicle_type_id":"4","last_reported":1767453028,"current_range_meters":8000,"station_id":"ce4bho92rcd13ifvqh3g","pricing_plan_id":"cebpf4jnsgd1na2vs0mg"},{"bike_id":"c0418759-0527-4a3e-9b2d-2c0020a7cfd6","system_id":"levelo_inurba_marseille","lat":43.24386,"lon":5.37058,"is_reserved":false,"is_disabled":false,"rental_uris":{"android":"levelo://app?vid=c0418759-0527-4a3e-9b2d-2c0020a7cfd6","ios":"levelo://app?vid=c0418759-0527-4a3e-9b2d-2c0020a7cfd6"},"vehicle_type_id":"4","last_reported":1767453028,"current_range_meters":8000,"station_id":"ce4bhhh2rcd13ifvqfk0","pricing_plan_id":"cebpf4jnsgd1na2vs0mg"},{"bike_id":"a3be4a7c-7544-49a9-8048-28fcde31ea3d","system_id":"levelo_inurba_marseille","lat":43.29279,"lon":5.37316,"is_reserved":false,"is_disabled":false,"rental_uris":{"android":"levelo://app?vid=a3be4a7c-7544-49a9-8048-28fcde31ea3d","ios":"levelo://app?vid=a3be4a7c-7544-49a9-8048-28fcde31ea3d"},"vehicle_type_id":"4","last_reported":1767453028,"current_range_meters":8000,"station_id":"","pricing_plan_id":"cebpf4jnsgd1na2vs0mg"},{"bike_id":"b357b06c-84a1-42eb-85bc-16a2d56a5e8b","system_id":"levelo_inurba_marseille","lat":43.3,"lon":5.37338,"is_reserved":false,"is_disabled":false,"rental_uris":{"android":"levelo://app?vid=b357b06c-84a1-42eb-85bc-16a2d56a5e8b","ios":"levelo://app?vid=b357b06c-84a1-42eb-85bc-16a2d56a5e8b"},"vehicle_type_id":"4","last_reported":1767453028,"current_range_meters":8000,"station_id":"","pricing_plan_id":"cebpf4jnsgd1na2vs0mg"},{"bike_id":"596f9f2e-754a-4bff-95d7-fb2758b09a2e","system_id":"levelo_inurba_marseille","lat":43.323648,"lon":5.367499,"is_reserved":false,"is_disabled":false,"rental_uris":{"android":"levelo://app?vid=596f9f2e-754a-4bff-95d7-fb2758b09a2e","ios":"levelo://app?vid=596f9f2e-754a-4bff-95d7-fb2758b09a2e"},"vehicle_type_id":"4","last_reported":1767453028,"current_range_meters":8000,"station_id":"ce4bhsh2rcd13ifvqi2g","pricing_plan_id":"cebpf4jnsgd1na2vs0mg"},{"bike_id":"d21ecf43-9b53-4ee7-aa3a-25d90ceab79f","system_id":"levelo_inurba_marseille","lat":43.24089,"lon":5.3777,"is_reserved":false,"is_disabled":false,"rental_uris":{"android":"levelo://app?vid=d21ecf43-9b53-4ee7-aa3a-25d90ceab79f","ios":"levelo://app?vid=d21ecf43-9b53-4ee7-aa3a-25d90ceab79f"},"vehicle_type_id":"4","last_reported":1767453028,"current_range_meters":8000,"station_id":"ce4bhnp2rcd13ifvqgvg","pricing_plan_id":"cebpf4jnsgd1na2vs0mg"},{"bike_id":"43e45b7e-11d5-4942-b71d-811ca2a8e3e3","system_id":"levelo_inurba_marseille","lat":43.2707,"lon":5.42273,"is_reserved":false,"is_disabled":false,"rental_uris":{"android":"levelo://app?vid=43e45b7e-11d5-4942-b71d-811ca2a8e3e3","ios":"levelo://app?vid=43e45b7e-11d5-4942-b71d-811ca2a8e3e3"},"vehicle_type_id":"4","last_reported":1767453028,"current_range_meters":8000,"station_id":"ce4bhk92rcd13ifvqgb0","pricing_plan_id":"cebpf4jnsgd1na2vs0mg"},{"bike_id":"37ef432c-009f-4e45-90d4-4795f9b7ca07","system_id":"levelo_inurba_marseille","lat":43.31694,"lon":5.40481,"is_reserved":false,"is_disabled":false,"rental_uris":{"android":"levelo://app?vid=37ef432c-009f-4e45-90d4-4795f9b7ca07","ios":"levelo://app?vid=37ef432c-009f-4e45-90d4-4795f9b7ca07"},"vehicle_type_id":"4","last_reported":1767453028,"current_range_meters":8000,"station_id":"ce4bh012rcd13ifvqd00","pricing_plan_id":"cebpf4jnsgd1na2vs0mg"},{"bike_id":"b7842e26-829b-42e5-a8d0-525b7ae1d110","system_id":"levelo_inurba_marseille","lat":43.31215,"lon":5.36863,"is_reserved":false,"is_disabled":false,"rental_uris":{"android":"levelo://app?vid=b7842e26-829b-42e5-a8d0-525b7ae1d110","ios":"levelo://app?vid=b7842e26-829b-42e5-a8d0-525b7ae1d110"},"vehicle_type_id":"4","last_reported":1767453028,"current_range_meters":8400,"station_id":"ce4bgl92rcd13ifvqbq0","pricing_plan_id":"cebpf4jnsgd1na2vs0mg"},{"bike_id":"5f5ed7b5-474d-41b2-89cd-47b99b1d326f","system_id":"levelo_inurba_marseille","lat":43.32094,"lon":5.3679,"is_reserved":false,"is_disabled":false,"rental_uris":{"android":"levelo://app?vid=5f5ed7b5-474d-41b2-89cd-47b99b1d326f","ios":"levelo://app?vid=5f5ed7b5-474d-41b2-89cd-47b99b1d326f"},"vehicle_type_id":"4","last_reported":1767453028,"current_range_meters":8400,"station_id":"ce4bhrh2rcd13ifvqhug","pricing_plan_id":"cebpf4jnsgd1na2vs0mg"},{"bike_id":"9a67c4b7-b002-47fb-91b0-cf920a32496e","system_id":"levelo_inurba_marseille","lat":43.26563,"lon":5.4032,"is_reserved":false,"is_disabled":false,"rental_uris":{"android":"levelo://app?vid=9a67c4b7-b002-47fb-91b0-cf920a32496e","ios":"levelo://app?vid=9a67c4b7-b002-47fb-91b0-cf920a32496e"},"vehicle_type_id":"4","last_reported":1767453028,"current_range_meters":8400,"station_id":"ce4bhmp2rcd13ifvqgng","pricing_plan_id":"cebpf4jnsgd1na2vs0mg"},{"bike_id":"7ee1c09d-a306-4e72-a256-6549ce7578c9","system_id":"levelo_inurba_marseille","lat":43.29169,"lon":5.37297,"is_reserved":false,"is_disabled":false,"rental_uris":{"android":"levelo://app?vid=7ee1c09d-a306-4e72-a256-6549ce7578c9","ios":"levelo://app?vid=7ee1c09d-a306-4e72-a256-6549ce7578c9"},"vehicle_type_id":"4","last_reported":1767453028,"current_range_meters":8400,"station_id":"","pricing_plan_id":"cebpf4jnsgd1na2vs0mg"},{"bike_id":"cdb95399-40ba-4ee9-9e4b-631cf7ca51d9","system_id":"levelo_inurba_marseille","lat":43.28272,"lon":5.35066,"is_reserved":false,"is_disabled":false,"rental_uris":{"android":"levelo://app?vid=cdb95399-40ba-4ee9-9e4b-631cf7ca51d9","ios":"levelo://app?vid=cdb95399-40ba-4ee9-9e4b-631cf7ca51d9"},"vehicle_type_id":"4","last_reported":1767453028,"current_range_meters":8400,"station_id":"ce4bhbp2rcd13ifvqerg","pricing_plan_id":"cebpf4jnsgd1na2vs0mg"},{"bike_id":"343efb2b-e673-4839-9bb1-298996236577","system_id":"levelo_inurba_marseille","lat":43.30663,"lon":5.40089,"is_reserved":false,"is_disabled":false,"rental_uris":{"android":"levelo://app?vid=343efb2b-e673-4839-9bb1-298996236577","ios":"levelo://app?vid=343efb2b-e673-4839-9bb1-298996236577"},"vehicle_type_id":"4","last_reported":1767453028,"current_range_meters":8400,"station_id":"ce4bh112rcd13ifvqda0","pricing_plan_id":"cebpf4jnsgd1na2vs0mg"},{"bike_id":"21152589-2e68-4dd8-a6b9-b14ea863c45b","system_id":"levelo_inurba_marseille","lat":43.30478,"lon":5.37923,"is_reserved":false,"is_disabled":false,"rental_uris":{"android":"levelo://app?vid=21152589-2e68-4dd8-a6b9-b14ea863c45b","ios":"levelo://app?vid=21152589-2e68-4dd8-a6b9-b14ea863c45b"},"vehicle_type_id":"4","last_reported":1767453028,"current_range_meters":8400,"station_id":"ce4bgup2rcd13ifvqcn0","pricing_plan_id":"cebpf4jnsgd1na2vs0mg"},{"bike_id":"89bf8d0b-0109-4d46-bf26-285da566958b","system_id":"levelo_inurba_marseille","lat":43.31492,"lon":5.37301,"is_reserved":false,"is_disabled":true,"rental_uris":{"android":"levelo://app?vid=89bf8d0b-0109-4d46-bf26-285da566958b","ios":"levelo://app?vid=89bf8d0b-0109-4d46-bf26-285da566958b"},"vehicle_type_id":"4","last_reported":1767453028,"current_range_meters":8400,"station_id":"ce4bgt12rcd13ifvqcd0","pricing_plan_id":"cebpf4jnsgd1na2vs0mg"},{"bike_id":"7d88ce0c-ae9b-49e1-a08d-95a335fd71ed","system_id":"levelo_inurba_marseille","lat":43.28529,"lon":5.44103,"is_reserved":false,"is_disabled":false,"rental_uris":{"android":"levelo://app?vid=7d88ce0c-ae9b-49e1-a08d-95a335fd71ed","ios":"levelo://app?vid=7d88ce0c-ae9b-49e1-a08d-95a335fd71ed"},"vehicle_type_id":"4","last_reported":1767453028,"current_range_meters":8400,"station_id":"st_d3j3df2ikq2c7380ej80","pricing_plan_id":"cebpf4jnsgd1na2vs0mg"},{"bike_id":"32088daf-19b4-43c2-bb3d-ac36d2b03bd3","system_id":"levelo_inurba_marseille","lat":43.24399,"lon":5.37069,"is_reserved":false,"is_disabled":false,"rental_uris":{"android":"levelo://app?vid=32088daf-19b4-43c2-bb3d-ac36d2b03bd3","ios":"levelo://app?vid=32088daf-19b4-43c2-bb3d-ac36d2b03bd3"},"vehicle_type_id":"4","last_reported":1767453028,"current_range_meters":8400,"station_id":"ce4bhhh2rcd13ifvqfk0","pricing_plan_id":"cebpf4jnsgd1na2vs0mg"},{"bike_id":"df8cd3ba-6efb-4997-8f45-66c5df017b9d","system_id":"levelo_inurba_marseille","lat":43.30076,"lon":5.36435,"is_reserved":false,"is_disabled":false,"rental_uris":{"android":"levelo://app?vid=df8cd3ba-6efb-4997-8f45-66c5df017b9d","ios":"levelo://app?vid=df8cd3ba-6efb-4997-8f45-66c5df017b9d"},"vehicle_type_id":"4","last_reported":1767453028,"current_range_meters":8400,"station_id":"","pricing_plan_id":"cebpf4jnsgd1na2vs0mg"},{"bike_id":"c9d548ba-2a02-4b82-91f9-b5968320bd23","system_id":"levelo_inurba_marseille","lat":43.232,"lon":5.35553,"is_reserved":false,"is_disabled":false,"rental_uris":{"android":"levelo://app?vid=c9d548ba-2a02-4b82-91f9-b5968320bd23","ios":"levelo://app?vid=c9d548ba-2a02-4b82-91f9-b5968320bd23"},"vehicle_type_id":"4","last_reported":1767453028,"current_range_meters":8400,"station_id":"ce4bhu92rcd13ifvqi70","pricing_plan_id":"cebpf4jnsgd1na2vs0mg"},{"bike_id":"557fcc01-1a31-4734-96a9-4bc57201480a","system_id":"levelo_inurba_marseille","lat":43.31583,"lon":5.37198,"is_reserved":false,"is_disabled":false,"rental_uris":{"android":"levelo://app?vid=557fcc01-1a31-4734-96a9-4bc57201480a","ios":"levelo://app?vid=557fcc01-1a31-4734-96a9-4bc57201480a"},"vehicle_type_id":"4","last_reported":1767453028,"current_range_meters":8400,"station_id":"","pricing_plan_id":"cebpf4jnsgd1na2vs0mg"},{"bike_id":"f01bf4b3-0a81-4ed0-84e5-e869486fd99c","system_id":"levelo_inurba_marseille","lat":43.24658,"lon":5.38923,"is_reserved":false,"is_disabled":false,"rental_uris":{"android":"levelo://app?vid=f01bf4b3-0a81-4ed0-84e5-e869486fd99c","ios":"levelo://app?vid=f01bf4b3-0a81-4ed0-84e5-e869486fd99c"},"vehicle_type_id":"4","last_reported":1767453028,"current_range_meters":8400,"station_id":"ce4bhg12rcd13ifvqf60","pricing_plan_id":"cebpf4jnsgd1na2vs0mg"},{"bike_id":"efd33062-2cef-445f-af98-648f578e9c2a","system_id":"levelo_inurba_marseille","lat":43.32645,"lon":5.41937,"is_reserved":false,"is_disabled":false,"rental_uris":{"android":"levelo://app?vid=efd33062-2cef-445f-af98-648f578e9c2a","ios":"levelo://app?vid=efd33062-2cef-445f-af98-648f578e9c2a"},"vehicle_type_id":"4","last_reported":1767453028,"current_range_meters":8800,"station_id":"","pricing_plan_id":"cebpf4jnsgd1na2vs0mg"},{"bike_id":"e987523a-ef8b-4c5d-94b4-e53d7fa7dfe0","system_id":"levelo_inurba_marseille","lat":43.24861,"lon":5.38559,"is_reserved":false,"is_disabled":false,"rental_uris":{"android":"levelo://app?vid=e987523a-ef8b-4c5d-94b4-e53d7fa7dfe0","ios":"levelo://app?vid=e987523a-ef8b-4c5d-94b4-e53d7fa7dfe0"},"vehicle_type_id":"4","last_reported":1767453028,"current_range_meters":8800,"station_id":"","pricing_plan_id":"cebpf4jnsgd1na2vs0mg"},{"bike_id":"8912d066-d83f-485d-951a-081bdc7b5882","system_id":"levelo_inurba_marseille","lat":43.28373,"lon":5.38643,"is_reserved":false,"is_disabled":false,"rental_uris":{"android":"levelo://app?vid=8912d066-d83f-485d-951a-081bdc7b5882","ios":"levelo://app?vid=8912d066-d83f-485d-951a-081bdc7b5882"},"vehicle_type_id":"4","last_reported":1767453028,"current_range_meters":8800,"station_id":"ce4bh492rcd13ifvqdvg","pricing_plan_id":"cebpf4jnsgd1na2vs0mg"},{"bike_id":"2e732333-6eaa-4b39-9b41-8e7d911e2698","system_id":"levelo_inurba_marseille","lat":43.293049,"lon":5.374606,"is_reserved":false,"is_disabled":false,"rental_uris":{"android":"levelo://app?vid=2e732333-6eaa-4b39-9b41-8e7d911e2698","ios":"levelo://app?vid=2e732333-6eaa-4b39-9b41-8e7d911e2698"},"vehicle_type_id":"4","last_reported":1767453028,"current_range_meters":8800,"station_id":"ce4bgi12rcd13ifvqb70","pricing_plan_id":"cebpf4jnsgd1na2vs0mg"},{"bike_id":"bfe47bf6-799b-4ef6-b357-3d67dfdabb79","system_id":"levelo_inurba_marseille","lat":43.33539,"lon":5.37468,"is_reserved":false,"is_disabled":false,"rental_uris":{"android":"levelo://app?vid=bfe47bf6-799b-4ef6-b357-3d67dfdabb79","ios":"levelo://app?vid=bfe47bf6-799b-4ef6-b357-3d67dfdabb79"},"vehicle_type_id":"4","last_reported":1767453028,"current_range_meters":8800,"station_id":"st_d46tts09ee8s73dlu43g","pricing_plan_id":"cebpf4jnsgd1na2vs0mg"},{"bike_id":"2bcf6ae4-322c-43d0-9880-65aeda24ed67","system_id":"levelo_inurba_marseille","lat":43.32419,"lon":5.36887,"is_reserved":false,"is_disabled":false,"rental_uris":{"android":"levelo://app?vid=2bcf6ae4-322c-43d0-9880-65aeda24ed67","ios":"levelo://app?vid=2bcf6ae4-322c-43d0-9880-65aeda24ed67"},"vehicle_type_id":"4","last_reported":1767453028,"current_range_meters":8800,"station_id":"","pricing_plan_id":"cebpf4jnsgd1na2vs0mg"},{"bike_id":"394b2473-e75b-4508-a6de-dc82472511d3","system_id":"levelo_inurba_marseille","lat":43.26377,"lon":5.41105,"is_reserved":false,"is_disabled":true,"rental_uris":{"android":"levelo://app?vid=394b2473-e75b-4508-a6de-dc82472511d3","ios":"levelo://app?vid=394b2473-e75b-4508-a6de-dc82472511d3"},"vehicle_type_id":"4","last_reported":1767453028,"current_range_meters":8800,"station_id":"","pricing_plan_id":"cebpf4jnsgd1na2vs0mg"},{"bike_id":"d0c889d6-a884-4915-adcc-cebd0a48da5f","system_id":"levelo_inurba_marseille","lat":43.26553,"lon":5.37293,"is_reserved":false,"is_disabled":false,"rental_uris":{"android":"levelo://app?vid=d0c889d6-a884-4915-adcc-cebd0a48da5f","ios":"levelo://app?vid=d0c889d6-a884-4915-adcc-cebd0a48da5f"},"vehicle_type_id":"4","last_reported":1767453028,"current_range_meters":8800,"station_id":"ce4bhg12rcd13ifvqf70","pricing_plan_id":"cebpf4jnsgd1na2vs0mg"},{"bike_id":"bc24ad87-e39b-4719-ba5b-24f618b4c5f7","system_id":"levelo_inurba_marseille","lat":43.28414,"lon":5.34976,"is_reserved":false,"is_disabled":false,"rental_uris":{"android":"levelo://app?vid=bc24ad87-e39b-4719-ba5b-24f618b4c5f7","ios":"levelo://app?vid=bc24ad87-e39b-4719-ba5b-24f618b4c5f7"},"vehicle_type_id":"4","last_reported":1767453028,"current_range_meters":8800,"station_id":"ce4bhbh2rcd13ifvqepg","pricing_plan_id":"cebpf4jnsgd1na2vs0mg"},{"bike_id":"4f9276e2-ba43-4c1d-afca-9c0080feecdf","system_id":"levelo_inurba_marseille","lat":43.32365,"lon":5.36741,"is_reserved":false,"is_disabled":false,"rental_uris":{"android":"levelo://app?vid=4f9276e2-ba43-4c1d-afca-9c0080feecdf","ios":"levelo://app?vid=4f9276e2-ba43-4c1d-afca-9c0080feecdf"},"vehicle_type_id":"4","last_reported":1767453028,"current_range_meters":8800,"station_id":"ce4bhsh2rcd13ifvqi2g","pricing_plan_id":"cebpf4jnsgd1na2vs0mg"},{"bike_id":"0cc8f38b-2aab-4edc-80d1-8d77bb645f60","system_id":"levelo_inurba_marseille","lat":43.25511,"lon":5.37664,"is_reserved":false,"is_disabled":true,"rental_uris":{"android":"levelo://app?vid=0cc8f38b-2aab-4edc-80d1-8d77bb645f60","ios":"levelo://app?vid=0cc8f38b-2aab-4edc-80d1-8d77bb645f60"},"vehicle_type_id":"4","last_reported":1767453028,"current_range_meters":8800,"station_id":"ce4bhh12rcd13ifvqff0","pricing_plan_id":"cebpf4jnsgd1na2vs0mg"},{"bike_id":"6bfea481-b122-4080-8047-f8cb1577dc07","system_id":"levelo_inurba_marseille","lat":43.29004,"lon":5.3561,"is_reserved":false,"is_disabled":false,"rental_uris":{"android":"levelo://app?vid=6bfea481-b122-4080-8047-f8cb1577dc07","ios":"levelo://app?vid=6bfea481-b122-4080-8047-f8cb1577dc07"},"vehicle_type_id":"4","last_reported":1767453028,"current_range_meters":8800,"station_id":"ce4bhb92rcd13ifvqen0","pricing_plan_id":"cebpf4jnsgd1na2vs0mg"},{"bike_id":"ef519fd0-9994-4a2c-8009-8dc16cb9e38e","system_id":"levelo_inurba_marseille","lat":43.32105,"lon":5.36764,"is_reserved":false,"is_disabled":false,"rental_uris":{"android":"levelo://app?vid=ef519fd0-9994-4a2c-8009-8dc16cb9e38e","ios":"levelo://app?vid=ef519fd0-9994-4a2c-8009-8dc16cb9e38e"},"vehicle_type_id":"4","last_reported":1767453028,"current_range_meters":8800,"station_id":"ce4bhrh2rcd13ifvqhug","pricing_plan_id":"cebpf4jnsgd1na2vs0mg"},{"bike_id":"c51d6830-6676-4ba5-9b70-fc6c18825f29","system_id":"levelo_inurba_marseille","lat":43.2961,"lon":5.37713,"is_reserved":false,"is_disabled":false,"rental_uris":{"android":"levelo://app?vid=c51d6830-6676-4ba5-9b70-fc6c18825f29","ios":"levelo://app?vid=c51d6830-6676-4ba5-9b70-fc6c18825f29"},"vehicle_type_id":"4","last_reported":1767453028,"current_range_meters":8800,"station_id":"ce4bgi92rcd13ifvqb90","pricing_plan_id":"cebpf4jnsgd1na2vs0mg"},{"bike_id":"9c8fc021-abb9-4e14-8315-4de673d098a9","system_id":"levelo_inurba_marseille","lat":43.23155,"lon":5.43722,"is_reserved":false,"is_disabled":false,"rental_uris":{"android":"levelo://app?vid=9c8fc021-abb9-4e14-8315-4de673d098a9","ios":"levelo://app?vid=9c8fc021-abb9-4e14-8315-4de673d098a9"},"vehicle_type_id":"4","last_reported":1767453028,"current_range_meters":8800,"station_id":"ce4bhmp2rcd13ifvqgog","pricing_plan_id":"cebpf4jnsgd1na2vs0mg"},{"bike_id":"d67904e3-d432-4bb6-9c59-13ac7cead46a","system_id":"levelo_inurba_marseille","lat":43.32357,"lon":5.36714,"is_reserved":false,"is_disabled":false,"rental_uris":{"android":"levelo://app?vid=d67904e3-d432-4bb6-9c59-13ac7cead46a","ios":"levelo://app?vid=d67904e3-d432-4bb6-9c59-13ac7cead46a"},"vehicle_type_id":"4","last_reported":1767453028,"current_range_meters":8800,"station_id":"ce4bhsh2rcd13ifvqi2g","pricing_plan_id":"cebpf4jnsgd1na2vs0mg"},{"bike_id":"3867bb2f-d5ef-4353-b512-d8c7301dbcdf","system_id":"levelo_inurba_marseille","lat":43.30107,"lon":5.39068,"is_reserved":false,"is_disabled":false,"rental_uris":{"android":"levelo://app?vid=3867bb2f-d5ef-4353-b512-d8c7301dbcdf","ios":"levelo://app?vid=3867bb2f-d5ef-4353-b512-d8c7301dbcdf"},"vehicle_type_id":"4","last_reported":1767453028,"current_range_meters":8800,"station_id":"ce4bh192rcd13ifvqdb0","pricing_plan_id":"cebpf4jnsgd1na2vs0mg"},{"bike_id":"d49d55fc-f15f-4a66-a00d-73bd545b8ffd","system_id":"levelo_inurba_marseille","lat":43.29048,"lon":5.39929,"is_reserved":false,"is_disabled":false,"rental_uris":{"android":"levelo://app?vid=d49d55fc-f15f-4a66-a00d-73bd545b8ffd","ios":"levelo://app?vid=d49d55fc-f15f-4a66-a00d-73bd545b8ffd"},"vehicle_type_id":"4","last_reported":1767453028,"current_range_meters":8800,"station_id":"ce4bh392rcd13ifvqdm0","pricing_plan_id":"cebpf4jnsgd1na2vs0mg"},{"bike_id":"7a113635-54d4-43d3-b6a1-1a3eaf81875f","system_id":"levelo_inurba_marseille","lat":43.270764,"lon":5.422834,"is_reserved":false,"is_disabled":false,"rental_uris":{"android":"levelo://app?vid=7a113635-54d4-43d3-b6a1-1a3eaf81875f","ios":"levelo://app?vid=7a113635-54d4-43d3-b6a1-1a3eaf81875f"},"vehicle_type_id":"4","last_reported":1767453028,"current_range_meters":8800,"station_id":"ce4bhk92rcd13ifvqgb0","pricing_plan_id":"cebpf4jnsgd1na2vs0mg"},{"bike_id":"0b0f905e-cb2b-4364-9743-eee95a75ce86","system_id":"levelo_inurba_marseille","lat":43.267761,"lon":5.394056,"is_reserved":false,"is_disabled":false,"rental_uris":{"android":"levelo://app?vid=0b0f905e-cb2b-4364-9743-eee95a75ce86","ios":"levelo://app?vid=0b0f905e-cb2b-4364-9743-eee95a75ce86"},"vehicle_type_id":"4","last_reported":1767453028,"current_range_meters":8800,"station_id":"ce4bhh12rcd13ifvqfg0","pricing_plan_id":"cebpf4jnsgd1na2vs0mg"},{"bike_id":"200a1e29-e6fa-470b-8d31-d026583a607e","system_id":"levelo_inurba_marseille","lat":43.25344,"lon":5.421447,"is_reserved":false,"is_disabled":false,"rental_uris":{"android":"levelo://app?vid=200a1e29-e6fa-470b-8d31-d026583a607e","ios":"levelo://app?vid=200a1e29-e6fa-470b-8d31-d026583a607e"},"vehicle_type_id":"4","last_reported":1767453028,"current_range_meters":8800,"station_id":"st_d2m65c5bi1j21697t3ng","pricing_plan_id":"cebpf4jnsgd1na2vs0mg"},{"bike_id":"8e3b45c6-7fdf-429f-9c1e-6729d3aac358","system_id":"levelo_inurba_marseille","lat":43.31053,"lon":5.37124,"is_reserved":false,"is_disabled":false,"rental_uris":{"android":"levelo://app?vid=8e3b45c6-7fdf-429f-9c1e-6729d3aac358","ios":"levelo://app?vid=8e3b45c6-7fdf-429f-9c1e-6729d3aac358"},"vehicle_type_id":"4","last_reported":1767453028,"current_range_meters":8800,"station_id":"st_d4kl2rp97mjs73e7tdfg","pricing_plan_id":"cebpf4jnsgd1na2vs0mg"},{"bike_id":"02977e91-6348-4834-a2d6-833a5afdc35a","system_id":"levelo_inurba_marseille","lat":43.30813,"lon":5.38145,"is_reserved":false,"is_disabled":false,"rental_uris":{"android":"levelo://app?vid=02977e91-6348-4834-a2d6-833a5afdc35a","ios":"levelo://app?vid=02977e91-6348-4834-a2d6-833a5afdc35a"},"vehicle_type_id":"4","last_reported":1767453028,"current_range_meters":8800,"station_id":"ce4bgt12rcd13ifvqce0","pricing_plan_id":"cebpf4jnsgd1na2vs0mg"},{"bike_id":"ac0c123e-ed59-4a7e-a27e-86326b93124d","system_id":"levelo_inurba_marseille","lat":43.28473,"lon":5.38415,"is_reserved":false,"is_disabled":false,"rental_uris":{"android":"levelo://app?vid=ac0c123e-ed59-4a7e-a27e-86326b93124d","ios":"levelo://app?vid=ac0c123e-ed59-4a7e-a27e-86326b93124d"},"vehicle_type_id":"4","last_reported":1767453028,"current_range_meters":9200,"station_id":"ce4bh512rcd13ifvqe3g","pricing_plan_id":"cebpf4jnsgd1na2vs0mg"},{"bike_id":"5768f084-0add-48a0-99d0-2b9670f09769","system_id":"levelo_inurba_marseille","lat":43.28557,"lon":5.44131,"is_reserved":false,"is_disabled":false,"rental_uris":{"android":"levelo://app?vid=5768f084-0add-48a0-99d0-2b9670f09769","ios":"levelo://app?vid=5768f084-0add-48a0-99d0-2b9670f09769"},"vehicle_type_id":"4","last_reported":1767453028,"current_range_meters":9200,"station_id":"st_d3j3df2ikq2c7380ej80","pricing_plan_id":"cebpf4jnsgd1na2vs0mg"},{"bike_id":"2d2ec592-cb3a-4198-ac28-79f50e65439b","system_id":"levelo_inurba_marseille","lat":43.29576,"lon":5.37523,"is_reserved":false,"is_disabled":false,"rental_uris":{"android":"levelo://app?vid=2d2ec592-cb3a-4198-ac28-79f50e65439b","ios":"levelo://app?vid=2d2ec592-cb3a-4198-ac28-79f50e65439b"},"vehicle_type_id":"4","last_reported":1767453028,"current_range_meters":9200,"station_id":"ce4bgh92rcd13ifvqb50","pricing_plan_id":"cebpf4jnsgd1na2vs0mg"},{"bike_id":"eb0d03a5-29f9-4e64-806c-30686126a3bd","system_id":"levelo_inurba_marseille","lat":43.290432,"lon":5.359237,"is_reserved":false,"is_disabled":false,"rental_uris":{"android":"levelo://app?vid=eb0d03a5-29f9-4e64-806c-30686126a3bd","ios":"levelo://app?vid=eb0d03a5-29f9-4e64-806c-30686126a3bd"},"vehicle_type_id":"4","last_reported":1767453028,"current_range_meters":9200,"station_id":"ce4bha92rcd13ifvqeg0","pricing_plan_id":"cebpf4jnsgd1na2vs0mg"},{"bike_id":"123a045e-a835-4faa-a9ab-9850b2b53c38","system_id":"levelo_inurba_marseille","lat":43.293114,"lon":5.371872,"is_reserved":false,"is_disabled":true,"rental_uris":{"android":"levelo://app?vid=123a045e-a835-4faa-a9ab-9850b2b53c38","ios":"levelo://app?vid=123a045e-a835-4faa-a9ab-9850b2b53c38"},"vehicle_type_id":"4","last_reported":1767453028,"current_range_meters":9200,"station_id":"ce4bgh92rcd13ifvqb40","pricing_plan_id":"cebpf4jnsgd1na2vs0mg"},{"bike_id":"c33eb5f0-499c-46b8-b706-b5add847dbd3","system_id":"levelo_inurba_marseille","lat":43.33151,"lon":5.37727,"is_reserved":false,"is_disabled":false,"rental_uris":{"android":"levelo://app?vid=c33eb5f0-499c-46b8-b706-b5add847dbd3","ios":"levelo://app?vid=c33eb5f0-499c-46b8-b706-b5add847dbd3"},"vehicle_type_id":"4","last_reported":1767453028,"current_range_meters":9200,"station_id":"st_d46cu089ee8s73dldbu0","pricing_plan_id":"cebpf4jnsgd1na2vs0mg"},