{"last_updated":1756232088,"ttl":60,"version":"2.2","data":{"bikes":[{"bike_id":"feb11654-843e-47db-9a68-bc47b22922fe","system_id":"levelo_inurba_marseille","lat":43.25104,"lon":5.40321,"is_reserved":false,"is_disabled":false,"rental_uris":{"android":"levelo://app?vid=feb11654-843e-47db-9a68-bc47b22922fe","ios":"levelo://app?vid=feb11654-843e-47db-9a68-bc47b22922fe"},"vehicle_type_id":"4","last_reported":1756232088,"current_range_meters":2800,"station_id":"ce4bhlh2rcd13ifvqgig","pricing_plan_id":"cebpf4jnsgd1na2vs0mg"},{"bike_id":"49843232-7f47-4b38-bb87-9ae2e51740b5","system_id":"levelo_inurba_marseille","lat":43.31,"lon":5.390803,"is_reserved":false,"is_disabled":false,"rental_uris":{"android":"levelo://app?vid=49843232-7f47-4b38-bb87-9ae2e51740b5","ios":"levelo://app?vid=49843232-7f47-4b38-bb87-9ae2e51740b5"},"vehicle_type_id":"4","last_reported":1756232088,"current_range_meters":2800,"station_id":"ce4bgup2rcd13ifvqco0","pricing_plan_id":"cebpf4jnsgd1na2vs0mg"},{"bike_id":"932266f1-6d81-484b-bfc3-906276f16aea","system_id":"levelo_inurba_marseille","lat":43.3303,"lon":5.39256,"is_reserved":false,"is_disabled":false,"rental_uris":{"android":"levelo://app?vid=932266f1-6d81-484b-bfc3-906276f16aea","ios":"levelo://app?vid=932266f1-6d81-484b-bfc3-906276f16aea"},"vehicle_type_id":"4","last_reported":1756232088,"current_range_meters":2800,"station_id":"","pricing_plan_id":"cebpf4jnsgd1na2vs0mg"},{"bike_id":"2c46ff30-5a49-4914-a368-3be1fbc658ef","system_id":"levelo_inurba_marseille","lat":43.28707,"lon":5.37381,"is_reserved":false,"is_disabled":false,"rental_uris":{"android":"levelo://app?vid=2c46ff30-5a49-4914-a368-3be1fbc658ef","ios":"levelo://app?vid=2c46ff30-5a49-4914-a368-3be1fbc658ef"},"vehicle_type_id":"4","last_reported":1756232088,"current_range_meters":2800,"station_id":"ce4bh3p2rcd13ifvqdq0","pricing_plan_id":"cebpf4jnsgd1na2vs0mg"},{"bike_id":"1e6e3257-baf5-4d30-858b-b078ad82c6ab","system_id":"levelo_inurba_marseille","lat":43.30794,"lon":5.4353,"is_reserved":false,"is_disabled":false,"rental_uris":{"android":"levelo://app?vid=1e6e3257-baf5-4d30-858b-b078ad82c6ab","ios":"levelo://app?vid=1e6e3257-baf5-4d30-858b-b078ad82c6ab"},"vehicle_type_id":"4","last_reported":1756232088,"current_range_meters":2000,"station_id":"ce4bhph2rcd13ifvqheg","pricing_plan_id":"cebpf4jnsgd1na2vs0mg"},{"bike_id":"0f9b7bf2-e0dd-4e06-9904-2621c328521b","system_id":"levelo_inurba_marseille","lat":43.290323,"lon":5.386459,"is_reserved":false,"is_disabled":false,"rental_uris":{"android":"levelo://app?vid=0f9b7bf2-e0dd-4e06-9904-2621c328521b","ios":"levelo://app?vid=0f9b7bf2-e0dd-4e06-9904-2621c328521b"},"vehicle_type_id":"4","last_reported":1756232088,"current_range_meters":2800,"station_id":"ce4bh4p2rcd13ifvqe0g","pricing_plan_id":"cebpf4jnsgd1na2vs0mg"},{"bike_id":"c91f3c08-c601-4842-989f-eba8d027fb98","system_id":"levelo_inurba_marseille","lat":43.28108,"lon":5.37843,"is_reserved":false,"is_disabled":false,"rental_uris":{"android":"levelo://app?vid=c91f3c08-c601-4842-989f-eba8d027fb98","ios":"levelo://app?vid=c91f3c08-c601-4842-989f-eba8d027fb98"},"vehicle_type_id":"4","last_reported":1756232088,"current_range_meters":2800,"station_id":"ce4bha12rcd13ifvqee0","pricing_plan_id":"cebpf4jnsgd1na2vs0mg"},{"bike_id":"ed023d34-8f68-4bee-86ce-d59e3e44fe7d","system_id":"levelo_inurba_marseille","lat":43.292097,"lon":5.393275,"is_reserved":false,"is_disabled":false,"rental_uris":{"android":"levelo://app?vid=ed023d34-8f68-4bee-86ce-d59e3e44fe7d","ios":"levelo://app?vid=ed023d34-8f68-4bee-86ce-d59e3e44fe7d"},"vehicle_type_id":"4","last_reported":1756232088,"current_range_meters":2800,"station_id":"ce4bh192rcd13ifvqdd0","pricing_plan_id":"cebpf4jnsgd1na2vs0mg"},{"bike_id":"c26a41a5-bd46-4e76-9309-7d22d019f194","system_id":"levelo_inurba_marseille","lat":43.24388,"lon":5.37062,"is_reserved":false,"is_disabled":false,"rental_uris":{"android":"levelo://app?vid=c26a41a5-bd46-4e76-9309-7d22d019f194","ios":"levelo://app?vid=c26a41a5-bd46-4e76-9309-7d22d019f194"},"vehicle_type_id":"4","last_reported":1756232088,"current_range_meters":3200,"station_id":"ce4bhhh2rcd13ifvqfk0","pricing_plan_id":"cebpf4jnsgd1na2vs0mg"},{"bike_id":"50af81ba-de13-4986-8ef8-c14fb695e6d2","system_id":"levelo_inurba_marseille","lat":43.32903,"lon":5.3799,"is_reserved":false,"is_disabled":false,"rental_uris":{"android":"levelo://app?vid=50af81ba-de13-4986-8ef8-c14fb695e6d2","ios":"levelo://app?vid=50af81ba-de13-4986-8ef8-c14fb695e6d2"},"vehicle_type_id":"4","last_reported":1756232088,"current_range_meters":3200,"station_id":"","pricing_plan_id":"cebpf4jnsgd1na2vs0mg"},{"bike_id":"18cadd98-ca5b-4518-98d8-bbb26e647823","system_id":"levelo_inurba_marseille","lat":43.21184,"lon":5.35073,"is_reserved":false,"is_disabled":false,"rental_uris":{"android":"levelo://app?vid=18cadd98-ca5b-4518-98d8-bbb26e647823","ios":"levelo://app?vid=18cadd98-ca5b-4518-98d8-bbb26e647823"},"vehicle_type_id":"4","last_reported":1756232088,"current_range_meters":3200,"station_id":"st_cvj6sg6p6f1abm77japg","pricing_plan_id":"cebpf4jnsgd1na2vs0mg"},{"bike_id":"6e8af163-e791-49fb-872f-ad5ed20ef18c","system_id":"levelo_inurba_marseille","lat":43.3042,"lon":5.39772,"is_reserved":false,"is_disabled":false,"rental_uris":{"android":"levelo://app?vid=6e8af163-e791-49fb-872f-ad5ed20ef18c","ios":"levelo://app?vid=6e8af163-e791-49fb-872f-ad5ed20ef18c"},"vehicle_type_id":"4","last_reported":1756232088,"current_range_meters":3200,"station_id":"ce4bh092rcd13ifvqd20","pricing_plan_id":"cebpf4jnsgd1na2vs0mg"},{"bike_id":"ae6e7466-f79a-43dd-ba01-51043638613b","system_id":"levelo_inurba_marseille","lat":43.337726,"lon":5.374786,"is_reserved":false,"is_disabled":false,"rental_uris":{"android":"levelo://app?vid=ae6e7466-f79a-43dd-ba01-51043638613b","ios":"levelo://app?vid=ae6e7466-f79a-43dd-ba01-51043638613b"},"vehicle_type_id":"4","last_reported":1756232088,"current_range_meters":3200,"station_id":"","pricing_plan_id":"cebpf4jnsgd1na2vs0mg"},{"bike_id":"6322d5f3-7a05-4eb0-92d1-9b6f7df77d23","system_id":"levelo_inurba_marseille","lat":43.33605,"lon":5.41035,"is_reserved":false,"is_disabled":false,"rental_uris":{"android":"levelo://app?vid=6322d5f3-7a05-4eb0-92d1-9b6f7df77d23","ios":"levelo://app?vid=6322d5f3-7a05-4eb0-92d1-9b6f7df77d23"},"vehicle_type_id":"4","last_reported":1756232088,"current_range_meters":3200,"station_id":"ce4bhqh2rcd13ifvqhmg","pricing_plan_id":"cebpf4jnsgd1na2vs0mg"},{"bike_id":"85dbceed-2fa5-4036-b179-f3fc11afdd46","system_id":"levelo_inurba_marseille","lat":43.31687,"lon":5.40474,"is_reserved":false,"is_disabled":false,"rental_uris":{"android":"levelo://app?vid=85dbceed-2fa5-4036-b179-f3fc11afdd46","ios":"levelo://app?vid=85dbceed-2fa5-4036-b179-f3fc11afdd46"},"vehicle_type_id":"4","last_reported":1756232088,"current_range_meters":3600,"station_id":"ce4bh012rcd13ifvqd00","pricing_plan_id":"cebpf4jnsgd1na2vs0mg"},{"bike_id":"8d8f7d6e-53ab-4867-8230-d46043b4ee5e","system_id":"levelo_inurba_marseille","lat":43.28466,"lon":5.38537,"is_reserved":false,"is_disabled":false,"rental_uris":{"android":"levelo://app?vid=8d8f7d6e-53ab-4867-8230-d46043b4ee5e","ios":"levelo://app?vid=8d8f7d6e-53ab-4867-8230-d46043b4ee5e"},"vehicle_type_id":"4","last_reported":1756232088,"current_range_meters":4000,"station_id":"ce4bh8p2rcd13ifvqeb0","pricing_plan_id":"cebpf4jnsgd1na2vs0mg"},{"bike_id":"632e2a9c-a162-4838-94a3-57d8ac0d6645","system_id":"levelo_inurba_marseille","lat":43.26801,"lon":5.40272,"is_reserved":false,"is_disabled":false,"rental_uris":{"android":"levelo://app?vid=632e2a9c-a162-4838-94a3-57d8ac0d6645","ios":"levelo://app?vid=632e2a9c-a162-4838-94a3-57d8ac0d6645"},"vehicle_type_id":"4","last_reported":1756232088,"current_range_meters":4000,"station_id":"ce501612rcd8frsf0b60","pricing_plan_id":"cebpf4jnsgd1na2vs0mg"},{"bike_id":"304283b6-896c-4ad4-b94f-df49b1923239","system_id":"levelo_inurba_marseille","lat":43.30423,"lon":5.39748,"is_reserved":false,"is_disabled":false,"rental_uris":{"android":"levelo://app?vid=304283b6-896c-4ad4-b94f-df49b1923239","ios":"levelo://app?vid=304283b6-896c-4ad4-b94f-df49b1923239"},"vehicle_type_id":"4","last_reported":1756232088,"current_range_meters":4000,"station_id":"ce4bh092rcd13ifvqd20","pricing_plan_id":"cebpf4jnsgd1na2vs0mg"},{"bike_id":"5c75844c-fd13-4e34-a35e-272c95572064","system_id":"levelo_inurba_marseille","lat":43.29529,"lon":5.38539,"is_reserved":false,"is_disabled":false,"rental_uris":{"android":"levelo://app?vid=5c75844c-fd13-4e34-a35e-272c95572064","ios":"levelo://app?vid=5c75844c-fd13-4e34-a35e-272c95572064"},"vehicle_type_id":"4","last_reported":1756232088,"current_range_meters":4400,"station_id":"ce4bgih2rcd13ifvqba0","pricing_plan_id":"cebpf4jnsgd1na2vs0mg"},{"bike_id":"c4ccc10f-8ccd-44be-a00a-f6ebdc6ec159","system_id":"levelo_inurba_marseille","lat":43.30403,"lon":5.43431,"is_reserved":false,"is_disabled":false,"rental_uris":{"android":"levelo://app?vid=c4ccc10f-8ccd-44be-a00a-f6ebdc6ec159","ios":"levelo://app?vid=c4ccc10f-8ccd-44be-a00a-f6ebdc6ec159"},"vehicle_type_id":"4","last_reported":1756232088,"current_range_meters":4400,"station_id":"","pricing_plan_id":"cebpf4jnsgd1na2vs0mg"},{"bike_id":"742631a2-09ba-498b-a37f-e37c7a6149a6","system_id":"levelo_inurba_marseille","lat":43.276141,"lon":5.361066,"is_reserved":false,"is_disabled":false,"rental_uris":{"android":"levelo://app?vid=742631a2-09ba-498b-a37f-e37c7a6149a6","ios":"levelo://app?vid=742631a2-09ba-498b-a37f-e37c7a6149a6"},"vehicle_type_id":"4","last_reported":1756232088,"current_range_meters":4400,"station_id":"ce4bgj92rcd13ifvqbe0","pricing_plan_id":"cebpf4jnsgd1na2vs0mg"},{"bike_id":"086c36ce-f404-435a-8dee-f5e9df3dbed3","system_id":"levelo_inurba_marseille","lat":43.28613,"lon":5.37055,"is_reserved":false,"is_disabled":false,"rental_uris":{"android":"levelo://app?vid=086c36ce-f404-435a-8dee-f5e9df3dbed3","ios":"levelo://app?vid=086c36ce-f404-435a-8dee-f5e9df3dbed3"},"vehicle_type_id":"4","last_reported":1756232088,"current_range_meters":4400,"station_id":"ce4bht12rcd13ifvqi60","pricing_plan_id":"cebpf4jnsgd1na2vs0mg"},{"bike_id":"51c0f57b-9752-467e-9331-1c6d84aa4be1","system_id":"levelo_inurba_marseille","lat":43.29275,"lon":5.38448,"is_reserved":false,"is_disabled":false,"rental_uris":{"android":"levelo://app?vid=51c0f57b-9752-467e-9331-1c6d84aa4be1","ios":"levelo://app?vid=51c0f57b-9752-467e-9331-1c6d84aa4be1"},"vehicle_type_id":"4","last_reported":1756232088,"current_range_meters":4400,"station_id":"ce4bh692rcd13ifvqea0","pricing_plan_id":"cebpf4jnsgd1na2vs0mg"},{"bike_id":"fb0ecd7c-2c0f-42f1-9e73-9448c9893367","system_id":"levelo_inurba_marseille","lat":43.26478,"lon":5.37032,"is_reserved":false,"is_disabled":false,"rental_uris":{"android":"levelo://app?vid=fb0ecd7c-2c0f-42f1-9e73-9448c9893367","ios":"levelo://app?vid=fb0ecd7c-2c0f-42f1-9e73-9448c9893367"},"vehicle_type_id":"4","last_reported":1756232088,"current_range_meters":4400,"station_id":"","pricing_plan_id":"cebpf4jnsgd1na2vs0mg"},{"bike_id":"f5101e58-a497-4c06-8c26-518adb4ea810","system_id":"levelo_inurba_marseille","lat":43.29625,"lon":5.37166,"is_reserved":false,"is_disabled":false,"rental_uris":{"android":"levelo://app?vid=f5101e58-a497-4c06-8c26-518adb4ea810","ios":"levelo://app?vid=f5101e58-a497-4c06-8c26-518adb4ea810"},"vehicle_type_id":"4","last_reported":1756232088,"current_range_meters":4400,"station_id":"ce4bgnh2rcd13ifvqc0g","pricing_plan_id":"cebpf4jnsgd1na2vs0mg"},{"bike_id":"2ecf8312-97c8-4786-ba17-afb9fe814522","system_id":"levelo_inurba_marseille","lat":43.29189,"lon":5.39316,"is_reserved":false,"is_disabled":false,"rental_uris":{"android":"levelo://app?vid=2ecf8312-97c8-4786-ba17-afb9fe814522","ios":"levelo://app?vid=2ecf8312-97c8-4786-ba17-afb9fe814522"},"vehicle_type_id":"4","last_reported":1756232088,"current_range_meters":4400,"station_id":"ce4bh192rcd13ifvqdd0","pricing_plan_id":"cebpf4jnsgd1na2vs0mg"},{"bike_id":"222a50c0-a89b-4625-b3be-8a00e18b2d50","system_id":"levelo_inurba_marseille","lat":43.29582,"lon":5.36741,"is_reserved":false,"is_disabled":false,"rental_uris":{"android":"levelo://app?vid=222a50c0-a89b-4625-b3be-8a00e18b2d50","ios":"levelo://app?vid=222a50c0-a89b-4625-b3be-8a00e18b2d50"},"vehicle_type_id":"4","last_reported":1756232088,"current_range_meters":4800,"station_id":"ce4bgph2rcd13ifvqc2g","pricing_plan_id":"cebpf4jnsgd1na2vs0mg"},{"bike_id":"70068545-5f36-4f92-9745-92e7282deda0","system_id":"levelo_inurba_marseille","lat":43.29778,"lon":5.37098,"is_reserved":false,"is_disabled":false,"rental_uris":{"android":"levelo://app?vid=70068545-5f36-4f92-9745-92e7282deda0","ios":"levelo://app?vid=70068545-5f36-4f92-9745-92e7282deda0"},"vehicle_type_id":"4","last_reported":1756232088,"current_range_meters":4800,"station_id":"ce4bgop2rcd13ifvqc1g","pricing_plan_id":"cebpf4jnsgd1na2vs0mg"},{"bike_id":"21b7b714-1d2b-4bb9-9eb7-dc92bb4bdac4","system_id":"levelo_inurba_marseille","lat":43.28614,"lon":5.35105,"is_reserved":false,"is_disabled":false,"rental_uris":{"android":"levelo://app?vid=21b7b714-1d2b-4bb9-9eb7-dc92bb4bdac4","ios":"levelo://app?vid=21b7b714-1d2b-4bb9-9eb7-dc92bb4bdac4"},"vehicle_type_id":"4","last_reported":1756232088,"current_range_meters":4800,"station_id":"ce4bhch2rcd13ifvqeug","pricing_plan_id":"cebpf4jnsgd1na2vs0mg"},{"bike_id":"dcd1b08e-0cc7-4370-b59d-dc910d17c0e8","system_id":"levelo_inurba_marseille","lat":43.31761,"lon":5.39014,"is_reserved":false,"is_disabled":false,"rental_uris":{"android":"levelo://app?vid=dcd1b08e-0cc7-4370-b59d-dc910d17c0e8","ios":"levelo://app?vid=dcd1b08e-0cc7-4370-b59d-dc910d17c0e8"},"vehicle_type_id":"4","last_reported":1756232088,"current_range_meters":3200,"station_id":"ce4bhqp2rcd13ifvqhng","pricing_plan_id":"cebpf4jnsgd1na2vs0mg"},{"bike_id":"1c79f39e-06e0-46a1-b7d1-297126cdf1f4","system_id":"levelo_inurba_marseille","lat":43.30468,"lon":5.37911,"is_reserved":false,"is_disabled":false,"rental_uris":{"android":"levelo://app?vid=1c79f39e-06e0-46a1-b7d1-297126cdf1f4","ios":"levelo://app?vid=1c79f39e-06e0-46a1-b7d1-297126cdf1f4"},"vehicle_type_id":"4","last_reported":1756232088,"current_range_meters":5600,"station_id":"ce4bgup2rcd13ifvqcn0","pricing_plan_id":"cebpf4jnsgd1na2vs0mg"},{"bike_id":"c622628d-ed8d-4ca9-b6c5-f67dcc1a1971","system_id":"levelo_inurba_marseille","lat":43.29265,"lon":5.38445,"is_reserved":false,"is_disabled":false,"rental_uris":{"android":"levelo://app?vid=c622628d-ed8d-4ca9-b6c5-f67dcc1a1971","ios":"levelo://app?vid=c622628d-ed8d-4ca9-b6c5-f67dcc1a1971"},"vehicle_type_id":"4","last_reported":1756232088,"current_range_meters":5600,"station_id":"ce4bh692rcd13ifvqea0","pricing_plan_id":"cebpf4jnsgd1na2vs0mg"},{"bike_id":"1d396356-b581-43a9-9dce-608b5553a28f","system_id":"levelo_inurba_marseille","lat":43.273779,"lon":5.362653,"is_reserved":false,"is_disabled":false,"rental_uris":{"android":"levelo://app?vid=1d396356-b581-43a9-9dce-608b5553a28f","ios":"levelo://app?vid=1d396356-b581-43a9-9dce-608b5553a28f"},"vehicle_type_id":"4","last_reported":1756232088,"current_range_meters":0,"station_id":"ce4bhbh2rcd13ifvqeo0","pricing_plan_id":"cebpf4jnsgd1na2vs0mg"},{"bike_id":"d23c348c-681c-46e3-877a-19f0477cf646","system_id":"levelo_inurba_marseille","lat":43.29194,"lon":5.39321,"is_reserved":false,"is_disabled":false,"rental_uris":{"android":"levelo://app?vid=d23c348c-681c-46e3-877a-19f0477cf646","ios":"levelo://app?vid=d23c348c-681c-46e3-877a-19f0477cf646"},"vehicle_type_id":"4","last_reported":1756232088,"current_range_meters":5600,"station_id":"ce4bh192rcd13ifvqdd0","pricing_plan_id":"cebpf4jnsgd1na2vs0mg"},{"bike_id":"9913e2d5-19eb-4381-8535-f48d2e5cbd17","system_id":"levelo_inurba_marseille","lat":43.30306,"lon":5.39221,"is_reserved":false,"is_disabled":false,"rental_uris":{"android":"levelo://app?vid=9913e2d5-19eb-4381-8535-f48d2e5cbd17","ios":"levelo://app?vid=9913e2d5-19eb-4381-8535-f48d2e5cbd17"},"vehicle_type_id":"4","last_reported":1756232088,"current_range_meters":6000,"station_id":"ce4bgkh2rcd13ifvqbk0","pricing_plan_id":"cebpf4jnsgd1na2vs0mg"},{"bike_id":"a1208a87-1d7e-4ae0-b33b-b64624cbef4a","system_id":"levelo_inurba_marseille","lat":43.28931,"lon":5.36636,"is_reserved":false,"is_disabled":false,"rental_uris":{"android":"levelo://app?vid=a1208a87-1d7e-4ae0-b33b-b64624cbef4a","ios":"levelo://app?vid=a1208a87-1d7e-4ae0-b33b-b64624cbef4a"},"vehicle_type_id":"4","last_reported":1756232088,"current_range_meters":6000,"station_id":"ce4bhap2rcd13ifvqek0","pricing_plan_id":"cebpf4jnsgd1na2vs0mg"},{"bike_id":"9e50c283-730a-4b8a-b5ed-1cbbb10516ac","system_id":"levelo_inurba_marseille","lat":43.30137,"lon":5.38782,"is_reserved":false,"is_disabled":false,"rental_uris":{"android":"levelo://app?vid=9e50c283-730a-4b8a-b5ed-1cbbb10516ac","ios":"levelo://app?vid=9e50c283-730a-4b8a-b5ed-1cbbb10516ac"},"vehicle_type_id":"4","last_reported":1756232088,"current_range_meters":6000,"station_id":"ce4bghh2rcd13ifvqb60","pricing_plan_id":"cebpf4jnsgd1na2vs0mg"},{"bike_id":"8c0a8a62-bea8-4ffa-b376-760a95a82a35","system_id":"levelo_inurba_marseille","lat":43.29901,"lon":5.38021,"is_reserved":false,"is_disabled":false,"rental_uris":{"android":"levelo://app?vid=8c0a8a62-bea8-4ffa-b376-760a95a82a35","ios":"levelo://app?vid=8c0a8a62-bea8-4ffa-b376-760a95a82a35"},"vehicle_type_id":"4","last_reported":1756232088,"current_range_meters":6000,"station_id":"","pricing_plan_id":"cebpf4jnsgd1na2vs0mg"},{"bike_id":"cfb0c5ed-42b8-46cd-96eb-5ac054e10fe5","system_id":"levelo_inurba_marseille","lat":43.31173,"lon":5.38712,"is_reserved":false,"is_disabled":false,"rental_uris":{"android":"levelo://app?vid=cfb0c5ed-42b8-46cd-96eb-5ac054e10fe5","ios":"levelo://app?vid=cfb0c5ed-42b8-46cd-96eb-5ac054e10fe5"},"vehicle_type_id":"4","last_reported":1756232088,"current_range_meters":6400,"station_id":"ce4bgv12rcd13ifvqcp0","pricing_plan_id":"cebpf4jnsgd1na2vs0mg"},{"bike_id":"08168ec2-0834-4eb3-a336-427c2c3279a5","system_id":"levelo_inurba_marseille","lat":43.21748,"lon":5.34591,"is_reserved":false,"is_disabled":false,"rental_uris":{"android":"levelo://app?vid=08168ec2-0834-4eb3-a336-427c2c3279a5","ios":"levelo://app?vid=08168ec2-0834-4eb3-a336-427c2c3279a5"},"vehicle_type_id":"4","last_reported":1756232088,"current_range_meters":6400,"station_id":"st_cvj6r9ubvosntc0bgbag","pricing_plan_id":"cebpf4jnsgd1na2vs0mg"},{"bike_id":"9ddfe0aa-121e-456f-b7a9-b7feab135046","system_id":"levelo_inurba_marseille","lat":43.30928,"lon":5.40141,"is_reserved":false,"is_disabled":false,"rental_uris":{"android":"levelo://app?vid=9ddfe0aa-121e-456f-b7a9-b7feab135046","ios":"levelo://app?vid=9ddfe0aa-121e-456f-b7a9-b7feab135046"},"vehicle_type_id":"4","last_reported":1756232088,"current_range_meters":6400,"station_id":"ce4bgvp2rcd13ifvqct0","pricing_plan_id":"cebpf4jnsgd1na2vs0mg"},{"bike_id":"cc6664e2-4fcd-4dd4-9113-dece355e6a08","system_id":"levelo_inurba_marseille","lat":43.2621,"lon":5.37442,"is_reserved":false,"is_disabled":false,"rental_uris":{"android":"levelo://app?vid=cc6664e2-4fcd-4dd4-9113-dece355e6a08","ios":"levelo://app?vid=cc6664e2-4fcd-4dd4-9113-dece355e6a08"},"vehicle_type_id":"4","last_reported":1756232088,"current_range_meters":6400,"station_id":"ce4bhgp2rcd13ifvqfc0","pricing_plan_id":"cebpf4jnsgd1na2vs0mg"},{"bike_id":"c9a1e2f5-9ea7-4dc5-af99-4282e671d3b5","system_id":"levelo_inurba_marseille","lat":43.261976,"lon":5.374436,"is_reserved":false,"is_disabled":true,"rental_uris":{"android":"levelo://app?vid=c9a1e2f5-9ea7-4dc5-af99-4282e671d3b5","ios":"levelo://app?vid=c9a1e2f5-9ea7-4dc5-af99-4282e671d3b5"},"vehicle_type_id":"4","last_reported":1756232088,"current_range_meters":6400,"station_id":"ce4bhgp2rcd13ifvqfc0","pricing_plan_id":"cebpf4jnsgd1na2vs0mg"},{"bike_id":"9b6a0ccc-5ca9-4b90-9ed2-e417a1b65a79","system_id":"levelo_inurba_marseille","lat":43.2927,"lon":5.384419,"is_reserved":false,"is_disabled":false,"rental_uris":{"android":"levelo://app?vid=9b6a0ccc-5ca9-4b90-9ed2-e417a1b65a79","ios":"levelo://app?vid=9b6a0ccc-5ca9-4b90-9ed2-e417a1b65a79"},"vehicle_type_id":"4","last_reported":1756232088,"current_range_meters":6800,"station_id":"ce4bh692rcd13ifvqea0","pricing_plan_id":"cebpf4jnsgd1na2vs0mg"},{"bike_id":"5e65f583-891c-4eaf-bf0c-0d97d53129af","system_id":"levelo_inurba_marseille","lat":43.27999,"lon":5.40007,"is_reserved":false,"is_disabled":false,"rental_uris":{"android":"levelo://app?vid=5e65f583-891c-4eaf-bf0c-0d97d53129af","ios":"levelo://app?vid=5e65f583-891c-4eaf-bf0c-0d97d53129af"},"vehicle_type_id":"4","last_reported":1756232088,"current_range_meters":6800,"station_id":"ce4bho92rcd13ifvqh4g","pricing_plan_id":"cebpf4jnsgd1na2vs0mg"},{"bike_id":"f6bd5b86-eb54-487c-8a4e-3da908b177ef","system_id":"levelo_inurba_marseille","lat":43.29568,"lon":5.37527,"is_reserved":false,"is_disabled":true,"rental_uris":{"android":"levelo://app?vid=f6bd5b86-eb54-487c-8a4e-3da908b177ef","ios":"levelo://app?vid=f6bd5b86-eb54-487c-8a4e-3da908b177ef"},"vehicle_type_id":"4","last_reported":1756232088,"current_range_meters":6800,"station_id":"","pricing_plan_id":"cebpf4jnsgd1na2vs0mg"},{"bike_id":"063764e7-c0ff-4e79-bbde-b17c9a804a5d","system_id":"levelo_inurba_marseille","lat":43.29257,"lon":5.38445,"is_reserved":false,"is_disabled":false,"rental_uris":{"android":"levelo://app?vid=063764e7-c0ff-4e79-bbde-b17c9a804a5d","ios":"levelo://app?vid=063764e7-c0ff-4e79-bbde-b17c9a804a5d"},"vehicle_type_id":"4","last_reported":1756232088,"current_range_meters":6800,"station_id":"ce4bh692rcd13ifvqea0","pricing_plan_id":"cebpf4jnsgd1na2vs0mg"},{"bike_id":"2a6aa172-9358-46c6-b84c-22ff7be5ec3a","system_id":"levelo_inurba_marseille","lat":43.30305,"lon":5.39212,"is_reserved":false,"is_disabled":false,"rental_uris":{"android":"levelo://app?vid=2a6aa172-9358-46c6-b84c-22ff7be5ec3a","ios":"levelo://app?vid=2a6aa172-9358-46c6-b84c-22ff7be5ec3a"},"vehicle_type_id":"4","last_reported":1756232088,"current_range_meters":6800,"station_id":"ce4bgkh2rcd13ifvqbk0","pricing_plan_id":"cebpf4jnsgd1na2vs0mg"},{"bike_id":"04ee5bdc-4b4e-4c24-a6bb-cccf187c6ed7","system_id":"levelo_inurba_marseille","lat":43.29098,"lon":5.3814,"is_reserved":false,"is_disabled":false,"rental_uris":{"android":"levelo://app?vid=04ee5bdc-4b4e-4c24-a6bb-cccf187c6ed7","ios":"levelo://app?vid=04ee5bdc-4b4e-4c24-a6bb-cccf187c6ed7"},"vehicle_type_id":"4","last_reported":1756232088,"current_range_meters":6800,"station_id":"ce4bh512rcd13ifvqe2g","pricing_plan_id":"cebpf4jnsgd1na2vs0mg"},{"bike_id":"ac5f779f-37e4-4a97-8c07-529eb85ee560","system_id":"levelo_inurba_marseille","lat":43.247985,"lon":5.374503,"is_reserved":false,"is_disabled":false,"rental_uris":{"android":"levelo://app?vid=ac5f779f-37e4-4a97-8c07-529eb85ee560","ios":"levelo://app?vid=ac5f779f-37e4-4a97-8c07-529eb85ee560"},"vehicle_type_id":"4","last_reported":1756232088,"current_range_meters":6800,"station_id":"ce4bhgh2rcd13ifvqfb0","pricing_plan_id":"cebpf4jnsgd1na2vs0mg"},{"bike_id":"bdf85e08-5676-48b0-8060-453cc8bae2cf","system_id":"levelo_inurba_marseille","lat":43.29182,"lon":5.35789,"is_reserved":false,"is_disabled":true,"rental_uris":{"android":"levelo://app?vid=bdf85e08-5676-48b0-8060-453cc8bae2cf","ios":"levelo://app?vid=bdf85e08-5676-48b0-8060-453cc8bae2cf"},"vehicle_type_id":"4","last_reported":1756232088,"current_range_meters":6800,"station_id":"ce4bhb12rcd13ifvqel0","pricing_plan_id":"cebpf4jnsgd1na2vs0mg"},{"bike_id":"57433110-679a-4cfd-8efe-0adbfe7ac9a5","system_id":"levelo_inurba_marseille","lat":43.30137,"lon":5.387687,"is_reserved":false,"is_disabled":false,"rental_uris":{"android":"levelo://app?vid=57433110-679a-4cfd-8efe-0adbfe7ac9a5","ios":"levelo://app?vid=57433110-679a-4cfd-8efe-0adbfe7ac9a5"},"vehicle_type_id":"4","last_reported":1756232088,"current_range_meters":6800,"station_id":"ce4bghh2rcd13ifvqb60","pricing_plan_id":"cebpf4jnsgd1na2vs0mg"},{"bike_id":"ca5c8bd7-f453-4ed0-b8ff-31d9e297d926","system_id":"levelo_inurba_marseille","lat":43.27067,"lon":5.42268,"is_reserved":false,"is_disabled":false,"rental_uris":{"android":"levelo://app?vid=ca5c8bd7-f453-4ed0-b8ff-31d9e297d926","ios":"levelo://app?vid=ca5c8bd7-f453-4ed0-b8ff-31d9e297d926"},"vehicle_type_id":"4","last_reported":1756232088,"current_range_meters":6800,"station_id":"ce4bhk92rcd13ifvqgb0","pricing_plan_id":"cebpf4jnsgd1na2vs0mg"},{"bike_id":"0e3b62c2-5e3b-4e49-921a-f431126864ae","system_id":"levelo_inurba_marseille","lat":43.2815,"lon":5.42647,"is_reserved":false,"is_disabled":false,"rental_uris":{"android":"levelo://app?vid=0e3b62c2-5e3b-4e49-921a-f431126864ae","ios":"levelo://app?vid=0e3b62c2-5e3b-4e49-921a-f431126864ae"},"vehicle_type_id":"4","last_reported":1756232088,"current_range_meters":7200,"station_id":"ce4bhnh2rcd13ifvqgug","pricing_plan_id":"cebpf4jnsgd1na2vs0mg"},{"bike_id":"910a2fe9-c763-44c1-8de4-85789a7f1606","system_id":"levelo_inurba_marseille","lat":43.274151,"lon":5.394097,"is_reserved":false,"is_disabled":true,"rental_uris":{"android":"levelo://app?vid=910a2fe9-c763-44c1-8de4-85789a7f1606","ios":"levelo://app?vid=910a2fe9-c763-44c1-8de4-85789a7f1606"},"vehicle_type_id":"4","last_reported":1756232088,"current_range_meters":7200,"station_id":"ce4bhdp2rcd13ifvqf20","pricing_plan_id":"cebpf4jnsgd1na2vs0mg"},{"bike_id":"b72ddfe3-c483-48b6-a880-a138054f95e8","system_id":"levelo_inurba_marseille","lat":43.21197,"lon":5.350527,"is_reserved":false,"is_disabled":false,"rental_uris":{"android":"levelo://app?vid=b72ddfe3-c483-48b6-a880-a138054f95e8","ios":"levelo://app?vid=b72ddfe3-c483-48b6-a880-a138054f95e8"},"vehicle_type_id":"4","last_reported":1756232088,"current_range_meters":7200,"station_id":"st_cvj6sg6p6f1abm77japg","pricing_plan_id":"cebpf4jnsgd1na2vs0mg"},{"bike_id":"2bb89816-98f4-4c01-8ad8-42eaaa3d9394","system_id":"levelo_inurba_marseille","lat":43.310971,"lon":5.389269,"is_reserved":false,"is_disabled":false,"rental_uris":{"android":"levelo://app?vid=2bb89816-98f4-4c01-8ad8-42eaaa3d9394","ios":"levelo://app?vid=2bb89816-98f4-4c01-8ad8-42eaaa3d9394"},"vehicle_type_id":"4","last_reported":1756232088,"current_range_meters":7200,"station_id":"ce4bgth2rcd13ifvqch0","pricing_plan_id":"cebpf4jnsgd1na2vs0mg"},{"bike_id":"4303ce18-b2aa-44cc-8d81-be75beba0f2d","system_id":"levelo_inurba_marseille","lat":43.29533,"lon":5.38544,"is_reserved":false,"is_disabled":false,"rental_uris":{"android":"levelo://app?vid=4303ce18-b2aa-44cc-8d81-be75beba0f2d","ios":"levelo://app?vid=4303ce18-b2aa-44cc-8d81-be75beba0f2d"},"vehicle_type_id":"4","last_reported":1756232088,"current_range_meters":7200,"station_id":"","pricing_plan_id":"cebpf4jnsgd1na2vs0mg"},{"bike_id":"236f1a17-bd84-4b8e-977f-7df7d8cf402c","system_id":"levelo_inurba_marseille","lat":43.30804,"lon":5.43528,"is_reserved":false,"is_disabled":true,"rental_uris":{"android":"levelo://app?vid=236f1a17-bd84-4b8e-977f-7df7d8cf402c","ios":"levelo://app?vid=236f1a17-bd84-4b8e-977f-7df7d8cf402c"},"vehicle_type_id":"4","last_reported":1756232088,"current_range_meters":7200,"station_id":"ce4bhph2rcd13ifvqheg","pricing_plan_id":"cebpf4jnsgd1na2vs0mg"},{"bike_id":"08274ab8-a072-4c56-bb5b-061efedbeeee","system_id":"levelo_inurba_marseille","lat":43.28156,"lon":5.42641,"is_reserved":false,"is_disabled":false,"rental_uris":{"android":"levelo://app?vid=08274ab8-a072-4c56-bb5b-061efedbeeee","ios":"levelo://app?vid=08274ab8-a072-4c56-bb5b-061efedbeeee"},"vehicle_type_id":"4","last_reported":1756232088,"current_range_meters":7200,"station_id":"ce4bhnh2rcd13ifvqgug","pricing_plan_id":"cebpf4jnsgd1na2vs0mg"},{"bike_id":"03a49b99-b474-4ec8-a8a0-c65aea07549a","system_id":"levelo_inurba_marseille","lat":43.30135,"lon":5.38781,"is_reserved":false,"is_disabled":false,"rental_uris":{"android":"levelo://app?vid=03a49b99-b474-4ec8-a8a0-c65aea07549a","ios":"levelo://app?vid=03a49b99-b474-4ec8-a8a0-c65aea07549a"},"vehicle_type_id":"4","last_reported":1756232088,"current_range_meters":4800,"station_id":"ce4bghh2rcd13ifvqb60","pricing_plan_id":"cebpf4jnsgd1na2vs0mg"},{"bike_id":"1620fbf5-b178-462d-a955-304481902ce9","system_id":"levelo_inurba_marseille","lat":43.260614,"lon":5.39399,"is_reserved":false,"is_disabled":false,"rental_uris":{"android":"levelo://app?vid=1620fbf5-b178-462d-a955-304481902ce9","ios":"levelo://app?vid=1620fbf5-b178-462d-a955-304481902ce9"},"vehicle_type_id":"4","last_reported":1756232088,"current_range_meters":8000,"station_id":"ce4bhh92rcd13ifvqfj0","pricing_plan_id":"cebpf4jnsgd1na2vs0mg"},{"bike_id":"8838e31e-f0e1-4941-8e57-ede0c4038043","system_id":"levelo_inurba_marseille","lat":43.26564,"lon":5.3728,"is_reserved":false,"is_disabled":false,"rental_uris":{"android":"levelo://app?vid=8838e31e-f0e1-4941-8e57-ede0c4038043","ios":"levelo://app?vid=8838e31e-f0e1-4941-8e57-ede0c4038043"},"vehicle_type_id":"4","last_reported":1756232088,"current_range_meters":8000,"station_id":"ce4bhg12rcd13ifvqf70","pricing_plan_id":"cebpf4jnsgd1na2vs0mg"},{"bike_id":"03be758f-3e6d-4c72-8876-95a4359600d6","system_id":"levelo_inurba_marseille","lat":43.33762,"lon":5.375,"is_reserved":false,"is_disabled":false,"rental_uris":{"android":"levelo://app?vid=03be758f-3e6d-4c72-8876-95a4359600d6","ios":"levelo://app?vid=03be758f-3e6d-4c72-8876-95a4359600d6"},"vehicle_type_id":"4","last_reported":1756232088,"current_range_meters":8000,"station_id":"","pricing_plan_id":"cebpf4jnsgd1na2vs0mg"},{"bike_id":"a8619116-f6e0-49c7-ba66-c31cc3c05871","system_id":"levelo_inurba_marseille","lat":43.285858,"lon":5.383545,"is_reserved":false,"is_disabled":false,"rental_uris":{"android":"levelo://app?vid=a8619116-f6e0-49c7-ba66-c31cc3c05871","ios":"levelo://app?vid=a8619116-f6e0-49c7-ba66-c31cc3c05871"},"vehicle_type_id":"4","last_reported":1756232088,"current_range_meters":8000,"station_id":"ce4bhoh2rcd13ifvqh5g","pricing_plan_id":"cebpf4jnsgd1na2vs0mg"},{"bike_id":"ffa10074-d78b-430d-bb83-9f2aadca16fa","system_id":"levelo_inurba_marseille","lat":43.28851,"lon":5.39312,"is_reserved":false,"is_disabled":false,"rental_uris":{"android":"levelo://app?vid=ffa10074-d78b-430d-bb83-9f2aadca16fa","ios":"levelo://app?vid=ffa10074-d78b-430d-bb83-9f2aadca16fa"},"vehicle_type_id":"4","last_reported":1756232088,"current_range_meters":7200,"station_id":"ce4bh2p2rcd13ifvqdi0","pricing_plan_id":"cebpf4jnsgd1na2vs0mg"},{"bike_id":"6c39ea18-b313-48aa-8fa2-0a431e18c6b0","system_id":"levelo_inurba_marseille","lat":43.292702,"lon":5.384404,"is_reserved":false,"is_disabled":false,"rental_uris":{"android":"levelo://app?vid=6c39ea18-b313-48aa-8fa2-0a431e18c6b0","ios":"levelo://app?vid=6c39ea18-b313-48aa-8fa2-0a431e18c6b0"},"vehicle_type_id":"4","last_reported":1756232088,"current_range_meters":8000,"station_id":"ce4bh692rcd13ifvqea0","pricing_plan_id":"cebpf4jnsgd1na2vs0mg"},{"bike_id":"08323572-f23a-44f5-9fba-041578c3d6c5","system_id":"levelo_inurba_marseille","lat":43.31361,"lon":5.38491,"is_reserved":false,"is_disabled":false,"rental_uris":{"android":"levelo://app?vid=08323572-f23a-44f5-9fba-041578c3d6c5","ios":"levelo://app?vid=08323572-f23a-44f5-9fba-041578c3d6c5"},"vehicle_type_id":"4","last_reported":1756232088,"current_range_meters":8000,"station_id":"ce4bgt92rcd13ifvqcf0","pricing_plan_id":"cebpf4jnsgd1na2vs0mg"},{"bike_id":"8963a159-f3b7-43a0-8518-9e4a9c40f76e","system_id":"levelo_inurba_marseille","lat":43.33141,"lon":5.38167,"is_reserved":false,"is_disabled":false,"rental_uris":{"android":"levelo://app?vid=8963a159-f3b7-43a0-8518-9e4a9c40f76e","ios":"levelo://app?vid=8963a159-f3b7-43a0-8518-9e4a9c40f76e"},"vehicle_type_id":"4","last_reported":1756232088,"current_range_meters":8000,"station_id":"","pricing_plan_id":"cebpf4jnsgd1na2vs0mg"},{"bike_id":"1be570a9-ef4e-42cb-91c3-f76d9411b2fc","system_id":"levelo_inurba_marseille","lat":43.28679,"lon":5.38669,"is_reserved":false,"is_disabled":false,"rental_uris":{"android":"levelo://app?vid=1be570a9-ef4e-42cb-91c3-f76d9411b2fc","ios":"levelo://app?vid=1be570a9-ef4e-42cb-91c3-f76d9411b2fc"},"vehicle_type_id":"4","last_reported":1756232088,"current_range_meters":8400,"station_id":"ce4bh492rcd13ifvqdug","pricing_plan_id":"cebpf4jnsgd1na2vs0mg"},{"bike_id":"514c2cca-ce76-4fbd-94da-2e05f542f254","system_id":"levelo_inurba_marseille","lat":43.29031,"lon":5.38661,"is_reserved":false,"is_disabled":false,"rental_uris":{"android":"levelo://app?vid=514c2cca-ce76-4fbd-94da-2e05f542f254","ios":"levelo://app?vid=514c2cca-ce76-4fbd-94da-2e05f542f254"},"vehicle_type_id":"4","last_reported":1756232088,"current_range_meters":8400,"station_id":"ce4bh4p2rcd13ifvqe0g","pricing_plan_id":"cebpf4jnsgd1na2vs0mg"},{"bike_id":"31411e94-a109-41dd-a400-34a5aadacfb4","system_id":"levelo_inurba_marseille","lat":43.30882,"lon":5.37179,"is_reserved":false,"is_disabled":false,"rental_uris":{"android":"levelo://app?vid=31411e94-a109-41dd-a400-34a5aadacfb4","ios":"levelo://app?vid=31411e94-a109-41dd-a400-34a5aadacfb4"},"vehicle_type_id":"4","last_reported":1756232088,"current_range_meters":8400,"station_id":"ce4bguh2rcd13ifvqckg","pricing_plan_id":"cebpf4jnsgd1na2vs0mg"},{"bike_id":"3c5f4eba-385b-4728-87d9-a8dba510c24c","system_id":"levelo_inurba_marseille","lat":43.295337,"lon":5.38546,"is_reserved":false,"is_disabled":false,"rental_uris":{"android":"levelo://app?vid=3c5f4eba-385b-4728-87d9-a8dba510c24c","ios":"levelo://app?vid=3c5f4eba-385b-4728-87d9-a8dba510c24c"},"vehicle_type_id":"4","last_reported":1756232088,"current_range_meters":8400,"station_id":"ce4bgih2rcd13ifvqba0","pricing_plan_id":"cebpf4jnsgd1na2vs0mg"},{"bike_id":"286dee07-8db1-4bc7-bac6-96c8ff01e58d","system_id":"levelo_inurba_marseille","lat":43.323574,"lon":5.367554,"is_reserved":false,"is_disabled":false,"rental_uris":{"android":"levelo://app?vid=286dee07-8db1-4bc7-bac6-96c8ff01e58d","ios":"levelo://app?vid=286dee07-8db1-4bc7-bac6-96c8ff01e58d"},"vehicle_type_id":"4","last_reported":1756232088,"current_range_meters":8400,"station_id":"ce4bhsh2rcd13ifvqi2g","pricing_plan_id":"cebpf4jnsgd1na2vs0mg"},{"bike_id":"25fd12f2-8d78-4ad1-a89d-fb836500b0ff","system_id":"levelo_inurba_marseille","lat":43.29846,"lon":5.36276,"is_reserved":false,"is_disabled":false,"rental_uris":{"android":"levelo://app?vid=25fd12f2-8d78-4ad1-a89d-fb836500b0ff","ios":"levelo://app?vid=25fd12f2-8d78-4ad1-a89d-fb836500b0ff"},"vehicle_type_id":"4","last_reported":1756232088,"current_range_meters":8400,"station_id":"ce4bgpp2rcd13ifvqc3g","pricing_plan_id":"cebpf4jnsgd1na2vs0mg"},{"bike_id":"44413e05-9f1d-4182-886e-372ab6e7742d","system_id":"levelo_inurba_marseille","lat":43.28484,"lon":5.38404,"is_reserved":false,"is_disabled":false,"rental_uris":{"android":"levelo://app?vid=44413e05-9f1d-4182-886e-372ab6e7742d","ios":"levelo://app?vid=44413e05-9f1d-4182-886e-372ab6e7742d"},"vehicle_type_id":"4","last_reported":1756232088,"current_range_meters":11200,"station_id":"ce4bh512rcd13ifvqe3g","pricing_plan_id":"cebpf4jnsgd1na2vs0mg"},{"bike_id":"07e6d4d9-bbc9-4e14-927e-730e12b003c1","system_id":"levelo_inurba_marseille","lat":43.28956,"lon":5.36631,"is_reserved":false,"is_disabled":false,"rental_uris":{"android":"levelo://app?vid=07e6d4d9-bbc9-4e14-927e-730e12b003c1","ios":"levelo://app?vid=07e6d4d9-bbc9-4e14-927e-730e12b003c1"},"vehicle_type_id":"4","last_reported":1756232088,"current_range_meters":8400,"station_id":"ce4bhap2rcd13ifvqek0","pricing_plan_id":"cebpf4jnsgd1na2vs0mg"},{"bike_id":"e0368398-249a-433f-9232-52b7e54b7505","system_id":"levelo_inurba_marseille","lat":43.29254,"lon":5.3762,"is_reserved":false,"is_disabled":false,"rental_uris":{"android":"levelo://app?vid=e0368398-249a-433f-9232-52b7e54b7505","ios":"levelo://app?vid=e0368398-249a-433f-9232-52b7e54b7505"},"vehicle_type_id":"4","last_reported":1756232088,"current_range_meters":8800,"station_id":"ce4bgi12rcd13ifvqb80","pricing_plan_id":"cebpf4jnsgd1na2vs0mg"},{"bike_id":"13d612a0-30b2-40f3-9f66-175870b55dae","system_id":"levelo_inurba_marseille","lat":43.31116,"lon":5.37768,"is_reserved":false,"is_disabled":false,"rental_uris":{"android":"levelo://app?vid=13d612a0-30b2-40f3-9f66-175870b55dae","ios":"levelo://app?vid=13d612a0-30b2-40f3-9f66-175870b55dae"},"vehicle_type_id":"4","last_reported":1756232088,"current_range_meters":8800,"station_id":"ce4bgt92rcd13ifvqcg0","pricing_plan_id":"cebpf4jnsgd1na2vs0mg"},{"bike_id":"6e92ecd6-7ac9-46cf-b034-60b1193115de","system_id":"levelo_inurba_marseille","lat":43.28701,"lon":5.39988,"is_reserved":false,"is_disabled":false,"rental_uris":{"android":"levelo://app?vid=6e92ecd6-7ac9-46cf-b034-60b1193115de","ios":"levelo://app?vid=6e92ecd6-7ac9-46cf-b034-60b1193115de"},"vehicle_type_id":"4","last_reported":1756232088,"current_range_meters":9200,"station_id":"ce4bho92rcd13ifvqh3g","pricing_plan_id":"cebpf4jnsgd1na2vs0mg"},{"bike_id":"540ce205-844f-4d40-8cfb-d5d924d9065e","system_id":"levelo_inurba_marseille","lat":43.29197,"lon":5.39325,"is_reserved":false,"is_disabled":false,"rental_uris":{"android":"levelo://app?vid=540ce205-844f-4d40-8cfb-d5d924d9065e","ios":"levelo://app?vid=540ce205-844f-4d40-8cfb-d5d924d9065e"},"vehicle_type_id":"4","last_reported":1756232088,"current_range_meters":9200,"station_id":"ce4bh192rcd13ifvqdd0","pricing_plan_id":"cebpf4jnsgd1na2vs0mg"},{"bike_id":"406c7cde-e13a-4b7b-86a1-f7d7ffdae455","system_id":"levelo_inurba_marseille","lat":43.29235,"lon":5.36069,"is_reserved":false,"is_disabled":false,"rental_uris":{"android":"levelo://app?vid=406c7cde-e13a-4b7b-86a1-f7d7ffdae455","ios":"levelo://app?vid=406c7cde-e13a-4b7b-86a1-f7d7ffdae455"},"vehicle_type_id":"4","last_reported":1756232088,"current_range_meters":9200,"station_id":"ce4bhbh2rcd13ifvqeqg","pricing_plan_id":"cebpf4jnsgd1na2vs0mg"},{"bike_id":"509ec9a8-5ffd-4949-837a-6fa36ec5d168","system_id":"levelo_inurba_marseille","lat":43.29043,"lon":5.3865,"is_reserved":false,"is_disabled":false,"rental_uris":{"android":"levelo://app?vid=509ec9a8-5ffd-4949-837a-6fa36ec5d168","ios":"levelo://app?vid=509ec9a8-5ffd-4949-837a-6fa36ec5d168"},"vehicle_type_id":"4","last_reported":1756232088,"current_range_meters":9200,"station_id":"ce4bh4p2rcd13ifvqe0g","pricing_plan_id":"cebpf4jnsgd1na2vs0mg"},{"bike_id":"7dcb35d6-594b-4d01-a317-67fe72ccd52e","system_id":"levelo_inurba_marseille","lat":43.28363,"lon":5.38634,"is_reserved":false,"is_disabled":false,"rental_uris":{"android":"levelo://app?vid=7dcb35d6-594b-4d01-a317-67fe72ccd52e","ios":"levelo://app?vid=7dcb35d6-594b-4d01-a317-67fe72ccd52e"},"vehicle_type_id":"4","last_reported":1756232088,"current_range_meters":9200,"station_id":"ce4bh492rcd13ifvqdvg","pricing_plan_id":"cebpf4jnsgd1na2vs0mg"},{"bike_id":"b74a4724-eeba-4dd5-a676-a043e65a9450","system_id":"levelo_inurba_marseille","lat":43.29061,"lon":5.37152,"is_reserved":false,"is_disabled":false,"rental_uris":{"android":"levelo://app?vid=b74a4724-eeba-4dd5-a676-a043e65a9450","ios":"levelo://app?vid=b74a4724-eeba-4dd5-a676-a043e65a9450"},"vehicle_type_id":"4","last_reported":1756232088,"current_range_meters":9200,"station_id":"ce4bh5p2rcd13ifvqe4g","pricing_plan_id":"cebpf4jnsgd1na2vs0mg"},{"bike_id":"4f905089-9f16-4a4c-a0fc-e895ae2ed7c1","system_id":"levelo_inurba_marseille","lat":43.292651,"lon":5.38433,"is_reserved":false,"is_disabled":false,"rental_uris":{"android":"levelo://app?vid=4f905089-9f16-4a4c-a0fc-e895ae2ed7c1","ios":"levelo://app?vid=4f905089-9f16-4a4c-a0fc-e895ae2ed7c1"},"vehicle_type_id":"4","last_reported":1756232088,"current_range_meters":9200,"station_id":"ce4bh692rcd13ifvqea0","pricing_plan_id":"cebpf4jnsgd1na2vs0mg"},{"bike_id":"bea9b573-b0c0-471b-a983-7d2a5da760bb","system_id":"levelo_inurba_marseille","lat":43.30378,"lon":5.42491,"is_reserved":false,"is_disabled":false,"rental_uris":{"android":"levelo://app?vid=bea9b573-b0c0-471b-a983-7d2a5da760bb","ios":"levelo://app?vid=bea9b573-b0c0-471b-a983-7d2a5da760bb"},"vehicle_type_id":"4","last_reported":1756232088,"current_range_meters":9600,"station_id":"ce4bhoh2rcd13ifvqh6g","pricing_plan_id":"cebpf4jnsgd1na2vs0mg"},{"bike_id":"504cf8c6-5f35-4956-ba63-49f90f66baa1","system_id":"levelo_inurba_marseille","lat":43.286737,"lon":5.386717,"is_reserved":false,"is_disabled":false,"rental_uris":{"android":"levelo://app?vid=504cf8c6-5f35-4956-ba63-49f90f66baa1","ios":"levelo://app?vid=504cf8c6-5f35-4956-ba63-49f90f66baa1"},"vehicle_type_id":"4","last_reported":1756232088,"current_range_meters":9600,"station_id":"ce4bh492rcd13ifvqdug","pricing_plan_id":"cebpf4jnsgd1na2vs0mg"},{"bike_id":"ddf72ed0-171d-4706-9dc7-84caa6145d3d","system_id":"levelo_inurba_marseille","lat":43.28663,"lon":5.38665,"is_reserved":false,"is_disabled":false,"rental_uris":{"android":"levelo://app?vid=ddf72ed0-171d-4706-9dc7-84caa6145d3d","ios":"levelo://app?vid=ddf72ed0-171d-4706-9dc7-84caa6145d3d"},"vehicle_type_id":"4","last_reported":1756232088,"current_range_meters":9600,"station_id":"ce4bh492rcd13ifvqdug","pricing_plan_id":"cebpf4jnsgd1na2vs0mg"},{"bike_id":"0dcfa62a-5e09-4d2b-ae53-5f3b8fc44da4","system_id":"levelo_inurba_marseille","lat":43.321,"lon":5.36775,"is_reserved":false,"is_disabled":false,"rental_uris":{"android":"levelo://app?vid=0dcfa62a-5e09-4d2b-ae53-5f3b8fc44da4","ios":"levelo://app?vid=0dcfa62a-5e09-4d2b-ae53-5f3b8fc44da4"},"vehicle_type_id":"4","last_reported":1756232088,"current_range_meters":9600,"station_id":"ce4bhrh2rcd13ifvqhug","pricing_plan_id":"cebpf4jnsgd1na2vs0mg"},{"bike_id":"9ebbca0f-8b0f-49e0-bbc0-5934ebb0e846","system_id":"levelo_inurba_marseille","lat":43.211885,"lon":5.350692,"is_reserved":false,"is_disabled":false,"rental_uris":{"android":"levelo://app?vid=9ebbca0f-8b0f-49e0-bbc0-5934ebb0e846","ios":"levelo://app?vid=9ebbca0f-8b0f-49e0-bbc0-5934ebb0e846"},"vehicle_type_id":"4","last_reported":1756232088,"current_range_meters":9600,"station_id":"st_cvj6sg6p6f1abm77japg","pricing_plan_id":"cebpf4jnsgd1na2vs0mg"},{"bike_id":"27d0b16c-25f8-41c1-b29d-9bae17ccd223","system_id":"levelo_inurba_marseille","lat":43.29601,"lon":5.38099,"is_reserved":false,"is_disabled":false,"rental_uris":{"android":"levelo://app?vid=27d0b16c-25f8-41c1-b29d-9bae17ccd223","ios":"levelo://app?vid=27d0b16c-25f8-41c1-b29d-9bae17ccd223"},"vehicle_type_id":"4","last_reported":1756232088,"current_range_meters":6800,"station_id":"ce4bgl12rcd13ifvqbo0","pricing_plan_id":"cebpf4jnsgd1na2vs0mg"},{"bike_id":"35293f9d-ecc5-4090-ae0e-2e4ab9a73a16","system_id":"levelo_inurba_marseille","lat":43.323592,"lon":5.367594,"is_reserved":false,"is_disabled":false,"rental_uris":{"android":"levelo://app?vid=35293f9d-ecc5-4090-ae0e-2e4ab9a73a16","ios":"levelo://app?vid=35293f9d-ecc5-4090-ae0e-2e4ab9a73a16"},"vehicle_type_id":"4","last_reported":1756232088,"current_range_meters":9600,"station_id":"ce4bhsh2rcd13ifvqi2g","pricing_plan_id":"cebpf4jnsgd1na2vs0mg"},{"bike_id":"ad3928ba-4613-4913-818d-ac86afecf4c4","system_id":"levelo_inurba_marseille","lat":43.29532,"lon":5.38535,"is_reserved":false,"is_disabled":false,"rental_uris":{"android":"levelo://app?vid=ad3928ba-4613-4913-818d-ac86afecf4c4","ios":"levelo://app?vid=ad3928ba-4613-4913-818d-ac86afecf4c4"},"vehicle_type_id":"4","last_reported":1756232088,"current_range_meters":9600,"station_id":"ce4bgih2rcd13ifvqba0","pricing_plan_id":"cebpf4jnsgd1na2vs0mg"},{"bike_id":"ce42265d-e7b4-4f9d-a7c2-bf2d599bd723","system_id":"levelo_inurba_marseille","lat":43.23772,"lon":5.362,"is_reserved":false,"is_disabled":false,"rental_uris":{"android":"levelo://app?vid=ce42265d-e7b4-4f9d-a7c2-bf2d599bd723","ios":"levelo://app?vid=ce42265d-e7b4-4f9d-a7c2-bf2d599bd723"},"vehicle_type_id":"4","last_reported":1756232088,"current_range_meters":9600,"station_id":"","pricing_plan_id":"cebpf4jnsgd1na2vs0mg"},{"bike_id":"b0146f38-55d2-40e9-8f26-917e1087a00d","system_id":"levelo_inurba_marseille","lat":43.2958,"lon":5.36739,"is_reserved":false,"is_disabled":false,"rental_uris":{"android":"levelo://app?vid=b0146f38-55d2-40e9-8f26-917e1087a00d","ios":"levelo://app?vid=b0146f38-55d2-40e9-8f26-917e1087a00d"},"vehicle_type_id":"4","last_reported":1756232088,"current_range_meters":9600,"station_id":"ce4bgph2rcd13ifvqc2g","pricing_plan_id":"cebpf4jnsgd1na2vs0mg"},{"bike_id":"97062f48-479d-49ab-ac50-46ea23e51f1f","system_id":"levelo_inurba_marseille","lat":43.29941,"lon":5.36561,"is_reserved":false,"is_disabled":false,"rental_uris":{"android":"levelo://app?vid=97062f48-479d-49ab-ac50-46ea23e51f1f","ios":"levelo://app?vid=97062f48-479d-49ab-ac50-46ea23e51f1f"},"vehicle_type_id":"4","last_reported":1756232088,"current_range_meters":9600,"station_id":"ce4bgm92rcd13ifvqbr0","pricing_plan_id":"cebpf4jnsgd1na2vs0mg"},{"bike_id":"f781d014-afa9-4acc-b6f7-3670b0862de3","system_id":"levelo_inurba_marseille","lat":43.21212,"lon":5.35112,"is_reserved":false,"is_disabled":false,"rental_uris":{"android":"levelo://app?vid=f781d014-afa9-4acc-b6f7-3670b0862de3","ios":"levelo://app?vid=f781d014-afa9-4acc-b6f7-3670b0862de3"},"vehicle_type_id":"4","last_reported":1756232088,"current_range_meters":9600,"station_id":"st_cvj6sg6p6f1abm77japg","pricing_plan_id":"cebpf4jnsgd1na2vs0mg"},{"bike_id":"c490c20f-9649-4bae-b440-227d4db4017a","system_id":"levelo_inurba_marseille","lat":43.2989,"lon":5.38901,"is_reserved":false,"is_disabled":false,"rental_uris":{"android":"levelo://app?vid=c490c20f-9649-4bae-b440-227d4db4017a","ios":"levelo://app?vid=c490c20f-9649-4bae-b440-227d4db4017a"},"vehicle_type_id":"4","last_reported":1756232088,"current_range_meters":10000,"station_id":"ce4bh392rcd13ifvqdl0","pricing_plan_id":"cebpf4jnsgd1na2vs0mg"},{"bike_id":"410b931c-a100-4aa3-8e1c-de4bc43391eb","system_id":"levelo_inurba_marseille","lat":43.24647,"lon":5.38892,"is_reserved":false,"is_disabled":false,"rental_uris":{"android":"levelo://app?vid=410b931c-a100-4aa3-8e1c-de4bc43391eb","ios":"levelo://app?vid=410b931c-a100-4aa3-8e1c-de4bc43391eb"},"vehicle_type_id":"4","last_reported":1756232088,"current_range_meters":10000,"station_id":"ce4bhg12rcd13ifvqf60","pricing_plan_id":"cebpf4jnsgd1na2vs0mg"},{"bike_id":"c8f19ab0-2650-42bf-bf99-315bb14cecb1","system_id":"levelo_inurba_marseille","lat":43.32374,"lon":5.36799,"is_reserved":false,"is_disabled":false,"rental_uris":{"android":"levelo://app?vid=c8f19ab0-2650-42bf-bf99-315bb14cecb1","ios":"levelo://app?vid=c8f19ab0-2650-42bf-bf99-315bb14cecb1"},"vehicle_type_id":"4","last_reported":1756232088,"current_range_meters":10000,"station_id":"ce4bhsh2rcd13ifvqi2g","pricing_plan_id":"cebpf4jnsgd1na2vs0mg"},{"bike_id":"50dcd9ca-bb33-447c-a3ce-243b504aec86","system_id":"levelo_inurba_marseille","lat":43.29022,"lon":5.38641,"is_reserved":false,"is_disabled":false,"rental_uris":{"android":"levelo://app?vid=50dcd9ca-bb33-447c-a3ce-243b504aec86","ios":"levelo://app?vid=50dcd9ca-bb33-447c-a3ce-243b504aec86"},"vehicle_type_id":"4","last_reported":1756232088,"current_range_meters":10000,"station_id":"ce4bh4p2rcd13ifvqe0g","pricing_plan_id":"cebpf4jnsgd1na2vs0mg"},{"bike_id":"9e9de159-c8e6-4517-b515-4bf8b3051c53","system_id":"levelo_inurba_marseille","lat":43.29778,"lon":5.37104,"is_reserved":false,"is_disabled":false,"rental_uris":{"android":"levelo://app?vid=9e9de159-c8e6-4517-b515-4bf8b3051c53","ios":"levelo://app?vid=9e9de159-c8e6-4517-b515-4bf8b3051c53"},"vehicle_type_id":"4","last_reported":1756232088,"current_range_meters":10000,"station_id":"ce4bgop2rcd13ifvqc1g","pricing_plan_id":"cebpf4jnsgd1na2vs0mg"},{"bike_id":"edc4c588-4db1-4b48-bddb-0eba1d72ba9f","system_id":"levelo_inurba_marseille","lat":43.21194,"lon":5.35074,"is_reserved":false,"is_disabled":false,"rental_uris":{"android":"levelo://app?vid=edc4c588-4db1-4b48-bddb-0eba1d72ba9f","ios":"levelo://app?vid=edc4c588-4db1-4b48-bddb-0eba1d72ba9f"},"vehicle_type_id":"4","last_reported":1756232088,"current_range_meters":10000,"station_id":"","pricing_plan_id":"cebpf4jnsgd1na2vs0mg"},{"bike_id":"644942eb-0514-4400-82b3-a4f8f9259347","system_id":"levelo_inurba_marseille","lat":43.28433,"lon":5.39197,"is_reserved":false,"is_disabled":false,"rental_uris":{"android":"levelo://app?vid=644942eb-0514-4400-82b3-a4f8f9259347","ios":"levelo://app?vid=644942eb-0514-4400-82b3-a4f8f9259347"},"vehicle_type_id":"4","last_reported":1756232088,"current_range_meters":10000,"station_id":"ce4bhoh2rcd13ifvqh5g","pricing_plan_id":"cebpf4jnsgd1na2vs0mg"},{"bike_id":"08e1c19f-75fd-440e-8618-032155f3064a","system_id":"levelo_inurba_marseille","lat":43.28722,"lon":5.37949,"is_reserved":false,"is_disabled":false,"rental_uris":{"android":"levelo://app?vid=08e1c19f-75fd-440e-8618-032155f3064a","ios":"levelo://app?vid=08e1c19f-75fd-440e-8618-032155f3064a"},"vehicle_type_id":"4","last_reported":1756232088,"current_range_meters":10800,"station_id":"ce4bh9p2rcd13ifvqec0","pricing_plan_id":"cebpf4jnsgd1na2vs0mg"},{"bike_id":"6a8331ae-8896-4f4a-8456-f83327ee08cf","system_id":"levelo_inurba_marseille","lat":43.30135,"lon":5.3878,"is_reserved":false,"is_disabled":false,"rental_uris":{"android":"levelo://app?vid=6a8331ae-8896-4f4a-8456-f83327ee08cf","ios":"levelo://app?vid=6a8331ae-8896-4f4a-8456-f83327ee08cf"},"vehicle_type_id":"4","last_reported":1756232088,"current_range_meters":10800,"station_id":"ce4bghh2rcd13ifvqb60","pricing_plan_id":"cebpf4jnsgd1na2vs0mg"},{"bike_id":"e01ee32a-7554-49c4-b499-6a9c6f5aee8e","system_id":"levelo_inurba_marseille","lat":43.30607,"lon":5.37234,"is_reserved":false,"is_disabled":false,"rental_uris":{"android":"levelo://app?vid=e01ee32a-7554-49c4-b499-6a9c6f5aee8e","ios":"levelo://app?vid=e01ee32a-7554-49c4-b499-6a9c6f5aee8e"},"vehicle_type_id":"4","last_reported":1756232088,"current_range_meters":10000,"station_id":"ce4bgqh2rcd13ifvqc4g","pricing_plan_id":"cebpf4jnsgd1na2vs0mg"},{"bike_id":"6f50f2e7-e131-4582-8ff7-2a27f4180c02","system_id":"levelo_inurba_marseille","lat":43.29432,"lon":5.39749,"is_reserved":false,"is_disabled":false,"rental_uris":{"android":"levelo://app?vid=6f50f2e7-e131-4582-8ff7-2a27f4180c02","ios":"levelo://app?vid=6f50f2e7-e131-4582-8ff7-2a27f4180c02"},"vehicle_type_id":"4","last_reported":1756232088,"current_range_meters":10800,"station_id":"ce4bh3h2rcd13ifvqdo0","pricing_plan_id":"cebpf4jnsgd1na2vs0mg"},{"bike_id":"50da7fc0-1242-4cf9-ab1a-4204ff138c90","system_id":"levelo_inurba_marseille","lat":43.231853,"lon":5.399897,"is_reserved":false,"is_disabled":false,"rental_uris":{"android":"levelo://app?vid=50da7fc0-1242-4cf9-ab1a-4204ff138c90","ios":"levelo://app?vid=50da7fc0-1242-4cf9-ab1a-4204ff138c90"},"vehicle_type_id":"4","last_reported":1756232088,"current_range_meters":10800,"station_id":"ce4bhn12rcd13ifvqgqg","pricing_plan_id":"cebpf4jnsgd1na2vs0mg"},{"bike_id":"3e130ff4-87da-4c51-a264-44d1f277fd66","system_id":"levelo_inurba_marseille","lat":43.32082,"lon":5.367828,"is_reserved":false,"is_disabled":false,"rental_uris":{"android":"levelo://app?vid=3e130ff4-87da-4c51-a264-44d1f277fd66","ios":"levelo://app?vid=3e130ff4-87da-4c51-a264-44d1f277fd66"},"vehicle_type_id":"4","last_reported":1756232088,"current_range_meters":10800,"station_id":"ce4bhrh2rcd13ifvqhug","pricing_plan_id":"cebpf4jnsgd1na2vs0mg"},{"bike_id":"9f7b86d5-c5d6-43e3-9d43-c7170c447140","system_id":"levelo_inurba_marseille","lat":43.30426,"lon":5.39748,"is_reserved":false,"is_disabled":false,"rental_uris":{"android":"levelo://app?vid=9f7b86d5-c5d6-43e3-9d43-c7170c447140","ios":"levelo://app?vid=9f7b86d5-c5d6-43e3-9d43-c7170c447140"},"vehicle_type_id":"4","last_reported":1756232088,"current_range_meters":11200,"station_id":"ce4bh092rcd13ifvqd20","pricing_plan_id":"cebpf4jnsgd1na2vs0mg"},{"bike_id":"282b1461-8b6b-4614-9124-c6b82dad4f62","system_id":"levelo_inurba_marseille","lat":43.27375,"lon":5.36253,"is_reserved":false,"is_disabled":false,"rental_uris":{"android":"levelo://app?vid=282b1461-8b6b-4614-9124-c6b82dad4f62","ios":"levelo://app?vid=282b1461-8b6b-4614-9124-c6b82dad4f62"},"vehicle_type_id":"4","last_reported":1756232088,"current_range_meters":11200,"station_id":"ce4bhbh2rcd13ifvqeo0","pricing_plan_id":"cebpf4jnsgd1na2vs0mg"},{"bike_id":"e6179b46-81c8-4876-9a4c-537a47573db1","system_id":"levelo_inurba_marseille","lat":43.31366,"lon":5.40606,"is_reserved":false,"is_disabled":false,"rental_uris":{"android":"levelo://app?vid=e6179b46-81c8-4876-9a4c-537a47573db1","ios":"levelo://app?vid=e6179b46-81c8-4876-9a4c-537a47573db1"},"vehicle_type_id":"4","last_reported":1756232088,"current_range_meters":11200,"station_id":"","pricing_plan_id":"cebpf4jnsgd1na2vs0mg"},{"bike_id":"0d502687-08ef-4491-8893-8a03d8688be8","system_id":"levelo_inurba_marseille","lat":43.29611,"lon":5.36114,"is_reserved":false,"is_disabled":false,"rental_uris":{"android":"levelo://app?vid=0d502687-08ef-4491-8893-8a03d8688be8","ios":"levelo://app?vid=0d502687-08ef-4491-8893-8a03d8688be8"},"vehicle_type_id":"4","last_reported":1756232088,"current_range_meters":11200,"station_id":"","pricing_plan_id":"cebpf4jnsgd1na2vs0mg"},{"bike_id":"47c72c85-64e7-43b8-ada4-0f17a3d10859","system_id":"levelo_inurba_marseille","lat":43.217631,"lon":5.345944,"is_reserved":false,"is_disabled":true,"rental_uris":{"android":"levelo://app?vid=47c72c85-64e7-43b8-ada4-0f17a3d10859","ios":"levelo://app?vid=47c72c85-64e7-43b8-ada4-0f17a3d10859"},"vehicle_type_id":"4","last_reported":1756232088,"current_range_meters":11200,"station_id":"st_cvj6r9ubvosntc0bgbag","pricing_plan_id":"cebpf4jnsgd1na2vs0mg"},{"bike_id":"eaac1ac6-6c5d-4274-970f-7bad9d177f4b","system_id":"levelo_inurba_marseille","lat":43.33767,"lon":5.37473,"is_reserved":false,"is_disabled":false,"rental_uris":{"android":"levelo://app?vid=eaac1ac6-6c5d-4274-970f-7bad9d177f4b","ios":"levelo://app?vid=eaac1ac6-6c5d-4274-970f-7bad9d177f4b"},"vehicle_type_id":"4","last_reported":1756232088,"current_range_meters":11600,"station_id":"","pricing_plan_id":"cebpf4jnsgd1na2vs0mg"},{"bike_id":"667ad746-dcf0-4109-9010-2e2926a43733","system_id":"levelo_inurba_marseille","lat":43.28362,"lon":5.38633,"is_reserved":false,"is_disabled":false,"rental_uris":{"android":"levelo://app?vid=667ad746-dcf0-4109-9010-2e2926a43733","ios":"levelo://app?vid=667ad746-dcf0-4109-9010-2e2926a43733"},"vehicle_type_id":"4","last_reported":1756232088,"current_range_meters":11600,"station_id":"ce4bh492rcd13ifvqdvg","pricing_plan_id":"cebpf4jnsgd1na2vs0mg"},{"bike_id":"df84dc5f-daf8-4107-9dff-789d78687a05","system_id":"levelo_inurba_marseille","lat":43.29534,"lon":5.38548,"is_reserved":false,"is_disabled":false,"rental_uris":{"android":"levelo://app?vid=df84dc5f-daf8-4107-9dff-789d78687a05","ios":"levelo://app?vid=df84dc5f-daf8-4107-9dff-789d78687a05"},"vehicle_type_id":"4","last_reported":1756232088,"current_range_meters":11600,"station_id":"ce4bgih2rcd13ifvqba0","pricing_plan_id":"cebpf4jnsgd1na2vs0mg"},{"bike_id":"99132422-e89e-4121-847d-7eb264f731a2","system_id":"levelo_inurba_marseille","lat":43.30237,"lon":5.40061,"is_reserved":false,"is_disabled":true,"rental_uris":{"android":"levelo://app?vid=99132422-e89e-4121-847d-7eb264f731a2","ios":"levelo://app?vid=99132422-e89e-4121-847d-7eb264f731a2"},"vehicle_type_id":"4","last_reported":1756232088,"current_range_meters":11600,"station_id":"ce4bgvh2rcd13ifvqcs0","pricing_plan_id":"cebpf4jnsgd1na2vs0mg"},{"bike_id":"34af3a78-1224-40ec-8bfb-b4769e51fe32","system_id":"levelo_inurba_marseille","lat":43.29971,"lon":5.38489,"is_reserved":false,"is_disabled":false,"rental_uris":{"android":"levelo://app?vid=34af3a78-1224-40ec-8bfb-b4769e51fe32","ios":"levelo://app?vid=34af3a78-1224-40ec-8bfb-b4769e51fe32"},"vehicle_type_id":"4","last_reported":1756232088,"current_range_meters":11600,"station_id":"ce4bgj92rcd13ifvqbd0","pricing_plan_id":"cebpf4jnsgd1na2vs0mg"},{"bike_id":"ec6705ad-1994-4f7b-8ba1-066d763e7f38","system_id":"levelo_inurba_marseille","lat":43.25581,"lon":5.38216,"is_reserved":false,"is_disabled":true,"rental_uris":{"android":"levelo://app?vid=ec6705ad-1994-4f7b-8ba1-066d763e7f38","ios":"levelo://app?vid=ec6705ad-1994-4f7b-8ba1-066d763e7f38"},"vehicle_type_id":"4","last_reported":1756232088,"current_range_meters":11600,"station_id":"ce4bhih2rcd13ifvqfs0","pricing_plan_id":"cebpf4jnsgd1na2vs0mg"},{"bike_id":"a4578e98-0c0e-42ba-b4cc-92d22d1008a9","system_id":"levelo_inurba_marseille","lat":43.29032,"lon":5.3814,"is_reserved":false,"is_disabled":true,"rental_uris":{"android":"levelo://app?vid=a4578e98-0c0e-42ba-b4cc-92d22d1008a9","ios":"levelo://app?vid=a4578e98-0c0e-42ba-b4cc-92d22d1008a9"},"vehicle_type_id":"4","last_reported":1756232088,"current_range_meters":11600,"station_id":"ce4bh4p2rcd13ifvqe1g","pricing_plan_id":"cebpf4jnsgd1na2vs0mg"},{"bike_id":"ac363289-5bcc-45b6-95f2-a3261e0005f6","system_id":"levelo_inurba_marseille","lat":43.292802,"lon":5.368431,"is_reserved":false,"is_disabled":false,"rental_uris":{"android":"levelo://app?vid=ac363289-5bcc-45b6-95f2-a3261e0005f6","ios":"levelo://app?vid=ac363289-5bcc-45b6-95f2-a3261e0005f6"},"vehicle_type_id":"4","last_reported":1756232088,"current_range_meters":11600,"station_id":"ce4bhbp2rcd13ifvqesg","pricing_plan_id":"cebpf4jnsgd1na2vs0mg"},{"bike_id":"deb0ea00-67f9-49d7-9637-ff7d73ee3da5","system_id":"levelo_inurba_marseille","lat":43.292269,"lon":5.360612,"is_reserved":false,"is_disabled":false,"rental_uris":{"android":"levelo://app?vid=deb0ea00-67f9-49d7-9637-ff7d73ee3da5","ios":"levelo://app?vid=deb0ea00-67f9-49d7-9637-ff7d73ee3da5"},"vehicle_type_id":"4","last_reported":1756232088,"current_range_meters":11600,"station_id":"ce4bhbh2rcd13ifvqeqg","pricing_plan_id":"cebpf4jnsgd1na2vs0mg"},{"bike_id":"8490fe25-2e19-4e18-a682-d0a8f194498a","system_id":"levelo_inurba_marseille","lat":43.29534,"lon":5.38542,"is_reserved":false,"is_disabled":false,"rental_uris":{"android":"levelo://app?vid=8490fe25-2e19-4e18-a682-d0a8f194498a","ios":"levelo://app?vid=8490fe25-2e19-4e18-a682-d0a8f194498a"},"vehicle_type_id":"4","last_reported":1756232088,"current_range_meters":11600,"station_id":"ce4bgih2rcd13ifvqba0","pricing_plan_id":"cebpf4jnsgd1na2vs0mg"},{"bike_id":"dad12066-3365-40c2-8baf-856a7fce7142","system_id":"levelo_inurba_marseille","lat":43.28844,"lon":5.35841,"is_reserved":false,"is_disabled":false,"rental_uris":{"android":"levelo://app?vid=dad12066-3365-40c2-8baf-856a7fce7142","ios":"levelo://app?vid=dad12066-3365-40c2-8baf-856a7fce7142"},"vehicle_type_id":"4","last_reported":1756232088,"current_range_meters":11600,"station_id":"ce4bhb12rcd13ifvqem0","pricing_plan_id":"cebpf4jnsgd1na2vs0mg"},{"bike_id":"e5a73ad9-1b3f-45ff-b4d4-75ebc8a5b3af","system_id":"levelo_inurba_marseille","lat":43.30147,"lon":5.38079,"is_reserved":false,"is_disabled":false,"rental_uris":{"android":"levelo://app?vid=e5a73ad9-1b3f-45ff-b4d4-75ebc8a5b3af","ios":"levelo://app?vid=e5a73ad9-1b3f-45ff-b4d4-75ebc8a5b3af"},"vehicle_type_id":"4","last_reported":1756232088,"current_range_meters":11600,"station_id":"ce4bgjp2rcd13ifvqbh0","pricing_plan_id":"cebpf4jnsgd1na2vs0mg"},{"bike_id":"6eb5f99f-1e3c-454b-9e80-2b26c7ba5498","system_id":"levelo_inurba_marseille","lat":43.30152,"lon":5.38092,"is_reserved":false,"is_disabled":false,"rental_uris":{"android":"levelo://app?vid=6eb5f99f-1e3c-454b-9e80-2b26c7ba5498","ios":"levelo://app?vid=6eb5f99f-1e3c-454b-9e80-2b26c7ba5498"},"vehicle_type_id":"4","last_reported":1756232088,"current_range_meters":11600,"station_id":"ce4bgjp2rcd13ifvqbh0","pricing_plan_id":"cebpf4jnsgd1na2vs0mg"},{"bike_id":"bb2da0ae-2c30-4c78-876e-94f8e1ca0494","system_id":"levelo_inurba_marseille","lat":43.26552,"lon":5.37287,"is_reserved":false,"is_disabled":false,"rental_uris":{"android":"levelo://app?vid=bb2da0ae-2c30-4c78-876e-94f8e1ca0494","ios":"levelo://app?vid=bb2da0ae-2c30-4c78-876e-94f8e1ca0494"},"vehicle_type_id":"4","last_reported":1756232088,"current_range_meters":12000,"station_id":"ce4bhg12rcd13ifvqf70","pricing_plan_id":"cebpf4jnsgd1na2vs0mg"},{"bike_id":"b375d41b-9575-4c77-a6a9-d089747042e7","system_id":"levelo_inurba_marseille","lat":43.32267,"lon":5.36764,"is_reserved":false,"is_disabled":false,"rental_uris":{"android":"levelo://app?vid=b375d41b-9575-4c77-a6a9-d089747042e7","ios":"levelo://app?vid=b375d41b-9575-4c77-a6a9-d089747042e7"},"vehicle_type_id":"4","last_reported":1756232088,"current_range_meters":12000,"station_id":"","pricing_plan_id":"cebpf4jnsgd1na2vs0mg"},{"bike_id":"ca52fadb-3406-4812-a40e-22ad31fefcc5","system_id":"levelo_inurba_marseille","lat":43.267779,"lon":5.394241,"is_reserved":false,"is_disabled":false,"rental_uris":{"android":"levelo://app?vid=ca52fadb-3406-4812-a40e-22ad31fefcc5","ios":"levelo://app?vid=ca52fadb-3406-4812-a40e-22ad31fefcc5"},"vehicle_type_id":"4","last_reported":1756232088,"current_range_meters":12000,"station_id":"ce4bhh12rcd13ifvqfg0","pricing_plan_id":"cebpf4jnsgd1na2vs0mg"},{"bike_id":"51e0fec3-3421-4f6e-bdfe-b1f8fdc7cee1","system_id":"levelo_inurba_marseille","lat":43.25488,"lon":5.37648,"is_reserved":false,"is_disabled":false,"rental_uris":{"android":"levelo://app?vid=51e0fec3-3421-4f6e-bdfe-b1f8fdc7cee1","ios":"levelo://app?vid=51e0fec3-3421-4f6e-bdfe-b1f8fdc7cee1"},"vehicle_type_id":"4","last_reported":1756232088,"current_range_meters":12000,"station_id":"ce4bhh12rcd13ifvqff0","pricing_plan_id":"cebpf4jnsgd1na2vs0mg"},{"bike_id":"1578fb4f-f58f-4861-ba43-f852f5319bb2","system_id":"levelo_inurba_marseille","lat":43.28694,"lon":5.37381,"is_reserved":false,"is_disabled":false,"rental_uris":{"android":"levelo://app?vid=1578fb4f-f58f-4861-ba43-f852f5319bb2","ios":"levelo://app?vid=1578fb4f-f58f-4861-ba43-f852f5319bb2"},"vehicle_type_id":"4","last_reported":1756232088,"current_range_meters":11600,"station_id":"ce4bh3p2rcd13ifvqdq0","pricing_plan_id":"cebpf4jnsgd1na2vs0mg"},{"bike_id":"49b4dccb-0d17-4c46-8895-dddbf6afb4d2","system_id":"levelo_inurba_marseille","lat":43.31357,"lon":5.3849,"is_reserved":false,"is_disabled":false,"rental_uris":{"android":"levelo://app?vid=49b4dccb-0d17-4c46-8895-dddbf6afb4d2","ios":"levelo://app?vid=49b4dccb-0d17-4c46-8895-dddbf6afb4d2"},"vehicle_type_id":"4","last_reported":1756232088,"current_range_meters":12000,"station_id":"ce4bgt92rcd13ifvqcf0","pricing_plan_id":"cebpf4jnsgd1na2vs0mg"},{"bike_id":"05bfbee2-1e9b-4dee-b8c6-55f063b2b11b","system_id":"levelo_inurba_marseille","lat":43.2954,"lon":5.38559,"is_reserved":false,"is_disabled":false,"rental_uris":{"android":"levelo://app?vid=05bfbee2-1e9b-4dee-b8c6-55f063b2b11b","ios":"levelo://app?vid=05bfbee2-1e9b-4dee-b8c6-55f063b2b11b"},"vehicle_type_id":"4","last_reported":1756232088,"current_range_meters":12000,"station_id":"ce4bgih2rcd13ifvqba0","pricing_plan_id":"cebpf4jnsgd1na2vs0mg"},{"bike_id":"a2d4f4a2-bdbf-41e5-a9e4-67fd02e2ab09","system_id":"levelo_inurba_marseille","lat":43.22934,"lon":5.35376,"is_reserved":false,"is_disabled":false,"rental_uris":{"android":"levelo://app?vid=a2d4f4a2-bdbf-41e5-a9e4-67fd02e2ab09","ios":"levelo://app?vid=a2d4f4a2-bdbf-41e5-a9e4-67fd02e2ab09"},"vehicle_type_id":"4","last_reported":1756232088,"current_range_meters":12400,"station_id":"cpo3532slgdg3j2ikp40","pricing_plan_id":"cebpf4jnsgd1na2vs0mg"},{"bike_id":"7c0af635-6103-409b-9ce6-1a9508bb6f8b","system_id":"levelo_inurba_marseille","lat":43.29264,"lon":5.38431,"is_reserved":false,"is_disabled":false,"rental_uris":{"android":"levelo://app?vid=7c0af635-6103-409b-9ce6-1a9508bb6f8b","ios":"levelo://app?vid=7c0af635-6103-409b-9ce6-1a9508bb6f8b"},"vehicle_type_id":"4","last_reported":1756232088,"current_range_meters":12400,"station_id":"ce4bh692rcd13ifvqea0","pricing_plan_id":"cebpf4jnsgd1na2vs0mg"},{"bike_id":"43cb6927-9c76-4529-a6ad-4bcfe6c3e543","system_id":"levelo_inurba_marseille","lat":43.22935,"lon":5.35378,"is_reserved":false,"is_disabled":false,"rental_uris":{"android":"levelo://app?vid=43cb6927-9c76-4529-a6ad-4bcfe6c3e543","ios":"levelo://app?vid=43cb6927-9c76-4529-a6ad-4bcfe6c3e543"},"vehicle_type_id":"4","last_reported":1756232088,"current_range_meters":12400,"station_id":"cpo3532slgdg3j2ikp40","pricing_plan_id":"cebpf4jnsgd1na2vs0mg"},{"bike_id":"51842e17-ef10-4624-a23e-c8a182427991","system_id":"levelo_inurba_marseille","lat":43.31619,"lon":5.3818,"is_reserved":false,"is_disabled":false,"rental_uris":{"android":"levelo://app?vid=51842e17-ef10-4624-a23e-c8a182427991","ios":"levelo://app?vid=51842e17-ef10-4624-a23e-c8a182427991"},"vehicle_type_id":"4","last_reported":1756232088,"current_range_meters":12400,"station_id":"","pricing_plan_id":"cebpf4jnsgd1na2vs0mg"},{"bike_id":"293975b9-8ca5-4a82-908a-15c295db19a4","system_id":"levelo_inurba_marseille","lat":43.30305,"lon":5.39216,"is_reserved":false,"is_disabled":false,"rental_uris":{"android":"levelo://app?vid=293975b9-8ca5-4a82-908a-15c295db19a4","ios":"levelo://app?vid=293975b9-8ca5-4a82-908a-15c295db19a4"},"vehicle_type_id":"4","last_reported":1756232088,"current_range_meters":12400,"station_id":"ce4bgkh2rcd13ifvqbk0","pricing_plan_id":"cebpf4jnsgd1na2vs0mg"},{"bike_id":"a434843a-ffbf-4db2-b74d-481362fb2007","system_id":"levelo_inurba_marseille","lat":43.2845,"lon":5.39206,"is_reserved":false,"is_disabled":false,"rental_uris":{"android":"levelo://app?vid=a434843a-ffbf-4db2-b74d-481362fb2007","ios":"levelo://app?vid=a434843a-ffbf-4db2-b74d-481362fb2007"},"vehicle_type_id":"4","last_reported":1756232088,"current_range_meters":12400,"station_id":"ce4bhoh2rcd13ifvqh5g","pricing_plan_id":"cebpf4jnsgd1na2vs0mg"},{"bike_id":"d09818c0-fe17-4e04-a009-8059bf91f2ab","system_id":"levelo_inurba_marseille","lat":43.2953,"lon":5.38544,"is_reserved":false,"is_disabled":false,"rental_uris":{"android":"levelo://app?vid=d09818c0-fe17-4e04-a009-8059bf91f2ab","ios":"levelo://app?vid=d09818c0-fe17-4e04-a009-8059bf91f2ab"},"vehicle_type_id":"4","last_reported":1756232088,"current_range_meters":12800,"station_id":"ce4bgih2rcd13ifvqba0","pricing_plan_id":"cebpf4jnsgd1na2vs0mg"},{"bike_id":"a15a1c44-718b-407d-acaa-0383628c87d7","system_id":"levelo_inurba_marseille","lat":43.32695,"lon":5.39202,"is_reserved":false,"is_disabled":false,"rental_uris":{"android":"levelo://app?vid=a15a1c44-718b-407d-acaa-0383628c87d7","ios":"levelo://app?vid=a15a1c44-718b-407d-acaa-0383628c87d7"},"vehicle_type_id":"4","last_reported":1756232088,"current_range_meters":12800,"station_id":"","pricing_plan_id":"cebpf4jnsgd1na2vs0mg"},{"bike_id":"5f9365e2-60dc-4158-a2c3-0e40911a7a32","system_id":"levelo_inurba_marseille","lat":43.33432,"lon":5.40158,"is_reserved":false,"is_disabled":false,"rental_uris":{"android":"levelo://app?vid=5f9365e2-60dc-4158-a2c3-0e40911a7a32","ios":"levelo://app?vid=5f9365e2-60dc-4158-a2c3-0e40911a7a32"},"vehicle_type_id":"4","last_reported":1756232088,"current_range_meters":12800,"station_id":"","pricing_plan_id":"cebpf4jnsgd1na2vs0mg"},{"bike_id":"4e54e4fd-bbbf-4d68-a084-2926b89872a0","system_id":"levelo_inurba_marseille","lat":43.29206,"lon":5.39335,"is_reserved":false,"is_disabled":false,"rental_uris":{"android":"levelo://app?vid=4e54e4fd-bbbf-4d68-a084-2926b89872a0","ios":"levelo://app?vid=4e54e4fd-bbbf-4d68-a084-2926b89872a0"},"vehicle_type_id":"4","last_reported":1756232088,"current_range_meters":12800,"station_id":"ce4bh192rcd13ifvqdd0","pricing_plan_id":"cebpf4jnsgd1na2vs0mg"},{"bike_id":"673ef30a-376b-4838-a923-9d17948f03ef","system_id":"levelo_inurba_marseille","lat":43.29531,"lon":5.38543,"is_reserved":false,"is_disabled":false,"rental_uris":{"android":"levelo://app?vid=673ef30a-376b-4838-a923-9d17948f03ef","ios":"levelo://app?vid=673ef30a-376b-4838-a923-9d17948f03ef"},"vehicle_type_id":"4","last_reported":1756232088,"current_range_meters":12800,"station_id":"ce4bgih2rcd13ifvqba0","pricing_plan_id":"cebpf4jnsgd1na2vs0mg"},{"bike_id":"d47d25a0-5f2f-4047-943e-079ec16a439d","system_id":"levelo_inurba_marseille","lat":43.259121,"lon":5.398716,"is_reserved":false,"is_disabled":false,"rental_uris":{"android":"levelo://app?vid=d47d25a0-5f2f-4047-943e-079ec16a439d","ios":"levelo://app?vid=d47d25a0-5f2f-4047-943e-079ec16a439d"},"vehicle_type_id":"4","last_reported":1756232088,"current_range_meters":13600,"station_id":"ce4bhi12rcd13ifvqfq0","pricing_plan_id":"cebpf4jnsgd1na2vs0mg"},{"bike_id":"8ad69d7f-6d52-4611-bf92-39c173b24a99","system_id":"levelo_inurba_marseille","lat":43.29274,"lon":5.36837,"is_reserved":false,"is_disabled":false,"rental_uris":{"android":"levelo://app?vid=8ad69d7f-6d52-4611-bf92-39c173b24a99","ios":"levelo://app?vid=8ad69d7f-6d52-4611-bf92-39c173b24a99"},"vehicle_type_id":"4","last_reported":1756232088,"current_range_meters":13600,"station_id":"ce4bhbp2rcd13ifvqesg","pricing_plan_id":"cebpf4jnsgd1na2vs0mg"},{"bike_id":"0e256118-fe33-4307-b7cb-16c76027513c","system_id":"levelo_inurba_marseille","lat":43.24083,"lon":5.3777,"is_reserved":false,"is_disabled":false,"rental_uris":{"android":"levelo://app?vid=0e256118-fe33-4307-b7cb-16c76027513c","ios":"levelo://app?vid=0e256118-fe33-4307-b7cb-16c76027513c"},"vehicle_type_id":"4","last_reported":1756232088,"current_range_meters":13600,"station_id":"ce4bhnp2rcd13ifvqgvg","pricing_plan_id":"cebpf4jnsgd1na2vs0mg"},{"bike_id":"f454d3c0-e646-4f9c-aa80-52daacb5d420","system_id":"levelo_inurba_marseille","lat":43.29449,"lon":5.378958,"is_reserved":false,"is_disabled":false,"rental_uris":{"android":"levelo://app?vid=f454d3c0-e646-4f9c-aa80-52daacb5d420","ios":"levelo://app?vid=f454d3c0-e646-4f9c-aa80-52daacb5d420"},"vehicle_type_id":"4","last_reported":1756232088,"current_range_meters":14000,"station_id":"ce4bgjh2rcd13ifvqbf0","pricing_plan_id":"cebpf4jnsgd1na2vs0mg"},{"bike_id":"10ea1740-aa67-4890-8e2a-76e44bb53df5","system_id":"levelo_inurba_marseille","lat":43.28419,"lon":5.37519,"is_reserved":false,"is_disabled":false,"rental_uris":{"android":"levelo://app?vid=10ea1740-aa67-4890-8e2a-76e44bb53df5","ios":"levelo://app?vid=10ea1740-aa67-4890-8e2a-76e44bb53df5"},"vehicle_type_id":"4","last_reported":1756232088,"current_range_meters":13600,"station_id":"ce4bh412rcd13ifvqds0","pricing_plan_id":"cebpf4jnsgd1na2vs0mg"},{"bike_id":"38985609-05b7-4106-bf5c-7235afedd5bb","system_id":"levelo_inurba_marseille","lat":43.305457,"lon":5.367168,"is_reserved":false,"is_disabled":false,"rental_uris":{"android":"levelo://app?vid=38985609-05b7-4106-bf5c-7235afedd5bb","ios":"levelo://app?vid=38985609-05b7-4106-bf5c-7235afedd5bb"},"vehicle_type_id":"4","last_reported":1756232088,"current_range_meters":13600,"station_id":"ce4bgrp2rcd13ifvqc9g","pricing_plan_id":"cebpf4jnsgd1na2vs0mg"},{"bike_id":"9041f4fb-fb38-43a3-b139-d8937464112e","system_id":"levelo_inurba_marseille","lat":43.29535,"lon":5.38538,"is_reserved":false,"is_disabled":false,"rental_uris":{"android":"levelo://app?vid=9041f4fb-fb38-43a3-b139-d8937464112e","ios":"levelo://app?vid=9041f4fb-fb38-43a3-b139-d8937464112e"},"vehicle_type_id":"4","last_reported":1756232088,"current_range_meters":13600,"station_id":"ce4bgih2rcd13ifvqba0","pricing_plan_id":"cebpf4jnsgd1na2vs0mg"},{"bike_id":"5ebfc32c-3ff0-440a-97ee-1c808332e074","system_id":"levelo_inurba_marseille","lat":43.25006,"lon":5.389113,"is_reserved":false,"is_disabled":false,"rental_uris":{"android":"levelo://app?vid=5ebfc32c-3ff0-440a-97ee-1c808332e074","ios":"levelo://app?vid=5ebfc32c-3ff0-440a-97ee-1c808332e074"},"vehicle_type_id":"4","last_reported":1756232088,"current_range_meters":13600,"station_id":"","pricing_plan_id":"cebpf4jnsgd1na2vs0mg"},{"bike_id":"4e330b1f-161c-4651-9fd6-20401a194c71","system_id":"levelo_inurba_marseille","lat":43.24045,"lon":5.37749,"is_reserved":false,"is_disabled":false,"rental_uris":{"android":"levelo://app?vid=4e330b1f-161c-4651-9fd6-20401a194c71","ios":"levelo://app?vid=4e330b1f-161c-4651-9fd6-20401a194c71"},"vehicle_type_id":"4","last_reported":1756232088,"current_range_meters":13600,"station_id":"ce4bhnp2rcd13ifvqgvg","pricing_plan_id":"cebpf4jnsgd1na2vs0mg"},{"bike_id":"d81176dd-c162-4f5a-bd64-4bc1ac69ef27","system_id":"levelo_inurba_marseille","lat":43.289451,"lon":5.366438,"is_reserved":false,"is_disabled":false,"rental_uris":{"android":"levelo://app?vid=d81176dd-c162-4f5a-bd64-4bc1ac69ef27","ios":"levelo://app?vid=d81176dd-c162-4f5a-bd64-4bc1ac69ef27"},"vehicle_type_id":"4","last_reported":1756232088,"current_range_meters":13600,"station_id":"ce4bhap2rcd13ifvqek0","pricing_plan_id":"cebpf4jnsgd1na2vs0mg"},{"bike_id":"b36029d7-62c9-477c-900e-33f66bca8704","system_id":"levelo_inurba_marseille","lat":43.30882,"lon":5.37197,"is_reserved":false,"is_disabled":false,"rental_uris":{"android":"levelo://app?vid=b36029d7-62c9-477c-900e-33f66bca8704","ios":"levelo://app?vid=b36029d7-62c9-477c-900e-33f66bca8704"},"vehicle_type_id":"4","last_reported":1756232088,"current_range_meters":14000,"station_id":"ce4bguh2rcd13ifvqckg","pricing_plan_id":"cebpf4jnsgd1na2vs0mg"},{"bike_id":"89bb2efc-5c45-48e0-b659-b8ecb63211d5","system_id":"levelo_inurba_marseille","lat":43.297889,"lon":5.393363,"is_reserved":false,"is_disabled":false,"rental_uris":{"android":"levelo://app?vid=89bb2efc-5c45-48e0-b659-b8ecb63211d5","ios":"levelo://app?vid=89bb2efc-5c45-48e0-b659-b8ecb63211d5"},"vehicle_type_id":"4","last_reported":1756232088,"current_range_meters":14000,"station_id":"chh1huq6cuj3fo74tm60","pricing_plan_id":"cebpf4jnsgd1na2vs0mg"},{"bike_id":"4d1b9277-f220-4e59-b948-36430001cc6f","system_id":"levelo_inurba_marseille","lat":43.27365,"lon":5.36256,"is_reserved":false,"is_disabled":false,"rental_uris":{"android":"levelo://app?vid=4d1b9277-f220-4e59-b948-36430001cc6f","ios":"levelo://app?vid=4d1b9277-f220-4e59-b948-36430001cc6f"},"vehicle_type_id":"4","last_reported":1756232088,"current_range_meters":14000,"station_id":"ce4bhbh2rcd13ifvqeo0","pricing_plan_id":"cebpf4jnsgd1na2vs0mg"},{"bike_id":"b4d6c33d-a0bf-42a3-9ab7-0db80b72b559","system_id":"levelo_inurba_marseille","lat":43.28945,"lon":5.36636,"is_reserved":false,"is_disabled":true,"rental_uris":{"android":"levelo://app?vid=b4d6c33d-a0bf-42a3-9ab7-0db80b72b559","ios":"levelo://app?vid=b4d6c33d-a0bf-42a3-9ab7-0db80b72b559"},"vehicle_type_id":"4","last_reported":1756232088,"current_range_meters":14000,"station_id":"ce4bhap2rcd13ifvqek0","pricing_plan_id":"cebpf4jnsgd1na2vs0mg"},{"bike_id":"1027bb83-a668-47de-9094-84302cb909d4","system_id":"levelo_inurba_marseille","lat":43.21183,"lon":5.35046,"is_reserved":false,"is_disabled":false,"rental_uris":{"android":"levelo://app?vid=1027bb83-a668-47de-9094-84302cb909d4","ios":"levelo://app?vid=1027bb83-a668-47de-9094-84302cb909d4"},"vehicle_type_id":"4","last_reported":1756232088,"current_range_meters":14000,"station_id":"st_cvj6sg6p6f1abm77japg","pricing_plan_id":"cebpf4jnsgd1na2vs0mg"},{"bike_id":"98be228c-d798-4e33-94a2-fdf8038518e9","system_id":"levelo_inurba_marseille","lat":43.28725,"lon":5.37942,"is_reserved":false,"is_disabled":false,"rental_uris":{"android":"levelo://app?vid=98be228c-d798-4e33-94a2-fdf8038518e9","ios":"levelo://app?vid=98be228c-d798-4e33-94a2-fdf8038518e9"},"vehicle_type_id":"4","last_reported":1756232088,"current_range_meters":14000,"station_id":"ce4bh9p2rcd13ifvqec0","pricing_plan_id":"cebpf4jnsgd1na2vs0mg"},{"bike_id":"ae34a3e2-bed7-420e-a876-4191491a6f0d","system_id":"levelo_inurba_marseille","lat":43.2872,"lon":5.39993,"is_reserved":false,"is_disabled":false,"rental_uris":{"android":"levelo://app?vid=ae34a3e2-bed7-420e-a876-4191491a6f0d","ios":"levelo://app?vid=ae34a3e2-bed7-420e-a876-4191491a6f0d"},"vehicle_type_id":"4","last_reported":1756232088,"current_range_meters":14000,"station_id":"ce4bho92rcd13ifvqh3g","pricing_plan_id":"cebpf4jnsgd1na2vs0mg"},{"bike_id":"0ad55c36-c921-407f-a447-5f7f382fff3e","system_id":"levelo_inurba_marseille","lat":43.30216,"lon":5.39465,"is_reserved":false,"is_disabled":false,"rental_uris":{"android":"levelo://app?vid=0ad55c36-c921-407f-a447-5f7f382fff3e","ios":"levelo://app?vid=0ad55c36-c921-407f-a447-5f7f382fff3e"},"vehicle_type_id":"4","last_reported":1756232088,"current_range_meters":14000,"station_id":"ce4bh0p2rcd13ifvqd70","pricing_plan_id":"cebpf4jnsgd1na2vs0mg"},{"bike_id":"4ecb48b7-9533-4998-9c57-231b775366e7","system_id":"levelo_inurba_marseille","lat":43.31987,"lon":5.3813,"is_reserved":false,"is_disabled":false,"rental_uris":{"android":"levelo://app?vid=4ecb48b7-9533-4998-9c57-231b775366e7","ios":"levelo://app?vid=4ecb48b7-9533-4998-9c57-231b775366e7"},"vehicle_type_id":"4","last_reported":1756232088,"current_range_meters":14000,"station_id":"ce4bhr12rcd13ifvqhpg","pricing_plan_id":"cebpf4jnsgd1na2vs0mg"},{"bike_id":"a9c8448e-6218-4e69-a780-11bdb66755b5","system_id":"levelo_inurba_marseille","lat":43.28411,"lon":5.37509,"is_reserved":false,"is_disabled":false,"rental_uris":{"android":"levelo://app?vid=a9c8448e-6218-4e69-a780-11bdb66755b5","ios":"levelo://app?vid=a9c8448e-6218-4e69-a780-11bdb66755b5"},"vehicle_type_id":"4","last_reported":1756232088,"current_range_meters":14400,"station_id":"ce4bh412rcd13ifvqds0","pricing_plan_id":"cebpf4jnsgd1na2vs0mg"},{"bike_id":"f6a5a459-e85c-486d-9b26-842fe86ba203","system_id":"levelo_inurba_marseille","lat":43.29065,"lon":5.37159,"is_reserved":false,"is_disabled":false,"rental_uris":{"android":"levelo://app?vid=f6a5a459-e85c-486d-9b26-842fe86ba203","ios":"levelo://app?vid=f6a5a459-e85c-486d-9b26-842fe86ba203"},"vehicle_type_id":"4","last_reported":1756232088,"current_range_meters":14400,"station_id":"ce4bh5p2rcd13ifvqe4g","pricing_plan_id":"cebpf4jnsgd1na2vs0mg"},{"bike_id":"f2135cb1-3383-46bd-90d4-d827b77a416c","system_id":"levelo_inurba_marseille","lat":43.29527,"lon":5.38542,"is_reserved":false,"is_disabled":false,"rental_uris":{"android":"levelo://app?vid=f2135cb1-3383-46bd-90d4-d827b77a416c","ios":"levelo://app?vid=f2135cb1-3383-46bd-90d4-d827b77a416c"},"vehicle_type_id":"4","last_reported":1756232088,"current_range_meters":14400,"station_id":"ce4bgih2rcd13ifvqba0","pricing_plan_id":"cebpf4jnsgd1na2vs0mg"},{"bike_id":"66cbe913-3a43-4576-9c26-e827b3161caa","system_id":"levelo_inurba_marseille","lat":43.29932,"lon":5.365493,"is_reserved":false,"is_disabled":false,"rental_uris":{"android":"levelo://app?vid=66cbe913-3a43-4576-9c26-e827b3161caa","ios":"levelo://app?vid=66cbe913-3a43-4576-9c26-e827b3161caa"},"vehicle_type_id":"4","last_reported":1756232088,"current_range_meters":14400,"station_id":"ce4bgm92rcd13ifvqbr0","pricing_plan_id":"cebpf4jnsgd1na2vs0mg"},{"bike_id":"da24cd28-a3ea-4f06-b412-bd5ad8a728bc","system_id":"levelo_inurba_marseille","lat":43.298796,"lon":5.389068,"is_reserved":false,"is_disabled":false,"rental_uris":{"android":"levelo://app?vid=da24cd28-a3ea-4f06-b412-bd5ad8a728bc","ios":"levelo://app?vid=da24cd28-a3ea-4f06-b412-bd5ad8a728bc"},"vehicle_type_id":"4","last_reported":1756232088,"current_range_meters":14400,"station_id":"ce4bh392rcd13ifvqdl0","pricing_plan_id":"cebpf4jnsgd1na2vs0mg"},{"bike_id":"db7d3d83-f39a-4469-8445-29697e69fec4","system_id":"levelo_inurba_marseille","lat":43.33029,"lon":5.39341,"is_reserved":false,"is_disabled":false,"rental_uris":{"android":"levelo://app?vid=db7d3d83-f39a-4469-8445-29697e69fec4","ios":"levelo://app?vid=db7d3d83-f39a-4469-8445-29697e69fec4"},"vehicle_type_id":"4","last_reported":1756232088,"current_range_meters":14400,"station_id":"","pricing_plan_id":"cebpf4jnsgd1na2vs0mg"},{"bike_id":"f3530a0e-c9d6-4fe2-9058-08c709c3c9d3","system_id":"levelo_inurba_marseille","lat":43.29304,"lon":5.37458,"is_reserved":false,"is_disabled":false,"rental_uris":{"android":"levelo://app?vid=f3530a0e-c9d6-4fe2-9058-08c709c3c9d3","ios":"levelo://app?vid=f3530a0e-c9d6-4fe2-9058-08c709c3c9d3"},"vehicle_type_id":"4","last_reported":1756232088,"current_range_meters":14800,"station_id":"ce4bgi12rcd13ifvqb70","pricing_plan_id":"cebpf4jnsgd1na2vs0mg"},{"bike_id":"a478a91d-2d66-4795-aa32-00b511604f3c","system_id":"levelo_inurba_marseille","lat":43.29622,"lon":5.37164,"is_reserved":false,"is_disabled":false,"rental_uris":{"android":"levelo://app?vid=a478a91d-2d66-4795-aa32-00b511604f3c","ios":"levelo://app?vid=a478a91d-2d66-4795-aa32-00b511604f3c"},"vehicle_type_id":"4","last_reported":1756232088,"current_range_meters":14800,"station_id":"ce4bgnh2rcd13ifvqc0g","pricing_plan_id":"cebpf4jnsgd1na2vs0mg"},{"bike_id":"e6650f35-9f5d-43b3-801d-ac0604794b12","system_id":"levelo_inurba_marseille","lat":43.29265,"lon":5.38442,"is_reserved":false,"is_disabled":false,"rental_uris":{"android":"levelo://app?vid=e6650f35-9f5d-43b3-801d-ac0604794b12","ios":"levelo://app?vid=e6650f35-9f5d-43b3-801d-ac0604794b12"},"vehicle_type_id":"4","last_reported":1756232088,"current_range_meters":14800,"station_id":"ce4bh692rcd13ifvqea0","pricing_plan_id":"cebpf4jnsgd1na2vs0mg"},{"bike_id":"e55c5166-258e-4ef1-8bb0-61c40d73cb1f","system_id":"levelo_inurba_marseille","lat":43.2841,"lon":5.35001,"is_reserved":false,"is_disabled":false,"rental_uris":{"android":"levelo://app?vid=e55c5166-258e-4ef1-8bb0-61c40d73cb1f","ios":"levelo://app?vid=e55c5166-258e-4ef1-8bb0-61c40d73cb1f"},"vehicle_type_id":"4","last_reported":1756232088,"current_range_meters":14800,"station_id":"ce4bhbh2rcd13ifvqepg","pricing_plan_id":"cebpf4jnsgd1na2vs0mg"},{"bike_id":"777a8c83-aed8-4881-84b6-34465956e738","system_id":"levelo_inurba_marseille","lat":43.257559,"lon":5.410172,"is_reserved":false,"is_disabled":false,"rental_uris":{"android":"levelo://app?vid=777a8c83-aed8-4881-84b6-34465956e738","ios":"levelo://app?vid=777a8c83-aed8-4881-84b6-34465956e738"},"vehicle_type_id":"4","last_reported":1756232088,"current_range_meters":14800,"station_id":"","pricing_plan_id":"cebpf4jnsgd1na2vs0mg"},{"bike_id":"af732ca8-2cea-448a-9928-59e03d12656f","system_id":"levelo_inurba_marseille","lat":43.33496,"lon":5.35985,"is_reserved":false,"is_disabled":false,"rental_uris":{"android":"levelo://app?vid=af732ca8-2cea-448a-9928-59e03d12656f","ios":"levelo://app?vid=af732ca8-2cea-448a-9928-59e03d12656f"},"vehicle_type_id":"4","last_reported":1756232088,"current_range_meters":14800,"station_id":"","pricing_plan_id":"cebpf4jnsgd1na2vs0mg"},{"bike_id":"a3eda561-747e-486b-9d8f-c0f2ac59b25b","system_id":"levelo_inurba_marseille","lat":43.2797,"lon":5.3874,"is_reserved":false,"is_disabled":false,"rental_uris":{"android":"levelo://app?vid=a3eda561-747e-486b-9d8f-c0f2ac59b25b","ios":"levelo://app?vid=a3eda561-747e-486b-9d8f-c0f2ac59b25b"},"vehicle_type_id":"4","last_reported":1756232088,"current_range_meters":14800,"station_id":"ce4bhg12rcd13ifvqf80","pricing_plan_id":"cebpf4jnsgd1na2vs0mg"},{"bike_id":"f90838ea-e7e9-40a2-8975-678438d91dfb","system_id":"levelo_inurba_marseille","lat":43.319928,"lon":5.38164,"is_reserved":false,"is_disabled":false,"rental_uris":{"android":"levelo://app?vid=f90838ea-e7e9-40a2-8975-678438d91dfb","ios":"levelo://app?vid=f90838ea-e7e9-40a2-8975-678438d91dfb"},"vehicle_type_id":"4","last_reported":1756232088,"current_range_meters":14800,"station_id":"ce4bhr12rcd13ifvqhpg","pricing_plan_id":"cebpf4jnsgd1na2vs0mg"},{"bike_id":"3507e54b-a707-4be7-bf5f-278950a99b3b","system_id":"levelo_inurba_marseille","lat":43.30893,"lon":5.37188,"is_reserved":false,"is_disabled":false,"rental_uris":{"android":"levelo://app?vid=3507e54b-a707-4be7-bf5f-278950a99b3b","ios":"levelo://app?vid=3507e54b-a707-4be7-bf5f-278950a99b3b"},"vehicle_type_id":"4","last_reported":1756232088,"current_range_meters":14800,"station_id":"ce4bguh2rcd13ifvqckg","pricing_plan_id":"cebpf4jnsgd1na2vs0mg"},{"bike_id":"7c4182ef-d125-4661-9a8f-5eef8d8ecaca","system_id":"levelo_inurba_marseille","lat":43.30954,"lon":5.39025,"is_reserved":false,"is_disabled":false,"rental_uris":{"android":"levelo://app?vid=7c4182ef-d125-4661-9a8f-5eef8d8ecaca","ios":"levelo://app?vid=7c4182ef-d125-4661-9a8f-5eef8d8ecaca"},"vehicle_type_id":"4","last_reported":1756232088,"current_range_meters":14800,"station_id":"ce4bgup2rcd13ifvqco0","pricing_plan_id":"cebpf4jnsgd1na2vs0mg"},{"bike_id":"34aecb2d-e31b-46ae-92b3-69eeb0b504b8","system_id":"levelo_inurba_marseille","lat":43.29979,"lon":5.38483,"is_reserved":false,"is_disabled":false,"rental_uris":{"android":"levelo://app?vid=34aecb2d-e31b-46ae-92b3-69eeb0b504b8","ios":"levelo://app?vid=34aecb2d-e31b-46ae-92b3-69eeb0b504b8"},"vehicle_type_id":"4","last_reported":1756232088,"current_range_meters":14800,"station_id":"ce4bgj92rcd13ifvqbd0","pricing_plan_id":"cebpf4jnsgd1na2vs0mg"},{"bike_id":"a0243d4d-b0a7-43e9-97fa-27e43438067f","system_id":"levelo_inurba_marseille","lat":43.29786,"lon":5.37104,"is_reserved":false,"is_disabled":false,"rental_uris":{"android":"levelo://app?vid=a0243d4d-b0a7-43e9-97fa-27e43438067f","ios":"levelo://app?vid=a0243d4d-b0a7-43e9-97fa-27e43438067f"},"vehicle_type_id":"4","last_reported":1756232088,"current_range_meters":14800,"station_id":"ce4bgop2rcd13ifvqc1g","pricing_plan_id":"cebpf4jnsgd1na2vs0mg"},{"bike_id":"826f9c0a-980b-43d8-bf4c-e43d77c221ed","system_id":"levelo_inurba_marseille","lat":43.23162,"lon":5.40028,"is_reserved":false,"is_disabled":false,"rental_uris":{"android":"levelo://app?vid=826f9c0a-980b-43d8-bf4c-e43d77c221ed","ios":"levelo://app?vid=826f9c0a-980b-43d8-bf4c-e43d77c221ed"},"vehicle_type_id":"4","last_reported":1756232088,"current_range_meters":15200,"station_id":"ce4bhn12rcd13ifvqgqg","pricing_plan_id":"cebpf4jnsgd1na2vs0mg"},{"bike_id":"f0400c37-c7f6-4929-b1ac-d92430ff6f2d","system_id":"levelo_inurba_marseille","lat":43.275638,"lon":5.39674,"is_reserved":false,"is_disabled":false,"rental_uris":{"android":"levelo://app?vid=f0400c37-c7f6-4929-b1ac-d92430ff6f2d","ios":"levelo://app?vid=f0400c37-c7f6-4929-b1ac-d92430ff6f2d"},"vehicle_type_id":"4","last_reported":1756232088,"current_range_meters":15200,"station_id":"","pricing_plan_id":"cebpf4jnsgd1na2vs0mg"},{"bike_id":"5bce688b-fc81-4596-8277-b66f54be87c1","system_id":"levelo_inurba_marseille","lat":43.33768,"lon":5.37438,"is_reserved":false,"is_disabled":false,"rental_uris":{"android":"levelo://app?vid=5bce688b-fc81-4596-8277-b66f54be87c1","ios":"levelo://app?vid=5bce688b-fc81-4596-8277-b66f54be87c1"},"vehicle_type_id":"4","last_reported":1756232088,"current_range_meters":15200,"station_id":"","pricing_plan_id":"cebpf4jnsgd1na2vs0mg"},{"bike_id":"3d781b72-1f88-4a87-836f-826226583732","system_id":"levelo_inurba_marseille","lat":43.28438,"lon":5.39191,"is_reserved":false,"is_disabled":false,"rental_uris":{"android":"levelo://app?vid=3d781b72-1f88-4a87-836f-826226583732","ios":"levelo://app?vid=3d781b72-1f88-4a87-836f-826226583732"},"vehicle_type_id":"4","last_reported":1756232088,"current_range_meters":15200,"station_id":"ce4bhoh2rcd13ifvqh5g","pricing_plan_id":"cebpf4jnsgd1na2vs0mg"},{"bike_id":"e44bc05c-e6c3-432c-9d71-fd17a85f949c","system_id":"levelo_inurba_marseille","lat":43.29198,"lon":5.39323,"is_reserved":false,"is_disabled":false,"rental_uris":{"android":"levelo://app?vid=e44bc05c-e6c3-432c-9d71-fd17a85f949c","ios":"levelo://app?vid=e44bc05c-e6c3-432c-9d71-fd17a85f949c"},"vehicle_type_id":"4","last_reported":1756232088,"current_range_meters":15200,"station_id":"ce4bh192rcd13ifvqdd0","pricing_plan_id":"cebpf4jnsgd1na2vs0mg"},{"bike_id":"e8c9d0c6-3d4d-4359-b200-5972333e37d8","system_id":"levelo_inurba_marseille","lat":43.32986,"lon":5.39037,"is_reserved":false,"is_disabled":false,"rental_uris":{"android":"levelo://app?vid=e8c9d0c6-3d4d-4359-b200-5972333e37d8","ios":"levelo://app?vid=e8c9d0c6-3d4d-4359-b200-5972333e37d8"},"vehicle_type_id":"4","last_reported":1756232088,"current_range_meters":15200,"station_id":"ce4bhr92rcd13ifvqhrg","pricing_plan_id":"cebpf4jnsgd1na2vs0mg"},{"bike_id":"a663a2f0-d0f0-427a-acc8-82e14147fba7","system_id":"levelo_inurba_marseille","lat":43.27493,"lon":5.42454,"is_reserved":false,"is_disabled":false,"rental_uris":{"android":"levelo://app?vid=a663a2f0-d0f0-427a-acc8-82e14147fba7","ios":"levelo://app?vid=a663a2f0-d0f0-427a-acc8-82e14147fba7"},"vehicle_type_id":"4","last_reported":1756232088,"current_range_meters":15200,"station_id":"ce4bhn92rcd13ifvqgrg","pricing_plan_id":"cebpf4jnsgd1na2vs0mg"},{"bike_id":"27e787e8-fe35-48eb-9e76-fc0e97f7e37c","system_id":"levelo_inurba_marseille","lat":43.28149,"lon":5.42636,"is_reserved":false,"is_disabled":false,"rental_uris":{"android":"levelo://app?vid=27e787e8-fe35-48eb-9e76-fc0e97f7e37c","ios":"levelo://app?vid=27e787e8-fe35-48eb-9e76-fc0e97f7e37c"},"vehicle_type_id":"4","last_reported":1756232088,"current_range_meters":15200,"station_id":"ce4bhnh2rcd13ifvqgug","pricing_plan_id":"cebpf4jnsgd1na2vs0mg"},{"bike_id":"87fc5d4c-d57f-46e2-aea9-fc295e032c4c","system_id":"levelo_inurba_marseille","lat":43.24551,"lon":5.39523,"is_reserved":false,"is_disabled":false,"rental_uris":{"android":"levelo://app?vid=87fc5d4c-d57f-46e2-aea9-fc295e032c4c","ios":"levelo://app?vid=87fc5d4c-d57f-46e2-aea9-fc295e032c4c"},"vehicle_type_id":"4","last_reported":1756232088,"current_range_meters":15200,"station_id":"ce4bhlp2rcd13ifvqgjg","pricing_plan_id":"cebpf4jnsgd1na2vs0mg"},{"bike_id":"af744081-2681-4d1e-9525-a9843cca33d2","system_id":"levelo_inurba_marseille","lat":43.32561,"lon":5.36475,"is_reserved":false,"is_disabled":false,"rental_uris":{"android":"levelo://app?vid=af744081-2681-4d1e-9525-a9843cca33d2","ios":"levelo://app?vid=af744081-2681-4d1e-9525-a9843cca33d2"},"vehicle_type_id":"4","last_reported":1756232088,"current_range_meters":15200,"station_id":"","pricing_plan_id":"cebpf4jnsgd1na2vs0mg"},{"bike_id":"508df8d5-f717-4f12-8b69-fbf24093d2f1","system_id":"levelo_inurba_marseille","lat":43.299698,"lon":5.384787,"is_reserved":false,"is_disabled":false,"rental_uris":{"android":"levelo://app?vid=508df8d5-f717-4f12-8b69-fbf24093d2f1","ios":"levelo://app?vid=508df8d5-f717-4f12-8b69-fbf24093d2f1"},"vehicle_type_id":"4","last_reported":1756232088,"current_range_meters":15200,"station_id":"ce4bgj92rcd13ifvqbd0","pricing_plan_id":"cebpf4jnsgd1na2vs0mg"},{"bike_id":"a65da57a-1c9e-4b2f-add3-034be5c93b90","system_id":"levelo_inurba_marseille","lat":43.304272,"lon":5.388955,"is_reserved":false,"is_disabled":false,"rental_uris":{"android":"levelo://app?vid=a65da57a-1c9e-4b2f-add3-034be5c93b90","ios":"levelo://app?vid=a65da57a-1c9e-4b2f-add3-034be5c93b90"},"vehicle_type_id":"4","last_reported":1756232088,"current_range_meters":15200,"station_id":"ce4bgk12rcd13ifvqbi0","pricing_plan_id":"cebpf4jnsgd1na2vs0mg"},{"bike_id":"58c816d9-2fb4-43c0-b88e-24b69c21fb34","system_id":"levelo_inurba_marseille","lat":43.29534,"lon":5.38543,"is_reserved":false,"is_disabled":false,"rental_uris":{"android":"levelo://app?vid=58c816d9-2fb4-43c0-b88e-24b69c21fb34","ios":"levelo://app?vid=58c816d9-2fb4-43c0-b88e-24b69c21fb34"},"vehicle_type_id":"4","last_reported":1756232088,"current_range_meters":15200,"station_id":"ce4bgih2rcd13ifvqba0","pricing_plan_id":"cebpf4jnsgd1na2vs0mg"},{"bike_id":"444185a1-99b2-4724-a588-1f691746c053","system_id":"levelo_inurba_marseille","lat":43.27051,"lon":5.42318,"is_reserved":false,"is_disabled":false,"rental_uris":{"android":"levelo://app?vid=444185a1-99b2-4724-a588-1f691746c053","ios":"levelo://app?vid=444185a1-99b2-4724-a588-1f691746c053"},"vehicle_type_id":"4","last_reported":1756232088,"current_range_meters":16000,"station_id":"ce4bhk92rcd13ifvqgb0","pricing_plan_id":"cebpf4jnsgd1na2vs0mg"},{"bike_id":"b79f626f-4cce-45e0-9b7e-79f3f3a6033f","system_id":"levelo_inurba_marseille","lat":43.24631,"lon":5.43152,"is_reserved":false,"is_disabled":false,"rental_uris":{"android":"levelo://app?vid=b79f626f-4cce-45e0-9b7e-79f3f3a6033f","ios":"levelo://app?vid=b79f626f-4cce-45e0-9b7e-79f3f3a6033f"},"vehicle_type_id":"4","last_reported":1756232088,"current_range_meters":16000,"station_id":"st_d2m6c4gdas8pm72e190g","pricing_plan_id":"cebpf4jnsgd1na2vs0mg"},{"bike_id":"27f7f4ff-1f1f-43f1-a81e-ff0199a6b211","system_id":"levelo_inurba_marseille","lat":43.26208,"lon":5.37443,"is_reserved":false,"is_disabled":false,"rental_uris":{"android":"levelo://app?vid=27f7f4ff-1f1f-43f1-a81e-ff0199a6b211","ios":"levelo://app?vid=27f7f4ff-1f1f-43f1-a81e-ff0199a6b211"},"vehicle_type_id":"4","last_reported":1756232088,"current_range_meters":16000,"station_id":"ce4bhgp2rcd13ifvqfc0","pricing_plan_id":"cebpf4jnsgd1na2vs0mg"},{"bike_id":"b60c1718-d2ab-4aea-9232-6bbbadba5350","system_id":"levelo_inurba_marseille","lat":43.29267,"lon":5.3687,"is_reserved":false,"is_disabled":false,"rental_uris":{"android":"levelo://app?vid=b60c1718-d2ab-4aea-9232-6bbbadba5350","ios":"levelo://app?vid=b60c1718-d2ab-4aea-9232-6bbbadba5350"},"vehicle_type_id":"4","last_reported":1756232088,"current_range_meters":16000,"station_id":"ce4bhbp2rcd13ifvqesg","pricing_plan_id":"cebpf4jnsgd1na2vs0mg"},{"bike_id":"0b1430fb-1147-4b53-aad2-8a4a5fdeebcf","system_id":"levelo_inurba_marseille","lat":43.27074,"lon":5.4228,"is_reserved":false,"is_disabled":false,"rental_uris":{"android":"levelo://app?vid=0b1430fb-1147-4b53-aad2-8a4a5fdeebcf","ios":"levelo://app?vid=0b1430fb-1147-4b53-aad2-8a4a5fdeebcf"},"vehicle_type_id":"4","last_reported":1756232088,"current_range_meters":16000,"station_id":"ce4bhk92rcd13ifvqgb0","pricing_plan_id":"cebpf4jnsgd1na2vs0mg"},{"bike_id":"497a27b1-6868-43c7-b022-46a763e63b58","system_id":"levelo_inurba_marseille","lat":43.23963,"lon":5.36638,"is_reserved":false,"is_disabled":false,"rental_uris":{"android":"levelo://app?vid=497a27b1-6868-43c7-b022-46a763e63b58","ios":"levelo://app?vid=497a27b1-6868-43c7-b022-46a763e63b58"},"vehicle_type_id":"4","last_reported":1756232088,"current_range_meters":16000,"station_id":"ce4bhi12rcd13ifvqfp0","pricing_plan_id":"cebpf4jnsgd1na2vs0mg"},{"bike_id":"31405228-d7b0-490c-928b-b4dc45cc93dd","system_id":"levelo_inurba_marseille","lat":43.29973,"lon":5.37175,"is_reserved":false,"is_disabled":false,"rental_uris":{"android":"levelo://app?vid=31405228-d7b0-490c-928b-b4dc45cc93dd","ios":"levelo://app?vid=31405228-d7b0-490c-928b-b4dc45cc93dd"},"vehicle_type_id":"4","last_reported":1756232088,"current_range_meters":16800,"station_id":"ce4bgr92rcd13ifvqc7g","pricing_plan_id":"cebpf4jnsgd1na2vs0mg"},{"bike_id":"834a3fa2-f8ce-44bd-8af4-0818d3b8da3c","system_id":"levelo_inurba_marseille","lat":43.29281,"lon":5.36838,"is_reserved":false,"is_disabled":false,"rental_uris":{"android":"levelo://app?vid=834a3fa2-f8ce-44bd-8af4-0818d3b8da3c","ios":"levelo://app?vid=834a3fa2-f8ce-44bd-8af4-0818d3b8da3c"},"vehicle_type_id":"4","last_reported":1756232088,"current_range_meters":16400,"station_id":"ce4bhbp2rcd13ifvqesg","pricing_plan_id":"cebpf4jnsgd1na2vs0mg"},{"bike_id":"0aafb655-5184-4bbe-a774-d042ccbee830","system_id":"levelo_inurba_marseille","lat":43.29524,"lon":5.38538,"is_reserved":false,"is_disabled":false,"rental_uris":{"android":"levelo://app?vid=0aafb655-5184-4bbe-a774-d042ccbee830","ios":"levelo://app?vid=0aafb655-5184-4bbe-a774-d042ccbee830"},"vehicle_type_id":"4","last_reported":1756232088,"current_range_meters":16400,"station_id":"ce4bgih2rcd13ifvqba0","pricing_plan_id":"cebpf4jnsgd1na2vs0mg"},{"bike_id":"e2e5514a-dd7c-4fe5-b0a1-eddc135c2fe5","system_id":"levelo_inurba_marseille","lat":43.28073,"lon":5.39661,"is_reserved":false,"is_disabled":false,"rental_uris":{"android":"levelo://app?vid=e2e5514a-dd7c-4fe5-b0a1-eddc135c2fe5","ios":"levelo://app?vid=e2e5514a-dd7c-4fe5-b0a1-eddc135c2fe5"},"vehicle_type_id":"4","last_reported":1756232088,"current_range_meters":16400,"station_id":"ce4bho12rcd13ifvqh2g","pricing_plan_id":"cebpf4jnsgd1na2vs0mg"},{"bike_id":"706e40c8-3a66-4299-9d2d-7d91cec54d5b","system_id":"levelo_inurba_marseille","lat":43.29544,"lon":5.38544,"is_reserved":false,"is_disabled":false,"rental_uris":{"android":"levelo://app?vid=706e40c8-3a66-4299-9d2d-7d91cec54d5b","ios":"levelo://app?vid=706e40c8-3a66-4299-9d2d-7d91cec54d5b"},"vehicle_type_id":"4","last_reported":1756232088,"current_range_meters":16400,"station_id":"ce4bgih2rcd13ifvqba0","pricing_plan_id":"cebpf4jnsgd1na2vs0mg"},{"bike_id":"a7e57a8e-6f35-4037-bc14-390aec9d9728","system_id":"levelo_inurba_marseille","lat":43.25725,"lon":5.41107,"is_reserved":false,"is_disabled":false,"rental_uris":{"android":"levelo://app?vid=a7e57a8e-6f35-4037-bc14-390aec9d9728","ios":"levelo://app?vid=a7e57a8e-6f35-4037-bc14-390aec9d9728"},"vehicle_type_id":"4","last_reported":1756232088,"current_range_meters":9600,"station_id":"ce4bhkp2rcd13ifvqgd0","pricing_plan_id":"cebpf4jnsgd1na2vs0mg"},{"bike_id":"e71745a0-e1dd-46b2-b178-c77ff9f67425","system_id":"levelo_inurba_marseille","lat":43.23186,"lon":5.39983,"is_reserved":false,"is_disabled":false,"rental_uris":{"android":"levelo://app?vid=e71745a0-e1dd-46b2-b178-c77ff9f67425","ios":"levelo://app?vid=e71745a0-e1dd-46b2-b178-c77ff9f67425"},"vehicle_type_id":"4","last_reported":1756232088,"current_range_meters":16400,"station_id":"ce4bhn12rcd13ifvqgqg","pricing_plan_id":"cebpf4jnsgd1na2vs0mg"},{"bike_id":"770b1029-d9f0-46ac-a0e4-8be3d2e3a342","system_id":"levelo_inurba_marseille","lat":43.28859,"lon":5.35852,"is_reserved":false,"is_disabled":false,"rental_uris":{"android":"levelo://app?vid=770b1029-d9f0-46ac-a0e4-8be3d2e3a342","ios":"levelo://app?vid=770b1029-d9f0-46ac-a0e4-8be3d2e3a342"},"vehicle_type_id":"4","last_reported":1756232088,"current_range_meters":16400,"station_id":"ce4bhb12rcd13ifvqem0","pricing_plan_id":"cebpf4jnsgd1na2vs0mg"},{"bike_id":"12b9c0d4-ccf7-4807-837a-a9641303270b","system_id":"levelo_inurba_marseille","lat":43.30085,"lon":5.39074,"is_reserved":false,"is_disabled":false,"rental_uris":{"android":"levelo://app?vid=12b9c0d4-ccf7-4807-837a-a9641303270b","ios":"levelo://app?vid=12b9c0d4-ccf7-4807-837a-a9641303270b"},"vehicle_type_id":"4","last_reported":1756232088,"current_range_meters":16000,"station_id":"ce4bh192rcd13ifvqdb0","pricing_plan_id":"cebpf4jnsgd1na2vs0mg"},{"bike_id":"bb3087da-a363-4b9e-8572-cbf59bbbb841","system_id":"levelo_inurba_marseille","lat":43.29534,"lon":5.38541,"is_reserved":false,"is_disabled":false,"rental_uris":{"android":"levelo://app?vid=bb3087da-a363-4b9e-8572-cbf59bbbb841","ios":"levelo://app?vid=bb3087da-a363-4b9e-8572-cbf59bbbb841"},"vehicle_type_id":"4","last_reported":1756232088,"current_range_meters":16800,"station_id":"ce4bgih2rcd13ifvqba0","pricing_plan_id":"cebpf4jnsgd1na2vs0mg"},{"bike_id":"fbf0e9b4-0244-4455-89e8-bb336b1646cf","system_id":"levelo_inurba_marseille","lat":43.23183,"lon":5.39995,"is_reserved":false,"is_disabled":false,"rental_uris":{"android":"levelo://app?vid=fbf0e9b4-0244-4455-89e8-bb336b1646cf","ios":"levelo://app?vid=fbf0e9b4-0244-4455-89e8-bb336b1646cf"},"vehicle_type_id":"4","last_reported":1756232088,"current_range_meters":16800,"station_id":"ce4bhn12rcd13ifvqgqg","pricing_plan_id":"cebpf4jnsgd1na2vs0mg"},{"bike_id":"46902606-2c73-4d56-b0b7-1fd208791f14","system_id":"levelo_inurba_marseille","lat":43.25091,"lon":5.39524,"is_reserved":false,"is_disabled":false,"rental_uris":{"android":"levelo://app?vid=46902606-2c73-4d56-b0b7-1fd208791f14","ios":"levelo://app?vid=46902606-2c73-4d56-b0b7-1fd208791f14"},"vehicle_type_id":"4","last_reported":1756232088,"current_range_meters":16800,"station_id":"ce4bhm12rcd13ifvqgkg","pricing_plan_id":"cebpf4jnsgd1na2vs0mg"},{"bike_id":"54d4cf53-58c8-4f09-8688-402e0dc771b1","system_id":"levelo_inurba_marseille","lat":43.29846,"lon":5.36276,"is_reserved":false,"is_disabled":false,"rental_uris":{"android":"levelo://app?vid=54d4cf53-58c8-4f09-8688-402e0dc771b1","ios":"levelo://app?vid=54d4cf53-58c8-4f09-8688-402e0dc771b1"},"vehicle_type_id":"4","last_reported":1756232088,"current_range_meters":16800,"station_id":"ce4bgpp2rcd13ifvqc3g","pricing_plan_id":"cebpf4jnsgd1na2vs0mg"},{"bike_id":"80f3d5ae-2129-481d-8519-a35a40bdb90f","system_id":"levelo_inurba_marseille","lat":43.2953,"lon":5.38545,"is_reserved":false,"is_disabled":false,"rental_uris":{"android":"levelo://app?vid=80f3d5ae-2129-481d-8519-a35a40bdb90f","ios":"levelo://app?vid=80f3d5ae-2129-481d-8519-a35a40bdb90f"},"vehicle_type_id":"4","last_reported":1756232088,"current_range_meters":16800,"station_id":"ce4bgih2rcd13ifvqba0","pricing_plan_id":"cebpf4jnsgd1na2vs0mg"},{"bike_id":"0306ba73-3d0f-4523-9d11-9a4554b2d8ff","system_id":"levelo_inurba_marseille","lat":43.21184,"lon":5.35084,"is_reserved":false,"is_disabled":false,"rental_uris":{"android":"levelo://app?vid=0306ba73-3d0f-4523-9d11-9a4554b2d8ff","ios":"levelo://app?vid=0306ba73-3d0f-4523-9d11-9a4554b2d8ff"},"vehicle_type_id":"4","last_reported":1756232088,"current_range_meters":16800,"station_id":"st_cvj6sg6p6f1abm77japg","pricing_plan_id":"cebpf4jnsgd1na2vs0mg"},{"bike_id":"f4dcce67-9d4b-42c5-b969-8ed9538f3389","system_id":"levelo_inurba_marseille","lat":43.29873,"lon":5.39733,"is_reserved":false,"is_disabled":false,"rental_uris":{"android":"levelo://app?vid=f4dcce67-9d4b-42c5-b969-8ed9538f3389","ios":"levelo://app?vid=f4dcce67-9d4b-42c5-b969-8ed9538f3389"},"vehicle_type_id":"4","last_reported":1756232088,"current_range_meters":16800,"station_id":"ce4bh0h2rcd13ifvqd50","pricing_plan_id":"cebpf4jnsgd1na2vs0mg"},{"bike_id":"7d34aca6-bc8b-479d-a450-2b563e098f1d","system_id":"levelo_inurba_marseille","lat":43.24549,"lon":5.39524,"is_reserved":false,"is_disabled":false,"rental_uris":{"android":"levelo://app?vid=7d34aca6-bc8b-479d-a450-2b563e098f1d","ios":"levelo://app?vid=7d34aca6-bc8b-479d-a450-2b563e098f1d"},