{"last_updated":1738743130,"ttl":60,"version":"2.2","data":{"bikes":[{"bike_id":"5aa17bed-e19f-41ae-9fc6-0f4d961fb09b","system_id":"levelo_inurba_marseille","lat":43.30548,"lon":5.3671,"is_reserved":false,"is_disabled":false,"rental_uris":{"android":"levelo://app?vid=5aa17bed-e19f-41ae-9fc6-0f4d961fb09b","ios":"levelo://app?vid=5aa17bed-e19f-41ae-9fc6-0f4d961fb09b"},"vehicle_type_id":"4","last_reported":1738743131,"current_range_meters":36800,"station_id":"ce4bgrp2rcd13ifvqc9g","pricing_plan_id":"cebpf4jnsgd1na2vs0mg"},{"bike_id":"23f75161-7f9c-47d6-be04-ded441569cf7","system_id":"levelo_inurba_marseille","lat":43.26205,"lon":5.37933,"is_reserved":false,"is_disabled":false,"rental_uris":{"android":"levelo://app?vid=23f75161-7f9c-47d6-be04-ded441569cf7","ios":"levelo://app?vid=23f75161-7f9c-47d6-be04-ded441569cf7"},"vehicle_type_id":"4","last_reported":1738743131,"current_range_meters":38800,"station_id":"ce4bhjp2rcd13ifvqg90","pricing_plan_id":"cebpf4jnsgd1na2vs0mg"},{"bike_id":"419c8c22-86a4-4ef5-91f4-a06b4c2e4bba","system_id":"levelo_inurba_marseille","lat":43.2293,"lon":5.354,"is_reserved":false,"is_disabled":false,"rental_uris":{"android":"levelo://app?vid=419c8c22-86a4-4ef5-91f4-a06b4c2e4bba","ios":"levelo://app?vid=419c8c22-86a4-4ef5-91f4-a06b4c2e4bba"},"vehicle_type_id":"4","last_reported":1738743131,"current_range_meters":27600,"station_id":"cpo3532slgdg3j2ikp40","pricing_plan_id":"cebpf4jnsgd1na2vs0mg"},{"bike_id":"9fa5934b-265d-4647-ad90-fd53fb1906bf","system_id":"levelo_inurba_marseille","lat":43.29514,"lon":5.37514,"is_reserved":false,"is_disabled":false,"rental_uris":{"android":"levelo://app?vid=9fa5934b-265d-4647-ad90-fd53fb1906bf","ios":"levelo://app?vid=9fa5934b-265d-4647-ad90-fd53fb1906bf"},"vehicle_type_id":"4","last_reported":1738743131,"current_range_meters":18000,"station_id":"ce4bgkp2rcd13ifvqbmg","pricing_plan_id":"cebpf4jnsgd1na2vs0mg"},{"bike_id":"702c7feb-f5f9-4cbb-a36d-bd5bf8c59943","system_id":"levelo_inurba_marseille","lat":43.2884,"lon":5.39308,"is_reserved":false,"is_disabled":true,"rental_uris":{"android":"levelo://app?vid=702c7feb-f5f9-4cbb-a36d-bd5bf8c59943","ios":"levelo://app?vid=702c7feb-f5f9-4cbb-a36d-bd5bf8c59943"},"vehicle_type_id":"4","last_reported":1738743131,"current_range_meters":0,"station_id":"ce4bh2p2rcd13ifvqdi0","pricing_plan_id":"cebpf4jnsgd1na2vs0mg"},{"bike_id":"ba05dbef-cf19-40fa-8248-bd31b49bcc49","system_id":"levelo_inurba_marseille","lat":43.25941,"lon":5.40901,"is_reserved":false,"is_disabled":false,"rental_uris":{"android":"levelo://app?vid=ba05dbef-cf19-40fa-8248-bd31b49bcc49","ios":"levelo://app?vid=ba05dbef-cf19-40fa-8248-bd31b49bcc49"},"vehicle_type_id":"4","last_reported":1738743131,"current_range_meters":2800,"station_id":"ce4bhm92rcd13ifvqglg","pricing_plan_id":"cebpf4jnsgd1na2vs0mg"},{"bike_id":"306219af-70f7-498e-a70f-dcbaf4f69638","system_id":"levelo_inurba_marseille","lat":43.28609,"lon":5.35101,"is_reserved":false,"is_disabled":false,"rental_uris":{"android":"levelo://app?vid=306219af-70f7-498e-a70f-dcbaf4f69638","ios":"levelo://app?vid=306219af-70f7-498e-a70f-dcbaf4f69638"},"vehicle_type_id":"4","last_reported":1738743131,"current_range_meters":37600,"station_id":"ce4bhch2rcd13ifvqeug","pricing_plan_id":"cebpf4jnsgd1na2vs0mg"},{"bike_id":"a5c1c6e4-93b1-41f9-9cd6-2e43eca69d7b","system_id":"levelo_inurba_marseille","lat":43.30542,"lon":5.36703,"is_reserved":false,"is_disabled":false,"rental_uris":{"android":"levelo://app?vid=a5c1c6e4-93b1-41f9-9cd6-2e43eca69d7b","ios":"levelo://app?vid=a5c1c6e4-93b1-41f9-9cd6-2e43eca69d7b"},"vehicle_type_id":"4","last_reported":1738743131,"current_range_meters":13600,"station_id":"ce4bgrp2rcd13ifvqc9g","pricing_plan_id":"cebpf4jnsgd1na2vs0mg"},{"bike_id":"8a02c9a1-15e4-471d-ab6d-e972dacf97b1","system_id":"levelo_inurba_marseille","lat":43.30531,"lon":5.36545,"is_reserved":false,"is_disabled":false,"rental_uris":{"android":"levelo://app?vid=8a02c9a1-15e4-471d-ab6d-e972dacf97b1","ios":"levelo://app?vid=8a02c9a1-15e4-471d-ab6d-e972dacf97b1"},"vehicle_type_id":"4","last_reported":1738743131,"current_range_meters":32800,"station_id":"ce4bgs12rcd13ifvqcag","pricing_plan_id":"cebpf4jnsgd1na2vs0mg"},{"bike_id":"fdd91096-968a-422d-bd7a-c1249e4dd5d5","system_id":"levelo_inurba_marseille","lat":43.29278,"lon":5.40121,"is_reserved":false,"is_disabled":false,"rental_uris":{"android":"levelo://app?vid=fdd91096-968a-422d-bd7a-c1249e4dd5d5","ios":"levelo://app?vid=fdd91096-968a-422d-bd7a-c1249e4dd5d5"},"vehicle_type_id":"4","last_reported":1738743131,"current_range_meters":30400,"station_id":"ce4bh312rcd13ifvqdk0","pricing_plan_id":"cebpf4jnsgd1na2vs0mg"},{"bike_id":"caf558c3-a9ad-4fe3-92b6-038f06ef09fe","system_id":"levelo_inurba_marseille","lat":43.23187,"lon":5.35571,"is_reserved":false,"is_disabled":false,"rental_uris":{"android":"levelo://app?vid=caf558c3-a9ad-4fe3-92b6-038f06ef09fe","ios":"levelo://app?vid=caf558c3-a9ad-4fe3-92b6-038f06ef09fe"},"vehicle_type_id":"4","last_reported":1738743131,"current_range_meters":12000,"station_id":"ce4bhu92rcd13ifvqi70","pricing_plan_id":"cebpf4jnsgd1na2vs0mg"},{"bike_id":"ca569277-7b06-46b6-8f6f-cd357d4d7164","system_id":"levelo_inurba_marseille","lat":43.24087,"lon":5.3776,"is_reserved":false,"is_disabled":false,"rental_uris":{"android":"levelo://app?vid=ca569277-7b06-46b6-8f6f-cd357d4d7164","ios":"levelo://app?vid=ca569277-7b06-46b6-8f6f-cd357d4d7164"},"vehicle_type_id":"4","last_reported":1738743131,"current_range_meters":14800,"station_id":"ce4bhnp2rcd13ifvqgvg","pricing_plan_id":"cebpf4jnsgd1na2vs0mg"},{"bike_id":"f2df43d7-33ba-4e8c-9709-410c7a2fe9e4","system_id":"levelo_inurba_marseille","lat":43.30213,"lon":5.39465,"is_reserved":false,"is_disabled":false,"rental_uris":{"android":"levelo://app?vid=f2df43d7-33ba-4e8c-9709-410c7a2fe9e4","ios":"levelo://app?vid=f2df43d7-33ba-4e8c-9709-410c7a2fe9e4"},"vehicle_type_id":"4","last_reported":1738743131,"current_range_meters":16800,"station_id":"ce4bh0p2rcd13ifvqd70","pricing_plan_id":"cebpf4jnsgd1na2vs0mg"},{"bike_id":"7e19e353-1331-446b-aa47-ecd228ac2406","system_id":"levelo_inurba_marseille","lat":43.3048,"lon":5.37906,"is_reserved":false,"is_disabled":false,"rental_uris":{"android":"levelo://app?vid=7e19e353-1331-446b-aa47-ecd228ac2406","ios":"levelo://app?vid=7e19e353-1331-446b-aa47-ecd228ac2406"},"vehicle_type_id":"4","last_reported":1738743131,"current_range_meters":37600,"station_id":"ce4bgup2rcd13ifvqcn0","pricing_plan_id":"cebpf4jnsgd1na2vs0mg"},{"bike_id":"871d744f-603f-4760-b431-db645b4d7803","system_id":"levelo_inurba_marseille","lat":43.23144,"lon":5.4372,"is_reserved":false,"is_disabled":false,"rental_uris":{"android":"levelo://app?vid=871d744f-603f-4760-b431-db645b4d7803","ios":"levelo://app?vid=871d744f-603f-4760-b431-db645b4d7803"},"vehicle_type_id":"4","last_reported":1738743131,"current_range_meters":4400,"station_id":"ce4bhmp2rcd13ifvqgog","pricing_plan_id":"cebpf4jnsgd1na2vs0mg"},{"bike_id":"eb755d59-7afc-4519-b8a7-b1014a179d3c","system_id":"levelo_inurba_marseille","lat":43.27804,"lon":5.40725,"is_reserved":false,"is_disabled":false,"rental_uris":{"android":"levelo://app?vid=eb755d59-7afc-4519-b8a7-b1014a179d3c","ios":"levelo://app?vid=eb755d59-7afc-4519-b8a7-b1014a179d3c"},"vehicle_type_id":"4","last_reported":1738743131,"current_range_meters":38800,"station_id":"ce4bhnh2rcd13ifvqgtg","pricing_plan_id":"cebpf4jnsgd1na2vs0mg"},{"bike_id":"52ec9d16-8d16-4322-a5d9-68534ef66132","system_id":"levelo_inurba_marseille","lat":43.30557,"lon":5.3658,"is_reserved":false,"is_disabled":false,"rental_uris":{"android":"levelo://app?vid=52ec9d16-8d16-4322-a5d9-68534ef66132","ios":"levelo://app?vid=52ec9d16-8d16-4322-a5d9-68534ef66132"},"vehicle_type_id":"4","last_reported":1738743131,"current_range_meters":21600,"station_id":"ce4bgs12rcd13ifvqcag","pricing_plan_id":"cebpf4jnsgd1na2vs0mg"},{"bike_id":"3a096476-9301-42f4-82ef-94b4dcc262ec","system_id":"levelo_inurba_marseille","lat":43.31126,"lon":5.37767,"is_reserved":false,"is_disabled":false,"rental_uris":{"android":"levelo://app?vid=3a096476-9301-42f4-82ef-94b4dcc262ec","ios":"levelo://app?vid=3a096476-9301-42f4-82ef-94b4dcc262ec"},"vehicle_type_id":"4","last_reported":1738743131,"current_range_meters":33600,"station_id":"ce4bgt92rcd13ifvqcg0","pricing_plan_id":"cebpf4jnsgd1na2vs0mg"},{"bike_id":"614dc289-35fa-41ee-979a-df90840d98e7","system_id":"levelo_inurba_marseille","lat":43.30658,"lon":5.40066,"is_reserved":false,"is_disabled":false,"rental_uris":{"android":"levelo://app?vid=614dc289-35fa-41ee-979a-df90840d98e7","ios":"levelo://app?vid=614dc289-35fa-41ee-979a-df90840d98e7"},"vehicle_type_id":"4","last_reported":1738743131,"current_range_meters":18000,"station_id":"ce4bh112rcd13ifvqda0","pricing_plan_id":"cebpf4jnsgd1na2vs0mg"},{"bike_id":"d1d80a62-4509-4b59-af48-34da3b50ae26","system_id":"levelo_inurba_marseille","lat":43.29721,"lon":5.37684,"is_reserved":false,"is_disabled":false,"rental_uris":{"android":"levelo://app?vid=d1d80a62-4509-4b59-af48-34da3b50ae26","ios":"levelo://app?vid=d1d80a62-4509-4b59-af48-34da3b50ae26"},"vehicle_type_id":"4","last_reported":1738743131,"current_range_meters":27600,"station_id":"ce4bgkh2rcd13ifvqbl0","pricing_plan_id":"cebpf4jnsgd1na2vs0mg"},{"bike_id":"c2acbcb9-bdaf-4df4-a16a-904b028fa74d","system_id":"levelo_inurba_marseille","lat":43.25942,"lon":5.40911,"is_reserved":false,"is_disabled":true,"rental_uris":{"android":"levelo://app?vid=c2acbcb9-bdaf-4df4-a16a-904b028fa74d","ios":"levelo://app?vid=c2acbcb9-bdaf-4df4-a16a-904b028fa74d"},"vehicle_type_id":"4","last_reported":1738743131,"current_range_meters":28400,"station_id":"ce4bhm92rcd13ifvqglg","pricing_plan_id":"cebpf4jnsgd1na2vs0mg"},{"bike_id":"3e5cf5e4-131f-4a77-b805-66f70898d89e","system_id":"levelo_inurba_marseille","lat":43.27437,"lon":5.3942,"is_reserved":false,"is_disabled":false,"rental_uris":{"android":"levelo://app?vid=3e5cf5e4-131f-4a77-b805-66f70898d89e","ios":"levelo://app?vid=3e5cf5e4-131f-4a77-b805-66f70898d89e"},"vehicle_type_id":"4","last_reported":1738743131,"current_range_meters":32000,"station_id":"ce4bhdp2rcd13ifvqf20","pricing_plan_id":"cebpf4jnsgd1na2vs0mg"},{"bike_id":"585548c3-dfea-4775-b261-9cda396a75ed","system_id":"levelo_inurba_marseille","lat":43.30929,"lon":5.40175,"is_reserved":false,"is_disabled":true,"rental_uris":{"android":"levelo://app?vid=585548c3-dfea-4775-b261-9cda396a75ed","ios":"levelo://app?vid=585548c3-dfea-4775-b261-9cda396a75ed"},"vehicle_type_id":"4","last_reported":1738743131,"current_range_meters":38000,"station_id":"ce4bgvp2rcd13ifvqct0","pricing_plan_id":"cebpf4jnsgd1na2vs0mg"},{"bike_id":"7eaacd34-10f9-4246-8aa1-4a22e07a7c06","system_id":"levelo_inurba_marseille","lat":43.31636,"lon":5.37389,"is_reserved":false,"is_disabled":false,"rental_uris":{"android":"levelo://app?vid=7eaacd34-10f9-4246-8aa1-4a22e07a7c06","ios":"levelo://app?vid=7eaacd34-10f9-4246-8aa1-4a22e07a7c06"},"vehicle_type_id":"4","last_reported":1738743131,"current_range_meters":27200,"station_id":"","pricing_plan_id":"cebpf4jnsgd1na2vs0mg"},{"bike_id":"4b6f9401-1941-4131-949d-c1a79d7d1561","system_id":"levelo_inurba_marseille","lat":43.30904,"lon":5.36845,"is_reserved":false,"is_disabled":false,"rental_uris":{"android":"levelo://app?vid=4b6f9401-1941-4131-949d-c1a79d7d1561","ios":"levelo://app?vid=4b6f9401-1941-4131-949d-c1a79d7d1561"},"vehicle_type_id":"4","last_reported":1738743131,"current_range_meters":4000,"station_id":"ce4bgn92rcd13ifvqbvg","pricing_plan_id":"cebpf4jnsgd1na2vs0mg"},{"bike_id":"01c5c94f-a782-4469-a6a6-86f497f2a50c","system_id":"levelo_inurba_marseille","lat":43.33605,"lon":5.41033,"is_reserved":false,"is_disabled":false,"rental_uris":{"android":"levelo://app?vid=01c5c94f-a782-4469-a6a6-86f497f2a50c","ios":"levelo://app?vid=01c5c94f-a782-4469-a6a6-86f497f2a50c"},"vehicle_type_id":"4","last_reported":1738743131,"current_range_meters":22400,"station_id":"ce4bhqh2rcd13ifvqhmg","pricing_plan_id":"cebpf4jnsgd1na2vs0mg"},{"bike_id":"5f12060b-9ee7-4a7e-afd6-168eb1ba1fa0","system_id":"levelo_inurba_marseille","lat":43.26679,"lon":5.38268,"is_reserved":false,"is_disabled":false,"rental_uris":{"android":"levelo://app?vid=5f12060b-9ee7-4a7e-afd6-168eb1ba1fa0","ios":"levelo://app?vid=5f12060b-9ee7-4a7e-afd6-168eb1ba1fa0"},"vehicle_type_id":"4","last_reported":1738743131,"current_range_meters":29600,"station_id":"ce4bhg92rcd13ifvqf90","pricing_plan_id":"cebpf4jnsgd1na2vs0mg"},{"bike_id":"9d0de974-8143-4260-8c90-8e26cc33d946","system_id":"levelo_inurba_marseille","lat":43.26022,"lon":5.37576,"is_reserved":false,"is_disabled":false,"rental_uris":{"android":"levelo://app?vid=9d0de974-8143-4260-8c90-8e26cc33d946","ios":"levelo://app?vid=9d0de974-8143-4260-8c90-8e26cc33d946"},"vehicle_type_id":"4","last_reported":1738743131,"current_range_meters":38800,"station_id":"ce4bhgh2rcd13ifvqfa0","pricing_plan_id":"cebpf4jnsgd1na2vs0mg"},{"bike_id":"1a78f126-15bb-40e4-a379-1a33eae10b94","system_id":"levelo_inurba_marseille","lat":43.32111,"lon":5.36823,"is_reserved":false,"is_disabled":false,"rental_uris":{"android":"levelo://app?vid=1a78f126-15bb-40e4-a379-1a33eae10b94","ios":"levelo://app?vid=1a78f126-15bb-40e4-a379-1a33eae10b94"},"vehicle_type_id":"4","last_reported":1738743131,"current_range_meters":36400,"station_id":"","pricing_plan_id":"cebpf4jnsgd1na2vs0mg"},{"bike_id":"95dfb3ed-a02f-4b20-9602-3463ddc791a3","system_id":"levelo_inurba_marseille","lat":43.30481,"lon":5.37901,"is_reserved":false,"is_disabled":false,"rental_uris":{"android":"levelo://app?vid=95dfb3ed-a02f-4b20-9602-3463ddc791a3","ios":"levelo://app?vid=95dfb3ed-a02f-4b20-9602-3463ddc791a3"},"vehicle_type_id":"4","last_reported":1738743131,"current_range_meters":33600,"station_id":"ce4bgup2rcd13ifvqcn0","pricing_plan_id":"cebpf4jnsgd1na2vs0mg"},{"bike_id":"f49db839-cde4-4b48-8e5e-2b64dac550bb","system_id":"levelo_inurba_marseille","lat":43.24167,"lon":5.39727,"is_reserved":false,"is_disabled":false,"rental_uris":{"android":"levelo://app?vid=f49db839-cde4-4b48-8e5e-2b64dac550bb","ios":"levelo://app?vid=f49db839-cde4-4b48-8e5e-2b64dac550bb"},"vehicle_type_id":"4","last_reported":1738743131,"current_range_meters":13600,"station_id":"ce4bhn12rcd13ifvqgpg","pricing_plan_id":"cebpf4jnsgd1na2vs0mg"},{"bike_id":"f53cc797-2e23-4ec6-a462-85989923c05c","system_id":"levelo_inurba_marseille","lat":43.25013,"lon":5.38932,"is_reserved":false,"is_disabled":false,"rental_uris":{"android":"levelo://app?vid=f53cc797-2e23-4ec6-a462-85989923c05c","ios":"levelo://app?vid=f53cc797-2e23-4ec6-a462-85989923c05c"},"vehicle_type_id":"4","last_reported":1738743131,"current_range_meters":38800,"station_id":"ce4bhgp2rcd13ifvqfd0","pricing_plan_id":"cebpf4jnsgd1na2vs0mg"},{"bike_id":"a31da492-d404-42a4-a173-3e8c75aeef5d","system_id":"levelo_inurba_marseille","lat":43.24386,"lon":5.37069,"is_reserved":false,"is_disabled":false,"rental_uris":{"android":"levelo://app?vid=a31da492-d404-42a4-a173-3e8c75aeef5d","ios":"levelo://app?vid=a31da492-d404-42a4-a173-3e8c75aeef5d"},"vehicle_type_id":"4","last_reported":1738743131,"current_range_meters":30400,"station_id":"ce4bhhh2rcd13ifvqfk0","pricing_plan_id":"cebpf4jnsgd1na2vs0mg"},{"bike_id":"3cefc9f4-662a-490d-a7a9-f6d840f7ee85","system_id":"levelo_inurba_marseille","lat":43.25572,"lon":5.38245,"is_reserved":false,"is_disabled":false,"rental_uris":{"android":"levelo://app?vid=3cefc9f4-662a-490d-a7a9-f6d840f7ee85","ios":"levelo://app?vid=3cefc9f4-662a-490d-a7a9-f6d840f7ee85"},"vehicle_type_id":"4","last_reported":1738743131,"current_range_meters":17600,"station_id":"ce4bhih2rcd13ifvqfs0","pricing_plan_id":"cebpf4jnsgd1na2vs0mg"},{"bike_id":"a1a7079b-68b5-45ca-9af8-b6bc9f7cd559","system_id":"levelo_inurba_marseille","lat":43.22929,"lon":5.35389,"is_reserved":false,"is_disabled":false,"rental_uris":{"android":"levelo://app?vid=a1a7079b-68b5-45ca-9af8-b6bc9f7cd559","ios":"levelo://app?vid=a1a7079b-68b5-45ca-9af8-b6bc9f7cd559"},"vehicle_type_id":"4","last_reported":1738743131,"current_range_meters":38800,"station_id":"cpo3532slgdg3j2ikp40","pricing_plan_id":"cebpf4jnsgd1na2vs0mg"},{"bike_id":"4cff4c18-6936-40ba-b1b4-9d0ae4647e78","system_id":"levelo_inurba_marseille","lat":43.2756,"lon":5.38411,"is_reserved":false,"is_disabled":false,"rental_uris":{"android":"levelo://app?vid=4cff4c18-6936-40ba-b1b4-9d0ae4647e78","ios":"levelo://app?vid=4cff4c18-6936-40ba-b1b4-9d0ae4647e78"},"vehicle_type_id":"4","last_reported":1738743131,"current_range_meters":29600,"station_id":"ce4bhh92rcd13ifvqfi0","pricing_plan_id":"cebpf4jnsgd1na2vs0mg"},{"bike_id":"6b2a4273-1699-4802-9a6d-0f2b354c6021","system_id":"levelo_inurba_marseille","lat":43.30468,"lon":5.37917,"is_reserved":false,"is_disabled":false,"rental_uris":{"android":"levelo://app?vid=6b2a4273-1699-4802-9a6d-0f2b354c6021","ios":"levelo://app?vid=6b2a4273-1699-4802-9a6d-0f2b354c6021"},"vehicle_type_id":"4","last_reported":1738743131,"current_range_meters":37600,"station_id":"ce4bgup2rcd13ifvqcn0","pricing_plan_id":"cebpf4jnsgd1na2vs0mg"},{"bike_id":"29805978-3f90-4e1f-a2f8-4f8391d994c3","system_id":"levelo_inurba_marseille","lat":43.24178,"lon":5.39722,"is_reserved":false,"is_disabled":false,"rental_uris":{"android":"levelo://app?vid=29805978-3f90-4e1f-a2f8-4f8391d994c3","ios":"levelo://app?vid=29805978-3f90-4e1f-a2f8-4f8391d994c3"},"vehicle_type_id":"4","last_reported":1738743131,"current_range_meters":17200,"station_id":"ce4bhn12rcd13ifvqgpg","pricing_plan_id":"cebpf4jnsgd1na2vs0mg"},{"bike_id":"e900f4fe-f287-4f7a-a111-e62d22c31fb5","system_id":"levelo_inurba_marseille","lat":43.25578,"lon":5.38224,"is_reserved":false,"is_disabled":false,"rental_uris":{"android":"levelo://app?vid=e900f4fe-f287-4f7a-a111-e62d22c31fb5","ios":"levelo://app?vid=e900f4fe-f287-4f7a-a111-e62d22c31fb5"},"vehicle_type_id":"4","last_reported":1738743131,"current_range_meters":28800,"station_id":"ce4bhih2rcd13ifvqfs0","pricing_plan_id":"cebpf4jnsgd1na2vs0mg"},{"bike_id":"3726dff5-00e4-45e5-9db7-c906f7e13ea9","system_id":"levelo_inurba_marseille","lat":43.27162,"lon":5.41012,"is_reserved":false,"is_disabled":false,"rental_uris":{"android":"levelo://app?vid=3726dff5-00e4-45e5-9db7-c906f7e13ea9","ios":"levelo://app?vid=3726dff5-00e4-45e5-9db7-c906f7e13ea9"},"vehicle_type_id":"4","last_reported":1738743131,"current_range_meters":29600,"station_id":"ce4bhl12rcd13ifvqgf0","pricing_plan_id":"cebpf4jnsgd1na2vs0mg"},{"bike_id":"38d9c123-c80e-4d99-abd9-1554da4e609f","system_id":"levelo_inurba_marseille","lat":43.24644,"lon":5.38892,"is_reserved":false,"is_disabled":false,"rental_uris":{"android":"levelo://app?vid=38d9c123-c80e-4d99-abd9-1554da4e609f","ios":"levelo://app?vid=38d9c123-c80e-4d99-abd9-1554da4e609f"},"vehicle_type_id":"4","last_reported":1738743131,"current_range_meters":26000,"station_id":"ce4bhg12rcd13ifvqf60","pricing_plan_id":"cebpf4jnsgd1na2vs0mg"},{"bike_id":"101a3db2-bd4e-4e61-bcd9-4cd3d1af1d3a","system_id":"levelo_inurba_marseille","lat":43.25921,"lon":5.4091,"is_reserved":false,"is_disabled":false,"rental_uris":{"android":"levelo://app?vid=101a3db2-bd4e-4e61-bcd9-4cd3d1af1d3a","ios":"levelo://app?vid=101a3db2-bd4e-4e61-bcd9-4cd3d1af1d3a"},"vehicle_type_id":"4","last_reported":1738743131,"current_range_meters":24400,"station_id":"ce4bhm92rcd13ifvqglg","pricing_plan_id":"cebpf4jnsgd1na2vs0mg"},{"bike_id":"ecfd8047-b75a-4e87-a298-ba28fe0083c2","system_id":"levelo_inurba_marseille","lat":43.29605,"lon":5.38076,"is_reserved":false,"is_disabled":true,"rental_uris":{"android":"levelo://app?vid=ecfd8047-b75a-4e87-a298-ba28fe0083c2","ios":"levelo://app?vid=ecfd8047-b75a-4e87-a298-ba28fe0083c2"},"vehicle_type_id":"4","last_reported":1738743131,"current_range_meters":0,"station_id":"ce4bgl12rcd13ifvqbo0","pricing_plan_id":"cebpf4jnsgd1na2vs0mg"},{"bike_id":"91c53a12-bfb5-4d75-8638-43c02b53d613","system_id":"levelo_inurba_marseille","lat":43.30488,"lon":5.37899,"is_reserved":false,"is_disabled":false,"rental_uris":{"android":"levelo://app?vid=91c53a12-bfb5-4d75-8638-43c02b53d613","ios":"levelo://app?vid=91c53a12-bfb5-4d75-8638-43c02b53d613"},"vehicle_type_id":"4","last_reported":1738743131,"current_range_meters":37600,"station_id":"ce4bgup2rcd13ifvqcn0","pricing_plan_id":"cebpf4jnsgd1na2vs0mg"},{"bike_id":"4b2a8578-2196-4092-93b0-dd230b814241","system_id":"levelo_inurba_marseille","lat":43.286133,"lon":5.351096,"is_reserved":false,"is_disabled":false,"rental_uris":{"android":"levelo://app?vid=4b2a8578-2196-4092-93b0-dd230b814241","ios":"levelo://app?vid=4b2a8578-2196-4092-93b0-dd230b814241"},"vehicle_type_id":"4","last_reported":1738743131,"current_range_meters":19600,"station_id":"ce4bhch2rcd13ifvqeug","pricing_plan_id":"cebpf4jnsgd1na2vs0mg"},{"bike_id":"9a3d8afe-6430-4f53-aba8-27d653fab8bf","system_id":"levelo_inurba_marseille","lat":43.24977,"lon":5.38928,"is_reserved":false,"is_disabled":false,"rental_uris":{"android":"levelo://app?vid=9a3d8afe-6430-4f53-aba8-27d653fab8bf","ios":"levelo://app?vid=9a3d8afe-6430-4f53-aba8-27d653fab8bf"},"vehicle_type_id":"4","last_reported":1738743131,"current_range_meters":38800,"station_id":"ce4bhgp2rcd13ifvqfd0","pricing_plan_id":"cebpf4jnsgd1na2vs0mg"},{"bike_id":"272335b6-dc24-496f-b8c5-36817206bf50","system_id":"levelo_inurba_marseille","lat":43.299006,"lon":5.43675,"is_reserved":false,"is_disabled":false,"rental_uris":{"android":"levelo://app?vid=272335b6-dc24-496f-b8c5-36817206bf50","ios":"levelo://app?vid=272335b6-dc24-496f-b8c5-36817206bf50"},"vehicle_type_id":"4","last_reported":1738743131,"current_range_meters":38400,"station_id":"ce4bhpp2rcd13ifvqhfg","pricing_plan_id":"cebpf4jnsgd1na2vs0mg"},{"bike_id":"30ad2c1b-d91a-4c69-b941-7d3c940f9ac5","system_id":"levelo_inurba_marseille","lat":43.30537,"lon":5.36705,"is_reserved":false,"is_disabled":false,"rental_uris":{"android":"levelo://app?vid=30ad2c1b-d91a-4c69-b941-7d3c940f9ac5","ios":"levelo://app?vid=30ad2c1b-d91a-4c69-b941-7d3c940f9ac5"},"vehicle_type_id":"4","last_reported":1738743131,"current_range_meters":34000,"station_id":"ce4bgrp2rcd13ifvqc9g","pricing_plan_id":"cebpf4jnsgd1na2vs0mg"},{"bike_id":"0d10f978-6cf2-4f16-95f6-172ed5fa00c8","system_id":"levelo_inurba_marseille","lat":43.33599,"lon":5.41016,"is_reserved":false,"is_disabled":false,"rental_uris":{"android":"levelo://app?vid=0d10f978-6cf2-4f16-95f6-172ed5fa00c8","ios":"levelo://app?vid=0d10f978-6cf2-4f16-95f6-172ed5fa00c8"},"vehicle_type_id":"4","last_reported":1738743131,"current_range_meters":16000,"station_id":"ce4bhqh2rcd13ifvqhmg","pricing_plan_id":"cebpf4jnsgd1na2vs0mg"},{"bike_id":"17b1a83f-f008-47e8-9f74-209e6cf0cf56","system_id":"levelo_inurba_marseille","lat":43.31334,"lon":5.36749,"is_reserved":false,"is_disabled":false,"rental_uris":{"android":"levelo://app?vid=17b1a83f-f008-47e8-9f74-209e6cf0cf56","ios":"levelo://app?vid=17b1a83f-f008-47e8-9f74-209e6cf0cf56"},"vehicle_type_id":"4","last_reported":1738743131,"current_range_meters":38800,"station_id":"ce4bgr92rcd13ifvqc6g","pricing_plan_id":"cebpf4jnsgd1na2vs0mg"},{"bike_id":"0c83acd9-85d1-40f8-bd6e-5ad0e4c112fc","system_id":"levelo_inurba_marseille","lat":43.27498,"lon":5.42458,"is_reserved":false,"is_disabled":false,"rental_uris":{"android":"levelo://app?vid=0c83acd9-85d1-40f8-bd6e-5ad0e4c112fc","ios":"levelo://app?vid=0c83acd9-85d1-40f8-bd6e-5ad0e4c112fc"},"vehicle_type_id":"4","last_reported":1738743131,"current_range_meters":17600,"station_id":"ce4bhn92rcd13ifvqgrg","pricing_plan_id":"cebpf4jnsgd1na2vs0mg"},{"bike_id":"967cdb67-2f8e-4493-a026-a8ad4dd4b8dd","system_id":"levelo_inurba_marseille","lat":43.30155,"lon":5.38088,"is_reserved":false,"is_disabled":false,"rental_uris":{"android":"levelo://app?vid=967cdb67-2f8e-4493-a026-a8ad4dd4b8dd","ios":"levelo://app?vid=967cdb67-2f8e-4493-a026-a8ad4dd4b8dd"},"vehicle_type_id":"4","last_reported":1738743131,"current_range_meters":34800,"station_id":"ce4bgjp2rcd13ifvqbh0","pricing_plan_id":"cebpf4jnsgd1na2vs0mg"},{"bike_id":"cf0d534e-429a-4742-b2cb-4793faf704ac","system_id":"levelo_inurba_marseille","lat":43.24646,"lon":5.38901,"is_reserved":false,"is_disabled":false,"rental_uris":{"android":"levelo://app?vid=cf0d534e-429a-4742-b2cb-4793faf704ac","ios":"levelo://app?vid=cf0d534e-429a-4742-b2cb-4793faf704ac"},"vehicle_type_id":"4","last_reported":1738743131,"current_range_meters":39200,"station_id":"ce4bhg12rcd13ifvqf60","pricing_plan_id":"cebpf4jnsgd1na2vs0mg"},{"bike_id":"d5af1b14-c1df-4fc7-aca9-3e1801986d1b","system_id":"levelo_inurba_marseille","lat":43.29024,"lon":5.39984,"is_reserved":false,"is_disabled":false,"rental_uris":{"android":"levelo://app?vid=d5af1b14-c1df-4fc7-aca9-3e1801986d1b","ios":"levelo://app?vid=d5af1b14-c1df-4fc7-aca9-3e1801986d1b"},"vehicle_type_id":"4","last_reported":1738743131,"current_range_meters":36400,"station_id":"ce4bh392rcd13ifvqdm0","pricing_plan_id":"cebpf4jnsgd1na2vs0mg"},{"bike_id":"3a5aa9c9-bc8f-448e-aeb5-c9e98d56970c","system_id":"levelo_inurba_marseille","lat":43.33607,"lon":5.41028,"is_reserved":false,"is_disabled":false,"rental_uris":{"android":"levelo://app?vid=3a5aa9c9-bc8f-448e-aeb5-c9e98d56970c","ios":"levelo://app?vid=3a5aa9c9-bc8f-448e-aeb5-c9e98d56970c"},"vehicle_type_id":"4","last_reported":1738743131,"current_range_meters":38800,"station_id":"ce4bhqh2rcd13ifvqhmg","pricing_plan_id":"cebpf4jnsgd1na2vs0mg"},{"bike_id":"3d9b957f-57ac-4f6a-9efb-9b6e675d032c","system_id":"levelo_inurba_marseille","lat":43.29087,"lon":5.37167,"is_reserved":false,"is_disabled":false,"rental_uris":{"android":"levelo://app?vid=3d9b957f-57ac-4f6a-9efb-9b6e675d032c","ios":"levelo://app?vid=3d9b957f-57ac-4f6a-9efb-9b6e675d032c"},"vehicle_type_id":"4","last_reported":1738743131,"current_range_meters":38800,"station_id":"ce4bh5p2rcd13ifvqe4g","pricing_plan_id":"cebpf4jnsgd1na2vs0mg"},{"bike_id":"d4ab90f0-97f6-4046-8e63-e9c46ed6b688","system_id":"levelo_inurba_marseille","lat":43.34144,"lon":5.40908,"is_reserved":false,"is_disabled":false,"rental_uris":{"android":"levelo://app?vid=d4ab90f0-97f6-4046-8e63-e9c46ed6b688","ios":"levelo://app?vid=d4ab90f0-97f6-4046-8e63-e9c46ed6b688"},"vehicle_type_id":"4","last_reported":1738743131,"current_range_meters":39200,"station_id":"ce4bhqh2rcd13ifvqhlg","pricing_plan_id":"cebpf4jnsgd1na2vs0mg"},{"bike_id":"30d68ac6-7ba6-4749-8154-bf914e372a6a","system_id":"levelo_inurba_marseille","lat":43.32362,"lon":5.38892,"is_reserved":false,"is_disabled":false,"rental_uris":{"android":"levelo://app?vid=30d68ac6-7ba6-4749-8154-bf914e372a6a","ios":"levelo://app?vid=30d68ac6-7ba6-4749-8154-bf914e372a6a"},"vehicle_type_id":"4","last_reported":1738743131,"current_range_meters":34800,"station_id":"ce4bhqp2rcd13ifvqhog","pricing_plan_id":"cebpf4jnsgd1na2vs0mg"},{"bike_id":"25291f48-3ef4-4a16-a90d-672c3bbe8a32","system_id":"levelo_inurba_marseille","lat":43.281,"lon":5.3785,"is_reserved":false,"is_disabled":true,"rental_uris":{"android":"levelo://app?vid=25291f48-3ef4-4a16-a90d-672c3bbe8a32","ios":"levelo://app?vid=25291f48-3ef4-4a16-a90d-672c3bbe8a32"},"vehicle_type_id":"4","last_reported":1738743131,"current_range_meters":0,"station_id":"ce4bha12rcd13ifvqee0","pricing_plan_id":"cebpf4jnsgd1na2vs0mg"},{"bike_id":"312e32c3-6324-498b-b53b-8d30f4b3f2b5","system_id":"levelo_inurba_marseille","lat":43.3089,"lon":5.40224,"is_reserved":false,"is_disabled":false,"rental_uris":{"android":"levelo://app?vid=312e32c3-6324-498b-b53b-8d30f4b3f2b5","ios":"levelo://app?vid=312e32c3-6324-498b-b53b-8d30f4b3f2b5"},"vehicle_type_id":"4","last_reported":1738743131,"current_range_meters":36800,"station_id":"","pricing_plan_id":"cebpf4jnsgd1na2vs0mg"},{"bike_id":"d7612fe3-c24f-460a-978f-01663b32ea49","system_id":"levelo_inurba_marseille","lat":43.30543,"lon":5.36707,"is_reserved":false,"is_disabled":false,"rental_uris":{"android":"levelo://app?vid=d7612fe3-c24f-460a-978f-01663b32ea49","ios":"levelo://app?vid=d7612fe3-c24f-460a-978f-01663b32ea49"},"vehicle_type_id":"4","last_reported":1738743131,"current_range_meters":39200,"station_id":"ce4bgrp2rcd13ifvqc9g","pricing_plan_id":"cebpf4jnsgd1na2vs0mg"},{"bike_id":"2cd60774-c2f8-4e8f-9236-a6b0c03a1062","system_id":"levelo_inurba_marseille","lat":43.28075,"lon":5.3964,"is_reserved":false,"is_disabled":false,"rental_uris":{"android":"levelo://app?vid=2cd60774-c2f8-4e8f-9236-a6b0c03a1062","ios":"levelo://app?vid=2cd60774-c2f8-4e8f-9236-a6b0c03a1062"},"vehicle_type_id":"4","last_reported":1738743131,"current_range_meters":14800,"station_id":"ce4bho12rcd13ifvqh2g","pricing_plan_id":"cebpf4jnsgd1na2vs0mg"},{"bike_id":"70fbd080-ab33-4da0-bbe4-7f2c4038fdd5","system_id":"levelo_inurba_marseille","lat":43.29602,"lon":5.38112,"is_reserved":false,"is_disabled":false,"rental_uris":{"android":"levelo://app?vid=70fbd080-ab33-4da0-bbe4-7f2c4038fdd5","ios":"levelo://app?vid=70fbd080-ab33-4da0-bbe4-7f2c4038fdd5"},"vehicle_type_id":"4","last_reported":1738743131,"current_range_meters":8000,"station_id":"ce4bgl12rcd13ifvqbo0","pricing_plan_id":"cebpf4jnsgd1na2vs0mg"},{"bike_id":"e040da88-b421-4173-9ede-61ba1a6ca5b4","system_id":"levelo_inurba_marseille","lat":43.26716,"lon":5.37642,"is_reserved":false,"is_disabled":false,"rental_uris":{"android":"levelo://app?vid=e040da88-b421-4173-9ede-61ba1a6ca5b4","ios":"levelo://app?vid=e040da88-b421-4173-9ede-61ba1a6ca5b4"},"vehicle_type_id":"4","last_reported":1738743131,"current_range_meters":21600,"station_id":"","pricing_plan_id":"cebpf4jnsgd1na2vs0mg"},{"bike_id":"6712f04b-f35d-4e3a-a70d-c89aec85d9b2","system_id":"levelo_inurba_marseille","lat":43.22931,"lon":5.35392,"is_reserved":false,"is_disabled":false,"rental_uris":{"android":"levelo://app?vid=6712f04b-f35d-4e3a-a70d-c89aec85d9b2","ios":"levelo://app?vid=6712f04b-f35d-4e3a-a70d-c89aec85d9b2"},"vehicle_type_id":"4","last_reported":1738743131,"current_range_meters":38800,"station_id":"cpo3532slgdg3j2ikp40","pricing_plan_id":"cebpf4jnsgd1na2vs0mg"},{"bike_id":"7fd957a0-f606-42e8-84a1-dd7a787460a7","system_id":"levelo_inurba_marseille","lat":43.34149,"lon":5.40898,"is_reserved":false,"is_disabled":false,"rental_uris":{"android":"levelo://app?vid=7fd957a0-f606-42e8-84a1-dd7a787460a7","ios":"levelo://app?vid=7fd957a0-f606-42e8-84a1-dd7a787460a7"},"vehicle_type_id":"4","last_reported":1738743131,"current_range_meters":38400,"station_id":"ce4bhqh2rcd13ifvqhlg","pricing_plan_id":"cebpf4jnsgd1na2vs0mg"},{"bike_id":"b59a394e-342c-4992-b60e-7a6487fcb8a2","system_id":"levelo_inurba_marseille","lat":43.280363,"lon":5.369469,"is_reserved":false,"is_disabled":false,"rental_uris":{"android":"levelo://app?vid=b59a394e-342c-4992-b60e-7a6487fcb8a2","ios":"levelo://app?vid=b59a394e-342c-4992-b60e-7a6487fcb8a2"},"vehicle_type_id":"4","last_reported":1738743131,"current_range_meters":38400,"station_id":"ce4bha12rcd13ifvqef0","pricing_plan_id":"cebpf4jnsgd1na2vs0mg"},{"bike_id":"326654a7-edf6-4ca5-96ff-623d3b2484a0","system_id":"levelo_inurba_marseille","lat":43.30153,"lon":5.38086,"is_reserved":false,"is_disabled":false,"rental_uris":{"android":"levelo://app?vid=326654a7-edf6-4ca5-96ff-623d3b2484a0","ios":"levelo://app?vid=326654a7-edf6-4ca5-96ff-623d3b2484a0"},"vehicle_type_id":"4","last_reported":1738743131,"current_range_meters":14800,"station_id":"ce4bgjp2rcd13ifvqbh0","pricing_plan_id":"cebpf4jnsgd1na2vs0mg"},{"bike_id":"1d735f75-9435-41e6-9a3b-d86be257f270","system_id":"levelo_inurba_marseille","lat":43.29034,"lon":5.39991,"is_reserved":false,"is_disabled":false,"rental_uris":{"android":"levelo://app?vid=1d735f75-9435-41e6-9a3b-d86be257f270","ios":"levelo://app?vid=1d735f75-9435-41e6-9a3b-d86be257f270"},"vehicle_type_id":"4","last_reported":1738743131,"current_range_meters":38800,"station_id":"ce4bh392rcd13ifvqdm0","pricing_plan_id":"cebpf4jnsgd1na2vs0mg"},{"bike_id":"01387558-154d-42a4-b95e-a5c1626f164d","system_id":"levelo_inurba_marseille","lat":43.29316,"lon":5.37183,"is_reserved":false,"is_disabled":false,"rental_uris":{"android":"levelo://app?vid=01387558-154d-42a4-b95e-a5c1626f164d","ios":"levelo://app?vid=01387558-154d-42a4-b95e-a5c1626f164d"},"vehicle_type_id":"4","last_reported":1738743131,"current_range_meters":29600,"station_id":"ce4bgh92rcd13ifvqb40","pricing_plan_id":"cebpf4jnsgd1na2vs0mg"},{"bike_id":"4b197a1c-33eb-4967-965c-046d95290a0a","system_id":"levelo_inurba_marseille","lat":43.30534,"lon":5.367,"is_reserved":false,"is_disabled":false,"rental_uris":{"android":"levelo://app?vid=4b197a1c-33eb-4967-965c-046d95290a0a","ios":"levelo://app?vid=4b197a1c-33eb-4967-965c-046d95290a0a"},"vehicle_type_id":"4","last_reported":1738743131,"current_range_meters":38800,"station_id":"ce4bgrp2rcd13ifvqc9g","pricing_plan_id":"cebpf4jnsgd1na2vs0mg"},{"bike_id":"c866054b-7e28-4652-9f09-e87802bad74e","system_id":"levelo_inurba_marseille","lat":43.24648,"lon":5.38895,"is_reserved":false,"is_disabled":false,"rental_uris":{"android":"levelo://app?vid=c866054b-7e28-4652-9f09-e87802bad74e","ios":"levelo://app?vid=c866054b-7e28-4652-9f09-e87802bad74e"},"vehicle_type_id":"4","last_reported":1738743131,"current_range_meters":10800,"station_id":"ce4bhg12rcd13ifvqf60","pricing_plan_id":"cebpf4jnsgd1na2vs0mg"},{"bike_id":"4f711729-11db-4481-a558-983b7b381ab1","system_id":"levelo_inurba_marseille","lat":43.33588,"lon":5.41031,"is_reserved":false,"is_disabled":false,"rental_uris":{"android":"levelo://app?vid=4f711729-11db-4481-a558-983b7b381ab1","ios":"levelo://app?vid=4f711729-11db-4481-a558-983b7b381ab1"},"vehicle_type_id":"4","last_reported":1738743131,"current_range_meters":31200,"station_id":"ce4bhqh2rcd13ifvqhmg","pricing_plan_id":"cebpf4jnsgd1na2vs0mg"},{"bike_id":"8b50d5d6-3993-4367-b1cc-aee79b36e4de","system_id":"levelo_inurba_marseille","lat":43.29921,"lon":5.37479,"is_reserved":false,"is_disabled":false,"rental_uris":{"android":"levelo://app?vid=8b50d5d6-3993-4367-b1cc-aee79b36e4de","ios":"levelo://app?vid=8b50d5d6-3993-4367-b1cc-aee79b36e4de"},"vehicle_type_id":"4","last_reported":1738743131,"current_range_meters":32400,"station_id":"ce4bgjh2rcd13ifvqbg0","pricing_plan_id":"cebpf4jnsgd1na2vs0mg"},{"bike_id":"37f58142-e4da-4fa5-b6ac-f1f84075e5c0","system_id":"levelo_inurba_marseille","lat":43.29618,"lon":5.37157,"is_reserved":false,"is_disabled":true,"rental_uris":{"android":"levelo://app?vid=37f58142-e4da-4fa5-b6ac-f1f84075e5c0","ios":"levelo://app?vid=37f58142-e4da-4fa5-b6ac-f1f84075e5c0"},"vehicle_type_id":"4","last_reported":1738743131,"current_range_meters":38800,"station_id":"ce4bgnh2rcd13ifvqc0g","pricing_plan_id":"cebpf4jnsgd1na2vs0mg"},{"bike_id":"a4feb191-8532-43e6-9e74-6ad8af8a54c9","system_id":"levelo_inurba_marseille","lat":43.27483,"lon":5.42476,"is_reserved":false,"is_disabled":false,"rental_uris":{"android":"levelo://app?vid=a4feb191-8532-43e6-9e74-6ad8af8a54c9","ios":"levelo://app?vid=a4feb191-8532-43e6-9e74-6ad8af8a54c9"},"vehicle_type_id":"4","last_reported":1738743131,"current_range_meters":38800,"station_id":"ce4bhn92rcd13ifvqgrg","pricing_plan_id":"cebpf4jnsgd1na2vs0mg"},{"bike_id":"1a3714ed-2f47-45be-8a12-f8dffc386763","system_id":"levelo_inurba_marseille","lat":43.25575,"lon":5.38264,"is_reserved":false,"is_disabled":false,"rental_uris":{"android":"levelo://app?vid=1a3714ed-2f47-45be-8a12-f8dffc386763","ios":"levelo://app?vid=1a3714ed-2f47-45be-8a12-f8dffc386763"},"vehicle_type_id":"4","last_reported":1738743131,"current_range_meters":26800,"station_id":"ce4bhih2rcd13ifvqfs0","pricing_plan_id":"cebpf4jnsgd1na2vs0mg"},{"bike_id":"b252fe53-4631-4d24-b601-42324884b0c7","system_id":"levelo_inurba_marseille","lat":43.29276,"lon":5.36841,"is_reserved":false,"is_disabled":false,"rental_uris":{"android":"levelo://app?vid=b252fe53-4631-4d24-b601-42324884b0c7","ios":"levelo://app?vid=b252fe53-4631-4d24-b601-42324884b0c7"},"vehicle_type_id":"4","last_reported":1738743131,"current_range_meters":25200,"station_id":"ce4bhbp2rcd13ifvqesg","pricing_plan_id":"cebpf4jnsgd1na2vs0mg"},{"bike_id":"9632c30c-c15d-4889-86f3-7c357321be0b","system_id":"levelo_inurba_marseille","lat":43.27316,"lon":5.39082,"is_reserved":false,"is_disabled":false,"rental_uris":{"android":"levelo://app?vid=9632c30c-c15d-4889-86f3-7c357321be0b","ios":"levelo://app?vid=9632c30c-c15d-4889-86f3-7c357321be0b"},"vehicle_type_id":"4","last_reported":1738743131,"current_range_meters":32800,"station_id":"ce4bhgp2rcd13ifvqfe0","pricing_plan_id":"cebpf4jnsgd1na2vs0mg"},{"bike_id":"d6b0cf54-fa2e-4bc8-963e-74d7f8faf1fe","system_id":"levelo_inurba_marseille","lat":43.24672,"lon":5.38166,"is_reserved":false,"is_disabled":true,"rental_uris":{"android":"levelo://app?vid=d6b0cf54-fa2e-4bc8-963e-74d7f8faf1fe","ios":"levelo://app?vid=d6b0cf54-fa2e-4bc8-963e-74d7f8faf1fe"},"vehicle_type_id":"4","last_reported":1738743131,"current_range_meters":2000,"station_id":"ce4bhih2rcd13ifvqfr0","pricing_plan_id":"cebpf4jnsgd1na2vs0mg"},{"bike_id":"9fa6de76-e609-4c72-8e60-948046040770","system_id":"levelo_inurba_marseille","lat":43.26684,"lon":5.38273,"is_reserved":false,"is_disabled":false,"rental_uris":{"android":"levelo://app?vid=9fa6de76-e609-4c72-8e60-948046040770","ios":"levelo://app?vid=9fa6de76-e609-4c72-8e60-948046040770"},"vehicle_type_id":"4","last_reported":1738743131,"current_range_meters":39200,"station_id":"ce4bhg92rcd13ifvqf90","pricing_plan_id":"cebpf4jnsgd1na2vs0mg"},{"bike_id":"96db26f3-6182-45b1-98ca-6576a1e2e797","system_id":"levelo_inurba_marseille","lat":43.25496,"lon":5.37666,"is_reserved":false,"is_disabled":false,"rental_uris":{"android":"levelo://app?vid=96db26f3-6182-45b1-98ca-6576a1e2e797","ios":"levelo://app?vid=96db26f3-6182-45b1-98ca-6576a1e2e797"},"vehicle_type_id":"4","last_reported":1738743131,"current_range_meters":19200,"station_id":"ce4bhh12rcd13ifvqff0","pricing_plan_id":"cebpf4jnsgd1na2vs0mg"},{"bike_id":"646ad4ef-5a52-4531-9e83-72cac0dbfd0f","system_id":"levelo_inurba_marseille","lat":43.2731,"lon":5.39097,"is_reserved":false,"is_disabled":false,"rental_uris":{"android":"levelo://app?vid=646ad4ef-5a52-4531-9e83-72cac0dbfd0f","ios":"levelo://app?vid=646ad4ef-5a52-4531-9e83-72cac0dbfd0f"},"vehicle_type_id":"4","last_reported":1738743131,"current_range_meters":16000,"station_id":"ce4bhgp2rcd13ifvqfe0","pricing_plan_id":"cebpf4jnsgd1na2vs0mg"},{"bike_id":"3ab0ceb6-cd89-477f-8038-1be761eb4bda","system_id":"levelo_inurba_marseille","lat":43.29547,"lon":5.37509,"is_reserved":false,"is_disabled":true,"rental_uris":{"android":"levelo://app?vid=3ab0ceb6-cd89-477f-8038-1be761eb4bda","ios":"levelo://app?vid=3ab0ceb6-cd89-477f-8038-1be761eb4bda"},"vehicle_type_id":"4","last_reported":1738743131,"current_range_meters":0,"station_id":"ce4bgkp2rcd13ifvqbmg","pricing_plan_id":"cebpf4jnsgd1na2vs0mg"},{"bike_id":"496310f9-20d4-472f-8dcd-1fcbf1a417a3","system_id":"levelo_inurba_marseille","lat":43.2438,"lon":5.37067,"is_reserved":false,"is_disabled":false,"rental_uris":{"android":"levelo://app?vid=496310f9-20d4-472f-8dcd-1fcbf1a417a3","ios":"levelo://app?vid=496310f9-20d4-472f-8dcd-1fcbf1a417a3"},"vehicle_type_id":"4","last_reported":1738743131,"current_range_meters":28400,"station_id":"ce4bhhh2rcd13ifvqfk0","pricing_plan_id":"cebpf4jnsgd1na2vs0mg"},{"bike_id":"b2d6864b-5060-48af-bc3e-cc82b3d1573e","system_id":"levelo_inurba_marseille","lat":43.25726,"lon":5.41118,"is_reserved":false,"is_disabled":false,"rental_uris":{"android":"levelo://app?vid=b2d6864b-5060-48af-bc3e-cc82b3d1573e","ios":"levelo://app?vid=b2d6864b-5060-48af-bc3e-cc82b3d1573e"},"vehicle_type_id":"4","last_reported":1738743131,"current_range_meters":18000,"station_id":"ce4bhkp2rcd13ifvqgd0","pricing_plan_id":"cebpf4jnsgd1na2vs0mg"},{"bike_id":"c85a26e1-f53e-4ec1-b1ea-8b32d23f1f4d","system_id":"levelo_inurba_marseille","lat":43.23055,"lon":5.35501,"is_reserved":false,"is_disabled":false,"rental_uris":{"android":"levelo://app?vid=c85a26e1-f53e-4ec1-b1ea-8b32d23f1f4d","ios":"levelo://app?vid=c85a26e1-f53e-4ec1-b1ea-8b32d23f1f4d"},"vehicle_type_id":"4","last_reported":1738743131,"current_range_meters":23200,"station_id":"cpo3342slgdg3j2ifvpg","pricing_plan_id":"cebpf4jnsgd1na2vs0mg"},{"bike_id":"512a3a23-b079-4568-bc04-d9235c65b5d3","system_id":"levelo_inurba_marseille","lat":43.23962,"lon":5.36636,"is_reserved":false,"is_disabled":false,"rental_uris":{"android":"levelo://app?vid=512a3a23-b079-4568-bc04-d9235c65b5d3","ios":"levelo://app?vid=512a3a23-b079-4568-bc04-d9235c65b5d3"},"vehicle_type_id":"4","last_reported":1738743131,"current_range_meters":14000,"station_id":"ce4bhi12rcd13ifvqfp0","pricing_plan_id":"cebpf4jnsgd1na2vs0mg"},{"bike_id":"36a8ef1d-b00e-46b1-bc1d-4b0c64f8c378","system_id":"levelo_inurba_marseille","lat":43.29268,"lon":5.38457,"is_reserved":false,"is_disabled":false,"rental_uris":{"android":"levelo://app?vid=36a8ef1d-b00e-46b1-bc1d-4b0c64f8c378","ios":"levelo://app?vid=36a8ef1d-b00e-46b1-bc1d-4b0c64f8c378"},"vehicle_type_id":"4","last_reported":1738743131,"current_range_meters":24800,"station_id":"ce4bh692rcd13ifvqea0","pricing_plan_id":"cebpf4jnsgd1na2vs0mg"},{"bike_id":"bd2c8631-5885-47e9-a4c3-f8cf7762eef5","system_id":"levelo_inurba_marseille","lat":43.24181,"lon":5.39738,"is_reserved":false,"is_disabled":true,"rental_uris":{"android":"levelo://app?vid=bd2c8631-5885-47e9-a4c3-f8cf7762eef5","ios":"levelo://app?vid=bd2c8631-5885-47e9-a4c3-f8cf7762eef5"},"vehicle_type_id":"4","last_reported":1738743131,"current_range_meters":0,"station_id":"ce4bhn12rcd13ifvqgpg","pricing_plan_id":"cebpf4jnsgd1na2vs0mg"},{"bike_id":"9fbf5135-937c-4ad1-bfe5-7b9a4518456d","system_id":"levelo_inurba_marseille","lat":43.2861,"lon":5.37067,"is_reserved":false,"is_disabled":false,"rental_uris":{"android":"levelo://app?vid=9fbf5135-937c-4ad1-bfe5-7b9a4518456d","ios":"levelo://app?vid=9fbf5135-937c-4ad1-bfe5-7b9a4518456d"},"vehicle_type_id":"4","last_reported":1738743131,"current_range_meters":38800,"station_id":"ce4bht12rcd13ifvqi60","pricing_plan_id":"cebpf4jnsgd1na2vs0mg"},{"bike_id":"3a8e027c-0654-4850-bb93-ff1d8db3dc3e","system_id":"levelo_inurba_marseille","lat":43.31228,"lon":5.36869,"is_reserved":false,"is_disabled":false,"rental_uris":{"android":"levelo://app?vid=3a8e027c-0654-4850-bb93-ff1d8db3dc3e","ios":"levelo://app?vid=3a8e027c-0654-4850-bb93-ff1d8db3dc3e"},"vehicle_type_id":"4","last_reported":1738743131,"current_range_meters":33600,"station_id":"ce4bgl92rcd13ifvqbq0","pricing_plan_id":"cebpf4jnsgd1na2vs0mg"},{"bike_id":"e2d0f523-6bbe-43dd-b49a-c8ee81b79f70","system_id":"levelo_inurba_marseille","lat":43.28931,"lon":5.36379,"is_reserved":false,"is_disabled":false,"rental_uris":{"android":"levelo://app?vid=e2d0f523-6bbe-43dd-b49a-c8ee81b79f70","ios":"levelo://app?vid=e2d0f523-6bbe-43dd-b49a-c8ee81b79f70"},"vehicle_type_id":"4","last_reported":1738743131,"current_range_meters":33200,"station_id":"ce4bhc92rcd13ifvqetg","pricing_plan_id":"cebpf4jnsgd1na2vs0mg"},{"bike_id":"5b7376af-b3c2-4a99-9809-a8a9ac47b249","system_id":"levelo_inurba_marseille","lat":43.29367,"lon":5.37846,"is_reserved":false,"is_disabled":false,"rental_uris":{"android":"levelo://app?vid=5b7376af-b3c2-4a99-9809-a8a9ac47b249","ios":"levelo://app?vid=5b7376af-b3c2-4a99-9809-a8a9ac47b249"},"vehicle_type_id":"4","last_reported":1738743131,"current_range_meters":38800,"station_id":"ce4bgjh2rcd13ifvqbf0","pricing_plan_id":"cebpf4jnsgd1na2vs0mg"},{"bike_id":"a601793f-2b5e-4f15-b76e-8c54ae0448f5","system_id":"levelo_inurba_marseille","lat":43.28978,"lon":5.37838,"is_reserved":false,"is_disabled":false,"rental_uris":{"android":"levelo://app?vid=a601793f-2b5e-4f15-b76e-8c54ae0448f5","ios":"levelo://app?vid=a601793f-2b5e-4f15-b76e-8c54ae0448f5"},"vehicle_type_id":"4","last_reported":1738743131,"current_range_meters":38800,"station_id":"ce4bh9p2rcd13ifvqed0","pricing_plan_id":"cebpf4jnsgd1na2vs0mg"},{"bike_id":"0193e985-2646-4894-b256-61dd0db0145c","system_id":"levelo_inurba_marseille","lat":43.29908,"lon":5.38146,"is_reserved":false,"is_disabled":false,"rental_uris":{"android":"levelo://app?vid=0193e985-2646-4894-b256-61dd0db0145c","ios":"levelo://app?vid=0193e985-2646-4894-b256-61dd0db0145c"},"vehicle_type_id":"4","last_reported":1738743131,"current_range_meters":31200,"station_id":"ce4bgj12rcd13ifvqbc0","pricing_plan_id":"cebpf4jnsgd1na2vs0mg"},{"bike_id":"c644fe7c-e90b-45f3-8ac2-8bc5eae3a4cf","system_id":"levelo_inurba_marseille","lat":43.30471,"lon":5.37921,"is_reserved":false,"is_disabled":false,"rental_uris":{"android":"levelo://app?vid=c644fe7c-e90b-45f3-8ac2-8bc5eae3a4cf","ios":"levelo://app?vid=c644fe7c-e90b-45f3-8ac2-8bc5eae3a4cf"},"vehicle_type_id":"4","last_reported":1738743131,"current_range_meters":37600,"station_id":"ce4bgup2rcd13ifvqcn0","pricing_plan_id":"cebpf4jnsgd1na2vs0mg"},{"bike_id":"670607e9-4eb5-4e91-872c-faf711f77402","system_id":"levelo_inurba_marseille","lat":43.28979,"lon":5.37834,"is_reserved":false,"is_disabled":false,"rental_uris":{"android":"levelo://app?vid=670607e9-4eb5-4e91-872c-faf711f77402","ios":"levelo://app?vid=670607e9-4eb5-4e91-872c-faf711f77402"},"vehicle_type_id":"4","last_reported":1738743131,"current_range_meters":39200,"station_id":"ce4bh9p2rcd13ifvqed0","pricing_plan_id":"cebpf4jnsgd1na2vs0mg"},{"bike_id":"29d4b30d-8252-49fa-ae41-d718518d9d51","system_id":"levelo_inurba_marseille","lat":43.30587,"lon":5.39358,"is_reserved":false,"is_disabled":false,"rental_uris":{"android":"levelo://app?vid=29d4b30d-8252-49fa-ae41-d718518d9d51","ios":"levelo://app?vid=29d4b30d-8252-49fa-ae41-d718518d9d51"},"vehicle_type_id":"4","last_reported":1738743131,"current_range_meters":15200,"station_id":"ce4bh0p2rcd13ifvqd80","pricing_plan_id":"cebpf4jnsgd1na2vs0mg"},{"bike_id":"fad1c00d-4059-45de-a64c-5e70bc98c930","system_id":"levelo_inurba_marseille","lat":43.31695,"lon":5.40475,"is_reserved":false,"is_disabled":false,"rental_uris":{"android":"levelo://app?vid=fad1c00d-4059-45de-a64c-5e70bc98c930","ios":"levelo://app?vid=fad1c00d-4059-45de-a64c-5e70bc98c930"},"vehicle_type_id":"4","last_reported":1738743131,"current_range_meters":38800,"station_id":"ce4bh012rcd13ifvqd00","pricing_plan_id":"cebpf4jnsgd1na2vs0mg"},{"bike_id":"2e1fd84a-93c0-4e60-908d-3675bdd34c0e","system_id":"levelo_inurba_marseille","lat":43.2292,"lon":5.35382,"is_reserved":false,"is_disabled":false,"rental_uris":{"android":"levelo://app?vid=2e1fd84a-93c0-4e60-908d-3675bdd34c0e","ios":"levelo://app?vid=2e1fd84a-93c0-4e60-908d-3675bdd34c0e"},"vehicle_type_id":"4","last_reported":1738743131,"current_range_meters":6000,"station_id":"cpo3532slgdg3j2ikp40","pricing_plan_id":"cebpf4jnsgd1na2vs0mg"},{"bike_id":"589a0d6a-3f59-4c10-b4aa-574eabb1c9aa","system_id":"levelo_inurba_marseille","lat":43.3046,"lon":5.37899,"is_reserved":false,"is_disabled":false,"rental_uris":{"android":"levelo://app?vid=589a0d6a-3f59-4c10-b4aa-574eabb1c9aa","ios":"levelo://app?vid=589a0d6a-3f59-4c10-b4aa-574eabb1c9aa"},"vehicle_type_id":"4","last_reported":1738743131,"current_range_meters":10800,"station_id":"ce4bgup2rcd13ifvqcn0","pricing_plan_id":"cebpf4jnsgd1na2vs0mg"},{"bike_id":"962646f7-90d3-45dd-b3f9-254502912c1d","system_id":"levelo_inurba_marseille","lat":43.29302,"lon":5.37449,"is_reserved":false,"is_disabled":false,"rental_uris":{"android":"levelo://app?vid=962646f7-90d3-45dd-b3f9-254502912c1d","ios":"levelo://app?vid=962646f7-90d3-45dd-b3f9-254502912c1d"},"vehicle_type_id":"4","last_reported":1738743131,"current_range_meters":38800,"station_id":"ce4bgi12rcd13ifvqb70","pricing_plan_id":"cebpf4jnsgd1na2vs0mg"},{"bike_id":"19dd9c2e-cef0-4d2b-a66c-51d7760c52c3","system_id":"levelo_inurba_marseille","lat":43.305288,"lon":5.365413,"is_reserved":false,"is_disabled":false,"rental_uris":{"android":"levelo://app?vid=19dd9c2e-cef0-4d2b-a66c-51d7760c52c3","ios":"levelo://app?vid=19dd9c2e-cef0-4d2b-a66c-51d7760c52c3"},"vehicle_type_id":"4","last_reported":1738743131,"current_range_meters":35600,"station_id":"ce4bgs12rcd13ifvqcag","pricing_plan_id":"cebpf4jnsgd1na2vs0mg"},{"bike_id":"15363a5d-7493-4ebd-8c55-32635106e114","system_id":"levelo_inurba_marseille","lat":43.25726,"lon":5.41109,"is_reserved":false,"is_disabled":false,"rental_uris":{"android":"levelo://app?vid=15363a5d-7493-4ebd-8c55-32635106e114","ios":"levelo://app?vid=15363a5d-7493-4ebd-8c55-32635106e114"},"vehicle_type_id":"4","last_reported":1738743131,"current_range_meters":38400,"station_id":"ce4bhkp2rcd13ifvqgd0","pricing_plan_id":"cebpf4jnsgd1na2vs0mg"},{"bike_id":"c1d7985a-3dc7-4cde-bfbe-531a140d6020","system_id":"levelo_inurba_marseille","lat":43.255,"lon":5.37652,"is_reserved":false,"is_disabled":false,"rental_uris":{"android":"levelo://app?vid=c1d7985a-3dc7-4cde-bfbe-531a140d6020","ios":"levelo://app?vid=c1d7985a-3dc7-4cde-bfbe-531a140d6020"},"vehicle_type_id":"4","last_reported":1738743131,"current_range_meters":23200,"station_id":"ce4bhh12rcd13ifvqff0","pricing_plan_id":"cebpf4jnsgd1na2vs0mg"},{"bike_id":"608a8f38-8900-4503-9b90-28b982f749f4","system_id":"levelo_inurba_marseille","lat":43.29035,"lon":5.39967,"is_reserved":false,"is_disabled":false,"rental_uris":{"android":"levelo://app?vid=608a8f38-8900-4503-9b90-28b982f749f4","ios":"levelo://app?vid=608a8f38-8900-4503-9b90-28b982f749f4"},"vehicle_type_id":"4","last_reported":1738743131,"current_range_meters":38800,"station_id":"ce4bh392rcd13ifvqdm0","pricing_plan_id":"cebpf4jnsgd1na2vs0mg"},{"bike_id":"a4d825ed-77dc-4f71-aed9-4271810a5bc2","system_id":"levelo_inurba_marseille","lat":43.313235,"lon":5.38635,"is_reserved":false,"is_disabled":false,"rental_uris":{"android":"levelo://app?vid=a4d825ed-77dc-4f71-aed9-4271810a5bc2","ios":"levelo://app?vid=a4d825ed-77dc-4f71-aed9-4271810a5bc2"},"vehicle_type_id":"4","last_reported":1738743131,"current_range_meters":29600,"station_id":"","pricing_plan_id":"cebpf4jnsgd1na2vs0mg"},{"bike_id":"7390c2ab-c7eb-4529-8bf2-4ceb900ed2ac","system_id":"levelo_inurba_marseille","lat":43.279878,"lon":5.387345,"is_reserved":false,"is_disabled":false,"rental_uris":{"android":"levelo://app?vid=7390c2ab-c7eb-4529-8bf2-4ceb900ed2ac","ios":"levelo://app?vid=7390c2ab-c7eb-4529-8bf2-4ceb900ed2ac"},"vehicle_type_id":"4","last_reported":1738743131,"current_range_meters":39200,"station_id":"ce4bhg12rcd13ifvqf80","pricing_plan_id":"cebpf4jnsgd1na2vs0mg"},{"bike_id":"b6ec19dd-185a-4668-9b37-f0abf43cb7ae","system_id":"levelo_inurba_marseille","lat":43.28351,"lon":5.38109,"is_reserved":false,"is_disabled":false,"rental_uris":{"android":"levelo://app?vid=b6ec19dd-185a-4668-9b37-f0abf43cb7ae","ios":"levelo://app?vid=b6ec19dd-185a-4668-9b37-f0abf43cb7ae"},"vehicle_type_id":"4","last_reported":1738743131,"current_range_meters":31200,"station_id":"ce4bh412rcd13ifvqdr0","pricing_plan_id":"cebpf4jnsgd1na2vs0mg"},{"bike_id":"1036a483-5785-4702-b7f1-dc38c16350eb","system_id":"levelo_inurba_marseille","lat":43.23962,"lon":5.36643,"is_reserved":false,"is_disabled":false,"rental_uris":{"android":"levelo://app?vid=1036a483-5785-4702-b7f1-dc38c16350eb","ios":"levelo://app?vid=1036a483-5785-4702-b7f1-dc38c16350eb"},"vehicle_type_id":"4","last_reported":1738743131,"current_range_meters":17200,"station_id":"ce4bhi12rcd13ifvqfp0","pricing_plan_id":"cebpf4jnsgd1na2vs0mg"},{"bike_id":"500afed6-5d5b-4f21-bb8e-fb654b4db188","system_id":"levelo_inurba_marseille","lat":43.28144,"lon":5.42635,"is_reserved":false,"is_disabled":false,"rental_uris":{"android":"levelo://app?vid=500afed6-5d5b-4f21-bb8e-fb654b4db188","ios":"levelo://app?vid=500afed6-5d5b-4f21-bb8e-fb654b4db188"},"vehicle_type_id":"4","last_reported":1738743131,"current_range_meters":33600,"station_id":"ce4bhnh2rcd13ifvqgug","pricing_plan_id":"cebpf4jnsgd1na2vs0mg"},{"bike_id":"88f6ec14-1047-428a-bfc8-ed7564b679d3","system_id":"levelo_inurba_marseille","lat":43.24391,"lon":5.37064,"is_reserved":false,"is_disabled":false,"rental_uris":{"android":"levelo://app?vid=88f6ec14-1047-428a-bfc8-ed7564b679d3","ios":"levelo://app?vid=88f6ec14-1047-428a-bfc8-ed7564b679d3"},"vehicle_type_id":"4","last_reported":1738743131,"current_range_meters":37600,"station_id":"ce4bhhh2rcd13ifvqfk0","pricing_plan_id":"cebpf4jnsgd1na2vs0mg"},{"bike_id":"147f437d-7b8c-425d-a0f3-70832c2cd538","system_id":"levelo_inurba_marseille","lat":43.28964,"lon":5.36492,"is_reserved":false,"is_disabled":false,"rental_uris":{"android":"levelo://app?vid=147f437d-7b8c-425d-a0f3-70832c2cd538","ios":"levelo://app?vid=147f437d-7b8c-425d-a0f3-70832c2cd538"},"vehicle_type_id":"4","last_reported":1738743131,"current_range_meters":36800,"station_id":"","pricing_plan_id":"cebpf4jnsgd1na2vs0mg"},{"bike_id":"ff52f4b1-a06d-475c-b0fc-ce6749154097","system_id":"levelo_inurba_marseille","lat":43.27051,"lon":5.40265,"is_reserved":false,"is_disabled":false,"rental_uris":{"android":"levelo://app?vid=ff52f4b1-a06d-475c-b0fc-ce6749154097","ios":"levelo://app?vid=ff52f4b1-a06d-475c-b0fc-ce6749154097"},"vehicle_type_id":"4","last_reported":1738743131,"current_range_meters":8000,"station_id":"ce4bhk92rcd13ifvqgc0","pricing_plan_id":"cebpf4jnsgd1na2vs0mg"},{"bike_id":"3d554245-3f89-4df3-9e21-aeb1df3f6e2c","system_id":"levelo_inurba_marseille","lat":43.29544,"lon":5.42288,"is_reserved":false,"is_disabled":false,"rental_uris":{"android":"levelo://app?vid=3d554245-3f89-4df3-9e21-aeb1df3f6e2c","ios":"levelo://app?vid=3d554245-3f89-4df3-9e21-aeb1df3f6e2c"},"vehicle_type_id":"4","last_reported":1738743131,"current_range_meters":27600,"station_id":"ce4bhph2rcd13ifvqhdg","pricing_plan_id":"cebpf4jnsgd1na2vs0mg"},{"bike_id":"a13fcc7d-b39d-449d-923a-9303756f2dbd","system_id":"levelo_inurba_marseille","lat":43.30623,"lon":5.37226,"is_reserved":false,"is_disabled":false,"rental_uris":{"android":"levelo://app?vid=a13fcc7d-b39d-449d-923a-9303756f2dbd","ios":"levelo://app?vid=a13fcc7d-b39d-449d-923a-9303756f2dbd"},"vehicle_type_id":"4","last_reported":1738743131,"current_range_meters":36800,"station_id":"ce4bgqh2rcd13ifvqc4g","pricing_plan_id":"cebpf4jnsgd1na2vs0mg"},{"bike_id":"2b05073d-60e5-43e5-b13c-86d3deb4df57","system_id":"levelo_inurba_marseille","lat":43.32545,"lon":5.41496,"is_reserved":false,"is_disabled":false,"rental_uris":{"android":"levelo://app?vid=2b05073d-60e5-43e5-b13c-86d3deb4df57","ios":"levelo://app?vid=2b05073d-60e5-43e5-b13c-86d3deb4df57"},"vehicle_type_id":"4","last_reported":1738743131,"current_range_meters":38800,"station_id":"ce4bhq12rcd13ifvqhhg","pricing_plan_id":"cebpf4jnsgd1na2vs0mg"},{"bike_id":"7d5a071b-33d0-4a99-a7a2-905e423e155c","system_id":"levelo_inurba_marseille","lat":43.2396,"lon":5.36661,"is_reserved":false,"is_disabled":false,"rental_uris":{"android":"levelo://app?vid=7d5a071b-33d0-4a99-a7a2-905e423e155c","ios":"levelo://app?vid=7d5a071b-33d0-4a99-a7a2-905e423e155c"},"vehicle_type_id":"4","last_reported":1738743131,"current_range_meters":36800,"station_id":"ce4bhi12rcd13ifvqfp0","pricing_plan_id":"cebpf4jnsgd1na2vs0mg"},{"bike_id":"b8a5590f-b8dd-4723-9d52-7fe8076593b7","system_id":"levelo_inurba_marseille","lat":43.30155,"lon":5.38101,"is_reserved":false,"is_disabled":false,"rental_uris":{"android":"levelo://app?vid=b8a5590f-b8dd-4723-9d52-7fe8076593b7","ios":"levelo://app?vid=b8a5590f-b8dd-4723-9d52-7fe8076593b7"},"vehicle_type_id":"4","last_reported":1738743131,"current_range_meters":32400,"station_id":"ce4bgjp2rcd13ifvqbh0","pricing_plan_id":"cebpf4jnsgd1na2vs0mg"},{"bike_id":"931c3b97-cce1-4ebe-a291-6c50a6f2810e","system_id":"levelo_inurba_marseille","lat":43.31787,"lon":5.37447,"is_reserved":false,"is_disabled":false,"rental_uris":{"android":"levelo://app?vid=931c3b97-cce1-4ebe-a291-6c50a6f2810e","ios":"levelo://app?vid=931c3b97-cce1-4ebe-a291-6c50a6f2810e"},"vehicle_type_id":"4","last_reported":1738743131,"current_range_meters":7200,"station_id":"","pricing_plan_id":"cebpf4jnsgd1na2vs0mg"},{"bike_id":"a2f2e29a-e671-4b78-a088-9ea6e0c062ed","system_id":"levelo_inurba_marseille","lat":43.336,"lon":5.41032,"is_reserved":false,"is_disabled":false,"rental_uris":{"android":"levelo://app?vid=a2f2e29a-e671-4b78-a088-9ea6e0c062ed","ios":"levelo://app?vid=a2f2e29a-e671-4b78-a088-9ea6e0c062ed"},"vehicle_type_id":"4","last_reported":1738743131,"current_range_meters":28800,"station_id":"ce4bhqh2rcd13ifvqhmg","pricing_plan_id":"cebpf4jnsgd1na2vs0mg"},{"bike_id":"d1d51ec2-e1ab-4b92-9a4b-f935b04ef436","system_id":"levelo_inurba_marseille","lat":43.25015,"lon":5.38925,"is_reserved":false,"is_disabled":false,"rental_uris":{"android":"levelo://app?vid=d1d51ec2-e1ab-4b92-9a4b-f935b04ef436","ios":"levelo://app?vid=d1d51ec2-e1ab-4b92-9a4b-f935b04ef436"},"vehicle_type_id":"4","last_reported":1738743131,"current_range_meters":20000,"station_id":"ce4bhgp2rcd13ifvqfd0","pricing_plan_id":"cebpf4jnsgd1na2vs0mg"},{"bike_id":"7a2080c9-d44a-471c-9acd-526428e8e5dc","system_id":"levelo_inurba_marseille","lat":43.22935,"lon":5.35391,"is_reserved":false,"is_disabled":false,"rental_uris":{"android":"levelo://app?vid=7a2080c9-d44a-471c-9acd-526428e8e5dc","ios":"levelo://app?vid=7a2080c9-d44a-471c-9acd-526428e8e5dc"},"vehicle_type_id":"4","last_reported":1738743131,"current_range_meters":38800,"station_id":"cpo3532slgdg3j2ikp40","pricing_plan_id":"cebpf4jnsgd1na2vs0mg"},{"bike_id":"6453e36c-ae71-416a-a083-484fce240a0c","system_id":"levelo_inurba_marseille","lat":43.30477,"lon":5.37909,"is_reserved":false,"is_disabled":false,"rental_uris":{"android":"levelo://app?vid=6453e36c-ae71-416a-a083-484fce240a0c","ios":"levelo://app?vid=6453e36c-ae71-416a-a083-484fce240a0c"},"vehicle_type_id":"4","last_reported":1738743131,"current_range_meters":33600,"station_id":"ce4bgup2rcd13ifvqcn0","pricing_plan_id":"cebpf4jnsgd1na2vs0mg"},{"bike_id":"3cffe561-5575-4d5f-9a3c-4ee740a5b122","system_id":"levelo_inurba_marseille","lat":43.27935,"lon":5.41063,"is_reserved":false,"is_disabled":false,"rental_uris":{"android":"levelo://app?vid=3cffe561-5575-4d5f-9a3c-4ee740a5b122","ios":"levelo://app?vid=3cffe561-5575-4d5f-9a3c-4ee740a5b122"},"vehicle_type_id":"4","last_reported":1738743131,"current_range_meters":25200,"station_id":"ce4bhnp2rcd13ifvqh0g","pricing_plan_id":"cebpf4jnsgd1na2vs0mg"},{"bike_id":"d500b762-3915-4dff-a06c-7c96151cfc0d","system_id":"levelo_inurba_marseille","lat":43.32547,"lon":5.41493,"is_reserved":false,"is_disabled":false,"rental_uris":{"android":"levelo://app?vid=d500b762-3915-4dff-a06c-7c96151cfc0d","ios":"levelo://app?vid=d500b762-3915-4dff-a06c-7c96151cfc0d"},"vehicle_type_id":"4","last_reported":1738743131,"current_range_meters":38800,"station_id":"ce4bhq12rcd13ifvqhhg","pricing_plan_id":"cebpf4jnsgd1na2vs0mg"},{"bike_id":"f307dfc9-492f-427c-886b-0aebd0c4a217","system_id":"levelo_inurba_marseille","lat":43.241685,"lon":5.36402,"is_reserved":false,"is_disabled":false,"rental_uris":{"android":"levelo://app?vid=f307dfc9-492f-427c-886b-0aebd0c4a217","ios":"levelo://app?vid=f307dfc9-492f-427c-886b-0aebd0c4a217"},"vehicle_type_id":"4","last_reported":1738743131,"current_range_meters":38800,"station_id":"cpo36qri1sfpv3e86is0","pricing_plan_id":"cebpf4jnsgd1na2vs0mg"},{"bike_id":"b2272a44-41b3-4706-bf06-4d1dc73506e4","system_id":"levelo_inurba_marseille","lat":43.2895,"lon":5.39615,"is_reserved":false,"is_disabled":false,"rental_uris":{"android":"levelo://app?vid=b2272a44-41b3-4706-bf06-4d1dc73506e4","ios":"levelo://app?vid=b2272a44-41b3-4706-bf06-4d1dc73506e4"},"vehicle_type_id":"4","last_reported":1738743131,"current_range_meters":38000,"station_id":"ce4bh3h2rcd13ifvqdn0","pricing_plan_id":"cebpf4jnsgd1na2vs0mg"},{"bike_id":"20f58cc0-8860-4bf6-9d35-5f9350707496","system_id":"levelo_inurba_marseille","lat":43.23956,"lon":5.3663,"is_reserved":false,"is_disabled":false,"rental_uris":{"android":"levelo://app?vid=20f58cc0-8860-4bf6-9d35-5f9350707496","ios":"levelo://app?vid=20f58cc0-8860-4bf6-9d35-5f9350707496"},"vehicle_type_id":"4","last_reported":1738743131,"current_range_meters":8400,"station_id":"ce4bhi12rcd13ifvqfp0","pricing_plan_id":"cebpf4jnsgd1na2vs0mg"},{"bike_id":"6572b851-29c5-4cab-a395-a4b89c531afa","system_id":"levelo_inurba_marseille","lat":43.25824,"lon":5.39439,"is_reserved":false,"is_disabled":true,"rental_uris":{"android":"levelo://app?vid=6572b851-29c5-4cab-a395-a4b89c531afa","ios":"levelo://app?vid=6572b851-29c5-4cab-a395-a4b89c531afa"},"vehicle_type_id":"4","last_reported":1738743131,"current_range_meters":400,"station_id":"ce4bhip2rcd13ifvqft0","pricing_plan_id":"cebpf4jnsgd1na2vs0mg"},{"bike_id":"448a689e-af6c-4f92-9f89-b02f7ed2ec01","system_id":"levelo_inurba_marseille","lat":43.28099,"lon":5.37847,"is_reserved":false,"is_disabled":true,"rental_uris":{"android":"levelo://app?vid=448a689e-af6c-4f92-9f89-b02f7ed2ec01","ios":"levelo://app?vid=448a689e-af6c-4f92-9f89-b02f7ed2ec01"},"vehicle_type_id":"4","last_reported":1738743131,"current_range_meters":12400,"station_id":"ce4bha12rcd13ifvqee0","pricing_plan_id":"cebpf4jnsgd1na2vs0mg"},{"bike_id":"8e0a0553-d4ce-4a58-bdf9-cddf2b79af95","system_id":"levelo_inurba_marseille","lat":43.279934,"lon":5.400057,"is_reserved":false,"is_disabled":false,"rental_uris":{"android":"levelo://app?vid=8e0a0553-d4ce-4a58-bdf9-cddf2b79af95","ios":"levelo://app?vid=8e0a0553-d4ce-4a58-bdf9-cddf2b79af95"},"vehicle_type_id":"4","last_reported":1738743131,"current_range_meters":38800,"station_id":"ce4bho92rcd13ifvqh4g","pricing_plan_id":"cebpf4jnsgd1na2vs0mg"},{"bike_id":"abd07a97-530b-4fc0-93db-ff4b041bb8b9","system_id":"levelo_inurba_marseille","lat":43.3019,"lon":5.36629,"is_reserved":false,"is_disabled":false,"rental_uris":{"android":"levelo://app?vid=abd07a97-530b-4fc0-93db-ff4b041bb8b9","ios":"levelo://app?vid=abd07a97-530b-4fc0-93db-ff4b041bb8b9"},"vehicle_type_id":"4","last_reported":1738743131,"current_range_meters":30400,"station_id":"ce4bgrh2rcd13ifvqc8g","pricing_plan_id":"cebpf4jnsgd1na2vs0mg"},{"bike_id":"8aaa143c-8d52-4057-856b-a3a4596b4927","system_id":"levelo_inurba_marseille","lat":43.28625,"lon":5.35107,"is_reserved":false,"is_disabled":false,"rental_uris":{"android":"levelo://app?vid=8aaa143c-8d52-4057-856b-a3a4596b4927","ios":"levelo://app?vid=8aaa143c-8d52-4057-856b-a3a4596b4927"},"vehicle_type_id":"4","last_reported":1738743131,"current_range_meters":36800,"station_id":"ce4bhch2rcd13ifvqeug","pricing_plan_id":"cebpf4jnsgd1na2vs0mg"},{"bike_id":"6d60913d-cc26-4ecc-b494-5bb2f9b2ea83","system_id":"levelo_inurba_marseille","lat":43.29883,"lon":5.43682,"is_reserved":false,"is_disabled":false,"rental_uris":{"android":"levelo://app?vid=6d60913d-cc26-4ecc-b494-5bb2f9b2ea83","ios":"levelo://app?vid=6d60913d-cc26-4ecc-b494-5bb2f9b2ea83"},"vehicle_type_id":"4","last_reported":1738743131,"current_range_meters":38000,"station_id":"ce4bhpp2rcd13ifvqhfg","pricing_plan_id":"cebpf4jnsgd1na2vs0mg"},{"bike_id":"2fed9ba3-3909-423b-8e60-69abd9978d73","system_id":"levelo_inurba_marseille","lat":43.26807,"lon":5.40304,"is_reserved":false,"is_disabled":false,"rental_uris":{"android":"levelo://app?vid=2fed9ba3-3909-423b-8e60-69abd9978d73","ios":"levelo://app?vid=2fed9ba3-3909-423b-8e60-69abd9978d73"},"vehicle_type_id":"4","last_reported":1738743131,"current_range_meters":36800,"station_id":"ce501612rcd8frsf0b60","pricing_plan_id":"cebpf4jnsgd1na2vs0mg"},{"bike_id":"bc4186b3-1073-492b-ab95-0326a7b12d0e","system_id":"levelo_inurba_marseille","lat":43.28399,"lon":5.35,"is_reserved":false,"is_disabled":false,"rental_uris":{"android":"levelo://app?vid=bc4186b3-1073-492b-ab95-0326a7b12d0e","ios":"levelo://app?vid=bc4186b3-1073-492b-ab95-0326a7b12d0e"},"vehicle_type_id":"4","last_reported":1738743131,"current_range_meters":36800,"station_id":"ce4bhbh2rcd13ifvqepg","pricing_plan_id":"cebpf4jnsgd1na2vs0mg"},{"bike_id":"4579e741-4603-4477-a7ad-f3da94979a43","system_id":"levelo_inurba_marseille","lat":43.27492,"lon":5.42458,"is_reserved":false,"is_disabled":false,"rental_uris":{"android":"levelo://app?vid=4579e741-4603-4477-a7ad-f3da94979a43","ios":"levelo://app?vid=4579e741-4603-4477-a7ad-f3da94979a43"},"vehicle_type_id":"4","last_reported":1738743131,"current_range_meters":6800,"station_id":"ce4bhn92rcd13ifvqgrg","pricing_plan_id":"cebpf4jnsgd1na2vs0mg"},{"bike_id":"fb1830e2-f6fc-4fde-afda-8615e8ed9c4a","system_id":"levelo_inurba_marseille","lat":43.2619,"lon":5.3746,"is_reserved":false,"is_disabled":false,"rental_uris":{"android":"levelo://app?vid=fb1830e2-f6fc-4fde-afda-8615e8ed9c4a","ios":"levelo://app?vid=fb1830e2-f6fc-4fde-afda-8615e8ed9c4a"},"vehicle_type_id":"4","last_reported":1738743131,"current_range_meters":38800,"station_id":"ce4bhgp2rcd13ifvqfc0","pricing_plan_id":"cebpf4jnsgd1na2vs0mg"},{"bike_id":"0389b0e3-bb7d-4743-89c2-0175efe92f67","system_id":"levelo_inurba_marseille","lat":43.32482,"lon":5.36567,"is_reserved":false,"is_disabled":false,"rental_uris":{"android":"levelo://app?vid=0389b0e3-bb7d-4743-89c2-0175efe92f67","ios":"levelo://app?vid=0389b0e3-bb7d-4743-89c2-0175efe92f67"},"vehicle_type_id":"4","last_reported":1738743131,"current_range_meters":27200,"station_id":"ce4bhs12rcd13ifvqhvg","pricing_plan_id":"cebpf4jnsgd1na2vs0mg"},{"bike_id":"378a3331-7d70-42b8-b8b3-a67609c99003","system_id":"levelo_inurba_marseille","lat":43.29837,"lon":5.36251,"is_reserved":false,"is_disabled":false,"rental_uris":{"android":"levelo://app?vid=378a3331-7d70-42b8-b8b3-a67609c99003","ios":"levelo://app?vid=378a3331-7d70-42b8-b8b3-a67609c99003"},"vehicle_type_id":"4","last_reported":1738743131,"current_range_meters":11200,"station_id":"ce4bgpp2rcd13ifvqc3g","pricing_plan_id":"cebpf4jnsgd1na2vs0mg"},{"bike_id":"6e7c1ac2-e791-43c7-8c36-9db37854d07d","system_id":"levelo_inurba_marseille","lat":43.28613,"lon":5.35113,"is_reserved":false,"is_disabled":true,"rental_uris":{"android":"levelo://app?vid=6e7c1ac2-e791-43c7-8c36-9db37854d07d","ios":"levelo://app?vid=6e7c1ac2-e791-43c7-8c36-9db37854d07d"},"vehicle_type_id":"4","last_reported":1738743131,"current_range_meters":22800,"station_id":"ce4bhch2rcd13ifvqeug","pricing_plan_id":"cebpf4jnsgd1na2vs0mg"},{"bike_id":"2b52254f-933d-4903-ac07-21eb27a1e798","system_id":"levelo_inurba_marseille","lat":43.27182,"lon":5.41048,"is_reserved":false,"is_disabled":false,"rental_uris":{"android":"levelo://app?vid=2b52254f-933d-4903-ac07-21eb27a1e798","ios":"levelo://app?vid=2b52254f-933d-4903-ac07-21eb27a1e798"},"vehicle_type_id":"4","last_reported":1738743131,"current_range_meters":6800,"station_id":"ce4bhl12rcd13ifvqgf0","pricing_plan_id":"cebpf4jnsgd1na2vs0mg"},{"bike_id":"db434341-8217-4b4f-b2dd-ac6e3ed6377c","system_id":"levelo_inurba_marseille","lat":43.2905,"lon":5.39951,"is_reserved":false,"is_disabled":false,"rental_uris":{"android":"levelo://app?vid=db434341-8217-4b4f-b2dd-ac6e3ed6377c","ios":"levelo://app?vid=db434341-8217-4b4f-b2dd-ac6e3ed6377c"},"vehicle_type_id":"4","last_reported":1738743131,"current_range_meters":12400,"station_id":"ce4bh392rcd13ifvqdm0","pricing_plan_id":"cebpf4jnsgd1na2vs0mg"},{"bike_id":"1ed7de5d-dac1-46be-94a3-d6d5f8043023","system_id":"levelo_inurba_marseille","lat":43.31219,"lon":5.36851,"is_reserved":false,"is_disabled":false,"rental_uris":{"android":"levelo://app?vid=1ed7de5d-dac1-46be-94a3-d6d5f8043023","ios":"levelo://app?vid=1ed7de5d-dac1-46be-94a3-d6d5f8043023"},"vehicle_type_id":"4","last_reported":1738743131,"current_range_meters":28400,"station_id":"ce4bgl92rcd13ifvqbq0","pricing_plan_id":"cebpf4jnsgd1na2vs0mg"},{"bike_id":"7299ace9-9636-4c80-b004-b88d3ca1c2b3","system_id":"levelo_inurba_marseille","lat":43.29042,"lon":5.39989,"is_reserved":false,"is_disabled":false,"rental_uris":{"android":"levelo://app?vid=7299ace9-9636-4c80-b004-b88d3ca1c2b3","ios":"levelo://app?vid=7299ace9-9636-4c80-b004-b88d3ca1c2b3"},"vehicle_type_id":"4","last_reported":1738743131,"current_range_meters":9200,"station_id":"ce4bh392rcd13ifvqdm0","pricing_plan_id":"cebpf4jnsgd1na2vs0mg"},{"bike_id":"fef859c5-282a-46db-90e8-8b5f1c89ff40","system_id":"levelo_inurba_marseille","lat":43.29864,"lon":5.36304,"is_reserved":false,"is_disabled":false,"rental_uris":{"android":"levelo://app?vid=fef859c5-282a-46db-90e8-8b5f1c89ff40","ios":"levelo://app?vid=fef859c5-282a-46db-90e8-8b5f1c89ff40"},"vehicle_type_id":"4","last_reported":1738743131,"current_range_meters":35600,"station_id":"ce4bgpp2rcd13ifvqc3g","pricing_plan_id":"cebpf4jnsgd1na2vs0mg"},{"bike_id":"376bb105-0387-498b-acb6-67588782c225","system_id":"levelo_inurba_marseille","lat":43.30247,"lon":5.38103,"is_reserved":false,"is_disabled":false,"rental_uris":{"android":"levelo://app?vid=376bb105-0387-498b-acb6-67588782c225","ios":"levelo://app?vid=376bb105-0387-498b-acb6-67588782c225"},"vehicle_type_id":"4","last_reported":1738743131,"current_range_meters":38400,"station_id":"","pricing_plan_id":"cebpf4jnsgd1na2vs0mg"},{"bike_id":"39b9e597-7041-41bf-850a-fdb3cd4fddfd","system_id":"levelo_inurba_marseille","lat":43.320378,"lon":5.41548,"is_reserved":false,"is_disabled":false,"rental_uris":{"android":"levelo://app?vid=39b9e597-7041-41bf-850a-fdb3cd4fddfd","ios":"levelo://app?vid=39b9e597-7041-41bf-850a-fdb3cd4fddfd"},"vehicle_type_id":"4","last_reported":1738743131,"current_range_meters":34000,"station_id":"ce4bhq92rcd13ifvqhkg","pricing_plan_id":"cebpf4jnsgd1na2vs0mg"},{"bike_id":"676d6708-b333-4cfc-9e75-3e3edf4fe8f1","system_id":"levelo_inurba_marseille","lat":43.28681,"lon":5.38663,"is_reserved":false,"is_disabled":false,"rental_uris":{"android":"levelo://app?vid=676d6708-b333-4cfc-9e75-3e3edf4fe8f1","ios":"levelo://app?vid=676d6708-b333-4cfc-9e75-3e3edf4fe8f1"},"vehicle_type_id":"4","last_reported":1738743131,"current_range_meters":28800,"station_id":"ce4bh492rcd13ifvqdug","pricing_plan_id":"cebpf4jnsgd1na2vs0mg"},{"bike_id":"cbc65456-707b-4ddd-b341-f003b676778a","system_id":"levelo_inurba_marseille","lat":43.27819,"lon":5.40715,"is_reserved":false,"is_disabled":false,"rental_uris":{"android":"levelo://app?vid=cbc65456-707b-4ddd-b341-f003b676778a","ios":"levelo://app?vid=cbc65456-707b-4ddd-b341-f003b676778a"},"vehicle_type_id":"4","last_reported":1738743131,"current_range_meters":30800,"station_id":"ce4bhnh2rcd13ifvqgtg","pricing_plan_id":"cebpf4jnsgd1na2vs0mg"},{"bike_id":"a5462f1d-afb7-48b7-807f-622cb8e49d72","system_id":"levelo_inurba_marseille","lat":43.304616,"lon":5.378986,"is_reserved":false,"is_disabled":false,"rental_uris":{"android":"levelo://app?vid=a5462f1d-afb7-48b7-807f-622cb8e49d72","ios":"levelo://app?vid=a5462f1d-afb7-48b7-807f-622cb8e49d72"},"vehicle_type_id":"4","last_reported":1738743131,"current_range_meters":32000,"station_id":"ce4bgup2rcd13ifvqcn0","pricing_plan_id":"cebpf4jnsgd1na2vs0mg"},{"bike_id":"151d4647-dafc-4a37-8ad8-8b9dc76ee76e","system_id":"levelo_inurba_marseille","lat":43.28719,"lon":5.37948,"is_reserved":false,"is_disabled":false,"rental_uris":{"android":"levelo://app?vid=151d4647-dafc-4a37-8ad8-8b9dc76ee76e","ios":"levelo://app?vid=151d4647-dafc-4a37-8ad8-8b9dc76ee76e"},"vehicle_type_id":"4","last_reported":1738743131,"current_range_meters":33200,"station_id":"ce4bh9p2rcd13ifvqec0","pricing_plan_id":"cebpf4jnsgd1na2vs0mg"},{"bike_id":"26d397a9-61ee-400d-a6b0-dc8b026ea3e4","system_id":"levelo_inurba_marseille","lat":43.2965,"lon":5.37171,"is_reserved":false,"is_disabled":false,"rental_uris":{"android":"levelo://app?vid=26d397a9-61ee-400d-a6b0-dc8b026ea3e4","ios":"levelo://app?vid=26d397a9-61ee-400d-a6b0-dc8b026ea3e4"},"vehicle_type_id":"4","last_reported":1738743131,"current_range_meters":32000,"station_id":"ce4bgnh2rcd13ifvqc0g","pricing_plan_id":"cebpf4jnsgd1na2vs0mg"},{"bike_id":"23c092e3-4a32-4941-9f55-1ac432101554","system_id":"levelo_inurba_marseille","lat":43.29025,"lon":5.399786,"is_reserved":false,"is_disabled":false,"rental_uris":{"android":"levelo://app?vid=23c092e3-4a32-4941-9f55-1ac432101554","ios":"levelo://app?vid=23c092e3-4a32-4941-9f55-1ac432101554"},"vehicle_type_id":"4","last_reported":1738743131,"current_range_meters":35200,"station_id":"ce4bh392rcd13ifvqdm0","pricing_plan_id":"cebpf4jnsgd1na2vs0mg"},{"bike_id":"a9ee38d0-21e8-4d99-8e3f-cc643e32473e","system_id":"levelo_inurba_marseille","lat":43.27817,"lon":5.4072,"is_reserved":false,"is_disabled":false,"rental_uris":{"android":"levelo://app?vid=a9ee38d0-21e8-4d99-8e3f-cc643e32473e","ios":"levelo://app?vid=a9ee38d0-21e8-4d99-8e3f-cc643e32473e"},"vehicle_type_id":"4","last_reported":1738743131,"current_range_meters":38400,"station_id":"ce4bhnh2rcd13ifvqgtg","pricing_plan_id":"cebpf4jnsgd1na2vs0mg"},{"bike_id":"fd3d2f18-454a-4151-bd71-ae2b9a323394","system_id":"levelo_inurba_marseille","lat":43.28348,"lon":5.38124,"is_reserved":false,"is_disabled":false,"rental_uris":{"android":"levelo://app?vid=fd3d2f18-454a-4151-bd71-ae2b9a323394","ios":"levelo://app?vid=fd3d2f18-454a-4151-bd71-ae2b9a323394"},"vehicle_type_id":"4","last_reported":1738743131,"current_range_meters":28800,"station_id":"ce4bguh2rcd13ifvqckg","pricing_plan_id":"cebpf4jnsgd1na2vs0mg"},{"bike_id":"630dd466-e4dd-4ada-8a39-01e92abf0818","system_id":"levelo_inurba_marseille","lat":43.26191,"lon":5.37475,"is_reserved":false,"is_disabled":false,"rental_uris":{"android":"levelo://app?vid=630dd466-e4dd-4ada-8a39-01e92abf0818","ios":"levelo://app?vid=630dd466-e4dd-4ada-8a39-01e92abf0818"},"vehicle_type_id":"4","last_reported":1738743131,"current_range_meters":30000,"station_id":"ce4bhgp2rcd13ifvqfc0","pricing_plan_id":"cebpf4jnsgd1na2vs0mg"},{"bike_id":"148ebf1c-0c4a-4bca-80d0-096264c9b011","system_id":"levelo_inurba_marseille","lat":43.312221,"lon":5.368614,"is_reserved":false,"is_disabled":false,"rental_uris":{"android":"levelo://app?vid=148ebf1c-0c4a-4bca-80d0-096264c9b011","ios":"levelo://app?vid=148ebf1c-0c4a-4bca-80d0-096264c9b011"},"vehicle_type_id":"4","last_reported":1738743131,"current_range_meters":38800,"station_id":"ce4bgl92rcd13ifvqbq0","pricing_plan_id":"cebpf4jnsgd1na2vs0mg"},{"bike_id":"08eed4dd-3f0c-4062-b230-06993de057f0","system_id":"levelo_inurba_marseille","lat":43.31355,"lon":5.38493,"is_reserved":false,"is_disabled":false,"rental_uris":{"android":"levelo://app?vid=08eed4dd-3f0c-4062-b230-06993de057f0","ios":"levelo://app?vid=08eed4dd-3f0c-4062-b230-06993de057f0"},"vehicle_type_id":"4","last_reported":1738743131,"current_range_meters":29600,"station_id":"ce4bgt92rcd13ifvqcf0","pricing_plan_id":"cebpf4jnsgd1na2vs0mg"},{"bike_id":"b4fdfe29-bb4d-4784-9f83-8c81db26f134","system_id":"levelo_inurba_marseille","lat":43.29249,"lon":5.3686,"is_reserved":false,"is_disabled":false,"rental_uris":{"android":"levelo://app?vid=b4fdfe29-bb4d-4784-9f83-8c81db26f134","ios":"levelo://app?vid=b4fdfe29-bb4d-4784-9f83-8c81db26f134"},"vehicle_type_id":"4","last_reported":1738743131,"current_range_meters":28800,"station_id":"ce4bhbp2rcd13ifvqesg","pricing_plan_id":"cebpf4jnsgd1na2vs0mg"},{"bike_id":"3034d64e-f78e-468c-b4d6-2520a053438f","system_id":"levelo_inurba_marseille","lat":43.23182,"lon":5.39998,"is_reserved":false,"is_disabled":false,"rental_uris":{"android":"levelo://app?vid=3034d64e-f78e-468c-b4d6-2520a053438f","ios":"levelo://app?vid=3034d64e-f78e-468c-b4d6-2520a053438f"},"vehicle_type_id":"4","last_reported":1738743131,"current_range_meters":36800,"station_id":"ce4bhn12rcd13ifvqgqg","pricing_plan_id":"cebpf4jnsgd1na2vs0mg"},{"bike_id":"c3c57134-c788-481c-88cc-5d2e76d28004","system_id":"levelo_inurba_marseille","lat":43.29909,"lon":5.38144,"is_reserved":false,"is_disabled":false,"rental_uris":{"android":"levelo://app?vid=c3c57134-c788-481c-88cc-5d2e76d28004","ios":"levelo://app?vid=c3c57134-c788-481c-88cc-5d2e76d28004"},"vehicle_type_id":"4","last_reported":1738743131,"current_range_meters":29600,"station_id":"ce4bgj12rcd13ifvqbc0","pricing_plan_id":"cebpf4jnsgd1na2vs0mg"},{"bike_id":"41ad3d36-51d8-4204-ae3d-d7c8884b6fab","system_id":"levelo_inurba_marseille","lat":43.25576,"lon":5.3825,"is_reserved":false,"is_disabled":false,"rental_uris":{"android":"levelo://app?vid=41ad3d36-51d8-4204-ae3d-d7c8884b6fab","ios":"levelo://app?vid=41ad3d36-51d8-4204-ae3d-d7c8884b6fab"},"vehicle_type_id":"4","last_reported":1738743131,"current_range_meters":36800,"station_id":"ce4bhih2rcd13ifvqfs0","pricing_plan_id":"cebpf4jnsgd1na2vs0mg"},{"bike_id":"1b9214f8-12f2-4278-99cc-87bfa0cd0c04","system_id":"levelo_inurba_marseille","lat":43.29731,"lon":5.37685,"is_reserved":false,"is_disabled":false,"rental_uris":{"android":"levelo://app?vid=1b9214f8-12f2-4278-99cc-87bfa0cd0c04","ios":"levelo://app?vid=1b9214f8-12f2-4278-99cc-87bfa0cd0c04"},"vehicle_type_id":"4","last_reported":1738743131,"current_range_meters":36800,"station_id":"ce4bgkh2rcd13ifvqbl0","pricing_plan_id":"cebpf4jnsgd1na2vs0mg"},{"bike_id":"70eec59f-8e5c-4c4a-8440-79555df8ea8f","system_id":"levelo_inurba_marseille","lat":43.28995,"lon":5.35626,"is_reserved":false,"is_disabled":true,"rental_uris":{"android":"levelo://app?vid=70eec59f-8e5c-4c4a-8440-79555df8ea8f","ios":"levelo://app?vid=70eec59f-8e5c-4c4a-8440-79555df8ea8f"},"vehicle_type_id":"4","last_reported":1738743131,"current_range_meters":10800,"station_id":"ce4bhb92rcd13ifvqen0","pricing_plan_id":"cebpf4jnsgd1na2vs0mg"},{"bike_id":"e1fd63af-2ded-46aa-b95c-acb582af5c06","system_id":"levelo_inurba_marseille","lat":43.28723,"lon":5.4,"is_reserved":false,"is_disabled":true,"rental_uris":{"android":"levelo://app?vid=e1fd63af-2ded-46aa-b95c-acb582af5c06","ios":"levelo://app?vid=e1fd63af-2ded-46aa-b95c-acb582af5c06"},"vehicle_type_id":"4","last_reported":1738743131,"current_range_meters":0,"station_id":"ce4bho92rcd13ifvqh3g","pricing_plan_id":"cebpf4jnsgd1na2vs0mg"},{"bike_id":"0b557b94-8edf-49bc-8c24-edbb5993edd9","system_id":"levelo_inurba_marseille","lat":43.33598,"lon":5.41027,"is_reserved":false,"is_disabled":false,"rental_uris":{"android":"levelo://app?vid=0b557b94-8edf-49bc-8c24-edbb5993edd9","ios":"levelo://app?vid=0b557b94-8edf-49bc-8c24-edbb5993edd9"},"vehicle_type_id":"4","last_reported":1738743131,"current_range_meters":29600,"station_id":"ce4bhqh2rcd13ifvqhmg","pricing_plan_id":"cebpf4jnsgd1na2vs0mg"},{"bike_id":"b09ebd01-c975-4878-ac0b-8fd11b1739f7","system_id":"levelo_inurba_marseille","lat":43.28145,"lon":5.42642,"is_reserved":false,"is_disabled":false,"rental_uris":{"android":"levelo://app?vid=b09ebd01-c975-4878-ac0b-8fd11b1739f7","ios":"levelo://app?vid=b09ebd01-c975-4878-ac0b-8fd11b1739f7"},"vehicle_type_id":"4","last_reported":1738743131,"current_range_meters":11600,"station_id":"ce4bhnh2rcd13ifvqgug","pricing_plan_id":"cebpf4jnsgd1na2vs0mg"},{"bike_id":"07000026-ad8c-4219-91e0-aaf3e7491f83","system_id":"levelo_inurba_marseille","lat":43.268994,"lon":5.40271,"is_reserved":false,"is_disabled":false,"rental_uris":{"android":"levelo://app?vid=07000026-ad8c-4219-91e0-aaf3e7491f83","ios":"levelo://app?vid=07000026-ad8c-4219-91e0-aaf3e7491f83"},"vehicle_type_id":"4","last_reported":1738743131,"current_range_meters":23200,"station_id":"cjm6bp8fraef2m0cb0m0","pricing_plan_id":"cebpf4jnsgd1na2vs0mg"},{"bike_id":"8af751f4-4766-4d90-98d2-8afd2deddafd","system_id":"levelo_inurba_marseille","lat":43.27307,"lon":5.39091,"is_reserved":false,"is_disabled":true,"rental_uris":{"android":"levelo://app?vid=8af751f4-4766-4d90-98d2-8afd2deddafd","ios":"levelo://app?vid=8af751f4-4766-4d90-98d2-8afd2deddafd"},"vehicle_type_id":"4","last_reported":1738743131,"current_range_meters":38800,"station_id":"ce4bhgp2rcd13ifvqfe0","pricing_plan_id":"cebpf4jnsgd1na2vs0mg"},{"bike_id":"a7dc0848-081a-4438-bce6-7e161a91f066","system_id":"levelo_inurba_marseille","lat":43.28155,"lon":5.42652,"is_reserved":false,"is_disabled":false,"rental_uris":{"android":"levelo://app?vid=a7dc0848-081a-4438-bce6-7e161a91f066","ios":"levelo://app?vid=a7dc0848-081a-4438-bce6-7e161a91f066"},"vehicle_type_id":"4","last_reported":1738743131,"current_range_meters":31200,"station_id":"ce4bhnh2rcd13ifvqgug","pricing_plan_id":"cebpf4jnsgd1na2vs0mg"},{"bike_id":"537d148d-4101-4c2e-81be-eedbb9188f59","system_id":"levelo_inurba_marseille","lat":43.26191,"lon":5.37455,"is_reserved":false,"is_disabled":false,"rental_uris":{"android":"levelo://app?vid=537d148d-4101-4c2e-81be-eedbb9188f59","ios":"levelo://app?vid=537d148d-4101-4c2e-81be-eedbb9188f59"},"vehicle_type_id":"4","last_reported":1738743131,"current_range_meters":29600,"station_id":"ce4bhgp2rcd13ifvqfc0","pricing_plan_id":"cebpf4jnsgd1na2vs0mg"},{"bike_id":"a351a0f9-fe6f-4487-8b88-f13264e71e03","system_id":"levelo_inurba_marseille","lat":43.2696,"lon":5.38641,"is_reserved":false,"is_disabled":false,"rental_uris":{"android":"levelo://app?vid=a351a0f9-fe6f-4487-8b88-f13264e71e03","ios":"levelo://app?vid=a351a0f9-fe6f-4487-8b88-f13264e71e03"},"vehicle_type_id":"4","last_reported":1738743131,"current_range_meters":18800,"station_id":"ce4bhh92rcd13ifvqfh0","pricing_plan_id":"cebpf4jnsgd1na2vs0mg"},{"bike_id":"9dc60976-d2bc-44c3-87bb-1d52fbe610c3","system_id":"levelo_inurba_marseille","lat":43.28347,"lon":5.38125,"is_reserved":false,"is_disabled":false,"rental_uris":{"android":"levelo://app?vid=9dc60976-d2bc-44c3-87bb-1d52fbe610c3","ios":"levelo://app?vid=9dc60976-d2bc-44c3-87bb-1d52fbe610c3"},"vehicle_type_id":"4","last_reported":1738743131,"current_range_meters":29600,"station_id":"ce4bh412rcd13ifvqdr0","pricing_plan_id":"cebpf4jnsgd1na2vs0mg"},{"bike_id":"2055a81d-8e5e-4bf5-b5e1-2fc40f396b7c","system_id":"levelo_inurba_marseille","lat":43.30541,"lon":5.38463,"is_reserved":false,"is_disabled":true,"rental_uris":{"android":"levelo://app?vid=2055a81d-8e5e-4bf5-b5e1-2fc40f396b7c","ios":"levelo://app?vid=2055a81d-8e5e-4bf5-b5e1-2fc40f396b7c"},"vehicle_type_id":"4","last_reported":1738743131,"current_range_meters":29600,"station_id":"ce4bgg92rcd13ifvqb30","pricing_plan_id":"cebpf4jnsgd1na2vs0mg"},{"bike_id":"929a3d9e-214c-4ec4-90d6-0479bb01fa44","system_id":"levelo_inurba_marseille","lat":43.30299,"lon":5.39207,"is_reserved":false,"is_disabled":false,"rental_uris":{"android":"levelo://app?vid=929a3d9e-214c-4ec4-90d6-0479bb01fa44","ios":"levelo://app?vid=929a3d9e-214c-4ec4-90d6-0479bb01fa44"},"vehicle_type_id":"4","last_reported":1738743131,"current_range_meters":11200,"station_id":"ce4bgkh2rcd13ifvqbk0","pricing_plan_id":"cebpf4jnsgd1na2vs0mg"},{"bike_id":"bb846df9-2969-480a-aed6-edbcf9c326fb","system_id":"levelo_inurba_marseille","lat":43.24797,"lon":5.37473,"is_reserved":false,"is_disabled":false,"rental_uris":{"android":"levelo://app?vid=bb846df9-2969-480a-aed6-edbcf9c326fb","ios":"levelo://app?vid=bb846df9-2969-480a-aed6-edbcf9c326fb"},"vehicle_type_id":"4","last_reported":1738743131,"current_range_meters":21600,"station_id":"ce4bhgh2rcd13ifvqfb0","pricing_plan_id":"cebpf4jnsgd1na2vs0mg"},{"bike_id":"a33a1f02-de42-4d05-887b-933203e68017","system_id":"levelo_inurba_marseille","lat":43.29035,"lon":5.38664,"is_reserved":false,"is_disabled":true,"rental_uris":{"android":"levelo://app?vid=a33a1f02-de42-4d05-887b-933203e68017","ios":"levelo://app?vid=a33a1f02-de42-4d05-887b-933203e68017"},"vehicle_type_id":"4","last_reported":1738743131,"current_range_meters":36800,"station_id":"ce4bh4p2rcd13ifvqe0g","pricing_plan_id":"cebpf4jnsgd1na2vs0mg"},{"bike_id":"cd07e062-2af1-406e-bcb9-5f1ec4730937","system_id":"levelo_inurba_marseille","lat":43.23066,"lon":5.35494,"is_reserved":false,"is_disabled":false,"rental_uris":{"android":"levelo://app?vid=cd07e062-2af1-406e-bcb9-5f1ec4730937","ios":"levelo://app?vid=cd07e062-2af1-406e-bcb9-5f1ec4730937"},"vehicle_type_id":"4","last_reported":1738743131,"current_range_meters":38800,"station_id":"cpo3342slgdg3j2ifvpg","pricing_plan_id":"cebpf4jnsgd1na2vs0mg"},{"bike_id":"c3644d12-8427-4602-9945-9ef42c46feca","system_id":"levelo_inurba_marseille","lat":43.24167,"lon":5.36421,"is_reserved":false,"is_disabled":false,"rental_uris":{"android":"levelo://app?vid=c3644d12-8427-4602-9945-9ef42c46feca","ios":"levelo://app?vid=c3644d12-8427-4602-9945-9ef42c46feca"},"vehicle_type_id":"4","last_reported":1738743131,"current_range_meters":38800,"station_id":"cpo36qri1sfpv3e86is0","pricing_plan_id":"cebpf4jnsgd1na2vs0mg"},{"bike_id":"2769350b-54f1-48e4-aedf-1324fffc26ba","system_id":"levelo_inurba_marseille","lat":43.2395,"lon":5.36624,"is_reserved":false,"is_disabled":false,"rental_uris":{"android":"levelo://app?vid=2769350b-54f1-48e4-aedf-1324fffc26ba","ios":"levelo://app?vid=2769350b-54f1-48e4-aedf-1324fffc26ba"},"vehicle_type_id":"4","last_reported":1738743131,"current_range_meters":38800,"station_id":"ce4bhi12rcd13ifvqfp0","pricing_plan_id":"cebpf4jnsgd1na2vs0mg"},{"bike_id":"c8241007-e391-4448-92ee-11f1aa2489dc","system_id":"levelo_inurba_marseille","lat":43.26949,"lon":5.38628,"is_reserved":false,"is_disabled":false,"rental_uris":{"android":"levelo://app?vid=c8241007-e391-4448-92ee-11f1aa2489dc","ios":"levelo://app?vid=c8241007-e391-4448-92ee-11f1aa2489dc"},"vehicle_type_id":"4","last_reported":1738743131,"current_range_meters":21600,"station_id":"ce4bhh92rcd13ifvqfh0","pricing_plan_id":"cebpf4jnsgd1na2vs0mg"},{"bike_id":"1e7bde43-ab8f-4755-b59a-acd0a53ae759","system_id":"levelo_inurba_marseille","lat":43.31705,"lon":5.42411,"is_reserved":false,"is_disabled":true,"rental_uris":{"android":"levelo://app?vid=1e7bde43-ab8f-4755-b59a-acd0a53ae759","ios":"levelo://app?vid=1e7bde43-ab8f-4755-b59a-acd0a53ae759"},"vehicle_type_id":"4","last_reported":1738743131,"current_range_meters":0,"station_id":"ce4bhp92rcd13ifvqhbg","pricing_plan_id":"cebpf4jnsgd1na2vs0mg"},{"bike_id":"144d5ef4-9c7a-41fb-b06b-1f4330eee933","system_id":"levelo_inurba_marseille","lat":43.29618,"lon":5.37727,"is_reserved":false,"is_disabled":false,"rental_uris":{"android":"levelo://app?vid=144d5ef4-9c7a-41fb-b06b-1f4330eee933","ios":"levelo://app?vid=144d5ef4-9c7a-41fb-b06b-1f4330eee933"},"vehicle_type_id":"4","last_reported":1738743131,"current_range_meters":32400,"station_id":"ce4bgi92rcd13ifvqb90","pricing_plan_id":"cebpf4jnsgd1na2vs0mg"},{"bike_id":"9d130c50-c440-4882-8307-d88f28817003","system_id":"levelo_inurba_marseille","lat":43.30905,"lon":5.3685,"is_reserved":false,"is_disabled":false,"rental_uris":{"android":"levelo://app?vid=9d130c50-c440-4882-8307-d88f28817003","ios":"levelo://app?vid=9d130c50-c440-4882-8307-d88f28817003"},"vehicle_type_id":"4","last_reported":1738743131,"current_range_meters":38800,"station_id":"ce4bgn92rcd13ifvqbvg","pricing_plan_id":"cebpf4jnsgd1na2vs0mg"},{"bike_id":"d4acc25e-826d-4a87-a9c3-ec1a35a614f2","system_id":"levelo_inurba_marseille","lat":43.28849,"lon":5.39312,"is_reserved":false,"is_disabled":true,"rental_uris":{"android":"levelo://app?vid=d4acc25e-826d-4a87-a9c3-ec1a35a614f2","ios":"levelo://app?vid=d4acc25e-826d-4a87-a9c3-ec1a35a614f2"},"vehicle_type_id":"4","last_reported":1738743131,"current_range_meters":800,"station_id":"ce4bh2p2rcd13ifvqdi0","pricing_plan_id":"cebpf4jnsgd1na2vs0mg"},{"bike_id":"9cdb87ac-4fa4-465d-a7c1-6b5c0d6eccf9","system_id":"levelo_inurba_marseille","lat":43.26957,"lon":5.38631,"is_reserved":false,"is_disabled":false,"rental_uris":{"android":"levelo://app?vid=9cdb87ac-4fa4-465d-a7c1-6b5c0d6eccf9","ios":"levelo://app?vid=9cdb87ac-4fa4-465d-a7c1-6b5c0d6eccf9"},"vehicle_type_id":"4","last_reported":1738743131,"current_range_meters":38400,"station_id":"ce4bhh92rcd13ifvqfh0","pricing_plan_id":"cebpf4jnsgd1na2vs0mg"},{"bike_id":"fd9fc28e-cdd1-4d2d-875b-8c661a56be94","system_id":"levelo_inurba_marseille","lat":43.29375,"lon":5.37855,"is_reserved":false,"is_disabled":false,"rental_uris":{"android":"levelo://app?vid=fd9fc28e-cdd1-4d2d-875b-8c661a56be94","ios":"levelo://app?vid=fd9fc28e-cdd1-4d2d-875b-8c661a56be94"},"vehicle_type_id":"4","last_reported":1738743131,"current_range_meters":24400,"station_id":"ce4bgjh2rcd13ifvqbf0","pricing_plan_id":"cebpf4jnsgd1na2vs0mg"},{"bike_id":"45a7daa2-2a2e-4454-90c3-1009aaecc5bd","system_id":"levelo_inurba_marseille","lat":43.232,"lon":5.35565,"is_reserved":false,"is_disabled":false,"rental_uris":{"android":"levelo://app?vid=45a7daa2-2a2e-4454-90c3-1009aaecc5bd","ios":"levelo://app?vid=45a7daa2-2a2e-4454-90c3-1009aaecc5bd"},"vehicle_type_id":"4","last_reported":1738743131,"current_range_meters":4400,"station_id":"ce4bhu92rcd13ifvqi70","pricing_plan_id":"cebpf4jnsgd1na2vs0mg"},{"bike_id":"aece1634-918f-4f68-8bc7-9a7b7abafc1f","system_id":"levelo_inurba_marseille","lat":43.28146,"lon":5.42633,"is_reserved":false,"is_disabled":true,"rental_uris":{"android":"levelo://app?vid=aece1634-918f-4f68-8bc7-9a7b7abafc1f","ios":"levelo://app?vid=aece1634-918f-4f68-8bc7-9a7b7abafc1f"},"vehicle_type_id":"4","last_reported":1738743131,"current_range_meters":30800,"station_id":"ce4bhnh2rcd13ifvqgug","pricing_plan_id":"cebpf4jnsgd1na2vs0mg"},{"bike_id":"132370b2-e001-42ee-a00f-74a190516de1","system_id":"levelo_inurba_marseille","lat":43.28077,"lon":5.39665,"is_reserved":false,"is_disabled":true,"rental_uris":{"android":"levelo://app?vid=132370b2-e001-42ee-a00f-74a190516de1","ios":"levelo://app?vid=132370b2-e001-42ee-a00f-74a190516de1"},"vehicle_type_id":"4","last_reported":1738743131,"current_range_meters":38800,"station_id":"ce4bho12rcd13ifvqh2g","pricing_plan_id":"cebpf4jnsgd1na2vs0mg"},{"bike_id":"dde8d3e4-ec2d-4dec-80db-e4e161a62eca","system_id":"levelo_inurba_marseille","lat":43.28697,"lon":5.3793,"is_reserved":false,"is_disabled":false,"rental_uris":{"android":"levelo://app?vid=dde8d3e4-ec2d-4dec-80db-e4e161a62eca","ios":"levelo://app?vid=dde8d3e4-ec2d-4dec-80db-e4e161a62eca"},"vehicle_type_id":"4","last_reported":1738743131,"current_range_meters":37600,"station_id":"ce4bh9p2rcd13ifvqec0","pricing_plan_id":"cebpf4jnsgd1na2vs0mg"},{"bike_id":"cae6b304-04d8-4e01-9d6c-7cc467ae756b","system_id":"levelo_inurba_marseille","lat":43.30886,"lon":5.39662,"is_reserved":false,"is_disabled":false,"rental_uris":{"android":"levelo://app?vid=cae6b304-04d8-4e01-9d6c-7cc467ae756b","ios":"levelo://app?vid=cae6b304-04d8-4e01-9d6c-7cc467ae756b"},"vehicle_type_id":"4","last_reported":1738743131,"current_range_meters":38000,"station_id":"ce4bh012rcd13ifvqcv0","pricing_plan_id":"cebpf4jnsgd1na2vs0mg"},{"bike_id":"3b1d5f28-8e2f-4cd2-84ee-32e60c8bc1d4","system_id":"levelo_inurba_marseille","lat":43.27931,"lon":5.38699,"is_reserved":false,"is_disabled":true,"rental_uris":{"android":"levelo://app?vid=3b1d5f28-8e2f-4cd2-84ee-32e60c8bc1d4","ios":"levelo://app?vid=3b1d5f28-8e2f-4cd2-84ee-32e60c8bc1d4"},"vehicle_type_id":"4","last_reported":1738743131,"current_range_meters":0,"station_id":"","pricing_plan_id":"cebpf4jnsgd1na2vs0mg"},{"bike_id":"a21453e1-7dd1-439a-9411-5be2637f52a4","system_id":"levelo_inurba_marseille","lat":43.29771,"lon":5.38119,"is_reserved":false,"is_disabled":true,"rental_uris":{"android":"levelo://app?vid=a21453e1-7dd1-439a-9411-5be2637f52a4","ios":"levelo://app?vid=a21453e1-7dd1-439a-9411-5be2637f52a4"},"vehicle_type_id":"4","last_reported":1738743131,"current_range_meters":0,"station_id":"ce4bgip2rcd13ifvqbb0","pricing_plan_id":"cebpf4jnsgd1na2vs0mg"},{"bike_id":"35798297-b936-47d1-8a98-bfdb50e14c75","system_id":"levelo_inurba_marseille","lat":43.32079,"lon":5.43311,"is_reserved":false,"is_disabled":true,"rental_uris":{"android":"levelo://app?vid=35798297-b936-47d1-8a98-bfdb50e14c75","ios":"levelo://app?vid=35798297-b936-47d1-8a98-bfdb50e14c75"},"vehicle_type_id":"4","last_reported":1738743131,"current_range_meters":35200,"station_id":"","pricing_plan_id":"cebpf4jnsgd1na2vs0mg"},{"bike_id":"e6dc612f-7f56-4634-8aac-2cfefb7b3910","system_id":"levelo_inurba_marseille","lat":43.28275,"lon":5.35077,"is_reserved":false,"is_disabled":true,"rental_uris":{"android":"levelo://app?vid=e6dc612f-7f56-4634-8aac-2cfefb7b3910","ios":"levelo://app?vid=e6dc612f-7f56-4634-8aac-2cfefb7b3910"},"vehicle_type_id":"4","last_reported":1738743131,"current_range_meters":28400,"station_id":"ce4bhbp2rcd13ifvqerg","pricing_plan_id":"cebpf4jnsgd1na2vs0mg"},{"bike_id":"8cab2123-bbb6-4b53-9911-ffbdf65c34b8","system_id":"levelo_inurba_marseille","lat":43.26999,"lon":5.38727,"is_reserved":false,"is_disabled":false,"rental_uris":{"android":"levelo://app?vid=8cab2123-bbb6-4b53-9911-ffbdf65c34b8","ios":"levelo://app?vid=8cab2123-bbb6-4b53-9911-ffbdf65c34b8"},"vehicle_type_id":"4","last_reported":1738743131,"current_range_meters":2800,"station_id":"","pricing_plan_id":"cebpf4jnsgd1na2vs0mg"},{"bike_id":"f3b6bed8-58c8-47c3-9b33-96a84a13685d","system_id":"levelo_inurba_marseille","lat":43.25579,"lon":5.3827,"is_reserved":false,"is_disabled":false,"rental_uris":{"android":"levelo://app?vid=f3b6bed8-58c8-47c3-9b33-96a84a13685d","ios":"levelo://app?vid=f3b6bed8-58c8-47c3-9b33-96a84a13685d"},"vehicle_type_id":"4","last_reported":1738743131,"current_range_meters":36400,"station_id":"ce4bhih2rcd13ifvqfs0","pricing_plan_id":"cebpf4jnsgd1na2vs0mg"},{"bike_id":"9dd54648-3c24-472a-ab79-c201c119f5c9","system_id":"levelo_inurba_marseille","lat":43.30909,"lon":5.36851,"is_reserved":false,"is_disabled":false,"rental_uris":{"android":"levelo://app?vid=9dd54648-3c24-472a-ab79-c201c119f5c9","ios":"levelo://app?vid=9dd54648-3c24-472a-ab79-c201c119f5c9"},"vehicle_type_id":"4","last_reported":1738743131,"current_range_meters":24800,"station_id":"ce4bgn92rcd13ifvqbvg","pricing_plan_id":"cebpf4jnsgd1na2vs0mg"},{"bike_id":"8dbe8a6e-72e2-42be-91e2-483b6f8206f0","system_id":"levelo_inurba_marseille","lat":43.25944,"lon":5.4089,"is_reserved":false,"is_disabled":false,"rental_uris":{"android":"levelo://app?vid=8dbe8a6e-72e2-42be-91e2-483b6f8206f0","ios":"levelo://app?vid=8dbe8a6e-72e2-42be-91e2-483b6f8206f0"},"vehicle_type_id":"4","last_reported":1738743131,"current_range_meters":22000,"station_id":"ce4bhm92rcd13ifvqglg","pricing_plan_id":"cebpf4jnsgd1na2vs0mg"},{"bike_id":"dfd5e6a9-6385-4976-bbd4-f0bb0fb41bf7","system_id":"levelo_inurba_marseille","lat":43.27194,"lon":5.39196,"is_reserved":false,"is_disabled":false,"rental_uris":{"android":"levelo://app?vid=dfd5e6a9-6385-4976-bbd4-f0bb0fb41bf7","ios":"levelo://app?vid=dfd5e6a9-6385-4976-bbd4-f0bb0fb41bf7"},"vehicle_type_id":"4","last_reported":1738743131,"current_range_meters":38800,"station_id":"ce4bhhp2rcd13ifvqfm0","pricing_plan_id":"cebpf4jnsgd1na2vs0mg"},{"bike_id":"7b2bab09-6da9-41c3-a8ef-a335724ee538","system_id":"levelo_inurba_marseille","lat":43.30152,"lon":5.38089,"is_reserved":false,"is_disabled":false,"rental_uris":{"android":"levelo://app?vid=7b2bab09-6da9-41c3-a8ef-a335724ee538","ios":"levelo://app?vid=7b2bab09-6da9-41c3-a8ef-a335724ee538"},"vehicle_type_id":"4","last_reported":1738743131,"current_range_meters":17200,"station_id":"ce4bgjp2rcd13ifvqbh0","pricing_plan_id":"cebpf4jnsgd1na2vs0mg"},{"bike_id":"6bb18b6b-35db-4080-8375-2a2e83c6fc4b","system_id":"levelo_inurba_marseille","lat":43.23145,"lon":5.43719,"is_reserved":false,"is_disabled":true,"rental_uris":{"android":"levelo://app?vid=6bb18b6b-35db-4080-8375-2a2e83c6fc4b","ios":"levelo://app?vid=6bb18b6b-35db-4080-8375-2a2e83c6fc4b"},"vehicle_type_id":"4","last_reported":1738743131,"current_range_meters":38400,"station_id":"ce4bhmp2rcd13ifvqgog","pricing_plan_id":"cebpf4jnsgd1na2vs0mg"},{"bike_id":"93b100ea-632e-4cc3-8915-b49357e35f00","system_id":"levelo_inurba_marseille","lat":43.28569,"lon":5.39505,"is_reserved":false,"is_disabled":true,"rental_uris":{"android":"levelo://app?vid=93b100ea-632e-4cc3-8915-b49357e35f00","ios":"levelo://app?vid=93b100ea-632e-4cc3-8915-b49357e35f00"},"vehicle_type_id":"4","last_reported":1738743131,"current_range_meters":0,"station_id":"ce4bh292rcd13ifvqdg0","pricing_plan_id":"cebpf4jnsgd1na2vs0mg"},{"bike_id":"4c938425-c231-42e7-aed2-476a37f6fa3f","system_id":"levelo_inurba_marseille","lat":43.29036,"lon":5.39971,"is_reserved":false,"is_disabled":false,"rental_uris":{"android":"levelo://app?vid=4c938425-c231-42e7-aed2-476a37f6fa3f","ios":"levelo://app?vid=4c938425-c231-42e7-aed2-476a37f6fa3f"},"vehicle_type_id":"4","last_reported":1738743131,"current_range_meters":36400,"station_id":"","pricing_plan_id":"cebpf4jnsgd1na2vs0mg"},{"bike_id":"787b7837-f258-4886-bbf5-841ee39c0166","system_id":"levelo_inurba_marseille","lat":43.28269,"lon":5.35078,"is_reserved":false,"is_disabled":true,"rental_uris":{"android":"levelo://app?vid=787b7837-f258-4886-bbf5-841ee39c0166","ios":"levelo://app?vid=787b7837-f258-4886-bbf5-841ee39c0166"},"vehicle_type_id":"4","last_reported":1738743131,"current_range_meters":34800,"station_id":"ce4bhbp2rcd13ifvqerg","pricing_plan_id":"cebpf4jnsgd1na2vs0mg"},{"bike_id":"7e827b7a-e731-4daf-83c0-fa33ba87bdaf","system_id":"levelo_inurba_marseille","lat":43.30473,"lon":5.379,"is_reserved":false,"is_disabled":false,"rental_uris":{"android":"levelo://app?vid=7e827b7a-e731-4daf-83c0-fa33ba87bdaf","ios":"levelo://app?vid=7e827b7a-e731-4daf-83c0-fa33ba87bdaf"},"vehicle_type_id":"4","last_reported":1738743131,"current_range_meters":38800,"station_id":"ce4bgup2rcd13ifvqcn0","pricing_plan_id":"cebpf4jnsgd1na2vs0mg"},{"bike_id":"66cce1da-ff56-47a9-96fe-63882e6c7400","system_id":"levelo_inurba_marseille","lat":43.24063,"lon":5.37763,"is_reserved":false,"is_disabled":false,"rental_uris":{"android":"levelo://app?vid=66cce1da-ff56-47a9-96fe-63882e6c7400","ios":"levelo://app?vid=66cce1da-ff56-47a9-96fe-63882e6c7400"},"vehicle_type_id":"4","last_reported":1738743131,"current_range_meters":39200,"station_id":"ce4bhnp2rcd13ifvqgvg","pricing_plan_id":"cebpf4jnsgd1na2vs0mg"},{"bike_id":"d5f34a54-505d-4ab3-b661-98f8d2b27c92","system_id":"levelo_inurba_marseille","lat":43.25826,"lon":5.39439,"is_reserved":false,"is_disabled":false,"rental_uris":{"android":"levelo://app?vid=d5f34a54-505d-4ab3-b661-98f8d2b27c92","ios":"levelo://app?vid=d5f34a54-505d-4ab3-b661-98f8d2b27c92"},"vehicle_type_id":"4","last_reported":1738743131,"current_range_meters":38000,"station_id":"ce4bhip2rcd13ifvqft0","pricing_plan_id":"cebpf4jnsgd1na2vs0mg"},{"bike_id":"c4e67106-beaf-4447-8bd9-ed91b490f73e","system_id":"levelo_inurba_marseille","lat":43.26226,"lon":5.40451,"is_reserved":false,"is_disabled":false,"rental_uris":{"android":"levelo://app?vid=c4e67106-beaf-4447-8bd9-ed91b490f73e","ios":"levelo://app?vid=c4e67106-beaf-4447-8bd9-ed91b490f73e"},"vehicle_type_id":"4","last_reported":1738743131,"current_range_meters":10800,"station_id":"ce4bhmh2rcd13ifvqgmg","pricing_plan_id":"cebpf4jnsgd1na2vs0mg"},{"bike_id":"44a30f83-4304-4f9f-be85-a99271585cc5","system_id":"levelo_inurba_marseille","lat":43.24152,"lon":5.36405,"is_reserved":false,"is_disabled":false,"rental_uris":{"android":"levelo://app?vid=44a30f83-4304-4f9f-be85-a99271585cc5","ios":"levelo://app?vid=44a30f83-4304-4f9f-be85-a99271585cc5"},"vehicle_type_id":"4","last_reported":1738743131,"current_range_meters":17200,"station_id":"cpo36qri1sfpv3e86is0","pricing_plan_id":"cebpf4jnsgd1na2vs0mg"},{"bike_id":"eac8e106-76e0-4f1b-81af-4eaefecd2501","system_id":"levelo_inurba_marseille","lat":43.25003,"lon":5.38907,"is_reserved":false,"is_disabled":false,"rental_uris":{"android":"levelo://app?vid=eac8e106-76e0-4f1b-81af-4eaefecd2501","ios":"levelo://app?vid=eac8e106-76e0-4f1b-81af-4eaefecd2501"},"vehicle_type_id":"4","last_reported":1738743131,"current_range_meters":12000,"station_id":"ce4bhgp2rcd13ifvqfd0","pricing_plan_id":"cebpf4jnsgd1na2vs0mg"},{"bike_id":"0a10ca63-b480-4430-af1f-e0f75a3ed212","system_id":"levelo_inurba_marseille","lat":43.25913,"lon":5.40894,"is_reserved":false,"is_disabled":false,"rental_uris":{"android":"levelo://app?vid=0a10ca63-b480-4430-af1f-e0f75a3ed212","ios":"levelo://app?vid=0a10ca63-b480-4430-af1f-e0f75a3ed212"},"vehicle_type_id":"4","last_reported":1738743131,"current_range_meters":35200,"station_id":"ce4bhm92rcd13ifvqglg","pricing_plan_id":"cebpf4jnsgd1na2vs0mg"},{"bike_id":"73b3edae-b27a-4a68-b36d-36be29f52ba3","system_id":"levelo_inurba_marseille","lat":43.31086,"lon":5.42429,"is_reserved":false,"is_disabled":false,"rental_uris":{"android":"levelo://app?vid=73b3edae-b27a-4a68-b36d-36be29f52ba3","ios":"levelo://app?vid=73b3edae-b27a-4a68-b36d-36be29f52ba3"},"vehicle_type_id":"4","last_reported":1738743131,"current_range_meters":25200,"station_id":"ce4bhp92rcd13ifvqhag","pricing_plan_id":"cebpf4jnsgd1na2vs0mg"},{"bike_id":"3e06e735-9c4d-48d7-82e1-4b743711b119","system_id":"levelo_inurba_marseille","lat":43.29575,"lon":5.37501,"is_reserved":false,"is_disabled":false,"rental_uris":{"android":"levelo://app?vid=3e06e735-9c4d-48d7-82e1-4b743711b119","ios":"levelo://app?vid=3e06e735-9c4d-48d7-82e1-4b743711b119"},"vehicle_type_id":"4","last_reported":1738743131,"current_range_meters":35600,"station_id":"ce4bgh92rcd13ifvqb50","pricing_plan_id":"cebpf4jnsgd1na2vs0mg"},{"bike_id":"ae4e094d-6329-4b45-809d-c45c66a5e490","system_id":"levelo_inurba_marseille","lat":43.28935,"lon":5.36403,"is_reserved":false,"is_disabled":false,"rental_uris":{"android":"levelo://app?vid=ae4e094d-6329-4b45-809d-c45c66a5e490","ios":"levelo://app?vid=ae4e094d-6329-4b45-809d-c45c66a5e490"},"vehicle_type_id":"4","last_reported":1738743131,"current_range_meters":31200,"station_id":"ce4bhc92rcd13ifvqetg","pricing_plan_id":"cebpf4jnsgd1na2vs0mg"},