{"last_updated":1740942401,"ttl":60,"version":"2.2","data":{"bikes":[{"bike_id":"819fc6fd-4768-4c11-82f9-0b5fd0b62d4a","system_id":"levelo_inurba_marseille","lat":43.342489,"lon":5.377996,"is_reserved":false,"is_disabled":true,"rental_uris":{"android":"levelo://app?vid=819fc6fd-4768-4c11-82f9-0b5fd0b62d4a","ios":"levelo://app?vid=819fc6fd-4768-4c11-82f9-0b5fd0b62d4a"},"vehicle_type_id":"4","last_reported":1740942401,"current_range_meters":0,"station_id":"","pricing_plan_id":"cebpf4jnsgd1na2vs0mg"},{"bike_id":"303c2b96-5131-48b9-8dd0-e5a82865f4bc","system_id":"levelo_inurba_marseille","lat":43.35327,"lon":5.36526,"is_reserved":false,"is_disabled":true,"rental_uris":{"android":"levelo://app?vid=303c2b96-5131-48b9-8dd0-e5a82865f4bc","ios":"levelo://app?vid=303c2b96-5131-48b9-8dd0-e5a82865f4bc"},"vehicle_type_id":"4","last_reported":1740942401,"current_range_meters":0,"station_id":"","pricing_plan_id":"cebpf4jnsgd1na2vs0mg"},{"bike_id":"d5458f89-73a3-43f1-9894-000389f52995","system_id":"levelo_inurba_marseille","lat":43.27611,"lon":5.41519,"is_reserved":false,"is_disabled":true,"rental_uris":{"android":"levelo://app?vid=d5458f89-73a3-43f1-9894-000389f52995","ios":"levelo://app?vid=d5458f89-73a3-43f1-9894-000389f52995"},"vehicle_type_id":"4","last_reported":1740942401,"current_range_meters":0,"station_id":"","pricing_plan_id":"cebpf4jnsgd1na2vs0mg"},{"bike_id":"ea6a02cb-3810-403c-ab47-423df20fff9f","system_id":"levelo_inurba_marseille","lat":43.28846,"lon":5.44857,"is_reserved":false,"is_disabled":true,"rental_uris":{"android":"levelo://app?vid=ea6a02cb-3810-403c-ab47-423df20fff9f","ios":"levelo://app?vid=ea6a02cb-3810-403c-ab47-423df20fff9f"},"vehicle_type_id":"4","last_reported":1740942401,"current_range_meters":0,"station_id":"","pricing_plan_id":"cebpf4jnsgd1na2vs0mg"},{"bike_id":"afcec8eb-28d8-4889-8879-0897cb5957e3","system_id":"levelo_inurba_marseille","lat":43.2798,"lon":5.40576,"is_reserved":false,"is_disabled":true,"rental_uris":{"android":"levelo://app?vid=afcec8eb-28d8-4889-8879-0897cb5957e3","ios":"levelo://app?vid=afcec8eb-28d8-4889-8879-0897cb5957e3"},"vehicle_type_id":"4","last_reported":1740942401,"current_range_meters":0,"station_id":"","pricing_plan_id":"cebpf4jnsgd1na2vs0mg"},{"bike_id":"7299c7f5-b19a-415a-98fb-92e8f867f54e","system_id":"levelo_inurba_marseille","lat":43.31689,"lon":5.39678,"is_reserved":false,"is_disabled":true,"rental_uris":{"android":"levelo://app?vid=7299c7f5-b19a-415a-98fb-92e8f867f54e","ios":"levelo://app?vid=7299c7f5-b19a-415a-98fb-92e8f867f54e"},"vehicle_type_id":"4","last_reported":1740942401,"current_range_meters":0,"station_id":"","pricing_plan_id":"cebpf4jnsgd1na2vs0mg"},{"bike_id":"2d9f9746-0f17-40e4-90b1-75588057c09a","system_id":"levelo_inurba_marseille","lat":43.29616,"lon":5.37717,"is_reserved":false,"is_disabled":true,"rental_uris":{"android":"levelo://app?vid=2d9f9746-0f17-40e4-90b1-75588057c09a","ios":"levelo://app?vid=2d9f9746-0f17-40e4-90b1-75588057c09a"},"vehicle_type_id":"4","last_reported":1740942401,"current_range_meters":0,"station_id":"ce4bgi92rcd13ifvqb90","pricing_plan_id":"cebpf4jnsgd1na2vs0mg"},{"bike_id":"5eaf555c-3719-4b84-a140-97e5fbb39c69","system_id":"levelo_inurba_marseille","lat":43.29373,"lon":5.37857,"is_reserved":false,"is_disabled":true,"rental_uris":{"android":"levelo://app?vid=5eaf555c-3719-4b84-a140-97e5fbb39c69","ios":"levelo://app?vid=5eaf555c-3719-4b84-a140-97e5fbb39c69"},"vehicle_type_id":"4","last_reported":1740942401,"current_range_meters":0,"station_id":"ce4bgjh2rcd13ifvqbf0","pricing_plan_id":"cebpf4jnsgd1na2vs0mg"},{"bike_id":"367fb4ce-d5e7-4054-aafc-c4d30cf921b6","system_id":"levelo_inurba_marseille","lat":43.29704,"lon":5.37737,"is_reserved":false,"is_disabled":true,"rental_uris":{"android":"levelo://app?vid=367fb4ce-d5e7-4054-aafc-c4d30cf921b6","ios":"levelo://app?vid=367fb4ce-d5e7-4054-aafc-c4d30cf921b6"},"vehicle_type_id":"4","last_reported":1740942401,"current_range_meters":0,"station_id":"ce4bgkh2rcd13ifvqbl0","pricing_plan_id":"cebpf4jnsgd1na2vs0mg"},{"bike_id":"0ce46a0c-9a87-4cda-aa3e-19fce3cc1997","system_id":"levelo_inurba_marseille","lat":43.29592,"lon":5.38103,"is_reserved":false,"is_disabled":true,"rental_uris":{"android":"levelo://app?vid=0ce46a0c-9a87-4cda-aa3e-19fce3cc1997","ios":"levelo://app?vid=0ce46a0c-9a87-4cda-aa3e-19fce3cc1997"},"vehicle_type_id":"4","last_reported":1740942401,"current_range_meters":0,"station_id":"ce4bgl12rcd13ifvqbo0","pricing_plan_id":"cebpf4jnsgd1na2vs0mg"},{"bike_id":"aa37c472-82c2-4d53-879a-25881fca771e","system_id":"levelo_inurba_marseille","lat":43.31207,"lon":5.36825,"is_reserved":false,"is_disabled":true,"rental_uris":{"android":"levelo://app?vid=aa37c472-82c2-4d53-879a-25881fca771e","ios":"levelo://app?vid=aa37c472-82c2-4d53-879a-25881fca771e"},"vehicle_type_id":"4","last_reported":1740942401,"current_range_meters":0,"station_id":"ce4bgl92rcd13ifvqbq0","pricing_plan_id":"cebpf4jnsgd1na2vs0mg"},{"bike_id":"ec5839fe-f775-4eb6-8517-1e3cbc51f490","system_id":"levelo_inurba_marseille","lat":43.31216,"lon":5.36859,"is_reserved":false,"is_disabled":true,"rental_uris":{"android":"levelo://app?vid=ec5839fe-f775-4eb6-8517-1e3cbc51f490","ios":"levelo://app?vid=ec5839fe-f775-4eb6-8517-1e3cbc51f490"},"vehicle_type_id":"4","last_reported":1740942401,"current_range_meters":0,"station_id":"ce4bgl92rcd13ifvqbq0","pricing_plan_id":"cebpf4jnsgd1na2vs0mg"},{"bike_id":"6e748dc7-5745-4207-8121-8f696c66177d","system_id":"levelo_inurba_marseille","lat":43.30523,"lon":5.3662,"is_reserved":false,"is_disabled":true,"rental_uris":{"android":"levelo://app?vid=6e748dc7-5745-4207-8121-8f696c66177d","ios":"levelo://app?vid=6e748dc7-5745-4207-8121-8f696c66177d"},"vehicle_type_id":"4","last_reported":1740942401,"current_range_meters":0,"station_id":"ce4bgrp2rcd13ifvqc9g","pricing_plan_id":"cebpf4jnsgd1na2vs0mg"},{"bike_id":"697bd808-226e-450c-997d-9756c61096ec","system_id":"levelo_inurba_marseille","lat":43.30533,"lon":5.36543,"is_reserved":false,"is_disabled":true,"rental_uris":{"android":"levelo://app?vid=697bd808-226e-450c-997d-9756c61096ec","ios":"levelo://app?vid=697bd808-226e-450c-997d-9756c61096ec"},"vehicle_type_id":"4","last_reported":1740942401,"current_range_meters":0,"station_id":"ce4bgs12rcd13ifvqcag","pricing_plan_id":"cebpf4jnsgd1na2vs0mg"},{"bike_id":"bbfd2121-d605-4774-ba32-5ad06351b622","system_id":"levelo_inurba_marseille","lat":43.31385,"lon":5.38523,"is_reserved":false,"is_disabled":true,"rental_uris":{"android":"levelo://app?vid=bbfd2121-d605-4774-ba32-5ad06351b622","ios":"levelo://app?vid=bbfd2121-d605-4774-ba32-5ad06351b622"},"vehicle_type_id":"4","last_reported":1740942401,"current_range_meters":0,"station_id":"ce4bgt92rcd13ifvqcf0","pricing_plan_id":"cebpf4jnsgd1na2vs0mg"},{"bike_id":"dc1b8111-c301-43a0-b7f7-d0c1e446ded9","system_id":"levelo_inurba_marseille","lat":43.28104,"lon":5.37875,"is_reserved":false,"is_disabled":false,"rental_uris":{"android":"levelo://app?vid=dc1b8111-c301-43a0-b7f7-d0c1e446ded9","ios":"levelo://app?vid=dc1b8111-c301-43a0-b7f7-d0c1e446ded9"},"vehicle_type_id":"4","last_reported":1740942401,"current_range_meters":0,"station_id":"ce4bha12rcd13ifvqee0","pricing_plan_id":"cebpf4jnsgd1na2vs0mg"},{"bike_id":"91c26f47-4c53-40bc-bd7e-ea871b2f03bf","system_id":"levelo_inurba_marseille","lat":43.29175,"lon":5.3716,"is_reserved":false,"is_disabled":true,"rental_uris":{"android":"levelo://app?vid=91c26f47-4c53-40bc-bd7e-ea871b2f03bf","ios":"levelo://app?vid=91c26f47-4c53-40bc-bd7e-ea871b2f03bf"},"vehicle_type_id":"4","last_reported":1740942401,"current_range_meters":0,"station_id":"ce4bha92rcd13ifvqeh0","pricing_plan_id":"cebpf4jnsgd1na2vs0mg"},{"bike_id":"5470a9d6-cc14-47be-aa41-6413d29a0781","system_id":"levelo_inurba_marseille","lat":43.23127,"lon":5.43708,"is_reserved":false,"is_disabled":true,"rental_uris":{"android":"levelo://app?vid=5470a9d6-cc14-47be-aa41-6413d29a0781","ios":"levelo://app?vid=5470a9d6-cc14-47be-aa41-6413d29a0781"},"vehicle_type_id":"4","last_reported":1740942401,"current_range_meters":0,"station_id":"ce4bhmp2rcd13ifvqgog","pricing_plan_id":"cebpf4jnsgd1na2vs0mg"},{"bike_id":"5609c11d-c924-48d2-ad68-1c5fbdf05b0f","system_id":"levelo_inurba_marseille","lat":43.28418,"lon":5.39183,"is_reserved":false,"is_disabled":true,"rental_uris":{"android":"levelo://app?vid=5609c11d-c924-48d2-ad68-1c5fbdf05b0f","ios":"levelo://app?vid=5609c11d-c924-48d2-ad68-1c5fbdf05b0f"},"vehicle_type_id":"4","last_reported":1740942401,"current_range_meters":0,"station_id":"ce4bhoh2rcd13ifvqh5g","pricing_plan_id":"cebpf4jnsgd1na2vs0mg"},{"bike_id":"2fc1305b-d3cb-40c8-8b32-1f0ec8747b95","system_id":"levelo_inurba_marseille","lat":43.26805,"lon":5.4022,"is_reserved":false,"is_disabled":true,"rental_uris":{"android":"levelo://app?vid=2fc1305b-d3cb-40c8-8b32-1f0ec8747b95","ios":"levelo://app?vid=2fc1305b-d3cb-40c8-8b32-1f0ec8747b95"},"vehicle_type_id":"4","last_reported":1740942401,"current_range_meters":0,"station_id":"ce501612rcd8frsf0b60","pricing_plan_id":"cebpf4jnsgd1na2vs0mg"},{"bike_id":"2e208862-1e3c-4145-814a-d46897a0c46e","system_id":"levelo_inurba_marseille","lat":43.2858,"lon":5.36991,"is_reserved":false,"is_disabled":false,"rental_uris":{"android":"levelo://app?vid=2e208862-1e3c-4145-814a-d46897a0c46e","ios":"levelo://app?vid=2e208862-1e3c-4145-814a-d46897a0c46e"},"vehicle_type_id":"4","last_reported":1740942401,"current_range_meters":400,"station_id":"","pricing_plan_id":"cebpf4jnsgd1na2vs0mg"},{"bike_id":"d5aa7664-a3c7-4bba-be91-5d9e1801a58a","system_id":"levelo_inurba_marseille","lat":43.29934,"lon":5.36555,"is_reserved":false,"is_disabled":true,"rental_uris":{"android":"levelo://app?vid=d5aa7664-a3c7-4bba-be91-5d9e1801a58a","ios":"levelo://app?vid=d5aa7664-a3c7-4bba-be91-5d9e1801a58a"},"vehicle_type_id":"4","last_reported":1740942401,"current_range_meters":400,"station_id":"ce4bgm92rcd13ifvqbr0","pricing_plan_id":"cebpf4jnsgd1na2vs0mg"},{"bike_id":"e73d486f-48b8-4150-a7ae-22d10941e4a3","system_id":"levelo_inurba_marseille","lat":43.2834,"lon":5.3811,"is_reserved":false,"is_disabled":true,"rental_uris":{"android":"levelo://app?vid=e73d486f-48b8-4150-a7ae-22d10941e4a3","ios":"levelo://app?vid=e73d486f-48b8-4150-a7ae-22d10941e4a3"},"vehicle_type_id":"4","last_reported":1740942401,"current_range_meters":400,"station_id":"ce4bh412rcd13ifvqdr0","pricing_plan_id":"cebpf4jnsgd1na2vs0mg"},{"bike_id":"ee538f09-09e7-4421-86ac-2cba7652d712","system_id":"levelo_inurba_marseille","lat":43.28455,"lon":5.35899,"is_reserved":false,"is_disabled":true,"rental_uris":{"android":"levelo://app?vid=ee538f09-09e7-4421-86ac-2cba7652d712","ios":"levelo://app?vid=ee538f09-09e7-4421-86ac-2cba7652d712"},"vehicle_type_id":"4","last_reported":1740942401,"current_range_meters":400,"station_id":"ce4bhah2rcd13ifvqei0","pricing_plan_id":"cebpf4jnsgd1na2vs0mg"},{"bike_id":"d60426f3-a9bc-4de3-9296-1a4db5cb9c58","system_id":"levelo_inurba_marseille","lat":43.25808,"lon":5.39433,"is_reserved":false,"is_disabled":true,"rental_uris":{"android":"levelo://app?vid=d60426f3-a9bc-4de3-9296-1a4db5cb9c58","ios":"levelo://app?vid=d60426f3-a9bc-4de3-9296-1a4db5cb9c58"},"vehicle_type_id":"4","last_reported":1740942401,"current_range_meters":400,"station_id":"ce4bhip2rcd13ifvqft0","pricing_plan_id":"cebpf4jnsgd1na2vs0mg"},{"bike_id":"5e41ebac-b19a-42ea-ac5e-08806c6478bf","system_id":"levelo_inurba_marseille","lat":43.31191,"lon":5.38674,"is_reserved":false,"is_disabled":true,"rental_uris":{"android":"levelo://app?vid=5e41ebac-b19a-42ea-ac5e-08806c6478bf","ios":"levelo://app?vid=5e41ebac-b19a-42ea-ac5e-08806c6478bf"},"vehicle_type_id":"4","last_reported":1740942401,"current_range_meters":800,"station_id":"ce4bgv12rcd13ifvqcp0","pricing_plan_id":"cebpf4jnsgd1na2vs0mg"},{"bike_id":"c813ce35-b980-4a27-9325-97de2acdeae3","system_id":"levelo_inurba_marseille","lat":43.28844,"lon":5.3584,"is_reserved":false,"is_disabled":true,"rental_uris":{"android":"levelo://app?vid=c813ce35-b980-4a27-9325-97de2acdeae3","ios":"levelo://app?vid=c813ce35-b980-4a27-9325-97de2acdeae3"},"vehicle_type_id":"4","last_reported":1740942401,"current_range_meters":800,"station_id":"ce4bhb12rcd13ifvqem0","pricing_plan_id":"cebpf4jnsgd1na2vs0mg"},{"bike_id":"035dcadf-4493-44db-b03d-b1b23d3363a3","system_id":"levelo_inurba_marseille","lat":43.26931,"lon":5.38928,"is_reserved":false,"is_disabled":true,"rental_uris":{"android":"levelo://app?vid=035dcadf-4493-44db-b03d-b1b23d3363a3","ios":"levelo://app?vid=035dcadf-4493-44db-b03d-b1b23d3363a3"},"vehicle_type_id":"4","last_reported":1740942401,"current_range_meters":800,"station_id":"ce4bhhh2rcd13ifvqfl0","pricing_plan_id":"cebpf4jnsgd1na2vs0mg"},{"bike_id":"d000173b-3e6e-46b8-9984-18e230b90d15","system_id":"levelo_inurba_marseille","lat":43.23198,"lon":5.35567,"is_reserved":false,"is_disabled":true,"rental_uris":{"android":"levelo://app?vid=d000173b-3e6e-46b8-9984-18e230b90d15","ios":"levelo://app?vid=d000173b-3e6e-46b8-9984-18e230b90d15"},"vehicle_type_id":"4","last_reported":1740942401,"current_range_meters":800,"station_id":"ce4bhu92rcd13ifvqi70","pricing_plan_id":"cebpf4jnsgd1na2vs0mg"},{"bike_id":"a65cb524-c756-42a0-9639-a6505770c05b","system_id":"levelo_inurba_marseille","lat":43.35043,"lon":5.36686,"is_reserved":false,"is_disabled":true,"rental_uris":{"android":"levelo://app?vid=a65cb524-c756-42a0-9639-a6505770c05b","ios":"levelo://app?vid=a65cb524-c756-42a0-9639-a6505770c05b"},"vehicle_type_id":"4","last_reported":1740942401,"current_range_meters":1200,"station_id":"","pricing_plan_id":"cebpf4jnsgd1na2vs0mg"},{"bike_id":"654e51e0-ea0c-49b5-9362-640b0d37e931","system_id":"levelo_inurba_marseille","lat":43.30928,"lon":5.40147,"is_reserved":false,"is_disabled":true,"rental_uris":{"android":"levelo://app?vid=654e51e0-ea0c-49b5-9362-640b0d37e931","ios":"levelo://app?vid=654e51e0-ea0c-49b5-9362-640b0d37e931"},"vehicle_type_id":"4","last_reported":1740942401,"current_range_meters":1200,"station_id":"ce4bgvp2rcd13ifvqct0","pricing_plan_id":"cebpf4jnsgd1na2vs0mg"},{"bike_id":"e78e692d-df65-49ca-b575-4a41d2115807","system_id":"levelo_inurba_marseille","lat":43.28422,"lon":5.35006,"is_reserved":false,"is_disabled":true,"rental_uris":{"android":"levelo://app?vid=e78e692d-df65-49ca-b575-4a41d2115807","ios":"levelo://app?vid=e78e692d-df65-49ca-b575-4a41d2115807"},"vehicle_type_id":"4","last_reported":1740942401,"current_range_meters":1200,"station_id":"ce4bhbh2rcd13ifvqepg","pricing_plan_id":"cebpf4jnsgd1na2vs0mg"},{"bike_id":"5920af92-b73e-4281-935c-e23c526bdfaa","system_id":"levelo_inurba_marseille","lat":43.26569,"lon":5.39,"is_reserved":false,"is_disabled":true,"rental_uris":{"android":"levelo://app?vid=5920af92-b73e-4281-935c-e23c526bdfaa","ios":"levelo://app?vid=5920af92-b73e-4281-935c-e23c526bdfaa"},"vehicle_type_id":"4","last_reported":1740942401,"current_range_meters":1200,"station_id":"ce4bhe12rcd13ifvqf30","pricing_plan_id":"cebpf4jnsgd1na2vs0mg"},{"bike_id":"07007feb-d2bb-4b75-868b-937ff6f6a02d","system_id":"levelo_inurba_marseille","lat":43.27054,"lon":5.40268,"is_reserved":false,"is_disabled":true,"rental_uris":{"android":"levelo://app?vid=07007feb-d2bb-4b75-868b-937ff6f6a02d","ios":"levelo://app?vid=07007feb-d2bb-4b75-868b-937ff6f6a02d"},"vehicle_type_id":"4","last_reported":1740942401,"current_range_meters":1200,"station_id":"ce4bhk92rcd13ifvqgc0","pricing_plan_id":"cebpf4jnsgd1na2vs0mg"},{"bike_id":"37027680-60c8-47ac-a054-ecb5f9410b1d","system_id":"levelo_inurba_marseille","lat":43.28011,"lon":5.41684,"is_reserved":false,"is_disabled":true,"rental_uris":{"android":"levelo://app?vid=37027680-60c8-47ac-a054-ecb5f9410b1d","ios":"levelo://app?vid=37027680-60c8-47ac-a054-ecb5f9410b1d"},"vehicle_type_id":"4","last_reported":1740942401,"current_range_meters":1200,"station_id":"ce4bho12rcd13ifvqh1g","pricing_plan_id":"cebpf4jnsgd1na2vs0mg"},{"bike_id":"ff76972f-1225-4164-9d5c-aedf9dce6946","system_id":"levelo_inurba_marseille","lat":43.2956,"lon":5.42291,"is_reserved":false,"is_disabled":true,"rental_uris":{"android":"levelo://app?vid=ff76972f-1225-4164-9d5c-aedf9dce6946","ios":"levelo://app?vid=ff76972f-1225-4164-9d5c-aedf9dce6946"},"vehicle_type_id":"4","last_reported":1740942401,"current_range_meters":1200,"station_id":"ce4bhph2rcd13ifvqhdg","pricing_plan_id":"cebpf4jnsgd1na2vs0mg"},{"bike_id":"c9c6f74c-af47-4e7f-90fc-7a80a710863b","system_id":"levelo_inurba_marseille","lat":43.32369,"lon":5.3887,"is_reserved":false,"is_disabled":true,"rental_uris":{"android":"levelo://app?vid=c9c6f74c-af47-4e7f-90fc-7a80a710863b","ios":"levelo://app?vid=c9c6f74c-af47-4e7f-90fc-7a80a710863b"},"vehicle_type_id":"4","last_reported":1740942401,"current_range_meters":1200,"station_id":"ce4bhqp2rcd13ifvqhog","pricing_plan_id":"cebpf4jnsgd1na2vs0mg"},{"bike_id":"50ff7f12-0288-4242-b871-96ae8b9d32a6","system_id":"levelo_inurba_marseille","lat":43.28733,"lon":5.3611,"is_reserved":false,"is_disabled":true,"rental_uris":{"android":"levelo://app?vid=50ff7f12-0288-4242-b871-96ae8b9d32a6","ios":"levelo://app?vid=50ff7f12-0288-4242-b871-96ae8b9d32a6"},"vehicle_type_id":"4","last_reported":1740942401,"current_range_meters":1200,"station_id":"cki0cbj6b192h4jlfktg","pricing_plan_id":"cebpf4jnsgd1na2vs0mg"},{"bike_id":"2fcd25b0-c421-4d0f-ba30-5f6f5ff608f3","system_id":"levelo_inurba_marseille","lat":43.30783,"lon":5.38586,"is_reserved":false,"is_disabled":true,"rental_uris":{"android":"levelo://app?vid=2fcd25b0-c421-4d0f-ba30-5f6f5ff608f3","ios":"levelo://app?vid=2fcd25b0-c421-4d0f-ba30-5f6f5ff608f3"},"vehicle_type_id":"4","last_reported":1740942401,"current_range_meters":1600,"station_id":"","pricing_plan_id":"cebpf4jnsgd1na2vs0mg"},{"bike_id":"34c7d1fe-e6ef-429a-8e55-41075afe08d5","system_id":"levelo_inurba_marseille","lat":43.31077,"lon":5.3835,"is_reserved":false,"is_disabled":true,"rental_uris":{"android":"levelo://app?vid=34c7d1fe-e6ef-429a-8e55-41075afe08d5","ios":"levelo://app?vid=34c7d1fe-e6ef-429a-8e55-41075afe08d5"},"vehicle_type_id":"4","last_reported":1740942401,"current_range_meters":1600,"station_id":"ce4bgv92rcd13ifvqcr0","pricing_plan_id":"cebpf4jnsgd1na2vs0mg"},{"bike_id":"c8f2b88c-0464-4b3f-af3e-eb39afde6485","system_id":"levelo_inurba_marseille","lat":43.29251,"lon":5.40917,"is_reserved":false,"is_disabled":true,"rental_uris":{"android":"levelo://app?vid=c8f2b88c-0464-4b3f-af3e-eb39afde6485","ios":"levelo://app?vid=c8f2b88c-0464-4b3f-af3e-eb39afde6485"},"vehicle_type_id":"4","last_reported":1740942401,"current_range_meters":1600,"station_id":"ce4bh192rcd13ifvqdc0","pricing_plan_id":"cebpf4jnsgd1na2vs0mg"},{"bike_id":"52690674-5b0e-402d-a883-3d692a7aaf0e","system_id":"levelo_inurba_marseille","lat":43.2784,"lon":5.3923,"is_reserved":false,"is_disabled":true,"rental_uris":{"android":"levelo://app?vid=52690674-5b0e-402d-a883-3d692a7aaf0e","ios":"levelo://app?vid=52690674-5b0e-402d-a883-3d692a7aaf0e"},"vehicle_type_id":"4","last_reported":1740942401,"current_range_meters":1600,"station_id":"ce4bhjp2rcd13ifvqga0","pricing_plan_id":"cebpf4jnsgd1na2vs0mg"},{"bike_id":"d18bff97-dd79-4b51-bfd0-ccc10b23f1c4","system_id":"levelo_inurba_marseille","lat":43.30928,"lon":5.40147,"is_reserved":false,"is_disabled":true,"rental_uris":{"android":"levelo://app?vid=d18bff97-dd79-4b51-bfd0-ccc10b23f1c4","ios":"levelo://app?vid=d18bff97-dd79-4b51-bfd0-ccc10b23f1c4"},"vehicle_type_id":"4","last_reported":1740942401,"current_range_meters":2000,"station_id":"ce4bgvp2rcd13ifvqct0","pricing_plan_id":"cebpf4jnsgd1na2vs0mg"},{"bike_id":"8f4de975-4176-4234-b76a-0eaf67c96207","system_id":"levelo_inurba_marseille","lat":43.28724,"lon":5.37928,"is_reserved":false,"is_disabled":false,"rental_uris":{"android":"levelo://app?vid=8f4de975-4176-4234-b76a-0eaf67c96207","ios":"levelo://app?vid=8f4de975-4176-4234-b76a-0eaf67c96207"},"vehicle_type_id":"4","last_reported":1740942401,"current_range_meters":2800,"station_id":"ce4bh9p2rcd13ifvqec0","pricing_plan_id":"cebpf4jnsgd1na2vs0mg"},{"bike_id":"efe6e8a5-0631-4f20-9864-926edb240891","system_id":"levelo_inurba_marseille","lat":43.27564,"lon":5.423922,"is_reserved":false,"is_disabled":false,"rental_uris":{"android":"levelo://app?vid=efe6e8a5-0631-4f20-9864-926edb240891","ios":"levelo://app?vid=efe6e8a5-0631-4f20-9864-926edb240891"},"vehicle_type_id":"4","last_reported":1740942401,"current_range_meters":2800,"station_id":"ce4bhn92rcd13ifvqgrg","pricing_plan_id":"cebpf4jnsgd1na2vs0mg"},{"bike_id":"2d7027ab-e698-4182-aaa9-05db4b0b369a","system_id":"levelo_inurba_marseille","lat":43.32667,"lon":5.41004,"is_reserved":false,"is_disabled":false,"rental_uris":{"android":"levelo://app?vid=2d7027ab-e698-4182-aaa9-05db4b0b369a","ios":"levelo://app?vid=2d7027ab-e698-4182-aaa9-05db4b0b369a"},"vehicle_type_id":"4","last_reported":1740942401,"current_range_meters":2800,"station_id":"ce4bhpp2rcd13ifvqhgg","pricing_plan_id":"cebpf4jnsgd1na2vs0mg"},{"bike_id":"33735709-5386-45e3-b950-f6cc6451f860","system_id":"levelo_inurba_marseille","lat":43.30158,"lon":5.38086,"is_reserved":false,"is_disabled":false,"rental_uris":{"android":"levelo://app?vid=33735709-5386-45e3-b950-f6cc6451f860","ios":"levelo://app?vid=33735709-5386-45e3-b950-f6cc6451f860"},"vehicle_type_id":"4","last_reported":1740942401,"current_range_meters":3200,"station_id":"ce4bgjp2rcd13ifvqbh0","pricing_plan_id":"cebpf4jnsgd1na2vs0mg"},{"bike_id":"28e8e05c-0fc9-4624-a081-abb5eb924bf7","system_id":"levelo_inurba_marseille","lat":43.29603,"lon":5.38113,"is_reserved":false,"is_disabled":false,"rental_uris":{"android":"levelo://app?vid=28e8e05c-0fc9-4624-a081-abb5eb924bf7","ios":"levelo://app?vid=28e8e05c-0fc9-4624-a081-abb5eb924bf7"},"vehicle_type_id":"4","last_reported":1740942401,"current_range_meters":3200,"station_id":"ce4bgl12rcd13ifvqbo0","pricing_plan_id":"cebpf4jnsgd1na2vs0mg"},{"bike_id":"e42d167d-506c-44ee-b892-1bf1f2ef1c38","system_id":"levelo_inurba_marseille","lat":43.29722,"lon":5.3661,"is_reserved":false,"is_disabled":false,"rental_uris":{"android":"levelo://app?vid=e42d167d-506c-44ee-b892-1bf1f2ef1c38","ios":"levelo://app?vid=e42d167d-506c-44ee-b892-1bf1f2ef1c38"},"vehicle_type_id":"4","last_reported":1740942401,"current_range_meters":3200,"station_id":"ce4bgn12rcd13ifvqbt0","pricing_plan_id":"cebpf4jnsgd1na2vs0mg"},{"bike_id":"4b984f3b-b13f-499a-aec2-d9a3ff98d0d5","system_id":"levelo_inurba_marseille","lat":43.29715,"lon":5.36602,"is_reserved":false,"is_disabled":false,"rental_uris":{"android":"levelo://app?vid=4b984f3b-b13f-499a-aec2-d9a3ff98d0d5","ios":"levelo://app?vid=4b984f3b-b13f-499a-aec2-d9a3ff98d0d5"},"vehicle_type_id":"4","last_reported":1740942401,"current_range_meters":3200,"station_id":"ce4bgn12rcd13ifvqbt0","pricing_plan_id":"cebpf4jnsgd1na2vs0mg"},{"bike_id":"c5ecef9a-b710-4b96-915e-685597e5ef00","system_id":"levelo_inurba_marseille","lat":43.28922,"lon":5.38396,"is_reserved":false,"is_disabled":false,"rental_uris":{"android":"levelo://app?vid=c5ecef9a-b710-4b96-915e-685597e5ef00","ios":"levelo://app?vid=c5ecef9a-b710-4b96-915e-685597e5ef00"},"vehicle_type_id":"4","last_reported":1740942401,"current_range_meters":3200,"station_id":"ce4bh612rcd13ifvqe6g","pricing_plan_id":"cebpf4jnsgd1na2vs0mg"},{"bike_id":"910cc56f-d14a-4d9b-9f35-aa3a90d524ca","system_id":"levelo_inurba_marseille","lat":43.28931,"lon":5.36637,"is_reserved":false,"is_disabled":false,"rental_uris":{"android":"levelo://app?vid=910cc56f-d14a-4d9b-9f35-aa3a90d524ca","ios":"levelo://app?vid=910cc56f-d14a-4d9b-9f35-aa3a90d524ca"},"vehicle_type_id":"4","last_reported":1740942401,"current_range_meters":3200,"station_id":"ce4bhap2rcd13ifvqek0","pricing_plan_id":"cebpf4jnsgd1na2vs0mg"},{"bike_id":"93ef974d-9f4e-4d35-9854-9c852009c5cb","system_id":"levelo_inurba_marseille","lat":43.27425,"lon":5.39414,"is_reserved":false,"is_disabled":false,"rental_uris":{"android":"levelo://app?vid=93ef974d-9f4e-4d35-9854-9c852009c5cb","ios":"levelo://app?vid=93ef974d-9f4e-4d35-9854-9c852009c5cb"},"vehicle_type_id":"4","last_reported":1740942401,"current_range_meters":3200,"station_id":"ce4bhdp2rcd13ifvqf20","pricing_plan_id":"cebpf4jnsgd1na2vs0mg"},{"bike_id":"6cba8482-37f0-4900-8dc2-a8095f503fd4","system_id":"levelo_inurba_marseille","lat":43.27814,"lon":5.407,"is_reserved":false,"is_disabled":false,"rental_uris":{"android":"levelo://app?vid=6cba8482-37f0-4900-8dc2-a8095f503fd4","ios":"levelo://app?vid=6cba8482-37f0-4900-8dc2-a8095f503fd4"},"vehicle_type_id":"4","last_reported":1740942401,"current_range_meters":3200,"station_id":"ce4bhnh2rcd13ifvqgtg","pricing_plan_id":"cebpf4jnsgd1na2vs0mg"},{"bike_id":"452dcb55-19e7-4210-9210-4b976b4f3382","system_id":"levelo_inurba_marseille","lat":43.30359,"lon":5.41867,"is_reserved":false,"is_disabled":false,"rental_uris":{"android":"levelo://app?vid=452dcb55-19e7-4210-9210-4b976b4f3382","ios":"levelo://app?vid=452dcb55-19e7-4210-9210-4b976b4f3382"},"vehicle_type_id":"4","last_reported":1740942401,"current_range_meters":3200,"station_id":"ce4bhop2rcd13ifvqh7g","pricing_plan_id":"cebpf4jnsgd1na2vs0mg"},{"bike_id":"350f3b22-f02b-4468-acfe-48a009483283","system_id":"levelo_inurba_marseille","lat":43.31521,"lon":5.38036,"is_reserved":false,"is_disabled":false,"rental_uris":{"android":"levelo://app?vid=350f3b22-f02b-4468-acfe-48a009483283","ios":"levelo://app?vid=350f3b22-f02b-4468-acfe-48a009483283"},"vehicle_type_id":"4","last_reported":1740942401,"current_range_meters":3200,"station_id":"ce4bhsp2rcd13ifvqi50","pricing_plan_id":"cebpf4jnsgd1na2vs0mg"},{"bike_id":"66ae33df-fbc6-4aa1-9986-d03945e06b45","system_id":"levelo_inurba_marseille","lat":43.3021,"lon":5.39489,"is_reserved":false,"is_disabled":false,"rental_uris":{"android":"levelo://app?vid=66ae33df-fbc6-4aa1-9986-d03945e06b45","ios":"levelo://app?vid=66ae33df-fbc6-4aa1-9986-d03945e06b45"},"vehicle_type_id":"4","last_reported":1740942401,"current_range_meters":3600,"station_id":"ce4bgi92rcd13ifvqb90","pricing_plan_id":"cebpf4jnsgd1na2vs0mg"},{"bike_id":"6b225e68-9ccf-434f-872d-bdc2d6ef08ba","system_id":"levelo_inurba_marseille","lat":43.30802,"lon":5.38152,"is_reserved":false,"is_disabled":false,"rental_uris":{"android":"levelo://app?vid=6b225e68-9ccf-434f-872d-bdc2d6ef08ba","ios":"levelo://app?vid=6b225e68-9ccf-434f-872d-bdc2d6ef08ba"},"vehicle_type_id":"4","last_reported":1740942401,"current_range_meters":3600,"station_id":"ce4bgt12rcd13ifvqce0","pricing_plan_id":"cebpf4jnsgd1na2vs0mg"},{"bike_id":"dc6ada71-8356-4b08-9ef2-2141735d53eb","system_id":"levelo_inurba_marseille","lat":43.28675,"lon":5.38666,"is_reserved":false,"is_disabled":false,"rental_uris":{"android":"levelo://app?vid=dc6ada71-8356-4b08-9ef2-2141735d53eb","ios":"levelo://app?vid=dc6ada71-8356-4b08-9ef2-2141735d53eb"},"vehicle_type_id":"4","last_reported":1740942401,"current_range_meters":3600,"station_id":"ce4bh492rcd13ifvqdug","pricing_plan_id":"cebpf4jnsgd1na2vs0mg"},{"bike_id":"c4ab05d4-61ed-4597-920d-663c91a4fbef","system_id":"levelo_inurba_marseille","lat":43.27209,"lon":5.39186,"is_reserved":false,"is_disabled":false,"rental_uris":{"android":"levelo://app?vid=c4ab05d4-61ed-4597-920d-663c91a4fbef","ios":"levelo://app?vid=c4ab05d4-61ed-4597-920d-663c91a4fbef"},"vehicle_type_id":"4","last_reported":1740942401,"current_range_meters":3600,"station_id":"ce4bhhp2rcd13ifvqfm0","pricing_plan_id":"cebpf4jnsgd1na2vs0mg"},{"bike_id":"9c85a3ae-d4f2-4c6e-b8e6-0a44910a37c2","system_id":"levelo_inurba_marseille","lat":43.27833,"lon":5.40724,"is_reserved":false,"is_disabled":false,"rental_uris":{"android":"levelo://app?vid=9c85a3ae-d4f2-4c6e-b8e6-0a44910a37c2","ios":"levelo://app?vid=9c85a3ae-d4f2-4c6e-b8e6-0a44910a37c2"},"vehicle_type_id":"4","last_reported":1740942401,"current_range_meters":3600,"station_id":"ce4bhnh2rcd13ifvqgtg","pricing_plan_id":"cebpf4jnsgd1na2vs0mg"},{"bike_id":"a772da6b-aa7f-4f6a-b5cf-2b755917953d","system_id":"levelo_inurba_marseille","lat":43.2795,"lon":5.41034,"is_reserved":false,"is_disabled":false,"rental_uris":{"android":"levelo://app?vid=a772da6b-aa7f-4f6a-b5cf-2b755917953d","ios":"levelo://app?vid=a772da6b-aa7f-4f6a-b5cf-2b755917953d"},"vehicle_type_id":"4","last_reported":1740942401,"current_range_meters":3600,"station_id":"ce4bhnp2rcd13ifvqh0g","pricing_plan_id":"cebpf4jnsgd1na2vs0mg"},{"bike_id":"cd58efd8-c608-4a6e-b061-2d168f69929a","system_id":"levelo_inurba_marseille","lat":43.29913,"lon":5.3814,"is_reserved":false,"is_disabled":false,"rental_uris":{"android":"levelo://app?vid=cd58efd8-c608-4a6e-b061-2d168f69929a","ios":"levelo://app?vid=cd58efd8-c608-4a6e-b061-2d168f69929a"},"vehicle_type_id":"4","last_reported":1740942401,"current_range_meters":4000,"station_id":"ce4bgj12rcd13ifvqbc0","pricing_plan_id":"cebpf4jnsgd1na2vs0mg"},{"bike_id":"5f36c156-8e6a-4f51-bb05-727c5a79d6f6","system_id":"levelo_inurba_marseille","lat":43.27815,"lon":5.40718,"is_reserved":false,"is_disabled":false,"rental_uris":{"android":"levelo://app?vid=5f36c156-8e6a-4f51-bb05-727c5a79d6f6","ios":"levelo://app?vid=5f36c156-8e6a-4f51-bb05-727c5a79d6f6"},"vehicle_type_id":"4","last_reported":1740942401,"current_range_meters":4000,"station_id":"ce4bhnh2rcd13ifvqgtg","pricing_plan_id":"cebpf4jnsgd1na2vs0mg"},{"bike_id":"7bc7214f-a3c9-4502-bee5-eed4c6aa5a68","system_id":"levelo_inurba_marseille","lat":43.32686,"lon":5.42328,"is_reserved":false,"is_disabled":false,"rental_uris":{"android":"levelo://app?vid=7bc7214f-a3c9-4502-bee5-eed4c6aa5a68","ios":"levelo://app?vid=7bc7214f-a3c9-4502-bee5-eed4c6aa5a68"},"vehicle_type_id":"4","last_reported":1740942401,"current_range_meters":4400,"station_id":"","pricing_plan_id":"cebpf4jnsgd1na2vs0mg"},{"bike_id":"7660805f-77da-4cc7-b7de-c7029bcc7129","system_id":"levelo_inurba_marseille","lat":43.28081,"lon":5.39655,"is_reserved":false,"is_disabled":false,"rental_uris":{"android":"levelo://app?vid=7660805f-77da-4cc7-b7de-c7029bcc7129","ios":"levelo://app?vid=7660805f-77da-4cc7-b7de-c7029bcc7129"},"vehicle_type_id":"4","last_reported":1740942401,"current_range_meters":4400,"station_id":"ce4bho12rcd13ifvqh2g","pricing_plan_id":"cebpf4jnsgd1na2vs0mg"},{"bike_id":"0dce5f65-44b1-481f-8714-2e0034bf6622","system_id":"levelo_inurba_marseille","lat":43.27314,"lon":5.391,"is_reserved":false,"is_disabled":false,"rental_uris":{"android":"levelo://app?vid=0dce5f65-44b1-481f-8714-2e0034bf6622","ios":"levelo://app?vid=0dce5f65-44b1-481f-8714-2e0034bf6622"},"vehicle_type_id":"4","last_reported":1740942401,"current_range_meters":4800,"station_id":"ce4bhgp2rcd13ifvqfe0","pricing_plan_id":"cebpf4jnsgd1na2vs0mg"},{"bike_id":"f960c9f8-c1fb-4d43-8bcf-62c7cb564555","system_id":"levelo_inurba_marseille","lat":43.27807,"lon":5.40713,"is_reserved":false,"is_disabled":false,"rental_uris":{"android":"levelo://app?vid=f960c9f8-c1fb-4d43-8bcf-62c7cb564555","ios":"levelo://app?vid=f960c9f8-c1fb-4d43-8bcf-62c7cb564555"},"vehicle_type_id":"4","last_reported":1740942401,"current_range_meters":4800,"station_id":"ce4bhnh2rcd13ifvqgtg","pricing_plan_id":"cebpf4jnsgd1na2vs0mg"},{"bike_id":"6130471a-3e91-40d9-ab58-adc300217a91","system_id":"levelo_inurba_marseille","lat":43.28154,"lon":5.42645,"is_reserved":false,"is_disabled":false,"rental_uris":{"android":"levelo://app?vid=6130471a-3e91-40d9-ab58-adc300217a91","ios":"levelo://app?vid=6130471a-3e91-40d9-ab58-adc300217a91"},"vehicle_type_id":"4","last_reported":1740942401,"current_range_meters":4800,"station_id":"ce4bhnh2rcd13ifvqgug","pricing_plan_id":"cebpf4jnsgd1na2vs0mg"},{"bike_id":"fd29ec35-5e36-48cf-b730-40472773ec6d","system_id":"levelo_inurba_marseille","lat":43.29563,"lon":5.42276,"is_reserved":false,"is_disabled":false,"rental_uris":{"android":"levelo://app?vid=fd29ec35-5e36-48cf-b730-40472773ec6d","ios":"levelo://app?vid=fd29ec35-5e36-48cf-b730-40472773ec6d"},"vehicle_type_id":"4","last_reported":1740942401,"current_range_meters":4800,"station_id":"ce4bhph2rcd13ifvqhdg","pricing_plan_id":"cebpf4jnsgd1na2vs0mg"},{"bike_id":"4db896a5-a90f-41e7-8113-bb3d4df7a122","system_id":"levelo_inurba_marseille","lat":43.29789,"lon":5.38116,"is_reserved":false,"is_disabled":false,"rental_uris":{"android":"levelo://app?vid=4db896a5-a90f-41e7-8113-bb3d4df7a122","ios":"levelo://app?vid=4db896a5-a90f-41e7-8113-bb3d4df7a122"},"vehicle_type_id":"4","last_reported":1740942401,"current_range_meters":5600,"station_id":"ce4bgip2rcd13ifvqbb0","pricing_plan_id":"cebpf4jnsgd1na2vs0mg"},{"bike_id":"2ef6a2ae-db89-462f-bca2-d2a30fd9d1d6","system_id":"levelo_inurba_marseille","lat":43.2956,"lon":5.42292,"is_reserved":false,"is_disabled":false,"rental_uris":{"android":"levelo://app?vid=2ef6a2ae-db89-462f-bca2-d2a30fd9d1d6","ios":"levelo://app?vid=2ef6a2ae-db89-462f-bca2-d2a30fd9d1d6"},"vehicle_type_id":"4","last_reported":1740942401,"current_range_meters":5600,"station_id":"ce4bhph2rcd13ifvqhdg","pricing_plan_id":"cebpf4jnsgd1na2vs0mg"},{"bike_id":"6d5b8f49-c361-451b-94de-c292ce1a4faa","system_id":"levelo_inurba_marseille","lat":43.29938,"lon":5.36535,"is_reserved":false,"is_disabled":false,"rental_uris":{"android":"levelo://app?vid=6d5b8f49-c361-451b-94de-c292ce1a4faa","ios":"levelo://app?vid=6d5b8f49-c361-451b-94de-c292ce1a4faa"},"vehicle_type_id":"4","last_reported":1740942401,"current_range_meters":6000,"station_id":"ce4bgm92rcd13ifvqbr0","pricing_plan_id":"cebpf4jnsgd1na2vs0mg"},{"bike_id":"347daf19-9526-479a-99e8-5d7299d11e1d","system_id":"levelo_inurba_marseille","lat":43.30314,"lon":5.36876,"is_reserved":false,"is_disabled":false,"rental_uris":{"android":"levelo://app?vid=347daf19-9526-479a-99e8-5d7299d11e1d","ios":"levelo://app?vid=347daf19-9526-479a-99e8-5d7299d11e1d"},"vehicle_type_id":"4","last_reported":1740942401,"current_range_meters":6000,"station_id":"ce4bgqh2rcd13ifvqc5g","pricing_plan_id":"cebpf4jnsgd1na2vs0mg"},{"bike_id":"6d4933b5-8743-48d6-9e00-a5b6c3841845","system_id":"levelo_inurba_marseille","lat":43.27826,"lon":5.40709,"is_reserved":false,"is_disabled":false,"rental_uris":{"android":"levelo://app?vid=6d4933b5-8743-48d6-9e00-a5b6c3841845","ios":"levelo://app?vid=6d4933b5-8743-48d6-9e00-a5b6c3841845"},"vehicle_type_id":"4","last_reported":1740942401,"current_range_meters":6000,"station_id":"ce4bhnh2rcd13ifvqgtg","pricing_plan_id":"cebpf4jnsgd1na2vs0mg"},{"bike_id":"53ebed9a-fd1a-4d94-96e3-0c8bc5887ace","system_id":"levelo_inurba_marseille","lat":43.31418,"lon":5.39352,"is_reserved":false,"is_disabled":false,"rental_uris":{"android":"levelo://app?vid=53ebed9a-fd1a-4d94-96e3-0c8bc5887ace","ios":"levelo://app?vid=53ebed9a-fd1a-4d94-96e3-0c8bc5887ace"},"vehicle_type_id":"4","last_reported":1740942401,"current_range_meters":6400,"station_id":"","pricing_plan_id":"cebpf4jnsgd1na2vs0mg"},{"bike_id":"8495d6e7-63fe-4b59-b888-8a50c2cca97a","system_id":"levelo_inurba_marseille","lat":43.28355,"lon":5.38112,"is_reserved":false,"is_disabled":false,"rental_uris":{"android":"levelo://app?vid=8495d6e7-63fe-4b59-b888-8a50c2cca97a","ios":"levelo://app?vid=8495d6e7-63fe-4b59-b888-8a50c2cca97a"},"vehicle_type_id":"4","last_reported":1740942401,"current_range_meters":6400,"station_id":"ce4bh412rcd13ifvqdr0","pricing_plan_id":"cebpf4jnsgd1na2vs0mg"},{"bike_id":"b4885ea7-931a-407b-beea-f03e677a29a3","system_id":"levelo_inurba_marseille","lat":43.23963,"lon":5.36633,"is_reserved":false,"is_disabled":false,"rental_uris":{"android":"levelo://app?vid=b4885ea7-931a-407b-beea-f03e677a29a3","ios":"levelo://app?vid=b4885ea7-931a-407b-beea-f03e677a29a3"},"vehicle_type_id":"4","last_reported":1740942401,"current_range_meters":6400,"station_id":"ce4bhi12rcd13ifvqfp0","pricing_plan_id":"cebpf4jnsgd1na2vs0mg"},{"bike_id":"1e3a19f9-fc5e-415b-be73-757a201ca23e","system_id":"levelo_inurba_marseille","lat":43.27812,"lon":5.40723,"is_reserved":false,"is_disabled":false,"rental_uris":{"android":"levelo://app?vid=1e3a19f9-fc5e-415b-be73-757a201ca23e","ios":"levelo://app?vid=1e3a19f9-fc5e-415b-be73-757a201ca23e"},"vehicle_type_id":"4","last_reported":1740942401,"current_range_meters":6400,"station_id":"ce4bhnh2rcd13ifvqgtg","pricing_plan_id":"cebpf4jnsgd1na2vs0mg"},{"bike_id":"0c4e757c-3c25-41ec-b62f-429ea115924f","system_id":"levelo_inurba_marseille","lat":43.30056,"lon":5.38557,"is_reserved":false,"is_disabled":false,"rental_uris":{"android":"levelo://app?vid=0c4e757c-3c25-41ec-b62f-429ea115924f","ios":"levelo://app?vid=0c4e757c-3c25-41ec-b62f-429ea115924f"},"vehicle_type_id":"4","last_reported":1740942401,"current_range_meters":6800,"station_id":"","pricing_plan_id":"cebpf4jnsgd1na2vs0mg"},{"bike_id":"7c32870a-aa40-4738-9f54-8d087d824248","system_id":"levelo_inurba_marseille","lat":43.29721,"lon":5.37701,"is_reserved":false,"is_disabled":false,"rental_uris":{"android":"levelo://app?vid=7c32870a-aa40-4738-9f54-8d087d824248","ios":"levelo://app?vid=7c32870a-aa40-4738-9f54-8d087d824248"},"vehicle_type_id":"4","last_reported":1740942401,"current_range_meters":6800,"station_id":"ce4bgkh2rcd13ifvqbl0","pricing_plan_id":"cebpf4jnsgd1na2vs0mg"},{"bike_id":"d7170d9f-313b-476f-94e5-b3b4b958f30b","system_id":"levelo_inurba_marseille","lat":43.30593,"lon":5.37214,"is_reserved":false,"is_disabled":false,"rental_uris":{"android":"levelo://app?vid=d7170d9f-313b-476f-94e5-b3b4b958f30b","ios":"levelo://app?vid=d7170d9f-313b-476f-94e5-b3b4b958f30b"},"vehicle_type_id":"4","last_reported":1740942401,"current_range_meters":6800,"station_id":"ce4bgqh2rcd13ifvqc4g","pricing_plan_id":"cebpf4jnsgd1na2vs0mg"},{"bike_id":"8ea0904d-b172-4059-85b3-71ae0096b3a6","system_id":"levelo_inurba_marseille","lat":43.29879,"lon":5.39738,"is_reserved":false,"is_disabled":false,"rental_uris":{"android":"levelo://app?vid=8ea0904d-b172-4059-85b3-71ae0096b3a6","ios":"levelo://app?vid=8ea0904d-b172-4059-85b3-71ae0096b3a6"},"vehicle_type_id":"4","last_reported":1740942401,"current_range_meters":6800,"station_id":"ce4bh0h2rcd13ifvqd50","pricing_plan_id":"cebpf4jnsgd1na2vs0mg"},{"bike_id":"5565e9b3-27e1-4899-bd00-b7a7087c733a","system_id":"levelo_inurba_marseille","lat":43.29262,"lon":5.38438,"is_reserved":false,"is_disabled":false,"rental_uris":{"android":"levelo://app?vid=5565e9b3-27e1-4899-bd00-b7a7087c733a","ios":"levelo://app?vid=5565e9b3-27e1-4899-bd00-b7a7087c733a"},"vehicle_type_id":"4","last_reported":1740942401,"current_range_meters":6800,"station_id":"ce4bh692rcd13ifvqea0","pricing_plan_id":"cebpf4jnsgd1na2vs0mg"},{"bike_id":"b811c60a-6933-40a7-84ba-ba9cab9803d2","system_id":"levelo_inurba_marseille","lat":43.25007,"lon":5.38937,"is_reserved":false,"is_disabled":false,"rental_uris":{"android":"levelo://app?vid=b811c60a-6933-40a7-84ba-ba9cab9803d2","ios":"levelo://app?vid=b811c60a-6933-40a7-84ba-ba9cab9803d2"},"vehicle_type_id":"4","last_reported":1740942401,"current_range_meters":6800,"station_id":"ce4bhgp2rcd13ifvqfd0","pricing_plan_id":"cebpf4jnsgd1na2vs0mg"},{"bike_id":"c54897dd-1cd9-48eb-8da8-cedae07f6dd2","system_id":"levelo_inurba_marseille","lat":43.27203,"lon":5.39184,"is_reserved":false,"is_disabled":false,"rental_uris":{"android":"levelo://app?vid=c54897dd-1cd9-48eb-8da8-cedae07f6dd2","ios":"levelo://app?vid=c54897dd-1cd9-48eb-8da8-cedae07f6dd2"},"vehicle_type_id":"4","last_reported":1740942401,"current_range_meters":6800,"station_id":"ce4bhhp2rcd13ifvqfm0","pricing_plan_id":"cebpf4jnsgd1na2vs0mg"},{"bike_id":"7eee2403-99a7-463a-9751-125ed8da2c18","system_id":"levelo_inurba_marseille","lat":43.25872,"lon":5.39895,"is_reserved":false,"is_disabled":false,"rental_uris":{"android":"levelo://app?vid=7eee2403-99a7-463a-9751-125ed8da2c18","ios":"levelo://app?vid=7eee2403-99a7-463a-9751-125ed8da2c18"},"vehicle_type_id":"4","last_reported":1740942401,"current_range_meters":6800,"station_id":"ce4bhl92rcd13ifvqghg","pricing_plan_id":"cebpf4jnsgd1na2vs0mg"},{"bike_id":"73a4f0a9-2a9c-4839-80b8-acd05a8f539c","system_id":"levelo_inurba_marseille","lat":43.28679,"lon":5.37401,"is_reserved":false,"is_disabled":false,"rental_uris":{"android":"levelo://app?vid=73a4f0a9-2a9c-4839-80b8-acd05a8f539c","ios":"levelo://app?vid=73a4f0a9-2a9c-4839-80b8-acd05a8f539c"},"vehicle_type_id":"4","last_reported":1740942401,"current_range_meters":7200,"station_id":"ce4bh3p2rcd13ifvqdq0","pricing_plan_id":"cebpf4jnsgd1na2vs0mg"},{"bike_id":"e91dd802-9893-4dd1-b979-4763891cd51e","system_id":"levelo_inurba_marseille","lat":43.28428,"lon":5.34987,"is_reserved":false,"is_disabled":false,"rental_uris":{"android":"levelo://app?vid=e91dd802-9893-4dd1-b979-4763891cd51e","ios":"levelo://app?vid=e91dd802-9893-4dd1-b979-4763891cd51e"},"vehicle_type_id":"4","last_reported":1740942401,"current_range_meters":7200,"station_id":"ce4bhbh2rcd13ifvqepg","pricing_plan_id":"cebpf4jnsgd1na2vs0mg"},{"bike_id":"2baa42cb-e0c1-4d09-abff-60f3461b35e1","system_id":"levelo_inurba_marseille","lat":43.27396,"lon":5.3938,"is_reserved":false,"is_disabled":false,"rental_uris":{"android":"levelo://app?vid=2baa42cb-e0c1-4d09-abff-60f3461b35e1","ios":"levelo://app?vid=2baa42cb-e0c1-4d09-abff-60f3461b35e1"},"vehicle_type_id":"4","last_reported":1740942401,"current_range_meters":7200,"station_id":"ce4bhdp2rcd13ifvqf20","pricing_plan_id":"cebpf4jnsgd1na2vs0mg"},{"bike_id":"318dcb1b-9247-409e-9dad-ff18bd11104d","system_id":"levelo_inurba_marseille","lat":43.24809,"lon":5.37453,"is_reserved":false,"is_disabled":false,"rental_uris":{"android":"levelo://app?vid=318dcb1b-9247-409e-9dad-ff18bd11104d","ios":"levelo://app?vid=318dcb1b-9247-409e-9dad-ff18bd11104d"},"vehicle_type_id":"4","last_reported":1740942401,"current_range_meters":7200,"station_id":"ce4bhgh2rcd13ifvqfb0","pricing_plan_id":"cebpf4jnsgd1na2vs0mg"},{"bike_id":"657afcfe-69ff-4f9d-b68c-bfa5bf30ed49","system_id":"levelo_inurba_marseille","lat":43.27822,"lon":5.40718,"is_reserved":false,"is_disabled":false,"rental_uris":{"android":"levelo://app?vid=657afcfe-69ff-4f9d-b68c-bfa5bf30ed49","ios":"levelo://app?vid=657afcfe-69ff-4f9d-b68c-bfa5bf30ed49"},"vehicle_type_id":"4","last_reported":1740942401,"current_range_meters":7200,"station_id":"ce4bhnh2rcd13ifvqgtg","pricing_plan_id":"cebpf4jnsgd1na2vs0mg"},{"bike_id":"37bbdd89-7211-4646-9c8b-e8c902ba19b3","system_id":"levelo_inurba_marseille","lat":43.29557,"lon":5.42286,"is_reserved":false,"is_disabled":false,"rental_uris":{"android":"levelo://app?vid=37bbdd89-7211-4646-9c8b-e8c902ba19b3","ios":"levelo://app?vid=37bbdd89-7211-4646-9c8b-e8c902ba19b3"},"vehicle_type_id":"4","last_reported":1740942401,"current_range_meters":7200,"station_id":"ce4bhph2rcd13ifvqhdg","pricing_plan_id":"cebpf4jnsgd1na2vs0mg"},{"bike_id":"529e9b56-2001-45da-9e9e-9493d2361a0b","system_id":"levelo_inurba_marseille","lat":43.26811,"lon":5.40249,"is_reserved":false,"is_disabled":false,"rental_uris":{"android":"levelo://app?vid=529e9b56-2001-45da-9e9e-9493d2361a0b","ios":"levelo://app?vid=529e9b56-2001-45da-9e9e-9493d2361a0b"},"vehicle_type_id":"4","last_reported":1740942401,"current_range_meters":7200,"station_id":"ce501612rcd8frsf0b60","pricing_plan_id":"cebpf4jnsgd1na2vs0mg"},{"bike_id":"8217e781-cc2d-40ba-8630-da9e9cd38df0","system_id":"levelo_inurba_marseille","lat":43.26939,"lon":5.40254,"is_reserved":false,"is_disabled":false,"rental_uris":{"android":"levelo://app?vid=8217e781-cc2d-40ba-8630-da9e9cd38df0","ios":"levelo://app?vid=8217e781-cc2d-40ba-8630-da9e9cd38df0"},"vehicle_type_id":"4","last_reported":1740942401,"current_range_meters":7200,"station_id":"cjm6bp8fraef2m0cb0m0","pricing_plan_id":"cebpf4jnsgd1na2vs0mg"},{"bike_id":"eafe4694-db55-4cde-85aa-971c3787bde8","system_id":"levelo_inurba_marseille","lat":43.24161,"lon":5.36428,"is_reserved":false,"is_disabled":false,"rental_uris":{"android":"levelo://app?vid=eafe4694-db55-4cde-85aa-971c3787bde8","ios":"levelo://app?vid=eafe4694-db55-4cde-85aa-971c3787bde8"},"vehicle_type_id":"4","last_reported":1740942401,"current_range_meters":7200,"station_id":"cpo36qri1sfpv3e86is0","pricing_plan_id":"cebpf4jnsgd1na2vs0mg"},{"bike_id":"3cbb5843-7d6f-4ab1-8221-c879ecca96e4","system_id":"levelo_inurba_marseille","lat":43.32711,"lon":5.36315,"is_reserved":false,"is_disabled":false,"rental_uris":{"android":"levelo://app?vid=3cbb5843-7d6f-4ab1-8221-c879ecca96e4","ios":"levelo://app?vid=3cbb5843-7d6f-4ab1-8221-c879ecca96e4"},"vehicle_type_id":"4","last_reported":1740942401,"current_range_meters":8000,"station_id":"","pricing_plan_id":"cebpf4jnsgd1na2vs0mg"},{"bike_id":"cba1875a-1306-4873-b867-9e889b59a530","system_id":"levelo_inurba_marseille","lat":43.29712,"lon":5.37712,"is_reserved":false,"is_disabled":false,"rental_uris":{"android":"levelo://app?vid=cba1875a-1306-4873-b867-9e889b59a530","ios":"levelo://app?vid=cba1875a-1306-4873-b867-9e889b59a530"},"vehicle_type_id":"4","last_reported":1740942401,"current_range_meters":8000,"station_id":"ce4bgkh2rcd13ifvqbl0","pricing_plan_id":"cebpf4jnsgd1na2vs0mg"},{"bike_id":"27ee9ae2-c5e7-4c2e-ad90-0c911cf7f55f","system_id":"levelo_inurba_marseille","lat":43.25006,"lon":5.38918,"is_reserved":false,"is_disabled":false,"rental_uris":{"android":"levelo://app?vid=27ee9ae2-c5e7-4c2e-ad90-0c911cf7f55f","ios":"levelo://app?vid=27ee9ae2-c5e7-4c2e-ad90-0c911cf7f55f"},"vehicle_type_id":"4","last_reported":1740942401,"current_range_meters":8000,"station_id":"ce4bhgp2rcd13ifvqfd0","pricing_plan_id":"cebpf4jnsgd1na2vs0mg"},{"bike_id":"59acd8f1-fe25-4f7b-90e6-830f3a0c7613","system_id":"levelo_inurba_marseille","lat":43.27323,"lon":5.3906,"is_reserved":false,"is_disabled":false,"rental_uris":{"android":"levelo://app?vid=59acd8f1-fe25-4f7b-90e6-830f3a0c7613","ios":"levelo://app?vid=59acd8f1-fe25-4f7b-90e6-830f3a0c7613"},"vehicle_type_id":"4","last_reported":1740942401,"current_range_meters":8000,"station_id":"ce4bhgp2rcd13ifvqfe0","pricing_plan_id":"cebpf4jnsgd1na2vs0mg"},{"bike_id":"5e2f1c1c-b88b-490b-8fb4-30d4f19d3ef2","system_id":"levelo_inurba_marseille","lat":43.27213,"lon":5.39184,"is_reserved":false,"is_disabled":false,"rental_uris":{"android":"levelo://app?vid=5e2f1c1c-b88b-490b-8fb4-30d4f19d3ef2","ios":"levelo://app?vid=5e2f1c1c-b88b-490b-8fb4-30d4f19d3ef2"},"vehicle_type_id":"4","last_reported":1740942401,"current_range_meters":8000,"station_id":"ce4bhhp2rcd13ifvqfm0","pricing_plan_id":"cebpf4jnsgd1na2vs0mg"},{"bike_id":"3b899ec8-5a44-4ffd-8e3c-ea3713149e76","system_id":"levelo_inurba_marseille","lat":43.2572,"lon":5.41105,"is_reserved":false,"is_disabled":false,"rental_uris":{"android":"levelo://app?vid=3b899ec8-5a44-4ffd-8e3c-ea3713149e76","ios":"levelo://app?vid=3b899ec8-5a44-4ffd-8e3c-ea3713149e76"},"vehicle_type_id":"4","last_reported":1740942401,"current_range_meters":8000,"station_id":"ce4bhkp2rcd13ifvqgd0","pricing_plan_id":"cebpf4jnsgd1na2vs0mg"},{"bike_id":"e87fc7e2-6513-4d4f-a0eb-d1ea2f7af553","system_id":"levelo_inurba_marseille","lat":43.27813,"lon":5.40707,"is_reserved":false,"is_disabled":false,"rental_uris":{"android":"levelo://app?vid=e87fc7e2-6513-4d4f-a0eb-d1ea2f7af553","ios":"levelo://app?vid=e87fc7e2-6513-4d4f-a0eb-d1ea2f7af553"},"vehicle_type_id":"4","last_reported":1740942401,"current_range_meters":8000,"station_id":"ce4bhnh2rcd13ifvqgtg","pricing_plan_id":"cebpf4jnsgd1na2vs0mg"},{"bike_id":"4320d103-322d-4d96-86a8-99897045ae34","system_id":"levelo_inurba_marseille","lat":43.24082,"lon":5.3775,"is_reserved":false,"is_disabled":false,"rental_uris":{"android":"levelo://app?vid=4320d103-322d-4d96-86a8-99897045ae34","ios":"levelo://app?vid=4320d103-322d-4d96-86a8-99897045ae34"},"vehicle_type_id":"4","last_reported":1740942401,"current_range_meters":8000,"station_id":"ce4bhnp2rcd13ifvqgvg","pricing_plan_id":"cebpf4jnsgd1na2vs0mg"},{"bike_id":"00d6971b-d44e-4efa-846c-404f63e7c12e","system_id":"levelo_inurba_marseille","lat":43.29557,"lon":5.42285,"is_reserved":false,"is_disabled":false,"rental_uris":{"android":"levelo://app?vid=00d6971b-d44e-4efa-846c-404f63e7c12e","ios":"levelo://app?vid=00d6971b-d44e-4efa-846c-404f63e7c12e"},"vehicle_type_id":"4","last_reported":1740942401,"current_range_meters":8000,"station_id":"ce4bhph2rcd13ifvqhdg","pricing_plan_id":"cebpf4jnsgd1na2vs0mg"},{"bike_id":"3a00af1d-64b3-4f0c-9ae0-dc76fb5014f4","system_id":"levelo_inurba_marseille","lat":43.29565,"lon":5.4226,"is_reserved":false,"is_disabled":false,"rental_uris":{"android":"levelo://app?vid=3a00af1d-64b3-4f0c-9ae0-dc76fb5014f4","ios":"levelo://app?vid=3a00af1d-64b3-4f0c-9ae0-dc76fb5014f4"},"vehicle_type_id":"4","last_reported":1740942401,"current_range_meters":8000,"station_id":"ce4bhph2rcd13ifvqhdg","pricing_plan_id":"cebpf4jnsgd1na2vs0mg"},{"bike_id":"0e4d5d36-7d5d-4fbf-9597-759cc9a1b223","system_id":"levelo_inurba_marseille","lat":43.30563,"lon":5.37246,"is_reserved":false,"is_disabled":false,"rental_uris":{"android":"levelo://app?vid=0e4d5d36-7d5d-4fbf-9597-759cc9a1b223","ios":"levelo://app?vid=0e4d5d36-7d5d-4fbf-9597-759cc9a1b223"},"vehicle_type_id":"4","last_reported":1740942401,"current_range_meters":8400,"station_id":"","pricing_plan_id":"cebpf4jnsgd1na2vs0mg"},{"bike_id":"d149ba3b-206e-46a0-8a3f-7909f974e9bd","system_id":"levelo_inurba_marseille","lat":43.30039,"lon":5.40179,"is_reserved":false,"is_disabled":false,"rental_uris":{"android":"levelo://app?vid=d149ba3b-206e-46a0-8a3f-7909f974e9bd","ios":"levelo://app?vid=d149ba3b-206e-46a0-8a3f-7909f974e9bd"},"vehicle_type_id":"4","last_reported":1740942401,"current_range_meters":8400,"station_id":"","pricing_plan_id":"cebpf4jnsgd1na2vs0mg"},{"bike_id":"7ce6bc7d-5b48-49a1-ad37-e4efbb58df49","system_id":"levelo_inurba_marseille","lat":43.29919,"lon":5.37491,"is_reserved":false,"is_disabled":false,"rental_uris":{"android":"levelo://app?vid=7ce6bc7d-5b48-49a1-ad37-e4efbb58df49","ios":"levelo://app?vid=7ce6bc7d-5b48-49a1-ad37-e4efbb58df49"},"vehicle_type_id":"4","last_reported":1740942401,"current_range_meters":8400,"station_id":"ce4bgjh2rcd13ifvqbg0","pricing_plan_id":"cebpf4jnsgd1na2vs0mg"},{"bike_id":"2b7b7264-92b1-45e0-a899-6d1586a13ac5","system_id":"levelo_inurba_marseille","lat":43.29417,"lon":5.38631,"is_reserved":false,"is_disabled":false,"rental_uris":{"android":"levelo://app?vid=2b7b7264-92b1-45e0-a899-6d1586a13ac5","ios":"levelo://app?vid=2b7b7264-92b1-45e0-a899-6d1586a13ac5"},"vehicle_type_id":"4","last_reported":1740942401,"current_range_meters":8400,"station_id":"ce4bh2h2rcd13ifvqdh0","pricing_plan_id":"cebpf4jnsgd1na2vs0mg"},{"bike_id":"83c7fa8f-f26c-41fd-b2be-17f7e1a9712e","system_id":"levelo_inurba_marseille","lat":43.28486,"lon":5.38419,"is_reserved":false,"is_disabled":false,"rental_uris":{"android":"levelo://app?vid=83c7fa8f-f26c-41fd-b2be-17f7e1a9712e","ios":"levelo://app?vid=83c7fa8f-f26c-41fd-b2be-17f7e1a9712e"},"vehicle_type_id":"4","last_reported":1740942401,"current_range_meters":8400,"station_id":"ce4bh512rcd13ifvqe3g","pricing_plan_id":"cebpf4jnsgd1na2vs0mg"},{"bike_id":"e8575204-f432-441b-a5e8-80cf89cf245a","system_id":"levelo_inurba_marseille","lat":43.26787,"lon":5.39421,"is_reserved":false,"is_disabled":false,"rental_uris":{"android":"levelo://app?vid=e8575204-f432-441b-a5e8-80cf89cf245a","ios":"levelo://app?vid=e8575204-f432-441b-a5e8-80cf89cf245a"},"vehicle_type_id":"4","last_reported":1740942401,"current_range_meters":8400,"station_id":"ce4bhh12rcd13ifvqfg0","pricing_plan_id":"cebpf4jnsgd1na2vs0mg"},{"bike_id":"24486769-e612-469e-8133-e07f00e33e25","system_id":"levelo_inurba_marseille","lat":43.26809,"lon":5.39413,"is_reserved":false,"is_disabled":false,"rental_uris":{"android":"levelo://app?vid=24486769-e612-469e-8133-e07f00e33e25","ios":"levelo://app?vid=24486769-e612-469e-8133-e07f00e33e25"},"vehicle_type_id":"4","last_reported":1740942401,"current_range_meters":8400,"station_id":"ce4bhh12rcd13ifvqfg0","pricing_plan_id":"cebpf4jnsgd1na2vs0mg"},{"bike_id":"20bc478e-c3a8-4799-a9f1-63e6df54eae1","system_id":"levelo_inurba_marseille","lat":43.2781,"lon":5.40712,"is_reserved":false,"is_disabled":false,"rental_uris":{"android":"levelo://app?vid=20bc478e-c3a8-4799-a9f1-63e6df54eae1","ios":"levelo://app?vid=20bc478e-c3a8-4799-a9f1-63e6df54eae1"},"vehicle_type_id":"4","last_reported":1740942401,"current_range_meters":8400,"station_id":"ce4bhnh2rcd13ifvqgtg","pricing_plan_id":"cebpf4jnsgd1na2vs0mg"},{"bike_id":"34763611-ebe6-4cc1-8950-30c66c591f5c","system_id":"levelo_inurba_marseille","lat":43.33017,"lon":5.39044,"is_reserved":false,"is_disabled":false,"rental_uris":{"android":"levelo://app?vid=34763611-ebe6-4cc1-8950-30c66c591f5c","ios":"levelo://app?vid=34763611-ebe6-4cc1-8950-30c66c591f5c"},"vehicle_type_id":"4","last_reported":1740942401,"current_range_meters":8400,"station_id":"ce4bhr92rcd13ifvqhrg","pricing_plan_id":"cebpf4jnsgd1na2vs0mg"},{"bike_id":"60cb851a-14b2-48f6-8511-6a80cee0eeea","system_id":"levelo_inurba_marseille","lat":43.2694,"lon":5.40248,"is_reserved":false,"is_disabled":false,"rental_uris":{"android":"levelo://app?vid=60cb851a-14b2-48f6-8511-6a80cee0eeea","ios":"levelo://app?vid=60cb851a-14b2-48f6-8511-6a80cee0eeea"},"vehicle_type_id":"4","last_reported":1740942401,"current_range_meters":8400,"station_id":"cjm6bp8fraef2m0cb0m0","pricing_plan_id":"cebpf4jnsgd1na2vs0mg"},{"bike_id":"0693b9d6-4a9d-4e38-bfa2-80f934bcc2e3","system_id":"levelo_inurba_marseille","lat":43.241687,"lon":5.364008,"is_reserved":false,"is_disabled":false,"rental_uris":{"android":"levelo://app?vid=0693b9d6-4a9d-4e38-bfa2-80f934bcc2e3","ios":"levelo://app?vid=0693b9d6-4a9d-4e38-bfa2-80f934bcc2e3"},"vehicle_type_id":"4","last_reported":1740942401,"current_range_meters":8400,"station_id":"cpo36qri1sfpv3e86is0","pricing_plan_id":"cebpf4jnsgd1na2vs0mg"},{"bike_id":"f53a24c7-b4ca-4142-8ba4-47df0ddfac13","system_id":"levelo_inurba_marseille","lat":43.30879,"lon":5.36861,"is_reserved":false,"is_disabled":false,"rental_uris":{"android":"levelo://app?vid=f53a24c7-b4ca-4142-8ba4-47df0ddfac13","ios":"levelo://app?vid=f53a24c7-b4ca-4142-8ba4-47df0ddfac13"},"vehicle_type_id":"4","last_reported":1740942401,"current_range_meters":8800,"station_id":"ce4bgn92rcd13ifvqbvg","pricing_plan_id":"cebpf4jnsgd1na2vs0mg"},{"bike_id":"d6af2a55-e22c-4b16-9b22-aa5c12070e67","system_id":"levelo_inurba_marseille","lat":43.30311,"lon":5.36928,"is_reserved":false,"is_disabled":false,"rental_uris":{"android":"levelo://app?vid=d6af2a55-e22c-4b16-9b22-aa5c12070e67","ios":"levelo://app?vid=d6af2a55-e22c-4b16-9b22-aa5c12070e67"},"vehicle_type_id":"4","last_reported":1740942401,"current_range_meters":8800,"station_id":"ce4bgqh2rcd13ifvqc5g","pricing_plan_id":"cebpf4jnsgd1na2vs0mg"},{"bike_id":"ff91c29b-a03b-4550-a8e8-49e99cb9a8a1","system_id":"levelo_inurba_marseille","lat":43.29264,"lon":5.38434,"is_reserved":false,"is_disabled":false,"rental_uris":{"android":"levelo://app?vid=ff91c29b-a03b-4550-a8e8-49e99cb9a8a1","ios":"levelo://app?vid=ff91c29b-a03b-4550-a8e8-49e99cb9a8a1"},"vehicle_type_id":"4","last_reported":1740942401,"current_range_meters":8800,"station_id":"ce4bh692rcd13ifvqea0","pricing_plan_id":"cebpf4jnsgd1na2vs0mg"},{"bike_id":"430636de-8931-4756-b625-02c5a2df1f69","system_id":"levelo_inurba_marseille","lat":43.26785,"lon":5.39413,"is_reserved":false,"is_disabled":false,"rental_uris":{"android":"levelo://app?vid=430636de-8931-4756-b625-02c5a2df1f69","ios":"levelo://app?vid=430636de-8931-4756-b625-02c5a2df1f69"},"vehicle_type_id":"4","last_reported":1740942401,"current_range_meters":8800,"station_id":"ce4bhh12rcd13ifvqfg0","pricing_plan_id":"cebpf4jnsgd1na2vs0mg"},{"bike_id":"5365f3e3-1095-4284-be0e-5e73a795384b","system_id":"levelo_inurba_marseille","lat":43.25731,"lon":5.41095,"is_reserved":false,"is_disabled":false,"rental_uris":{"android":"levelo://app?vid=5365f3e3-1095-4284-be0e-5e73a795384b","ios":"levelo://app?vid=5365f3e3-1095-4284-be0e-5e73a795384b"},"vehicle_type_id":"4","last_reported":1740942401,"current_range_meters":8800,"station_id":"ce4bhkp2rcd13ifvqgd0","pricing_plan_id":"cebpf4jnsgd1na2vs0mg"},{"bike_id":"59ef5800-ff3c-4c18-9229-7ba16507dc77","system_id":"levelo_inurba_marseille","lat":43.27818,"lon":5.40716,"is_reserved":false,"is_disabled":false,"rental_uris":{"android":"levelo://app?vid=59ef5800-ff3c-4c18-9229-7ba16507dc77","ios":"levelo://app?vid=59ef5800-ff3c-4c18-9229-7ba16507dc77"},"vehicle_type_id":"4","last_reported":1740942401,"current_range_meters":8800,"station_id":"ce4bhnh2rcd13ifvqgtg","pricing_plan_id":"cebpf4jnsgd1na2vs0mg"},{"bike_id":"765f1682-808a-46a1-93fb-f92ca578247d","system_id":"levelo_inurba_marseille","lat":43.30657,"lon":5.40064,"is_reserved":false,"is_disabled":false,"rental_uris":{"android":"levelo://app?vid=765f1682-808a-46a1-93fb-f92ca578247d","ios":"levelo://app?vid=765f1682-808a-46a1-93fb-f92ca578247d"},"vehicle_type_id":"4","last_reported":1740942401,"current_range_meters":9200,"station_id":"ce4bh112rcd13ifvqda0","pricing_plan_id":"cebpf4jnsgd1na2vs0mg"},{"bike_id":"bca92f86-7941-4047-9234-084542ba7f68","system_id":"levelo_inurba_marseille","lat":43.29521,"lon":5.394095,"is_reserved":false,"is_disabled":false,"rental_uris":{"android":"levelo://app?vid=bca92f86-7941-4047-9234-084542ba7f68","ios":"levelo://app?vid=bca92f86-7941-4047-9234-084542ba7f68"},"vehicle_type_id":"4","last_reported":1740942401,"current_range_meters":9200,"station_id":"ce4bh292rcd13ifvqdf0","pricing_plan_id":"cebpf4jnsgd1na2vs0mg"},{"bike_id":"8e334fa8-00a2-4896-82fc-60f3535d796c","system_id":"levelo_inurba_marseille","lat":43.29047,"lon":5.38692,"is_reserved":false,"is_disabled":false,"rental_uris":{"android":"levelo://app?vid=8e334fa8-00a2-4896-82fc-60f3535d796c","ios":"levelo://app?vid=8e334fa8-00a2-4896-82fc-60f3535d796c"},"vehicle_type_id":"4","last_reported":1740942401,"current_range_meters":9200,"station_id":"ce4bh4p2rcd13ifvqe0g","pricing_plan_id":"cebpf4jnsgd1na2vs0mg"},{"bike_id":"adf63bbb-eaa0-45a7-a944-bf55da192429","system_id":"levelo_inurba_marseille","lat":43.29273,"lon":5.38446,"is_reserved":false,"is_disabled":false,"rental_uris":{"android":"levelo://app?vid=adf63bbb-eaa0-45a7-a944-bf55da192429","ios":"levelo://app?vid=adf63bbb-eaa0-45a7-a944-bf55da192429"},"vehicle_type_id":"4","last_reported":1740942401,"current_range_meters":9200,"station_id":"ce4bh692rcd13ifvqea0","pricing_plan_id":"cebpf4jnsgd1na2vs0mg"},{"bike_id":"3cd08aef-c26a-4f04-866d-035dc12fbc13","system_id":"levelo_inurba_marseille","lat":43.2927,"lon":5.38436,"is_reserved":false,"is_disabled":false,"rental_uris":{"android":"levelo://app?vid=3cd08aef-c26a-4f04-866d-035dc12fbc13","ios":"levelo://app?vid=3cd08aef-c26a-4f04-866d-035dc12fbc13"},"vehicle_type_id":"4","last_reported":1740942401,"current_range_meters":9200,"station_id":"ce4bh692rcd13ifvqea0","pricing_plan_id":"cebpf4jnsgd1na2vs0mg"},{"bike_id":"f711a177-8c95-4e96-bcaf-e6e0dc33f59e","system_id":"levelo_inurba_marseille","lat":43.24406,"lon":5.37037,"is_reserved":false,"is_disabled":false,"rental_uris":{"android":"levelo://app?vid=f711a177-8c95-4e96-bcaf-e6e0dc33f59e","ios":"levelo://app?vid=f711a177-8c95-4e96-bcaf-e6e0dc33f59e"},"vehicle_type_id":"4","last_reported":1740942401,"current_range_meters":9200,"station_id":"ce4bhhh2rcd13ifvqfk0","pricing_plan_id":"cebpf4jnsgd1na2vs0mg"},{"bike_id":"a3db10fb-434f-4de9-a30c-816ebf1e49c2","system_id":"levelo_inurba_marseille","lat":43.27808,"lon":5.40713,"is_reserved":false,"is_disabled":false,"rental_uris":{"android":"levelo://app?vid=a3db10fb-434f-4de9-a30c-816ebf1e49c2","ios":"levelo://app?vid=a3db10fb-434f-4de9-a30c-816ebf1e49c2"},"vehicle_type_id":"4","last_reported":1740942401,"current_range_meters":9200,"station_id":"ce4bhnh2rcd13ifvqgtg","pricing_plan_id":"cebpf4jnsgd1na2vs0mg"},{"bike_id":"2975d942-7a9c-42db-a7f3-75fffbb5b106","system_id":"levelo_inurba_marseille","lat":43.26937,"lon":5.40255,"is_reserved":false,"is_disabled":false,"rental_uris":{"android":"levelo://app?vid=2975d942-7a9c-42db-a7f3-75fffbb5b106","ios":"levelo://app?vid=2975d942-7a9c-42db-a7f3-75fffbb5b106"},"vehicle_type_id":"4","last_reported":1740942401,"current_range_meters":9200,"station_id":"cjm6bp8fraef2m0cb0m0","pricing_plan_id":"cebpf4jnsgd1na2vs0mg"},{"bike_id":"13985eab-e3f9-4cc2-ba2f-d24a29935124","system_id":"levelo_inurba_marseille","lat":43.30782,"lon":5.37374,"is_reserved":false,"is_disabled":false,"rental_uris":{"android":"levelo://app?vid=13985eab-e3f9-4cc2-ba2f-d24a29935124","ios":"levelo://app?vid=13985eab-e3f9-4cc2-ba2f-d24a29935124"},"vehicle_type_id":"4","last_reported":1740942401,"current_range_meters":9600,"station_id":"","pricing_plan_id":"cebpf4jnsgd1na2vs0mg"},{"bike_id":"9e505845-4971-47cf-84ef-90a1567fb5d9","system_id":"levelo_inurba_marseille","lat":43.29255,"lon":5.37619,"is_reserved":false,"is_disabled":false,"rental_uris":{"android":"levelo://app?vid=9e505845-4971-47cf-84ef-90a1567fb5d9","ios":"levelo://app?vid=9e505845-4971-47cf-84ef-90a1567fb5d9"},"vehicle_type_id":"4","last_reported":1740942401,"current_range_meters":9600,"station_id":"ce4bgi12rcd13ifvqb80","pricing_plan_id":"cebpf4jnsgd1na2vs0mg"},{"bike_id":"91356503-2d5c-4b34-ae01-07e36465c3ee","system_id":"levelo_inurba_marseille","lat":43.31119,"lon":5.37759,"is_reserved":false,"is_disabled":false,"rental_uris":{"android":"levelo://app?vid=91356503-2d5c-4b34-ae01-07e36465c3ee","ios":"levelo://app?vid=91356503-2d5c-4b34-ae01-07e36465c3ee"},"vehicle_type_id":"4","last_reported":1740942401,"current_range_meters":9600,"station_id":"ce4bgt92rcd13ifvqcg0","pricing_plan_id":"cebpf4jnsgd1na2vs0mg"},{"bike_id":"568f4c8f-f4ba-4b8f-97be-96d3153a0941","system_id":"levelo_inurba_marseille","lat":43.31168,"lon":5.38717,"is_reserved":false,"is_disabled":false,"rental_uris":{"android":"levelo://app?vid=568f4c8f-f4ba-4b8f-97be-96d3153a0941","ios":"levelo://app?vid=568f4c8f-f4ba-4b8f-97be-96d3153a0941"},"vehicle_type_id":"4","last_reported":1740942401,"current_range_meters":9600,"station_id":"ce4bgv12rcd13ifvqcp0","pricing_plan_id":"cebpf4jnsgd1na2vs0mg"},{"bike_id":"2babc9a7-33bc-499e-bc1e-20ed28f940f3","system_id":"levelo_inurba_marseille","lat":43.29431,"lon":5.38628,"is_reserved":false,"is_disabled":false,"rental_uris":{"android":"levelo://app?vid=2babc9a7-33bc-499e-bc1e-20ed28f940f3","ios":"levelo://app?vid=2babc9a7-33bc-499e-bc1e-20ed28f940f3"},"vehicle_type_id":"4","last_reported":1740942401,"current_range_meters":9600,"station_id":"ce4bh2h2rcd13ifvqdh0","pricing_plan_id":"cebpf4jnsgd1na2vs0mg"},{"bike_id":"021248a1-e20d-4102-abe1-07939ee836e9","system_id":"levelo_inurba_marseille","lat":43.2558,"lon":5.38227,"is_reserved":false,"is_disabled":false,"rental_uris":{"android":"levelo://app?vid=021248a1-e20d-4102-abe1-07939ee836e9","ios":"levelo://app?vid=021248a1-e20d-4102-abe1-07939ee836e9"},"vehicle_type_id":"4","last_reported":1740942401,"current_range_meters":9600,"station_id":"ce4bhih2rcd13ifvqfs0","pricing_plan_id":"cebpf4jnsgd1na2vs0mg"},{"bike_id":"ab1060c6-b742-499d-b43e-31b55742689d","system_id":"levelo_inurba_marseille","lat":43.27819,"lon":5.40717,"is_reserved":false,"is_disabled":false,"rental_uris":{"android":"levelo://app?vid=ab1060c6-b742-499d-b43e-31b55742689d","ios":"levelo://app?vid=ab1060c6-b742-499d-b43e-31b55742689d"},"vehicle_type_id":"4","last_reported":1740942401,"current_range_meters":9600,"station_id":"ce4bhnh2rcd13ifvqgtg","pricing_plan_id":"cebpf4jnsgd1na2vs0mg"},{"bike_id":"053a16db-44d4-4432-8caa-9d0c65bb2c88","system_id":"levelo_inurba_marseille","lat":43.29555,"lon":5.42291,"is_reserved":false,"is_disabled":false,"rental_uris":{"android":"levelo://app?vid=053a16db-44d4-4432-8caa-9d0c65bb2c88","ios":"levelo://app?vid=053a16db-44d4-4432-8caa-9d0c65bb2c88"},"vehicle_type_id":"4","last_reported":1740942401,"current_range_meters":9600,"station_id":"ce4bhph2rcd13ifvqhdg","pricing_plan_id":"cebpf4jnsgd1na2vs0mg"},{"bike_id":"6aaed67d-548c-40eb-ac85-bc983ed8c0d0","system_id":"levelo_inurba_marseille","lat":43.29743,"lon":5.37683,"is_reserved":false,"is_disabled":false,"rental_uris":{"android":"levelo://app?vid=6aaed67d-548c-40eb-ac85-bc983ed8c0d0","ios":"levelo://app?vid=6aaed67d-548c-40eb-ac85-bc983ed8c0d0"},"vehicle_type_id":"4","last_reported":1740942401,"current_range_meters":10000,"station_id":"ce4bgkh2rcd13ifvqbl0","pricing_plan_id":"cebpf4jnsgd1na2vs0mg"},{"bike_id":"ab08de90-b33b-49d8-908e-99f77911f0fb","system_id":"levelo_inurba_marseille","lat":43.29772,"lon":5.3713,"is_reserved":false,"is_disabled":false,"rental_uris":{"android":"levelo://app?vid=ab08de90-b33b-49d8-908e-99f77911f0fb","ios":"levelo://app?vid=ab08de90-b33b-49d8-908e-99f77911f0fb"},"vehicle_type_id":"4","last_reported":1740942401,"current_range_meters":10000,"station_id":"ce4bgop2rcd13ifvqc1g","pricing_plan_id":"cebpf4jnsgd1na2vs0mg"},{"bike_id":"b695c1b8-9d19-4083-975b-f498ffa15a5a","system_id":"levelo_inurba_marseille","lat":43.28705,"lon":5.37357,"is_reserved":false,"is_disabled":false,"rental_uris":{"android":"levelo://app?vid=b695c1b8-9d19-4083-975b-f498ffa15a5a","ios":"levelo://app?vid=b695c1b8-9d19-4083-975b-f498ffa15a5a"},"vehicle_type_id":"4","last_reported":1740942401,"current_range_meters":10000,"station_id":"ce4bh3p2rcd13ifvqdq0","pricing_plan_id":"cebpf4jnsgd1na2vs0mg"},{"bike_id":"882c7c82-5ffe-4a9c-a564-04ae8cf0898a","system_id":"levelo_inurba_marseille","lat":43.28468,"lon":5.3842,"is_reserved":false,"is_disabled":false,"rental_uris":{"android":"levelo://app?vid=882c7c82-5ffe-4a9c-a564-04ae8cf0898a","ios":"levelo://app?vid=882c7c82-5ffe-4a9c-a564-04ae8cf0898a"},"vehicle_type_id":"4","last_reported":1740942401,"current_range_meters":10000,"station_id":"ce4bh512rcd13ifvqe3g","pricing_plan_id":"cebpf4jnsgd1na2vs0mg"},{"bike_id":"ff4c1afa-fb1b-4b64-971d-2d6d3f85cee3","system_id":"levelo_inurba_marseille","lat":43.29228,"lon":5.36064,"is_reserved":false,"is_disabled":false,"rental_uris":{"android":"levelo://app?vid=ff4c1afa-fb1b-4b64-971d-2d6d3f85cee3","ios":"levelo://app?vid=ff4c1afa-fb1b-4b64-971d-2d6d3f85cee3"},"vehicle_type_id":"4","last_reported":1740942401,"current_range_meters":10000,"station_id":"ce4bhbh2rcd13ifvqeqg","pricing_plan_id":"cebpf4jnsgd1na2vs0mg"},{"bike_id":"372b0032-ea0b-4c81-98a7-bdc7da57d72d","system_id":"levelo_inurba_marseille","lat":43.30408,"lon":5.41294,"is_reserved":false,"is_disabled":false,"rental_uris":{"android":"levelo://app?vid=372b0032-ea0b-4c81-98a7-bdc7da57d72d","ios":"levelo://app?vid=372b0032-ea0b-4c81-98a7-bdc7da57d72d"},"vehicle_type_id":"4","last_reported":1740942401,"current_range_meters":10000,"station_id":"ce4bhop2rcd13ifvqh8g","pricing_plan_id":"cebpf4jnsgd1na2vs0mg"},{"bike_id":"5e39dfc5-d10e-43c6-906b-15e40fd08157","system_id":"levelo_inurba_marseille","lat":43.29802,"lon":5.38094,"is_reserved":false,"is_disabled":false,"rental_uris":{"android":"levelo://app?vid=5e39dfc5-d10e-43c6-906b-15e40fd08157","ios":"levelo://app?vid=5e39dfc5-d10e-43c6-906b-15e40fd08157"},"vehicle_type_id":"4","last_reported":1740942401,"current_range_meters":10800,"station_id":"ce4bgip2rcd13ifvqbb0","pricing_plan_id":"cebpf4jnsgd1na2vs0mg"},{"bike_id":"988ec143-b549-4ba5-931f-4978dbb5068a","system_id":"levelo_inurba_marseille","lat":43.29519,"lon":5.37522,"is_reserved":false,"is_disabled":false,"rental_uris":{"android":"levelo://app?vid=988ec143-b549-4ba5-931f-4978dbb5068a","ios":"levelo://app?vid=988ec143-b549-4ba5-931f-4978dbb5068a"},"vehicle_type_id":"4","last_reported":1740942401,"current_range_meters":10800,"station_id":"ce4bgkp2rcd13ifvqbmg","pricing_plan_id":"cebpf4jnsgd1na2vs0mg"},{"bike_id":"55712578-487b-409a-ab49-c6ffcdeedb2c","system_id":"levelo_inurba_marseille","lat":43.2961,"lon":5.381,"is_reserved":false,"is_disabled":false,"rental_uris":{"android":"levelo://app?vid=55712578-487b-409a-ab49-c6ffcdeedb2c","ios":"levelo://app?vid=55712578-487b-409a-ab49-c6ffcdeedb2c"},"vehicle_type_id":"4","last_reported":1740942401,"current_range_meters":10800,"station_id":"ce4bgl12rcd13ifvqbo0","pricing_plan_id":"cebpf4jnsgd1na2vs0mg"},{"bike_id":"0b395956-5fef-413a-b29f-9ce5290c3f51","system_id":"levelo_inurba_marseille","lat":43.30949,"lon":5.3903,"is_reserved":false,"is_disabled":false,"rental_uris":{"android":"levelo://app?vid=0b395956-5fef-413a-b29f-9ce5290c3f51","ios":"levelo://app?vid=0b395956-5fef-413a-b29f-9ce5290c3f51"},"vehicle_type_id":"4","last_reported":1740942401,"current_range_meters":10800,"station_id":"ce4bgup2rcd13ifvqco0","pricing_plan_id":"cebpf4jnsgd1na2vs0mg"},{"bike_id":"999acaf0-8044-4f41-874f-847109cead00","system_id":"levelo_inurba_marseille","lat":43.29415,"lon":5.38627,"is_reserved":false,"is_disabled":false,"rental_uris":{"android":"levelo://app?vid=999acaf0-8044-4f41-874f-847109cead00","ios":"levelo://app?vid=999acaf0-8044-4f41-874f-847109cead00"},"vehicle_type_id":"4","last_reported":1740942401,"current_range_meters":10800,"station_id":"ce4bh2h2rcd13ifvqdh0","pricing_plan_id":"cebpf4jnsgd1na2vs0mg"},{"bike_id":"24c526bd-d370-4ef3-8593-b03621bdcb47","system_id":"levelo_inurba_marseille","lat":43.28403,"lon":5.3752,"is_reserved":false,"is_disabled":false,"rental_uris":{"android":"levelo://app?vid=24c526bd-d370-4ef3-8593-b03621bdcb47","ios":"levelo://app?vid=24c526bd-d370-4ef3-8593-b03621bdcb47"},"vehicle_type_id":"4","last_reported":1740942401,"current_range_meters":10800,"station_id":"ce4bh412rcd13ifvqds0","pricing_plan_id":"cebpf4jnsgd1na2vs0mg"},{"bike_id":"843eb921-9621-40e0-85ea-20f30e30b32b","system_id":"levelo_inurba_marseille","lat":43.29264,"lon":5.38433,"is_reserved":false,"is_disabled":false,"rental_uris":{"android":"levelo://app?vid=843eb921-9621-40e0-85ea-20f30e30b32b","ios":"levelo://app?vid=843eb921-9621-40e0-85ea-20f30e30b32b"},"vehicle_type_id":"4","last_reported":1740942401,"current_range_meters":10800,"station_id":"ce4bh692rcd13ifvqea0","pricing_plan_id":"cebpf4jnsgd1na2vs0mg"},{"bike_id":"c66a61e8-acac-4c53-8abb-0a01ae4beade","system_id":"levelo_inurba_marseille","lat":43.248141,"lon":5.374539,"is_reserved":false,"is_disabled":false,"rental_uris":{"android":"levelo://app?vid=c66a61e8-acac-4c53-8abb-0a01ae4beade","ios":"levelo://app?vid=c66a61e8-acac-4c53-8abb-0a01ae4beade"},"vehicle_type_id":"4","last_reported":1740942401,"current_range_meters":10800,"station_id":"ce4bhgh2rcd13ifvqfb0","pricing_plan_id":"cebpf4jnsgd1na2vs0mg"},{"bike_id":"d15a920c-600b-4ae1-bbc4-6f27080680ca","system_id":"levelo_inurba_marseille","lat":43.24667,"lon":5.38159,"is_reserved":false,"is_disabled":false,"rental_uris":{"android":"levelo://app?vid=d15a920c-600b-4ae1-bbc4-6f27080680ca","ios":"levelo://app?vid=d15a920c-600b-4ae1-bbc4-6f27080680ca"},"vehicle_type_id":"4","last_reported":1740942401,"current_range_meters":10800,"station_id":"ce4bhih2rcd13ifvqfr0","pricing_plan_id":"cebpf4jnsgd1na2vs0mg"},{"bike_id":"3c9c65ff-a2a8-4c52-a6f4-62bcc77556ef","system_id":"levelo_inurba_marseille","lat":43.2416,"lon":5.36398,"is_reserved":false,"is_disabled":false,"rental_uris":{"android":"levelo://app?vid=3c9c65ff-a2a8-4c52-a6f4-62bcc77556ef","ios":"levelo://app?vid=3c9c65ff-a2a8-4c52-a6f4-62bcc77556ef"},"vehicle_type_id":"4","last_reported":1740942401,"current_range_meters":10800,"station_id":"cpo36qri1sfpv3e86is0","pricing_plan_id":"cebpf4jnsgd1na2vs0mg"},{"bike_id":"88d09cbc-1497-4fea-99b9-c1fe29ff58f0","system_id":"levelo_inurba_marseille","lat":43.28045,"lon":5.36609,"is_reserved":false,"is_disabled":false,"rental_uris":{"android":"levelo://app?vid=88d09cbc-1497-4fea-99b9-c1fe29ff58f0","ios":"levelo://app?vid=88d09cbc-1497-4fea-99b9-c1fe29ff58f0"},"vehicle_type_id":"4","last_reported":1740942401,"current_range_meters":11200,"station_id":"","pricing_plan_id":"cebpf4jnsgd1na2vs0mg"},{"bike_id":"78e8b56f-8d77-4ccf-9502-6d1a2cf01398","system_id":"levelo_inurba_marseille","lat":43.29308,"lon":5.37171,"is_reserved":false,"is_disabled":false,"rental_uris":{"android":"levelo://app?vid=78e8b56f-8d77-4ccf-9502-6d1a2cf01398","ios":"levelo://app?vid=78e8b56f-8d77-4ccf-9502-6d1a2cf01398"},"vehicle_type_id":"4","last_reported":1740942401,"current_range_meters":11200,"station_id":"ce4bgh92rcd13ifvqb40","pricing_plan_id":"cebpf4jnsgd1na2vs0mg"},{"bike_id":"4d6c738d-a60b-44e7-9164-73adebb5d01f","system_id":"levelo_inurba_marseille","lat":43.31218,"lon":5.36856,"is_reserved":false,"is_disabled":false,"rental_uris":{"android":"levelo://app?vid=4d6c738d-a60b-44e7-9164-73adebb5d01f","ios":"levelo://app?vid=4d6c738d-a60b-44e7-9164-73adebb5d01f"},"vehicle_type_id":"4","last_reported":1740942401,"current_range_meters":11200,"station_id":"ce4bgl92rcd13ifvqbq0","pricing_plan_id":"cebpf4jnsgd1na2vs0mg"},{"bike_id":"58c728a5-88af-4131-a698-01b1b572c31e","system_id":"levelo_inurba_marseille","lat":43.2987,"lon":5.39746,"is_reserved":false,"is_disabled":false,"rental_uris":{"android":"levelo://app?vid=58c728a5-88af-4131-a698-01b1b572c31e","ios":"levelo://app?vid=58c728a5-88af-4131-a698-01b1b572c31e"},"vehicle_type_id":"4","last_reported":1740942401,"current_range_meters":11200,"station_id":"ce4bh0h2rcd13ifvqd50","pricing_plan_id":"cebpf4jnsgd1na2vs0mg"},{"bike_id":"afdfc19c-45f5-454f-99ef-142533de0e2a","system_id":"levelo_inurba_marseille","lat":43.30663,"lon":5.40066,"is_reserved":false,"is_disabled":false,"rental_uris":{"android":"levelo://app?vid=afdfc19c-45f5-454f-99ef-142533de0e2a","ios":"levelo://app?vid=afdfc19c-45f5-454f-99ef-142533de0e2a"},"vehicle_type_id":"4","last_reported":1740942401,"current_range_meters":11600,"station_id":"ce4bh112rcd13ifvqda0","pricing_plan_id":"cebpf4jnsgd1na2vs0mg"},{"bike_id":"d3c878ae-d2b0-48cf-be19-242d324a7a91","system_id":"levelo_inurba_marseille","lat":43.29209,"lon":5.39342,"is_reserved":false,"is_disabled":false,"rental_uris":{"android":"levelo://app?vid=d3c878ae-d2b0-48cf-be19-242d324a7a91","ios":"levelo://app?vid=d3c878ae-d2b0-48cf-be19-242d324a7a91"},"vehicle_type_id":"4","last_reported":1740942401,"current_range_meters":11600,"station_id":"ce4bh192rcd13ifvqdd0","pricing_plan_id":"cebpf4jnsgd1na2vs0mg"},{"bike_id":"8ee123d2-edf6-4f08-b1b7-7ca4d275903c","system_id":"levelo_inurba_marseille","lat":43.29202,"lon":5.39318,"is_reserved":false,"is_disabled":false,"rental_uris":{"android":"levelo://app?vid=8ee123d2-edf6-4f08-b1b7-7ca4d275903c","ios":"levelo://app?vid=8ee123d2-edf6-4f08-b1b7-7ca4d275903c"},"vehicle_type_id":"4","last_reported":1740942401,"current_range_meters":11600,"station_id":"ce4bh192rcd13ifvqdd0","pricing_plan_id":"cebpf4jnsgd1na2vs0mg"},{"bike_id":"4d1e1c30-1d07-45d8-b967-5851eafbda79","system_id":"levelo_inurba_marseille","lat":43.29418,"lon":5.38627,"is_reserved":false,"is_disabled":false,"rental_uris":{"android":"levelo://app?vid=4d1e1c30-1d07-45d8-b967-5851eafbda79","ios":"levelo://app?vid=4d1e1c30-1d07-45d8-b967-5851eafbda79"},"vehicle_type_id":"4","last_reported":1740942401,"current_range_meters":11600,"station_id":"ce4bh2h2rcd13ifvqdh0","pricing_plan_id":"cebpf4jnsgd1na2vs0mg"},{"bike_id":"da97b340-9909-4dc6-b40b-aa2c2a1144e4","system_id":"levelo_inurba_marseille","lat":43.29258,"lon":5.38438,"is_reserved":false,"is_disabled":false,"rental_uris":{"android":"levelo://app?vid=da97b340-9909-4dc6-b40b-aa2c2a1144e4","ios":"levelo://app?vid=da97b340-9909-4dc6-b40b-aa2c2a1144e4"},"vehicle_type_id":"4","last_reported":1740942401,"current_range_meters":11600,"station_id":"ce4bh692rcd13ifvqea0","pricing_plan_id":"cebpf4jnsgd1na2vs0mg"},{"bike_id":"e5ad6e6a-1189-4e13-a5f4-1de88679cab9","system_id":"levelo_inurba_marseille","lat":43.26948,"lon":5.38664,"is_reserved":false,"is_disabled":false,"rental_uris":{"android":"levelo://app?vid=e5ad6e6a-1189-4e13-a5f4-1de88679cab9","ios":"levelo://app?vid=e5ad6e6a-1189-4e13-a5f4-1de88679cab9"},"vehicle_type_id":"4","last_reported":1740942401,"current_range_meters":11600,"station_id":"ce4bhh92rcd13ifvqfh0","pricing_plan_id":"cebpf4jnsgd1na2vs0mg"},{"bike_id":"a3e4e670-96af-42cb-8c2e-a7c558780b0b","system_id":"levelo_inurba_marseille","lat":43.24073,"lon":5.37746,"is_reserved":false,"is_disabled":false,"rental_uris":{"android":"levelo://app?vid=a3e4e670-96af-42cb-8c2e-a7c558780b0b","ios":"levelo://app?vid=a3e4e670-96af-42cb-8c2e-a7c558780b0b"},"vehicle_type_id":"4","last_reported":1740942401,"current_range_meters":11600,"station_id":"ce4bhnp2rcd13ifvqgvg","pricing_plan_id":"cebpf4jnsgd1na2vs0mg"},{"bike_id":"61e3c74e-7012-4cb6-8ef4-17db5d82fdf7","system_id":"levelo_inurba_marseille","lat":43.25316,"lon":5.39312,"is_reserved":false,"is_disabled":false,"rental_uris":{"android":"levelo://app?vid=61e3c74e-7012-4cb6-8ef4-17db5d82fdf7","ios":"levelo://app?vid=61e3c74e-7012-4cb6-8ef4-17db5d82fdf7"},"vehicle_type_id":"4","last_reported":1740942401,"current_range_meters":12000,"station_id":"","pricing_plan_id":"cebpf4jnsgd1na2vs0mg"},{"bike_id":"49911b1f-df50-4168-a292-73a12d729034","system_id":"levelo_inurba_marseille","lat":43.28929,"lon":5.38362,"is_reserved":false,"is_disabled":false,"rental_uris":{"android":"levelo://app?vid=49911b1f-df50-4168-a292-73a12d729034","ios":"levelo://app?vid=49911b1f-df50-4168-a292-73a12d729034"},"vehicle_type_id":"4","last_reported":1740942401,"current_range_meters":12000,"station_id":"ce4bh612rcd13ifvqe6g","pricing_plan_id":"cebpf4jnsgd1na2vs0mg"},{"bike_id":"2e079152-c903-4012-9970-a52ed3d59b6c","system_id":"levelo_inurba_marseille","lat":43.2872,"lon":5.37945,"is_reserved":false,"is_disabled":false,"rental_uris":{"android":"levelo://app?vid=2e079152-c903-4012-9970-a52ed3d59b6c","ios":"levelo://app?vid=2e079152-c903-4012-9970-a52ed3d59b6c"},"vehicle_type_id":"4","last_reported":1740942401,"current_range_meters":12000,"station_id":"ce4bh9p2rcd13ifvqec0","pricing_plan_id":"cebpf4jnsgd1na2vs0mg"},{"bike_id":"a1009f5e-67da-4aac-bee3-19c785d1fdc9","system_id":"levelo_inurba_marseille","lat":43.27312,"lon":5.39077,"is_reserved":false,"is_disabled":false,"rental_uris":{"android":"levelo://app?vid=a1009f5e-67da-4aac-bee3-19c785d1fdc9","ios":"levelo://app?vid=a1009f5e-67da-4aac-bee3-19c785d1fdc9"},"vehicle_type_id":"4","last_reported":1740942401,"current_range_meters":12000,"station_id":"ce4bhgp2rcd13ifvqfe0","pricing_plan_id":"cebpf4jnsgd1na2vs0mg"},{"bike_id":"fc602ea5-c252-4012-b4ba-127e15851790","system_id":"levelo_inurba_marseille","lat":43.26937,"lon":5.4026,"is_reserved":false,"is_disabled":false,"rental_uris":{"android":"levelo://app?vid=fc602ea5-c252-4012-b4ba-127e15851790","ios":"levelo://app?vid=fc602ea5-c252-4012-b4ba-127e15851790"},"vehicle_type_id":"4","last_reported":1740942401,"current_range_meters":12000,"station_id":"cjm6bp8fraef2m0cb0m0","pricing_plan_id":"cebpf4jnsgd1na2vs0mg"},{"bike_id":"12ab922a-f881-4968-9e63-ec8d58f2ca05","system_id":"levelo_inurba_marseille","lat":43.2481,"lon":5.37465,"is_reserved":false,"is_disabled":false,"rental_uris":{"android":"levelo://app?vid=12ab922a-f881-4968-9e63-ec8d58f2ca05","ios":"levelo://app?vid=12ab922a-f881-4968-9e63-ec8d58f2ca05"},"vehicle_type_id":"4","last_reported":1740942401,"current_range_meters":12400,"station_id":"ce4bhgh2rcd13ifvqfb0","pricing_plan_id":"cebpf4jnsgd1na2vs0mg"},{"bike_id":"afaa6ab0-706f-48b9-9e8b-246ecf081361","system_id":"levelo_inurba_marseille","lat":43.24387,"lon":5.37051,"is_reserved":false,"is_disabled":false,"rental_uris":{"android":"levelo://app?vid=afaa6ab0-706f-48b9-9e8b-246ecf081361","ios":"levelo://app?vid=afaa6ab0-706f-48b9-9e8b-246ecf081361"},"vehicle_type_id":"4","last_reported":1740942401,"current_range_meters":12400,"station_id":"ce4bhhh2rcd13ifvqfk0","pricing_plan_id":"cebpf4jnsgd1na2vs0mg"},{"bike_id":"94b6da44-e8fe-4dfd-b2f1-a4849012b0d9","system_id":"levelo_inurba_marseille","lat":43.27208,"lon":5.39178,"is_reserved":false,"is_disabled":false,"rental_uris":{"android":"levelo://app?vid=94b6da44-e8fe-4dfd-b2f1-a4849012b0d9","ios":"levelo://app?vid=94b6da44-e8fe-4dfd-b2f1-a4849012b0d9"},"vehicle_type_id":"4","last_reported":1740942401,"current_range_meters":12400,"station_id":"ce4bhhp2rcd13ifvqfm0","pricing_plan_id":"cebpf4jnsgd1na2vs0mg"},{"bike_id":"8ae3b1c3-aaad-4efb-802c-97a1e162b8ab","system_id":"levelo_inurba_marseille","lat":43.25583,"lon":5.38235,"is_reserved":false,"is_disabled":false,"rental_uris":{"android":"levelo://app?vid=8ae3b1c3-aaad-4efb-802c-97a1e162b8ab","ios":"levelo://app?vid=8ae3b1c3-aaad-4efb-802c-97a1e162b8ab"},"vehicle_type_id":"4","last_reported":1740942401,"current_range_meters":12400,"station_id":"ce4bhih2rcd13ifvqfs0","pricing_plan_id":"cebpf4jnsgd1na2vs0mg"},{"bike_id":"f2c0ca3b-8324-45cc-9282-3b53540210ba","system_id":"levelo_inurba_marseille","lat":43.29551,"lon":5.42254,"is_reserved":false,"is_disabled":false,"rental_uris":{"android":"levelo://app?vid=f2c0ca3b-8324-45cc-9282-3b53540210ba","ios":"levelo://app?vid=f2c0ca3b-8324-45cc-9282-3b53540210ba"},"vehicle_type_id":"4","last_reported":1740942401,"current_range_meters":12400,"station_id":"ce4bhph2rcd13ifvqhdg","pricing_plan_id":"cebpf4jnsgd1na2vs0mg"},{"bike_id":"ce8fe0de-4e74-4c91-a6bf-f18b5f844150","system_id":"levelo_inurba_marseille","lat":43.27978,"lon":5.38775,"is_reserved":false,"is_disabled":false,"rental_uris":{"android":"levelo://app?vid=ce8fe0de-4e74-4c91-a6bf-f18b5f844150","ios":"levelo://app?vid=ce8fe0de-4e74-4c91-a6bf-f18b5f844150"},"vehicle_type_id":"4","last_reported":1740942401,"current_range_meters":12800,"station_id":"ce4bhg12rcd13ifvqf80","pricing_plan_id":"cebpf4jnsgd1na2vs0mg"},{"bike_id":"2e7fb5cd-2e99-4cc9-92f0-4e595c1edef2","system_id":"levelo_inurba_marseille","lat":43.27315,"lon":5.39082,"is_reserved":false,"is_disabled":false,"rental_uris":{"android":"levelo://app?vid=2e7fb5cd-2e99-4cc9-92f0-4e595c1edef2","ios":"levelo://app?vid=2e7fb5cd-2e99-4cc9-92f0-4e595c1edef2"},"vehicle_type_id":"4","last_reported":1740942401,"current_range_meters":12800,"station_id":"ce4bhgp2rcd13ifvqfe0","pricing_plan_id":"cebpf4jnsgd1na2vs0mg"},{"bike_id":"5c81af79-853e-44ee-b07e-7605f1ed4791","system_id":"levelo_inurba_marseille","lat":43.27811,"lon":5.40712,"is_reserved":false,"is_disabled":false,"rental_uris":{"android":"levelo://app?vid=5c81af79-853e-44ee-b07e-7605f1ed4791","ios":"levelo://app?vid=5c81af79-853e-44ee-b07e-7605f1ed4791"},"vehicle_type_id":"4","last_reported":1740942401,"current_range_meters":12800,"station_id":"ce4bhnh2rcd13ifvqgtg","pricing_plan_id":"cebpf4jnsgd1na2vs0mg"},{"bike_id":"a0e2f7cd-e0b0-4a62-bcc3-a37d69fc219e","system_id":"levelo_inurba_marseille","lat":43.29599,"lon":5.381,"is_reserved":false,"is_disabled":false,"rental_uris":{"android":"levelo://app?vid=a0e2f7cd-e0b0-4a62-bcc3-a37d69fc219e","ios":"levelo://app?vid=a0e2f7cd-e0b0-4a62-bcc3-a37d69fc219e"},"vehicle_type_id":"4","last_reported":1740942401,"current_range_meters":13600,"station_id":"ce4bgl12rcd13ifvqbo0","pricing_plan_id":"cebpf4jnsgd1na2vs0mg"},{"bike_id":"4b85592f-50bc-4910-8302-d505f7103cc0","system_id":"levelo_inurba_marseille","lat":43.2927,"lon":5.384376,"is_reserved":false,"is_disabled":false,"rental_uris":{"android":"levelo://app?vid=4b85592f-50bc-4910-8302-d505f7103cc0","ios":"levelo://app?vid=4b85592f-50bc-4910-8302-d505f7103cc0"},"vehicle_type_id":"4","last_reported":1740942401,"current_range_meters":13600,"station_id":"ce4bgn12rcd13ifvqbt0","pricing_plan_id":"cebpf4jnsgd1na2vs0mg"},{"bike_id":"0dbffb11-eeff-46f0-bc8a-af1680ab7d9b","system_id":"levelo_inurba_marseille","lat":43.31358,"lon":5.38487,"is_reserved":false,"is_disabled":false,"rental_uris":{"android":"levelo://app?vid=0dbffb11-eeff-46f0-bc8a-af1680ab7d9b","ios":"levelo://app?vid=0dbffb11-eeff-46f0-bc8a-af1680ab7d9b"},"vehicle_type_id":"4","last_reported":1740942401,"current_range_meters":13600,"station_id":"ce4bgt92rcd13ifvqcf0","pricing_plan_id":"cebpf4jnsgd1na2vs0mg"},{"bike_id":"37763cbe-3542-4f29-8bab-61c39d22f89b","system_id":"levelo_inurba_marseille","lat":43.29421,"lon":5.38639,"is_reserved":false,"is_disabled":false,"rental_uris":{"android":"levelo://app?vid=37763cbe-3542-4f29-8bab-61c39d22f89b","ios":"levelo://app?vid=37763cbe-3542-4f29-8bab-61c39d22f89b"},"vehicle_type_id":"4","last_reported":1740942401,"current_range_meters":13600,"station_id":"ce4bh2h2rcd13ifvqdh0","pricing_plan_id":"cebpf4jnsgd1na2vs0mg"},{"bike_id":"0d533f29-0ec6-4d93-a9bc-407b4b0fa6eb","system_id":"levelo_inurba_marseille","lat":43.26783,"lon":5.39455,"is_reserved":false,"is_disabled":false,"rental_uris":{"android":"levelo://app?vid=0d533f29-0ec6-4d93-a9bc-407b4b0fa6eb","ios":"levelo://app?vid=0d533f29-0ec6-4d93-a9bc-407b4b0fa6eb"},"vehicle_type_id":"4","last_reported":1740942401,"current_range_meters":13600,"station_id":"ce4bhh12rcd13ifvqfg0","pricing_plan_id":"cebpf4jnsgd1na2vs0mg"},{"bike_id":"1307fc65-524d-4570-b1d0-3705c0568da3","system_id":"levelo_inurba_marseille","lat":43.27816,"lon":5.40716,"is_reserved":false,"is_disabled":false,"rental_uris":{"android":"levelo://app?vid=1307fc65-524d-4570-b1d0-3705c0568da3","ios":"levelo://app?vid=1307fc65-524d-4570-b1d0-3705c0568da3"},"vehicle_type_id":"4","last_reported":1740942401,"current_range_meters":13600,"station_id":"ce4bhnh2rcd13ifvqgtg","pricing_plan_id":"cebpf4jnsgd1na2vs0mg"},{"bike_id":"b185f670-0f4c-43dc-b7b8-6142639d3155","system_id":"levelo_inurba_marseille","lat":43.27814,"lon":5.4071,"is_reserved":false,"is_disabled":false,"rental_uris":{"android":"levelo://app?vid=b185f670-0f4c-43dc-b7b8-6142639d3155","ios":"levelo://app?vid=b185f670-0f4c-43dc-b7b8-6142639d3155"},"vehicle_type_id":"4","last_reported":1740942401,"current_range_meters":13600,"station_id":"ce4bhnh2rcd13ifvqgtg","pricing_plan_id":"cebpf4jnsgd1na2vs0mg"},{"bike_id":"0105fe6d-b104-4bcb-91d5-e3c87859fcc3","system_id":"levelo_inurba_marseille","lat":43.32368,"lon":5.3889,"is_reserved":false,"is_disabled":false,"rental_uris":{"android":"levelo://app?vid=0105fe6d-b104-4bcb-91d5-e3c87859fcc3","ios":"levelo://app?vid=0105fe6d-b104-4bcb-91d5-e3c87859fcc3"},"vehicle_type_id":"4","last_reported":1740942401,"current_range_meters":13600,"station_id":"ce4bhqp2rcd13ifvqhog","pricing_plan_id":"cebpf4jnsgd1na2vs0mg"},{"bike_id":"18ed809a-93be-4ceb-a90d-b4661309b51d","system_id":"levelo_inurba_marseille","lat":43.30953,"lon":5.37434,"is_reserved":false,"is_disabled":false,"rental_uris":{"android":"levelo://app?vid=18ed809a-93be-4ceb-a90d-b4661309b51d","ios":"levelo://app?vid=18ed809a-93be-4ceb-a90d-b4661309b51d"},"vehicle_type_id":"4","last_reported":1740942401,"current_range_meters":14000,"station_id":"","pricing_plan_id":"cebpf4jnsgd1na2vs0mg"},{"bike_id":"cfcb0273-7337-4621-96ed-1e1413e21f71","system_id":"levelo_inurba_marseille","lat":43.31041,"lon":5.38975,"is_reserved":false,"is_disabled":false,"rental_uris":{"android":"levelo://app?vid=cfcb0273-7337-4621-96ed-1e1413e21f71","ios":"levelo://app?vid=cfcb0273-7337-4621-96ed-1e1413e21f71"},"vehicle_type_id":"4","last_reported":1740942401,"current_range_meters":14000,"station_id":"","pricing_plan_id":"cebpf4jnsgd1na2vs0mg"},{"bike_id":"fabe7cd3-29b2-45b3-a002-6a45cd9a09e7","system_id":"levelo_inurba_marseille","lat":43.26681,"lon":5.3827,"is_reserved":false,"is_disabled":false,"rental_uris":{"android":"levelo://app?vid=fabe7cd3-29b2-45b3-a002-6a45cd9a09e7","ios":"levelo://app?vid=fabe7cd3-29b2-45b3-a002-6a45cd9a09e7"},"vehicle_type_id":"4","last_reported":1740942401,"current_range_meters":14000,"station_id":"ce4bhg92rcd13ifvqf90","pricing_plan_id":"cebpf4jnsgd1na2vs0mg"},{"bike_id":"48daebb4-ffc6-423d-a40d-23ab69e0824c","system_id":"levelo_inurba_marseille","lat":43.27562,"lon":5.38439,"is_reserved":false,"is_disabled":false,"rental_uris":{"android":"levelo://app?vid=48daebb4-ffc6-423d-a40d-23ab69e0824c","ios":"levelo://app?vid=48daebb4-ffc6-423d-a40d-23ab69e0824c"},"vehicle_type_id":"4","last_reported":1740942401,"current_range_meters":14000,"station_id":"ce4bhh92rcd13ifvqfi0","pricing_plan_id":"cebpf4jnsgd1na2vs0mg"},{"bike_id":"b40b8d0b-27cc-4eb5-9da9-1d246c2fa6dc","system_id":"levelo_inurba_marseille","lat":43.27216,"lon":5.39176,"is_reserved":false,"is_disabled":false,"rental_uris":{"android":"levelo://app?vid=b40b8d0b-27cc-4eb5-9da9-1d246c2fa6dc","ios":"levelo://app?vid=b40b8d0b-27cc-4eb5-9da9-1d246c2fa6dc"},"vehicle_type_id":"4","last_reported":1740942401,"current_range_meters":14000,"station_id":"ce4bhhp2rcd13ifvqfm0","pricing_plan_id":"cebpf4jnsgd1na2vs0mg"},{"bike_id":"ac5892ae-ac78-4c04-aae1-c25c0dd1c9a4","system_id":"levelo_inurba_marseille","lat":43.26804,"lon":5.40225,"is_reserved":false,"is_disabled":false,"rental_uris":{"android":"levelo://app?vid=ac5892ae-ac78-4c04-aae1-c25c0dd1c9a4","ios":"levelo://app?vid=ac5892ae-ac78-4c04-aae1-c25c0dd1c9a4"},"vehicle_type_id":"4","last_reported":1740942401,"current_range_meters":14000,"station_id":"ce501612rcd8frsf0b60","pricing_plan_id":"cebpf4jnsgd1na2vs0mg"},{"bike_id":"4e6ae829-673d-4542-bfb1-01f9b0e004c1","system_id":"levelo_inurba_marseille","lat":43.30134,"lon":5.38772,"is_reserved":false,"is_disabled":false,"rental_uris":{"android":"levelo://app?vid=4e6ae829-673d-4542-bfb1-01f9b0e004c1","ios":"levelo://app?vid=4e6ae829-673d-4542-bfb1-01f9b0e004c1"},"vehicle_type_id":"4","last_reported":1740942401,"current_range_meters":14400,"station_id":"ce4bghh2rcd13ifvqb60","pricing_plan_id":"cebpf4jnsgd1na2vs0mg"},{"bike_id":"46abe980-4e40-4f1b-97a5-2d86ca68d9f5","system_id":"levelo_inurba_marseille","lat":43.25086,"lon":5.39514,"is_reserved":false,"is_disabled":false,"rental_uris":{"android":"levelo://app?vid=46abe980-4e40-4f1b-97a5-2d86ca68d9f5","ios":"levelo://app?vid=46abe980-4e40-4f1b-97a5-2d86ca68d9f5"},"vehicle_type_id":"4","last_reported":1740942401,"current_range_meters":14400,"station_id":"ce4bhm12rcd13ifvqgkg","pricing_plan_id":"cebpf4jnsgd1na2vs0mg"},{"bike_id":"c5b35fc3-133b-4fcd-9bc1-000b1b46221f","system_id":"levelo_inurba_marseille","lat":43.24145,"lon":5.36429,"is_reserved":false,"is_disabled":false,"rental_uris":{"android":"levelo://app?vid=c5b35fc3-133b-4fcd-9bc1-000b1b46221f","ios":"levelo://app?vid=c5b35fc3-133b-4fcd-9bc1-000b1b46221f"},"vehicle_type_id":"4","last_reported":1740942401,"current_range_meters":14400,"station_id":"cpo36qri1sfpv3e86is0","pricing_plan_id":"cebpf4jnsgd1na2vs0mg"},{"bike_id":"cc836fe0-3cfd-4fe9-beb4-1fec15d76872","system_id":"levelo_inurba_marseille","lat":43.30412,"lon":5.37355,"is_reserved":false,"is_disabled":false,"rental_uris":{"android":"levelo://app?vid=cc836fe0-3cfd-4fe9-beb4-1fec15d76872","ios":"levelo://app?vid=cc836fe0-3cfd-4fe9-beb4-1fec15d76872"},"vehicle_type_id":"4","last_reported":1740942401,"current_range_meters":14800,"station_id":"","pricing_plan_id":"cebpf4jnsgd1na2vs0mg"},{"bike_id":"4664a978-7572-4939-a8cb-3e796878c40d","system_id":"levelo_inurba_marseille","lat":43.29423,"lon":5.3861,"is_reserved":false,"is_disabled":false,"rental_uris":{"android":"levelo://app?vid=4664a978-7572-4939-a8cb-3e796878c40d","ios":"levelo://app?vid=4664a978-7572-4939-a8cb-3e796878c40d"},"vehicle_type_id":"4","last_reported":1740942401,"current_range_meters":14800,"station_id":"ce4bh2h2rcd13ifvqdh0","pricing_plan_id":"cebpf4jnsgd1na2vs0mg"},{"bike_id":"edc1a413-247b-4125-8ff6-3193d9b9b0b7","system_id":"levelo_inurba_marseille","lat":43.24407,"lon":5.37056,"is_reserved":false,"is_disabled":false,"rental_uris":{"android":"levelo://app?vid=edc1a413-247b-4125-8ff6-3193d9b9b0b7","ios":"levelo://app?vid=edc1a413-247b-4125-8ff6-3193d9b9b0b7"},"vehicle_type_id":"4","last_reported":1740942401,"current_range_meters":14800,"station_id":"ce4bhhh2rcd13ifvqfk0","pricing_plan_id":"cebpf4jnsgd1na2vs0mg"},{"bike_id":"ab61ec09-b2a5-4d1e-87f7-90359803db9a","system_id":"levelo_inurba_marseille","lat":43.28009,"lon":5.416,"is_reserved":false,"is_disabled":false,"rental_uris":{"android":"levelo://app?vid=ab61ec09-b2a5-4d1e-87f7-90359803db9a","ios":"levelo://app?vid=ab61ec09-b2a5-4d1e-87f7-90359803db9a"},"vehicle_type_id":"4","last_reported":1740942401,"current_range_meters":15200,"station_id":"","pricing_plan_id":"cebpf4jnsgd1na2vs0mg"},{"bike_id":"d29e82e5-442b-4177-903e-3742ab7d0a8c","system_id":"levelo_inurba_marseille","lat":43.30038,"lon":5.37493,"is_reserved":false,"is_disabled":false,"rental_uris":{"android":"levelo://app?vid=d29e82e5-442b-4177-903e-3742ab7d0a8c","ios":"levelo://app?vid=d29e82e5-442b-4177-903e-3742ab7d0a8c"},"vehicle_type_id":"4","last_reported":1740942401,"current_range_meters":15200,"station_id":"","pricing_plan_id":"cebpf4jnsgd1na2vs0mg"},{"bike_id":"31d79ec4-6bdc-4eb7-83ce-7086e494b5af","system_id":"levelo_inurba_marseille","lat":43.30651,"lon":5.40098,"is_reserved":false,"is_disabled":false,"rental_uris":{"android":"levelo://app?vid=31d79ec4-6bdc-4eb7-83ce-7086e494b5af","ios":"levelo://app?vid=31d79ec4-6bdc-4eb7-83ce-7086e494b5af"},"vehicle_type_id":"4","last_reported":1740942401,"current_range_meters":15200,"station_id":"ce4bh112rcd13ifvqda0","pricing_plan_id":"cebpf4jnsgd1na2vs0mg"},{"bike_id":"2c5f6957-d531-40e4-8342-1a9be631de97","system_id":"levelo_inurba_marseille","lat":43.28404,"lon":5.37523,"is_reserved":false,"is_disabled":false,"rental_uris":{"android":"levelo://app?vid=2c5f6957-d531-40e4-8342-1a9be631de97","ios":"levelo://app?vid=2c5f6957-d531-40e4-8342-1a9be631de97"},"vehicle_type_id":"4","last_reported":1740942401,"current_range_meters":15200,"station_id":"ce4bh412rcd13ifvqds0","pricing_plan_id":"cebpf4jnsgd1na2vs0mg"},{"bike_id":"e8101649-c6b2-4bfd-9c01-add54a4dfda4","system_id":"levelo_inurba_marseille","lat":43.27824,"lon":5.40735,"is_reserved":false,"is_disabled":false,"rental_uris":{"android":"levelo://app?vid=e8101649-c6b2-4bfd-9c01-add54a4dfda4","ios":"levelo://app?vid=e8101649-c6b2-4bfd-9c01-add54a4dfda4"},"vehicle_type_id":"4","last_reported":1740942401,"current_range_meters":15200,"station_id":"ce4bhnh2rcd13ifvqgtg","pricing_plan_id":"cebpf4jnsgd1na2vs0mg"},{"bike_id":"1d3c7fd7-b709-4008-8e9f-a0f764fe60d9","system_id":"levelo_inurba_marseille","lat":43.29804,"lon":5.38105,"is_reserved":false,"is_disabled":false,"rental_uris":{"android":"levelo://app?vid=1d3c7fd7-b709-4008-8e9f-a0f764fe60d9","ios":"levelo://app?vid=1d3c7fd7-b709-4008-8e9f-a0f764fe60d9"},"vehicle_type_id":"4","last_reported":1740942401,"current_range_meters":16000,"station_id":"","pricing_plan_id":"cebpf4jnsgd1na2vs0mg"},{"bike_id":"abb94b15-8f45-42a6-bc6c-fd3b77d4fa83","system_id":"levelo_inurba_marseille","lat":43.30306,"lon":5.39195,"is_reserved":false,"is_disabled":false,"rental_uris":{"android":"levelo://app?vid=abb94b15-8f45-42a6-bc6c-fd3b77d4fa83","ios":"levelo://app?vid=abb94b15-8f45-42a6-bc6c-fd3b77d4fa83"},"vehicle_type_id":"4","last_reported":1740942401,"current_range_meters":16000,"station_id":"ce4bgkh2rcd13ifvqbk0","pricing_plan_id":"cebpf4jnsgd1na2vs0mg"},{"bike_id":"63cc2677-4da1-45ac-926d-62e648a958ff","system_id":"levelo_inurba_marseille","lat":43.2962,"lon":5.3717,"is_reserved":false,"is_disabled":false,"rental_uris":{"android":"levelo://app?vid=63cc2677-4da1-45ac-926d-62e648a958ff","ios":"levelo://app?vid=63cc2677-4da1-45ac-926d-62e648a958ff"},"vehicle_type_id":"4","last_reported":1740942401,"current_range_meters":16000,"station_id":"ce4bgnh2rcd13ifvqc0g","pricing_plan_id":"cebpf4jnsgd1na2vs0mg"},{"bike_id":"aaace025-3089-417e-a8d0-a68c689fb08f","system_id":"levelo_inurba_marseille","lat":43.28402,"lon":5.37517,"is_reserved":false,"is_disabled":false,"rental_uris":{"android":"levelo://app?vid=aaace025-3089-417e-a8d0-a68c689fb08f","ios":"levelo://app?vid=aaace025-3089-417e-a8d0-a68c689fb08f"},"vehicle_type_id":"4","last_reported":1740942401,"current_range_meters":16000,"station_id":"ce4bh412rcd13ifvqds0","pricing_plan_id":"cebpf4jnsgd1na2vs0mg"},{"bike_id":"b81da216-2962-45b7-afc4-dbe8b9663f8d","system_id":"levelo_inurba_marseille","lat":43.27684,"lon":5.38906,"is_reserved":false,"is_disabled":false,"rental_uris":{"android":"levelo://app?vid=b81da216-2962-45b7-afc4-dbe8b9663f8d","ios":"levelo://app?vid=b81da216-2962-45b7-afc4-dbe8b9663f8d"},"vehicle_type_id":"4","last_reported":1740942401,"current_range_meters":16000,"station_id":"ce4bhi12rcd13ifvqfo0","pricing_plan_id":"cebpf4jnsgd1na2vs0mg"},{"bike_id":"670122a3-157a-4ef1-82d1-a5574649dac0","system_id":"levelo_inurba_marseille","lat":43.23966,"lon":5.36626,"is_reserved":false,"is_disabled":false,"rental_uris":{"android":"levelo://app?vid=670122a3-157a-4ef1-82d1-a5574649dac0","ios":"levelo://app?vid=670122a3-157a-4ef1-82d1-a5574649dac0"},"vehicle_type_id":"4","last_reported":1740942401,"current_range_meters":16000,"station_id":"ce4bhi12rcd13ifvqfp0","pricing_plan_id":"cebpf4jnsgd1na2vs0mg"},{"bike_id":"8b43c3fa-f868-448f-ab86-63a8275730fd","system_id":"levelo_inurba_marseille","lat":43.27808,"lon":5.40712,"is_reserved":false,"is_disabled":false,"rental_uris":{"android":"levelo://app?vid=8b43c3fa-f868-448f-ab86-63a8275730fd","ios":"levelo://app?vid=8b43c3fa-f868-448f-ab86-63a8275730fd"},"vehicle_type_id":"4","last_reported":1740942401,"current_range_meters":16000,"station_id":"ce4bhnh2rcd13ifvqgtg","pricing_plan_id":"cebpf4jnsgd1na2vs0mg"},{"bike_id":"687cd9e6-0cef-4cf3-a0fd-75f582330f2e","system_id":"levelo_inurba_marseille","lat":43.337444,"lon":5.374475,"is_reserved":false,"is_disabled":false,"rental_uris":{"android":"levelo://app?vid=687cd9e6-0cef-4cf3-a0fd-75f582330f2e","ios":"levelo://app?vid=687cd9e6-0cef-4cf3-a0fd-75f582330f2e"},"vehicle_type_id":"4","last_reported":1740942401,"current_range_meters":16400,"station_id":"","pricing_plan_id":"cebpf4jnsgd1na2vs0mg"},{"bike_id":"648445c4-2d1b-4af1-aa41-f717826c5401","system_id":"levelo_inurba_marseille","lat":43.29606,"lon":5.38088,"is_reserved":false,"is_disabled":false,"rental_uris":{"android":"levelo://app?vid=648445c4-2d1b-4af1-aa41-f717826c5401","ios":"levelo://app?vid=648445c4-2d1b-4af1-aa41-f717826c5401"},"vehicle_type_id":"4","last_reported":1740942401,"current_range_meters":16400,"station_id":"ce4bgl12rcd13ifvqbo0","pricing_plan_id":"cebpf4jnsgd1na2vs0mg"},{"bike_id":"f19b8f92-7107-474b-adad-2a5cee60e50d","system_id":"levelo_inurba_marseille","lat":43.30607,"lon":5.37221,"is_reserved":false,"is_disabled":false,"rental_uris":{"android":"levelo://app?vid=f19b8f92-7107-474b-adad-2a5cee60e50d","ios":"levelo://app?vid=f19b8f92-7107-474b-adad-2a5cee60e50d"},"vehicle_type_id":"4","last_reported":1740942401,"current_range_meters":16400,"station_id":"ce4bgqh2rcd13ifvqc4g","pricing_plan_id":"cebpf4jnsgd1na2vs0mg"},{"bike_id":"4344c971-43c3-4c92-b0ff-47be87956c14","system_id":"levelo_inurba_marseille","lat":43.28408,"lon":5.37528,"is_reserved":false,"is_disabled":false,"rental_uris":{"android":"levelo://app?vid=4344c971-43c3-4c92-b0ff-47be87956c14","ios":"levelo://app?vid=4344c971-43c3-4c92-b0ff-47be87956c14"},"vehicle_type_id":"4","last_reported":1740942401,"current_range_meters":16400,"station_id":"ce4bh412rcd13ifvqds0","pricing_plan_id":"cebpf4jnsgd1na2vs0mg"},{"bike_id":"0d29ac61-86b3-4000-9108-0a9ef3adfc29","system_id":"levelo_inurba_marseille","lat":43.27306,"lon":5.39116,"is_reserved":false,"is_disabled":false,"rental_uris":{"android":"levelo://app?vid=0d29ac61-86b3-4000-9108-0a9ef3adfc29","ios":"levelo://app?vid=0d29ac61-86b3-4000-9108-0a9ef3adfc29"},"vehicle_type_id":"4","last_reported":1740942401,"current_range_meters":16400,"station_id":"ce4bhgp2rcd13ifvqfe0","pricing_plan_id":"cebpf4jnsgd1na2vs0mg"},{"bike_id":"a4befc2e-2274-4931-b766-4cd55656eb23","system_id":"levelo_inurba_marseille","lat":43.24393,"lon":5.37054,"is_reserved":false,"is_disabled":false,"rental_uris":{"android":"levelo://app?vid=a4befc2e-2274-4931-b766-4cd55656eb23","ios":"levelo://app?vid=a4befc2e-2274-4931-b766-4cd55656eb23"},"vehicle_type_id":"4","last_reported":1740942401,"current_range_meters":16400,"station_id":"ce4bhhh2rcd13ifvqfk0","pricing_plan_id":"cebpf4jnsgd1na2vs0mg"},{"bike_id":"0703fff1-a8e2-43e6-ade9-a370c390339e","system_id":"levelo_inurba_marseille","lat":43.27205,"lon":5.39184,"is_reserved":false,"is_disabled":false,"rental_uris":{"android":"levelo://app?vid=0703fff1-a8e2-43e6-ade9-a370c390339e","ios":"levelo://app?vid=0703fff1-a8e2-43e6-ade9-a370c390339e"},"vehicle_type_id":"4","last_reported":1740942401,"current_range_meters":16400,"station_id":"ce4bhhp2rcd13ifvqfm0","pricing_plan_id":"cebpf4jnsgd1na2vs0mg"},{"bike_id":"b2dda537-96db-43e1-94ba-488c8c86b5a9","system_id":"levelo_inurba_marseille","lat":43.24661,"lon":5.38159,"is_reserved":false,"is_disabled":false,"rental_uris":{"android":"levelo://app?vid=b2dda537-96db-43e1-94ba-488c8c86b5a9","ios":"levelo://app?vid=b2dda537-96db-43e1-94ba-488c8c86b5a9"},"vehicle_type_id":"4","last_reported":1740942401,"current_range_meters":16400,"station_id":"ce4bhih2rcd13ifvqfr0","pricing_plan_id":"cebpf4jnsgd1na2vs0mg"},{"bike_id":"9ee6b25e-f49a-4e2c-a194-ee54caf61b99","system_id":"levelo_inurba_marseille","lat":43.27808,"lon":5.40714,"is_reserved":false,"is_disabled":false,"rental_uris":{"android":"levelo://app?vid=9ee6b25e-f49a-4e2c-a194-ee54caf61b99","ios":"levelo://app?vid=9ee6b25e-f49a-4e2c-a194-ee54caf61b99"},"vehicle_type_id":"4","last_reported":1740942401,"current_range_meters":16400,"station_id":"ce4bhnh2rcd13ifvqgtg","pricing_plan_id":"cebpf4jnsgd1na2vs0mg"},