{"last_updated":1740572316,"ttl":60,"version":"2.2","data":{"bikes":[{"bike_id":"36da3da2-3ca2-4166-b903-032efe7534f8","system_id":"levelo_inurba_marseille","lat":43.26505,"lon":5.39549,"is_reserved":false,"is_disabled":false,"rental_uris":{"android":"levelo://app?vid=36da3da2-3ca2-4166-b903-032efe7534f8","ios":"levelo://app?vid=36da3da2-3ca2-4166-b903-032efe7534f8"},"vehicle_type_id":"4","last_reported":1740572317,"current_range_meters":6800,"station_id":"ce4bhi12rcd13ifvqfq0","pricing_plan_id":"cebpf4jnsgd1na2vs0mg"},{"bike_id":"60538224-bff8-4197-b73c-8109e738fc6e","system_id":"levelo_inurba_marseille","lat":43.27974,"lon":5.38737,"is_reserved":false,"is_disabled":false,"rental_uris":{"android":"levelo://app?vid=60538224-bff8-4197-b73c-8109e738fc6e","ios":"levelo://app?vid=60538224-bff8-4197-b73c-8109e738fc6e"},"vehicle_type_id":"4","last_reported":1740572317,"current_range_meters":3600,"station_id":"ce4bhg12rcd13ifvqf80","pricing_plan_id":"cebpf4jnsgd1na2vs0mg"},{"bike_id":"3cbe9595-0c2b-4998-aa87-61e54223aee5","system_id":"levelo_inurba_marseille","lat":43.23152,"lon":5.43706,"is_reserved":false,"is_disabled":false,"rental_uris":{"android":"levelo://app?vid=3cbe9595-0c2b-4998-aa87-61e54223aee5","ios":"levelo://app?vid=3cbe9595-0c2b-4998-aa87-61e54223aee5"},"vehicle_type_id":"4","last_reported":1740572317,"current_range_meters":3600,"station_id":"ce4bhmp2rcd13ifvqgog","pricing_plan_id":"cebpf4jnsgd1na2vs0mg"},{"bike_id":"819e448c-7c82-4ab2-904c-f0e1e418396e","system_id":"levelo_inurba_marseille","lat":43.28847,"lon":5.39303,"is_reserved":false,"is_disabled":false,"rental_uris":{"android":"levelo://app?vid=819e448c-7c82-4ab2-904c-f0e1e418396e","ios":"levelo://app?vid=819e448c-7c82-4ab2-904c-f0e1e418396e"},"vehicle_type_id":"4","last_reported":1740572317,"current_range_meters":2800,"station_id":"ce4bh2p2rcd13ifvqdi0","pricing_plan_id":"cebpf4jnsgd1na2vs0mg"},{"bike_id":"901e21cf-d8ae-47f3-bbe6-116e9f3a210b","system_id":"levelo_inurba_marseille","lat":43.26932,"lon":5.40258,"is_reserved":false,"is_disabled":false,"rental_uris":{"android":"levelo://app?vid=901e21cf-d8ae-47f3-bbe6-116e9f3a210b","ios":"levelo://app?vid=901e21cf-d8ae-47f3-bbe6-116e9f3a210b"},"vehicle_type_id":"4","last_reported":1740572317,"current_range_meters":3600,"station_id":"cjm6bp8fraef2m0cb0m0","pricing_plan_id":"cebpf4jnsgd1na2vs0mg"},{"bike_id":"7cb2ec13-9150-4ba0-8600-71e4c8b933c1","system_id":"levelo_inurba_marseille","lat":43.28278,"lon":5.35042,"is_reserved":false,"is_disabled":true,"rental_uris":{"android":"levelo://app?vid=7cb2ec13-9150-4ba0-8600-71e4c8b933c1","ios":"levelo://app?vid=7cb2ec13-9150-4ba0-8600-71e4c8b933c1"},"vehicle_type_id":"4","last_reported":1740572317,"current_range_meters":4000,"station_id":"ce4bhbp2rcd13ifvqerg","pricing_plan_id":"cebpf4jnsgd1na2vs0mg"},{"bike_id":"cef6b586-e806-49a5-b11c-d7c285784f00","system_id":"levelo_inurba_marseille","lat":43.30607,"lon":5.39365,"is_reserved":false,"is_disabled":false,"rental_uris":{"android":"levelo://app?vid=cef6b586-e806-49a5-b11c-d7c285784f00","ios":"levelo://app?vid=cef6b586-e806-49a5-b11c-d7c285784f00"},"vehicle_type_id":"4","last_reported":1740572317,"current_range_meters":4000,"station_id":"ce4bh0p2rcd13ifvqd80","pricing_plan_id":"cebpf4jnsgd1na2vs0mg"},{"bike_id":"e218b2c1-a2eb-4015-9a6b-b8cb229fbf4e","system_id":"levelo_inurba_marseille","lat":43.29277,"lon":5.36846,"is_reserved":false,"is_disabled":false,"rental_uris":{"android":"levelo://app?vid=e218b2c1-a2eb-4015-9a6b-b8cb229fbf4e","ios":"levelo://app?vid=e218b2c1-a2eb-4015-9a6b-b8cb229fbf4e"},"vehicle_type_id":"4","last_reported":1740572317,"current_range_meters":4400,"station_id":"ce4bhbp2rcd13ifvqesg","pricing_plan_id":"cebpf4jnsgd1na2vs0mg"},{"bike_id":"9dddb1e0-e67e-4e90-b84a-eeafc6eee4ce","system_id":"levelo_inurba_marseille","lat":43.25572,"lon":5.382133,"is_reserved":false,"is_disabled":false,"rental_uris":{"android":"levelo://app?vid=9dddb1e0-e67e-4e90-b84a-eeafc6eee4ce","ios":"levelo://app?vid=9dddb1e0-e67e-4e90-b84a-eeafc6eee4ce"},"vehicle_type_id":"4","last_reported":1740572317,"current_range_meters":4800,"station_id":"ce4bhih2rcd13ifvqfs0","pricing_plan_id":"cebpf4jnsgd1na2vs0mg"},{"bike_id":"f7e08165-54d1-4d3e-b242-9ad022abf1bc","system_id":"levelo_inurba_marseille","lat":43.29136,"lon":5.37394,"is_reserved":false,"is_disabled":false,"rental_uris":{"android":"levelo://app?vid=f7e08165-54d1-4d3e-b242-9ad022abf1bc","ios":"levelo://app?vid=f7e08165-54d1-4d3e-b242-9ad022abf1bc"},"vehicle_type_id":"4","last_reported":1740572317,"current_range_meters":6400,"station_id":"","pricing_plan_id":"cebpf4jnsgd1na2vs0mg"},{"bike_id":"6045a532-a980-4cb4-a847-b16d7cd14f3e","system_id":"levelo_inurba_marseille","lat":43.24337,"lon":5.39667,"is_reserved":false,"is_disabled":false,"rental_uris":{"android":"levelo://app?vid=6045a532-a980-4cb4-a847-b16d7cd14f3e","ios":"levelo://app?vid=6045a532-a980-4cb4-a847-b16d7cd14f3e"},"vehicle_type_id":"4","last_reported":1740572317,"current_range_meters":4800,"station_id":"","pricing_plan_id":"cebpf4jnsgd1na2vs0mg"},{"bike_id":"47c1cfe5-271f-4a0e-bcc9-57ff108b7af1","system_id":"levelo_inurba_marseille","lat":43.30478,"lon":5.37911,"is_reserved":false,"is_disabled":false,"rental_uris":{"android":"levelo://app?vid=47c1cfe5-271f-4a0e-bcc9-57ff108b7af1","ios":"levelo://app?vid=47c1cfe5-271f-4a0e-bcc9-57ff108b7af1"},"vehicle_type_id":"4","last_reported":1740572317,"current_range_meters":5600,"station_id":"ce4bgup2rcd13ifvqcn0","pricing_plan_id":"cebpf4jnsgd1na2vs0mg"},{"bike_id":"e07c4d3e-b317-4b10-b919-c6146de26647","system_id":"levelo_inurba_marseille","lat":43.325304,"lon":5.414472,"is_reserved":false,"is_disabled":false,"rental_uris":{"android":"levelo://app?vid=e07c4d3e-b317-4b10-b919-c6146de26647","ios":"levelo://app?vid=e07c4d3e-b317-4b10-b919-c6146de26647"},"vehicle_type_id":"4","last_reported":1740572317,"current_range_meters":5600,"station_id":"ce4bhq12rcd13ifvqhhg","pricing_plan_id":"cebpf4jnsgd1na2vs0mg"},{"bike_id":"b6eb1e76-a88a-437e-98c4-9a612de71195","system_id":"levelo_inurba_marseille","lat":43.23145,"lon":5.43728,"is_reserved":false,"is_disabled":false,"rental_uris":{"android":"levelo://app?vid=b6eb1e76-a88a-437e-98c4-9a612de71195","ios":"levelo://app?vid=b6eb1e76-a88a-437e-98c4-9a612de71195"},"vehicle_type_id":"4","last_reported":1740572317,"current_range_meters":5600,"station_id":"ce4bhmp2rcd13ifvqgog","pricing_plan_id":"cebpf4jnsgd1na2vs0mg"},{"bike_id":"7fc90eb1-9957-475e-9192-17ed554f6215","system_id":"levelo_inurba_marseille","lat":43.25929,"lon":5.40863,"is_reserved":false,"is_disabled":false,"rental_uris":{"android":"levelo://app?vid=7fc90eb1-9957-475e-9192-17ed554f6215","ios":"levelo://app?vid=7fc90eb1-9957-475e-9192-17ed554f6215"},"vehicle_type_id":"4","last_reported":1740572317,"current_range_meters":6000,"station_id":"ce4bhm92rcd13ifvqglg","pricing_plan_id":"cebpf4jnsgd1na2vs0mg"},{"bike_id":"4eacdfcf-4439-41cc-8e35-de7378f33d13","system_id":"levelo_inurba_marseille","lat":43.30598,"lon":5.39362,"is_reserved":false,"is_disabled":false,"rental_uris":{"android":"levelo://app?vid=4eacdfcf-4439-41cc-8e35-de7378f33d13","ios":"levelo://app?vid=4eacdfcf-4439-41cc-8e35-de7378f33d13"},"vehicle_type_id":"4","last_reported":1740572317,"current_range_meters":6000,"station_id":"ce4bh0p2rcd13ifvqd80","pricing_plan_id":"cebpf4jnsgd1na2vs0mg"},{"bike_id":"0991ff0b-3fdf-4da2-8571-bc0afef0af0e","system_id":"levelo_inurba_marseille","lat":43.29616,"lon":5.37727,"is_reserved":false,"is_disabled":false,"rental_uris":{"android":"levelo://app?vid=0991ff0b-3fdf-4da2-8571-bc0afef0af0e","ios":"levelo://app?vid=0991ff0b-3fdf-4da2-8571-bc0afef0af0e"},"vehicle_type_id":"4","last_reported":1740572317,"current_range_meters":6000,"station_id":"ce4bgi92rcd13ifvqb90","pricing_plan_id":"cebpf4jnsgd1na2vs0mg"},{"bike_id":"6b0d0c2d-4d23-4c03-a923-3377025cc5f4","system_id":"levelo_inurba_marseille","lat":43.29804,"lon":5.38098,"is_reserved":false,"is_disabled":false,"rental_uris":{"android":"levelo://app?vid=6b0d0c2d-4d23-4c03-a923-3377025cc5f4","ios":"levelo://app?vid=6b0d0c2d-4d23-4c03-a923-3377025cc5f4"},"vehicle_type_id":"4","last_reported":1740572317,"current_range_meters":5600,"station_id":"ce4bgip2rcd13ifvqbb0","pricing_plan_id":"cebpf4jnsgd1na2vs0mg"},{"bike_id":"203e2b02-6293-4ea1-b2f8-caa9150bc685","system_id":"levelo_inurba_marseille","lat":43.26569,"lon":5.39015,"is_reserved":false,"is_disabled":false,"rental_uris":{"android":"levelo://app?vid=203e2b02-6293-4ea1-b2f8-caa9150bc685","ios":"levelo://app?vid=203e2b02-6293-4ea1-b2f8-caa9150bc685"},"vehicle_type_id":"4","last_reported":1740572317,"current_range_meters":6400,"station_id":"ce4bhe12rcd13ifvqf30","pricing_plan_id":"cebpf4jnsgd1na2vs0mg"},{"bike_id":"0a3f5ff5-949d-4cf4-a30b-f6d782a87c75","system_id":"levelo_inurba_marseille","lat":43.25575,"lon":5.38226,"is_reserved":false,"is_disabled":false,"rental_uris":{"android":"levelo://app?vid=0a3f5ff5-949d-4cf4-a30b-f6d782a87c75","ios":"levelo://app?vid=0a3f5ff5-949d-4cf4-a30b-f6d782a87c75"},"vehicle_type_id":"4","last_reported":1740572317,"current_range_meters":6400,"station_id":"ce4bhih2rcd13ifvqfs0","pricing_plan_id":"cebpf4jnsgd1na2vs0mg"},{"bike_id":"301c7b00-a2b5-4911-bfda-3e405de95b33","system_id":"levelo_inurba_marseille","lat":43.28569,"lon":5.39493,"is_reserved":false,"is_disabled":false,"rental_uris":{"android":"levelo://app?vid=301c7b00-a2b5-4911-bfda-3e405de95b33","ios":"levelo://app?vid=301c7b00-a2b5-4911-bfda-3e405de95b33"},"vehicle_type_id":"4","last_reported":1740572317,"current_range_meters":6400,"station_id":"ce4bh292rcd13ifvqdg0","pricing_plan_id":"cebpf4jnsgd1na2vs0mg"},{"bike_id":"00a52e98-9e41-482a-80c2-f38f3a0e8685","system_id":"levelo_inurba_marseille","lat":43.24388,"lon":5.37062,"is_reserved":false,"is_disabled":false,"rental_uris":{"android":"levelo://app?vid=00a52e98-9e41-482a-80c2-f38f3a0e8685","ios":"levelo://app?vid=00a52e98-9e41-482a-80c2-f38f3a0e8685"},"vehicle_type_id":"4","last_reported":1740572317,"current_range_meters":6400,"station_id":"ce4bhhh2rcd13ifvqfk0","pricing_plan_id":"cebpf4jnsgd1na2vs0mg"},{"bike_id":"1fb0e46b-bdba-4a0b-8c63-b6e48236eaf3","system_id":"levelo_inurba_marseille","lat":43.3129,"lon":5.36744,"is_reserved":false,"is_disabled":false,"rental_uris":{"android":"levelo://app?vid=1fb0e46b-bdba-4a0b-8c63-b6e48236eaf3","ios":"levelo://app?vid=1fb0e46b-bdba-4a0b-8c63-b6e48236eaf3"},"vehicle_type_id":"4","last_reported":1740572317,"current_range_meters":6400,"station_id":"","pricing_plan_id":"cebpf4jnsgd1na2vs0mg"},{"bike_id":"2a22b3ca-bcbe-425b-8e56-8467bbf50f59","system_id":"levelo_inurba_marseille","lat":43.27216,"lon":5.39183,"is_reserved":false,"is_disabled":false,"rental_uris":{"android":"levelo://app?vid=2a22b3ca-bcbe-425b-8e56-8467bbf50f59","ios":"levelo://app?vid=2a22b3ca-bcbe-425b-8e56-8467bbf50f59"},"vehicle_type_id":"4","last_reported":1740572317,"current_range_meters":6800,"station_id":"ce4bhhp2rcd13ifvqfm0","pricing_plan_id":"cebpf4jnsgd1na2vs0mg"},{"bike_id":"e5c275a2-a964-47d8-9489-ed1126cf4cef","system_id":"levelo_inurba_marseille","lat":43.29588,"lon":5.37899,"is_reserved":false,"is_disabled":false,"rental_uris":{"android":"levelo://app?vid=e5c275a2-a964-47d8-9489-ed1126cf4cef","ios":"levelo://app?vid=e5c275a2-a964-47d8-9489-ed1126cf4cef"},"vehicle_type_id":"4","last_reported":1740572317,"current_range_meters":7200,"station_id":"","pricing_plan_id":"cebpf4jnsgd1na2vs0mg"},{"bike_id":"dd0d7743-f203-4e92-bead-435e009b0083","system_id":"levelo_inurba_marseille","lat":43.28614,"lon":5.3511,"is_reserved":false,"is_disabled":false,"rental_uris":{"android":"levelo://app?vid=dd0d7743-f203-4e92-bead-435e009b0083","ios":"levelo://app?vid=dd0d7743-f203-4e92-bead-435e009b0083"},"vehicle_type_id":"4","last_reported":1740572317,"current_range_meters":6800,"station_id":"ce4bhch2rcd13ifvqeug","pricing_plan_id":"cebpf4jnsgd1na2vs0mg"},{"bike_id":"1bb88189-4583-46c5-bff7-303f1e6712ad","system_id":"levelo_inurba_marseille","lat":43.2558,"lon":5.38229,"is_reserved":false,"is_disabled":false,"rental_uris":{"android":"levelo://app?vid=1bb88189-4583-46c5-bff7-303f1e6712ad","ios":"levelo://app?vid=1bb88189-4583-46c5-bff7-303f1e6712ad"},"vehicle_type_id":"4","last_reported":1740572317,"current_range_meters":6800,"station_id":"ce4bhih2rcd13ifvqfs0","pricing_plan_id":"cebpf4jnsgd1na2vs0mg"},{"bike_id":"e4cd531c-53f6-497b-b684-69896df31ea1","system_id":"levelo_inurba_marseille","lat":43.24161,"lon":5.39739,"is_reserved":false,"is_disabled":false,"rental_uris":{"android":"levelo://app?vid=e4cd531c-53f6-497b-b684-69896df31ea1","ios":"levelo://app?vid=e4cd531c-53f6-497b-b684-69896df31ea1"},"vehicle_type_id":"4","last_reported":1740572317,"current_range_meters":6800,"station_id":"ce4bhn12rcd13ifvqgpg","pricing_plan_id":"cebpf4jnsgd1na2vs0mg"},{"bike_id":"7c45866a-bd99-4c12-9747-66203f12a96e","system_id":"levelo_inurba_marseille","lat":43.23144,"lon":5.35514,"is_reserved":false,"is_disabled":false,"rental_uris":{"android":"levelo://app?vid=7c45866a-bd99-4c12-9747-66203f12a96e","ios":"levelo://app?vid=7c45866a-bd99-4c12-9747-66203f12a96e"},"vehicle_type_id":"4","last_reported":1740572317,"current_range_meters":6800,"station_id":"","pricing_plan_id":"cebpf4jnsgd1na2vs0mg"},{"bike_id":"ad15a503-e243-4704-8cbb-77d92c75e1d9","system_id":"levelo_inurba_marseille","lat":43.28456,"lon":5.39176,"is_reserved":false,"is_disabled":true,"rental_uris":{"android":"levelo://app?vid=ad15a503-e243-4704-8cbb-77d92c75e1d9","ios":"levelo://app?vid=ad15a503-e243-4704-8cbb-77d92c75e1d9"},"vehicle_type_id":"4","last_reported":1740572317,"current_range_meters":6800,"station_id":"ce4bhoh2rcd13ifvqh5g","pricing_plan_id":"cebpf4jnsgd1na2vs0mg"},{"bike_id":"fd989f9b-c206-42e1-9b73-4174141497be","system_id":"levelo_inurba_marseille","lat":43.30895,"lon":5.39641,"is_reserved":false,"is_disabled":false,"rental_uris":{"android":"levelo://app?vid=fd989f9b-c206-42e1-9b73-4174141497be","ios":"levelo://app?vid=fd989f9b-c206-42e1-9b73-4174141497be"},"vehicle_type_id":"4","last_reported":1740572317,"current_range_meters":6800,"station_id":"ce4bh012rcd13ifvqcv0","pricing_plan_id":"cebpf4jnsgd1na2vs0mg"},{"bike_id":"2d988ab6-6b31-4f03-9a53-9cf3da57e49e","system_id":"levelo_inurba_marseille","lat":43.31734,"lon":5.42394,"is_reserved":false,"is_disabled":false,"rental_uris":{"android":"levelo://app?vid=2d988ab6-6b31-4f03-9a53-9cf3da57e49e","ios":"levelo://app?vid=2d988ab6-6b31-4f03-9a53-9cf3da57e49e"},"vehicle_type_id":"4","last_reported":1740572317,"current_range_meters":7200,"station_id":"ce4bhp92rcd13ifvqhbg","pricing_plan_id":"cebpf4jnsgd1na2vs0mg"},{"bike_id":"5713724b-bc01-4ed5-85d5-bc16050657ce","system_id":"levelo_inurba_marseille","lat":43.2594,"lon":5.40904,"is_reserved":false,"is_disabled":false,"rental_uris":{"android":"levelo://app?vid=5713724b-bc01-4ed5-85d5-bc16050657ce","ios":"levelo://app?vid=5713724b-bc01-4ed5-85d5-bc16050657ce"},"vehicle_type_id":"4","last_reported":1740572317,"current_range_meters":7200,"station_id":"ce4bhm92rcd13ifvqglg","pricing_plan_id":"cebpf4jnsgd1na2vs0mg"},{"bike_id":"abb88488-0877-4b17-9abe-7e7737319d8a","system_id":"levelo_inurba_marseille","lat":43.29522,"lon":5.37509,"is_reserved":false,"is_disabled":false,"rental_uris":{"android":"levelo://app?vid=abb88488-0877-4b17-9abe-7e7737319d8a","ios":"levelo://app?vid=abb88488-0877-4b17-9abe-7e7737319d8a"},"vehicle_type_id":"4","last_reported":1740572317,"current_range_meters":7200,"station_id":"ce4bgkp2rcd13ifvqbmg","pricing_plan_id":"cebpf4jnsgd1na2vs0mg"},{"bike_id":"1a7bfb97-868b-4bdd-bc5c-2808902cf55d","system_id":"levelo_inurba_marseille","lat":43.273765,"lon":5.362622,"is_reserved":false,"is_disabled":false,"rental_uris":{"android":"levelo://app?vid=1a7bfb97-868b-4bdd-bc5c-2808902cf55d","ios":"levelo://app?vid=1a7bfb97-868b-4bdd-bc5c-2808902cf55d"},"vehicle_type_id":"4","last_reported":1740572317,"current_range_meters":7200,"station_id":"ce4bhbh2rcd13ifvqeo0","pricing_plan_id":"cebpf4jnsgd1na2vs0mg"},{"bike_id":"d195c036-1441-4910-bcb8-60d709890867","system_id":"levelo_inurba_marseille","lat":43.241653,"lon":5.36393,"is_reserved":false,"is_disabled":false,"rental_uris":{"android":"levelo://app?vid=d195c036-1441-4910-bcb8-60d709890867","ios":"levelo://app?vid=d195c036-1441-4910-bcb8-60d709890867"},"vehicle_type_id":"4","last_reported":1740572317,"current_range_meters":8000,"station_id":"cpo36qri1sfpv3e86is0","pricing_plan_id":"cebpf4jnsgd1na2vs0mg"},{"bike_id":"c405406a-0919-45e3-83f8-567ea8622701","system_id":"levelo_inurba_marseille","lat":43.241764,"lon":5.397424,"is_reserved":false,"is_disabled":false,"rental_uris":{"android":"levelo://app?vid=c405406a-0919-45e3-83f8-567ea8622701","ios":"levelo://app?vid=c405406a-0919-45e3-83f8-567ea8622701"},"vehicle_type_id":"4","last_reported":1740572317,"current_range_meters":8000,"station_id":"ce4bhn12rcd13ifvqgpg","pricing_plan_id":"cebpf4jnsgd1na2vs0mg"},{"bike_id":"8a347558-4d24-4798-bc0f-3e92792b691e","system_id":"levelo_inurba_marseille","lat":43.31248,"lon":5.3687,"is_reserved":false,"is_disabled":false,"rental_uris":{"android":"levelo://app?vid=8a347558-4d24-4798-bc0f-3e92792b691e","ios":"levelo://app?vid=8a347558-4d24-4798-bc0f-3e92792b691e"},"vehicle_type_id":"4","last_reported":1740572317,"current_range_meters":8000,"station_id":"ce4bgl92rcd13ifvqbq0","pricing_plan_id":"cebpf4jnsgd1na2vs0mg"},{"bike_id":"67725c5f-6c88-4aa6-933d-2d037eceece1","system_id":"levelo_inurba_marseille","lat":43.2603,"lon":5.37551,"is_reserved":false,"is_disabled":false,"rental_uris":{"android":"levelo://app?vid=67725c5f-6c88-4aa6-933d-2d037eceece1","ios":"levelo://app?vid=67725c5f-6c88-4aa6-933d-2d037eceece1"},"vehicle_type_id":"4","last_reported":1740572317,"current_range_meters":8000,"station_id":"ce4bhgh2rcd13ifvqfa0","pricing_plan_id":"cebpf4jnsgd1na2vs0mg"},{"bike_id":"68f1a107-4e0a-482b-bb69-435f4976fc1d","system_id":"levelo_inurba_marseille","lat":43.30595,"lon":5.39344,"is_reserved":false,"is_disabled":false,"rental_uris":{"android":"levelo://app?vid=68f1a107-4e0a-482b-bb69-435f4976fc1d","ios":"levelo://app?vid=68f1a107-4e0a-482b-bb69-435f4976fc1d"},"vehicle_type_id":"4","last_reported":1740572317,"current_range_meters":4000,"station_id":"ce4bh0p2rcd13ifvqd80","pricing_plan_id":"cebpf4jnsgd1na2vs0mg"},{"bike_id":"4669b121-6e06-4449-9c5c-294e3531f7ce","system_id":"levelo_inurba_marseille","lat":43.31345,"lon":5.36718,"is_reserved":false,"is_disabled":false,"rental_uris":{"android":"levelo://app?vid=4669b121-6e06-4449-9c5c-294e3531f7ce","ios":"levelo://app?vid=4669b121-6e06-4449-9c5c-294e3531f7ce"},"vehicle_type_id":"4","last_reported":1740572317,"current_range_meters":8400,"station_id":"ce4bgr92rcd13ifvqc6g","pricing_plan_id":"cebpf4jnsgd1na2vs0mg"},{"bike_id":"fc3f0dcf-cbac-458c-bafd-da49ef96ac46","system_id":"levelo_inurba_marseille","lat":43.29265,"lon":5.38447,"is_reserved":false,"is_disabled":false,"rental_uris":{"android":"levelo://app?vid=fc3f0dcf-cbac-458c-bafd-da49ef96ac46","ios":"levelo://app?vid=fc3f0dcf-cbac-458c-bafd-da49ef96ac46"},"vehicle_type_id":"4","last_reported":1740572317,"current_range_meters":8400,"station_id":"ce4bh692rcd13ifvqea0","pricing_plan_id":"cebpf4jnsgd1na2vs0mg"},{"bike_id":"05f51bd6-bf8c-4b6c-ba2f-d7bf7cec3006","system_id":"levelo_inurba_marseille","lat":43.23213,"lon":5.35529,"is_reserved":false,"is_disabled":false,"rental_uris":{"android":"levelo://app?vid=05f51bd6-bf8c-4b6c-ba2f-d7bf7cec3006","ios":"levelo://app?vid=05f51bd6-bf8c-4b6c-ba2f-d7bf7cec3006"},"vehicle_type_id":"4","last_reported":1740572317,"current_range_meters":8400,"station_id":"ce4bhu92rcd13ifvqi70","pricing_plan_id":"cebpf4jnsgd1na2vs0mg"},{"bike_id":"5af30630-744f-4e98-9dc6-872889967a41","system_id":"levelo_inurba_marseille","lat":43.28406,"lon":5.34991,"is_reserved":false,"is_disabled":false,"rental_uris":{"android":"levelo://app?vid=5af30630-744f-4e98-9dc6-872889967a41","ios":"levelo://app?vid=5af30630-744f-4e98-9dc6-872889967a41"},"vehicle_type_id":"4","last_reported":1740572317,"current_range_meters":8400,"station_id":"ce4bhbh2rcd13ifvqepg","pricing_plan_id":"cebpf4jnsgd1na2vs0mg"},{"bike_id":"a1ca3ad0-4f52-4569-bb87-4293f6934d8b","system_id":"levelo_inurba_marseille","lat":43.23194,"lon":5.35544,"is_reserved":false,"is_disabled":false,"rental_uris":{"android":"levelo://app?vid=a1ca3ad0-4f52-4569-bb87-4293f6934d8b","ios":"levelo://app?vid=a1ca3ad0-4f52-4569-bb87-4293f6934d8b"},"vehicle_type_id":"4","last_reported":1740572317,"current_range_meters":8400,"station_id":"ce4bhu92rcd13ifvqi70","pricing_plan_id":"cebpf4jnsgd1na2vs0mg"},{"bike_id":"53d5ec87-e6ba-4f62-b996-318e78dadae9","system_id":"levelo_inurba_marseille","lat":43.335957,"lon":5.410143,"is_reserved":false,"is_disabled":false,"rental_uris":{"android":"levelo://app?vid=53d5ec87-e6ba-4f62-b996-318e78dadae9","ios":"levelo://app?vid=53d5ec87-e6ba-4f62-b996-318e78dadae9"},"vehicle_type_id":"4","last_reported":1740572317,"current_range_meters":8800,"station_id":"ce4bhqh2rcd13ifvqhmg","pricing_plan_id":"cebpf4jnsgd1na2vs0mg"},{"bike_id":"73539b7d-ff20-4f19-bbfe-f410d1fb2380","system_id":"levelo_inurba_marseille","lat":43.31073,"lon":5.383467,"is_reserved":false,"is_disabled":false,"rental_uris":{"android":"levelo://app?vid=73539b7d-ff20-4f19-bbfe-f410d1fb2380","ios":"levelo://app?vid=73539b7d-ff20-4f19-bbfe-f410d1fb2380"},"vehicle_type_id":"4","last_reported":1740572317,"current_range_meters":8400,"station_id":"ce4bgup2rcd13ifvqcn0","pricing_plan_id":"cebpf4jnsgd1na2vs0mg"},{"bike_id":"c41ea1da-82eb-488f-87f2-aa9618193d38","system_id":"levelo_inurba_marseille","lat":43.28564,"lon":5.39492,"is_reserved":false,"is_disabled":false,"rental_uris":{"android":"levelo://app?vid=c41ea1da-82eb-488f-87f2-aa9618193d38","ios":"levelo://app?vid=c41ea1da-82eb-488f-87f2-aa9618193d38"},"vehicle_type_id":"4","last_reported":1740572317,"current_range_meters":8000,"station_id":"ce4bh292rcd13ifvqdg0","pricing_plan_id":"cebpf4jnsgd1na2vs0mg"},{"bike_id":"b14013f2-29a3-4f94-9bb8-99f5c171b5e5","system_id":"levelo_inurba_marseille","lat":43.30143,"lon":5.38076,"is_reserved":false,"is_disabled":false,"rental_uris":{"android":"levelo://app?vid=b14013f2-29a3-4f94-9bb8-99f5c171b5e5","ios":"levelo://app?vid=b14013f2-29a3-4f94-9bb8-99f5c171b5e5"},"vehicle_type_id":"4","last_reported":1740572317,"current_range_meters":8400,"station_id":"ce4bgjp2rcd13ifvqbh0","pricing_plan_id":"cebpf4jnsgd1na2vs0mg"},{"bike_id":"9f6b1a57-8b18-4910-92c4-7c3c71b26e15","system_id":"levelo_inurba_marseille","lat":43.23381,"lon":5.36018,"is_reserved":false,"is_disabled":false,"rental_uris":{"android":"levelo://app?vid=9f6b1a57-8b18-4910-92c4-7c3c71b26e15","ios":"levelo://app?vid=9f6b1a57-8b18-4910-92c4-7c3c71b26e15"},"vehicle_type_id":"4","last_reported":1740572317,"current_range_meters":8800,"station_id":"","pricing_plan_id":"cebpf4jnsgd1na2vs0mg"},{"bike_id":"ceb091b6-164e-414b-9d42-d42f9a4b15fb","system_id":"levelo_inurba_marseille","lat":43.30955,"lon":5.39038,"is_reserved":false,"is_disabled":false,"rental_uris":{"android":"levelo://app?vid=ceb091b6-164e-414b-9d42-d42f9a4b15fb","ios":"levelo://app?vid=ceb091b6-164e-414b-9d42-d42f9a4b15fb"},"vehicle_type_id":"4","last_reported":1740572317,"current_range_meters":8800,"station_id":"ce4bgup2rcd13ifvqco0","pricing_plan_id":"cebpf4jnsgd1na2vs0mg"},{"bike_id":"16c694c0-81b8-47ac-8e74-17468f5223ea","system_id":"levelo_inurba_marseille","lat":43.27071,"lon":5.42273,"is_reserved":false,"is_disabled":false,"rental_uris":{"android":"levelo://app?vid=16c694c0-81b8-47ac-8e74-17468f5223ea","ios":"levelo://app?vid=16c694c0-81b8-47ac-8e74-17468f5223ea"},"vehicle_type_id":"4","last_reported":1740572317,"current_range_meters":6800,"station_id":"ce4bhk92rcd13ifvqgb0","pricing_plan_id":"cebpf4jnsgd1na2vs0mg"},{"bike_id":"b7c24cf9-2128-4690-90f3-ac2f2313dd09","system_id":"levelo_inurba_marseille","lat":43.28852,"lon":5.39317,"is_reserved":false,"is_disabled":false,"rental_uris":{"android":"levelo://app?vid=b7c24cf9-2128-4690-90f3-ac2f2313dd09","ios":"levelo://app?vid=b7c24cf9-2128-4690-90f3-ac2f2313dd09"},"vehicle_type_id":"4","last_reported":1740572317,"current_range_meters":8400,"station_id":"ce4bh2p2rcd13ifvqdi0","pricing_plan_id":"cebpf4jnsgd1na2vs0mg"},{"bike_id":"dcdfafc4-ad04-4f03-b713-a44cb5c77c53","system_id":"levelo_inurba_marseille","lat":43.29566,"lon":5.39969,"is_reserved":false,"is_disabled":true,"rental_uris":{"android":"levelo://app?vid=dcdfafc4-ad04-4f03-b713-a44cb5c77c53","ios":"levelo://app?vid=dcdfafc4-ad04-4f03-b713-a44cb5c77c53"},"vehicle_type_id":"4","last_reported":1740572317,"current_range_meters":8800,"station_id":"ce4bh312rcd13ifvqdj0","pricing_plan_id":"cebpf4jnsgd1na2vs0mg"},{"bike_id":"338ea397-fc1c-4285-90cc-058db7682af1","system_id":"levelo_inurba_marseille","lat":43.23164,"lon":5.43721,"is_reserved":false,"is_disabled":false,"rental_uris":{"android":"levelo://app?vid=338ea397-fc1c-4285-90cc-058db7682af1","ios":"levelo://app?vid=338ea397-fc1c-4285-90cc-058db7682af1"},"vehicle_type_id":"4","last_reported":1740572317,"current_range_meters":8800,"station_id":"ce4bhmp2rcd13ifvqgog","pricing_plan_id":"cebpf4jnsgd1na2vs0mg"},{"bike_id":"89e44665-812f-48fa-aa8d-ed00c6be9914","system_id":"levelo_inurba_marseille","lat":43.25825,"lon":5.39424,"is_reserved":false,"is_disabled":false,"rental_uris":{"android":"levelo://app?vid=89e44665-812f-48fa-aa8d-ed00c6be9914","ios":"levelo://app?vid=89e44665-812f-48fa-aa8d-ed00c6be9914"},"vehicle_type_id":"4","last_reported":1740572317,"current_range_meters":9200,"station_id":"ce4bhip2rcd13ifvqft0","pricing_plan_id":"cebpf4jnsgd1na2vs0mg"},{"bike_id":"009cdcb2-4b54-438b-a5c4-f7ef8e65d688","system_id":"levelo_inurba_marseille","lat":43.27304,"lon":5.39102,"is_reserved":false,"is_disabled":false,"rental_uris":{"android":"levelo://app?vid=009cdcb2-4b54-438b-a5c4-f7ef8e65d688","ios":"levelo://app?vid=009cdcb2-4b54-438b-a5c4-f7ef8e65d688"},"vehicle_type_id":"4","last_reported":1740572317,"current_range_meters":9200,"station_id":"ce4bhgp2rcd13ifvqfe0","pricing_plan_id":"cebpf4jnsgd1na2vs0mg"},{"bike_id":"68307e54-4bf1-4175-b0d8-726606b2225e","system_id":"levelo_inurba_marseille","lat":43.3171,"lon":5.37733,"is_reserved":false,"is_disabled":false,"rental_uris":{"android":"levelo://app?vid=68307e54-4bf1-4175-b0d8-726606b2225e","ios":"levelo://app?vid=68307e54-4bf1-4175-b0d8-726606b2225e"},"vehicle_type_id":"4","last_reported":1740572317,"current_range_meters":9200,"station_id":"ce4bgth2rcd13ifvqch0","pricing_plan_id":"cebpf4jnsgd1na2vs0mg"},{"bike_id":"28a6234f-c333-4dcc-9182-cbe2a5bc1b07","system_id":"levelo_inurba_marseille","lat":43.27951,"lon":5.41042,"is_reserved":false,"is_disabled":false,"rental_uris":{"android":"levelo://app?vid=28a6234f-c333-4dcc-9182-cbe2a5bc1b07","ios":"levelo://app?vid=28a6234f-c333-4dcc-9182-cbe2a5bc1b07"},"vehicle_type_id":"4","last_reported":1740572317,"current_range_meters":19200,"station_id":"ce4bhnp2rcd13ifvqh0g","pricing_plan_id":"cebpf4jnsgd1na2vs0mg"},{"bike_id":"021bbe1b-8907-4b35-87cf-c7beb70139f0","system_id":"levelo_inurba_marseille","lat":43.309322,"lon":5.401366,"is_reserved":false,"is_disabled":false,"rental_uris":{"android":"levelo://app?vid=021bbe1b-8907-4b35-87cf-c7beb70139f0","ios":"levelo://app?vid=021bbe1b-8907-4b35-87cf-c7beb70139f0"},"vehicle_type_id":"4","last_reported":1740572317,"current_range_meters":8800,"station_id":"ce4bhqh2rcd13ifvqhmg","pricing_plan_id":"cebpf4jnsgd1na2vs0mg"},{"bike_id":"c52acbad-9974-48d6-b92b-1d6c12a1b66d","system_id":"levelo_inurba_marseille","lat":43.25936,"lon":5.40902,"is_reserved":false,"is_disabled":false,"rental_uris":{"android":"levelo://app?vid=c52acbad-9974-48d6-b92b-1d6c12a1b66d","ios":"levelo://app?vid=c52acbad-9974-48d6-b92b-1d6c12a1b66d"},"vehicle_type_id":"4","last_reported":1740572317,"current_range_meters":9600,"station_id":"ce4bhm92rcd13ifvqglg","pricing_plan_id":"cebpf4jnsgd1na2vs0mg"},{"bike_id":"34c4c817-ef7d-48f7-949e-4dfe87e89717","system_id":"levelo_inurba_marseille","lat":43.29259,"lon":5.38444,"is_reserved":false,"is_disabled":false,"rental_uris":{"android":"levelo://app?vid=34c4c817-ef7d-48f7-949e-4dfe87e89717","ios":"levelo://app?vid=34c4c817-ef7d-48f7-949e-4dfe87e89717"},"vehicle_type_id":"4","last_reported":1740572317,"current_range_meters":9600,"station_id":"ce4bh692rcd13ifvqea0","pricing_plan_id":"cebpf4jnsgd1na2vs0mg"},{"bike_id":"a8b469b4-be9e-4bd5-bf99-d8ff40e45e0c","system_id":"levelo_inurba_marseille","lat":43.30464,"lon":5.37902,"is_reserved":false,"is_disabled":false,"rental_uris":{"android":"levelo://app?vid=a8b469b4-be9e-4bd5-bf99-d8ff40e45e0c","ios":"levelo://app?vid=a8b469b4-be9e-4bd5-bf99-d8ff40e45e0c"},"vehicle_type_id":"4","last_reported":1740572317,"current_range_meters":9200,"station_id":"ce4bgup2rcd13ifvqcn0","pricing_plan_id":"cebpf4jnsgd1na2vs0mg"},{"bike_id":"9b915295-820a-492e-9312-19dccca58957","system_id":"levelo_inurba_marseille","lat":43.292962,"lon":5.376996,"is_reserved":false,"is_disabled":false,"rental_uris":{"android":"levelo://app?vid=9b915295-820a-492e-9312-19dccca58957","ios":"levelo://app?vid=9b915295-820a-492e-9312-19dccca58957"},"vehicle_type_id":"4","last_reported":1740572317,"current_range_meters":9600,"station_id":"ce4bgi92rcd13ifvqb90","pricing_plan_id":"cebpf4jnsgd1na2vs0mg"},{"bike_id":"c18cc029-80cd-45af-af95-d501ef314690","system_id":"levelo_inurba_marseille","lat":43.26931,"lon":5.38918,"is_reserved":false,"is_disabled":false,"rental_uris":{"android":"levelo://app?vid=c18cc029-80cd-45af-af95-d501ef314690","ios":"levelo://app?vid=c18cc029-80cd-45af-af95-d501ef314690"},"vehicle_type_id":"4","last_reported":1740572317,"current_range_meters":10000,"station_id":"ce4bhhh2rcd13ifvqfl0","pricing_plan_id":"cebpf4jnsgd1na2vs0mg"},{"bike_id":"7c8aaa9b-e43a-43de-8b4f-a531a44d3724","system_id":"levelo_inurba_marseille","lat":43.27938,"lon":5.41048,"is_reserved":false,"is_disabled":false,"rental_uris":{"android":"levelo://app?vid=7c8aaa9b-e43a-43de-8b4f-a531a44d3724","ios":"levelo://app?vid=7c8aaa9b-e43a-43de-8b4f-a531a44d3724"},"vehicle_type_id":"4","last_reported":1740572317,"current_range_meters":9600,"station_id":"ce4bhnp2rcd13ifvqh0g","pricing_plan_id":"cebpf4jnsgd1na2vs0mg"},{"bike_id":"6b286004-f086-4023-9675-02a95f8e917b","system_id":"levelo_inurba_marseille","lat":43.3095,"lon":5.39018,"is_reserved":false,"is_disabled":true,"rental_uris":{"android":"levelo://app?vid=6b286004-f086-4023-9675-02a95f8e917b","ios":"levelo://app?vid=6b286004-f086-4023-9675-02a95f8e917b"},"vehicle_type_id":"4","last_reported":1740572317,"current_range_meters":9600,"station_id":"ce4bgup2rcd13ifvqco0","pricing_plan_id":"cebpf4jnsgd1na2vs0mg"},{"bike_id":"b007f058-4163-4bbe-ba13-50835769bd43","system_id":"levelo_inurba_marseille","lat":43.31705,"lon":5.43709,"is_reserved":false,"is_disabled":false,"rental_uris":{"android":"levelo://app?vid=b007f058-4163-4bbe-ba13-50835769bd43","ios":"levelo://app?vid=b007f058-4163-4bbe-ba13-50835769bd43"},"vehicle_type_id":"4","last_reported":1740572317,"current_range_meters":9600,"station_id":"ce4bhp92rcd13ifvqhcg","pricing_plan_id":"cebpf4jnsgd1na2vs0mg"},{"bike_id":"dcadedec-711d-4e7d-8944-cc6affec0da9","system_id":"levelo_inurba_marseille","lat":43.29956,"lon":5.41316,"is_reserved":false,"is_disabled":false,"rental_uris":{"android":"levelo://app?vid=dcadedec-711d-4e7d-8944-cc6affec0da9","ios":"levelo://app?vid=dcadedec-711d-4e7d-8944-cc6affec0da9"},"vehicle_type_id":"4","last_reported":1740572317,"current_range_meters":9200,"station_id":"ce4bhp12rcd13ifvqh9g","pricing_plan_id":"cebpf4jnsgd1na2vs0mg"},{"bike_id":"eec6fd0c-47b2-4d60-b5a3-3d356fdee7e7","system_id":"levelo_inurba_marseille","lat":43.23156,"lon":5.43709,"is_reserved":false,"is_disabled":false,"rental_uris":{"android":"levelo://app?vid=eec6fd0c-47b2-4d60-b5a3-3d356fdee7e7","ios":"levelo://app?vid=eec6fd0c-47b2-4d60-b5a3-3d356fdee7e7"},"vehicle_type_id":"4","last_reported":1740572317,"current_range_meters":9600,"station_id":"ce4bhmp2rcd13ifvqgog","pricing_plan_id":"cebpf4jnsgd1na2vs0mg"},{"bike_id":"d0801915-0de0-4f9d-9726-750b42c06614","system_id":"levelo_inurba_marseille","lat":43.32112,"lon":5.36765,"is_reserved":false,"is_disabled":false,"rental_uris":{"android":"levelo://app?vid=d0801915-0de0-4f9d-9726-750b42c06614","ios":"levelo://app?vid=d0801915-0de0-4f9d-9726-750b42c06614"},"vehicle_type_id":"4","last_reported":1740572317,"current_range_meters":9600,"station_id":"ce4bhrh2rcd13ifvqhug","pricing_plan_id":"cebpf4jnsgd1na2vs0mg"},{"bike_id":"98b238a9-4025-493e-bfff-4f030bc1db49","system_id":"levelo_inurba_marseille","lat":43.30881,"lon":5.39651,"is_reserved":false,"is_disabled":false,"rental_uris":{"android":"levelo://app?vid=98b238a9-4025-493e-bfff-4f030bc1db49","ios":"levelo://app?vid=98b238a9-4025-493e-bfff-4f030bc1db49"},"vehicle_type_id":"4","last_reported":1740572317,"current_range_meters":9600,"station_id":"ce4bh012rcd13ifvqcv0","pricing_plan_id":"cebpf4jnsgd1na2vs0mg"},{"bike_id":"a600a990-7122-4401-bf5b-1edbd9d1c330","system_id":"levelo_inurba_marseille","lat":43.24547,"lon":5.39521,"is_reserved":false,"is_disabled":false,"rental_uris":{"android":"levelo://app?vid=a600a990-7122-4401-bf5b-1edbd9d1c330","ios":"levelo://app?vid=a600a990-7122-4401-bf5b-1edbd9d1c330"},"vehicle_type_id":"4","last_reported":1740572317,"current_range_meters":10000,"station_id":"ce4bhlp2rcd13ifvqgjg","pricing_plan_id":"cebpf4jnsgd1na2vs0mg"},{"bike_id":"5f1c0580-25d4-4ca1-baa3-15817d8a2160","system_id":"levelo_inurba_marseille","lat":43.305481,"lon":5.365291,"is_reserved":false,"is_disabled":false,"rental_uris":{"android":"levelo://app?vid=5f1c0580-25d4-4ca1-baa3-15817d8a2160","ios":"levelo://app?vid=5f1c0580-25d4-4ca1-baa3-15817d8a2160"},"vehicle_type_id":"4","last_reported":1740572317,"current_range_meters":10000,"station_id":"ce4bgs12rcd13ifvqcag","pricing_plan_id":"cebpf4jnsgd1na2vs0mg"},{"bike_id":"c1e1cfc9-4e56-4f7a-94a9-2d01d9bb2a93","system_id":"levelo_inurba_marseille","lat":43.2481,"lon":5.37452,"is_reserved":false,"is_disabled":false,"rental_uris":{"android":"levelo://app?vid=c1e1cfc9-4e56-4f7a-94a9-2d01d9bb2a93","ios":"levelo://app?vid=c1e1cfc9-4e56-4f7a-94a9-2d01d9bb2a93"},"vehicle_type_id":"4","last_reported":1740572317,"current_range_meters":10000,"station_id":"ce4bhgh2rcd13ifvqfb0","pricing_plan_id":"cebpf4jnsgd1na2vs0mg"},{"bike_id":"cceab312-3595-4a00-9dad-3a3a2f0edfa8","system_id":"levelo_inurba_marseille","lat":43.31327,"lon":5.39687,"is_reserved":false,"is_disabled":false,"rental_uris":{"android":"levelo://app?vid=cceab312-3595-4a00-9dad-3a3a2f0edfa8","ios":"levelo://app?vid=cceab312-3595-4a00-9dad-3a3a2f0edfa8"},"vehicle_type_id":"4","last_reported":1740572317,"current_range_meters":5600,"station_id":"ce4bgvp2rcd13ifvqcu0","pricing_plan_id":"cebpf4jnsgd1na2vs0mg"},{"bike_id":"45ac4e55-c7aa-4a65-99c8-81935b8b8498","system_id":"levelo_inurba_marseille","lat":43.24805,"lon":5.3745,"is_reserved":false,"is_disabled":false,"rental_uris":{"android":"levelo://app?vid=45ac4e55-c7aa-4a65-99c8-81935b8b8498","ios":"levelo://app?vid=45ac4e55-c7aa-4a65-99c8-81935b8b8498"},"vehicle_type_id":"4","last_reported":1740572317,"current_range_meters":7200,"station_id":"ce4bhgh2rcd13ifvqfb0","pricing_plan_id":"cebpf4jnsgd1na2vs0mg"},{"bike_id":"06f66f75-c84f-4aed-9792-8d1609f95dd5","system_id":"levelo_inurba_marseille","lat":43.30945,"lon":5.39008,"is_reserved":false,"is_disabled":false,"rental_uris":{"android":"levelo://app?vid=06f66f75-c84f-4aed-9792-8d1609f95dd5","ios":"levelo://app?vid=06f66f75-c84f-4aed-9792-8d1609f95dd5"},"vehicle_type_id":"4","last_reported":1740572317,"current_range_meters":10000,"station_id":"ce4bgup2rcd13ifvqco0","pricing_plan_id":"cebpf4jnsgd1na2vs0mg"},{"bike_id":"b95a2ef7-49bc-4a4e-843d-65180fc01b1c","system_id":"levelo_inurba_marseille","lat":43.31494,"lon":5.37288,"is_reserved":false,"is_disabled":false,"rental_uris":{"android":"levelo://app?vid=b95a2ef7-49bc-4a4e-843d-65180fc01b1c","ios":"levelo://app?vid=b95a2ef7-49bc-4a4e-843d-65180fc01b1c"},"vehicle_type_id":"4","last_reported":1740572317,"current_range_meters":11200,"station_id":"ce4bgt12rcd13ifvqcd0","pricing_plan_id":"cebpf4jnsgd1na2vs0mg"},{"bike_id":"261556eb-c6ed-4781-a967-bc98c917e52c","system_id":"levelo_inurba_marseille","lat":43.24172,"lon":5.39723,"is_reserved":false,"is_disabled":false,"rental_uris":{"android":"levelo://app?vid=261556eb-c6ed-4781-a967-bc98c917e52c","ios":"levelo://app?vid=261556eb-c6ed-4781-a967-bc98c917e52c"},"vehicle_type_id":"4","last_reported":1740572317,"current_range_meters":10000,"station_id":"ce4bhn12rcd13ifvqgpg","pricing_plan_id":"cebpf4jnsgd1na2vs0mg"},{"bike_id":"6f79503b-9c36-49c2-a132-6fd612d437ad","system_id":"levelo_inurba_marseille","lat":43.29874,"lon":5.39754,"is_reserved":false,"is_disabled":false,"rental_uris":{"android":"levelo://app?vid=6f79503b-9c36-49c2-a132-6fd612d437ad","ios":"levelo://app?vid=6f79503b-9c36-49c2-a132-6fd612d437ad"},"vehicle_type_id":"4","last_reported":1740572317,"current_range_meters":10800,"station_id":"ce4bh0h2rcd13ifvqd50","pricing_plan_id":"cebpf4jnsgd1na2vs0mg"},{"bike_id":"799474af-679e-4d15-8578-dabcfec339b3","system_id":"levelo_inurba_marseille","lat":43.28455,"lon":5.35885,"is_reserved":false,"is_disabled":false,"rental_uris":{"android":"levelo://app?vid=799474af-679e-4d15-8578-dabcfec339b3","ios":"levelo://app?vid=799474af-679e-4d15-8578-dabcfec339b3"},"vehicle_type_id":"4","last_reported":1740572317,"current_range_meters":10000,"station_id":"ce4bhah2rcd13ifvqei0","pricing_plan_id":"cebpf4jnsgd1na2vs0mg"},{"bike_id":"01783c60-cdd4-4925-b30f-2f3020328abe","system_id":"levelo_inurba_marseille","lat":43.25498,"lon":5.37653,"is_reserved":false,"is_disabled":false,"rental_uris":{"android":"levelo://app?vid=01783c60-cdd4-4925-b30f-2f3020328abe","ios":"levelo://app?vid=01783c60-cdd4-4925-b30f-2f3020328abe"},"vehicle_type_id":"4","last_reported":1740572317,"current_range_meters":11200,"station_id":"ce4bhh12rcd13ifvqff0","pricing_plan_id":"cebpf4jnsgd1na2vs0mg"},{"bike_id":"7b098498-a73a-4bba-83fd-cfc253ec3b1e","system_id":"levelo_inurba_marseille","lat":43.30582,"lon":5.37193,"is_reserved":false,"is_disabled":false,"rental_uris":{"android":"levelo://app?vid=7b098498-a73a-4bba-83fd-cfc253ec3b1e","ios":"levelo://app?vid=7b098498-a73a-4bba-83fd-cfc253ec3b1e"},"vehicle_type_id":"4","last_reported":1740572317,"current_range_meters":10800,"station_id":"ce4bgqh2rcd13ifvqc4g","pricing_plan_id":"cebpf4jnsgd1na2vs0mg"},{"bike_id":"bd3f440a-75eb-43c7-b5ee-aa6446d6b7f8","system_id":"levelo_inurba_marseille","lat":43.25111,"lon":5.4032,"is_reserved":false,"is_disabled":false,"rental_uris":{"android":"levelo://app?vid=bd3f440a-75eb-43c7-b5ee-aa6446d6b7f8","ios":"levelo://app?vid=bd3f440a-75eb-43c7-b5ee-aa6446d6b7f8"},"vehicle_type_id":"4","last_reported":1740572317,"current_range_meters":10800,"station_id":"ce4bhlh2rcd13ifvqgig","pricing_plan_id":"cebpf4jnsgd1na2vs0mg"},{"bike_id":"3dca3e53-5b40-4be0-9c9e-3b9c5d3b7b13","system_id":"levelo_inurba_marseille","lat":43.2952,"lon":5.37505,"is_reserved":false,"is_disabled":false,"rental_uris":{"android":"levelo://app?vid=3dca3e53-5b40-4be0-9c9e-3b9c5d3b7b13","ios":"levelo://app?vid=3dca3e53-5b40-4be0-9c9e-3b9c5d3b7b13"},"vehicle_type_id":"4","last_reported":1740572317,"current_range_meters":10000,"station_id":"ce4bgkp2rcd13ifvqbmg","pricing_plan_id":"cebpf4jnsgd1na2vs0mg"},{"bike_id":"3b813646-2f34-401c-a684-d6f0dbc0aa61","system_id":"levelo_inurba_marseille","lat":43.25491,"lon":5.37677,"is_reserved":false,"is_disabled":false,"rental_uris":{"android":"levelo://app?vid=3b813646-2f34-401c-a684-d6f0dbc0aa61","ios":"levelo://app?vid=3b813646-2f34-401c-a684-d6f0dbc0aa61"},"vehicle_type_id":"4","last_reported":1740572317,"current_range_meters":11200,"station_id":"ce4bhh12rcd13ifvqff0","pricing_plan_id":"cebpf4jnsgd1na2vs0mg"},{"bike_id":"67ee95a1-160f-49c1-b11e-b3640680cd0d","system_id":"levelo_inurba_marseille","lat":43.32078,"lon":5.36764,"is_reserved":false,"is_disabled":false,"rental_uris":{"android":"levelo://app?vid=67ee95a1-160f-49c1-b11e-b3640680cd0d","ios":"levelo://app?vid=67ee95a1-160f-49c1-b11e-b3640680cd0d"},"vehicle_type_id":"4","last_reported":1740572317,"current_range_meters":11200,"station_id":"ce4bhrh2rcd13ifvqhug","pricing_plan_id":"cebpf4jnsgd1na2vs0mg"},{"bike_id":"699af245-facc-43e2-b413-e224506357cd","system_id":"levelo_inurba_marseille","lat":43.29303,"lon":5.371739,"is_reserved":false,"is_disabled":false,"rental_uris":{"android":"levelo://app?vid=699af245-facc-43e2-b413-e224506357cd","ios":"levelo://app?vid=699af245-facc-43e2-b413-e224506357cd"},"vehicle_type_id":"4","last_reported":1740572317,"current_range_meters":11200,"station_id":"ce4bgs12rcd13ifvqcag","pricing_plan_id":"cebpf4jnsgd1na2vs0mg"},{"bike_id":"16b6e611-78de-4cc7-aa68-c5691c52154d","system_id":"levelo_inurba_marseille","lat":43.27802,"lon":5.40697,"is_reserved":false,"is_disabled":false,"rental_uris":{"android":"levelo://app?vid=16b6e611-78de-4cc7-aa68-c5691c52154d","ios":"levelo://app?vid=16b6e611-78de-4cc7-aa68-c5691c52154d"},"vehicle_type_id":"4","last_reported":1740572317,"current_range_meters":11600,"station_id":"ce4bhnh2rcd13ifvqgtg","pricing_plan_id":"cebpf4jnsgd1na2vs0mg"},{"bike_id":"56c90c05-21dd-4258-af01-641c62e92e64","system_id":"levelo_inurba_marseille","lat":43.28622,"lon":5.35101,"is_reserved":false,"is_disabled":false,"rental_uris":{"android":"levelo://app?vid=56c90c05-21dd-4258-af01-641c62e92e64","ios":"levelo://app?vid=56c90c05-21dd-4258-af01-641c62e92e64"},"vehicle_type_id":"4","last_reported":1740572317,"current_range_meters":11600,"station_id":"ce4bhch2rcd13ifvqeug","pricing_plan_id":"cebpf4jnsgd1na2vs0mg"},{"bike_id":"fee58efb-645e-47a3-958f-9d233c4796da","system_id":"levelo_inurba_marseille","lat":43.26769,"lon":5.39378,"is_reserved":false,"is_disabled":false,"rental_uris":{"android":"levelo://app?vid=fee58efb-645e-47a3-958f-9d233c4796da","ios":"levelo://app?vid=fee58efb-645e-47a3-958f-9d233c4796da"},"vehicle_type_id":"4","last_reported":1740572317,"current_range_meters":11600,"station_id":"ce4bhh12rcd13ifvqfg0","pricing_plan_id":"cebpf4jnsgd1na2vs0mg"},{"bike_id":"a6647bfe-ac4d-4672-9c48-21a5165713a0","system_id":"levelo_inurba_marseille","lat":43.29792,"lon":5.38093,"is_reserved":false,"is_disabled":false,"rental_uris":{"android":"levelo://app?vid=a6647bfe-ac4d-4672-9c48-21a5165713a0","ios":"levelo://app?vid=a6647bfe-ac4d-4672-9c48-21a5165713a0"},"vehicle_type_id":"4","last_reported":1740572317,"current_range_meters":11200,"station_id":"ce4bgip2rcd13ifvqbb0","pricing_plan_id":"cebpf4jnsgd1na2vs0mg"},{"bike_id":"1d8d2b2e-c3d0-4c5a-8528-f72969669e89","system_id":"levelo_inurba_marseille","lat":43.25505,"lon":5.37645,"is_reserved":false,"is_disabled":false,"rental_uris":{"android":"levelo://app?vid=1d8d2b2e-c3d0-4c5a-8528-f72969669e89","ios":"levelo://app?vid=1d8d2b2e-c3d0-4c5a-8528-f72969669e89"},"vehicle_type_id":"4","last_reported":1740572317,"current_range_meters":11600,"station_id":"ce4bhh12rcd13ifvqff0","pricing_plan_id":"cebpf4jnsgd1na2vs0mg"},{"bike_id":"56aac360-25b5-4e6d-8d09-8438934f591f","system_id":"levelo_inurba_marseille","lat":43.30314,"lon":5.36908,"is_reserved":false,"is_disabled":false,"rental_uris":{"android":"levelo://app?vid=56aac360-25b5-4e6d-8d09-8438934f591f","ios":"levelo://app?vid=56aac360-25b5-4e6d-8d09-8438934f591f"},"vehicle_type_id":"4","last_reported":1740572317,"current_range_meters":11200,"station_id":"ce4bgqh2rcd13ifvqc5g","pricing_plan_id":"cebpf4jnsgd1na2vs0mg"},{"bike_id":"df2b6808-8c0d-4f30-9be3-8afa5e31f82f","system_id":"levelo_inurba_marseille","lat":43.30869,"lon":5.39647,"is_reserved":false,"is_disabled":false,"rental_uris":{"android":"levelo://app?vid=df2b6808-8c0d-4f30-9be3-8afa5e31f82f","ios":"levelo://app?vid=df2b6808-8c0d-4f30-9be3-8afa5e31f82f"},"vehicle_type_id":"4","last_reported":1740572317,"current_range_meters":11600,"station_id":"ce4bh012rcd13ifvqcv0","pricing_plan_id":"cebpf4jnsgd1na2vs0mg"},{"bike_id":"8801f531-d481-4160-b34e-40afc4ee14bc","system_id":"levelo_inurba_marseille","lat":43.23157,"lon":5.43704,"is_reserved":false,"is_disabled":false,"rental_uris":{"android":"levelo://app?vid=8801f531-d481-4160-b34e-40afc4ee14bc","ios":"levelo://app?vid=8801f531-d481-4160-b34e-40afc4ee14bc"},"vehicle_type_id":"4","last_reported":1740572317,"current_range_meters":12000,"station_id":"ce4bhmp2rcd13ifvqgog","pricing_plan_id":"cebpf4jnsgd1na2vs0mg"},{"bike_id":"0b2f5009-1e4e-4593-8abd-b74dc1937c26","system_id":"levelo_inurba_marseille","lat":43.23204,"lon":5.39984,"is_reserved":false,"is_disabled":false,"rental_uris":{"android":"levelo://app?vid=0b2f5009-1e4e-4593-8abd-b74dc1937c26","ios":"levelo://app?vid=0b2f5009-1e4e-4593-8abd-b74dc1937c26"},"vehicle_type_id":"4","last_reported":1740572317,"current_range_meters":12000,"station_id":"ce4bhn12rcd13ifvqgqg","pricing_plan_id":"cebpf4jnsgd1na2vs0mg"},{"bike_id":"eeacdbba-0e14-4bcc-a02e-b548a9b4ae70","system_id":"levelo_inurba_marseille","lat":43.31499,"lon":5.37313,"is_reserved":false,"is_disabled":false,"rental_uris":{"android":"levelo://app?vid=eeacdbba-0e14-4bcc-a02e-b548a9b4ae70","ios":"levelo://app?vid=eeacdbba-0e14-4bcc-a02e-b548a9b4ae70"},"vehicle_type_id":"4","last_reported":1740572317,"current_range_meters":12000,"station_id":"ce4bgt12rcd13ifvqcd0","pricing_plan_id":"cebpf4jnsgd1na2vs0mg"},{"bike_id":"b18e534b-d341-46a4-a4e7-5b5e70cb54a6","system_id":"levelo_inurba_marseille","lat":43.2679,"lon":5.39418,"is_reserved":false,"is_disabled":false,"rental_uris":{"android":"levelo://app?vid=b18e534b-d341-46a4-a4e7-5b5e70cb54a6","ios":"levelo://app?vid=b18e534b-d341-46a4-a4e7-5b5e70cb54a6"},"vehicle_type_id":"4","last_reported":1740572317,"current_range_meters":10800,"station_id":"ce4bhh12rcd13ifvqfg0","pricing_plan_id":"cebpf4jnsgd1na2vs0mg"},{"bike_id":"511df7e7-1330-4159-bb5d-325216084662","system_id":"levelo_inurba_marseille","lat":43.26553,"lon":5.37287,"is_reserved":false,"is_disabled":false,"rental_uris":{"android":"levelo://app?vid=511df7e7-1330-4159-bb5d-325216084662","ios":"levelo://app?vid=511df7e7-1330-4159-bb5d-325216084662"},"vehicle_type_id":"4","last_reported":1740572317,"current_range_meters":12000,"station_id":"ce4bhg12rcd13ifvqf70","pricing_plan_id":"cebpf4jnsgd1na2vs0mg"},{"bike_id":"c2b83274-c7e2-4e24-9bbf-22a7e8d835e8","system_id":"levelo_inurba_marseille","lat":43.3176,"lon":5.39023,"is_reserved":false,"is_disabled":false,"rental_uris":{"android":"levelo://app?vid=c2b83274-c7e2-4e24-9bbf-22a7e8d835e8","ios":"levelo://app?vid=c2b83274-c7e2-4e24-9bbf-22a7e8d835e8"},"vehicle_type_id":"4","last_reported":1740572317,"current_range_meters":12000,"station_id":"ce4bhqp2rcd13ifvqhng","pricing_plan_id":"cebpf4jnsgd1na2vs0mg"},{"bike_id":"e5313776-22b5-4b11-9f58-37276d9b89f2","system_id":"levelo_inurba_marseille","lat":43.29725,"lon":5.37695,"is_reserved":false,"is_disabled":false,"rental_uris":{"android":"levelo://app?vid=e5313776-22b5-4b11-9f58-37276d9b89f2","ios":"levelo://app?vid=e5313776-22b5-4b11-9f58-37276d9b89f2"},"vehicle_type_id":"4","last_reported":1740572317,"current_range_meters":12800,"station_id":"ce4bgkh2rcd13ifvqbl0","pricing_plan_id":"cebpf4jnsgd1na2vs0mg"},{"bike_id":"1be0a102-0170-4601-96a5-6fefd6ab2174","system_id":"levelo_inurba_marseille","lat":43.30301,"lon":5.39213,"is_reserved":false,"is_disabled":false,"rental_uris":{"android":"levelo://app?vid=1be0a102-0170-4601-96a5-6fefd6ab2174","ios":"levelo://app?vid=1be0a102-0170-4601-96a5-6fefd6ab2174"},"vehicle_type_id":"4","last_reported":1740572317,"current_range_meters":10000,"station_id":"ce4bgkh2rcd13ifvqbk0","pricing_plan_id":"cebpf4jnsgd1na2vs0mg"},{"bike_id":"19b47293-ea85-4f02-83fb-a36367b39e0c","system_id":"levelo_inurba_marseille","lat":43.3248,"lon":5.36593,"is_reserved":false,"is_disabled":false,"rental_uris":{"android":"levelo://app?vid=19b47293-ea85-4f02-83fb-a36367b39e0c","ios":"levelo://app?vid=19b47293-ea85-4f02-83fb-a36367b39e0c"},"vehicle_type_id":"4","last_reported":1740572317,"current_range_meters":12000,"station_id":"ce4bhs12rcd13ifvqhvg","pricing_plan_id":"cebpf4jnsgd1na2vs0mg"},{"bike_id":"90d62200-3998-4d07-9f1e-720136404e6a","system_id":"levelo_inurba_marseille","lat":43.28005,"lon":5.40009,"is_reserved":false,"is_disabled":false,"rental_uris":{"android":"levelo://app?vid=90d62200-3998-4d07-9f1e-720136404e6a","ios":"levelo://app?vid=90d62200-3998-4d07-9f1e-720136404e6a"},"vehicle_type_id":"4","last_reported":1740572317,"current_range_meters":11600,"station_id":"ce4bho92rcd13ifvqh4g","pricing_plan_id":"cebpf4jnsgd1na2vs0mg"},{"bike_id":"bc07e9a7-50af-4660-b0f1-01d1486f91be","system_id":"levelo_inurba_marseille","lat":43.30473,"lon":5.37907,"is_reserved":false,"is_disabled":true,"rental_uris":{"android":"levelo://app?vid=bc07e9a7-50af-4660-b0f1-01d1486f91be","ios":"levelo://app?vid=bc07e9a7-50af-4660-b0f1-01d1486f91be"},"vehicle_type_id":"4","last_reported":1740572317,"current_range_meters":12800,"station_id":"ce4bgup2rcd13ifvqcn0","pricing_plan_id":"cebpf4jnsgd1na2vs0mg"},{"bike_id":"2fc92739-028b-4297-9364-06625db59da0","system_id":"levelo_inurba_marseille","lat":43.27312,"lon":5.39073,"is_reserved":false,"is_disabled":false,"rental_uris":{"android":"levelo://app?vid=2fc92739-028b-4297-9364-06625db59da0","ios":"levelo://app?vid=2fc92739-028b-4297-9364-06625db59da0"},"vehicle_type_id":"4","last_reported":1740572317,"current_range_meters":12000,"station_id":"ce4bhgp2rcd13ifvqfe0","pricing_plan_id":"cebpf4jnsgd1na2vs0mg"},{"bike_id":"5c9725d8-8681-4e0f-ace3-4e0f742fa5bd","system_id":"levelo_inurba_marseille","lat":43.28921,"lon":5.3839,"is_reserved":false,"is_disabled":false,"rental_uris":{"android":"levelo://app?vid=5c9725d8-8681-4e0f-ace3-4e0f742fa5bd","ios":"levelo://app?vid=5c9725d8-8681-4e0f-ace3-4e0f742fa5bd"},"vehicle_type_id":"4","last_reported":1740572317,"current_range_meters":12000,"station_id":"ce4bh612rcd13ifvqe6g","pricing_plan_id":"cebpf4jnsgd1na2vs0mg"},{"bike_id":"22e2139e-d2b1-4756-8ae1-242e3764eba0","system_id":"levelo_inurba_marseille","lat":43.279264,"lon":5.39591,"is_reserved":false,"is_disabled":false,"rental_uris":{"android":"levelo://app?vid=22e2139e-d2b1-4756-8ae1-242e3764eba0","ios":"levelo://app?vid=22e2139e-d2b1-4756-8ae1-242e3764eba0"},"vehicle_type_id":"4","last_reported":1740572317,"current_range_meters":12400,"station_id":"ce4bhf92rcd13ifvqf40","pricing_plan_id":"cebpf4jnsgd1na2vs0mg"},{"bike_id":"0fc980b7-2ffb-414e-9d50-2f41a281a2ae","system_id":"levelo_inurba_marseille","lat":43.28164,"lon":5.42639,"is_reserved":false,"is_disabled":false,"rental_uris":{"android":"levelo://app?vid=0fc980b7-2ffb-414e-9d50-2f41a281a2ae","ios":"levelo://app?vid=0fc980b7-2ffb-414e-9d50-2f41a281a2ae"},"vehicle_type_id":"4","last_reported":1740572317,"current_range_meters":12400,"station_id":"ce4bhnh2rcd13ifvqgug","pricing_plan_id":"cebpf4jnsgd1na2vs0mg"},{"bike_id":"cc396f8c-9661-466a-988c-9d88d64422cd","system_id":"levelo_inurba_marseille","lat":43.30612,"lon":5.37226,"is_reserved":false,"is_disabled":false,"rental_uris":{"android":"levelo://app?vid=cc396f8c-9661-466a-988c-9d88d64422cd","ios":"levelo://app?vid=cc396f8c-9661-466a-988c-9d88d64422cd"},"vehicle_type_id":"4","last_reported":1740572317,"current_range_meters":12800,"station_id":"ce4bgqh2rcd13ifvqc4g","pricing_plan_id":"cebpf4jnsgd1na2vs0mg"},{"bike_id":"b6df566d-7102-4aea-8f39-85162aeab7bd","system_id":"levelo_inurba_marseille","lat":43.29889,"lon":5.38928,"is_reserved":false,"is_disabled":false,"rental_uris":{"android":"levelo://app?vid=b6df566d-7102-4aea-8f39-85162aeab7bd","ios":"levelo://app?vid=b6df566d-7102-4aea-8f39-85162aeab7bd"},"vehicle_type_id":"4","last_reported":1740572317,"current_range_meters":12400,"station_id":"ce4bh392rcd13ifvqdl0","pricing_plan_id":"cebpf4jnsgd1na2vs0mg"},{"bike_id":"e739437e-cb68-4a15-9f00-63739e5c52fa","system_id":"levelo_inurba_marseille","lat":43.28158,"lon":5.4265,"is_reserved":false,"is_disabled":false,"rental_uris":{"android":"levelo://app?vid=e739437e-cb68-4a15-9f00-63739e5c52fa","ios":"levelo://app?vid=e739437e-cb68-4a15-9f00-63739e5c52fa"},"vehicle_type_id":"4","last_reported":1740572317,"current_range_meters":12800,"station_id":"ce4bhnh2rcd13ifvqgug","pricing_plan_id":"cebpf4jnsgd1na2vs0mg"},{"bike_id":"f41688e2-172f-42dc-90a1-23f61049305c","system_id":"levelo_inurba_marseille","lat":43.303175,"lon":5.386346,"is_reserved":false,"is_disabled":false,"rental_uris":{"android":"levelo://app?vid=f41688e2-172f-42dc-90a1-23f61049305c","ios":"levelo://app?vid=f41688e2-172f-42dc-90a1-23f61049305c"},"vehicle_type_id":"4","last_reported":1740572317,"current_range_meters":13600,"station_id":"ce4bgrp2rcd13ifvqc9g","pricing_plan_id":"cebpf4jnsgd1na2vs0mg"},{"bike_id":"d786f474-b69f-4f7e-a6ff-d23e88577192","system_id":"levelo_inurba_marseille","lat":43.31707,"lon":5.37729,"is_reserved":false,"is_disabled":false,"rental_uris":{"android":"levelo://app?vid=d786f474-b69f-4f7e-a6ff-d23e88577192","ios":"levelo://app?vid=d786f474-b69f-4f7e-a6ff-d23e88577192"},"vehicle_type_id":"4","last_reported":1740572317,"current_range_meters":13600,"station_id":"ce4bgth2rcd13ifvqch0","pricing_plan_id":"cebpf4jnsgd1na2vs0mg"},{"bike_id":"dece458e-81e3-4984-8478-f9712759683a","system_id":"levelo_inurba_marseille","lat":43.24057,"lon":5.377671,"is_reserved":false,"is_disabled":false,"rental_uris":{"android":"levelo://app?vid=dece458e-81e3-4984-8478-f9712759683a","ios":"levelo://app?vid=dece458e-81e3-4984-8478-f9712759683a"},"vehicle_type_id":"4","last_reported":1740572317,"current_range_meters":13600,"station_id":"ce4bhm12rcd13ifvqgkg","pricing_plan_id":"cebpf4jnsgd1na2vs0mg"},{"bike_id":"9d8fd715-6506-497f-b998-3f021ad2c404","system_id":"levelo_inurba_marseille","lat":43.25928,"lon":5.40901,"is_reserved":false,"is_disabled":false,"rental_uris":{"android":"levelo://app?vid=9d8fd715-6506-497f-b998-3f021ad2c404","ios":"levelo://app?vid=9d8fd715-6506-497f-b998-3f021ad2c404"},"vehicle_type_id":"4","last_reported":1740572317,"current_range_meters":13600,"station_id":"ce4bhm92rcd13ifvqglg","pricing_plan_id":"cebpf4jnsgd1na2vs0mg"},{"bike_id":"d5ef1571-c6b9-4f13-96ed-bfaef3f9a56f","system_id":"levelo_inurba_marseille","lat":43.28923,"lon":5.36408,"is_reserved":false,"is_disabled":true,"rental_uris":{"android":"levelo://app?vid=d5ef1571-c6b9-4f13-96ed-bfaef3f9a56f","ios":"levelo://app?vid=d5ef1571-c6b9-4f13-96ed-bfaef3f9a56f"},"vehicle_type_id":"4","last_reported":1740572317,"current_range_meters":13600,"station_id":"ce4bhc92rcd13ifvqetg","pricing_plan_id":"cebpf4jnsgd1na2vs0mg"},{"bike_id":"d872eafb-fec3-4e73-bc38-203ac3352389","system_id":"levelo_inurba_marseille","lat":43.25126,"lon":5.4032,"is_reserved":false,"is_disabled":false,"rental_uris":{"android":"levelo://app?vid=d872eafb-fec3-4e73-bc38-203ac3352389","ios":"levelo://app?vid=d872eafb-fec3-4e73-bc38-203ac3352389"},"vehicle_type_id":"4","last_reported":1740572317,"current_range_meters":11600,"station_id":"ce4bhlh2rcd13ifvqgig","pricing_plan_id":"cebpf4jnsgd1na2vs0mg"},{"bike_id":"5b2f2c36-c8b5-45da-b42f-dad1bdf0d5bd","system_id":"levelo_inurba_marseille","lat":43.28156,"lon":5.42641,"is_reserved":false,"is_disabled":false,"rental_uris":{"android":"levelo://app?vid=5b2f2c36-c8b5-45da-b42f-dad1bdf0d5bd","ios":"levelo://app?vid=5b2f2c36-c8b5-45da-b42f-dad1bdf0d5bd"},"vehicle_type_id":"4","last_reported":1740572317,"current_range_meters":13600,"station_id":"ce4bhnh2rcd13ifvqgug","pricing_plan_id":"cebpf4jnsgd1na2vs0mg"},{"bike_id":"6870dd4d-0932-4a1c-8b40-41780d878a21","system_id":"levelo_inurba_marseille","lat":43.28591,"lon":5.37067,"is_reserved":false,"is_disabled":false,"rental_uris":{"android":"levelo://app?vid=6870dd4d-0932-4a1c-8b40-41780d878a21","ios":"levelo://app?vid=6870dd4d-0932-4a1c-8b40-41780d878a21"},"vehicle_type_id":"4","last_reported":1740572317,"current_range_meters":13600,"station_id":"ce4bht12rcd13ifvqi60","pricing_plan_id":"cebpf4jnsgd1na2vs0mg"},{"bike_id":"b8af8d53-ab0c-47b4-88c7-189f321f1e54","system_id":"levelo_inurba_marseille","lat":43.28732,"lon":5.37951,"is_reserved":false,"is_disabled":true,"rental_uris":{"android":"levelo://app?vid=b8af8d53-ab0c-47b4-88c7-189f321f1e54","ios":"levelo://app?vid=b8af8d53-ab0c-47b4-88c7-189f321f1e54"},"vehicle_type_id":"4","last_reported":1740572317,"current_range_meters":14000,"station_id":"ce4bh9p2rcd13ifvqec0","pricing_plan_id":"cebpf4jnsgd1na2vs0mg"},{"bike_id":"f9eed1e4-1895-44e2-8624-cc9551693ed5","system_id":"levelo_inurba_marseille","lat":43.298599,"lon":5.36287,"is_reserved":false,"is_disabled":false,"rental_uris":{"android":"levelo://app?vid=f9eed1e4-1895-44e2-8624-cc9551693ed5","ios":"levelo://app?vid=f9eed1e4-1895-44e2-8624-cc9551693ed5"},"vehicle_type_id":"4","last_reported":1740572317,"current_range_meters":14000,"station_id":"ce4bgpp2rcd13ifvqc3g","pricing_plan_id":"cebpf4jnsgd1na2vs0mg"},{"bike_id":"f3c34b6b-7981-405d-b8c8-724a8cd3d4cb","system_id":"levelo_inurba_marseille","lat":43.27834,"lon":5.39206,"is_reserved":false,"is_disabled":false,"rental_uris":{"android":"levelo://app?vid=f3c34b6b-7981-405d-b8c8-724a8cd3d4cb","ios":"levelo://app?vid=f3c34b6b-7981-405d-b8c8-724a8cd3d4cb"},"vehicle_type_id":"4","last_reported":1740572317,"current_range_meters":12800,"station_id":"ce4bhjp2rcd13ifvqga0","pricing_plan_id":"cebpf4jnsgd1na2vs0mg"},{"bike_id":"ad9571bc-5194-4f71-90ef-f1cb0835f36e","system_id":"levelo_inurba_marseille","lat":43.25506,"lon":5.37662,"is_reserved":false,"is_disabled":false,"rental_uris":{"android":"levelo://app?vid=ad9571bc-5194-4f71-90ef-f1cb0835f36e","ios":"levelo://app?vid=ad9571bc-5194-4f71-90ef-f1cb0835f36e"},"vehicle_type_id":"4","last_reported":1740572317,"current_range_meters":14000,"station_id":"ce4bhh12rcd13ifvqff0","pricing_plan_id":"cebpf4jnsgd1na2vs0mg"},{"bike_id":"5ea15a3c-910c-4386-8eaa-69c97896dd14","system_id":"levelo_inurba_marseille","lat":43.28491,"lon":5.38419,"is_reserved":false,"is_disabled":false,"rental_uris":{"android":"levelo://app?vid=5ea15a3c-910c-4386-8eaa-69c97896dd14","ios":"levelo://app?vid=5ea15a3c-910c-4386-8eaa-69c97896dd14"},"vehicle_type_id":"4","last_reported":1740572317,"current_range_meters":14000,"station_id":"ce4bh512rcd13ifvqe3g","pricing_plan_id":"cebpf4jnsgd1na2vs0mg"},{"bike_id":"1ca5b1d5-5a53-46dd-b1b2-e83fd71df428","system_id":"levelo_inurba_marseille","lat":43.27956,"lon":5.4104,"is_reserved":false,"is_disabled":false,"rental_uris":{"android":"levelo://app?vid=1ca5b1d5-5a53-46dd-b1b2-e83fd71df428","ios":"levelo://app?vid=1ca5b1d5-5a53-46dd-b1b2-e83fd71df428"},"vehicle_type_id":"4","last_reported":1740572317,"current_range_meters":14000,"station_id":"ce4bhnp2rcd13ifvqh0g","pricing_plan_id":"cebpf4jnsgd1na2vs0mg"},{"bike_id":"7559470b-ae69-4f7c-be1a-b99beff56c1d","system_id":"levelo_inurba_marseille","lat":43.30464,"lon":5.37913,"is_reserved":false,"is_disabled":false,"rental_uris":{"android":"levelo://app?vid=7559470b-ae69-4f7c-be1a-b99beff56c1d","ios":"levelo://app?vid=7559470b-ae69-4f7c-be1a-b99beff56c1d"},"vehicle_type_id":"4","last_reported":1740572317,"current_range_meters":14000,"station_id":"ce4bgup2rcd13ifvqcn0","pricing_plan_id":"cebpf4jnsgd1na2vs0mg"},{"bike_id":"95408a9a-de79-4089-b09c-99496d9d7dcd","system_id":"levelo_inurba_marseille","lat":43.29203,"lon":5.39324,"is_reserved":false,"is_disabled":false,"rental_uris":{"android":"levelo://app?vid=95408a9a-de79-4089-b09c-99496d9d7dcd","ios":"levelo://app?vid=95408a9a-de79-4089-b09c-99496d9d7dcd"},"vehicle_type_id":"4","last_reported":1740572317,"current_range_meters":14000,"station_id":"ce4bh192rcd13ifvqdd0","pricing_plan_id":"cebpf4jnsgd1na2vs0mg"},{"bike_id":"02028f5d-7181-4e7f-80ba-abb06cf96801","system_id":"levelo_inurba_marseille","lat":43.28418,"lon":5.34996,"is_reserved":false,"is_disabled":false,"rental_uris":{"android":"levelo://app?vid=02028f5d-7181-4e7f-80ba-abb06cf96801","ios":"levelo://app?vid=02028f5d-7181-4e7f-80ba-abb06cf96801"},"vehicle_type_id":"4","last_reported":1740572317,"current_range_meters":14400,"station_id":"ce4bhbh2rcd13ifvqepg","pricing_plan_id":"cebpf4jnsgd1na2vs0mg"},{"bike_id":"b3b7c115-575b-4239-8c18-44054db2acb7","system_id":"levelo_inurba_marseille","lat":43.29337,"lon":5.37448,"is_reserved":false,"is_disabled":false,"rental_uris":{"android":"levelo://app?vid=b3b7c115-575b-4239-8c18-44054db2acb7","ios":"levelo://app?vid=b3b7c115-575b-4239-8c18-44054db2acb7"},"vehicle_type_id":"4","last_reported":1740572317,"current_range_meters":14400,"station_id":"ce4bgi12rcd13ifvqb70","pricing_plan_id":"cebpf4jnsgd1na2vs0mg"},{"bike_id":"f66913d8-adc8-4497-b81a-8613461ae8a9","system_id":"levelo_inurba_marseille","lat":43.28415,"lon":5.34966,"is_reserved":false,"is_disabled":false,"rental_uris":{"android":"levelo://app?vid=f66913d8-adc8-4497-b81a-8613461ae8a9","ios":"levelo://app?vid=f66913d8-adc8-4497-b81a-8613461ae8a9"},"vehicle_type_id":"4","last_reported":1740572317,"current_range_meters":14800,"station_id":"ce4bhbh2rcd13ifvqepg","pricing_plan_id":"cebpf4jnsgd1na2vs0mg"},{"bike_id":"620faf8f-9860-4e84-b6cd-4559a0b9a89c","system_id":"levelo_inurba_marseille","lat":43.32492,"lon":5.36556,"is_reserved":false,"is_disabled":false,"rental_uris":{"android":"levelo://app?vid=620faf8f-9860-4e84-b6cd-4559a0b9a89c","ios":"levelo://app?vid=620faf8f-9860-4e84-b6cd-4559a0b9a89c"},"vehicle_type_id":"4","last_reported":1740572317,"current_range_meters":14400,"station_id":"ce4bhs12rcd13ifvqhvg","pricing_plan_id":"cebpf4jnsgd1na2vs0mg"},{"bike_id":"3e83a0ad-3f24-4796-b1a5-d2179d77df23","system_id":"levelo_inurba_marseille","lat":43.30886,"lon":5.37186,"is_reserved":false,"is_disabled":false,"rental_uris":{"android":"levelo://app?vid=3e83a0ad-3f24-4796-b1a5-d2179d77df23","ios":"levelo://app?vid=3e83a0ad-3f24-4796-b1a5-d2179d77df23"},"vehicle_type_id":"4","last_reported":1740572317,"current_range_meters":14400,"station_id":"ce4bguh2rcd13ifvqckg","pricing_plan_id":"cebpf4jnsgd1na2vs0mg"},{"bike_id":"6daa8fda-286c-415b-8b93-2e321188519b","system_id":"levelo_inurba_marseille","lat":43.30892,"lon":5.37181,"is_reserved":false,"is_disabled":false,"rental_uris":{"android":"levelo://app?vid=6daa8fda-286c-415b-8b93-2e321188519b","ios":"levelo://app?vid=6daa8fda-286c-415b-8b93-2e321188519b"},"vehicle_type_id":"4","last_reported":1740572317,"current_range_meters":14800,"station_id":"ce4bguh2rcd13ifvqckg","pricing_plan_id":"cebpf4jnsgd1na2vs0mg"},{"bike_id":"05d3ed84-27f8-4bce-9877-c99295e35460","system_id":"levelo_inurba_marseille","lat":43.23157,"lon":5.43695,"is_reserved":false,"is_disabled":false,"rental_uris":{"android":"levelo://app?vid=05d3ed84-27f8-4bce-9877-c99295e35460","ios":"levelo://app?vid=05d3ed84-27f8-4bce-9877-c99295e35460"},"vehicle_type_id":"4","last_reported":1740572317,"current_range_meters":14800,"station_id":"ce4bhmp2rcd13ifvqgog","pricing_plan_id":"cebpf4jnsgd1na2vs0mg"},{"bike_id":"b951cf64-d4d1-41cf-88ed-eada89282a81","system_id":"levelo_inurba_marseille","lat":43.23189,"lon":5.3999,"is_reserved":false,"is_disabled":false,"rental_uris":{"android":"levelo://app?vid=b951cf64-d4d1-41cf-88ed-eada89282a81","ios":"levelo://app?vid=b951cf64-d4d1-41cf-88ed-eada89282a81"},"vehicle_type_id":"4","last_reported":1740572317,"current_range_meters":14400,"station_id":"ce4bhn12rcd13ifvqgqg","pricing_plan_id":"cebpf4jnsgd1na2vs0mg"},{"bike_id":"89b1eb9a-bf92-4582-a1f6-a976f7501c41","system_id":"levelo_inurba_marseille","lat":43.29604,"lon":5.37712,"is_reserved":false,"is_disabled":false,"rental_uris":{"android":"levelo://app?vid=89b1eb9a-bf92-4582-a1f6-a976f7501c41","ios":"levelo://app?vid=89b1eb9a-bf92-4582-a1f6-a976f7501c41"},"vehicle_type_id":"4","last_reported":1740572317,"current_range_meters":15200,"station_id":"ce4bgi92rcd13ifvqb90","pricing_plan_id":"cebpf4jnsgd1na2vs0mg"},{"bike_id":"4762977d-0724-402c-ba2d-cea928a0b0e5","system_id":"levelo_inurba_marseille","lat":43.30604,"lon":5.39363,"is_reserved":false,"is_disabled":false,"rental_uris":{"android":"levelo://app?vid=4762977d-0724-402c-ba2d-cea928a0b0e5","ios":"levelo://app?vid=4762977d-0724-402c-ba2d-cea928a0b0e5"},"vehicle_type_id":"4","last_reported":1740572317,"current_range_meters":15200,"station_id":"ce4bh0p2rcd13ifvqd80","pricing_plan_id":"cebpf4jnsgd1na2vs0mg"},{"bike_id":"9dc7e2d5-119c-4c57-96cd-7fcca21c9c6c","system_id":"levelo_inurba_marseille","lat":43.3247,"lon":5.36579,"is_reserved":false,"is_disabled":false,"rental_uris":{"android":"levelo://app?vid=9dc7e2d5-119c-4c57-96cd-7fcca21c9c6c","ios":"levelo://app?vid=9dc7e2d5-119c-4c57-96cd-7fcca21c9c6c"},"vehicle_type_id":"4","last_reported":1740572317,"current_range_meters":15200,"station_id":"ce4bhs12rcd13ifvqhvg","pricing_plan_id":"cebpf4jnsgd1na2vs0mg"},{"bike_id":"253556b6-1d1a-4c30-abed-a92a4ec9f963","system_id":"levelo_inurba_marseille","lat":43.2737,"lon":5.36254,"is_reserved":false,"is_disabled":false,"rental_uris":{"android":"levelo://app?vid=253556b6-1d1a-4c30-abed-a92a4ec9f963","ios":"levelo://app?vid=253556b6-1d1a-4c30-abed-a92a4ec9f963"},"vehicle_type_id":"4","last_reported":1740572317,"current_range_meters":15200,"station_id":"ce4bhbh2rcd13ifvqeo0","pricing_plan_id":"cebpf4jnsgd1na2vs0mg"},{"bike_id":"19e4983d-b74d-4524-9c14-80fb6905f947","system_id":"levelo_inurba_marseille","lat":43.321,"lon":5.36737,"is_reserved":false,"is_disabled":false,"rental_uris":{"android":"levelo://app?vid=19e4983d-b74d-4524-9c14-80fb6905f947","ios":"levelo://app?vid=19e4983d-b74d-4524-9c14-80fb6905f947"},"vehicle_type_id":"4","last_reported":1740572317,"current_range_meters":15200,"station_id":"ce4bhrh2rcd13ifvqhug","pricing_plan_id":"cebpf4jnsgd1na2vs0mg"},{"bike_id":"3dc77aa8-36f3-4122-a7bc-49c086b4cb55","system_id":"levelo_inurba_marseille","lat":43.30883,"lon":5.37184,"is_reserved":false,"is_disabled":false,"rental_uris":{"android":"levelo://app?vid=3dc77aa8-36f3-4122-a7bc-49c086b4cb55","ios":"levelo://app?vid=3dc77aa8-36f3-4122-a7bc-49c086b4cb55"},"vehicle_type_id":"4","last_reported":1740572317,"current_range_meters":15200,"station_id":"ce4bguh2rcd13ifvqckg","pricing_plan_id":"cebpf4jnsgd1na2vs0mg"},{"bike_id":"653d2523-561a-4bbe-9d3a-f1a89ac65a08","system_id":"levelo_inurba_marseille","lat":43.2668,"lon":5.3827,"is_reserved":false,"is_disabled":false,"rental_uris":{"android":"levelo://app?vid=653d2523-561a-4bbe-9d3a-f1a89ac65a08","ios":"levelo://app?vid=653d2523-561a-4bbe-9d3a-f1a89ac65a08"},"vehicle_type_id":"4","last_reported":1740572317,"current_range_meters":14800,"station_id":"ce4bhg92rcd13ifvqf90","pricing_plan_id":"cebpf4jnsgd1na2vs0mg"},{"bike_id":"41bcbd39-dc6c-4708-80c1-49116771c9e4","system_id":"levelo_inurba_marseille","lat":43.28931,"lon":5.36647,"is_reserved":false,"is_disabled":false,"rental_uris":{"android":"levelo://app?vid=41bcbd39-dc6c-4708-80c1-49116771c9e4","ios":"levelo://app?vid=41bcbd39-dc6c-4708-80c1-49116771c9e4"},"vehicle_type_id":"4","last_reported":1740572317,"current_range_meters":15200,"station_id":"ce4bhap2rcd13ifvqek0","pricing_plan_id":"cebpf4jnsgd1na2vs0mg"},{"bike_id":"40bd775e-5ce3-4948-be2f-acfa8e48e7a0","system_id":"levelo_inurba_marseille","lat":43.28628,"lon":5.35092,"is_reserved":false,"is_disabled":false,"rental_uris":{"android":"levelo://app?vid=40bd775e-5ce3-4948-be2f-acfa8e48e7a0","ios":"levelo://app?vid=40bd775e-5ce3-4948-be2f-acfa8e48e7a0"},"vehicle_type_id":"4","last_reported":1740572317,"current_range_meters":15200,"station_id":"ce4bhch2rcd13ifvqeug","pricing_plan_id":"cebpf4jnsgd1na2vs0mg"},{"bike_id":"ad0e712d-4d32-43a4-89ba-362e49c6f89d","system_id":"levelo_inurba_marseille","lat":43.28441,"lon":5.39225,"is_reserved":false,"is_disabled":false,"rental_uris":{"android":"levelo://app?vid=ad0e712d-4d32-43a4-89ba-362e49c6f89d","ios":"levelo://app?vid=ad0e712d-4d32-43a4-89ba-362e49c6f89d"},"vehicle_type_id":"4","last_reported":1740572317,"current_range_meters":16400,"station_id":"ce4bhoh2rcd13ifvqh5g","pricing_plan_id":"cebpf4jnsgd1na2vs0mg"},{"bike_id":"ae82497d-81ac-4736-9e10-5c3a21213471","system_id":"levelo_inurba_marseille","lat":43.29324,"lon":5.37237,"is_reserved":false,"is_disabled":false,"rental_uris":{"android":"levelo://app?vid=ae82497d-81ac-4736-9e10-5c3a21213471","ios":"levelo://app?vid=ae82497d-81ac-4736-9e10-5c3a21213471"},"vehicle_type_id":"4","last_reported":1740572317,"current_range_meters":16000,"station_id":"ce4bgh92rcd13ifvqb40","pricing_plan_id":"cebpf4jnsgd1na2vs0mg"},{"bike_id":"a99a9a06-1cd7-487d-ac39-86ec39bbc237","system_id":"levelo_inurba_marseille","lat":43.28564,"lon":5.39499,"is_reserved":false,"is_disabled":false,"rental_uris":{"android":"levelo://app?vid=a99a9a06-1cd7-487d-ac39-86ec39bbc237","ios":"levelo://app?vid=a99a9a06-1cd7-487d-ac39-86ec39bbc237"},"vehicle_type_id":"4","last_reported":1740572317,"current_range_meters":16400,"station_id":"ce4bh292rcd13ifvqdg0","pricing_plan_id":"cebpf4jnsgd1na2vs0mg"},{"bike_id":"3fefd632-ceb6-4e6f-ac3b-6af1be92e2b5","system_id":"levelo_inurba_marseille","lat":43.23194,"lon":5.39998,"is_reserved":false,"is_disabled":false,"rental_uris":{"android":"levelo://app?vid=3fefd632-ceb6-4e6f-ac3b-6af1be92e2b5","ios":"levelo://app?vid=3fefd632-ceb6-4e6f-ac3b-6af1be92e2b5"},"vehicle_type_id":"4","last_reported":1740572317,"current_range_meters":16000,"station_id":"ce4bhn12rcd13ifvqgqg","pricing_plan_id":"cebpf4jnsgd1na2vs0mg"},{"bike_id":"7111f83d-0417-4c1c-bfdf-a886949b1eaa","system_id":"levelo_inurba_marseille","lat":43.32276,"lon":5.38936,"is_reserved":false,"is_disabled":false,"rental_uris":{"android":"levelo://app?vid=7111f83d-0417-4c1c-bfdf-a886949b1eaa","ios":"levelo://app?vid=7111f83d-0417-4c1c-bfdf-a886949b1eaa"},"vehicle_type_id":"4","last_reported":1740572317,"current_range_meters":16000,"station_id":"","pricing_plan_id":"cebpf4jnsgd1na2vs0mg"},{"bike_id":"aada47c6-4b3a-41ce-97dd-a63194114a19","system_id":"levelo_inurba_marseille","lat":43.31308,"lon":5.4011,"is_reserved":false,"is_disabled":true,"rental_uris":{"android":"levelo://app?vid=aada47c6-4b3a-41ce-97dd-a63194114a19","ios":"levelo://app?vid=aada47c6-4b3a-41ce-97dd-a63194114a19"},"vehicle_type_id":"4","last_reported":1740572317,"current_range_meters":16000,"station_id":"","pricing_plan_id":"cebpf4jnsgd1na2vs0mg"},{"bike_id":"17973595-0627-4cbe-be09-6d52168568c1","system_id":"levelo_inurba_marseille","lat":43.27821,"lon":5.40727,"is_reserved":false,"is_disabled":false,"rental_uris":{"android":"levelo://app?vid=17973595-0627-4cbe-be09-6d52168568c1","ios":"levelo://app?vid=17973595-0627-4cbe-be09-6d52168568c1"},"vehicle_type_id":"4","last_reported":1740572317,"current_range_meters":16000,"station_id":"ce4bhnh2rcd13ifvqgtg","pricing_plan_id":"cebpf4jnsgd1na2vs0mg"},{"bike_id":"d79740e8-2b58-4dab-9092-7c075618d6db","system_id":"levelo_inurba_marseille","lat":43.23192,"lon":5.39976,"is_reserved":false,"is_disabled":false,"rental_uris":{"android":"levelo://app?vid=d79740e8-2b58-4dab-9092-7c075618d6db","ios":"levelo://app?vid=d79740e8-2b58-4dab-9092-7c075618d6db"},"vehicle_type_id":"4","last_reported":1740572317,"current_range_meters":16000,"station_id":"ce4bhn12rcd13ifvqgqg","pricing_plan_id":"cebpf4jnsgd1na2vs0mg"},{"bike_id":"e63d1ca2-6b0c-471f-a51e-1f23a8e4096d","system_id":"levelo_inurba_marseille","lat":43.302,"lon":5.39466,"is_reserved":false,"is_disabled":false,"rental_uris":{"android":"levelo://app?vid=e63d1ca2-6b0c-471f-a51e-1f23a8e4096d","ios":"levelo://app?vid=e63d1ca2-6b0c-471f-a51e-1f23a8e4096d"},"vehicle_type_id":"4","last_reported":1740572317,"current_range_meters":12800,"station_id":"ce4bh0p2rcd13ifvqd70","pricing_plan_id":"cebpf4jnsgd1na2vs0mg"},{"bike_id":"f3c1842a-b552-4e04-b90a-c61f62f8a561","system_id":"levelo_inurba_marseille","lat":43.26225,"lon":5.37458,"is_reserved":false,"is_disabled":false,"rental_uris":{"android":"levelo://app?vid=f3c1842a-b552-4e04-b90a-c61f62f8a561","ios":"levelo://app?vid=f3c1842a-b552-4e04-b90a-c61f62f8a561"},"vehicle_type_id":"4","last_reported":1740572317,"current_range_meters":16400,"station_id":"ce4bhgp2rcd13ifvqfc0","pricing_plan_id":"cebpf4jnsgd1na2vs0mg"},{"bike_id":"d0eed576-967a-4a22-90f0-1b8c0372f57a","system_id":"levelo_inurba_marseille","lat":43.25025,"lon":5.38922,"is_reserved":false,"is_disabled":false,"rental_uris":{"android":"levelo://app?vid=d0eed576-967a-4a22-90f0-1b8c0372f57a","ios":"levelo://app?vid=d0eed576-967a-4a22-90f0-1b8c0372f57a"},"vehicle_type_id":"4","last_reported":1740572317,"current_range_meters":16400,"station_id":"ce4bhgp2rcd13ifvqfd0","pricing_plan_id":"cebpf4jnsgd1na2vs0mg"},{"bike_id":"f35d6126-178c-4c08-8343-6bcc4ce94aad","system_id":"levelo_inurba_marseille","lat":43.24188,"lon":5.39729,"is_reserved":false,"is_disabled":false,"rental_uris":{"android":"levelo://app?vid=f35d6126-178c-4c08-8343-6bcc4ce94aad","ios":"levelo://app?vid=f35d6126-178c-4c08-8343-6bcc4ce94aad"},"vehicle_type_id":"4","last_reported":1740572317,"current_range_meters":16400,"station_id":"ce4bhn12rcd13ifvqgpg","pricing_plan_id":"cebpf4jnsgd1na2vs0mg"},{"bike_id":"d2317684-183b-4d7e-b74c-157dccfc26e8","system_id":"levelo_inurba_marseille","lat":43.30615,"lon":5.3722,"is_reserved":false,"is_disabled":false,"rental_uris":{"android":"levelo://app?vid=d2317684-183b-4d7e-b74c-157dccfc26e8","ios":"levelo://app?vid=d2317684-183b-4d7e-b74c-157dccfc26e8"},"vehicle_type_id":"4","last_reported":1740572317,"current_range_meters":16000,"station_id":"ce4bgqh2rcd13ifvqc4g","pricing_plan_id":"cebpf4jnsgd1na2vs0mg"},{"bike_id":"c1f5384a-71a2-4dad-80de-d395c09980f5","system_id":"levelo_inurba_marseille","lat":43.31394,"lon":5.36724,"is_reserved":false,"is_disabled":false,"rental_uris":{"android":"levelo://app?vid=c1f5384a-71a2-4dad-80de-d395c09980f5","ios":"levelo://app?vid=c1f5384a-71a2-4dad-80de-d395c09980f5"},"vehicle_type_id":"4","last_reported":1740572317,"current_range_meters":16400,"station_id":"","pricing_plan_id":"cebpf4jnsgd1na2vs0mg"},{"bike_id":"a92380cc-78fd-4545-85ce-2589fea4cafc","system_id":"levelo_inurba_marseille","lat":43.277,"lon":5.38913,"is_reserved":false,"is_disabled":false,"rental_uris":{"android":"levelo://app?vid=a92380cc-78fd-4545-85ce-2589fea4cafc","ios":"levelo://app?vid=a92380cc-78fd-4545-85ce-2589fea4cafc"},"vehicle_type_id":"4","last_reported":1740572317,"current_range_meters":16800,"station_id":"ce4bhi12rcd13ifvqfo0","pricing_plan_id":"cebpf4jnsgd1na2vs0mg"},{"bike_id":"7f5dbe42-da8b-47f5-9beb-ac4cf767c9c8","system_id":"levelo_inurba_marseille","lat":43.31241,"lon":5.36863,"is_reserved":false,"is_disabled":false,"rental_uris":{"android":"levelo://app?vid=7f5dbe42-da8b-47f5-9beb-ac4cf767c9c8","ios":"levelo://app?vid=7f5dbe42-da8b-47f5-9beb-ac4cf767c9c8"},"vehicle_type_id":"4","last_reported":1740572317,"current_range_meters":16800,"station_id":"ce4bgl92rcd13ifvqbq0","pricing_plan_id":"cebpf4jnsgd1na2vs0mg"},{"bike_id":"c81a71b5-725f-45bd-8a34-41e6bba0b7fc","system_id":"levelo_inurba_marseille","lat":43.30475,"lon":5.37915,"is_reserved":false,"is_disabled":false,"rental_uris":{"android":"levelo://app?vid=c81a71b5-725f-45bd-8a34-41e6bba0b7fc","ios":"levelo://app?vid=c81a71b5-725f-45bd-8a34-41e6bba0b7fc"},"vehicle_type_id":"4","last_reported":1740572317,"current_range_meters":20400,"station_id":"ce4bgup2rcd13ifvqcn0","pricing_plan_id":"cebpf4jnsgd1na2vs0mg"},{"bike_id":"e7cfe300-441a-4368-bfd6-30b341d5af6d","system_id":"levelo_inurba_marseille","lat":43.2862,"lon":5.35104,"is_reserved":false,"is_disabled":false,"rental_uris":{"android":"levelo://app?vid=e7cfe300-441a-4368-bfd6-30b341d5af6d","ios":"levelo://app?vid=e7cfe300-441a-4368-bfd6-30b341d5af6d"},"vehicle_type_id":"4","last_reported":1740572317,"current_range_meters":17200,"station_id":"ce4bhch2rcd13ifvqeug","pricing_plan_id":"cebpf4jnsgd1na2vs0mg"},{"bike_id":"072059ca-b533-4201-a9d8-cc256662ae7d","system_id":"levelo_inurba_marseille","lat":43.23154,"lon":5.43727,"is_reserved":false,"is_disabled":false,"rental_uris":{"android":"levelo://app?vid=072059ca-b533-4201-a9d8-cc256662ae7d","ios":"levelo://app?vid=072059ca-b533-4201-a9d8-cc256662ae7d"},"vehicle_type_id":"4","last_reported":1740572317,"current_range_meters":16800,"station_id":"ce4bhmp2rcd13ifvqgog","pricing_plan_id":"cebpf4jnsgd1na2vs0mg"},{"bike_id":"4d1cdc80-7f7b-4fa4-a388-ccd072ece05b","system_id":"levelo_inurba_marseille","lat":43.2439,"lon":5.3706,"is_reserved":false,"is_disabled":false,"rental_uris":{"android":"levelo://app?vid=4d1cdc80-7f7b-4fa4-a388-ccd072ece05b","ios":"levelo://app?vid=4d1cdc80-7f7b-4fa4-a388-ccd072ece05b"},"vehicle_type_id":"4","last_reported":1740572317,"current_range_meters":16800,"station_id":"ce4bhhh2rcd13ifvqfk0","pricing_plan_id":"cebpf4jnsgd1na2vs0mg"},{"bike_id":"b35c6923-d6fe-46f0-956f-d541be4b96fc","system_id":"levelo_inurba_marseille","lat":43.24074,"lon":5.37759,"is_reserved":false,"is_disabled":false,"rental_uris":{"android":"levelo://app?vid=b35c6923-d6fe-46f0-956f-d541be4b96fc","ios":"levelo://app?vid=b35c6923-d6fe-46f0-956f-d541be4b96fc"},"vehicle_type_id":"4","last_reported":1740572317,"current_range_meters":16800,"station_id":"ce4bhnp2rcd13ifvqgvg","pricing_plan_id":"cebpf4jnsgd1na2vs0mg"},{"bike_id":"f1de0992-68c7-4ed1-bdd1-630b39d23f3a","system_id":"levelo_inurba_marseille","lat":43.29268,"lon":5.3744,"is_reserved":false,"is_disabled":false,"rental_uris":{"android":"levelo://app?vid=f1de0992-68c7-4ed1-bdd1-630b39d23f3a","ios":"levelo://app?vid=f1de0992-68c7-4ed1-bdd1-630b39d23f3a"},"vehicle_type_id":"4","last_reported":1740572317,"current_range_meters":16800,"station_id":"ce4bgi12rcd13ifvqb70","pricing_plan_id":"cebpf4jnsgd1na2vs0mg"},{"bike_id":"d52621a7-0a55-4e5b-8a76-da13389902cc","system_id":"levelo_inurba_marseille","lat":43.25354,"lon":5.42628,"is_reserved":false,"is_disabled":false,"rental_uris":{"android":"levelo://app?vid=d52621a7-0a55-4e5b-8a76-da13389902cc","ios":"levelo://app?vid=d52621a7-0a55-4e5b-8a76-da13389902cc"},"vehicle_type_id":"4","last_reported":1740572317,"current_range_meters":16800,"station_id":"","pricing_plan_id":"cebpf4jnsgd1na2vs0mg"},{"bike_id":"06639c44-1532-4620-ab61-46094e147f96","system_id":"levelo_inurba_marseille","lat":43.28619,"lon":5.3511,"is_reserved":false,"is_disabled":false,"rental_uris":{"android":"levelo://app?vid=06639c44-1532-4620-ab61-46094e147f96","ios":"levelo://app?vid=06639c44-1532-4620-ab61-46094e147f96"},"vehicle_type_id":"4","last_reported":1740572317,"current_range_meters":16800,"station_id":"ce4bhch2rcd13ifvqeug","pricing_plan_id":"cebpf4jnsgd1na2vs0mg"},{"bike_id":"65030d82-ba78-4127-af3f-f95b5c83fa0b","system_id":"levelo_inurba_marseille","lat":43.24647,"lon":5.38893,"is_reserved":false,"is_disabled":false,"rental_uris":{"android":"levelo://app?vid=65030d82-ba78-4127-af3f-f95b5c83fa0b","ios":"levelo://app?vid=65030d82-ba78-4127-af3f-f95b5c83fa0b"},"vehicle_type_id":"4","last_reported":1740572317,"current_range_meters":16400,"station_id":"ce4bhg12rcd13ifvqf60","pricing_plan_id":"cebpf4jnsgd1na2vs0mg"},{"bike_id":"10f5d0c6-cb88-4c92-a25e-ea127da3caf6","system_id":"levelo_inurba_marseille","lat":43.23057,"lon":5.35462,"is_reserved":false,"is_disabled":false,"rental_uris":{"android":"levelo://app?vid=10f5d0c6-cb88-4c92-a25e-ea127da3caf6","ios":"levelo://app?vid=10f5d0c6-cb88-4c92-a25e-ea127da3caf6"},"vehicle_type_id":"4","last_reported":1740572317,"current_range_meters":16800,"station_id":"cpo3342slgdg3j2ifvpg","pricing_plan_id":"cebpf4jnsgd1na2vs0mg"},{"bike_id":"37a0d04f-277b-4325-8e41-371ae2138725","system_id":"levelo_inurba_marseille","lat":43.27829,"lon":5.39202,"is_reserved":false,"is_disabled":false,"rental_uris":{"android":"levelo://app?vid=37a0d04f-277b-4325-8e41-371ae2138725","ios":"levelo://app?vid=37a0d04f-277b-4325-8e41-371ae2138725"},"vehicle_type_id":"4","last_reported":1740572317,"current_range_meters":18800,"station_id":"ce4bhjp2rcd13ifvqga0","pricing_plan_id":"cebpf4jnsgd1na2vs0mg"},{"bike_id":"9173a905-fc01-40a4-8bf0-43f94abdd09c","system_id":"levelo_inurba_marseille","lat":43.29075,"lon":5.37161,"is_reserved":false,"is_disabled":false,"rental_uris":{"android":"levelo://app?vid=9173a905-fc01-40a4-8bf0-43f94abdd09c","ios":"levelo://app?vid=9173a905-fc01-40a4-8bf0-43f94abdd09c"},"vehicle_type_id":"4","last_reported":1740572317,"current_range_meters":16400,"station_id":"ce4bh5p2rcd13ifvqe4g","pricing_plan_id":"cebpf4jnsgd1na2vs0mg"},{"bike_id":"32f214d4-48cd-4578-adbd-e868b819d60c","system_id":"levelo_inurba_marseille","lat":43.2315,"lon":5.43724,"is_reserved":false,"is_disabled":false,"rental_uris":{"android":"levelo://app?vid=32f214d4-48cd-4578-adbd-e868b819d60c","ios":"levelo://app?vid=32f214d4-48cd-4578-adbd-e868b819d60c"},"vehicle_type_id":"4","last_reported":1740572317,"current_range_meters":16800,"station_id":"ce4bhmp2rcd13ifvqgog","pricing_plan_id":"cebpf4jnsgd1na2vs0mg"},{"bike_id":"bb9100ad-eccc-447f-be77-9365b2f18c62","system_id":"levelo_inurba_marseille","lat":43.26781,"lon":5.39413,"is_reserved":false,"is_disabled":false,"rental_uris":{"android":"levelo://app?vid=bb9100ad-eccc-447f-be77-9365b2f18c62","ios":"levelo://app?vid=bb9100ad-eccc-447f-be77-9365b2f18c62"},"vehicle_type_id":"4","last_reported":1740572317,"current_range_meters":17200,"station_id":"ce4bhh12rcd13ifvqfg0","pricing_plan_id":"cebpf4jnsgd1na2vs0mg"},{"bike_id":"2c423dab-6a75-4e80-a7d5-696c13fb3a72","system_id":"levelo_inurba_marseille","lat":43.27681,"lon":5.38883,"is_reserved":false,"is_disabled":false,"rental_uris":{"android":"levelo://app?vid=2c423dab-6a75-4e80-a7d5-696c13fb3a72","ios":"levelo://app?vid=2c423dab-6a75-4e80-a7d5-696c13fb3a72"},"vehicle_type_id":"4","last_reported":1740572317,"current_range_meters":16800,"station_id":"ce4bhi12rcd13ifvqfo0","pricing_plan_id":"cebpf4jnsgd1na2vs0mg"},{"bike_id":"32022f30-217e-4459-b186-dd7b6ca601cd","system_id":"levelo_inurba_marseille","lat":43.27813,"lon":5.40716,"is_reserved":false,"is_disabled":false,"rental_uris":{"android":"levelo://app?vid=32022f30-217e-4459-b186-dd7b6ca601cd","ios":"levelo://app?vid=32022f30-217e-4459-b186-dd7b6ca601cd"},"vehicle_type_id":"4","last_reported":1740572317,"current_range_meters":17200,"station_id":"ce4bhnh2rcd13ifvqgtg","pricing_plan_id":"cebpf4jnsgd1na2vs0mg"},{"bike_id":"9eb63fb4-7dd1-4ed8-8c98-37f9165028cf","system_id":"levelo_inurba_marseille","lat":43.31772,"lon":5.39014,"is_reserved":false,"is_disabled":false,"rental_uris":{"android":"levelo://app?vid=9eb63fb4-7dd1-4ed8-8c98-37f9165028cf","ios":"levelo://app?vid=9eb63fb4-7dd1-4ed8-8c98-37f9165028cf"},"vehicle_type_id":"4","last_reported":1740572317,"current_range_meters":17200,"station_id":"ce4bhqp2rcd13ifvqhng","pricing_plan_id":"cebpf4jnsgd1na2vs0mg"},{"bike_id":"19e09a69-c57f-482a-b847-7f66783bd645","system_id":"levelo_inurba_marseille","lat":43.27809,"lon":5.40711,"is_reserved":false,"is_disabled":false,"rental_uris":{"android":"levelo://app?vid=19e09a69-c57f-482a-b847-7f66783bd645","ios":"levelo://app?vid=19e09a69-c57f-482a-b847-7f66783bd645"},"vehicle_type_id":"4","last_reported":1740572317,"current_range_meters":17200,"station_id":"ce4bhnh2rcd13ifvqgtg","pricing_plan_id":"cebpf4jnsgd1na2vs0mg"},{"bike_id":"bfa6f7d2-c3a6-4c76-b5b5-4810d3f504bd","system_id":"levelo_inurba_marseille","lat":43.27066,"lon":5.40261,"is_reserved":false,"is_disabled":false,"rental_uris":{"android":"levelo://app?vid=bfa6f7d2-c3a6-4c76-b5b5-4810d3f504bd","ios":"levelo://app?vid=bfa6f7d2-c3a6-4c76-b5b5-4810d3f504bd"},"vehicle_type_id":"4","last_reported":1740572317,"current_range_meters":17200,"station_id":"ce4bhk92rcd13ifvqgc0","pricing_plan_id":"cebpf4jnsgd1na2vs0mg"},{"bike_id":"450a8708-2510-4e55-bc4d-72d560bb11b8","system_id":"levelo_inurba_marseille","lat":43.317247,"lon":5.423944,"is_reserved":false,"is_disabled":false,"rental_uris":{"android":"levelo://app?vid=450a8708-2510-4e55-bc4d-72d560bb11b8","ios":"levelo://app?vid=450a8708-2510-4e55-bc4d-72d560bb11b8"},"vehicle_type_id":"4","last_reported":1740572317,"current_range_meters":17200,"station_id":"ce4bhp92rcd13ifvqhbg","pricing_plan_id":"cebpf4jnsgd1na2vs0mg"},{"bike_id":"c960a6fc-b546-4c93-a520-c1731c5fec94","system_id":"levelo_inurba_marseille","lat":43.28414,"lon":5.34985,"is_reserved":false,"is_disabled":false,"rental_uris":{"android":"levelo://app?vid=c960a6fc-b546-4c93-a520-c1731c5fec94","ios":"levelo://app?vid=c960a6fc-b546-4c93-a520-c1731c5fec94"},"vehicle_type_id":"4","last_reported":1740572317,"current_range_meters":17200,"station_id":"ce4bhbh2rcd13ifvqepg","pricing_plan_id":"cebpf4jnsgd1na2vs0mg"},{"bike_id":"92ef393e-531d-473a-be26-fa92b6713f16","system_id":"levelo_inurba_marseille","lat":43.23153,"lon":5.4371,"is_reserved":false,"is_disabled":false,"rental_uris":{"android":"levelo://app?vid=92ef393e-531d-473a-be26-fa92b6713f16","ios":"levelo://app?vid=92ef393e-531d-473a-be26-fa92b6713f16"},"vehicle_type_id":"4","last_reported":1740572317,"current_range_meters":17200,"station_id":"ce4bhmp2rcd13ifvqgog","pricing_plan_id":"cebpf4jnsgd1na2vs0mg"},{"bike_id":"c72b354a-7ac8-4b70-a688-e6c0ed969746","system_id":"levelo_inurba_marseille","lat":43.29298,"lon":5.37182,"is_reserved":false,"is_disabled":true,"rental_uris":{"android":"levelo://app?vid=c72b354a-7ac8-4b70-a688-e6c0ed969746","ios":"levelo://app?vid=c72b354a-7ac8-4b70-a688-e6c0ed969746"},"vehicle_type_id":"4","last_reported":1740572317,"current_range_meters":17600,"station_id":"ce4bgh92rcd13ifvqb40","pricing_plan_id":"cebpf4jnsgd1na2vs0mg"},{"bike_id":"5f7b420b-32f0-45cf-bc00-07beba71a552","system_id":"levelo_inurba_marseille","lat":43.24807,"lon":5.37457,"is_reserved":false,"is_disabled":false,"rental_uris":{"android":"levelo://app?vid=5f7b420b-32f0-45cf-bc00-07beba71a552","ios":"levelo://app?vid=5f7b420b-32f0-45cf-bc00-07beba71a552"},"vehicle_type_id":"4","last_reported":1740572317,"current_range_meters":16800,"station_id":"ce4bhgh2rcd13ifvqfb0","pricing_plan_id":"cebpf4jnsgd1na2vs0mg"},{"bike_id":"6bc0aafc-31d2-42f6-b592-40b8807b1f12","system_id":"levelo_inurba_marseille","lat":43.28357,"lon":5.38635,"is_reserved":false,"is_disabled":false,"rental_uris":{"android":"levelo://app?vid=6bc0aafc-31d2-42f6-b592-40b8807b1f12","ios":"levelo://app?vid=6bc0aafc-31d2-42f6-b592-40b8807b1f12"},"vehicle_type_id":"4","last_reported":1740572317,"current_range_meters":17200,"station_id":"ce4bh492rcd13ifvqdvg","pricing_plan_id":"cebpf4jnsgd1na2vs0mg"},{"bike_id":"4cf04e60-2135-4f01-9194-c468dd72f5c1","system_id":"levelo_inurba_marseille","lat":43.269233,"lon":5.402662,"is_reserved":false,"is_disabled":false,"rental_uris":{"android":"levelo://app?vid=4cf04e60-2135-4f01-9194-c468dd72f5c1","ios":"levelo://app?vid=4cf04e60-2135-4f01-9194-c468dd72f5c1"},"vehicle_type_id":"4","last_reported":1740572317,"current_range_meters":18000,"station_id":"cjm6bp8fraef2m0cb0m0","pricing_plan_id":"cebpf4jnsgd1na2vs0mg"},{"bike_id":"0e8b71e6-6610-4f86-b66d-c85bca9133c2","system_id":"levelo_inurba_marseille","lat":43.284684,"lon":5.384169,"is_reserved":false,"is_disabled":false,"rental_uris":{"android":"levelo://app?vid=0e8b71e6-6610-4f86-b66d-c85bca9133c2","ios":"levelo://app?vid=0e8b71e6-6610-4f86-b66d-c85bca9133c2"},"vehicle_type_id":"4","last_reported":1740572317,"current_range_meters":17600,"station_id":"ce4bhi12rcd13ifvqfo0","pricing_plan_id":"cebpf4jnsgd1na2vs0mg"},{"bike_id":"996f0489-46e7-431b-bdd6-7fc055f4cfb7","system_id":"levelo_inurba_marseille","lat":43.27064,"lon":5.4026,"is_reserved":false,"is_disabled":false,"rental_uris":{"android":"levelo://app?vid=996f0489-46e7-431b-bdd6-7fc055f4cfb7","ios":"levelo://app?vid=996f0489-46e7-431b-bdd6-7fc055f4cfb7"},"vehicle_type_id":"4","last_reported":1740572317,"current_range_meters":17600,"station_id":"ce4bhk92rcd13ifvqgc0","pricing_plan_id":"cebpf4jnsgd1na2vs0mg"},{"bike_id":"34adb88f-60b9-4c82-8ee4-3778b7c5f3e9","system_id":"levelo_inurba_marseille","lat":43.2707,"lon":5.42281,"is_reserved":false,"is_disabled":false,"rental_uris":{"android":"levelo://app?vid=34adb88f-60b9-4c82-8ee4-3778b7c5f3e9","ios":"levelo://app?vid=34adb88f-60b9-4c82-8ee4-3778b7c5f3e9"},"vehicle_type_id":"4","last_reported":1740572317,"current_range_meters":17200,"station_id":"ce4bhk92rcd13ifvqgb0","pricing_plan_id":"cebpf4jnsgd1na2vs0mg"},{"bike_id":"ee7498ac-afae-4101-a827-ddb2ec43033c","system_id":"levelo_inurba_marseille","lat":43.23201,"lon":5.39999,"is_reserved":false,"is_disabled":false,"rental_uris":{"android":"levelo://app?vid=ee7498ac-afae-4101-a827-ddb2ec43033c","ios":"levelo://app?vid=ee7498ac-afae-4101-a827-ddb2ec43033c"},"vehicle_type_id":"4","last_reported":1740572317,"current_range_meters":17600,"station_id":"ce4bhn12rcd13ifvqgqg","pricing_plan_id":"cebpf4jnsgd1na2vs0mg"},{"bike_id":"90aebd67-1144-4097-be5e-3a7eaf43bfa0","system_id":"levelo_inurba_marseille","lat":43.31275,"lon":5.40171,"is_reserved":false,"is_disabled":false,"rental_uris":{"android":"levelo://app?vid=90aebd67-1144-4097-be5e-3a7eaf43bfa0","ios":"levelo://app?vid=90aebd67-1144-4097-be5e-3a7eaf43bfa0"},"vehicle_type_id":"4","last_reported":1740572317,"current_range_meters":17200,"station_id":"ce4bh092rcd13ifvqd30","pricing_plan_id":"cebpf4jnsgd1na2vs0mg"},{"bike_id":"a07f663e-5408-409a-928c-794325c53f4b","system_id":"levelo_inurba_marseille","lat":43.27175,"lon":5.4099,"is_reserved":false,"is_disabled":false,"rental_uris":{"android":"levelo://app?vid=a07f663e-5408-409a-928c-794325c53f4b","ios":"levelo://app?vid=a07f663e-5408-409a-928c-794325c53f4b"},"vehicle_type_id":"4","last_reported":1740572317,"current_range_meters":17200,"station_id":"ce4bhl12rcd13ifvqgf0","pricing_plan_id":"cebpf4jnsgd1na2vs0mg"},{"bike_id":"4e2d0c9b-a305-462c-b78e-d94f06ea04a0","system_id":"levelo_inurba_marseille","lat":43.29257,"lon":5.38435,"is_reserved":false,"is_disabled":true,"rental_uris":{"android":"levelo://app?vid=4e2d0c9b-a305-462c-b78e-d94f06ea04a0","ios":"levelo://app?vid=4e2d0c9b-a305-462c-b78e-d94f06ea04a0"},"vehicle_type_id":"4","last_reported":1740572317,"current_range_meters":17600,"station_id":"ce4bh692rcd13ifvqea0","pricing_plan_id":"cebpf4jnsgd1na2vs0mg"},{"bike_id":"74efc9ff-6ef3-4868-964e-8ca4569b828d","system_id":"levelo_inurba_marseille","lat":43.29936,"lon":5.36558,"is_reserved":false,"is_disabled":false,"rental_uris":{"android":"levelo://app?vid=74efc9ff-6ef3-4868-964e-8ca4569b828d","ios":"levelo://app?vid=74efc9ff-6ef3-4868-964e-8ca4569b828d"},"vehicle_type_id":"4","last_reported":1740572317,"current_range_meters":18000,"station_id":"ce4bgm92rcd13ifvqbr0","pricing_plan_id":"cebpf4jnsgd1na2vs0mg"},{"bike_id":"04967103-1ea7-4f7a-be85-126c298c8066","system_id":"levelo_inurba_marseille","lat":43.27065,"lon":5.40264,"is_reserved":false,"is_disabled":false,"rental_uris":{"android":"levelo://app?vid=04967103-1ea7-4f7a-be85-126c298c8066","ios":"levelo://app?vid=04967103-1ea7-4f7a-be85-126c298c8066"},"vehicle_type_id":"4","last_reported":1740572317,"current_range_meters":17600,"station_id":"ce4bhk92rcd13ifvqgc0","pricing_plan_id":"cebpf4jnsgd1na2vs0mg"},{"bike_id":"9e3bcfc5-f8d4-47e3-a56c-ed24eeee5d97","system_id":"levelo_inurba_marseille","lat":43.29025,"lon":5.38637,"is_reserved":false,"is_disabled":false,"rental_uris":{"android":"levelo://app?vid=9e3bcfc5-f8d4-47e3-a56c-ed24eeee5d97","ios":"levelo://app?vid=9e3bcfc5-f8d4-47e3-a56c-ed24eeee5d97"},"vehicle_type_id":"4","last_reported":1740572317,"current_range_meters":18000,"station_id":"ce4bh4p2rcd13ifvqe0g","pricing_plan_id":"cebpf4jnsgd1na2vs0mg"},{"bike_id":"229e70ea-461b-478b-99c6-9384d4a38ffd","system_id":"levelo_inurba_marseille","lat":43.28498,"lon":5.38555,"is_reserved":false,"is_disabled":false,"rental_uris":{"android":"levelo://app?vid=229e70ea-461b-478b-99c6-9384d4a38ffd","ios":"levelo://app?vid=229e70ea-461b-478b-99c6-9384d4a38ffd"},"vehicle_type_id":"4","last_reported":1740572317,"current_range_meters":17600,"station_id":"ce4bh8p2rcd13ifvqeb0","pricing_plan_id":"cebpf4jnsgd1na2vs0mg"},{"bike_id":"f9960b39-a005-483a-9711-897b2b03b323","system_id":"levelo_inurba_marseille","lat":43.28372,"lon":5.38654,"is_reserved":false,"is_disabled":true,"rental_uris":{"android":"levelo://app?vid=f9960b39-a005-483a-9711-897b2b03b323","ios":"levelo://app?vid=f9960b39-a005-483a-9711-897b2b03b323"},"vehicle_type_id":"4","last_reported":1740572317,"current_range_meters":18000,"station_id":"ce4bh492rcd13ifvqdvg","pricing_plan_id":"cebpf4jnsgd1na2vs0mg"},{"bike_id":"cdd6953b-3a09-43da-8fd8-f5e921efaa1d","system_id":"levelo_inurba_marseille","lat":43.295215,"lon":5.389879,"is_reserved":false,"is_disabled":false,"rental_uris":{"android":"levelo://app?vid=cdd6953b-3a09-43da-8fd8-f5e921efaa1d","ios":"levelo://app?vid=cdd6953b-3a09-43da-8fd8-f5e921efaa1d"},"vehicle_type_id":"4","last_reported":1740572317,"current_range_meters":19200,"station_id":"ce4bh3p2rcd13ifvqdp0","pricing_plan_id":"cebpf4jnsgd1na2vs0mg"},{"bike_id":"29aa49d5-8a1c-4f9b-820b-2e6ab7f850ec","system_id":"levelo_inurba_marseille","lat":43.30467,"lon":5.37911,"is_reserved":false,"is_disabled":false,"rental_uris":{"android":"levelo://app?vid=29aa49d5-8a1c-4f9b-820b-2e6ab7f850ec","ios":"levelo://app?vid=29aa49d5-8a1c-4f9b-820b-2e6ab7f850ec"},"vehicle_type_id":"4","last_reported":1740572317,"current_range_meters":18000,"station_id":"ce4bgup2rcd13ifvqcn0","pricing_plan_id":"cebpf4jnsgd1na2vs0mg"},{"bike_id":"7280c1e4-9c08-44bc-b12b-f1a67859c097","system_id":"levelo_inurba_marseille","lat":43.27175,"lon":5.40991,"is_reserved":false,"is_disabled":false,"rental_uris":{"android":"levelo://app?vid=7280c1e4-9c08-44bc-b12b-f1a67859c097","ios":"levelo://app?vid=7280c1e4-9c08-44bc-b12b-f1a67859c097"},"vehicle_type_id":"4","last_reported":1740572317,"current_range_meters":17600,"station_id":"ce4bhl12rcd13ifvqgf0","pricing_plan_id":"cebpf4jnsgd1na2vs0mg"},{"bike_id":"5863bc0a-4c8a-43fa-8f4b-8b25481970ce","system_id":"levelo_inurba_marseille","lat":43.29621,"lon":5.37172,"is_reserved":false,"is_disabled":false,"rental_uris":{"android":"levelo://app?vid=5863bc0a-4c8a-43fa-8f4b-8b25481970ce","ios":"levelo://app?vid=5863bc0a-4c8a-43fa-8f4b-8b25481970ce"},"vehicle_type_id":"4","last_reported":1740572317,"current_range_meters":17200,"station_id":"ce4bgnh2rcd13ifvqc0g","pricing_plan_id":"cebpf4jnsgd1na2vs0mg"},{"bike_id":"c347de43-65e2-490b-b05e-188aa167e6ac","system_id":"levelo_inurba_marseille","lat":43.27945,"lon":5.41054,"is_reserved":false,"is_disabled":false,"rental_uris":{"android":"levelo://app?vid=c347de43-65e2-490b-b05e-188aa167e6ac","ios":"levelo://app?vid=c347de43-65e2-490b-b05e-188aa167e6ac"},"vehicle_type_id":"4","last_reported":1740572317,"current_range_meters":18800,"station_id":"ce4bhnp2rcd13ifvqh0g","pricing_plan_id":"cebpf4jnsgd1na2vs0mg"},{"bike_id":"a911a76c-1774-4a4f-969a-ec156a899f62","system_id":"levelo_inurba_marseille","lat":43.2903,"lon":5.3865,"is_reserved":false,"is_disabled":false,"rental_uris":{"android":"levelo://app?vid=a911a76c-1774-4a4f-969a-ec156a899f62","ios":"levelo://app?vid=a911a76c-1774-4a4f-969a-ec156a899f62"},"vehicle_type_id":"4","last_reported":1740572317,"current_range_meters":18800,"station_id":"ce4bh4p2rcd13ifvqe0g","pricing_plan_id":"cebpf4jnsgd1na2vs0mg"},{"bike_id":"ae9d4b3b-2738-4839-99ca-729dd55108a4","system_id":"levelo_inurba_marseille","lat":43.32536,"lon":5.41426,"is_reserved":false,"is_disabled":false,"rental_uris":{"android":"levelo://app?vid=ae9d4b3b-2738-4839-99ca-729dd55108a4","ios":"levelo://app?vid=ae9d4b3b-2738-4839-99ca-729dd55108a4"},"vehicle_type_id":"4","last_reported":1740572317,"current_range_meters":16000,"station_id":"ce4bhq12rcd13ifvqhhg","pricing_plan_id":"cebpf4jnsgd1na2vs0mg"},{"bike_id":"2a5ff212-f648-4eee-981f-dd573cead715","system_id":"levelo_inurba_marseille","lat":43.29421,"lon":5.38616,"is_reserved":false,"is_disabled":false,"rental_uris":{"android":"levelo://app?vid=2a5ff212-f648-4eee-981f-dd573cead715","ios":"levelo://app?vid=2a5ff212-f648-4eee-981f-dd573cead715"},"vehicle_type_id":"4","last_reported":1740572317,"current_range_meters":18800,"station_id":"ce4bh2h2rcd13ifvqdh0","pricing_plan_id":"cebpf4jnsgd1na2vs0mg"},{"bike_id":"f5900fd7-5ebc-4e9b-ae58-1b8e740df4a2","system_id":"levelo_inurba_marseille","lat":43.27827,"lon":5.40715,"is_reserved":false,"is_disabled":false,"rental_uris":{"android":"levelo://app?vid=f5900fd7-5ebc-4e9b-ae58-1b8e740df4a2","ios":"levelo://app?vid=f5900fd7-5ebc-4e9b-ae58-1b8e740df4a2"},"vehicle_type_id":"4","last_reported":1740572317,"current_range_meters":18800,"station_id":"ce4bhnh2rcd13ifvqgtg","pricing_plan_id":"cebpf4jnsgd1na2vs0mg"},{"bike_id":"bbe6b2cf-3f29-4c2a-832c-f87d3c3df4e9","system_id":"levelo_inurba_marseille","lat":43.29976,"lon":5.37172,"is_reserved":false,"is_disabled":false,"rental_uris":{"android":"levelo://app?vid=bbe6b2cf-3f29-4c2a-832c-f87d3c3df4e9","ios":"levelo://app?vid=bbe6b2cf-3f29-4c2a-832c-f87d3c3df4e9"},"vehicle_type_id":"4","last_reported":1740572317,"current_range_meters":18000,"station_id":"ce4bgr92rcd13ifvqc7g","pricing_plan_id":"cebpf4jnsgd1na2vs0mg"},{"bike_id":"74edbbca-361e-4908-9052-c391ebb2fb2e","system_id":"levelo_inurba_marseille","lat":43.27069,"lon":5.40265,"is_reserved":false,"is_disabled":false,"rental_uris":{"android":"levelo://app?vid=74edbbca-361e-4908-9052-c391ebb2fb2e","ios":"levelo://app?vid=74edbbca-361e-4908-9052-c391ebb2fb2e"},"vehicle_type_id":"4","last_reported":1740572317,"current_range_meters":18800,"station_id":"ce4bhk92rcd13ifvqgc0","pricing_plan_id":"cebpf4jnsgd1na2vs0mg"},{"bike_id":"3de9aeda-1f9a-4bbc-8b90-e02a49e56ca9","system_id":"levelo_inurba_marseille","lat":43.23194,"lon":5.35559,"is_reserved":false,"is_disabled":false,"rental_uris":{"android":"levelo://app?vid=3de9aeda-1f9a-4bbc-8b90-e02a49e56ca9","ios":"levelo://app?vid=3de9aeda-1f9a-4bbc-8b90-e02a49e56ca9"},"vehicle_type_id":"4","last_reported":1740572317,"current_range_meters":19200,"station_id":"ce4bhu92rcd13ifvqi70","pricing_plan_id":"cebpf4jnsgd1na2vs0mg"},{"bike_id":"9f6bdf16-5ee9-4bb0-9e57-1e79a97b42d0","system_id":"levelo_inurba_marseille","lat":43.29015,"lon":5.35632,"is_reserved":false,"is_disabled":false,"rental_uris":{"android":"levelo://app?vid=9f6bdf16-5ee9-4bb0-9e57-1e79a97b42d0","ios":"levelo://app?vid=9f6bdf16-5ee9-4bb0-9e57-1e79a97b42d0"},"vehicle_type_id":"4","last_reported":1740572317,"current_range_meters":19200,"station_id":"ce4bhb92rcd13ifvqen0","pricing_plan_id":"cebpf4jnsgd1na2vs0mg"},{"bike_id":"493c2bc1-7a12-40da-91dc-861a2c899a32","system_id":"levelo_inurba_marseille","lat":43.27995,"lon":5.40017,"is_reserved":false,"is_disabled":false,"rental_uris":{"android":"levelo://app?vid=493c2bc1-7a12-40da-91dc-861a2c899a32","ios":"levelo://app?vid=493c2bc1-7a12-40da-91dc-861a2c899a32"},"vehicle_type_id":"4","last_reported":1740572317,"current_range_meters":17600,"station_id":"ce4bho92rcd13ifvqh4g","pricing_plan_id":"cebpf4jnsgd1na2vs0mg"},{"bike_id":"e1f7705e-556a-40f8-84de-becbe6858444","system_id":"levelo_inurba_marseille","lat":43.28481,"lon":5.35907,"is_reserved":false,"is_disabled":false,"rental_uris":{"android":"levelo://app?vid=e1f7705e-556a-40f8-84de-becbe6858444","ios":"levelo://app?vid=e1f7705e-556a-40f8-84de-becbe6858444"},"vehicle_type_id":"4","last_reported":1740572317,"current_range_meters":19200,"station_id":"ce4bhah2rcd13ifvqei0","pricing_plan_id":"cebpf4jnsgd1na2vs0mg"},{"bike_id":"896fa85b-e6c2-4284-b540-4f908ecc715f","system_id":"levelo_inurba_marseille","lat":43.29301,"lon":5.37182,"is_reserved":false,"is_disabled":false,"rental_uris":{"android":"levelo://app?vid=896fa85b-e6c2-4284-b540-4f908ecc715f","ios":"levelo://app?vid=896fa85b-e6c2-4284-b540-4f908ecc715f"},"vehicle_type_id":"4","last_reported":1740572317,"current_range_meters":19200,"station_id":"ce4bgh92rcd13ifvqb40","pricing_plan_id":"cebpf4jnsgd1na2vs0mg"},{"bike_id":"cc6ab27b-4b23-4b97-8730-bade02a1ba3c","system_id":"levelo_inurba_marseille","lat":43.292093,"lon":5.359073,"is_reserved":false,"is_disabled":false,"rental_uris":{"android":"levelo://app?vid=cc6ab27b-4b23-4b97-8730-bade02a1ba3c","ios":"levelo://app?vid=cc6ab27b-4b23-4b97-8730-bade02a1ba3c"},"vehicle_type_id":"4","last_reported":1740572317,"current_range_meters":20800,"station_id":"ce4bhb12rcd13ifvqel0","pricing_plan_id":"cebpf4jnsgd1na2vs0mg"},{"bike_id":"5a1fdd60-4a8f-4bbc-8650-576c86bccfd1","system_id":"levelo_inurba_marseille","lat":43.29417,"lon":5.38615,"is_reserved":false,"is_disabled":false,"rental_uris":{"android":"levelo://app?vid=5a1fdd60-4a8f-4bbc-8650-576c86bccfd1","ios":"levelo://app?vid=5a1fdd60-4a8f-4bbc-8650-576c86bccfd1"},"vehicle_type_id":"4","last_reported":1740572317,"current_range_meters":19200,"station_id":"ce4bh2h2rcd13ifvqdh0","pricing_plan_id":"cebpf4jnsgd1na2vs0mg"},