{"last_updated":1730563809,"ttl":60,"version":"2.2","data":{"bikes":[{"bike_id":"daa5500f-6039-4d77-bf02-00710b3acec6","system_id":"levelo_inurba_marseille","lat":43.25928,"lon":5.40922,"is_reserved":false,"is_disabled":false,"rental_uris":{"android":"levelo://app?vid=daa5500f-6039-4d77-bf02-00710b3acec6","ios":"levelo://app?vid=daa5500f-6039-4d77-bf02-00710b3acec6"},"vehicle_type_id":"4","last_reported":1730563809,"current_range_meters":22400,"station_id":"ce4bhm92rcd13ifvqglg","pricing_plan_id":"cebpf4jnsgd1na2vs0mg"},{"bike_id":"37ce3ac7-0b91-4a47-adb7-42ccea57d3b2","system_id":"levelo_inurba_marseille","lat":43.27371,"lon":5.3626,"is_reserved":false,"is_disabled":false,"rental_uris":{"android":"levelo://app?vid=37ce3ac7-0b91-4a47-adb7-42ccea57d3b2","ios":"levelo://app?vid=37ce3ac7-0b91-4a47-adb7-42ccea57d3b2"},"vehicle_type_id":"4","last_reported":1730563809,"current_range_meters":18000,"station_id":"ce4bhbh2rcd13ifvqeo0","pricing_plan_id":"cebpf4jnsgd1na2vs0mg"},{"bike_id":"032c4db8-b3d6-4d60-bd9a-b02b04645aa6","system_id":"levelo_inurba_marseille","lat":43.2737,"lon":5.36264,"is_reserved":false,"is_disabled":false,"rental_uris":{"android":"levelo://app?vid=032c4db8-b3d6-4d60-bd9a-b02b04645aa6","ios":"levelo://app?vid=032c4db8-b3d6-4d60-bd9a-b02b04645aa6"},"vehicle_type_id":"4","last_reported":1730563809,"current_range_meters":24400,"station_id":"ce4bhbh2rcd13ifvqeo0","pricing_plan_id":"cebpf4jnsgd1na2vs0mg"},{"bike_id":"02fe0e86-bc31-4b56-981a-890ed6cd1c76","system_id":"levelo_inurba_marseille","lat":43.32662,"lon":5.40984,"is_reserved":false,"is_disabled":false,"rental_uris":{"android":"levelo://app?vid=02fe0e86-bc31-4b56-981a-890ed6cd1c76","ios":"levelo://app?vid=02fe0e86-bc31-4b56-981a-890ed6cd1c76"},"vehicle_type_id":"4","last_reported":1730563809,"current_range_meters":8000,"station_id":"ce4bhpp2rcd13ifvqhgg","pricing_plan_id":"cebpf4jnsgd1na2vs0mg"},{"bike_id":"8682c02d-b75e-4986-bf40-c0b0cf6578e7","system_id":"levelo_inurba_marseille","lat":43.32103,"lon":5.36785,"is_reserved":false,"is_disabled":false,"rental_uris":{"android":"levelo://app?vid=8682c02d-b75e-4986-bf40-c0b0cf6578e7","ios":"levelo://app?vid=8682c02d-b75e-4986-bf40-c0b0cf6578e7"},"vehicle_type_id":"4","last_reported":1730563809,"current_range_meters":37600,"station_id":"ce4bhrh2rcd13ifvqhug","pricing_plan_id":"cebpf4jnsgd1na2vs0mg"},{"bike_id":"fc03a436-bd6d-418e-92c5-85d085bc4a5d","system_id":"levelo_inurba_marseille","lat":43.3203,"lon":5.41568,"is_reserved":false,"is_disabled":false,"rental_uris":{"android":"levelo://app?vid=fc03a436-bd6d-418e-92c5-85d085bc4a5d","ios":"levelo://app?vid=fc03a436-bd6d-418e-92c5-85d085bc4a5d"},"vehicle_type_id":"4","last_reported":1730563809,"current_range_meters":26800,"station_id":"ce4bhq92rcd13ifvqhkg","pricing_plan_id":"cebpf4jnsgd1na2vs0mg"},{"bike_id":"9544e8e1-810b-40e5-8e45-0e98bf35fbaa","system_id":"levelo_inurba_marseille","lat":43.30135,"lon":5.37422,"is_reserved":false,"is_disabled":false,"rental_uris":{"android":"levelo://app?vid=9544e8e1-810b-40e5-8e45-0e98bf35fbaa","ios":"levelo://app?vid=9544e8e1-810b-40e5-8e45-0e98bf35fbaa"},"vehicle_type_id":"4","last_reported":1730563809,"current_range_meters":37600,"station_id":"ce4bgs92rcd13ifvqcc0","pricing_plan_id":"cebpf4jnsgd1na2vs0mg"},{"bike_id":"1c7235cb-2316-4435-98f3-50e51cf4474c","system_id":"levelo_inurba_marseille","lat":43.26558,"lon":5.3729,"is_reserved":false,"is_disabled":false,"rental_uris":{"android":"levelo://app?vid=1c7235cb-2316-4435-98f3-50e51cf4474c","ios":"levelo://app?vid=1c7235cb-2316-4435-98f3-50e51cf4474c"},"vehicle_type_id":"4","last_reported":1730563809,"current_range_meters":7200,"station_id":"ce4bhg12rcd13ifvqf70","pricing_plan_id":"cebpf4jnsgd1na2vs0mg"},{"bike_id":"615d6bf6-418b-485f-937b-5a225c4b34f6","system_id":"levelo_inurba_marseille","lat":43.30444,"lon":5.37912,"is_reserved":false,"is_disabled":false,"rental_uris":{"android":"levelo://app?vid=615d6bf6-418b-485f-937b-5a225c4b34f6","ios":"levelo://app?vid=615d6bf6-418b-485f-937b-5a225c4b34f6"},"vehicle_type_id":"4","last_reported":1730563809,"current_range_meters":38800,"station_id":"ce4bgup2rcd13ifvqcn0","pricing_plan_id":"cebpf4jnsgd1na2vs0mg"},{"bike_id":"cd3e86ad-d45b-4da8-8cd7-1ab0a47373f2","system_id":"levelo_inurba_marseille","lat":43.25715,"lon":5.41121,"is_reserved":false,"is_disabled":false,"rental_uris":{"android":"levelo://app?vid=cd3e86ad-d45b-4da8-8cd7-1ab0a47373f2","ios":"levelo://app?vid=cd3e86ad-d45b-4da8-8cd7-1ab0a47373f2"},"vehicle_type_id":"4","last_reported":1730563809,"current_range_meters":39200,"station_id":"ce4bhkp2rcd13ifvqgd0","pricing_plan_id":"cebpf4jnsgd1na2vs0mg"},{"bike_id":"a4627486-a087-47d1-bdea-e9476cd49986","system_id":"levelo_inurba_marseille","lat":43.23189,"lon":5.35557,"is_reserved":false,"is_disabled":false,"rental_uris":{"android":"levelo://app?vid=a4627486-a087-47d1-bdea-e9476cd49986","ios":"levelo://app?vid=a4627486-a087-47d1-bdea-e9476cd49986"},"vehicle_type_id":"4","last_reported":1730563809,"current_range_meters":26800,"station_id":"ce4bhu92rcd13ifvqi70","pricing_plan_id":"cebpf4jnsgd1na2vs0mg"},{"bike_id":"50f35fcc-5108-4a2e-ad11-1cf401fd2a15","system_id":"levelo_inurba_marseille","lat":43.28611,"lon":5.35109,"is_reserved":false,"is_disabled":false,"rental_uris":{"android":"levelo://app?vid=50f35fcc-5108-4a2e-ad11-1cf401fd2a15","ios":"levelo://app?vid=50f35fcc-5108-4a2e-ad11-1cf401fd2a15"},"vehicle_type_id":"4","last_reported":1730563809,"current_range_meters":37600,"station_id":"ce4bhch2rcd13ifvqeug","pricing_plan_id":"cebpf4jnsgd1na2vs0mg"},{"bike_id":"62768f75-5e7e-4b04-8744-604f55583a36","system_id":"levelo_inurba_marseille","lat":43.229279,"lon":5.353795,"is_reserved":false,"is_disabled":false,"rental_uris":{"android":"levelo://app?vid=62768f75-5e7e-4b04-8744-604f55583a36","ios":"levelo://app?vid=62768f75-5e7e-4b04-8744-604f55583a36"},"vehicle_type_id":"4","last_reported":1730563809,"current_range_meters":18000,"station_id":"cpo3532slgdg3j2ikp40","pricing_plan_id":"cebpf4jnsgd1na2vs0mg"},{"bike_id":"bd52d0e8-3817-449a-bd12-a5f517577a51","system_id":"levelo_inurba_marseille","lat":43.258583,"lon":5.399015,"is_reserved":false,"is_disabled":false,"rental_uris":{"android":"levelo://app?vid=bd52d0e8-3817-449a-bd12-a5f517577a51","ios":"levelo://app?vid=bd52d0e8-3817-449a-bd12-a5f517577a51"},"vehicle_type_id":"4","last_reported":1730563809,"current_range_meters":24400,"station_id":"ce4bhl92rcd13ifvqghg","pricing_plan_id":"cebpf4jnsgd1na2vs0mg"},{"bike_id":"c8ecc59c-b1bf-4555-bd7b-282d8cfb58e5","system_id":"levelo_inurba_marseille","lat":43.31982,"lon":5.38156,"is_reserved":false,"is_disabled":false,"rental_uris":{"android":"levelo://app?vid=c8ecc59c-b1bf-4555-bd7b-282d8cfb58e5","ios":"levelo://app?vid=c8ecc59c-b1bf-4555-bd7b-282d8cfb58e5"},"vehicle_type_id":"4","last_reported":1730563809,"current_range_meters":25200,"station_id":"ce4bhr12rcd13ifvqhpg","pricing_plan_id":"cebpf4jnsgd1na2vs0mg"},{"bike_id":"198657cb-dfe2-4960-98ba-591830066bbd","system_id":"levelo_inurba_marseille","lat":43.28156,"lon":5.42642,"is_reserved":false,"is_disabled":false,"rental_uris":{"android":"levelo://app?vid=198657cb-dfe2-4960-98ba-591830066bbd","ios":"levelo://app?vid=198657cb-dfe2-4960-98ba-591830066bbd"},"vehicle_type_id":"4","last_reported":1730563809,"current_range_meters":8800,"station_id":"ce4bhnh2rcd13ifvqgug","pricing_plan_id":"cebpf4jnsgd1na2vs0mg"},{"bike_id":"c728b923-65ff-4f3c-af65-445c0ab5ad59","system_id":"levelo_inurba_marseille","lat":43.28614,"lon":5.35106,"is_reserved":false,"is_disabled":false,"rental_uris":{"android":"levelo://app?vid=c728b923-65ff-4f3c-af65-445c0ab5ad59","ios":"levelo://app?vid=c728b923-65ff-4f3c-af65-445c0ab5ad59"},"vehicle_type_id":"4","last_reported":1730563809,"current_range_meters":34000,"station_id":"ce4bhch2rcd13ifvqeug","pricing_plan_id":"cebpf4jnsgd1na2vs0mg"},{"bike_id":"101ba636-dd97-43ad-a75f-c8f6c07358de","system_id":"levelo_inurba_marseille","lat":43.28406,"lon":5.34994,"is_reserved":false,"is_disabled":false,"rental_uris":{"android":"levelo://app?vid=101ba636-dd97-43ad-a75f-c8f6c07358de","ios":"levelo://app?vid=101ba636-dd97-43ad-a75f-c8f6c07358de"},"vehicle_type_id":"4","last_reported":1730563809,"current_range_meters":22000,"station_id":"ce4bhbh2rcd13ifvqepg","pricing_plan_id":"cebpf4jnsgd1na2vs0mg"},{"bike_id":"6aee0ce1-c7a0-45e8-a515-069ca31b3763","system_id":"levelo_inurba_marseille","lat":43.25729,"lon":5.41117,"is_reserved":false,"is_disabled":false,"rental_uris":{"android":"levelo://app?vid=6aee0ce1-c7a0-45e8-a515-069ca31b3763","ios":"levelo://app?vid=6aee0ce1-c7a0-45e8-a515-069ca31b3763"},"vehicle_type_id":"4","last_reported":1730563809,"current_range_meters":37600,"station_id":"ce4bhkp2rcd13ifvqgd0","pricing_plan_id":"cebpf4jnsgd1na2vs0mg"},{"bike_id":"03ecf539-acfb-438e-8e4a-2d04df101460","system_id":"levelo_inurba_marseille","lat":43.25492,"lon":5.37647,"is_reserved":false,"is_disabled":false,"rental_uris":{"android":"levelo://app?vid=03ecf539-acfb-438e-8e4a-2d04df101460","ios":"levelo://app?vid=03ecf539-acfb-438e-8e4a-2d04df101460"},"vehicle_type_id":"4","last_reported":1730563809,"current_range_meters":36000,"station_id":"ce4bhh12rcd13ifvqff0","pricing_plan_id":"cebpf4jnsgd1na2vs0mg"},{"bike_id":"7f01fda9-488c-42cd-bad3-917b113dfa40","system_id":"levelo_inurba_marseille","lat":43.28849,"lon":5.35855,"is_reserved":false,"is_disabled":false,"rental_uris":{"android":"levelo://app?vid=7f01fda9-488c-42cd-bad3-917b113dfa40","ios":"levelo://app?vid=7f01fda9-488c-42cd-bad3-917b113dfa40"},"vehicle_type_id":"4","last_reported":1730563809,"current_range_meters":16400,"station_id":"ce4bhb12rcd13ifvqem0","pricing_plan_id":"cebpf4jnsgd1na2vs0mg"},{"bike_id":"5ab17023-8660-410b-88a5-127d565b058c","system_id":"levelo_inurba_marseille","lat":43.24165,"lon":5.36396,"is_reserved":false,"is_disabled":false,"rental_uris":{"android":"levelo://app?vid=5ab17023-8660-410b-88a5-127d565b058c","ios":"levelo://app?vid=5ab17023-8660-410b-88a5-127d565b058c"},"vehicle_type_id":"4","last_reported":1730563809,"current_range_meters":19200,"station_id":"cpo36qri1sfpv3e86is0","pricing_plan_id":"cebpf4jnsgd1na2vs0mg"},{"bike_id":"e75954f1-d674-4444-8335-95b5e998c3f6","system_id":"levelo_inurba_marseille","lat":43.27376,"lon":5.36258,"is_reserved":false,"is_disabled":false,"rental_uris":{"android":"levelo://app?vid=e75954f1-d674-4444-8335-95b5e998c3f6","ios":"levelo://app?vid=e75954f1-d674-4444-8335-95b5e998c3f6"},"vehicle_type_id":"4","last_reported":1730563809,"current_range_meters":4000,"station_id":"ce4bhbh2rcd13ifvqeo0","pricing_plan_id":"cebpf4jnsgd1na2vs0mg"},{"bike_id":"1c6c4ea4-1422-4f95-9fb3-989475604eaf","system_id":"levelo_inurba_marseille","lat":43.28273,"lon":5.35077,"is_reserved":false,"is_disabled":false,"rental_uris":{"android":"levelo://app?vid=1c6c4ea4-1422-4f95-9fb3-989475604eaf","ios":"levelo://app?vid=1c6c4ea4-1422-4f95-9fb3-989475604eaf"},"vehicle_type_id":"4","last_reported":1730563809,"current_range_meters":36800,"station_id":"ce4bhbp2rcd13ifvqerg","pricing_plan_id":"cebpf4jnsgd1na2vs0mg"},{"bike_id":"14c3f9c5-fbbd-4030-89cf-11deceb4592f","system_id":"levelo_inurba_marseille","lat":43.29035,"lon":5.37574,"is_reserved":false,"is_disabled":false,"rental_uris":{"android":"levelo://app?vid=14c3f9c5-fbbd-4030-89cf-11deceb4592f","ios":"levelo://app?vid=14c3f9c5-fbbd-4030-89cf-11deceb4592f"},"vehicle_type_id":"4","last_reported":1730563809,"current_range_meters":20000,"station_id":"ce4bh692rcd13ifvqe90","pricing_plan_id":"cebpf4jnsgd1na2vs0mg"},{"bike_id":"7f5dab1e-719c-4732-bbf7-98e63f9f3e77","system_id":"levelo_inurba_marseille","lat":43.23188,"lon":5.35562,"is_reserved":false,"is_disabled":false,"rental_uris":{"android":"levelo://app?vid=7f5dab1e-719c-4732-bbf7-98e63f9f3e77","ios":"levelo://app?vid=7f5dab1e-719c-4732-bbf7-98e63f9f3e77"},"vehicle_type_id":"4","last_reported":1730563809,"current_range_meters":24800,"station_id":"ce4bhu92rcd13ifvqi70","pricing_plan_id":"cebpf4jnsgd1na2vs0mg"},{"bike_id":"7f39b1a9-937f-4de6-9cb9-6fb824b11a9d","system_id":"levelo_inurba_marseille","lat":43.29269,"lon":5.36845,"is_reserved":false,"is_disabled":false,"rental_uris":{"android":"levelo://app?vid=7f39b1a9-937f-4de6-9cb9-6fb824b11a9d","ios":"levelo://app?vid=7f39b1a9-937f-4de6-9cb9-6fb824b11a9d"},"vehicle_type_id":"4","last_reported":1730563809,"current_range_meters":30000,"station_id":"ce4bhbp2rcd13ifvqesg","pricing_plan_id":"cebpf4jnsgd1na2vs0mg"},{"bike_id":"4b7e39ca-f030-461d-8ec3-c7b62858ad2e","system_id":"levelo_inurba_marseille","lat":43.26197,"lon":5.37936,"is_reserved":false,"is_disabled":false,"rental_uris":{"android":"levelo://app?vid=4b7e39ca-f030-461d-8ec3-c7b62858ad2e","ios":"levelo://app?vid=4b7e39ca-f030-461d-8ec3-c7b62858ad2e"},"vehicle_type_id":"4","last_reported":1730563809,"current_range_meters":24400,"station_id":"ce4bhjp2rcd13ifvqg90","pricing_plan_id":"cebpf4jnsgd1na2vs0mg"},{"bike_id":"1f343c34-b7a0-4046-a2f9-240e7f058a56","system_id":"levelo_inurba_marseille","lat":43.270264,"lon":5.386682,"is_reserved":false,"is_disabled":false,"rental_uris":{"android":"levelo://app?vid=1f343c34-b7a0-4046-a2f9-240e7f058a56","ios":"levelo://app?vid=1f343c34-b7a0-4046-a2f9-240e7f058a56"},"vehicle_type_id":"4","last_reported":1730563809,"current_range_meters":6400,"station_id":"ce4bhh92rcd13ifvqfh0","pricing_plan_id":"cebpf4jnsgd1na2vs0mg"},{"bike_id":"342f010a-452d-4b24-aa24-ca1369f0d343","system_id":"levelo_inurba_marseille","lat":43.292328,"lon":5.36052,"is_reserved":false,"is_disabled":false,"rental_uris":{"android":"levelo://app?vid=342f010a-452d-4b24-aa24-ca1369f0d343","ios":"levelo://app?vid=342f010a-452d-4b24-aa24-ca1369f0d343"},"vehicle_type_id":"4","last_reported":1730563809,"current_range_meters":20000,"station_id":"ce4bhbh2rcd13ifvqeqg","pricing_plan_id":"cebpf4jnsgd1na2vs0mg"},{"bike_id":"890f66fc-50b2-4eb6-bdfd-179ac4802a60","system_id":"levelo_inurba_marseille","lat":43.31687,"lon":5.40468,"is_reserved":false,"is_disabled":false,"rental_uris":{"android":"levelo://app?vid=890f66fc-50b2-4eb6-bdfd-179ac4802a60","ios":"levelo://app?vid=890f66fc-50b2-4eb6-bdfd-179ac4802a60"},"vehicle_type_id":"4","last_reported":1730563809,"current_range_meters":38800,"station_id":"ce4bh012rcd13ifvqd00","pricing_plan_id":"cebpf4jnsgd1na2vs0mg"},{"bike_id":"6ed9f47b-790d-4fc1-8a63-4686ae1f2138","system_id":"levelo_inurba_marseille","lat":43.292,"lon":5.39314,"is_reserved":false,"is_disabled":false,"rental_uris":{"android":"levelo://app?vid=6ed9f47b-790d-4fc1-8a63-4686ae1f2138","ios":"levelo://app?vid=6ed9f47b-790d-4fc1-8a63-4686ae1f2138"},"vehicle_type_id":"4","last_reported":1730563809,"current_range_meters":20000,"station_id":"ce4bh192rcd13ifvqdd0","pricing_plan_id":"cebpf4jnsgd1na2vs0mg"},{"bike_id":"2757d95d-85be-45e3-81b6-d0522461faba","system_id":"levelo_inurba_marseille","lat":43.28614,"lon":5.35105,"is_reserved":false,"is_disabled":false,"rental_uris":{"android":"levelo://app?vid=2757d95d-85be-45e3-81b6-d0522461faba","ios":"levelo://app?vid=2757d95d-85be-45e3-81b6-d0522461faba"},"vehicle_type_id":"4","last_reported":1730563809,"current_range_meters":38800,"station_id":"ce4bhch2rcd13ifvqeug","pricing_plan_id":"cebpf4jnsgd1na2vs0mg"},{"bike_id":"2f2d493e-7a15-4bfb-a779-eebf87e4f33f","system_id":"levelo_inurba_marseille","lat":43.27804,"lon":5.40717,"is_reserved":false,"is_disabled":false,"rental_uris":{"android":"levelo://app?vid=2f2d493e-7a15-4bfb-a779-eebf87e4f33f","ios":"levelo://app?vid=2f2d493e-7a15-4bfb-a779-eebf87e4f33f"},"vehicle_type_id":"4","last_reported":1730563809,"current_range_meters":10800,"station_id":"ce4bhnh2rcd13ifvqgtg","pricing_plan_id":"cebpf4jnsgd1na2vs0mg"},{"bike_id":"eb6f9db4-39a4-4741-9e58-1dac956564ac","system_id":"levelo_inurba_marseille","lat":43.255777,"lon":5.38232,"is_reserved":false,"is_disabled":false,"rental_uris":{"android":"levelo://app?vid=eb6f9db4-39a4-4741-9e58-1dac956564ac","ios":"levelo://app?vid=eb6f9db4-39a4-4741-9e58-1dac956564ac"},"vehicle_type_id":"4","last_reported":1730563809,"current_range_meters":38800,"station_id":"ce4bhih2rcd13ifvqfs0","pricing_plan_id":"cebpf4jnsgd1na2vs0mg"},{"bike_id":"cad9adff-574a-451a-af21-97d10b0b86df","system_id":"levelo_inurba_marseille","lat":43.299103,"lon":5.384992,"is_reserved":false,"is_disabled":false,"rental_uris":{"android":"levelo://app?vid=cad9adff-574a-451a-af21-97d10b0b86df","ios":"levelo://app?vid=cad9adff-574a-451a-af21-97d10b0b86df"},"vehicle_type_id":"4","last_reported":1730563809,"current_range_meters":15200,"station_id":"ce4bgr92rcd13ifvqc7g","pricing_plan_id":"cebpf4jnsgd1na2vs0mg"},{"bike_id":"ad27a309-825b-48cf-b531-54c6b8b4f6b8","system_id":"levelo_inurba_marseille","lat":43.27618,"lon":5.36107,"is_reserved":false,"is_disabled":false,"rental_uris":{"android":"levelo://app?vid=ad27a309-825b-48cf-b531-54c6b8b4f6b8","ios":"levelo://app?vid=ad27a309-825b-48cf-b531-54c6b8b4f6b8"},"vehicle_type_id":"4","last_reported":1730563809,"current_range_meters":11600,"station_id":"ce4bgj92rcd13ifvqbe0","pricing_plan_id":"cebpf4jnsgd1na2vs0mg"},{"bike_id":"ff198c5c-0ce6-47f4-9d99-c500d2b10e94","system_id":"levelo_inurba_marseille","lat":43.29724,"lon":5.3769,"is_reserved":false,"is_disabled":false,"rental_uris":{"android":"levelo://app?vid=ff198c5c-0ce6-47f4-9d99-c500d2b10e94","ios":"levelo://app?vid=ff198c5c-0ce6-47f4-9d99-c500d2b10e94"},"vehicle_type_id":"4","last_reported":1730563809,"current_range_meters":3600,"station_id":"ce4bgkh2rcd13ifvqbl0","pricing_plan_id":"cebpf4jnsgd1na2vs0mg"},{"bike_id":"c4548e2c-f32e-4b7c-848e-8f1478636b05","system_id":"levelo_inurba_marseille","lat":43.23964,"lon":5.36642,"is_reserved":false,"is_disabled":false,"rental_uris":{"android":"levelo://app?vid=c4548e2c-f32e-4b7c-848e-8f1478636b05","ios":"levelo://app?vid=c4548e2c-f32e-4b7c-848e-8f1478636b05"},"vehicle_type_id":"4","last_reported":1730563809,"current_range_meters":16400,"station_id":"ce4bhi12rcd13ifvqfp0","pricing_plan_id":"cebpf4jnsgd1na2vs0mg"},{"bike_id":"0c3b1e4f-c58b-480f-831c-f964672bdc90","system_id":"levelo_inurba_marseille","lat":43.30272,"lon":5.3771,"is_reserved":false,"is_disabled":false,"rental_uris":{"android":"levelo://app?vid=0c3b1e4f-c58b-480f-831c-f964672bdc90","ios":"levelo://app?vid=0c3b1e4f-c58b-480f-831c-f964672bdc90"},"vehicle_type_id":"4","last_reported":1730563809,"current_range_meters":11600,"station_id":"ce4bguh2rcd13ifvqcj0","pricing_plan_id":"cebpf4jnsgd1na2vs0mg"},{"bike_id":"aac1ce0a-8229-478f-a079-a32302728cc6","system_id":"levelo_inurba_marseille","lat":43.29061,"lon":5.37169,"is_reserved":false,"is_disabled":false,"rental_uris":{"android":"levelo://app?vid=aac1ce0a-8229-478f-a079-a32302728cc6","ios":"levelo://app?vid=aac1ce0a-8229-478f-a079-a32302728cc6"},"vehicle_type_id":"4","last_reported":1730563809,"current_range_meters":6800,"station_id":"ce4bh5p2rcd13ifvqe4g","pricing_plan_id":"cebpf4jnsgd1na2vs0mg"},{"bike_id":"ba745c96-3de6-45f0-92b1-f41c3a9382aa","system_id":"levelo_inurba_marseille","lat":43.2549,"lon":5.37658,"is_reserved":false,"is_disabled":false,"rental_uris":{"android":"levelo://app?vid=ba745c96-3de6-45f0-92b1-f41c3a9382aa","ios":"levelo://app?vid=ba745c96-3de6-45f0-92b1-f41c3a9382aa"},"vehicle_type_id":"4","last_reported":1730563809,"current_range_meters":11200,"station_id":"ce4bhh12rcd13ifvqff0","pricing_plan_id":"cebpf4jnsgd1na2vs0mg"},{"bike_id":"a1afb883-afdd-439e-9a90-d1cf53a9ad55","system_id":"levelo_inurba_marseille","lat":43.30351,"lon":5.41884,"is_reserved":false,"is_disabled":false,"rental_uris":{"android":"levelo://app?vid=a1afb883-afdd-439e-9a90-d1cf53a9ad55","ios":"levelo://app?vid=a1afb883-afdd-439e-9a90-d1cf53a9ad55"},"vehicle_type_id":"4","last_reported":1730563809,"current_range_meters":31200,"station_id":"ce4bhop2rcd13ifvqh7g","pricing_plan_id":"cebpf4jnsgd1na2vs0mg"},{"bike_id":"f609db10-d365-48ba-8a60-631d29005da7","system_id":"levelo_inurba_marseille","lat":43.27376,"lon":5.36264,"is_reserved":false,"is_disabled":false,"rental_uris":{"android":"levelo://app?vid=f609db10-d365-48ba-8a60-631d29005da7","ios":"levelo://app?vid=f609db10-d365-48ba-8a60-631d29005da7"},"vehicle_type_id":"4","last_reported":1730563809,"current_range_meters":8800,"station_id":"ce4bhbh2rcd13ifvqeo0","pricing_plan_id":"cebpf4jnsgd1na2vs0mg"},{"bike_id":"cd9c51c3-66f1-4423-a637-2a576f24f89d","system_id":"levelo_inurba_marseille","lat":43.2707,"lon":5.42287,"is_reserved":false,"is_disabled":false,"rental_uris":{"android":"levelo://app?vid=cd9c51c3-66f1-4423-a637-2a576f24f89d","ios":"levelo://app?vid=cd9c51c3-66f1-4423-a637-2a576f24f89d"},"vehicle_type_id":"4","last_reported":1730563809,"current_range_meters":9600,"station_id":"ce4bhk92rcd13ifvqgb0","pricing_plan_id":"cebpf4jnsgd1na2vs0mg"},{"bike_id":"23e47d79-27cc-4cff-b1a5-1f508f78dc30","system_id":"levelo_inurba_marseille","lat":43.275443,"lon":5.359811,"is_reserved":false,"is_disabled":false,"rental_uris":{"android":"levelo://app?vid=23e47d79-27cc-4cff-b1a5-1f508f78dc30","ios":"levelo://app?vid=23e47d79-27cc-4cff-b1a5-1f508f78dc30"},"vehicle_type_id":"4","last_reported":1730563809,"current_range_meters":16800,"station_id":"ce4bgj92rcd13ifvqbe0","pricing_plan_id":"cebpf4jnsgd1na2vs0mg"},{"bike_id":"14c6e247-7588-489c-93e3-2b2a10b59b7c","system_id":"levelo_inurba_marseille","lat":43.269562,"lon":5.386238,"is_reserved":false,"is_disabled":false,"rental_uris":{"android":"levelo://app?vid=14c6e247-7588-489c-93e3-2b2a10b59b7c","ios":"levelo://app?vid=14c6e247-7588-489c-93e3-2b2a10b59b7c"},"vehicle_type_id":"4","last_reported":1730563809,"current_range_meters":22400,"station_id":"ce4bhh92rcd13ifvqfh0","pricing_plan_id":"cebpf4jnsgd1na2vs0mg"},{"bike_id":"d69eef29-33f1-400b-9dbd-e583b4f600d8","system_id":"levelo_inurba_marseille","lat":43.2465,"lon":5.38904,"is_reserved":false,"is_disabled":false,"rental_uris":{"android":"levelo://app?vid=d69eef29-33f1-400b-9dbd-e583b4f600d8","ios":"levelo://app?vid=d69eef29-33f1-400b-9dbd-e583b4f600d8"},"vehicle_type_id":"4","last_reported":1730563809,"current_range_meters":38800,"station_id":"ce4bhg12rcd13ifvqf60","pricing_plan_id":"cebpf4jnsgd1na2vs0mg"},{"bike_id":"a7ed5ed6-c8f8-453a-b003-d68bb2693d84","system_id":"levelo_inurba_marseille","lat":43.309,"lon":5.36881,"is_reserved":false,"is_disabled":false,"rental_uris":{"android":"levelo://app?vid=a7ed5ed6-c8f8-453a-b003-d68bb2693d84","ios":"levelo://app?vid=a7ed5ed6-c8f8-453a-b003-d68bb2693d84"},"vehicle_type_id":"4","last_reported":1730563809,"current_range_meters":24400,"station_id":"ce4bgn92rcd13ifvqbvg","pricing_plan_id":"cebpf4jnsgd1na2vs0mg"},{"bike_id":"ffbfd32a-65b9-45a2-b7b7-e0925947f32e","system_id":"levelo_inurba_marseille","lat":43.29769,"lon":5.371,"is_reserved":false,"is_disabled":false,"rental_uris":{"android":"levelo://app?vid=ffbfd32a-65b9-45a2-b7b7-e0925947f32e","ios":"levelo://app?vid=ffbfd32a-65b9-45a2-b7b7-e0925947f32e"},"vehicle_type_id":"4","last_reported":1730563809,"current_range_meters":27200,"station_id":"ce4bgop2rcd13ifvqc1g","pricing_plan_id":"cebpf4jnsgd1na2vs0mg"},{"bike_id":"3c9b25a2-27ea-4952-ae38-cfc4538da70c","system_id":"levelo_inurba_marseille","lat":43.24169,"lon":5.36404,"is_reserved":false,"is_disabled":false,"rental_uris":{"android":"levelo://app?vid=3c9b25a2-27ea-4952-ae38-cfc4538da70c","ios":"levelo://app?vid=3c9b25a2-27ea-4952-ae38-cfc4538da70c"},"vehicle_type_id":"4","last_reported":1730563809,"current_range_meters":27200,"station_id":"cpo36qri1sfpv3e86is0","pricing_plan_id":"cebpf4jnsgd1na2vs0mg"},{"bike_id":"6fcba22d-70ac-4903-b902-ceff15bbf694","system_id":"levelo_inurba_marseille","lat":43.28442,"lon":5.39207,"is_reserved":false,"is_disabled":false,"rental_uris":{"android":"levelo://app?vid=6fcba22d-70ac-4903-b902-ceff15bbf694","ios":"levelo://app?vid=6fcba22d-70ac-4903-b902-ceff15bbf694"},"vehicle_type_id":"4","last_reported":1730563809,"current_range_meters":20400,"station_id":"ce4bhoh2rcd13ifvqh5g","pricing_plan_id":"cebpf4jnsgd1na2vs0mg"},{"bike_id":"239cf049-1dc8-4fe4-ae87-6f8a4767b11b","system_id":"levelo_inurba_marseille","lat":43.26488,"lon":5.39551,"is_reserved":false,"is_disabled":false,"rental_uris":{"android":"levelo://app?vid=239cf049-1dc8-4fe4-ae87-6f8a4767b11b","ios":"levelo://app?vid=239cf049-1dc8-4fe4-ae87-6f8a4767b11b"},"vehicle_type_id":"4","last_reported":1730563809,"current_range_meters":27600,"station_id":"ce4bhi12rcd13ifvqfq0","pricing_plan_id":"cebpf4jnsgd1na2vs0mg"},{"bike_id":"658dacf4-7ef3-4634-8126-9bbd88e5a6eb","system_id":"levelo_inurba_marseille","lat":43.23188,"lon":5.35552,"is_reserved":false,"is_disabled":false,"rental_uris":{"android":"levelo://app?vid=658dacf4-7ef3-4634-8126-9bbd88e5a6eb","ios":"levelo://app?vid=658dacf4-7ef3-4634-8126-9bbd88e5a6eb"},"vehicle_type_id":"4","last_reported":1730563809,"current_range_meters":18000,"station_id":"ce4bhu92rcd13ifvqi70","pricing_plan_id":"cebpf4jnsgd1na2vs0mg"},{"bike_id":"4a6b7fbc-59dc-421a-90d8-ad8582113b32","system_id":"levelo_inurba_marseille","lat":43.27995,"lon":5.41665,"is_reserved":false,"is_disabled":false,"rental_uris":{"android":"levelo://app?vid=4a6b7fbc-59dc-421a-90d8-ad8582113b32","ios":"levelo://app?vid=4a6b7fbc-59dc-421a-90d8-ad8582113b32"},"vehicle_type_id":"4","last_reported":1730563809,"current_range_meters":30800,"station_id":"ce4bho12rcd13ifvqh1g","pricing_plan_id":"cebpf4jnsgd1na2vs0mg"},{"bike_id":"b36c1dc6-4f09-4cc1-97f1-02557e940b39","system_id":"levelo_inurba_marseille","lat":43.2706,"lon":5.40263,"is_reserved":false,"is_disabled":false,"rental_uris":{"android":"levelo://app?vid=b36c1dc6-4f09-4cc1-97f1-02557e940b39","ios":"levelo://app?vid=b36c1dc6-4f09-4cc1-97f1-02557e940b39"},"vehicle_type_id":"4","last_reported":1730563809,"current_range_meters":36800,"station_id":"ce4bhk92rcd13ifvqgc0","pricing_plan_id":"cebpf4jnsgd1na2vs0mg"},{"bike_id":"a1c5f3f0-1621-4d11-971c-81f04ac96910","system_id":"levelo_inurba_marseille","lat":43.292328,"lon":5.360566,"is_reserved":false,"is_disabled":false,"rental_uris":{"android":"levelo://app?vid=a1c5f3f0-1621-4d11-971c-81f04ac96910","ios":"levelo://app?vid=a1c5f3f0-1621-4d11-971c-81f04ac96910"},"vehicle_type_id":"4","last_reported":1730563809,"current_range_meters":30000,"station_id":"ce4bhb12rcd13ifvqel0","pricing_plan_id":"cebpf4jnsgd1na2vs0mg"},{"bike_id":"64ab1cb9-9e7d-426f-9d71-c1ce651dee12","system_id":"levelo_inurba_marseille","lat":43.28611,"lon":5.35111,"is_reserved":false,"is_disabled":false,"rental_uris":{"android":"levelo://app?vid=64ab1cb9-9e7d-426f-9d71-c1ce651dee12","ios":"levelo://app?vid=64ab1cb9-9e7d-426f-9d71-c1ce651dee12"},"vehicle_type_id":"4","last_reported":1730563809,"current_range_meters":20400,"station_id":"ce4bhch2rcd13ifvqeug","pricing_plan_id":"cebpf4jnsgd1na2vs0mg"},{"bike_id":"e55d8d6f-7394-4584-af8a-c65aaa7989ef","system_id":"levelo_inurba_marseille","lat":43.26057,"lon":5.394,"is_reserved":false,"is_disabled":false,"rental_uris":{"android":"levelo://app?vid=e55d8d6f-7394-4584-af8a-c65aaa7989ef","ios":"levelo://app?vid=e55d8d6f-7394-4584-af8a-c65aaa7989ef"},"vehicle_type_id":"4","last_reported":1730563809,"current_range_meters":9200,"station_id":"ce4bhh92rcd13ifvqfj0","pricing_plan_id":"cebpf4jnsgd1na2vs0mg"},{"bike_id":"ede1852f-10df-46f9-98c9-0855d423e691","system_id":"levelo_inurba_marseille","lat":43.29604,"lon":5.37716,"is_reserved":false,"is_disabled":false,"rental_uris":{"android":"levelo://app?vid=ede1852f-10df-46f9-98c9-0855d423e691","ios":"levelo://app?vid=ede1852f-10df-46f9-98c9-0855d423e691"},"vehicle_type_id":"4","last_reported":1730563809,"current_range_meters":36000,"station_id":"ce4bgi92rcd13ifvqb90","pricing_plan_id":"cebpf4jnsgd1na2vs0mg"},{"bike_id":"d3f56f17-ac1a-464c-b9d7-9bc3311153ab","system_id":"levelo_inurba_marseille","lat":43.24656,"lon":5.38168,"is_reserved":false,"is_disabled":false,"rental_uris":{"android":"levelo://app?vid=d3f56f17-ac1a-464c-b9d7-9bc3311153ab","ios":"levelo://app?vid=d3f56f17-ac1a-464c-b9d7-9bc3311153ab"},"vehicle_type_id":"4","last_reported":1730563809,"current_range_meters":9200,"station_id":"ce4bhih2rcd13ifvqfr0","pricing_plan_id":"cebpf4jnsgd1na2vs0mg"},{"bike_id":"a926ed35-de48-4ee4-b33e-cc192e61e403","system_id":"levelo_inurba_marseille","lat":43.28265,"lon":5.35079,"is_reserved":false,"is_disabled":false,"rental_uris":{"android":"levelo://app?vid=a926ed35-de48-4ee4-b33e-cc192e61e403","ios":"levelo://app?vid=a926ed35-de48-4ee4-b33e-cc192e61e403"},"vehicle_type_id":"4","last_reported":1730563809,"current_range_meters":14400,"station_id":"ce4bhbp2rcd13ifvqerg","pricing_plan_id":"cebpf4jnsgd1na2vs0mg"},{"bike_id":"f2abbc9b-0694-4b9c-8708-4e04c64a9511","system_id":"levelo_inurba_marseille","lat":43.30145,"lon":5.38089,"is_reserved":false,"is_disabled":false,"rental_uris":{"android":"levelo://app?vid=f2abbc9b-0694-4b9c-8708-4e04c64a9511","ios":"levelo://app?vid=f2abbc9b-0694-4b9c-8708-4e04c64a9511"},"vehicle_type_id":"4","last_reported":1730563809,"current_range_meters":32000,"station_id":"ce4bgjp2rcd13ifvqbh0","pricing_plan_id":"cebpf4jnsgd1na2vs0mg"},{"bike_id":"0a0c2a81-c109-4f45-8cf8-594cb7b2b3ea","system_id":"levelo_inurba_marseille","lat":43.28713,"lon":5.36092,"is_reserved":false,"is_disabled":false,"rental_uris":{"android":"levelo://app?vid=0a0c2a81-c109-4f45-8cf8-594cb7b2b3ea","ios":"levelo://app?vid=0a0c2a81-c109-4f45-8cf8-594cb7b2b3ea"},"vehicle_type_id":"4","last_reported":1730563809,"current_range_meters":32800,"station_id":"cki0cbj6b192h4jlfktg","pricing_plan_id":"cebpf4jnsgd1na2vs0mg"},{"bike_id":"7eac6086-9c55-491f-b51a-f6d316539019","system_id":"levelo_inurba_marseille","lat":43.28615,"lon":5.35116,"is_reserved":false,"is_disabled":false,"rental_uris":{"android":"levelo://app?vid=7eac6086-9c55-491f-b51a-f6d316539019","ios":"levelo://app?vid=7eac6086-9c55-491f-b51a-f6d316539019"},"vehicle_type_id":"4","last_reported":1730563809,"current_range_meters":26800,"station_id":"ce4bhch2rcd13ifvqeug","pricing_plan_id":"cebpf4jnsgd1na2vs0mg"},{"bike_id":"e897136e-8c37-4f90-8788-9b6a3c81507d","system_id":"levelo_inurba_marseille","lat":43.23059,"lon":5.35493,"is_reserved":false,"is_disabled":false,"rental_uris":{"android":"levelo://app?vid=e897136e-8c37-4f90-8788-9b6a3c81507d","ios":"levelo://app?vid=e897136e-8c37-4f90-8788-9b6a3c81507d"},"vehicle_type_id":"4","last_reported":1730563809,"current_range_meters":28800,"station_id":"cpo3342slgdg3j2ifvpg","pricing_plan_id":"cebpf4jnsgd1na2vs0mg"},{"bike_id":"acd06192-4915-4784-9790-c9d2c7627dbb","system_id":"levelo_inurba_marseille","lat":43.320313,"lon":5.415695,"is_reserved":false,"is_disabled":false,"rental_uris":{"android":"levelo://app?vid=acd06192-4915-4784-9790-c9d2c7627dbb","ios":"levelo://app?vid=acd06192-4915-4784-9790-c9d2c7627dbb"},"vehicle_type_id":"4","last_reported":1730563809,"current_range_meters":38400,"station_id":"ce4bhq92rcd13ifvqhkg","pricing_plan_id":"cebpf4jnsgd1na2vs0mg"},{"bike_id":"153476c6-6a67-41ff-9311-75e3ae94b2ba","system_id":"levelo_inurba_marseille","lat":43.2621,"lon":5.37446,"is_reserved":false,"is_disabled":false,"rental_uris":{"android":"levelo://app?vid=153476c6-6a67-41ff-9311-75e3ae94b2ba","ios":"levelo://app?vid=153476c6-6a67-41ff-9311-75e3ae94b2ba"},"vehicle_type_id":"4","last_reported":1730563809,"current_range_meters":10000,"station_id":"ce4bhgp2rcd13ifvqfc0","pricing_plan_id":"cebpf4jnsgd1na2vs0mg"},{"bike_id":"813dd5f9-c683-44bb-900c-ce23ace9a931","system_id":"levelo_inurba_marseille","lat":43.29329,"lon":5.37124,"is_reserved":false,"is_disabled":false,"rental_uris":{"android":"levelo://app?vid=813dd5f9-c683-44bb-900c-ce23ace9a931","ios":"levelo://app?vid=813dd5f9-c683-44bb-900c-ce23ace9a931"},"vehicle_type_id":"4","last_reported":1730563809,"current_range_meters":9200,"station_id":"","pricing_plan_id":"cebpf4jnsgd1na2vs0mg"},{"bike_id":"5deee2f8-848a-457a-92b7-a45d8fa16e3c","system_id":"levelo_inurba_marseille","lat":43.28559,"lon":5.39498,"is_reserved":false,"is_disabled":false,"rental_uris":{"android":"levelo://app?vid=5deee2f8-848a-457a-92b7-a45d8fa16e3c","ios":"levelo://app?vid=5deee2f8-848a-457a-92b7-a45d8fa16e3c"},"vehicle_type_id":"4","last_reported":1730563809,"current_range_meters":38400,"station_id":"ce4bh292rcd13ifvqdg0","pricing_plan_id":"cebpf4jnsgd1na2vs0mg"},{"bike_id":"2e3f3618-5aef-4380-b8c5-a5a634c3fc00","system_id":"levelo_inurba_marseille","lat":43.29516,"lon":5.37501,"is_reserved":false,"is_disabled":false,"rental_uris":{"android":"levelo://app?vid=2e3f3618-5aef-4380-b8c5-a5a634c3fc00","ios":"levelo://app?vid=2e3f3618-5aef-4380-b8c5-a5a634c3fc00"},"vehicle_type_id":"4","last_reported":1730563809,"current_range_meters":38800,"station_id":"ce4bgkp2rcd13ifvqbmg","pricing_plan_id":"cebpf4jnsgd1na2vs0mg"},{"bike_id":"5d49116d-9ac2-4fe3-b140-1c8daccc859c","system_id":"levelo_inurba_marseille","lat":43.30274,"lon":5.37712,"is_reserved":false,"is_disabled":false,"rental_uris":{"android":"levelo://app?vid=5d49116d-9ac2-4fe3-b140-1c8daccc859c","ios":"levelo://app?vid=5d49116d-9ac2-4fe3-b140-1c8daccc859c"},"vehicle_type_id":"4","last_reported":1730563809,"current_range_meters":39200,"station_id":"ce4bguh2rcd13ifvqcj0","pricing_plan_id":"cebpf4jnsgd1na2vs0mg"},{"bike_id":"3099cb08-b21e-47cc-bf40-9eac857bd788","system_id":"levelo_inurba_marseille","lat":43.28605,"lon":5.37063,"is_reserved":false,"is_disabled":false,"rental_uris":{"android":"levelo://app?vid=3099cb08-b21e-47cc-bf40-9eac857bd788","ios":"levelo://app?vid=3099cb08-b21e-47cc-bf40-9eac857bd788"},"vehicle_type_id":"4","last_reported":1730563809,"current_range_meters":12800,"station_id":"ce4bht12rcd13ifvqi60","pricing_plan_id":"cebpf4jnsgd1na2vs0mg"},{"bike_id":"11cdf20f-5b5f-4879-9af2-34d18e598ea4","system_id":"levelo_inurba_marseille","lat":43.25492,"lon":5.37647,"is_reserved":false,"is_disabled":false,"rental_uris":{"android":"levelo://app?vid=11cdf20f-5b5f-4879-9af2-34d18e598ea4","ios":"levelo://app?vid=11cdf20f-5b5f-4879-9af2-34d18e598ea4"},"vehicle_type_id":"4","last_reported":1730563809,"current_range_meters":35200,"station_id":"ce4bhh12rcd13ifvqff0","pricing_plan_id":"cebpf4jnsgd1na2vs0mg"},{"bike_id":"aa310a5a-41c8-4da1-a1b5-abc344fd5ec1","system_id":"levelo_inurba_marseille","lat":43.22928,"lon":5.35374,"is_reserved":false,"is_disabled":false,"rental_uris":{"android":"levelo://app?vid=aa310a5a-41c8-4da1-a1b5-abc344fd5ec1","ios":"levelo://app?vid=aa310a5a-41c8-4da1-a1b5-abc344fd5ec1"},"vehicle_type_id":"4","last_reported":1730563809,"current_range_meters":9200,"station_id":"cpo3532slgdg3j2ikp40","pricing_plan_id":"cebpf4jnsgd1na2vs0mg"},{"bike_id":"d1dcb6a7-20cc-4225-ab76-ef5dcf2933d5","system_id":"levelo_inurba_marseille","lat":43.2926,"lon":5.38422,"is_reserved":false,"is_disabled":false,"rental_uris":{"android":"levelo://app?vid=d1dcb6a7-20cc-4225-ab76-ef5dcf2933d5","ios":"levelo://app?vid=d1dcb6a7-20cc-4225-ab76-ef5dcf2933d5"},"vehicle_type_id":"4","last_reported":1730563809,"current_range_meters":10800,"station_id":"ce4bh692rcd13ifvqea0","pricing_plan_id":"cebpf4jnsgd1na2vs0mg"},{"bike_id":"7b6f8773-07ff-4796-baa9-a6a189302aff","system_id":"levelo_inurba_marseille","lat":43.30127,"lon":5.398538,"is_reserved":false,"is_disabled":false,"rental_uris":{"android":"levelo://app?vid=7b6f8773-07ff-4796-baa9-a6a189302aff","ios":"levelo://app?vid=7b6f8773-07ff-4796-baa9-a6a189302aff"},"vehicle_type_id":"4","last_reported":1730563809,"current_range_meters":36800,"station_id":"ce4bh0h2rcd13ifvqd40","pricing_plan_id":"cebpf4jnsgd1na2vs0mg"},{"bike_id":"6eaa2dbe-2228-4b69-8462-634d74f7bcad","system_id":"levelo_inurba_marseille","lat":43.22926,"lon":5.35371,"is_reserved":false,"is_disabled":false,"rental_uris":{"android":"levelo://app?vid=6eaa2dbe-2228-4b69-8462-634d74f7bcad","ios":"levelo://app?vid=6eaa2dbe-2228-4b69-8462-634d74f7bcad"},"vehicle_type_id":"4","last_reported":1730563809,"current_range_meters":24400,"station_id":"cpo3532slgdg3j2ikp40","pricing_plan_id":"cebpf4jnsgd1na2vs0mg"},{"bike_id":"25efdd14-e5a3-4f02-a8ea-e62e3c219fa3","system_id":"levelo_inurba_marseille","lat":43.2815,"lon":5.42648,"is_reserved":false,"is_disabled":false,"rental_uris":{"android":"levelo://app?vid=25efdd14-e5a3-4f02-a8ea-e62e3c219fa3","ios":"levelo://app?vid=25efdd14-e5a3-4f02-a8ea-e62e3c219fa3"},"vehicle_type_id":"4","last_reported":1730563809,"current_range_meters":38800,"station_id":"ce4bhnh2rcd13ifvqgug","pricing_plan_id":"cebpf4jnsgd1na2vs0mg"},{"bike_id":"18402065-9e87-476b-95ad-30853de181a0","system_id":"levelo_inurba_marseille","lat":43.32447,"lon":5.45563,"is_reserved":false,"is_disabled":false,"rental_uris":{"android":"levelo://app?vid=18402065-9e87-476b-95ad-30853de181a0","ios":"levelo://app?vid=18402065-9e87-476b-95ad-30853de181a0"},"vehicle_type_id":"4","last_reported":1730563809,"current_range_meters":7200,"station_id":"","pricing_plan_id":"cebpf4jnsgd1na2vs0mg"},{"bike_id":"f9705fc6-3d34-414b-8f9e-e2c8f53659d4","system_id":"levelo_inurba_marseille","lat":43.22919,"lon":5.35379,"is_reserved":false,"is_disabled":false,"rental_uris":{"android":"levelo://app?vid=f9705fc6-3d34-414b-8f9e-e2c8f53659d4","ios":"levelo://app?vid=f9705fc6-3d34-414b-8f9e-e2c8f53659d4"},"vehicle_type_id":"4","last_reported":1730563809,"current_range_meters":9600,"station_id":"cpo3532slgdg3j2ikp40","pricing_plan_id":"cebpf4jnsgd1na2vs0mg"},{"bike_id":"e6988a12-fd58-42fa-bed3-ba030800fec6","system_id":"levelo_inurba_marseille","lat":43.31325,"lon":5.39689,"is_reserved":false,"is_disabled":false,"rental_uris":{"android":"levelo://app?vid=e6988a12-fd58-42fa-bed3-ba030800fec6","ios":"levelo://app?vid=e6988a12-fd58-42fa-bed3-ba030800fec6"},"vehicle_type_id":"4","last_reported":1730563809,"current_range_meters":12400,"station_id":"ce4bgvp2rcd13ifvqcu0","pricing_plan_id":"cebpf4jnsgd1na2vs0mg"},{"bike_id":"bbb2b4a1-f589-41be-9eb2-0aaa7cd666f8","system_id":"levelo_inurba_marseille","lat":43.283386,"lon":5.381119,"is_reserved":false,"is_disabled":false,"rental_uris":{"android":"levelo://app?vid=bbb2b4a1-f589-41be-9eb2-0aaa7cd666f8","ios":"levelo://app?vid=bbb2b4a1-f589-41be-9eb2-0aaa7cd666f8"},"vehicle_type_id":"4","last_reported":1730563809,"current_range_meters":12400,"station_id":"ce4bh412rcd13ifvqdr0","pricing_plan_id":"cebpf4jnsgd1na2vs0mg"},{"bike_id":"55cc9043-e7cf-44d0-bafc-db6aae47a9fb","system_id":"levelo_inurba_marseille","lat":43.29178,"lon":5.35816,"is_reserved":false,"is_disabled":false,"rental_uris":{"android":"levelo://app?vid=55cc9043-e7cf-44d0-bafc-db6aae47a9fb","ios":"levelo://app?vid=55cc9043-e7cf-44d0-bafc-db6aae47a9fb"},"vehicle_type_id":"4","last_reported":1730563809,"current_range_meters":2000,"station_id":"ce4bhb12rcd13ifvqel0","pricing_plan_id":"cebpf4jnsgd1na2vs0mg"},{"bike_id":"1034806c-6c6f-4a1d-8b43-365ef47030de","system_id":"levelo_inurba_marseille","lat":43.29911,"lon":5.37475,"is_reserved":false,"is_disabled":false,"rental_uris":{"android":"levelo://app?vid=1034806c-6c6f-4a1d-8b43-365ef47030de","ios":"levelo://app?vid=1034806c-6c6f-4a1d-8b43-365ef47030de"},"vehicle_type_id":"4","last_reported":1730563809,"current_range_meters":35200,"station_id":"ce4bgjh2rcd13ifvqbg0","pricing_plan_id":"cebpf4jnsgd1na2vs0mg"},{"bike_id":"c16b15fd-4eb6-494a-a1fc-a742ad6741b9","system_id":"levelo_inurba_marseille","lat":43.2976,"lon":5.3766,"is_reserved":false,"is_disabled":false,"rental_uris":{"android":"levelo://app?vid=c16b15fd-4eb6-494a-a1fc-a742ad6741b9","ios":"levelo://app?vid=c16b15fd-4eb6-494a-a1fc-a742ad6741b9"},"vehicle_type_id":"4","last_reported":1730563809,"current_range_meters":38400,"station_id":"ce4bgkh2rcd13ifvqbl0","pricing_plan_id":"cebpf4jnsgd1na2vs0mg"},{"bike_id":"c7a6a60a-ebc3-43dc-847c-5817f23f3b49","system_id":"levelo_inurba_marseille","lat":43.25722,"lon":5.41114,"is_reserved":false,"is_disabled":false,"rental_uris":{"android":"levelo://app?vid=c7a6a60a-ebc3-43dc-847c-5817f23f3b49","ios":"levelo://app?vid=c7a6a60a-ebc3-43dc-847c-5817f23f3b49"},"vehicle_type_id":"4","last_reported":1730563809,"current_range_meters":10800,"station_id":"ce4bhkp2rcd13ifvqgd0","pricing_plan_id":"cebpf4jnsgd1na2vs0mg"},{"bike_id":"5ff6fdc1-dfb7-4588-b7db-42f3d1f77827","system_id":"levelo_inurba_marseille","lat":43.29002,"lon":5.35613,"is_reserved":false,"is_disabled":false,"rental_uris":{"android":"levelo://app?vid=5ff6fdc1-dfb7-4588-b7db-42f3d1f77827","ios":"levelo://app?vid=5ff6fdc1-dfb7-4588-b7db-42f3d1f77827"},"vehicle_type_id":"4","last_reported":1730563809,"current_range_meters":16400,"station_id":"ce4bhb92rcd13ifvqen0","pricing_plan_id":"cebpf4jnsgd1na2vs0mg"},{"bike_id":"71f01896-3406-4733-994d-5f0316b9b031","system_id":"levelo_inurba_marseille","lat":43.27614,"lon":5.36112,"is_reserved":false,"is_disabled":false,"rental_uris":{"android":"levelo://app?vid=71f01896-3406-4733-994d-5f0316b9b031","ios":"levelo://app?vid=71f01896-3406-4733-994d-5f0316b9b031"},"vehicle_type_id":"4","last_reported":1730563809,"current_range_meters":30000,"station_id":"ce4bgj92rcd13ifvqbe0","pricing_plan_id":"cebpf4jnsgd1na2vs0mg"},{"bike_id":"acdac4ec-81c9-4776-9a41-8a21e5184eba","system_id":"levelo_inurba_marseille","lat":43.30456,"lon":5.37914,"is_reserved":false,"is_disabled":false,"rental_uris":{"android":"levelo://app?vid=acdac4ec-81c9-4776-9a41-8a21e5184eba","ios":"levelo://app?vid=acdac4ec-81c9-4776-9a41-8a21e5184eba"},"vehicle_type_id":"4","last_reported":1730563809,"current_range_meters":38000,"station_id":"ce4bgup2rcd13ifvqcn0","pricing_plan_id":"cebpf4jnsgd1na2vs0mg"},{"bike_id":"3166a94e-6f6e-491f-bc4b-c9871fd15e01","system_id":"levelo_inurba_marseille","lat":43.24064,"lon":5.37775,"is_reserved":false,"is_disabled":false,"rental_uris":{"android":"levelo://app?vid=3166a94e-6f6e-491f-bc4b-c9871fd15e01","ios":"levelo://app?vid=3166a94e-6f6e-491f-bc4b-c9871fd15e01"},"vehicle_type_id":"4","last_reported":1730563809,"current_range_meters":6400,"station_id":"ce4bhnp2rcd13ifvqgvg","pricing_plan_id":"cebpf4jnsgd1na2vs0mg"},{"bike_id":"280fcb2e-c84f-4d8d-b042-8411471edaa5","system_id":"levelo_inurba_marseille","lat":43.31096,"lon":5.37756,"is_reserved":false,"is_disabled":false,"rental_uris":{"android":"levelo://app?vid=280fcb2e-c84f-4d8d-b042-8411471edaa5","ios":"levelo://app?vid=280fcb2e-c84f-4d8d-b042-8411471edaa5"},"vehicle_type_id":"4","last_reported":1730563809,"current_range_meters":2000,"station_id":"ce4bgt92rcd13ifvqcg0","pricing_plan_id":"cebpf4jnsgd1na2vs0mg"},{"bike_id":"6a73a468-ee4e-4504-97ad-7d286c4beb89","system_id":"levelo_inurba_marseille","lat":43.28615,"lon":5.35109,"is_reserved":false,"is_disabled":false,"rental_uris":{"android":"levelo://app?vid=6a73a468-ee4e-4504-97ad-7d286c4beb89","ios":"levelo://app?vid=6a73a468-ee4e-4504-97ad-7d286c4beb89"},"vehicle_type_id":"4","last_reported":1730563809,"current_range_meters":38800,"station_id":"ce4bhch2rcd13ifvqeug","pricing_plan_id":"cebpf4jnsgd1na2vs0mg"},{"bike_id":"9a230089-497c-44f8-88a6-09fb64413580","system_id":"levelo_inurba_marseille","lat":43.29897,"lon":5.37478,"is_reserved":false,"is_disabled":false,"rental_uris":{"android":"levelo://app?vid=9a230089-497c-44f8-88a6-09fb64413580","ios":"levelo://app?vid=9a230089-497c-44f8-88a6-09fb64413580"},"vehicle_type_id":"4","last_reported":1730563809,"current_range_meters":30000,"station_id":"ce4bgjh2rcd13ifvqbg0","pricing_plan_id":"cebpf4jnsgd1na2vs0mg"},{"bike_id":"039a64d6-5e87-4141-81e3-2e1ffc1e11a5","system_id":"levelo_inurba_marseille","lat":43.27992,"lon":5.40021,"is_reserved":false,"is_disabled":false,"rental_uris":{"android":"levelo://app?vid=039a64d6-5e87-4141-81e3-2e1ffc1e11a5","ios":"levelo://app?vid=039a64d6-5e87-4141-81e3-2e1ffc1e11a5"},"vehicle_type_id":"4","last_reported":1730563809,"current_range_meters":38800,"station_id":"ce4bho92rcd13ifvqh4g","pricing_plan_id":"cebpf4jnsgd1na2vs0mg"},{"bike_id":"c68ddd0c-288f-4bca-a116-13d737a648ed","system_id":"levelo_inurba_marseille","lat":43.25574,"lon":5.38232,"is_reserved":false,"is_disabled":false,"rental_uris":{"android":"levelo://app?vid=c68ddd0c-288f-4bca-a116-13d737a648ed","ios":"levelo://app?vid=c68ddd0c-288f-4bca-a116-13d737a648ed"},"vehicle_type_id":"4","last_reported":1730563809,"current_range_meters":16000,"station_id":"ce4bhih2rcd13ifvqfs0","pricing_plan_id":"cebpf4jnsgd1na2vs0mg"},{"bike_id":"7f17982b-36f5-4d90-b1be-eb793cb933c4","system_id":"levelo_inurba_marseille","lat":43.28406,"lon":5.34997,"is_reserved":false,"is_disabled":false,"rental_uris":{"android":"levelo://app?vid=7f17982b-36f5-4d90-b1be-eb793cb933c4","ios":"levelo://app?vid=7f17982b-36f5-4d90-b1be-eb793cb933c4"},"vehicle_type_id":"4","last_reported":1730563809,"current_range_meters":38800,"station_id":"ce4bhbh2rcd13ifvqepg","pricing_plan_id":"cebpf4jnsgd1na2vs0mg"},{"bike_id":"2e12b85d-7398-40c6-a74a-e48caf0dc5b1","system_id":"levelo_inurba_marseille","lat":43.29561,"lon":5.37519,"is_reserved":false,"is_disabled":false,"rental_uris":{"android":"levelo://app?vid=2e12b85d-7398-40c6-a74a-e48caf0dc5b1","ios":"levelo://app?vid=2e12b85d-7398-40c6-a74a-e48caf0dc5b1"},"vehicle_type_id":"4","last_reported":1730563809,"current_range_meters":20000,"station_id":"ce4bgh92rcd13ifvqb50","pricing_plan_id":"cebpf4jnsgd1na2vs0mg"},{"bike_id":"a8c742cc-2527-46c8-9d02-cff2ede9f9d7","system_id":"levelo_inurba_marseille","lat":43.31056,"lon":5.38353,"is_reserved":false,"is_disabled":false,"rental_uris":{"android":"levelo://app?vid=a8c742cc-2527-46c8-9d02-cff2ede9f9d7","ios":"levelo://app?vid=a8c742cc-2527-46c8-9d02-cff2ede9f9d7"},"vehicle_type_id":"4","last_reported":1730563809,"current_range_meters":34800,"station_id":"ce4bgv92rcd13ifvqcr0","pricing_plan_id":"cebpf4jnsgd1na2vs0mg"},{"bike_id":"29b0470a-c2e6-4094-921a-5acb4d29d1c5","system_id":"levelo_inurba_marseille","lat":43.26938,"lon":5.40256,"is_reserved":false,"is_disabled":false,"rental_uris":{"android":"levelo://app?vid=29b0470a-c2e6-4094-921a-5acb4d29d1c5","ios":"levelo://app?vid=29b0470a-c2e6-4094-921a-5acb4d29d1c5"},"vehicle_type_id":"4","last_reported":1730563809,"current_range_meters":38000,"station_id":"cjm6bp8fraef2m0cb0m0","pricing_plan_id":"cebpf4jnsgd1na2vs0mg"},{"bike_id":"eb50e288-7d15-4cd8-8996-684caf475a81","system_id":"levelo_inurba_marseille","lat":43.31263,"lon":5.40177,"is_reserved":false,"is_disabled":false,"rental_uris":{"android":"levelo://app?vid=eb50e288-7d15-4cd8-8996-684caf475a81","ios":"levelo://app?vid=eb50e288-7d15-4cd8-8996-684caf475a81"},"vehicle_type_id":"4","last_reported":1730563809,"current_range_meters":9200,"station_id":"ce4bh092rcd13ifvqd30","pricing_plan_id":"cebpf4jnsgd1na2vs0mg"},{"bike_id":"f3f2346f-d9a2-410c-a89a-53872c4e2d67","system_id":"levelo_inurba_marseille","lat":43.25573,"lon":5.38241,"is_reserved":false,"is_disabled":false,"rental_uris":{"android":"levelo://app?vid=f3f2346f-d9a2-410c-a89a-53872c4e2d67","ios":"levelo://app?vid=f3f2346f-d9a2-410c-a89a-53872c4e2d67"},"vehicle_type_id":"4","last_reported":1730563809,"current_range_meters":11600,"station_id":"ce4bhih2rcd13ifvqfs0","pricing_plan_id":"cebpf4jnsgd1na2vs0mg"},{"bike_id":"e74f712e-8cad-4a9d-9601-4cfc15e43810","system_id":"levelo_inurba_marseille","lat":43.27168,"lon":5.41004,"is_reserved":false,"is_disabled":false,"rental_uris":{"android":"levelo://app?vid=e74f712e-8cad-4a9d-9601-4cfc15e43810","ios":"levelo://app?vid=e74f712e-8cad-4a9d-9601-4cfc15e43810"},"vehicle_type_id":"4","last_reported":1730563809,"current_range_meters":8800,"station_id":"ce4bhl12rcd13ifvqgf0","pricing_plan_id":"cebpf4jnsgd1na2vs0mg"},{"bike_id":"3652d5c1-35cc-4aeb-84d0-bfe4888938f8","system_id":"levelo_inurba_marseille","lat":43.29372,"lon":5.378522,"is_reserved":false,"is_disabled":false,"rental_uris":{"android":"levelo://app?vid=3652d5c1-35cc-4aeb-84d0-bfe4888938f8","ios":"levelo://app?vid=3652d5c1-35cc-4aeb-84d0-bfe4888938f8"},"vehicle_type_id":"4","last_reported":1730563809,"current_range_meters":5600,"station_id":"ce4bgjh2rcd13ifvqbf0","pricing_plan_id":"cebpf4jnsgd1na2vs0mg"},{"bike_id":"c64bc634-5699-440b-9029-134a7a65a134","system_id":"levelo_inurba_marseille","lat":43.27369,"lon":5.3627,"is_reserved":false,"is_disabled":false,"rental_uris":{"android":"levelo://app?vid=c64bc634-5699-440b-9029-134a7a65a134","ios":"levelo://app?vid=c64bc634-5699-440b-9029-134a7a65a134"},"vehicle_type_id":"4","last_reported":1730563809,"current_range_meters":39200,"station_id":"ce4bhbh2rcd13ifvqeo0","pricing_plan_id":"cebpf4jnsgd1na2vs0mg"},{"bike_id":"9c510165-3fd2-45d1-85c8-68b221c6f474","system_id":"levelo_inurba_marseille","lat":43.23967,"lon":5.36632,"is_reserved":false,"is_disabled":false,"rental_uris":{"android":"levelo://app?vid=9c510165-3fd2-45d1-85c8-68b221c6f474","ios":"levelo://app?vid=9c510165-3fd2-45d1-85c8-68b221c6f474"},"vehicle_type_id":"4","last_reported":1730563809,"current_range_meters":38800,"station_id":"ce4bhi12rcd13ifvqfp0","pricing_plan_id":"cebpf4jnsgd1na2vs0mg"},{"bike_id":"4eb2497d-cdc8-405e-b8b8-1950ad4252cf","system_id":"levelo_inurba_marseille","lat":43.3043,"lon":5.38892,"is_reserved":false,"is_disabled":false,"rental_uris":{"android":"levelo://app?vid=4eb2497d-cdc8-405e-b8b8-1950ad4252cf","ios":"levelo://app?vid=4eb2497d-cdc8-405e-b8b8-1950ad4252cf"},"vehicle_type_id":"4","last_reported":1730563809,"current_range_meters":27200,"station_id":"ce4bgk12rcd13ifvqbi0","pricing_plan_id":"cebpf4jnsgd1na2vs0mg"},{"bike_id":"3f3eaede-5f91-423c-b731-bb0b8617a9e9","system_id":"levelo_inurba_marseille","lat":43.27366,"lon":5.36258,"is_reserved":false,"is_disabled":false,"rental_uris":{"android":"levelo://app?vid=3f3eaede-5f91-423c-b731-bb0b8617a9e9","ios":"levelo://app?vid=3f3eaede-5f91-423c-b731-bb0b8617a9e9"},"vehicle_type_id":"4","last_reported":1730563809,"current_range_meters":31200,"station_id":"ce4bhbh2rcd13ifvqeo0","pricing_plan_id":"cebpf4jnsgd1na2vs0mg"},{"bike_id":"dbfc27fb-cb97-4ca1-bf7a-15da0f969d35","system_id":"levelo_inurba_marseille","lat":43.25721,"lon":5.41114,"is_reserved":false,"is_disabled":false,"rental_uris":{"android":"levelo://app?vid=dbfc27fb-cb97-4ca1-bf7a-15da0f969d35","ios":"levelo://app?vid=dbfc27fb-cb97-4ca1-bf7a-15da0f969d35"},"vehicle_type_id":"4","last_reported":1730563809,"current_range_meters":4400,"station_id":"ce4bhkp2rcd13ifvqgd0","pricing_plan_id":"cebpf4jnsgd1na2vs0mg"},{"bike_id":"a28f4f4d-0802-4cd3-8906-2deb2289567c","system_id":"levelo_inurba_marseille","lat":43.2962,"lon":5.37157,"is_reserved":false,"is_disabled":false,"rental_uris":{"android":"levelo://app?vid=a28f4f4d-0802-4cd3-8906-2deb2289567c","ios":"levelo://app?vid=a28f4f4d-0802-4cd3-8906-2deb2289567c"},"vehicle_type_id":"4","last_reported":1730563809,"current_range_meters":10800,"station_id":"ce4bgnh2rcd13ifvqc0g","pricing_plan_id":"cebpf4jnsgd1na2vs0mg"},{"bike_id":"8c67d340-801d-46e5-b910-2f8aff3ff078","system_id":"levelo_inurba_marseille","lat":43.33339,"lon":5.37054,"is_reserved":false,"is_disabled":false,"rental_uris":{"android":"levelo://app?vid=8c67d340-801d-46e5-b910-2f8aff3ff078","ios":"levelo://app?vid=8c67d340-801d-46e5-b910-2f8aff3ff078"},"vehicle_type_id":"4","last_reported":1730563809,"current_range_meters":9600,"station_id":"","pricing_plan_id":"cebpf4jnsgd1na2vs0mg"},{"bike_id":"481ceb50-3bb5-46d3-937f-6af1106fbe35","system_id":"levelo_inurba_marseille","lat":43.24654,"lon":5.3817,"is_reserved":false,"is_disabled":false,"rental_uris":{"android":"levelo://app?vid=481ceb50-3bb5-46d3-937f-6af1106fbe35","ios":"levelo://app?vid=481ceb50-3bb5-46d3-937f-6af1106fbe35"},"vehicle_type_id":"4","last_reported":1730563809,"current_range_meters":39200,"station_id":"ce4bhih2rcd13ifvqfr0","pricing_plan_id":"cebpf4jnsgd1na2vs0mg"},{"bike_id":"f85928c8-f3a4-436b-8105-8c0fc19b51a1","system_id":"levelo_inurba_marseille","lat":43.29516,"lon":5.39037,"is_reserved":false,"is_disabled":false,"rental_uris":{"android":"levelo://app?vid=f85928c8-f3a4-436b-8105-8c0fc19b51a1","ios":"levelo://app?vid=f85928c8-f3a4-436b-8105-8c0fc19b51a1"},"vehicle_type_id":"4","last_reported":1730563809,"current_range_meters":30400,"station_id":"ce4bh3p2rcd13ifvqdp0","pricing_plan_id":"cebpf4jnsgd1na2vs0mg"},{"bike_id":"7df9f53c-ca16-4a0d-9cc9-05142c775e9d","system_id":"levelo_inurba_marseille","lat":43.24805,"lon":5.37462,"is_reserved":false,"is_disabled":false,"rental_uris":{"android":"levelo://app?vid=7df9f53c-ca16-4a0d-9cc9-05142c775e9d","ios":"levelo://app?vid=7df9f53c-ca16-4a0d-9cc9-05142c775e9d"},"vehicle_type_id":"4","last_reported":1730563809,"current_range_meters":38000,"station_id":"ce4bhgh2rcd13ifvqfb0","pricing_plan_id":"cebpf4jnsgd1na2vs0mg"},{"bike_id":"e4ea768f-c877-4e21-89bd-a5c946605e3b","system_id":"levelo_inurba_marseille","lat":43.23188,"lon":5.35567,"is_reserved":false,"is_disabled":false,"rental_uris":{"android":"levelo://app?vid=e4ea768f-c877-4e21-89bd-a5c946605e3b","ios":"levelo://app?vid=e4ea768f-c877-4e21-89bd-a5c946605e3b"},"vehicle_type_id":"4","last_reported":1730563809,"current_range_meters":16000,"station_id":"ce4bhu92rcd13ifvqi70","pricing_plan_id":"cebpf4jnsgd1na2vs0mg"},{"bike_id":"19e6008c-0743-45ac-b4bf-fc683ef0e14c","system_id":"levelo_inurba_marseille","lat":43.25719,"lon":5.41112,"is_reserved":false,"is_disabled":false,"rental_uris":{"android":"levelo://app?vid=19e6008c-0743-45ac-b4bf-fc683ef0e14c","ios":"levelo://app?vid=19e6008c-0743-45ac-b4bf-fc683ef0e14c"},"vehicle_type_id":"4","last_reported":1730563809,"current_range_meters":25200,"station_id":"ce4bhkp2rcd13ifvqgd0","pricing_plan_id":"cebpf4jnsgd1na2vs0mg"},{"bike_id":"26574e1c-e666-4101-80c7-05eddc55232c","system_id":"levelo_inurba_marseille","lat":43.24804,"lon":5.37461,"is_reserved":false,"is_disabled":false,"rental_uris":{"android":"levelo://app?vid=26574e1c-e666-4101-80c7-05eddc55232c","ios":"levelo://app?vid=26574e1c-e666-4101-80c7-05eddc55232c"},"vehicle_type_id":"4","last_reported":1730563809,"current_range_meters":38800,"station_id":"ce4bhgh2rcd13ifvqfb0","pricing_plan_id":"cebpf4jnsgd1na2vs0mg"},{"bike_id":"fcd5bacc-5fc4-4b6f-b936-1741a14f4564","system_id":"levelo_inurba_marseille","lat":43.26209,"lon":5.37445,"is_reserved":false,"is_disabled":false,"rental_uris":{"android":"levelo://app?vid=fcd5bacc-5fc4-4b6f-b936-1741a14f4564","ios":"levelo://app?vid=fcd5bacc-5fc4-4b6f-b936-1741a14f4564"},"vehicle_type_id":"4","last_reported":1730563809,"current_range_meters":4400,"station_id":"ce4bhgp2rcd13ifvqfc0","pricing_plan_id":"cebpf4jnsgd1na2vs0mg"},{"bike_id":"21f804ec-7262-4648-902d-48002e1d06b9","system_id":"levelo_inurba_marseille","lat":43.29195,"lon":5.39319,"is_reserved":false,"is_disabled":false,"rental_uris":{"android":"levelo://app?vid=21f804ec-7262-4648-902d-48002e1d06b9","ios":"levelo://app?vid=21f804ec-7262-4648-902d-48002e1d06b9"},"vehicle_type_id":"4","last_reported":1730563809,"current_range_meters":21600,"station_id":"ce4bh192rcd13ifvqdd0","pricing_plan_id":"cebpf4jnsgd1na2vs0mg"},{"bike_id":"7a277e44-a280-4380-b5df-7b2b55f3ebee","system_id":"levelo_inurba_marseille","lat":43.23055,"lon":5.35494,"is_reserved":false,"is_disabled":false,"rental_uris":{"android":"levelo://app?vid=7a277e44-a280-4380-b5df-7b2b55f3ebee","ios":"levelo://app?vid=7a277e44-a280-4380-b5df-7b2b55f3ebee"},"vehicle_type_id":"4","last_reported":1730563809,"current_range_meters":12800,"station_id":"cpo3342slgdg3j2ifvpg","pricing_plan_id":"cebpf4jnsgd1na2vs0mg"},{"bike_id":"7efb9cd7-f03e-4c1d-b63f-e87ffe819639","system_id":"levelo_inurba_marseille","lat":43.22933,"lon":5.35374,"is_reserved":false,"is_disabled":false,"rental_uris":{"android":"levelo://app?vid=7efb9cd7-f03e-4c1d-b63f-e87ffe819639","ios":"levelo://app?vid=7efb9cd7-f03e-4c1d-b63f-e87ffe819639"},"vehicle_type_id":"4","last_reported":1730563809,"current_range_meters":25600,"station_id":"cpo3532slgdg3j2ikp40","pricing_plan_id":"cebpf4jnsgd1na2vs0mg"},{"bike_id":"5f532a33-e892-41f5-af29-d34cf1acf28c","system_id":"levelo_inurba_marseille","lat":43.26949,"lon":5.38635,"is_reserved":false,"is_disabled":false,"rental_uris":{"android":"levelo://app?vid=5f532a33-e892-41f5-af29-d34cf1acf28c","ios":"levelo://app?vid=5f532a33-e892-41f5-af29-d34cf1acf28c"},"vehicle_type_id":"4","last_reported":1730563809,"current_range_meters":30000,"station_id":"ce4bhg12rcd13ifvqf80","pricing_plan_id":"cebpf4jnsgd1na2vs0mg"},{"bike_id":"64583204-9bc3-4b69-b0de-6cfd6e5fd459","system_id":"levelo_inurba_marseille","lat":43.27369,"lon":5.36267,"is_reserved":false,"is_disabled":false,"rental_uris":{"android":"levelo://app?vid=64583204-9bc3-4b69-b0de-6cfd6e5fd459","ios":"levelo://app?vid=64583204-9bc3-4b69-b0de-6cfd6e5fd459"},"vehicle_type_id":"4","last_reported":1730563809,"current_range_meters":29600,"station_id":"ce4bhbh2rcd13ifvqeo0","pricing_plan_id":"cebpf4jnsgd1na2vs0mg"},{"bike_id":"77355e31-bb28-4c0a-af87-2edcbc699171","system_id":"levelo_inurba_marseille","lat":43.28844,"lon":5.35852,"is_reserved":false,"is_disabled":false,"rental_uris":{"android":"levelo://app?vid=77355e31-bb28-4c0a-af87-2edcbc699171","ios":"levelo://app?vid=77355e31-bb28-4c0a-af87-2edcbc699171"},"vehicle_type_id":"4","last_reported":1730563809,"current_range_meters":14800,"station_id":"ce4bhb12rcd13ifvqem0","pricing_plan_id":"cebpf4jnsgd1na2vs0mg"},{"bike_id":"a319becd-84f6-4fa3-8f37-f8af98cfe3d9","system_id":"levelo_inurba_marseille","lat":43.27372,"lon":5.36272,"is_reserved":false,"is_disabled":false,"rental_uris":{"android":"levelo://app?vid=a319becd-84f6-4fa3-8f37-f8af98cfe3d9","ios":"levelo://app?vid=a319becd-84f6-4fa3-8f37-f8af98cfe3d9"},"vehicle_type_id":"4","last_reported":1730563809,"current_range_meters":33200,"station_id":"ce4bhbh2rcd13ifvqeo0","pricing_plan_id":"cebpf4jnsgd1na2vs0mg"},{"bike_id":"5e658862-f025-4948-ad81-ab765993bce0","system_id":"levelo_inurba_marseille","lat":43.27374,"lon":5.36251,"is_reserved":false,"is_disabled":false,"rental_uris":{"android":"levelo://app?vid=5e658862-f025-4948-ad81-ab765993bce0","ios":"levelo://app?vid=5e658862-f025-4948-ad81-ab765993bce0"},"vehicle_type_id":"4","last_reported":1730563809,"current_range_meters":30000,"station_id":"ce4bhbh2rcd13ifvqeo0","pricing_plan_id":"cebpf4jnsgd1na2vs0mg"},{"bike_id":"70b0cfe0-5ebd-452c-a7e3-6af013d3e8b7","system_id":"levelo_inurba_marseille","lat":43.26938,"lon":5.40251,"is_reserved":false,"is_disabled":false,"rental_uris":{"android":"levelo://app?vid=70b0cfe0-5ebd-452c-a7e3-6af013d3e8b7","ios":"levelo://app?vid=70b0cfe0-5ebd-452c-a7e3-6af013d3e8b7"},"vehicle_type_id":"4","last_reported":1730563809,"current_range_meters":36000,"station_id":"cjm6bp8fraef2m0cb0m0","pricing_plan_id":"cebpf4jnsgd1na2vs0mg"},{"bike_id":"7179f527-f413-4585-bcad-ad30a5f3d753","system_id":"levelo_inurba_marseille","lat":43.32655,"lon":5.40996,"is_reserved":false,"is_disabled":false,"rental_uris":{"android":"levelo://app?vid=7179f527-f413-4585-bcad-ad30a5f3d753","ios":"levelo://app?vid=7179f527-f413-4585-bcad-ad30a5f3d753"},"vehicle_type_id":"4","last_reported":1730563809,"current_range_meters":6400,"station_id":"ce4bhpp2rcd13ifvqhgg","pricing_plan_id":"cebpf4jnsgd1na2vs0mg"},{"bike_id":"7dfac259-0d7a-4851-8dc1-10e4ad4823d3","system_id":"levelo_inurba_marseille","lat":43.29582,"lon":5.36773,"is_reserved":false,"is_disabled":false,"rental_uris":{"android":"levelo://app?vid=7dfac259-0d7a-4851-8dc1-10e4ad4823d3","ios":"levelo://app?vid=7dfac259-0d7a-4851-8dc1-10e4ad4823d3"},"vehicle_type_id":"4","last_reported":1730563809,"current_range_meters":9200,"station_id":"ce4bgph2rcd13ifvqc2g","pricing_plan_id":"cebpf4jnsgd1na2vs0mg"},{"bike_id":"27fa8bc9-2c85-4a58-8444-d006798259a2","system_id":"levelo_inurba_marseille","lat":43.2737,"lon":5.36259,"is_reserved":false,"is_disabled":false,"rental_uris":{"android":"levelo://app?vid=27fa8bc9-2c85-4a58-8444-d006798259a2","ios":"levelo://app?vid=27fa8bc9-2c85-4a58-8444-d006798259a2"},"vehicle_type_id":"4","last_reported":1730563809,"current_range_meters":38800,"station_id":"ce4bhbh2rcd13ifvqeo0","pricing_plan_id":"cebpf4jnsgd1na2vs0mg"},{"bike_id":"c6a506cc-9d5e-4198-863f-40ac076a2f0a","system_id":"levelo_inurba_marseille","lat":43.31988,"lon":5.38172,"is_reserved":false,"is_disabled":false,"rental_uris":{"android":"levelo://app?vid=c6a506cc-9d5e-4198-863f-40ac076a2f0a","ios":"levelo://app?vid=c6a506cc-9d5e-4198-863f-40ac076a2f0a"},"vehicle_type_id":"4","last_reported":1730563809,"current_range_meters":16800,"station_id":"ce4bhr12rcd13ifvqhpg","pricing_plan_id":"cebpf4jnsgd1na2vs0mg"},{"bike_id":"b94d5264-8fac-44ed-97c9-f3be1eae32bf","system_id":"levelo_inurba_marseille","lat":43.301377,"lon":5.374216,"is_reserved":false,"is_disabled":false,"rental_uris":{"android":"levelo://app?vid=b94d5264-8fac-44ed-97c9-f3be1eae32bf","ios":"levelo://app?vid=b94d5264-8fac-44ed-97c9-f3be1eae32bf"},"vehicle_type_id":"4","last_reported":1730563809,"current_range_meters":2800,"station_id":"ce4bgs92rcd13ifvqcc0","pricing_plan_id":"cebpf4jnsgd1na2vs0mg"},{"bike_id":"f10b0136-e7a6-4dd6-8717-0a367bfbb2d9","system_id":"levelo_inurba_marseille","lat":43.297499,"lon":5.385374,"is_reserved":false,"is_disabled":false,"rental_uris":{"android":"levelo://app?vid=f10b0136-e7a6-4dd6-8717-0a367bfbb2d9","ios":"levelo://app?vid=f10b0136-e7a6-4dd6-8717-0a367bfbb2d9"},"vehicle_type_id":"4","last_reported":1730563809,"current_range_meters":33600,"station_id":"ce4bh2h2rcd13ifvqdh0","pricing_plan_id":"cebpf4jnsgd1na2vs0mg"},{"bike_id":"81c980f2-7828-4083-9785-7b542fefd5c1","system_id":"levelo_inurba_marseille","lat":43.246517,"lon":5.38893,"is_reserved":false,"is_disabled":false,"rental_uris":{"android":"levelo://app?vid=81c980f2-7828-4083-9785-7b542fefd5c1","ios":"levelo://app?vid=81c980f2-7828-4083-9785-7b542fefd5c1"},"vehicle_type_id":"4","last_reported":1730563809,"current_range_meters":38800,"station_id":"ce4bhg12rcd13ifvqf60","pricing_plan_id":"cebpf4jnsgd1na2vs0mg"},{"bike_id":"f2aa0281-4fc6-482e-a195-9d9909ffb668","system_id":"levelo_inurba_marseille","lat":43.2841,"lon":5.34994,"is_reserved":false,"is_disabled":false,"rental_uris":{"android":"levelo://app?vid=f2aa0281-4fc6-482e-a195-9d9909ffb668","ios":"levelo://app?vid=f2aa0281-4fc6-482e-a195-9d9909ffb668"},"vehicle_type_id":"4","last_reported":1730563809,"current_range_meters":2000,"station_id":"ce4bhbh2rcd13ifvqepg","pricing_plan_id":"cebpf4jnsgd1na2vs0mg"},{"bike_id":"ace6ce99-29be-40d4-9b62-ff3331bf021c","system_id":"levelo_inurba_marseille","lat":43.22923,"lon":5.3538,"is_reserved":false,"is_disabled":false,"rental_uris":{"android":"levelo://app?vid=ace6ce99-29be-40d4-9b62-ff3331bf021c","ios":"levelo://app?vid=ace6ce99-29be-40d4-9b62-ff3331bf021c"},"vehicle_type_id":"4","last_reported":1730563809,"current_range_meters":33200,"station_id":"cpo3532slgdg3j2ikp40","pricing_plan_id":"cebpf4jnsgd1na2vs0mg"},{"bike_id":"715ca43e-0ff6-4674-a6a9-97920232d968","system_id":"levelo_inurba_marseille","lat":43.2799,"lon":5.41663,"is_reserved":false,"is_disabled":false,"rental_uris":{"android":"levelo://app?vid=715ca43e-0ff6-4674-a6a9-97920232d968","ios":"levelo://app?vid=715ca43e-0ff6-4674-a6a9-97920232d968"},"vehicle_type_id":"4","last_reported":1730563809,"current_range_meters":37600,"station_id":"ce4bho12rcd13ifvqh1g","pricing_plan_id":"cebpf4jnsgd1na2vs0mg"},{"bike_id":"b27b6b18-d801-4b0b-a4e3-bc55bc4a9aed","system_id":"levelo_inurba_marseille","lat":43.25721,"lon":5.41115,"is_reserved":false,"is_disabled":false,"rental_uris":{"android":"levelo://app?vid=b27b6b18-d801-4b0b-a4e3-bc55bc4a9aed","ios":"levelo://app?vid=b27b6b18-d801-4b0b-a4e3-bc55bc4a9aed"},"vehicle_type_id":"4","last_reported":1730563809,"current_range_meters":37600,"station_id":"ce4bhkp2rcd13ifvqgd0","pricing_plan_id":"cebpf4jnsgd1na2vs0mg"},{"bike_id":"4beb095e-74e3-4968-ae76-be0e9889f61e","system_id":"levelo_inurba_marseille","lat":43.30537,"lon":5.36568,"is_reserved":false,"is_disabled":false,"rental_uris":{"android":"levelo://app?vid=4beb095e-74e3-4968-ae76-be0e9889f61e","ios":"levelo://app?vid=4beb095e-74e3-4968-ae76-be0e9889f61e"},"vehicle_type_id":"4","last_reported":1730563809,"current_range_meters":30000,"station_id":"ce4bh092rcd13ifvqd20","pricing_plan_id":"cebpf4jnsgd1na2vs0mg"},{"bike_id":"a2ae5f19-2d53-48c7-a388-c9ab0e9aa17a","system_id":"levelo_inurba_marseille","lat":43.23955,"lon":5.36643,"is_reserved":false,"is_disabled":false,"rental_uris":{"android":"levelo://app?vid=a2ae5f19-2d53-48c7-a388-c9ab0e9aa17a","ios":"levelo://app?vid=a2ae5f19-2d53-48c7-a388-c9ab0e9aa17a"},"vehicle_type_id":"4","last_reported":1730563809,"current_range_meters":26800,"station_id":"ce4bhi12rcd13ifvqfp0","pricing_plan_id":"cebpf4jnsgd1na2vs0mg"},{"bike_id":"68fa4e8c-6fe0-4e88-b416-7b3a80f01efc","system_id":"levelo_inurba_marseille","lat":43.29531,"lon":5.37504,"is_reserved":false,"is_disabled":false,"rental_uris":{"android":"levelo://app?vid=68fa4e8c-6fe0-4e88-b416-7b3a80f01efc","ios":"levelo://app?vid=68fa4e8c-6fe0-4e88-b416-7b3a80f01efc"},"vehicle_type_id":"4","last_reported":1730563809,"current_range_meters":3600,"station_id":"ce4bgkp2rcd13ifvqbmg","pricing_plan_id":"cebpf4jnsgd1na2vs0mg"},{"bike_id":"98d15394-1c06-457d-a206-a4baf4c249ef","system_id":"levelo_inurba_marseille","lat":43.295685,"lon":5.375259,"is_reserved":false,"is_disabled":false,"rental_uris":{"android":"levelo://app?vid=98d15394-1c06-457d-a206-a4baf4c249ef","ios":"levelo://app?vid=98d15394-1c06-457d-a206-a4baf4c249ef"},"vehicle_type_id":"4","last_reported":1730563809,"current_range_meters":12000,"station_id":"ce4bgh92rcd13ifvqb50","pricing_plan_id":"cebpf4jnsgd1na2vs0mg"},{"bike_id":"94279a57-03c0-47b7-abe3-7226e86fd3b0","system_id":"levelo_inurba_marseille","lat":43.27605,"lon":5.3612,"is_reserved":false,"is_disabled":false,"rental_uris":{"android":"levelo://app?vid=94279a57-03c0-47b7-abe3-7226e86fd3b0","ios":"levelo://app?vid=94279a57-03c0-47b7-abe3-7226e86fd3b0"},"vehicle_type_id":"4","last_reported":1730563809,"current_range_meters":19200,"station_id":"ce4bgj92rcd13ifvqbe0","pricing_plan_id":"cebpf4jnsgd1na2vs0mg"},{"bike_id":"5ba8e5a8-09bf-412b-b182-000192a6d1f7","system_id":"levelo_inurba_marseille","lat":43.33016,"lon":5.39051,"is_reserved":false,"is_disabled":false,"rental_uris":{"android":"levelo://app?vid=5ba8e5a8-09bf-412b-b182-000192a6d1f7","ios":"levelo://app?vid=5ba8e5a8-09bf-412b-b182-000192a6d1f7"},"vehicle_type_id":"4","last_reported":1730563809,"current_range_meters":20800,"station_id":"ce4bhr92rcd13ifvqhrg","pricing_plan_id":"cebpf4jnsgd1na2vs0mg"},{"bike_id":"56e38add-0f78-4341-b643-7b0849d3280d","system_id":"levelo_inurba_marseille","lat":43.22931,"lon":5.35382,"is_reserved":false,"is_disabled":false,"rental_uris":{"android":"levelo://app?vid=56e38add-0f78-4341-b643-7b0849d3280d","ios":"levelo://app?vid=56e38add-0f78-4341-b643-7b0849d3280d"},"vehicle_type_id":"4","last_reported":1730563809,"current_range_meters":39200,"station_id":"cpo3532slgdg3j2ikp40","pricing_plan_id":"cebpf4jnsgd1na2vs0mg"},{"bike_id":"b7e5fcd4-fccc-4a36-ac73-b4f28d59aa73","system_id":"levelo_inurba_marseille","lat":43.28412,"lon":5.34992,"is_reserved":false,"is_disabled":false,"rental_uris":{"android":"levelo://app?vid=b7e5fcd4-fccc-4a36-ac73-b4f28d59aa73","ios":"levelo://app?vid=b7e5fcd4-fccc-4a36-ac73-b4f28d59aa73"},"vehicle_type_id":"4","last_reported":1730563809,"current_range_meters":28400,"station_id":"ce4bhbh2rcd13ifvqepg","pricing_plan_id":"cebpf4jnsgd1na2vs0mg"},{"bike_id":"36dab996-3060-4b83-b9a3-1ad42438d681","system_id":"levelo_inurba_marseille","lat":43.3041,"lon":5.41294,"is_reserved":false,"is_disabled":false,"rental_uris":{"android":"levelo://app?vid=36dab996-3060-4b83-b9a3-1ad42438d681","ios":"levelo://app?vid=36dab996-3060-4b83-b9a3-1ad42438d681"},"vehicle_type_id":"4","last_reported":1730563809,"current_range_meters":36800,"station_id":"ce4bhop2rcd13ifvqh8g","pricing_plan_id":"cebpf4jnsgd1na2vs0mg"},{"bike_id":"edca4c81-7f4d-4bbe-9bd2-5ce4df69403f","system_id":"levelo_inurba_marseille","lat":43.23192,"lon":5.3556,"is_reserved":false,"is_disabled":false,"rental_uris":{"android":"levelo://app?vid=edca4c81-7f4d-4bbe-9bd2-5ce4df69403f","ios":"levelo://app?vid=edca4c81-7f4d-4bbe-9bd2-5ce4df69403f"},"vehicle_type_id":"4","last_reported":1730563809,"current_range_meters":17600,"station_id":"ce4bhu92rcd13ifvqi70","pricing_plan_id":"cebpf4jnsgd1na2vs0mg"},{"bike_id":"d1e3ff1e-5d04-4cda-97a1-b04617ec710f","system_id":"levelo_inurba_marseille","lat":43.25494,"lon":5.37651,"is_reserved":false,"is_disabled":false,"rental_uris":{"android":"levelo://app?vid=d1e3ff1e-5d04-4cda-97a1-b04617ec710f","ios":"levelo://app?vid=d1e3ff1e-5d04-4cda-97a1-b04617ec710f"},"vehicle_type_id":"4","last_reported":1730563809,"current_range_meters":15200,"station_id":"ce4bhh12rcd13ifvqff0","pricing_plan_id":"cebpf4jnsgd1na2vs0mg"},{"bike_id":"ba652f20-335e-499c-9c5f-09c9b18a178e","system_id":"levelo_inurba_marseille","lat":43.27069,"lon":5.42281,"is_reserved":false,"is_disabled":false,"rental_uris":{"android":"levelo://app?vid=ba652f20-335e-499c-9c5f-09c9b18a178e","ios":"levelo://app?vid=ba652f20-335e-499c-9c5f-09c9b18a178e"},"vehicle_type_id":"4","last_reported":1730563809,"current_range_meters":26000,"station_id":"ce4bhk92rcd13ifvqgb0","pricing_plan_id":"cebpf4jnsgd1na2vs0mg"},{"bike_id":"c787eb2b-c721-4758-8b6e-b459402d23b7","system_id":"levelo_inurba_marseille","lat":43.29875,"lon":5.39733,"is_reserved":false,"is_disabled":false,"rental_uris":{"android":"levelo://app?vid=c787eb2b-c721-4758-8b6e-b459402d23b7","ios":"levelo://app?vid=c787eb2b-c721-4758-8b6e-b459402d23b7"},"vehicle_type_id":"4","last_reported":1730563809,"current_range_meters":29600,"station_id":"ce4bh0h2rcd13ifvqd50","pricing_plan_id":"cebpf4jnsgd1na2vs0mg"},{"bike_id":"0ce8b26c-040c-4f3f-9f59-24e87ebbe90e","system_id":"levelo_inurba_marseille","lat":43.296234,"lon":5.37711,"is_reserved":false,"is_disabled":false,"rental_uris":{"android":"levelo://app?vid=0ce8b26c-040c-4f3f-9f59-24e87ebbe90e","ios":"levelo://app?vid=0ce8b26c-040c-4f3f-9f59-24e87ebbe90e"},"vehicle_type_id":"4","last_reported":1730563809,"current_range_meters":28800,"station_id":"ce4bgi92rcd13ifvqb90","pricing_plan_id":"cebpf4jnsgd1na2vs0mg"},{"bike_id":"5ca2ad48-dd74-40a0-b17c-745245a8f5d6","system_id":"levelo_inurba_marseille","lat":43.27807,"lon":5.40724,"is_reserved":false,"is_disabled":false,"rental_uris":{"android":"levelo://app?vid=5ca2ad48-dd74-40a0-b17c-745245a8f5d6","ios":"levelo://app?vid=5ca2ad48-dd74-40a0-b17c-745245a8f5d6"},"vehicle_type_id":"4","last_reported":1730563809,"current_range_meters":35600,"station_id":"ce4bhnh2rcd13ifvqgtg","pricing_plan_id":"cebpf4jnsgd1na2vs0mg"},{"bike_id":"9b1557a2-073c-44a3-be42-0ae74be18cec","system_id":"levelo_inurba_marseille","lat":43.32534,"lon":5.41433,"is_reserved":false,"is_disabled":false,"rental_uris":{"android":"levelo://app?vid=9b1557a2-073c-44a3-be42-0ae74be18cec","ios":"levelo://app?vid=9b1557a2-073c-44a3-be42-0ae74be18cec"},"vehicle_type_id":"4","last_reported":1730563809,"current_range_meters":8400,"station_id":"ce4bhq12rcd13ifvqhhg","pricing_plan_id":"cebpf4jnsgd1na2vs0mg"},{"bike_id":"b66ece50-bc4f-4a5d-b2a3-ef5f9aba4661","system_id":"levelo_inurba_marseille","lat":43.29264,"lon":5.36849,"is_reserved":false,"is_disabled":false,"rental_uris":{"android":"levelo://app?vid=b66ece50-bc4f-4a5d-b2a3-ef5f9aba4661","ios":"levelo://app?vid=b66ece50-bc4f-4a5d-b2a3-ef5f9aba4661"},"vehicle_type_id":"4","last_reported":1730563809,"current_range_meters":38800,"station_id":"ce4bhbp2rcd13ifvqesg","pricing_plan_id":"cebpf4jnsgd1na2vs0mg"},{"bike_id":"be3e39dd-ba2b-4ec9-87c0-24eda0d85e9d","system_id":"levelo_inurba_marseille","lat":43.27369,"lon":5.36277,"is_reserved":false,"is_disabled":false,"rental_uris":{"android":"levelo://app?vid=be3e39dd-ba2b-4ec9-87c0-24eda0d85e9d","ios":"levelo://app?vid=be3e39dd-ba2b-4ec9-87c0-24eda0d85e9d"},"vehicle_type_id":"4","last_reported":1730563809,"current_range_meters":22000,"station_id":"ce4bhbh2rcd13ifvqeo0","pricing_plan_id":"cebpf4jnsgd1na2vs0mg"},{"bike_id":"75c4ea2d-7f0a-470d-b5e0-ffece40d0797","system_id":"levelo_inurba_marseille","lat":43.23962,"lon":5.36642,"is_reserved":false,"is_disabled":false,"rental_uris":{"android":"levelo://app?vid=75c4ea2d-7f0a-470d-b5e0-ffece40d0797","ios":"levelo://app?vid=75c4ea2d-7f0a-470d-b5e0-ffece40d0797"},"vehicle_type_id":"4","last_reported":1730563809,"current_range_meters":20800,"station_id":"ce4bhi12rcd13ifvqfp0","pricing_plan_id":"cebpf4jnsgd1na2vs0mg"},{"bike_id":"dd85fdee-7b4e-41ea-9ba5-3da808cd5ca6","system_id":"levelo_inurba_marseille","lat":43.22924,"lon":5.35381,"is_reserved":false,"is_disabled":false,"rental_uris":{"android":"levelo://app?vid=dd85fdee-7b4e-41ea-9ba5-3da808cd5ca6","ios":"levelo://app?vid=dd85fdee-7b4e-41ea-9ba5-3da808cd5ca6"},"vehicle_type_id":"4","last_reported":1730563809,"current_range_meters":38800,"station_id":"cpo3532slgdg3j2ikp40","pricing_plan_id":"cebpf4jnsgd1na2vs0mg"},{"bike_id":"40462ef9-65e0-41a5-ba0c-d88a51e027ea","system_id":"levelo_inurba_marseille","lat":43.250058,"lon":5.389137,"is_reserved":false,"is_disabled":false,"rental_uris":{"android":"levelo://app?vid=40462ef9-65e0-41a5-ba0c-d88a51e027ea","ios":"levelo://app?vid=40462ef9-65e0-41a5-ba0c-d88a51e027ea"},"vehicle_type_id":"4","last_reported":1730563809,"current_range_meters":38800,"station_id":"ce4bhgp2rcd13ifvqfd0","pricing_plan_id":"cebpf4jnsgd1na2vs0mg"},{"bike_id":"fa0d0175-496c-492e-bcfc-001ea3bdf18e","system_id":"levelo_inurba_marseille","lat":43.29511,"lon":5.37515,"is_reserved":false,"is_disabled":false,"rental_uris":{"android":"levelo://app?vid=fa0d0175-496c-492e-bcfc-001ea3bdf18e","ios":"levelo://app?vid=fa0d0175-496c-492e-bcfc-001ea3bdf18e"},"vehicle_type_id":"4","last_reported":1730563809,"current_range_meters":38400,"station_id":"ce4bgkp2rcd13ifvqbmg","pricing_plan_id":"cebpf4jnsgd1na2vs0mg"},{"bike_id":"b7a02c22-0efd-4f11-b536-57b9e585795b","system_id":"levelo_inurba_marseille","lat":43.26204,"lon":5.37932,"is_reserved":false,"is_disabled":false,"rental_uris":{"android":"levelo://app?vid=b7a02c22-0efd-4f11-b536-57b9e585795b","ios":"levelo://app?vid=b7a02c22-0efd-4f11-b536-57b9e585795b"},"vehicle_type_id":"4","last_reported":1730563809,"current_range_meters":14800,"station_id":"ce4bhjp2rcd13ifvqg90","pricing_plan_id":"cebpf4jnsgd1na2vs0mg"},{"bike_id":"f4af9b65-ead8-42b6-9aff-96dcb65810b8","system_id":"levelo_inurba_marseille","lat":43.26933,"lon":5.4026,"is_reserved":false,"is_disabled":false,"rental_uris":{"android":"levelo://app?vid=f4af9b65-ead8-42b6-9aff-96dcb65810b8","ios":"levelo://app?vid=f4af9b65-ead8-42b6-9aff-96dcb65810b8"},"vehicle_type_id":"4","last_reported":1730563809,"current_range_meters":30000,"station_id":"cjm6bp8fraef2m0cb0m0","pricing_plan_id":"cebpf4jnsgd1na2vs0mg"},{"bike_id":"6706896d-31af-497d-8841-67c1bffddbca","system_id":"levelo_inurba_marseille","lat":43.27944,"lon":5.41057,"is_reserved":false,"is_disabled":false,"rental_uris":{"android":"levelo://app?vid=6706896d-31af-497d-8841-67c1bffddbca","ios":"levelo://app?vid=6706896d-31af-497d-8841-67c1bffddbca"},"vehicle_type_id":"4","last_reported":1730563809,"current_range_meters":36800,"station_id":"ce4bhnp2rcd13ifvqh0g","pricing_plan_id":"cebpf4jnsgd1na2vs0mg"},{"bike_id":"039cd3f1-17df-4922-8096-97aa5ed28c74","system_id":"levelo_inurba_marseille","lat":43.28921,"lon":5.364,"is_reserved":false,"is_disabled":false,"rental_uris":{"android":"levelo://app?vid=039cd3f1-17df-4922-8096-97aa5ed28c74","ios":"levelo://app?vid=039cd3f1-17df-4922-8096-97aa5ed28c74"},"vehicle_type_id":"4","last_reported":1730563809,"current_range_meters":24400,"station_id":"ce4bhc92rcd13ifvqetg","pricing_plan_id":"cebpf4jnsgd1na2vs0mg"},{"bike_id":"6afc0f0f-5b37-4e56-89f2-5e7317e689a3","system_id":"levelo_inurba_marseille","lat":43.24806,"lon":5.37466,"is_reserved":false,"is_disabled":false,"rental_uris":{"android":"levelo://app?vid=6afc0f0f-5b37-4e56-89f2-5e7317e689a3","ios":"levelo://app?vid=6afc0f0f-5b37-4e56-89f2-5e7317e689a3"},"vehicle_type_id":"4","last_reported":1730563809,"current_range_meters":32000,"station_id":"ce4bhgh2rcd13ifvqfb0","pricing_plan_id":"cebpf4jnsgd1na2vs0mg"},{"bike_id":"5dc121db-4f9a-4785-9ce1-b973321b8f58","system_id":"levelo_inurba_marseille","lat":43.25573,"lon":5.3824,"is_reserved":false,"is_disabled":false,"rental_uris":{"android":"levelo://app?vid=5dc121db-4f9a-4785-9ce1-b973321b8f58","ios":"levelo://app?vid=5dc121db-4f9a-4785-9ce1-b973321b8f58"},"vehicle_type_id":"4","last_reported":1730563809,"current_range_meters":6800,"station_id":"ce4bhih2rcd13ifvqfs0","pricing_plan_id":"cebpf4jnsgd1na2vs0mg"},{"bike_id":"b8c4b104-f130-4889-80a7-2d5b5f02035d","system_id":"levelo_inurba_marseille","lat":43.28413,"lon":5.34987,"is_reserved":false,"is_disabled":false,"rental_uris":{"android":"levelo://app?vid=b8c4b104-f130-4889-80a7-2d5b5f02035d","ios":"levelo://app?vid=b8c4b104-f130-4889-80a7-2d5b5f02035d"},"vehicle_type_id":"4","last_reported":1730563809,"current_range_meters":38400,"station_id":"ce4bhbh2rcd13ifvqepg","pricing_plan_id":"cebpf4jnsgd1na2vs0mg"},{"bike_id":"2c3afde1-03b2-48e0-8862-f1a23b8117a9","system_id":"levelo_inurba_marseille","lat":43.28529,"lon":5.37783,"is_reserved":false,"is_disabled":false,"rental_uris":{"android":"levelo://app?vid=2c3afde1-03b2-48e0-8862-f1a23b8117a9","ios":"levelo://app?vid=2c3afde1-03b2-48e0-8862-f1a23b8117a9"},"vehicle_type_id":"4","last_reported":1730563809,"current_range_meters":24800,"station_id":"","pricing_plan_id":"cebpf4jnsgd1na2vs0mg"},{"bike_id":"e0cdfd14-3342-4c3e-8a19-1ca9ae55edc9","system_id":"levelo_inurba_marseille","lat":43.29033,"lon":5.38642,"is_reserved":false,"is_disabled":false,"rental_uris":{"android":"levelo://app?vid=e0cdfd14-3342-4c3e-8a19-1ca9ae55edc9","ios":"levelo://app?vid=e0cdfd14-3342-4c3e-8a19-1ca9ae55edc9"},"vehicle_type_id":"4","last_reported":1730563809,"current_range_meters":33200,"station_id":"ce4bh4p2rcd13ifvqe0g","pricing_plan_id":"cebpf4jnsgd1na2vs0mg"},{"bike_id":"c085e585-3807-4067-8841-1a78494ee531","system_id":"levelo_inurba_marseille","lat":43.25489,"lon":5.37655,"is_reserved":false,"is_disabled":false,"rental_uris":{"android":"levelo://app?vid=c085e585-3807-4067-8841-1a78494ee531","ios":"levelo://app?vid=c085e585-3807-4067-8841-1a78494ee531"},"vehicle_type_id":"4","last_reported":1730563809,"current_range_meters":14800,"station_id":"ce4bhh12rcd13ifvqff0","pricing_plan_id":"cebpf4jnsgd1na2vs0mg"},{"bike_id":"cff6a09b-5f65-48b9-97c4-08912fc21c41","system_id":"levelo_inurba_marseille","lat":43.30142,"lon":5.38092,"is_reserved":false,"is_disabled":false,"rental_uris":{"android":"levelo://app?vid=cff6a09b-5f65-48b9-97c4-08912fc21c41","ios":"levelo://app?vid=cff6a09b-5f65-48b9-97c4-08912fc21c41"},"vehicle_type_id":"4","last_reported":1730563809,"current_range_meters":24000,"station_id":"ce4bgjp2rcd13ifvqbh0","pricing_plan_id":"cebpf4jnsgd1na2vs0mg"},{"bike_id":"9deaab64-1edc-489c-9445-a7bbb456b236","system_id":"levelo_inurba_marseille","lat":43.28992,"lon":5.35618,"is_reserved":false,"is_disabled":false,"rental_uris":{"android":"levelo://app?vid=9deaab64-1edc-489c-9445-a7bbb456b236","ios":"levelo://app?vid=9deaab64-1edc-489c-9445-a7bbb456b236"},"vehicle_type_id":"4","last_reported":1730563809,"current_range_meters":38000,"station_id":"ce4bhb92rcd13ifvqen0","pricing_plan_id":"cebpf4jnsgd1na2vs0mg"},{"bike_id":"689d2b98-6a32-401d-a7e4-67239a1972fc","system_id":"levelo_inurba_marseille","lat":43.27051,"lon":5.40272,"is_reserved":false,"is_disabled":false,"rental_uris":{"android":"levelo://app?vid=689d2b98-6a32-401d-a7e4-67239a1972fc","ios":"levelo://app?vid=689d2b98-6a32-401d-a7e4-67239a1972fc"},"vehicle_type_id":"4","last_reported":1730563809,"current_range_meters":37600,"station_id":"ce4bhk92rcd13ifvqgc0","pricing_plan_id":"cebpf4jnsgd1na2vs0mg"},{"bike_id":"7d80838f-ddd1-4936-82d8-035e0f61d8dc","system_id":"levelo_inurba_marseille","lat":43.2306,"lon":5.35495,"is_reserved":false,"is_disabled":false,"rental_uris":{"android":"levelo://app?vid=7d80838f-ddd1-4936-82d8-035e0f61d8dc","ios":"levelo://app?vid=7d80838f-ddd1-4936-82d8-035e0f61d8dc"},"vehicle_type_id":"4","last_reported":1730563809,"current_range_meters":16400,"station_id":"cpo3342slgdg3j2ifvpg","pricing_plan_id":"cebpf4jnsgd1na2vs0mg"},{"bike_id":"85d05f76-c0f4-48a0-a1be-338782c6e111","system_id":"levelo_inurba_marseille","lat":43.28151,"lon":5.42644,"is_reserved":false,"is_disabled":false,"rental_uris":{"android":"levelo://app?vid=85d05f76-c0f4-48a0-a1be-338782c6e111","ios":"levelo://app?vid=85d05f76-c0f4-48a0-a1be-338782c6e111"},"vehicle_type_id":"4","last_reported":1730563809,"current_range_meters":38400,"station_id":"ce4bhnh2rcd13ifvqgug","pricing_plan_id":"cebpf4jnsgd1na2vs0mg"},{"bike_id":"92f26b0a-794a-4057-a056-ddb869aaa68f","system_id":"levelo_inurba_marseille","lat":43.28418,"lon":5.40954,"is_reserved":false,"is_disabled":false,"rental_uris":{"android":"levelo://app?vid=92f26b0a-794a-4057-a056-ddb869aaa68f","ios":"levelo://app?vid=92f26b0a-794a-4057-a056-ddb869aaa68f"},"vehicle_type_id":"4","last_reported":1730563809,"current_range_meters":30000,"station_id":"","pricing_plan_id":"cebpf4jnsgd1na2vs0mg"},{"bike_id":"3559df4f-5093-4722-91ff-6a0d4c45c66e","system_id":"levelo_inurba_marseille","lat":43.28609,"lon":5.35112,"is_reserved":false,"is_disabled":false,"rental_uris":{"android":"levelo://app?vid=3559df4f-5093-4722-91ff-6a0d4c45c66e","ios":"levelo://app?vid=3559df4f-5093-4722-91ff-6a0d4c45c66e"},"vehicle_type_id":"4","last_reported":1730563809,"current_range_meters":6400,"station_id":"ce4bhch2rcd13ifvqeug","pricing_plan_id":"cebpf4jnsgd1na2vs0mg"},{"bike_id":"69582ec4-a536-468d-867c-efb681073e52","system_id":"levelo_inurba_marseille","lat":43.28149,"lon":5.42654,"is_reserved":false,"is_disabled":false,"rental_uris":{"android":"levelo://app?vid=69582ec4-a536-468d-867c-efb681073e52","ios":"levelo://app?vid=69582ec4-a536-468d-867c-efb681073e52"},"vehicle_type_id":"4","last_reported":1730563809,"current_range_meters":38800,"station_id":"ce4bhnh2rcd13ifvqgug","pricing_plan_id":"cebpf4jnsgd1na2vs0mg"},{"bike_id":"0f5f4a5e-d5e5-4f9f-a634-2f9428e83c2c","system_id":"levelo_inurba_marseille","lat":43.27812,"lon":5.40731,"is_reserved":false,"is_disabled":false,"rental_uris":{"android":"levelo://app?vid=0f5f4a5e-d5e5-4f9f-a634-2f9428e83c2c","ios":"levelo://app?vid=0f5f4a5e-d5e5-4f9f-a634-2f9428e83c2c"},"vehicle_type_id":"4","last_reported":1730563809,"current_range_meters":37600,"station_id":"ce4bhnh2rcd13ifvqgtg","pricing_plan_id":"cebpf4jnsgd1na2vs0mg"},{"bike_id":"34f9fd77-1075-4c60-a665-dadff6198790","system_id":"levelo_inurba_marseille","lat":43.29921,"lon":5.37474,"is_reserved":false,"is_disabled":false,"rental_uris":{"android":"levelo://app?vid=34f9fd77-1075-4c60-a665-dadff6198790","ios":"levelo://app?vid=34f9fd77-1075-4c60-a665-dadff6198790"},"vehicle_type_id":"4","last_reported":1730563809,"current_range_meters":16800,"station_id":"ce4bgjh2rcd13ifvqbg0","pricing_plan_id":"cebpf4jnsgd1na2vs0mg"},{"bike_id":"4462a1e9-7adc-4b88-856d-ab742c338669","system_id":"levelo_inurba_marseille","lat":43.27366,"lon":5.36255,"is_reserved":false,"is_disabled":false,"rental_uris":{"android":"levelo://app?vid=4462a1e9-7adc-4b88-856d-ab742c338669","ios":"levelo://app?vid=4462a1e9-7adc-4b88-856d-ab742c338669"},"vehicle_type_id":"4","last_reported":1730563809,"current_range_meters":38800,"station_id":"ce4bhbh2rcd13ifvqeo0","pricing_plan_id":"cebpf4jnsgd1na2vs0mg"},{"bike_id":"6b1e8166-579a-4034-9594-772d0c9ad45b","system_id":"levelo_inurba_marseille","lat":43.31324,"lon":5.39705,"is_reserved":false,"is_disabled":false,"rental_uris":{"android":"levelo://app?vid=6b1e8166-579a-4034-9594-772d0c9ad45b","ios":"levelo://app?vid=6b1e8166-579a-4034-9594-772d0c9ad45b"},"vehicle_type_id":"4","last_reported":1730563809,"current_range_meters":38800,"station_id":"ce4bgvp2rcd13ifvqcu0","pricing_plan_id":"cebpf4jnsgd1na2vs0mg"},{"bike_id":"8cf2d7b1-2b35-4b8c-8863-894dd3fe2f79","system_id":"levelo_inurba_marseille","lat":43.22922,"lon":5.3538,"is_reserved":false,"is_disabled":false,"rental_uris":{"android":"levelo://app?vid=8cf2d7b1-2b35-4b8c-8863-894dd3fe2f79","ios":"levelo://app?vid=8cf2d7b1-2b35-4b8c-8863-894dd3fe2f79"},"vehicle_type_id":"4","last_reported":1730563809,"current_range_meters":25200,"station_id":"cpo3532slgdg3j2ikp40","pricing_plan_id":"cebpf4jnsgd1na2vs0mg"},{"bike_id":"a736eb14-322a-4db6-8378-3b19b72258b0","system_id":"levelo_inurba_marseille","lat":43.29438,"lon":5.38313,"is_reserved":false,"is_disabled":false,"rental_uris":{"android":"levelo://app?vid=a736eb14-322a-4db6-8378-3b19b72258b0","ios":"levelo://app?vid=a736eb14-322a-4db6-8378-3b19b72258b0"},"vehicle_type_id":"4","last_reported":1730563809,"current_range_meters":29600,"station_id":"","pricing_plan_id":"cebpf4jnsgd1na2vs0mg"},{"bike_id":"21547dd9-ea26-4947-8e74-3aaf58bc700c","system_id":"levelo_inurba_marseille","lat":43.2737,"lon":5.36253,"is_reserved":false,"is_disabled":false,"rental_uris":{"android":"levelo://app?vid=21547dd9-ea26-4947-8e74-3aaf58bc700c","ios":"levelo://app?vid=21547dd9-ea26-4947-8e74-3aaf58bc700c"},"vehicle_type_id":"4","last_reported":1730563809,"current_range_meters":24400,"station_id":"ce4bhbh2rcd13ifvqeo0","pricing_plan_id":"cebpf4jnsgd1na2vs0mg"},{"bike_id":"91522c73-ac5e-41df-ae60-57e38a7e4783","system_id":"levelo_inurba_marseille","lat":43.30459,"lon":5.3791,"is_reserved":false,"is_disabled":false,"rental_uris":{"android":"levelo://app?vid=91522c73-ac5e-41df-ae60-57e38a7e4783","ios":"levelo://app?vid=91522c73-ac5e-41df-ae60-57e38a7e4783"},"vehicle_type_id":"4","last_reported":1730563809,"current_range_meters":22400,"station_id":"ce4bgup2rcd13ifvqcn0","pricing_plan_id":"cebpf4jnsgd1na2vs0mg"},{"bike_id":"a1857188-2813-4a1e-bad7-f04525dffe33","system_id":"levelo_inurba_marseille","lat":43.31688,"lon":5.40488,"is_reserved":false,"is_disabled":false,"rental_uris":{"android":"levelo://app?vid=a1857188-2813-4a1e-bad7-f04525dffe33","ios":"levelo://app?vid=a1857188-2813-4a1e-bad7-f04525dffe33"},"vehicle_type_id":"4","last_reported":1730563809,"current_range_meters":38000,"station_id":"ce4bh012rcd13ifvqd00","pricing_plan_id":"cebpf4jnsgd1na2vs0mg"},{"bike_id":"d21d4a97-6edd-4550-b885-3bdecfa40ee6","system_id":"levelo_inurba_marseille","lat":43.256836,"lon":5.382737,"is_reserved":false,"is_disabled":false,"rental_uris":{"android":"levelo://app?vid=d21d4a97-6edd-4550-b885-3bdecfa40ee6","ios":"levelo://app?vid=d21d4a97-6edd-4550-b885-3bdecfa40ee6"},"vehicle_type_id":"4","last_reported":1730563809,"current_range_meters":38800,"station_id":"","pricing_plan_id":"cebpf4jnsgd1na2vs0mg"},{"bike_id":"39619002-67ac-40b3-afab-cd1631b93626","system_id":"levelo_inurba_marseille","lat":43.29267,"lon":5.36854,"is_reserved":false,"is_disabled":false,"rental_uris":{"android":"levelo://app?vid=39619002-67ac-40b3-afab-cd1631b93626","ios":"levelo://app?vid=39619002-67ac-40b3-afab-cd1631b93626"},"vehicle_type_id":"4","last_reported":1730563809,"current_range_meters":38000,"station_id":"ce4bhbp2rcd13ifvqesg","pricing_plan_id":"cebpf4jnsgd1na2vs0mg"},{"bike_id":"7f4d84c9-e902-45e4-bf09-a1475424fc3a","system_id":"levelo_inurba_marseille","lat":43.30586,"lon":5.37233,"is_reserved":false,"is_disabled":false,"rental_uris":{"android":"levelo://app?vid=7f4d84c9-e902-45e4-bf09-a1475424fc3a","ios":"levelo://app?vid=7f4d84c9-e902-45e4-bf09-a1475424fc3a"},"vehicle_type_id":"4","last_reported":1730563809,"current_range_meters":9200,"station_id":"ce4bgqh2rcd13ifvqc4g","pricing_plan_id":"cebpf4jnsgd1na2vs0mg"},{"bike_id":"162f8e3c-cfc8-45ed-8217-ad41ba820787","system_id":"levelo_inurba_marseille","lat":43.28617,"lon":5.35098,"is_reserved":false,"is_disabled":false,"rental_uris":{"android":"levelo://app?vid=162f8e3c-cfc8-45ed-8217-ad41ba820787","ios":"levelo://app?vid=162f8e3c-cfc8-45ed-8217-ad41ba820787"},"vehicle_type_id":"4","last_reported":1730563809,"current_range_meters":38800,"station_id":"ce4bhch2rcd13ifvqeug","pricing_plan_id":"cebpf4jnsgd1na2vs0mg"},{"bike_id":"d937a8da-dd9c-42f4-b789-3a759d1e4dc5","system_id":"levelo_inurba_marseille","lat":43.25574,"lon":5.38252,"is_reserved":false,"is_disabled":false,"rental_uris":{"android":"levelo://app?vid=d937a8da-dd9c-42f4-b789-3a759d1e4dc5","ios":"levelo://app?vid=d937a8da-dd9c-42f4-b789-3a759d1e4dc5"},"vehicle_type_id":"4","last_reported":1730563809,"current_range_meters":38800,"station_id":"ce4bhih2rcd13ifvqfs0","pricing_plan_id":"cebpf4jnsgd1na2vs0mg"},{"bike_id":"ef0816c0-d38e-476c-a618-130378f377f3","system_id":"levelo_inurba_marseille","lat":43.29779,"lon":5.37108,"is_reserved":false,"is_disabled":false,"rental_uris":{"android":"levelo://app?vid=ef0816c0-d38e-476c-a618-130378f377f3","ios":"levelo://app?vid=ef0816c0-d38e-476c-a618-130378f377f3"},"vehicle_type_id":"4","last_reported":1730563809,"current_range_meters":34800,"station_id":"ce4bgop2rcd13ifvqc1g","pricing_plan_id":"cebpf4jnsgd1na2vs0mg"},{"bike_id":"101bf9df-4d01-419e-aa0b-6ddc0efbd96e","system_id":"levelo_inurba_marseille","lat":43.298,"lon":5.36307,"is_reserved":false,"is_disabled":false,"rental_uris":{"android":"levelo://app?vid=101bf9df-4d01-419e-aa0b-6ddc0efbd96e","ios":"levelo://app?vid=101bf9df-4d01-419e-aa0b-6ddc0efbd96e"},"vehicle_type_id":"4","last_reported":1730563809,"current_range_meters":38800,"station_id":"","pricing_plan_id":"cebpf4jnsgd1na2vs0mg"},{"bike_id":"f733f9c3-9fa4-4f43-8373-60bc43a9dd50","system_id":"levelo_inurba_marseille","lat":43.293,"lon":5.37456,"is_reserved":false,"is_disabled":false,"rental_uris":{"android":"levelo://app?vid=f733f9c3-9fa4-4f43-8373-60bc43a9dd50","ios":"levelo://app?vid=f733f9c3-9fa4-4f43-8373-60bc43a9dd50"},"vehicle_type_id":"4","last_reported":1730563809,"current_range_meters":28000,"station_id":"ce4bgi12rcd13ifvqb70","pricing_plan_id":"cebpf4jnsgd1na2vs0mg"},{"bike_id":"ed259364-3040-4be2-8f0c-b0c707186297","system_id":"levelo_inurba_marseille","lat":43.31709,"lon":5.43712,"is_reserved":false,"is_disabled":false,"rental_uris":{"android":"levelo://app?vid=ed259364-3040-4be2-8f0c-b0c707186297","ios":"levelo://app?vid=ed259364-3040-4be2-8f0c-b0c707186297"},"vehicle_type_id":"4","last_reported":1730563809,"current_range_meters":17600,"station_id":"ce4bhp92rcd13ifvqhcg","pricing_plan_id":"cebpf4jnsgd1na2vs0mg"},{"bike_id":"d2836ac9-dceb-4f08-b477-456558008569","system_id":"levelo_inurba_marseille","lat":43.264282,"lon":5.373536,"is_reserved":false,"is_disabled":false,"rental_uris":{"android":"levelo://app?vid=d2836ac9-dceb-4f08-b477-456558008569","ios":"levelo://app?vid=d2836ac9-dceb-4f08-b477-456558008569"},"vehicle_type_id":"4","last_reported":1730563809,"current_range_meters":28400,"station_id":"ce4bgh92rcd13ifvqb50","pricing_plan_id":"cebpf4jnsgd1na2vs0mg"},{"bike_id":"b98450ce-a67c-4f5f-8285-197c41f0f2d7","system_id":"levelo_inurba_marseille","lat":43.24653,"lon":5.38176,"is_reserved":false,"is_disabled":false,"rental_uris":{"android":"levelo://app?vid=b98450ce-a67c-4f5f-8285-197c41f0f2d7","ios":"levelo://app?vid=b98450ce-a67c-4f5f-8285-197c41f0f2d7"},"vehicle_type_id":"4","last_reported":1730563809,"current_range_meters":8000,"station_id":"ce4bhih2rcd13ifvqfr0","pricing_plan_id":"cebpf4jnsgd1na2vs0mg"},{"bike_id":"7732ee2e-6c3f-48d5-ac04-ca06f71a0751","system_id":"levelo_inurba_marseille","lat":43.23961,"lon":5.36643,"is_reserved":false,"is_disabled":false,"rental_uris":{"android":"levelo://app?vid=7732ee2e-6c3f-48d5-ac04-ca06f71a0751","ios":"levelo://app?vid=7732ee2e-6c3f-48d5-ac04-ca06f71a0751"},"vehicle_type_id":"4","last_reported":1730563809,"current_range_meters":38800,"station_id":"ce4bhi12rcd13ifvqfp0","pricing_plan_id":"cebpf4jnsgd1na2vs0mg"},{"bike_id":"fa88cdc2-d23d-48d5-8474-9d42e67e98fe","system_id":"levelo_inurba_marseille","lat":43.22926,"lon":5.3538,"is_reserved":false,"is_disabled":false,"rental_uris":{"android":"levelo://app?vid=fa88cdc2-d23d-48d5-8474-9d42e67e98fe","ios":"levelo://app?vid=fa88cdc2-d23d-48d5-8474-9d42e67e98fe"},"vehicle_type_id":"4","last_reported":1730563809,"current_range_meters":14400,"station_id":"cpo3532slgdg3j2ikp40","pricing_plan_id":"cebpf4jnsgd1na2vs0mg"},{"bike_id":"931ef363-5978-48e3-9257-92d58d245652","system_id":"levelo_inurba_marseille","lat":43.27943,"lon":5.41053,"is_reserved":false,"is_disabled":false,"rental_uris":{"android":"levelo://app?vid=931ef363-5978-48e3-9257-92d58d245652","ios":"levelo://app?vid=931ef363-5978-48e3-9257-92d58d245652"},"vehicle_type_id":"4","last_reported":1730563809,"current_range_meters":28000,"station_id":"ce4bhnp2rcd13ifvqh0g","pricing_plan_id":"cebpf4jnsgd1na2vs0mg"},{"bike_id":"c410588b-579d-4a6d-9fbe-03836b7e0577","system_id":"levelo_inurba_marseille","lat":43.2737,"lon":5.36263,"is_reserved":false,"is_disabled":false,"rental_uris":{"android":"levelo://app?vid=c410588b-579d-4a6d-9fbe-03836b7e0577","ios":"levelo://app?vid=c410588b-579d-4a6d-9fbe-03836b7e0577"},"vehicle_type_id":"4","last_reported":1730563809,"current_range_meters":5600,"station_id":"ce4bhbh2rcd13ifvqeo0","pricing_plan_id":"cebpf4jnsgd1na2vs0mg"},{"bike_id":"4eebe429-e27b-4612-8f6f-bda1fa9c5c4f","system_id":"levelo_inurba_marseille","lat":43.297,"lon":5.36599,"is_reserved":false,"is_disabled":false,"rental_uris":{"android":"levelo://app?vid=4eebe429-e27b-4612-8f6f-bda1fa9c5c4f","ios":"levelo://app?vid=4eebe429-e27b-4612-8f6f-bda1fa9c5c4f"},"vehicle_type_id":"4","last_reported":1730563809,"current_range_meters":38800,"station_id":"ce4bgn12rcd13ifvqbt0","pricing_plan_id":"cebpf4jnsgd1na2vs0mg"},{"bike_id":"6659cd77-7510-4a02-ada7-bbfc5f503aac","system_id":"levelo_inurba_marseille","lat":43.2306,"lon":5.35495,"is_reserved":false,"is_disabled":false,"rental_uris":{"android":"levelo://app?vid=6659cd77-7510-4a02-ada7-bbfc5f503aac","ios":"levelo://app?vid=6659cd77-7510-4a02-ada7-bbfc5f503aac"},"vehicle_type_id":"4","last_reported":1730563809,"current_range_meters":22800,"station_id":"cpo3342slgdg3j2ifvpg","pricing_plan_id":"cebpf4jnsgd1na2vs0mg"},{"bike_id":"fe05054e-6c0b-4296-a566-5f2a1981aa53","system_id":"levelo_inurba_marseille","lat":43.27046,"lon":5.4027,"is_reserved":false,"is_disabled":false,"rental_uris":{"android":"levelo://app?vid=fe05054e-6c0b-4296-a566-5f2a1981aa53","ios":"levelo://app?vid=fe05054e-6c0b-4296-a566-5f2a1981aa53"},"vehicle_type_id":"4","last_reported":1730563809,"current_range_meters":38400,"station_id":"ce4bhk92rcd13ifvqgc0","pricing_plan_id":"cebpf4jnsgd1na2vs0mg"},{"bike_id":"afb82db1-4336-4832-ae75-74cbfc9eebcc","system_id":"levelo_inurba_marseille","lat":43.29522,"lon":5.39045,"is_reserved":false,"is_disabled":false,"rental_uris":{"android":"levelo://app?vid=afb82db1-4336-4832-ae75-74cbfc9eebcc","ios":"levelo://app?vid=afb82db1-4336-4832-ae75-74cbfc9eebcc"},"vehicle_type_id":"4","last_reported":1730563809,"current_range_meters":38800,"station_id":"ce4bh3p2rcd13ifvqdp0","pricing_plan_id":"cebpf4jnsgd1na2vs0mg"},{"bike_id":"c0d245bd-e031-4042-9469-b39951e03e95","system_id":"levelo_inurba_marseille","lat":43.284215,"lon":5.349845,"is_reserved":false,"is_disabled":false,"rental_uris":{"android":"levelo://app?vid=c0d245bd-e031-4042-9469-b39951e03e95","ios":"levelo://app?vid=c0d245bd-e031-4042-9469-b39951e03e95"},"vehicle_type_id":"4","last_reported":1730563809,"current_range_meters":20400,"station_id":"ce4bgop2rcd13ifvqc1g","pricing_plan_id":"cebpf4jnsgd1na2vs0mg"},{"bike_id":"d7010405-5800-48a0-8e77-38c61941634e","system_id":"levelo_inurba_marseille","lat":43.23188,"lon":5.35541,"is_reserved":false,"is_disabled":false,"rental_uris":{"android":"levelo://app?vid=d7010405-5800-48a0-8e77-38c61941634e","ios":"levelo://app?vid=d7010405-5800-48a0-8e77-38c61941634e"},"vehicle_type_id":"4","last_reported":1730563809,"current_range_meters":38800,"station_id":"ce4bhu92rcd13ifvqi70","pricing_plan_id":"cebpf4jnsgd1na2vs0mg"},{"bike_id":"6c7a6c2a-d7fb-40b0-a46e-f3b348e5c810","system_id":"levelo_inurba_marseille","lat":43.29306,"lon":5.371694,"is_reserved":false,"is_disabled":false,"rental_uris":{"android":"levelo://app?vid=6c7a6c2a-d7fb-40b0-a46e-f3b348e5c810","ios":"levelo://app?vid=6c7a6c2a-d7fb-40b0-a46e-f3b348e5c810"},"vehicle_type_id":"4","last_reported":1730563809,"current_range_meters":13600,"station_id":"ce4bgh92rcd13ifvqb40","pricing_plan_id":"cebpf4jnsgd1na2vs0mg"},{"bike_id":"1dc254bc-ff83-493d-8816-b700f15b6c7a","system_id":"levelo_inurba_marseille","lat":43.27418,"lon":5.39409,"is_reserved":false,"is_disabled":false,"rental_uris":{"android":"levelo://app?vid=1dc254bc-ff83-493d-8816-b700f15b6c7a","ios":"levelo://app?vid=1dc254bc-ff83-493d-8816-b700f15b6c7a"},"vehicle_type_id":"4","last_reported":1730563809,"current_range_meters":29600,"station_id":"ce4bhdp2rcd13ifvqf20","pricing_plan_id":"cebpf4jnsgd1na2vs0mg"},{"bike_id":"6f124470-1ce3-4baa-a2b1-212ebb283ab6","system_id":"levelo_inurba_marseille","lat":43.33021,"lon":5.39047,"is_reserved":false,"is_disabled":false,"rental_uris":{"android":"levelo://app?vid=6f124470-1ce3-4baa-a2b1-212ebb283ab6","ios":"levelo://app?vid=6f124470-1ce3-4baa-a2b1-212ebb283ab6"},"vehicle_type_id":"4","last_reported":1730563809,"current_range_meters":34000,"station_id":"ce4bhr92rcd13ifvqhrg","pricing_plan_id":"cebpf4jnsgd1na2vs0mg"},{"bike_id":"7049f203-1a48-49c6-b02e-f66a8d9dae0d","system_id":"levelo_inurba_marseille","lat":43.304749,"lon":5.367406,"is_reserved":false,"is_disabled":false,"rental_uris":{"android":"levelo://app?vid=7049f203-1a48-49c6-b02e-f66a8d9dae0d","ios":"levelo://app?vid=7049f203-1a48-49c6-b02e-f66a8d9dae0d"},"vehicle_type_id":"4","last_reported":1730563809,"current_range_meters":26000,"station_id":"ce4bgrp2rcd13ifvqc9g","pricing_plan_id":"cebpf4jnsgd1na2vs0mg"},{"bike_id":"19800b3a-d4e0-48b7-ba87-dd09bee7afd4","system_id":"levelo_inurba_marseille","lat":43.2737,"lon":5.36259,"is_reserved":false,"is_disabled":false,"rental_uris":{"android":"levelo://app?vid=19800b3a-d4e0-48b7-ba87-dd09bee7afd4","ios":"levelo://app?vid=19800b3a-d4e0-48b7-ba87-dd09bee7afd4"},"vehicle_type_id":"4","last_reported":1730563809,"current_range_meters":7200,"station_id":"ce4bhbh2rcd13ifvqeo0","pricing_plan_id":"cebpf4jnsgd1na2vs0mg"},{"bike_id":"22e181cb-94e3-421a-ae95-96552cb11e54","system_id":"levelo_inurba_marseille","lat":43.2396,"lon":5.3664,"is_reserved":false,"is_disabled":false,"rental_uris":{"android":"levelo://app?vid=22e181cb-94e3-421a-ae95-96552cb11e54","ios":"levelo://app?vid=22e181cb-94e3-421a-ae95-96552cb11e54"},"vehicle_type_id":"4","last_reported":1730563809,"current_range_meters":30000,"station_id":"ce4bhi12rcd13ifvqfp0","pricing_plan_id":"cebpf4jnsgd1na2vs0mg"},{"bike_id":"acb611ca-a39d-487b-a604-42a14f63b21b","system_id":"levelo_inurba_marseille","lat":43.29621,"lon":5.37169,"is_reserved":false,"is_disabled":false,"rental_uris":{"android":"levelo://app?vid=acb611ca-a39d-487b-a604-42a14f63b21b","ios":"levelo://app?vid=acb611ca-a39d-487b-a604-42a14f63b21b"},"vehicle_type_id":"4","last_reported":1730563809,"current_range_meters":28000,"station_id":"ce4bgnh2rcd13ifvqc0g","pricing_plan_id":"cebpf4jnsgd1na2vs0mg"},{"bike_id":"9e73b740-00b7-4587-ad69-627856252521","system_id":"levelo_inurba_marseille","lat":43.27061,"lon":5.42284,"is_reserved":false,"is_disabled":false,"rental_uris":{"android":"levelo://app?vid=9e73b740-00b7-4587-ad69-627856252521","ios":"levelo://app?vid=9e73b740-00b7-4587-ad69-627856252521"},"vehicle_type_id":"4","last_reported":1730563809,"current_range_meters":38800,"station_id":"ce4bhk92rcd13ifvqgb0","pricing_plan_id":"cebpf4jnsgd1na2vs0mg"},{"bike_id":"aeee5f7c-0974-4ca7-ade4-af9a752b2dce","system_id":"levelo_inurba_marseille","lat":43.25713,"lon":5.41119,"is_reserved":false,"is_disabled":false,"rental_uris":{"android":"levelo://app?vid=aeee5f7c-0974-4ca7-ade4-af9a752b2dce","ios":"levelo://app?vid=aeee5f7c-0974-4ca7-ade4-af9a752b2dce"},"vehicle_type_id":"4","last_reported":1730563809,"current_range_meters":14400,"station_id":"ce4bhkp2rcd13ifvqgd0","pricing_plan_id":"cebpf4jnsgd1na2vs0mg"},{"bike_id":"9b9ef097-12ba-4b0e-a4af-6ccfe00a73f2","system_id":"levelo_inurba_marseille","lat":43.24799,"lon":5.37462,"is_reserved":false,"is_disabled":false,"rental_uris":{"android":"levelo://app?vid=9b9ef097-12ba-4b0e-a4af-6ccfe00a73f2","ios":"levelo://app?vid=9b9ef097-12ba-4b0e-a4af-6ccfe00a73f2"},"vehicle_type_id":"4","last_reported":1730563809,"current_range_meters":22400,"station_id":"ce4bhgh2rcd13ifvqfb0","pricing_plan_id":"cebpf4jnsgd1na2vs0mg"},{"bike_id":"40feed36-4d86-46fc-aeb4-466ee826a62d","system_id":"levelo_inurba_marseille","lat":43.3106,"lon":5.38359,"is_reserved":false,"is_disabled":false,"rental_uris":{"android":"levelo://app?vid=40feed36-4d86-46fc-aeb4-466ee826a62d","ios":"levelo://app?vid=40feed36-4d86-46fc-aeb4-466ee826a62d"},"vehicle_type_id":"4","last_reported":1730563809,"current_range_meters":30800,"station_id":"ce4bgv92rcd13ifvqcr0","pricing_plan_id":"cebpf4jnsgd1na2vs0mg"},