{"last_updated":1679130397,"ttl":30,"version":"2.2","data":{"bikes":[{"bike_id":"803dc7b6-96e3-48f6-b6f7-0ece13589a20","system_id":"levelo_inurba_marseille","lat":43.312239,"lon":5.368562,"is_reserved":false,"is_disabled":false,"rental_uris":{"android":"levelo://app?vid=803dc7b6-96e3-48f6-b6f7-0ece13589a20","ios":"levelo://app?vid=803dc7b6-96e3-48f6-b6f7-0ece13589a20"},"vehicle_type_id":"4","last_reported":1679130398,"current_range_meters":31600,"station_id":"ce4bgl92rcd13ifvqbq0","pricing_plan_id":"free"},{"bike_id":"440388ab-9e2b-4678-b2ea-526bf76a04de","system_id":"levelo_inurba_marseille","lat":43.312239,"lon":5.368562,"is_reserved":false,"is_disabled":false,"rental_uris":{"android":"levelo://app?vid=440388ab-9e2b-4678-b2ea-526bf76a04de","ios":"levelo://app?vid=440388ab-9e2b-4678-b2ea-526bf76a04de"},"vehicle_type_id":"4","last_reported":1679130398,"current_range_meters":10000,"station_id":"ce4bgl92rcd13ifvqbq0","pricing_plan_id":"free"},{"bike_id":"b8eda21b-83de-4248-8b75-265279000c19","system_id":"levelo_inurba_marseille","lat":43.309076,"lon":5.368465,"is_reserved":false,"is_disabled":false,"rental_uris":{"android":"levelo://app?vid=b8eda21b-83de-4248-8b75-265279000c19","ios":"levelo://app?vid=b8eda21b-83de-4248-8b75-265279000c19"},"vehicle_type_id":"4","last_reported":1679130398,"current_range_meters":30400,"station_id":"ce4bgn92rcd13ifvqbvg","pricing_plan_id":"free"},{"bike_id":"f273d4fc-8773-4cc3-a870-85f4a91f1948","system_id":"levelo_inurba_marseille","lat":43.30911,"lon":5.36838,"is_reserved":false,"is_disabled":false,"rental_uris":{"android":"levelo://app?vid=f273d4fc-8773-4cc3-a870-85f4a91f1948","ios":"levelo://app?vid=f273d4fc-8773-4cc3-a870-85f4a91f1948"},"vehicle_type_id":"4","last_reported":1679130398,"current_range_meters":0,"station_id":"ce4bgn92rcd13ifvqbvg","pricing_plan_id":"free"},{"bike_id":"05462cf6-fac3-425f-96b9-eca2c5087ba3","system_id":"levelo_inurba_marseille","lat":43.314811,"lon":5.373103,"is_reserved":false,"is_disabled":false,"rental_uris":{"android":"levelo://app?vid=05462cf6-fac3-425f-96b9-eca2c5087ba3","ios":"levelo://app?vid=05462cf6-fac3-425f-96b9-eca2c5087ba3"},"vehicle_type_id":"4","last_reported":1679130398,"current_range_meters":31600,"station_id":"ce4bgt12rcd13ifvqcd0","pricing_plan_id":"free"},{"bike_id":"d4237953-9f1b-4a71-ae99-095ea19cd0d8","system_id":"levelo_inurba_marseille","lat":43.314811,"lon":5.373103,"is_reserved":false,"is_disabled":false,"rental_uris":{"android":"levelo://app?vid=d4237953-9f1b-4a71-ae99-095ea19cd0d8","ios":"levelo://app?vid=d4237953-9f1b-4a71-ae99-095ea19cd0d8"},"vehicle_type_id":"4","last_reported":1679130398,"current_range_meters":21600,"station_id":"ce4bgt12rcd13ifvqcd0","pricing_plan_id":"free"},{"bike_id":"e8789af8-838c-490a-8383-5a53c275a960","system_id":"levelo_inurba_marseille","lat":43.314811,"lon":5.373103,"is_reserved":false,"is_disabled":false,"rental_uris":{"android":"levelo://app?vid=e8789af8-838c-490a-8383-5a53c275a960","ios":"levelo://app?vid=e8789af8-838c-490a-8383-5a53c275a960"},"vehicle_type_id":"4","last_reported":1679130398,"current_range_meters":31600,"station_id":"ce4bgt12rcd13ifvqcd0","pricing_plan_id":"free"},{"bike_id":"dc7d4cde-684c-4844-8469-77bb438b0636","system_id":"levelo_inurba_marseille","lat":43.306391,"lon":5.373597,"is_reserved":false,"is_disabled":false,"rental_uris":{"android":"levelo://app?vid=dc7d4cde-684c-4844-8469-77bb438b0636","ios":"levelo://app?vid=dc7d4cde-684c-4844-8469-77bb438b0636"},"vehicle_type_id":"4","last_reported":1679130398,"current_range_meters":20800,"station_id":"","pricing_plan_id":"free"},{"bike_id":"00b4a3fb-5439-41fb-b07a-d7868694ac9d","system_id":"levelo_inurba_marseille","lat":43.31954,"lon":5.37489,"is_reserved":false,"is_disabled":false,"rental_uris":{"android":"levelo://app?vid=00b4a3fb-5439-41fb-b07a-d7868694ac9d","ios":"levelo://app?vid=00b4a3fb-5439-41fb-b07a-d7868694ac9d"},"vehicle_type_id":"4","last_reported":1679130398,"current_range_meters":18400,"station_id":"","pricing_plan_id":"free"},{"bike_id":"7e624992-afe7-4d83-868a-292a86401900","system_id":"levelo_inurba_marseille","lat":43.308012,"lon":5.381511,"is_reserved":false,"is_disabled":false,"rental_uris":{"android":"levelo://app?vid=7e624992-afe7-4d83-868a-292a86401900","ios":"levelo://app?vid=7e624992-afe7-4d83-868a-292a86401900"},"vehicle_type_id":"4","last_reported":1679130398,"current_range_meters":28400,"station_id":"ce4bgt12rcd13ifvqce0","pricing_plan_id":"free"},{"bike_id":"4b363e43-b78f-419a-947a-f8f3d8c45717","system_id":"levelo_inurba_marseille","lat":43.308012,"lon":5.381511,"is_reserved":false,"is_disabled":false,"rental_uris":{"android":"levelo://app?vid=4b363e43-b78f-419a-947a-f8f3d8c45717","ios":"levelo://app?vid=4b363e43-b78f-419a-947a-f8f3d8c45717"},"vehicle_type_id":"4","last_reported":1679130398,"current_range_meters":28000,"station_id":"ce4bgt12rcd13ifvqce0","pricing_plan_id":"free"},{"bike_id":"ccb7cb81-a08b-4a80-b634-49d781948f2a","system_id":"levelo_inurba_marseille","lat":43.304606,"lon":5.379026,"is_reserved":false,"is_disabled":false,"rental_uris":{"android":"levelo://app?vid=ccb7cb81-a08b-4a80-b634-49d781948f2a","ios":"levelo://app?vid=ccb7cb81-a08b-4a80-b634-49d781948f2a"},"vehicle_type_id":"4","last_reported":1679130398,"current_range_meters":29200,"station_id":"ce4bgup2rcd13ifvqcn0","pricing_plan_id":"free"},{"bike_id":"9b1c0954-bd28-4f3e-8e50-21a11d03b2de","system_id":"levelo_inurba_marseille","lat":43.304606,"lon":5.379026,"is_reserved":false,"is_disabled":false,"rental_uris":{"android":"levelo://app?vid=9b1c0954-bd28-4f3e-8e50-21a11d03b2de","ios":"levelo://app?vid=9b1c0954-bd28-4f3e-8e50-21a11d03b2de"},"vehicle_type_id":"4","last_reported":1679130398,"current_range_meters":31600,"station_id":"ce4bgup2rcd13ifvqcn0","pricing_plan_id":"free"},{"bike_id":"22a5ba70-e98c-431f-b717-0590a8556569","system_id":"levelo_inurba_marseille","lat":43.304606,"lon":5.379026,"is_reserved":false,"is_disabled":false,"rental_uris":{"android":"levelo://app?vid=22a5ba70-e98c-431f-b717-0590a8556569","ios":"levelo://app?vid=22a5ba70-e98c-431f-b717-0590a8556569"},"vehicle_type_id":"4","last_reported":1679130398,"current_range_meters":22000,"station_id":"ce4bgup2rcd13ifvqcn0","pricing_plan_id":"free"},{"bike_id":"82c70a27-7014-4ee5-85fb-4d89453ce77a","system_id":"levelo_inurba_marseille","lat":43.304606,"lon":5.379026,"is_reserved":false,"is_disabled":false,"rental_uris":{"android":"levelo://app?vid=82c70a27-7014-4ee5-85fb-4d89453ce77a","ios":"levelo://app?vid=82c70a27-7014-4ee5-85fb-4d89453ce77a"},"vehicle_type_id":"4","last_reported":1679130398,"current_range_meters":4400,"station_id":"ce4bgup2rcd13ifvqcn0","pricing_plan_id":"free"},{"bike_id":"352a11f2-b94b-4998-ab14-25acf11f191d","system_id":"levelo_inurba_marseille","lat":43.304606,"lon":5.379026,"is_reserved":false,"is_disabled":false,"rental_uris":{"android":"levelo://app?vid=352a11f2-b94b-4998-ab14-25acf11f191d","ios":"levelo://app?vid=352a11f2-b94b-4998-ab14-25acf11f191d"},"vehicle_type_id":"4","last_reported":1679130398,"current_range_meters":29200,"station_id":"ce4bgup2rcd13ifvqcn0","pricing_plan_id":"free"},{"bike_id":"096808a2-fd42-4532-aa48-c36e618693ac","system_id":"levelo_inurba_marseille","lat":43.304606,"lon":5.379026,"is_reserved":false,"is_disabled":false,"rental_uris":{"android":"levelo://app?vid=096808a2-fd42-4532-aa48-c36e618693ac","ios":"levelo://app?vid=096808a2-fd42-4532-aa48-c36e618693ac"},"vehicle_type_id":"4","last_reported":1679130398,"current_range_meters":29200,"station_id":"ce4bgup2rcd13ifvqcn0","pricing_plan_id":"free"},{"bike_id":"1b719d8f-61c4-4873-8a1a-f2d154566859","system_id":"levelo_inurba_marseille","lat":43.304606,"lon":5.379026,"is_reserved":false,"is_disabled":false,"rental_uris":{"android":"levelo://app?vid=1b719d8f-61c4-4873-8a1a-f2d154566859","ios":"levelo://app?vid=1b719d8f-61c4-4873-8a1a-f2d154566859"},"vehicle_type_id":"4","last_reported":1679130398,"current_range_meters":31600,"station_id":"ce4bgup2rcd13ifvqcn0","pricing_plan_id":"free"},{"bike_id":"1123aec2-47ee-449e-affc-38dd2367876f","system_id":"levelo_inurba_marseille","lat":43.301451,"lon":5.374047,"is_reserved":false,"is_disabled":false,"rental_uris":{"android":"levelo://app?vid=1123aec2-47ee-449e-affc-38dd2367876f","ios":"levelo://app?vid=1123aec2-47ee-449e-affc-38dd2367876f"},"vehicle_type_id":"4","last_reported":1679130398,"current_range_meters":0,"station_id":"ce4bgs92rcd13ifvqcc0","pricing_plan_id":"free"},{"bike_id":"dee48276-2c84-4ade-92fd-dff2d19979bc","system_id":"levelo_inurba_marseille","lat":43.301429,"lon":5.37413,"is_reserved":false,"is_disabled":false,"rental_uris":{"android":"levelo://app?vid=dee48276-2c84-4ade-92fd-dff2d19979bc","ios":"levelo://app?vid=dee48276-2c84-4ade-92fd-dff2d19979bc"},"vehicle_type_id":"4","last_reported":1679130398,"current_range_meters":7200,"station_id":"ce4bgs92rcd13ifvqcc0","pricing_plan_id":"free"},{"bike_id":"f4b0a75e-45ac-4821-9088-42d89a772d17","system_id":"levelo_inurba_marseille","lat":43.30143,"lon":5.37413,"is_reserved":false,"is_disabled":false,"rental_uris":{"android":"levelo://app?vid=f4b0a75e-45ac-4821-9088-42d89a772d17","ios":"levelo://app?vid=f4b0a75e-45ac-4821-9088-42d89a772d17"},"vehicle_type_id":"4","last_reported":1679130398,"current_range_meters":12000,"station_id":"ce4bgs92rcd13ifvqcc0","pricing_plan_id":"free"},{"bike_id":"0ebc0d82-f320-4c03-be47-ca62777d99aa","system_id":"levelo_inurba_marseille","lat":43.313571,"lon":5.384829,"is_reserved":false,"is_disabled":false,"rental_uris":{"android":"levelo://app?vid=0ebc0d82-f320-4c03-be47-ca62777d99aa","ios":"levelo://app?vid=0ebc0d82-f320-4c03-be47-ca62777d99aa"},"vehicle_type_id":"4","last_reported":1679130398,"current_range_meters":13200,"station_id":"ce4bgt92rcd13ifvqcf0","pricing_plan_id":"free"},{"bike_id":"9e16d1b4-f156-49c2-b098-a98585703250","system_id":"levelo_inurba_marseille","lat":43.313571,"lon":5.384829,"is_reserved":false,"is_disabled":false,"rental_uris":{"android":"levelo://app?vid=9e16d1b4-f156-49c2-b098-a98585703250","ios":"levelo://app?vid=9e16d1b4-f156-49c2-b098-a98585703250"},"vehicle_type_id":"4","last_reported":1679130398,"current_range_meters":31600,"station_id":"ce4bgt92rcd13ifvqcf0","pricing_plan_id":"free"},{"bike_id":"cfe52341-f8e2-4747-9b4d-afcf0d97a249","system_id":"levelo_inurba_marseille","lat":43.313571,"lon":5.384829,"is_reserved":false,"is_disabled":false,"rental_uris":{"android":"levelo://app?vid=cfe52341-f8e2-4747-9b4d-afcf0d97a249","ios":"levelo://app?vid=cfe52341-f8e2-4747-9b4d-afcf0d97a249"},"vehicle_type_id":"4","last_reported":1679130398,"current_range_meters":27600,"station_id":"ce4bgt92rcd13ifvqcf0","pricing_plan_id":"free"},{"bike_id":"9801bd15-092b-4673-9f22-0aa89efc38ff","system_id":"levelo_inurba_marseille","lat":43.313571,"lon":5.384829,"is_reserved":false,"is_disabled":false,"rental_uris":{"android":"levelo://app?vid=9801bd15-092b-4673-9f22-0aa89efc38ff","ios":"levelo://app?vid=9801bd15-092b-4673-9f22-0aa89efc38ff"},"vehicle_type_id":"4","last_reported":1679130398,"current_range_meters":31600,"station_id":"ce4bgt92rcd13ifvqcf0","pricing_plan_id":"free"},{"bike_id":"eb82bb88-e609-427a-abbe-8bf8e98da90a","system_id":"levelo_inurba_marseille","lat":43.313571,"lon":5.384829,"is_reserved":false,"is_disabled":false,"rental_uris":{"android":"levelo://app?vid=eb82bb88-e609-427a-abbe-8bf8e98da90a","ios":"levelo://app?vid=eb82bb88-e609-427a-abbe-8bf8e98da90a"},"vehicle_type_id":"4","last_reported":1679130398,"current_range_meters":30000,"station_id":"ce4bgt92rcd13ifvqcf0","pricing_plan_id":"free"},{"bike_id":"8ad41629-0428-4a33-a7ac-3349a28950f6","system_id":"levelo_inurba_marseille","lat":43.313571,"lon":5.384829,"is_reserved":false,"is_disabled":false,"rental_uris":{"android":"levelo://app?vid=8ad41629-0428-4a33-a7ac-3349a28950f6","ios":"levelo://app?vid=8ad41629-0428-4a33-a7ac-3349a28950f6"},"vehicle_type_id":"4","last_reported":1679130398,"current_range_meters":31600,"station_id":"ce4bgt92rcd13ifvqcf0","pricing_plan_id":"free"},{"bike_id":"4eee1518-13f1-42d3-a976-3b1fa2bcd9f2","system_id":"levelo_inurba_marseille","lat":43.305364,"lon":5.384119,"is_reserved":false,"is_disabled":false,"rental_uris":{"android":"levelo://app?vid=4eee1518-13f1-42d3-a976-3b1fa2bcd9f2","ios":"levelo://app?vid=4eee1518-13f1-42d3-a976-3b1fa2bcd9f2"},"vehicle_type_id":"4","last_reported":1679130398,"current_range_meters":14000,"station_id":"ce4bgg92rcd13ifvqb30","pricing_plan_id":"free"},{"bike_id":"2e254213-9aed-4871-a1b0-5ff8acac2c10","system_id":"levelo_inurba_marseille","lat":43.305364,"lon":5.384119,"is_reserved":false,"is_disabled":false,"rental_uris":{"android":"levelo://app?vid=2e254213-9aed-4871-a1b0-5ff8acac2c10","ios":"levelo://app?vid=2e254213-9aed-4871-a1b0-5ff8acac2c10"},"vehicle_type_id":"4","last_reported":1679130398,"current_range_meters":26800,"station_id":"ce4bgg92rcd13ifvqb30","pricing_plan_id":"free"},{"bike_id":"c0260c51-3da4-4fe4-9b2e-383eaeb10360","system_id":"levelo_inurba_marseille","lat":43.305364,"lon":5.384119,"is_reserved":false,"is_disabled":false,"rental_uris":{"android":"levelo://app?vid=c0260c51-3da4-4fe4-9b2e-383eaeb10360","ios":"levelo://app?vid=c0260c51-3da4-4fe4-9b2e-383eaeb10360"},"vehicle_type_id":"4","last_reported":1679130398,"current_range_meters":31600,"station_id":"ce4bgg92rcd13ifvqb30","pricing_plan_id":"free"},{"bike_id":"46d175ba-cf57-4a96-9d3c-13ecb5222cb1","system_id":"levelo_inurba_marseille","lat":43.311722,"lon":5.387247,"is_reserved":false,"is_disabled":false,"rental_uris":{"android":"levelo://app?vid=46d175ba-cf57-4a96-9d3c-13ecb5222cb1","ios":"levelo://app?vid=46d175ba-cf57-4a96-9d3c-13ecb5222cb1"},"vehicle_type_id":"4","last_reported":1679130398,"current_range_meters":16000,"station_id":"ce4bgv12rcd13ifvqcp0","pricing_plan_id":"free"},{"bike_id":"98387c0e-78cc-4deb-990f-611eab5ee203","system_id":"levelo_inurba_marseille","lat":43.297824,"lon":5.371111,"is_reserved":false,"is_disabled":false,"rental_uris":{"android":"levelo://app?vid=98387c0e-78cc-4deb-990f-611eab5ee203","ios":"levelo://app?vid=98387c0e-78cc-4deb-990f-611eab5ee203"},"vehicle_type_id":"4","last_reported":1679130398,"current_range_meters":0,"station_id":"ce4bgop2rcd13ifvqc1g","pricing_plan_id":"free"},{"bike_id":"d4cb90a1-5167-4ebf-b086-be2bfbb60ba1","system_id":"levelo_inurba_marseille","lat":43.297794,"lon":5.370888,"is_reserved":false,"is_disabled":false,"rental_uris":{"android":"levelo://app?vid=d4cb90a1-5167-4ebf-b086-be2bfbb60ba1","ios":"levelo://app?vid=d4cb90a1-5167-4ebf-b086-be2bfbb60ba1"},"vehicle_type_id":"4","last_reported":1679130398,"current_range_meters":24800,"station_id":"ce4bgop2rcd13ifvqc1g","pricing_plan_id":"free"},{"bike_id":"44a86aad-6e88-4159-acb8-687a1cb6efda","system_id":"levelo_inurba_marseille","lat":43.328371,"lon":5.366912,"is_reserved":false,"is_disabled":false,"rental_uris":{"android":"levelo://app?vid=44a86aad-6e88-4159-acb8-687a1cb6efda","ios":"levelo://app?vid=44a86aad-6e88-4159-acb8-687a1cb6efda"},"vehicle_type_id":"4","last_reported":1679130398,"current_range_meters":12000,"station_id":"ce4bhs92rcd13ifvqi0g","pricing_plan_id":"free"},{"bike_id":"fc55e9b6-7c41-4489-b926-01532c0d7a90","system_id":"levelo_inurba_marseille","lat":43.296131,"lon":5.370791,"is_reserved":false,"is_disabled":false,"rental_uris":{"android":"levelo://app?vid=fc55e9b6-7c41-4489-b926-01532c0d7a90","ios":"levelo://app?vid=fc55e9b6-7c41-4489-b926-01532c0d7a90"},"vehicle_type_id":"4","last_reported":1679130398,"current_range_meters":16800,"station_id":"ce4bgnh2rcd13ifvqc0g","pricing_plan_id":"free"},{"bike_id":"51e479e5-8d68-4924-9629-0898f6a90537","system_id":"levelo_inurba_marseille","lat":43.296131,"lon":5.370791,"is_reserved":false,"is_disabled":false,"rental_uris":{"android":"levelo://app?vid=51e479e5-8d68-4924-9629-0898f6a90537","ios":"levelo://app?vid=51e479e5-8d68-4924-9629-0898f6a90537"},"vehicle_type_id":"4","last_reported":1679130398,"current_range_meters":1200,"station_id":"ce4bgnh2rcd13ifvqc0g","pricing_plan_id":"free"},{"bike_id":"25a0d29f-8944-4cef-925b-43215b798a9c","system_id":"levelo_inurba_marseille","lat":43.29573,"lon":5.367355,"is_reserved":false,"is_disabled":false,"rental_uris":{"android":"levelo://app?vid=25a0d29f-8944-4cef-925b-43215b798a9c","ios":"levelo://app?vid=25a0d29f-8944-4cef-925b-43215b798a9c"},"vehicle_type_id":"4","last_reported":1679130398,"current_range_meters":29200,"station_id":"ce4bgph2rcd13ifvqc2g","pricing_plan_id":"free"},{"bike_id":"4fb9b2b5-6b6b-4ea3-ba4d-ccb890ca6d91","system_id":"levelo_inurba_marseille","lat":43.295745,"lon":5.36737,"is_reserved":false,"is_disabled":false,"rental_uris":{"android":"levelo://app?vid=4fb9b2b5-6b6b-4ea3-ba4d-ccb890ca6d91","ios":"levelo://app?vid=4fb9b2b5-6b6b-4ea3-ba4d-ccb890ca6d91"},"vehicle_type_id":"4","last_reported":1679130398,"current_range_meters":6400,"station_id":"ce4bgph2rcd13ifvqc2g","pricing_plan_id":"free"},{"bike_id":"ac8165b6-bbd4-47a5-b3a9-0ac2de3cba4e","system_id":"levelo_inurba_marseille","lat":43.29573,"lon":5.367355,"is_reserved":false,"is_disabled":false,"rental_uris":{"android":"levelo://app?vid=ac8165b6-bbd4-47a5-b3a9-0ac2de3cba4e","ios":"levelo://app?vid=ac8165b6-bbd4-47a5-b3a9-0ac2de3cba4e"},"vehicle_type_id":"4","last_reported":1679130398,"current_range_meters":400,"station_id":"ce4bgph2rcd13ifvqc2g","pricing_plan_id":"free"},{"bike_id":"5ae95592-ab9b-4f8b-8d41-5827a1fed2f1","system_id":"levelo_inurba_marseille","lat":43.297149,"lon":5.376961,"is_reserved":false,"is_disabled":false,"rental_uris":{"android":"levelo://app?vid=5ae95592-ab9b-4f8b-8d41-5827a1fed2f1","ios":"levelo://app?vid=5ae95592-ab9b-4f8b-8d41-5827a1fed2f1"},"vehicle_type_id":"4","last_reported":1679130398,"current_range_meters":29600,"station_id":"","pricing_plan_id":"free"},{"bike_id":"405df897-bf5a-4dcb-8f5f-70192c61f116","system_id":"levelo_inurba_marseille","lat":43.296921,"lon":5.376579,"is_reserved":false,"is_disabled":false,"rental_uris":{"android":"levelo://app?vid=405df897-bf5a-4dcb-8f5f-70192c61f116","ios":"levelo://app?vid=405df897-bf5a-4dcb-8f5f-70192c61f116"},"vehicle_type_id":"4","last_reported":1679130398,"current_range_meters":11600,"station_id":"ce4bgkh2rcd13ifvqbl0","pricing_plan_id":"free"},{"bike_id":"ec30c648-9039-4750-a0b5-51730b9771bd","system_id":"levelo_inurba_marseille","lat":43.317557,"lon":5.390173,"is_reserved":false,"is_disabled":false,"rental_uris":{"android":"levelo://app?vid=ec30c648-9039-4750-a0b5-51730b9771bd","ios":"levelo://app?vid=ec30c648-9039-4750-a0b5-51730b9771bd"},"vehicle_type_id":"4","last_reported":1679130398,"current_range_meters":21600,"station_id":"ce4bhqp2rcd13ifvqhng","pricing_plan_id":"free"},{"bike_id":"66017a68-f4b0-43e1-b69d-4d55b826fcbe","system_id":"levelo_inurba_marseille","lat":43.317557,"lon":5.390173,"is_reserved":false,"is_disabled":false,"rental_uris":{"android":"levelo://app?vid=66017a68-f4b0-43e1-b69d-4d55b826fcbe","ios":"levelo://app?vid=66017a68-f4b0-43e1-b69d-4d55b826fcbe"},"vehicle_type_id":"4","last_reported":1679130398,"current_range_meters":26800,"station_id":"ce4bhqp2rcd13ifvqhng","pricing_plan_id":"free"},{"bike_id":"4dafff6b-9621-4e2b-86a4-abd86b4f6566","system_id":"levelo_inurba_marseille","lat":43.3176,"lon":5.39017,"is_reserved":false,"is_disabled":false,"rental_uris":{"android":"levelo://app?vid=4dafff6b-9621-4e2b-86a4-abd86b4f6566","ios":"levelo://app?vid=4dafff6b-9621-4e2b-86a4-abd86b4f6566"},"vehicle_type_id":"4","last_reported":1679130398,"current_range_meters":0,"station_id":"ce4bhqp2rcd13ifvqhng","pricing_plan_id":"free"},{"bike_id":"0dd82044-24a0-4753-a67a-2ac8767c190a","system_id":"levelo_inurba_marseille","lat":43.317557,"lon":5.390173,"is_reserved":false,"is_disabled":false,"rental_uris":{"android":"levelo://app?vid=0dd82044-24a0-4753-a67a-2ac8767c190a","ios":"levelo://app?vid=0dd82044-24a0-4753-a67a-2ac8767c190a"},"vehicle_type_id":"4","last_reported":1679130398,"current_range_meters":30000,"station_id":"ce4bhqp2rcd13ifvqhng","pricing_plan_id":"free"},{"bike_id":"e7d9d9f1-6d13-4c91-a0c0-b21489190405","system_id":"levelo_inurba_marseille","lat":43.317557,"lon":5.390173,"is_reserved":false,"is_disabled":false,"rental_uris":{"android":"levelo://app?vid=e7d9d9f1-6d13-4c91-a0c0-b21489190405","ios":"levelo://app?vid=e7d9d9f1-6d13-4c91-a0c0-b21489190405"},"vehicle_type_id":"4","last_reported":1679130398,"current_range_meters":28400,"station_id":"ce4bhqp2rcd13ifvqhng","pricing_plan_id":"free"},{"bike_id":"f8c64b09-1ae0-40a2-aa9f-44812333da4e","system_id":"levelo_inurba_marseille","lat":43.31754,"lon":5.39028,"is_reserved":false,"is_disabled":false,"rental_uris":{"android":"levelo://app?vid=f8c64b09-1ae0-40a2-aa9f-44812333da4e","ios":"levelo://app?vid=f8c64b09-1ae0-40a2-aa9f-44812333da4e"},"vehicle_type_id":"4","last_reported":1679130398,"current_range_meters":11200,"station_id":"ce4bhqp2rcd13ifvqhng","pricing_plan_id":"free"},{"bike_id":"61673aba-af8f-41bb-9b19-538cf554a171","system_id":"levelo_inurba_marseille","lat":43.298037,"lon":5.381066,"is_reserved":false,"is_disabled":false,"rental_uris":{"android":"levelo://app?vid=61673aba-af8f-41bb-9b19-538cf554a171","ios":"levelo://app?vid=61673aba-af8f-41bb-9b19-538cf554a171"},"vehicle_type_id":"4","last_reported":1679130398,"current_range_meters":18800,"station_id":"ce4bgip2rcd13ifvqbb0","pricing_plan_id":"free"},{"bike_id":"5c927f5c-9b43-4fd3-9e1d-f6641c8cfbee","system_id":"levelo_inurba_marseille","lat":43.29802,"lon":5.38094,"is_reserved":false,"is_disabled":false,"rental_uris":{"android":"levelo://app?vid=5c927f5c-9b43-4fd3-9e1d-f6641c8cfbee","ios":"levelo://app?vid=5c927f5c-9b43-4fd3-9e1d-f6641c8cfbee"},"vehicle_type_id":"4","last_reported":1679130398,"current_range_meters":5200,"station_id":"ce4bgip2rcd13ifvqbb0","pricing_plan_id":"free"},{"bike_id":"e35938dd-e7dd-4ab4-b08c-b5dc0afc3d43","system_id":"levelo_inurba_marseille","lat":43.298,"lon":5.38102,"is_reserved":false,"is_disabled":false,"rental_uris":{"android":"levelo://app?vid=e35938dd-e7dd-4ab4-b08c-b5dc0afc3d43","ios":"levelo://app?vid=e35938dd-e7dd-4ab4-b08c-b5dc0afc3d43"},"vehicle_type_id":"4","last_reported":1679130398,"current_range_meters":20000,"station_id":"ce4bgip2rcd13ifvqbb0","pricing_plan_id":"free"},{"bike_id":"1a939cbb-1d2a-4db3-97c9-059e2aa1588c","system_id":"levelo_inurba_marseille","lat":43.304274,"lon":5.388873,"is_reserved":false,"is_disabled":false,"rental_uris":{"android":"levelo://app?vid=1a939cbb-1d2a-4db3-97c9-059e2aa1588c","ios":"levelo://app?vid=1a939cbb-1d2a-4db3-97c9-059e2aa1588c"},"vehicle_type_id":"4","last_reported":1679130398,"current_range_meters":31600,"station_id":"ce4bgk12rcd13ifvqbi0","pricing_plan_id":"free"},{"bike_id":"5d52592c-0d6c-4119-b079-88d3f5cc8582","system_id":"levelo_inurba_marseille","lat":43.304274,"lon":5.388873,"is_reserved":false,"is_disabled":false,"rental_uris":{"android":"levelo://app?vid=5d52592c-0d6c-4119-b079-88d3f5cc8582","ios":"levelo://app?vid=5d52592c-0d6c-4119-b079-88d3f5cc8582"},"vehicle_type_id":"4","last_reported":1679130398,"current_range_meters":31600,"station_id":"ce4bgk12rcd13ifvqbi0","pricing_plan_id":"free"},{"bike_id":"1bbf5843-ced7-46ca-93a0-e04ca618789b","system_id":"levelo_inurba_marseille","lat":43.304274,"lon":5.388873,"is_reserved":false,"is_disabled":false,"rental_uris":{"android":"levelo://app?vid=1bbf5843-ced7-46ca-93a0-e04ca618789b","ios":"levelo://app?vid=1bbf5843-ced7-46ca-93a0-e04ca618789b"},"vehicle_type_id":"4","last_reported":1679130398,"current_range_meters":24400,"station_id":"ce4bgk12rcd13ifvqbi0","pricing_plan_id":"free"},{"bike_id":"11c057a0-90fe-4fc5-bc6e-2bbe0527ffd6","system_id":"levelo_inurba_marseille","lat":43.295748,"lon":5.37522,"is_reserved":false,"is_disabled":false,"rental_uris":{"android":"levelo://app?vid=11c057a0-90fe-4fc5-bc6e-2bbe0527ffd6","ios":"levelo://app?vid=11c057a0-90fe-4fc5-bc6e-2bbe0527ffd6"},"vehicle_type_id":"4","last_reported":1679130398,"current_range_meters":18400,"station_id":"ce4bgh92rcd13ifvqb50","pricing_plan_id":"free"},{"bike_id":"5971bedb-4e55-4cca-a827-15c1c85bce63","system_id":"levelo_inurba_marseille","lat":43.299658,"lon":5.384948,"is_reserved":false,"is_disabled":false,"rental_uris":{"android":"levelo://app?vid=5971bedb-4e55-4cca-a827-15c1c85bce63","ios":"levelo://app?vid=5971bedb-4e55-4cca-a827-15c1c85bce63"},"vehicle_type_id":"4","last_reported":1679130398,"current_range_meters":0,"station_id":"ce4bgj92rcd13ifvqbd0","pricing_plan_id":"free"},{"bike_id":"2469836f-c334-4980-ae45-be91a52f9366","system_id":"levelo_inurba_marseille","lat":43.299707,"lon":5.384859,"is_reserved":false,"is_disabled":false,"rental_uris":{"android":"levelo://app?vid=2469836f-c334-4980-ae45-be91a52f9366","ios":"levelo://app?vid=2469836f-c334-4980-ae45-be91a52f9366"},"vehicle_type_id":"4","last_reported":1679130398,"current_range_meters":28400,"station_id":"ce4bgj92rcd13ifvqbd0","pricing_plan_id":"free"},{"bike_id":"70100082-d077-4ea2-b9c4-6cfa8ffaa675","system_id":"levelo_inurba_marseille","lat":43.323628,"lon":5.388784,"is_reserved":false,"is_disabled":false,"rental_uris":{"android":"levelo://app?vid=70100082-d077-4ea2-b9c4-6cfa8ffaa675","ios":"levelo://app?vid=70100082-d077-4ea2-b9c4-6cfa8ffaa675"},"vehicle_type_id":"4","last_reported":1679130398,"current_range_meters":10400,"station_id":"ce4bhqp2rcd13ifvqhog","pricing_plan_id":"free"},{"bike_id":"a5fe50d9-061a-4cd5-a94b-10089754ee9e","system_id":"levelo_inurba_marseille","lat":43.32367,"lon":5.388836,"is_reserved":false,"is_disabled":false,"rental_uris":{"android":"levelo://app?vid=a5fe50d9-061a-4cd5-a94b-10089754ee9e","ios":"levelo://app?vid=a5fe50d9-061a-4cd5-a94b-10089754ee9e"},"vehicle_type_id":"4","last_reported":1679130398,"current_range_meters":8800,"station_id":"ce4bhqp2rcd13ifvqhog","pricing_plan_id":"free"},{"bike_id":"38bdb383-7422-4d95-b975-4502a8dfee4d","system_id":"levelo_inurba_marseille","lat":43.32367,"lon":5.388836,"is_reserved":false,"is_disabled":false,"rental_uris":{"android":"levelo://app?vid=38bdb383-7422-4d95-b975-4502a8dfee4d","ios":"levelo://app?vid=38bdb383-7422-4d95-b975-4502a8dfee4d"},"vehicle_type_id":"4","last_reported":1679130398,"current_range_meters":20800,"station_id":"ce4bhqp2rcd13ifvqhog","pricing_plan_id":"free"},{"bike_id":"334269ac-69e9-4862-9c8e-a7d433b09adf","system_id":"levelo_inurba_marseille","lat":43.32367,"lon":5.388836,"is_reserved":false,"is_disabled":false,"rental_uris":{"android":"levelo://app?vid=334269ac-69e9-4862-9c8e-a7d433b09adf","ios":"levelo://app?vid=334269ac-69e9-4862-9c8e-a7d433b09adf"},"vehicle_type_id":"4","last_reported":1679130398,"current_range_meters":20800,"station_id":"ce4bhqp2rcd13ifvqhog","pricing_plan_id":"free"},{"bike_id":"0697f7c4-7ca8-4885-ad60-f38638fd912d","system_id":"levelo_inurba_marseille","lat":43.32367,"lon":5.388836,"is_reserved":false,"is_disabled":false,"rental_uris":{"android":"levelo://app?vid=0697f7c4-7ca8-4885-ad60-f38638fd912d","ios":"levelo://app?vid=0697f7c4-7ca8-4885-ad60-f38638fd912d"},"vehicle_type_id":"4","last_reported":1679130398,"current_range_meters":18800,"station_id":"ce4bhqp2rcd13ifvqhog","pricing_plan_id":"free"},{"bike_id":"5fffa38b-9798-493f-a8ec-522c9a5b701c","system_id":"levelo_inurba_marseille","lat":43.32368,"lon":5.38884,"is_reserved":false,"is_disabled":false,"rental_uris":{"android":"levelo://app?vid=5fffa38b-9798-493f-a8ec-522c9a5b701c","ios":"levelo://app?vid=5fffa38b-9798-493f-a8ec-522c9a5b701c"},"vehicle_type_id":"4","last_reported":1679130398,"current_range_meters":27600,"station_id":"ce4bhqp2rcd13ifvqhog","pricing_plan_id":"free"},{"bike_id":"0474e54e-e46c-492b-88a0-c26758345b61","system_id":"levelo_inurba_marseille","lat":43.293,"lon":5.37447,"is_reserved":false,"is_disabled":false,"rental_uris":{"android":"levelo://app?vid=0474e54e-e46c-492b-88a0-c26758345b61","ios":"levelo://app?vid=0474e54e-e46c-492b-88a0-c26758345b61"},"vehicle_type_id":"4","last_reported":1679130398,"current_range_meters":0,"station_id":"ce4bgi12rcd13ifvqb70","pricing_plan_id":"free"},{"bike_id":"fa906491-ef3e-40d7-ab9a-b5cda037e1f9","system_id":"levelo_inurba_marseille","lat":43.293009,"lon":5.374584,"is_reserved":false,"is_disabled":false,"rental_uris":{"android":"levelo://app?vid=fa906491-ef3e-40d7-ab9a-b5cda037e1f9","ios":"levelo://app?vid=fa906491-ef3e-40d7-ab9a-b5cda037e1f9"},"vehicle_type_id":"4","last_reported":1679130398,"current_range_meters":31600,"station_id":"ce4bgi12rcd13ifvqb70","pricing_plan_id":"free"},{"bike_id":"c3cb2063-4fa0-4921-a561-69509eb8757e","system_id":"levelo_inurba_marseille","lat":43.2936,"lon":5.37835,"is_reserved":false,"is_disabled":false,"rental_uris":{"android":"levelo://app?vid=c3cb2063-4fa0-4921-a561-69509eb8757e","ios":"levelo://app?vid=c3cb2063-4fa0-4921-a561-69509eb8757e"},"vehicle_type_id":"4","last_reported":1679130398,"current_range_meters":19600,"station_id":"ce4bgjh2rcd13ifvqbf0","pricing_plan_id":"free"},{"bike_id":"e0bc3a7e-c416-4e0d-adb5-7768306b6b24","system_id":"levelo_inurba_marseille","lat":43.29359,"lon":5.378361,"is_reserved":false,"is_disabled":false,"rental_uris":{"android":"levelo://app?vid=e0bc3a7e-c416-4e0d-adb5-7768306b6b24","ios":"levelo://app?vid=e0bc3a7e-c416-4e0d-adb5-7768306b6b24"},"vehicle_type_id":"4","last_reported":1679130398,"current_range_meters":14400,"station_id":"ce4bgjh2rcd13ifvqbf0","pricing_plan_id":"free"},{"bike_id":"4ebb43ea-c03f-4a65-90f9-3b97998cc3d1","system_id":"levelo_inurba_marseille","lat":43.2917,"lon":5.37162,"is_reserved":false,"is_disabled":false,"rental_uris":{"android":"levelo://app?vid=4ebb43ea-c03f-4a65-90f9-3b97998cc3d1","ios":"levelo://app?vid=4ebb43ea-c03f-4a65-90f9-3b97998cc3d1"},"vehicle_type_id":"4","last_reported":1679130398,"current_range_meters":17200,"station_id":"ce4bha92rcd13ifvqeh0","pricing_plan_id":"free"},{"bike_id":"6ea8f53e-0160-480b-9d3e-0356eb3c2e2c","system_id":"levelo_inurba_marseille","lat":43.291675,"lon":5.371583,"is_reserved":false,"is_disabled":false,"rental_uris":{"android":"levelo://app?vid=6ea8f53e-0160-480b-9d3e-0356eb3c2e2c","ios":"levelo://app?vid=6ea8f53e-0160-480b-9d3e-0356eb3c2e2c"},"vehicle_type_id":"4","last_reported":1679130398,"current_range_meters":26800,"station_id":"ce4bha92rcd13ifvqeh0","pricing_plan_id":"free"},{"bike_id":"443310e8-97a9-46d3-8684-79ca2f99ce63","system_id":"levelo_inurba_marseille","lat":43.291675,"lon":5.371583,"is_reserved":false,"is_disabled":false,"rental_uris":{"android":"levelo://app?vid=443310e8-97a9-46d3-8684-79ca2f99ce63","ios":"levelo://app?vid=443310e8-97a9-46d3-8684-79ca2f99ce63"},"vehicle_type_id":"4","last_reported":1679130398,"current_range_meters":8400,"station_id":"ce4bha92rcd13ifvqeh0","pricing_plan_id":"free"},{"bike_id":"486beaed-628f-4bcc-ba3b-e0de696bd3dc","system_id":"levelo_inurba_marseille","lat":43.322093,"lon":5.394245,"is_reserved":false,"is_disabled":false,"rental_uris":{"android":"levelo://app?vid=486beaed-628f-4bcc-ba3b-e0de696bd3dc","ios":"levelo://app?vid=486beaed-628f-4bcc-ba3b-e0de696bd3dc"},"vehicle_type_id":"4","last_reported":1679130398,"current_range_meters":11600,"station_id":"","pricing_plan_id":"free"},{"bike_id":"0fa5ccc4-ef7b-4e80-83e2-41a84319077c","system_id":"levelo_inurba_marseille","lat":43.294162,"lon":5.386292,"is_reserved":false,"is_disabled":false,"rental_uris":{"android":"levelo://app?vid=0fa5ccc4-ef7b-4e80-83e2-41a84319077c","ios":"levelo://app?vid=0fa5ccc4-ef7b-4e80-83e2-41a84319077c"},"vehicle_type_id":"4","last_reported":1679130398,"current_range_meters":27200,"station_id":"ce4bh2h2rcd13ifvqdh0","pricing_plan_id":"free"},{"bike_id":"5556885a-69b0-4609-bd65-601dc6757c9a","system_id":"levelo_inurba_marseille","lat":43.290327,"lon":5.375711,"is_reserved":false,"is_disabled":false,"rental_uris":{"android":"levelo://app?vid=5556885a-69b0-4609-bd65-601dc6757c9a","ios":"levelo://app?vid=5556885a-69b0-4609-bd65-601dc6757c9a"},"vehicle_type_id":"4","last_reported":1679130398,"current_range_meters":6800,"station_id":"ce4bh692rcd13ifvqe90","pricing_plan_id":"free"},{"bike_id":"898ec838-a476-4f8c-ab56-4967a60bfe16","system_id":"levelo_inurba_marseille","lat":43.290319,"lon":5.375732,"is_reserved":false,"is_disabled":false,"rental_uris":{"android":"levelo://app?vid=898ec838-a476-4f8c-ab56-4967a60bfe16","ios":"levelo://app?vid=898ec838-a476-4f8c-ab56-4967a60bfe16"},"vehicle_type_id":"4","last_reported":1679130398,"current_range_meters":17200,"station_id":"ce4bh692rcd13ifvqe90","pricing_plan_id":"free"},{"bike_id":"1672749d-1c55-47a2-93f6-9113a2af8ae5","system_id":"levelo_inurba_marseille","lat":43.290327,"lon":5.375711,"is_reserved":false,"is_disabled":false,"rental_uris":{"android":"levelo://app?vid=1672749d-1c55-47a2-93f6-9113a2af8ae5","ios":"levelo://app?vid=1672749d-1c55-47a2-93f6-9113a2af8ae5"},"vehicle_type_id":"4","last_reported":1679130398,"current_range_meters":22800,"station_id":"ce4bh692rcd13ifvqe90","pricing_plan_id":"free"},{"bike_id":"fb61b3be-5e22-42d5-8cb6-fcf2cc23418d","system_id":"levelo_inurba_marseille","lat":43.294152,"lon":5.386347,"is_reserved":false,"is_disabled":false,"rental_uris":{"android":"levelo://app?vid=fb61b3be-5e22-42d5-8cb6-fcf2cc23418d","ios":"levelo://app?vid=fb61b3be-5e22-42d5-8cb6-fcf2cc23418d"},"vehicle_type_id":"4","last_reported":1679130398,"current_range_meters":0,"station_id":"ce4bh2h2rcd13ifvqdh0","pricing_plan_id":"free"},{"bike_id":"09d9fd80-07c4-450b-9427-990d01b29a05","system_id":"levelo_inurba_marseille","lat":43.292644,"lon":5.384257,"is_reserved":false,"is_disabled":false,"rental_uris":{"android":"levelo://app?vid=09d9fd80-07c4-450b-9427-990d01b29a05","ios":"levelo://app?vid=09d9fd80-07c4-450b-9427-990d01b29a05"},"vehicle_type_id":"4","last_reported":1679130398,"current_range_meters":31200,"station_id":"ce4bh692rcd13ifvqea0","pricing_plan_id":"free"},{"bike_id":"f2ce0b7d-e165-4f9b-9bcb-87d2f83deb5a","system_id":"levelo_inurba_marseille","lat":43.292644,"lon":5.384257,"is_reserved":false,"is_disabled":false,"rental_uris":{"android":"levelo://app?vid=f2ce0b7d-e165-4f9b-9bcb-87d2f83deb5a","ios":"levelo://app?vid=f2ce0b7d-e165-4f9b-9bcb-87d2f83deb5a"},"vehicle_type_id":"4","last_reported":1679130398,"current_range_meters":30000,"station_id":"ce4bh692rcd13ifvqea0","pricing_plan_id":"free"},{"bike_id":"bdb5bfa7-9584-4439-b779-1c568a62f4f7","system_id":"levelo_inurba_marseille","lat":43.292644,"lon":5.384257,"is_reserved":false,"is_disabled":false,"rental_uris":{"android":"levelo://app?vid=bdb5bfa7-9584-4439-b779-1c568a62f4f7","ios":"levelo://app?vid=bdb5bfa7-9584-4439-b779-1c568a62f4f7"},"vehicle_type_id":"4","last_reported":1679130398,"current_range_meters":31600,"station_id":"ce4bh692rcd13ifvqea0","pricing_plan_id":"free"},{"bike_id":"05853736-fbf5-4b59-90da-03c5dffb3a16","system_id":"levelo_inurba_marseille","lat":43.292644,"lon":5.384257,"is_reserved":false,"is_disabled":false,"rental_uris":{"android":"levelo://app?vid=05853736-fbf5-4b59-90da-03c5dffb3a16","ios":"levelo://app?vid=05853736-fbf5-4b59-90da-03c5dffb3a16"},"vehicle_type_id":"4","last_reported":1679130398,"current_range_meters":400,"station_id":"ce4bh692rcd13ifvqea0","pricing_plan_id":"free"},{"bike_id":"9dad7b6d-05a6-4811-8d70-d0de5b51c2d7","system_id":"levelo_inurba_marseille","lat":43.330442,"lon":5.389148,"is_reserved":false,"is_disabled":false,"rental_uris":{"android":"levelo://app?vid=9dad7b6d-05a6-4811-8d70-d0de5b51c2d7","ios":"levelo://app?vid=9dad7b6d-05a6-4811-8d70-d0de5b51c2d7"},"vehicle_type_id":"4","last_reported":1679130398,"current_range_meters":31600,"station_id":"ce4bhr92rcd13ifvqhrg","pricing_plan_id":"free"},{"bike_id":"b799def0-bf00-4409-9ba7-8bddf8c3051d","system_id":"levelo_inurba_marseille","lat":43.330442,"lon":5.389148,"is_reserved":false,"is_disabled":false,"rental_uris":{"android":"levelo://app?vid=b799def0-bf00-4409-9ba7-8bddf8c3051d","ios":"levelo://app?vid=b799def0-bf00-4409-9ba7-8bddf8c3051d"},"vehicle_type_id":"4","last_reported":1679130398,"current_range_meters":30000,"station_id":"ce4bhr92rcd13ifvqhrg","pricing_plan_id":"free"},{"bike_id":"23ea9f68-ae8c-426e-bd80-5d4f6a9bb37d","system_id":"levelo_inurba_marseille","lat":43.330442,"lon":5.389148,"is_reserved":false,"is_disabled":false,"rental_uris":{"android":"levelo://app?vid=23ea9f68-ae8c-426e-bd80-5d4f6a9bb37d","ios":"levelo://app?vid=23ea9f68-ae8c-426e-bd80-5d4f6a9bb37d"},"vehicle_type_id":"4","last_reported":1679130398,"current_range_meters":17200,"station_id":"ce4bhr92rcd13ifvqhrg","pricing_plan_id":"free"},{"bike_id":"b5c1214a-e2ce-4496-9b74-f5b30cbdd3bc","system_id":"levelo_inurba_marseille","lat":43.3304,"lon":5.38919,"is_reserved":false,"is_disabled":false,"rental_uris":{"android":"levelo://app?vid=b5c1214a-e2ce-4496-9b74-f5b30cbdd3bc","ios":"levelo://app?vid=b5c1214a-e2ce-4496-9b74-f5b30cbdd3bc"},"vehicle_type_id":"4","last_reported":1679130398,"current_range_meters":7200,"station_id":"","pricing_plan_id":"free"},{"bike_id":"d74aa3e9-0c22-406f-a29f-3cd2f43e1816","system_id":"levelo_inurba_marseille","lat":43.330442,"lon":5.389148,"is_reserved":false,"is_disabled":false,"rental_uris":{"android":"levelo://app?vid=d74aa3e9-0c22-406f-a29f-3cd2f43e1816","ios":"levelo://app?vid=d74aa3e9-0c22-406f-a29f-3cd2f43e1816"},"vehicle_type_id":"4","last_reported":1679130398,"current_range_meters":16400,"station_id":"ce4bhr92rcd13ifvqhrg","pricing_plan_id":"free"},{"bike_id":"bb3b3cee-b3de-4952-b882-fa911f225f43","system_id":"levelo_inurba_marseille","lat":43.330442,"lon":5.389148,"is_reserved":false,"is_disabled":false,"rental_uris":{"android":"levelo://app?vid=bb3b3cee-b3de-4952-b882-fa911f225f43","ios":"levelo://app?vid=bb3b3cee-b3de-4952-b882-fa911f225f43"},"vehicle_type_id":"4","last_reported":1679130398,"current_range_meters":31600,"station_id":"ce4bhr92rcd13ifvqhrg","pricing_plan_id":"free"},{"bike_id":"524de86b-2883-4a80-b759-f083c92aa20c","system_id":"levelo_inurba_marseille","lat":43.330442,"lon":5.389148,"is_reserved":false,"is_disabled":false,"rental_uris":{"android":"levelo://app?vid=524de86b-2883-4a80-b759-f083c92aa20c","ios":"levelo://app?vid=524de86b-2883-4a80-b759-f083c92aa20c"},"vehicle_type_id":"4","last_reported":1679130398,"current_range_meters":8800,"station_id":"ce4bhr92rcd13ifvqhrg","pricing_plan_id":"free"},{"bike_id":"c69afdb3-4f0f-4cb6-a387-4969a018dbf0","system_id":"levelo_inurba_marseille","lat":43.330442,"lon":5.389148,"is_reserved":false,"is_disabled":false,"rental_uris":{"android":"levelo://app?vid=c69afdb3-4f0f-4cb6-a387-4969a018dbf0","ios":"levelo://app?vid=c69afdb3-4f0f-4cb6-a387-4969a018dbf0"},"vehicle_type_id":"4","last_reported":1679130398,"current_range_meters":22000,"station_id":"ce4bhr92rcd13ifvqhrg","pricing_plan_id":"free"},{"bike_id":"b645b1c0-4f3a-4d67-ab93-92144cf6a689","system_id":"levelo_inurba_marseille","lat":43.33042,"lon":5.38925,"is_reserved":false,"is_disabled":false,"rental_uris":{"android":"levelo://app?vid=b645b1c0-4f3a-4d67-ab93-92144cf6a689","ios":"levelo://app?vid=b645b1c0-4f3a-4d67-ab93-92144cf6a689"},"vehicle_type_id":"4","last_reported":1679130398,"current_range_meters":21200,"station_id":"ce4bhr92rcd13ifvqhrg","pricing_plan_id":"free"},{"bike_id":"40fa3a1a-2ecc-435c-868f-43dec3f32230","system_id":"levelo_inurba_marseille","lat":43.330442,"lon":5.389148,"is_reserved":false,"is_disabled":false,"rental_uris":{"android":"levelo://app?vid=40fa3a1a-2ecc-435c-868f-43dec3f32230","ios":"levelo://app?vid=40fa3a1a-2ecc-435c-868f-43dec3f32230"},"vehicle_type_id":"4","last_reported":1679130398,"current_range_meters":21200,"station_id":"ce4bhr92rcd13ifvqhrg","pricing_plan_id":"free"},{"bike_id":"f0888a5d-8469-4a4a-aa32-e51183159fbe","system_id":"levelo_inurba_marseille","lat":43.337437,"lon":5.374608,"is_reserved":false,"is_disabled":false,"rental_uris":{"android":"levelo://app?vid=f0888a5d-8469-4a4a-aa32-e51183159fbe","ios":"levelo://app?vid=f0888a5d-8469-4a4a-aa32-e51183159fbe"},"vehicle_type_id":"4","last_reported":1679130398,"current_range_meters":12400,"station_id":"","pricing_plan_id":"free"},{"bike_id":"97a70748-85a2-4139-aa8d-3426ee2a5b86","system_id":"levelo_inurba_marseille","lat":43.337501,"lon":5.374448,"is_reserved":false,"is_disabled":false,"rental_uris":{"android":"levelo://app?vid=97a70748-85a2-4139-aa8d-3426ee2a5b86","ios":"levelo://app?vid=97a70748-85a2-4139-aa8d-3426ee2a5b86"},"vehicle_type_id":"4","last_reported":1679130398,"current_range_meters":0,"station_id":"","pricing_plan_id":"free"},{"bike_id":"3691d997-1cad-46ed-b7e6-586680d35f2f","system_id":"levelo_inurba_marseille","lat":43.33747,"lon":5.374755,"is_reserved":false,"is_disabled":false,"rental_uris":{"android":"levelo://app?vid=3691d997-1cad-46ed-b7e6-586680d35f2f","ios":"levelo://app?vid=3691d997-1cad-46ed-b7e6-586680d35f2f"},"vehicle_type_id":"4","last_reported":1679130398,"current_range_meters":22400,"station_id":"","pricing_plan_id":"free"},{"bike_id":"f3e60a9c-2b74-43cb-ac11-5dfafdbb73c0","system_id":"levelo_inurba_marseille","lat":43.337561,"lon":5.37461,"is_reserved":false,"is_disabled":false,"rental_uris":{"android":"levelo://app?vid=f3e60a9c-2b74-43cb-ac11-5dfafdbb73c0","ios":"levelo://app?vid=f3e60a9c-2b74-43cb-ac11-5dfafdbb73c0"},"vehicle_type_id":"4","last_reported":1679130398,"current_range_meters":27600,"station_id":"","pricing_plan_id":"free"},{"bike_id":"7d8123dd-d5d0-4bc1-b347-f4b12a3175c2","system_id":"levelo_inurba_marseille","lat":43.300745,"lon":5.399556,"is_reserved":false,"is_disabled":false,"rental_uris":{"android":"levelo://app?vid=7d8123dd-d5d0-4bc1-b347-f4b12a3175c2","ios":"levelo://app?vid=7d8123dd-d5d0-4bc1-b347-f4b12a3175c2"},"vehicle_type_id":"4","last_reported":1679130398,"current_range_meters":0,"station_id":"","pricing_plan_id":"free"},{"bike_id":"c2e7b115-a596-4887-90b4-073ad1eb4652","system_id":"levelo_inurba_marseille","lat":43.311992,"lon":5.404168,"is_reserved":false,"is_disabled":false,"rental_uris":{"android":"levelo://app?vid=c2e7b115-a596-4887-90b4-073ad1eb4652","ios":"levelo://app?vid=c2e7b115-a596-4887-90b4-073ad1eb4652"},"vehicle_type_id":"4","last_reported":1679130398,"current_range_meters":0,"station_id":"","pricing_plan_id":"free"},{"bike_id":"9ba17943-9b60-40e6-a2f1-8ef46c90ca70","system_id":"levelo_inurba_marseille","lat":43.31647,"lon":5.40435,"is_reserved":false,"is_disabled":false,"rental_uris":{"android":"levelo://app?vid=9ba17943-9b60-40e6-a2f1-8ef46c90ca70","ios":"levelo://app?vid=9ba17943-9b60-40e6-a2f1-8ef46c90ca70"},"vehicle_type_id":"4","last_reported":1679130398,"current_range_meters":19200,"station_id":"ce4bh012rcd13ifvqd00","pricing_plan_id":"free"},{"bike_id":"a23b46b9-6af7-488f-a1de-28317dc0a36f","system_id":"levelo_inurba_marseille","lat":43.31645,"lon":5.40438,"is_reserved":false,"is_disabled":false,"rental_uris":{"android":"levelo://app?vid=a23b46b9-6af7-488f-a1de-28317dc0a36f","ios":"levelo://app?vid=a23b46b9-6af7-488f-a1de-28317dc0a36f"},"vehicle_type_id":"4","last_reported":1679130398,"current_range_meters":29600,"station_id":"","pricing_plan_id":"free"},{"bike_id":"516debef-fc21-4abd-9f22-13ab642323fe","system_id":"levelo_inurba_marseille","lat":43.31637,"lon":5.40441,"is_reserved":false,"is_disabled":false,"rental_uris":{"android":"levelo://app?vid=516debef-fc21-4abd-9f22-13ab642323fe","ios":"levelo://app?vid=516debef-fc21-4abd-9f22-13ab642323fe"},"vehicle_type_id":"4","last_reported":1679130398,"current_range_meters":30400,"station_id":"ce4bh012rcd13ifvqd00","pricing_plan_id":"free"},{"bike_id":"bca46c2c-6dc9-465a-b416-6a83188e9d2b","system_id":"levelo_inurba_marseille","lat":43.316517,"lon":5.404375,"is_reserved":false,"is_disabled":false,"rental_uris":{"android":"levelo://app?vid=bca46c2c-6dc9-465a-b416-6a83188e9d2b","ios":"levelo://app?vid=bca46c2c-6dc9-465a-b416-6a83188e9d2b"},"vehicle_type_id":"4","last_reported":1679130398,"current_range_meters":27600,"station_id":"ce4bh012rcd13ifvqd00","pricing_plan_id":"free"},{"bike_id":"d22b3b9f-5614-454b-bc04-4b2e35f0cb31","system_id":"levelo_inurba_marseille","lat":43.316517,"lon":5.404375,"is_reserved":false,"is_disabled":false,"rental_uris":{"android":"levelo://app?vid=d22b3b9f-5614-454b-bc04-4b2e35f0cb31","ios":"levelo://app?vid=d22b3b9f-5614-454b-bc04-4b2e35f0cb31"},"vehicle_type_id":"4","last_reported":1679130398,"current_range_meters":31600,"station_id":"ce4bh012rcd13ifvqd00","pricing_plan_id":"free"},{"bike_id":"8fa3f462-b05d-4dbd-8461-108cbf61fd3b","system_id":"levelo_inurba_marseille","lat":43.285406,"lon":5.383878,"is_reserved":false,"is_disabled":false,"rental_uris":{"android":"levelo://app?vid=8fa3f462-b05d-4dbd-8461-108cbf61fd3b","ios":"levelo://app?vid=8fa3f462-b05d-4dbd-8461-108cbf61fd3b"},"vehicle_type_id":"4","last_reported":1679130398,"current_range_meters":0,"station_id":"","pricing_plan_id":"free"},{"bike_id":"0b78fa95-996e-4416-8ef4-27f9d9ef3e48","system_id":"levelo_inurba_marseille","lat":43.32333,"lon":5.40615,"is_reserved":false,"is_disabled":false,"rental_uris":{"android":"levelo://app?vid=0b78fa95-996e-4416-8ef4-27f9d9ef3e48","ios":"levelo://app?vid=0b78fa95-996e-4416-8ef4-27f9d9ef3e48"},"vehicle_type_id":"4","last_reported":1679130398,"current_range_meters":0,"station_id":"","pricing_plan_id":"free"},{"bike_id":"80ba76b4-d3c8-4ede-bc79-5a13e5122b90","system_id":"levelo_inurba_marseille","lat":43.32339,"lon":5.40616,"is_reserved":false,"is_disabled":false,"rental_uris":{"android":"levelo://app?vid=80ba76b4-d3c8-4ede-bc79-5a13e5122b90","ios":"levelo://app?vid=80ba76b4-d3c8-4ede-bc79-5a13e5122b90"},"vehicle_type_id":"4","last_reported":1679130398,"current_range_meters":29200,"station_id":"","pricing_plan_id":"free"},{"bike_id":"7da50cf2-84b2-4cdc-90b1-294cf45698cb","system_id":"levelo_inurba_marseille","lat":43.32342,"lon":5.40619,"is_reserved":false,"is_disabled":false,"rental_uris":{"android":"levelo://app?vid=7da50cf2-84b2-4cdc-90b1-294cf45698cb","ios":"levelo://app?vid=7da50cf2-84b2-4cdc-90b1-294cf45698cb"},"vehicle_type_id":"4","last_reported":1679130398,"current_range_meters":8800,"station_id":"ce4bhq92rcd13ifvqhjg","pricing_plan_id":"free"},{"bike_id":"5f9f6a68-b7bd-4e7c-81f2-8596a29c1b98","system_id":"levelo_inurba_marseille","lat":43.32338,"lon":5.40625,"is_reserved":false,"is_disabled":false,"rental_uris":{"android":"levelo://app?vid=5f9f6a68-b7bd-4e7c-81f2-8596a29c1b98","ios":"levelo://app?vid=5f9f6a68-b7bd-4e7c-81f2-8596a29c1b98"},"vehicle_type_id":"4","last_reported":1679130398,"current_range_meters":0,"station_id":"ce4bhq92rcd13ifvqhjg","pricing_plan_id":"free"},{"bike_id":"86f21565-ead4-4f94-900d-afe60fc77c4a","system_id":"levelo_inurba_marseille","lat":43.28423,"lon":5.34976,"is_reserved":false,"is_disabled":false,"rental_uris":{"android":"levelo://app?vid=86f21565-ead4-4f94-900d-afe60fc77c4a","ios":"levelo://app?vid=86f21565-ead4-4f94-900d-afe60fc77c4a"},"vehicle_type_id":"4","last_reported":1679130398,"current_range_meters":24800,"station_id":"ce4bhbh2rcd13ifvqepg","pricing_plan_id":"free"},{"bike_id":"a9fa942d-c0c5-4224-b3a9-28f3c15e0f9d","system_id":"levelo_inurba_marseille","lat":43.284219,"lon":5.3497,"is_reserved":false,"is_disabled":false,"rental_uris":{"android":"levelo://app?vid=a9fa942d-c0c5-4224-b3a9-28f3c15e0f9d","ios":"levelo://app?vid=a9fa942d-c0c5-4224-b3a9-28f3c15e0f9d"},"vehicle_type_id":"4","last_reported":1679130398,"current_range_meters":400,"station_id":"ce4bhbh2rcd13ifvqepg","pricing_plan_id":"free"},{"bike_id":"bd85ab80-8e47-4eaf-8252-004322c2139b","system_id":"levelo_inurba_marseille","lat":43.282754,"lon":5.350519,"is_reserved":false,"is_disabled":false,"rental_uris":{"android":"levelo://app?vid=bd85ab80-8e47-4eaf-8252-004322c2139b","ios":"levelo://app?vid=bd85ab80-8e47-4eaf-8252-004322c2139b"},"vehicle_type_id":"4","last_reported":1679130398,"current_range_meters":31600,"station_id":"ce4bhbp2rcd13ifvqerg","pricing_plan_id":"free"},{"bike_id":"b0dccff7-f19d-40cc-b572-de795b5bc827","system_id":"levelo_inurba_marseille","lat":43.282754,"lon":5.350519,"is_reserved":false,"is_disabled":false,"rental_uris":{"android":"levelo://app?vid=b0dccff7-f19d-40cc-b572-de795b5bc827","ios":"levelo://app?vid=b0dccff7-f19d-40cc-b572-de795b5bc827"},"vehicle_type_id":"4","last_reported":1679130398,"current_range_meters":6800,"station_id":"ce4bhbp2rcd13ifvqerg","pricing_plan_id":"free"},{"bike_id":"a722ff41-c578-4f88-ac99-91d2ed0c5dca","system_id":"levelo_inurba_marseille","lat":43.28039,"lon":5.369297,"is_reserved":false,"is_disabled":false,"rental_uris":{"android":"levelo://app?vid=a722ff41-c578-4f88-ac99-91d2ed0c5dca","ios":"levelo://app?vid=a722ff41-c578-4f88-ac99-91d2ed0c5dca"},"vehicle_type_id":"4","last_reported":1679130398,"current_range_meters":29200,"station_id":"ce4bha12rcd13ifvqef0","pricing_plan_id":"free"},{"bike_id":"a8b6c8f6-d4c0-4099-be83-af8ae92927f3","system_id":"levelo_inurba_marseille","lat":43.28443,"lon":5.391858,"is_reserved":false,"is_disabled":false,"rental_uris":{"android":"levelo://app?vid=a8b6c8f6-d4c0-4099-be83-af8ae92927f3","ios":"levelo://app?vid=a8b6c8f6-d4c0-4099-be83-af8ae92927f3"},"vehicle_type_id":"4","last_reported":1679130398,"current_range_meters":0,"station_id":"","pricing_plan_id":"free"},{"bike_id":"45393937-dcaf-44fb-9447-7c776899be08","system_id":"levelo_inurba_marseille","lat":43.304188,"lon":5.412904,"is_reserved":false,"is_disabled":false,"rental_uris":{"android":"levelo://app?vid=45393937-dcaf-44fb-9447-7c776899be08","ios":"levelo://app?vid=45393937-dcaf-44fb-9447-7c776899be08"},"vehicle_type_id":"4","last_reported":1679130398,"current_range_meters":18800,"station_id":"ce4bhop2rcd13ifvqh8g","pricing_plan_id":"free"},{"bike_id":"fd94f329-7a13-4190-8e3c-0c1eb267c7ec","system_id":"levelo_inurba_marseille","lat":43.304188,"lon":5.412904,"is_reserved":false,"is_disabled":false,"rental_uris":{"android":"levelo://app?vid=fd94f329-7a13-4190-8e3c-0c1eb267c7ec","ios":"levelo://app?vid=fd94f329-7a13-4190-8e3c-0c1eb267c7ec"},"vehicle_type_id":"4","last_reported":1679130398,"current_range_meters":24400,"station_id":"ce4bhop2rcd13ifvqh8g","pricing_plan_id":"free"},{"bike_id":"2f032b77-131f-41ac-bb8c-c73cf83f7ea0","system_id":"levelo_inurba_marseille","lat":43.304188,"lon":5.412904,"is_reserved":false,"is_disabled":false,"rental_uris":{"android":"levelo://app?vid=2f032b77-131f-41ac-bb8c-c73cf83f7ea0","ios":"levelo://app?vid=2f032b77-131f-41ac-bb8c-c73cf83f7ea0"},"vehicle_type_id":"4","last_reported":1679130398,"current_range_meters":27600,"station_id":"ce4bhop2rcd13ifvqh8g","pricing_plan_id":"free"},{"bike_id":"ac26a89f-860a-4ae6-aff3-af283aaa0485","system_id":"levelo_inurba_marseille","lat":43.320045,"lon":5.415048,"is_reserved":false,"is_disabled":false,"rental_uris":{"android":"levelo://app?vid=ac26a89f-860a-4ae6-aff3-af283aaa0485","ios":"levelo://app?vid=ac26a89f-860a-4ae6-aff3-af283aaa0485"},"vehicle_type_id":"4","last_reported":1679130398,"current_range_meters":28400,"station_id":"ce4bhq92rcd13ifvqhkg","pricing_plan_id":"free"},{"bike_id":"c34d57ec-4476-4cc1-a06c-036c66df0b9d","system_id":"levelo_inurba_marseille","lat":43.320045,"lon":5.415048,"is_reserved":false,"is_disabled":false,"rental_uris":{"android":"levelo://app?vid=c34d57ec-4476-4cc1-a06c-036c66df0b9d","ios":"levelo://app?vid=c34d57ec-4476-4cc1-a06c-036c66df0b9d"},"vehicle_type_id":"4","last_reported":1679130398,"current_range_meters":23600,"station_id":"ce4bhq92rcd13ifvqhkg","pricing_plan_id":"free"},{"bike_id":"53313bda-b6c3-49f2-9ae1-f6929bc8dab2","system_id":"levelo_inurba_marseille","lat":43.320045,"lon":5.415048,"is_reserved":false,"is_disabled":false,"rental_uris":{"android":"levelo://app?vid=53313bda-b6c3-49f2-9ae1-f6929bc8dab2","ios":"levelo://app?vid=53313bda-b6c3-49f2-9ae1-f6929bc8dab2"},"vehicle_type_id":"4","last_reported":1679130398,"current_range_meters":31600,"station_id":"ce4bhq92rcd13ifvqhkg","pricing_plan_id":"free"},{"bike_id":"0639489d-1295-4cb2-a2d6-4bb0b0fc90f6","system_id":"levelo_inurba_marseille","lat":43.320045,"lon":5.415048,"is_reserved":false,"is_disabled":false,"rental_uris":{"android":"levelo://app?vid=0639489d-1295-4cb2-a2d6-4bb0b0fc90f6","ios":"levelo://app?vid=0639489d-1295-4cb2-a2d6-4bb0b0fc90f6"},"vehicle_type_id":"4","last_reported":1679130398,"current_range_meters":31600,"station_id":"ce4bhq92rcd13ifvqhkg","pricing_plan_id":"free"},{"bike_id":"9d002998-c479-45f0-879d-1bd38fbf953b","system_id":"levelo_inurba_marseille","lat":43.32475,"lon":5.414337,"is_reserved":false,"is_disabled":false,"rental_uris":{"android":"levelo://app?vid=9d002998-c479-45f0-879d-1bd38fbf953b","ios":"levelo://app?vid=9d002998-c479-45f0-879d-1bd38fbf953b"},"vehicle_type_id":"4","last_reported":1679130398,"current_range_meters":11200,"station_id":"","pricing_plan_id":"free"},{"bike_id":"bc364417-e08f-4fe6-a43e-20e9149a8c4a","system_id":"levelo_inurba_marseille","lat":43.292569,"lon":5.409107,"is_reserved":false,"is_disabled":false,"rental_uris":{"android":"levelo://app?vid=bc364417-e08f-4fe6-a43e-20e9149a8c4a","ios":"levelo://app?vid=bc364417-e08f-4fe6-a43e-20e9149a8c4a"},"vehicle_type_id":"4","last_reported":1679130398,"current_range_meters":18400,"station_id":"ce4bh192rcd13ifvqdc0","pricing_plan_id":"free"},{"bike_id":"c414d882-0c84-4eeb-b931-bc8968f7e3bb","system_id":"levelo_inurba_marseille","lat":43.32542,"lon":5.41439,"is_reserved":false,"is_disabled":false,"rental_uris":{"android":"levelo://app?vid=c414d882-0c84-4eeb-b931-bc8968f7e3bb","ios":"levelo://app?vid=c414d882-0c84-4eeb-b931-bc8968f7e3bb"},"vehicle_type_id":"4","last_reported":1679130398,"current_range_meters":16400,"station_id":"","pricing_plan_id":"free"},{"bike_id":"d5803fca-a710-48b0-a57a-86b78c822cf5","system_id":"levelo_inurba_marseille","lat":43.325233,"lon":5.414318,"is_reserved":false,"is_disabled":false,"rental_uris":{"android":"levelo://app?vid=d5803fca-a710-48b0-a57a-86b78c822cf5","ios":"levelo://app?vid=d5803fca-a710-48b0-a57a-86b78c822cf5"},"vehicle_type_id":"4","last_reported":1679130398,"current_range_meters":31600,"station_id":"ce4bhq12rcd13ifvqhhg","pricing_plan_id":"free"},{"bike_id":"8426f9a9-1089-44bc-ad57-be5882a542b5","system_id":"levelo_inurba_marseille","lat":43.32546,"lon":5.41438,"is_reserved":false,"is_disabled":false,"rental_uris":{"android":"levelo://app?vid=8426f9a9-1089-44bc-ad57-be5882a542b5","ios":"levelo://app?vid=8426f9a9-1089-44bc-ad57-be5882a542b5"},"vehicle_type_id":"4","last_reported":1679130398,"current_range_meters":28000,"station_id":"","pricing_plan_id":"free"},{"bike_id":"4c0a5127-e076-4597-8806-354b19081763","system_id":"levelo_inurba_marseille","lat":43.325233,"lon":5.414318,"is_reserved":false,"is_disabled":false,"rental_uris":{"android":"levelo://app?vid=4c0a5127-e076-4597-8806-354b19081763","ios":"levelo://app?vid=4c0a5127-e076-4597-8806-354b19081763"},"vehicle_type_id":"4","last_reported":1679130398,"current_range_meters":31600,"station_id":"ce4bhq12rcd13ifvqhhg","pricing_plan_id":"free"},{"bike_id":"c9c8c466-2670-4bc2-b13b-070b2f06b5f2","system_id":"levelo_inurba_marseille","lat":43.32544,"lon":5.4144,"is_reserved":false,"is_disabled":false,"rental_uris":{"android":"levelo://app?vid=c9c8c466-2670-4bc2-b13b-070b2f06b5f2","ios":"levelo://app?vid=c9c8c466-2670-4bc2-b13b-070b2f06b5f2"},"vehicle_type_id":"4","last_reported":1679130398,"current_range_meters":9600,"station_id":"","pricing_plan_id":"free"},{"bike_id":"0c668e4e-e0a5-4c13-8369-a5a145cb4df9","system_id":"levelo_inurba_marseille","lat":43.325243,"lon":5.414326,"is_reserved":false,"is_disabled":false,"rental_uris":{"android":"levelo://app?vid=0c668e4e-e0a5-4c13-8369-a5a145cb4df9","ios":"levelo://app?vid=0c668e4e-e0a5-4c13-8369-a5a145cb4df9"},"vehicle_type_id":"4","last_reported":1679130398,"current_range_meters":31600,"station_id":"ce4bhq12rcd13ifvqhhg","pricing_plan_id":"free"},{"bike_id":"32c6f58d-e99a-4136-b7b7-9ae50594571f","system_id":"levelo_inurba_marseille","lat":43.325243,"lon":5.414326,"is_reserved":false,"is_disabled":false,"rental_uris":{"android":"levelo://app?vid=32c6f58d-e99a-4136-b7b7-9ae50594571f","ios":"levelo://app?vid=32c6f58d-e99a-4136-b7b7-9ae50594571f"},"vehicle_type_id":"4","last_reported":1679130398,"current_range_meters":26400,"station_id":"ce4bhq12rcd13ifvqhhg","pricing_plan_id":"free"},{"bike_id":"1fcc799d-f7a6-41a4-a72c-851db06557f6","system_id":"levelo_inurba_marseille","lat":43.336134,"lon":5.410341,"is_reserved":false,"is_disabled":false,"rental_uris":{"android":"levelo://app?vid=1fcc799d-f7a6-41a4-a72c-851db06557f6","ios":"levelo://app?vid=1fcc799d-f7a6-41a4-a72c-851db06557f6"},"vehicle_type_id":"4","last_reported":1679130398,"current_range_meters":31600,"station_id":"ce4bhqh2rcd13ifvqhmg","pricing_plan_id":"free"},{"bike_id":"86a1b167-223a-4ef7-8830-5d1b683f711f","system_id":"levelo_inurba_marseille","lat":43.336148,"lon":5.410349,"is_reserved":false,"is_disabled":false,"rental_uris":{"android":"levelo://app?vid=86a1b167-223a-4ef7-8830-5d1b683f711f","ios":"levelo://app?vid=86a1b167-223a-4ef7-8830-5d1b683f711f"},"vehicle_type_id":"4","last_reported":1679130398,"current_range_meters":31600,"station_id":"ce4bhqh2rcd13ifvqhmg","pricing_plan_id":"free"},{"bike_id":"3e398d2e-cfd7-4b2e-91ac-0826b401e2ed","system_id":"levelo_inurba_marseille","lat":43.336148,"lon":5.410349,"is_reserved":false,"is_disabled":false,"rental_uris":{"android":"levelo://app?vid=3e398d2e-cfd7-4b2e-91ac-0826b401e2ed","ios":"levelo://app?vid=3e398d2e-cfd7-4b2e-91ac-0826b401e2ed"},"vehicle_type_id":"4","last_reported":1679130398,"current_range_meters":31600,"station_id":"ce4bhqh2rcd13ifvqhmg","pricing_plan_id":"free"},{"bike_id":"03bf721f-fa7b-4e9d-b8f8-21712a735b70","system_id":"levelo_inurba_marseille","lat":43.336148,"lon":5.410349,"is_reserved":false,"is_disabled":false,"rental_uris":{"android":"levelo://app?vid=03bf721f-fa7b-4e9d-b8f8-21712a735b70","ios":"levelo://app?vid=03bf721f-fa7b-4e9d-b8f8-21712a735b70"},"vehicle_type_id":"4","last_reported":1679130398,"current_range_meters":30000,"station_id":"ce4bhqh2rcd13ifvqhmg","pricing_plan_id":"free"},{"bike_id":"683942c8-a326-4600-a465-de8bfc28836e","system_id":"levelo_inurba_marseille","lat":43.336148,"lon":5.410349,"is_reserved":false,"is_disabled":false,"rental_uris":{"android":"levelo://app?vid=683942c8-a326-4600-a465-de8bfc28836e","ios":"levelo://app?vid=683942c8-a326-4600-a465-de8bfc28836e"},"vehicle_type_id":"4","last_reported":1679130398,"current_range_meters":31600,"station_id":"ce4bhqh2rcd13ifvqhmg","pricing_plan_id":"free"},{"bike_id":"a575a2f9-3307-4dc1-b894-76da5ed3793e","system_id":"levelo_inurba_marseille","lat":43.33604,"lon":5.41034,"is_reserved":false,"is_disabled":false,"rental_uris":{"android":"levelo://app?vid=a575a2f9-3307-4dc1-b894-76da5ed3793e","ios":"levelo://app?vid=a575a2f9-3307-4dc1-b894-76da5ed3793e"},"vehicle_type_id":"4","last_reported":1679130398,"current_range_meters":24000,"station_id":"ce4bhqh2rcd13ifvqhmg","pricing_plan_id":"free"},{"bike_id":"ed411acc-24e0-449f-96b9-d5888b534eb0","system_id":"levelo_inurba_marseille","lat":43.336134,"lon":5.410341,"is_reserved":false,"is_disabled":false,"rental_uris":{"android":"levelo://app?vid=ed411acc-24e0-449f-96b9-d5888b534eb0","ios":"levelo://app?vid=ed411acc-24e0-449f-96b9-d5888b534eb0"},"vehicle_type_id":"4","last_reported":1679130398,"current_range_meters":31200,"station_id":"ce4bhqh2rcd13ifvqhmg","pricing_plan_id":"free"},{"bike_id":"03f81e19-7645-4413-bf4d-70bbbae26897","system_id":"levelo_inurba_marseille","lat":43.336134,"lon":5.410341,"is_reserved":false,"is_disabled":false,"rental_uris":{"android":"levelo://app?vid=03f81e19-7645-4413-bf4d-70bbbae26897","ios":"levelo://app?vid=03f81e19-7645-4413-bf4d-70bbbae26897"},"vehicle_type_id":"4","last_reported":1679130398,"current_range_meters":31200,"station_id":"ce4bhqh2rcd13ifvqhmg","pricing_plan_id":"free"},{"bike_id":"8a5b1134-272b-4294-88f9-a7d7d960b1d4","system_id":"levelo_inurba_marseille","lat":43.336134,"lon":5.410341,"is_reserved":false,"is_disabled":false,"rental_uris":{"android":"levelo://app?vid=8a5b1134-272b-4294-88f9-a7d7d960b1d4","ios":"levelo://app?vid=8a5b1134-272b-4294-88f9-a7d7d960b1d4"},"vehicle_type_id":"4","last_reported":1679130398,"current_range_meters":30400,"station_id":"ce4bhqh2rcd13ifvqhmg","pricing_plan_id":"free"},{"bike_id":"8ecd9035-33da-4efe-9cc7-35bd6404030c","system_id":"levelo_inurba_marseille","lat":43.336148,"lon":5.410349,"is_reserved":false,"is_disabled":false,"rental_uris":{"android":"levelo://app?vid=8ecd9035-33da-4efe-9cc7-35bd6404030c","ios":"levelo://app?vid=8ecd9035-33da-4efe-9cc7-35bd6404030c"},"vehicle_type_id":"4","last_reported":1679130398,"current_range_meters":28800,"station_id":"ce4bhqh2rcd13ifvqhmg","pricing_plan_id":"free"},{"bike_id":"b29fb372-5e2a-4448-b823-19347c54d4d2","system_id":"levelo_inurba_marseille","lat":43.276771,"lon":5.388799,"is_reserved":false,"is_disabled":false,"rental_uris":{"android":"levelo://app?vid=b29fb372-5e2a-4448-b823-19347c54d4d2","ios":"levelo://app?vid=b29fb372-5e2a-4448-b823-19347c54d4d2"},"vehicle_type_id":"4","last_reported":1679130398,"current_range_meters":400,"station_id":"ce4bhi12rcd13ifvqfo0","pricing_plan_id":"free"},{"bike_id":"f48d3418-6459-435b-a113-0b9e799181e4","system_id":"levelo_inurba_marseille","lat":43.29483,"lon":5.41829,"is_reserved":false,"is_disabled":false,"rental_uris":{"android":"levelo://app?vid=f48d3418-6459-435b-a113-0b9e799181e4","ios":"levelo://app?vid=f48d3418-6459-435b-a113-0b9e799181e4"},"vehicle_type_id":"4","last_reported":1679130398,"current_range_meters":0,"station_id":"","pricing_plan_id":"free"},{"bike_id":"2efb21a9-16c0-43f6-b737-57dcac4cc417","system_id":"levelo_inurba_marseille","lat":43.310785,"lon":5.424305,"is_reserved":false,"is_disabled":false,"rental_uris":{"android":"levelo://app?vid=2efb21a9-16c0-43f6-b737-57dcac4cc417","ios":"levelo://app?vid=2efb21a9-16c0-43f6-b737-57dcac4cc417"},"vehicle_type_id":"4","last_reported":1679130398,"current_range_meters":31600,"station_id":"ce4bhp92rcd13ifvqhag","pricing_plan_id":"free"},{"bike_id":"b7a56549-6b7d-497e-8496-7ff25fff6ed4","system_id":"levelo_inurba_marseille","lat":43.310785,"lon":5.424305,"is_reserved":false,"is_disabled":false,"rental_uris":{"android":"levelo://app?vid=b7a56549-6b7d-497e-8496-7ff25fff6ed4","ios":"levelo://app?vid=b7a56549-6b7d-497e-8496-7ff25fff6ed4"},"vehicle_type_id":"4","last_reported":1679130398,"current_range_meters":27600,"station_id":"ce4bhp92rcd13ifvqhag","pricing_plan_id":"free"},{"bike_id":"f3e8fb6d-352b-4dd2-b33c-1eafeef7186f","system_id":"levelo_inurba_marseille","lat":43.310785,"lon":5.424305,"is_reserved":false,"is_disabled":false,"rental_uris":{"android":"levelo://app?vid=f3e8fb6d-352b-4dd2-b33c-1eafeef7186f","ios":"levelo://app?vid=f3e8fb6d-352b-4dd2-b33c-1eafeef7186f"},"vehicle_type_id":"4","last_reported":1679130398,"current_range_meters":28000,"station_id":"ce4bhp92rcd13ifvqhag","pricing_plan_id":"free"},{"bike_id":"478ceba4-6c02-4d34-ad1a-dedf1dc05389","system_id":"levelo_inurba_marseille","lat":43.274103,"lon":5.394016,"is_reserved":false,"is_disabled":false,"rental_uris":{"android":"levelo://app?vid=478ceba4-6c02-4d34-ad1a-dedf1dc05389","ios":"levelo://app?vid=478ceba4-6c02-4d34-ad1a-dedf1dc05389"},"vehicle_type_id":"4","last_reported":1679130398,"current_range_meters":29200,"station_id":"ce4bhdp2rcd13ifvqf20","pricing_plan_id":"free"},{"bike_id":"dcf781a7-183f-4b18-a082-0731d10fe12d","system_id":"levelo_inurba_marseille","lat":43.304096,"lon":5.425385,"is_reserved":false,"is_disabled":false,"rental_uris":{"android":"levelo://app?vid=dcf781a7-183f-4b18-a082-0731d10fe12d","ios":"levelo://app?vid=dcf781a7-183f-4b18-a082-0731d10fe12d"},"vehicle_type_id":"4","last_reported":1679130398,"current_range_meters":28000,"station_id":"ce4bhoh2rcd13ifvqh6g","pricing_plan_id":"free"},{"bike_id":"d332159b-fec7-4b67-9919-be60931f34a1","system_id":"levelo_inurba_marseille","lat":43.304096,"lon":5.425385,"is_reserved":false,"is_disabled":false,"rental_uris":{"android":"levelo://app?vid=d332159b-fec7-4b67-9919-be60931f34a1","ios":"levelo://app?vid=d332159b-fec7-4b67-9919-be60931f34a1"},"vehicle_type_id":"4","last_reported":1679130398,"current_range_meters":25600,"station_id":"ce4bhoh2rcd13ifvqh6g","pricing_plan_id":"free"},{"bike_id":"4c260c9a-8730-453f-9a5e-5d3f544c6a77","system_id":"levelo_inurba_marseille","lat":43.30413,"lon":5.4254,"is_reserved":false,"is_disabled":false,"rental_uris":{"android":"levelo://app?vid=4c260c9a-8730-453f-9a5e-5d3f544c6a77","ios":"levelo://app?vid=4c260c9a-8730-453f-9a5e-5d3f544c6a77"},"vehicle_type_id":"4","last_reported":1679130398,"current_range_meters":27600,"station_id":"ce4bhoh2rcd13ifvqh6g","pricing_plan_id":"free"},{"bike_id":"c65b0f2f-ddd4-4ced-99dc-a066a8acf787","system_id":"levelo_inurba_marseille","lat":43.304096,"lon":5.425385,"is_reserved":false,"is_disabled":false,"rental_uris":{"android":"levelo://app?vid=c65b0f2f-ddd4-4ced-99dc-a066a8acf787","ios":"levelo://app?vid=c65b0f2f-ddd4-4ced-99dc-a066a8acf787"},"vehicle_type_id":"4","last_reported":1679130398,"current_range_meters":16800,"station_id":"ce4bhoh2rcd13ifvqh6g","pricing_plan_id":"free"},{"bike_id":"f6c8bd2c-a4dc-41e6-b41c-3f99f5c5dd2b","system_id":"levelo_inurba_marseille","lat":43.304096,"lon":5.425385,"is_reserved":false,"is_disabled":false,"rental_uris":{"android":"levelo://app?vid=f6c8bd2c-a4dc-41e6-b41c-3f99f5c5dd2b","ios":"levelo://app?vid=f6c8bd2c-a4dc-41e6-b41c-3f99f5c5dd2b"},"vehicle_type_id":"4","last_reported":1679130398,"current_range_meters":25600,"station_id":"ce4bhoh2rcd13ifvqh6g","pricing_plan_id":"free"},{"bike_id":"5eecbdc6-4bd3-493c-a320-5c6a01a076fb","system_id":"levelo_inurba_marseille","lat":43.304096,"lon":5.425385,"is_reserved":false,"is_disabled":false,"rental_uris":{"android":"levelo://app?vid=5eecbdc6-4bd3-493c-a320-5c6a01a076fb","ios":"levelo://app?vid=5eecbdc6-4bd3-493c-a320-5c6a01a076fb"},"vehicle_type_id":"4","last_reported":1679130398,"current_range_meters":31600,"station_id":"ce4bhoh2rcd13ifvqh6g","pricing_plan_id":"free"},{"bike_id":"97845fa5-b394-4ad4-aedb-37c067bbba4d","system_id":"levelo_inurba_marseille","lat":43.304096,"lon":5.425385,"is_reserved":false,"is_disabled":false,"rental_uris":{"android":"levelo://app?vid=97845fa5-b394-4ad4-aedb-37c067bbba4d","ios":"levelo://app?vid=97845fa5-b394-4ad4-aedb-37c067bbba4d"},"vehicle_type_id":"4","last_reported":1679130398,"current_range_meters":25200,"station_id":"ce4bhoh2rcd13ifvqh6g","pricing_plan_id":"free"},{"bike_id":"d42ef606-e766-4dbb-9a6d-8e540834e31a","system_id":"levelo_inurba_marseille","lat":43.304096,"lon":5.425385,"is_reserved":false,"is_disabled":false,"rental_uris":{"android":"levelo://app?vid=d42ef606-e766-4dbb-9a6d-8e540834e31a","ios":"levelo://app?vid=d42ef606-e766-4dbb-9a6d-8e540834e31a"},"vehicle_type_id":"4","last_reported":1679130398,"current_range_meters":26000,"station_id":"ce4bhoh2rcd13ifvqh6g","pricing_plan_id":"free"},{"bike_id":"0102a14d-1976-4b23-815b-e01f89045796","system_id":"levelo_inurba_marseille","lat":43.304096,"lon":5.425385,"is_reserved":false,"is_disabled":false,"rental_uris":{"android":"levelo://app?vid=0102a14d-1976-4b23-815b-e01f89045796","ios":"levelo://app?vid=0102a14d-1976-4b23-815b-e01f89045796"},"vehicle_type_id":"4","last_reported":1679130398,"current_range_meters":25600,"station_id":"ce4bhoh2rcd13ifvqh6g","pricing_plan_id":"free"},{"bike_id":"1930c931-7c3d-4e8f-8003-d1ac6bd13849","system_id":"levelo_inurba_marseille","lat":43.304096,"lon":5.425385,"is_reserved":false,"is_disabled":false,"rental_uris":{"android":"levelo://app?vid=1930c931-7c3d-4e8f-8003-d1ac6bd13849","ios":"levelo://app?vid=1930c931-7c3d-4e8f-8003-d1ac6bd13849"},"vehicle_type_id":"4","last_reported":1679130398,"current_range_meters":24400,"station_id":"ce4bhoh2rcd13ifvqh6g","pricing_plan_id":"free"},{"bike_id":"97bea5a4-2f0f-454f-be18-1417d9f857e0","system_id":"levelo_inurba_marseille","lat":43.304606,"lon":5.379026,"is_reserved":false,"is_disabled":false,"rental_uris":{"android":"levelo://app?vid=97bea5a4-2f0f-454f-be18-1417d9f857e0","ios":"levelo://app?vid=97bea5a4-2f0f-454f-be18-1417d9f857e0"},"vehicle_type_id":"4","last_reported":1679130398,"current_range_meters":26400,"station_id":"ce4bgup2rcd13ifvqcn0","pricing_plan_id":"free"},{"bike_id":"07b4fcbf-0b2a-496b-a57f-97dfd12cb6e4","system_id":"levelo_inurba_marseille","lat":43.29554,"lon":5.42276,"is_reserved":false,"is_disabled":false,"rental_uris":{"android":"levelo://app?vid=07b4fcbf-0b2a-496b-a57f-97dfd12cb6e4","ios":"levelo://app?vid=07b4fcbf-0b2a-496b-a57f-97dfd12cb6e4"},"vehicle_type_id":"4","last_reported":1679130398,"current_range_meters":6000,"station_id":"","pricing_plan_id":"free"},{"bike_id":"5afa55bc-3c77-4991-925d-565df3f29669","system_id":"levelo_inurba_marseille","lat":43.295523,"lon":5.422926,"is_reserved":false,"is_disabled":false,"rental_uris":{"android":"levelo://app?vid=5afa55bc-3c77-4991-925d-565df3f29669","ios":"levelo://app?vid=5afa55bc-3c77-4991-925d-565df3f29669"},"vehicle_type_id":"4","last_reported":1679130398,"current_range_meters":4800,"station_id":"ce4bhph2rcd13ifvqhdg","pricing_plan_id":"free"},{"bike_id":"9b282168-f6a1-478c-b744-be67d026feb4","system_id":"levelo_inurba_marseille","lat":43.295523,"lon":5.422926,"is_reserved":false,"is_disabled":false,"rental_uris":{"android":"levelo://app?vid=9b282168-f6a1-478c-b744-be67d026feb4","ios":"levelo://app?vid=9b282168-f6a1-478c-b744-be67d026feb4"},"vehicle_type_id":"4","last_reported":1679130398,"current_range_meters":23200,"station_id":"ce4bhph2rcd13ifvqhdg","pricing_plan_id":"free"},{"bike_id":"d5ce91c7-eea7-4f5f-869d-fd52053f0c67","system_id":"levelo_inurba_marseille","lat":43.295541,"lon":5.422873,"is_reserved":false,"is_disabled":false,"rental_uris":{"android":"levelo://app?vid=d5ce91c7-eea7-4f5f-869d-fd52053f0c67","ios":"levelo://app?vid=d5ce91c7-eea7-4f5f-869d-fd52053f0c67"},"vehicle_type_id":"4","last_reported":1679130398,"current_range_meters":12800,"station_id":"ce4bhph2rcd13ifvqhdg","pricing_plan_id":"free"},{"bike_id":"c9972f80-e251-4166-af7c-0461e95842a3","system_id":"levelo_inurba_marseille","lat":43.29552,"lon":5.42289,"is_reserved":false,"is_disabled":false,"rental_uris":{"android":"levelo://app?vid=c9972f80-e251-4166-af7c-0461e95842a3","ios":"levelo://app?vid=c9972f80-e251-4166-af7c-0461e95842a3"},"vehicle_type_id":"4","last_reported":1679130398,"current_range_meters":26800,"station_id":"ce4bhph2rcd13ifvqhdg","pricing_plan_id":"free"},{"bike_id":"141a9303-f150-4a10-a349-f013d006a082","system_id":"levelo_inurba_marseille","lat":43.29554,"lon":5.42291,"is_reserved":false,"is_disabled":false,"rental_uris":{"android":"levelo://app?vid=141a9303-f150-4a10-a349-f013d006a082","ios":"levelo://app?vid=141a9303-f150-4a10-a349-f013d006a082"},"vehicle_type_id":"4","last_reported":1679130398,"current_range_meters":12000,"station_id":"ce4bhph2rcd13ifvqhdg","pricing_plan_id":"free"},{"bike_id":"dbea5ff4-f167-4b32-87bf-1f0841adf67d","system_id":"levelo_inurba_marseille","lat":43.272116,"lon":5.391763,"is_reserved":false,"is_disabled":false,"rental_uris":{"android":"levelo://app?vid=dbea5ff4-f167-4b32-87bf-1f0841adf67d","ios":"levelo://app?vid=dbea5ff4-f167-4b32-87bf-1f0841adf67d"},"vehicle_type_id":"4","last_reported":1679130398,"current_range_meters":29200,"station_id":"ce4bhhp2rcd13ifvqfm0","pricing_plan_id":"free"},{"bike_id":"8493c85b-d5b7-4ab7-959f-f4c34b57bc3d","system_id":"levelo_inurba_marseille","lat":43.272124,"lon":5.391768,"is_reserved":false,"is_disabled":false,"rental_uris":{"android":"levelo://app?vid=8493c85b-d5b7-4ab7-959f-f4c34b57bc3d","ios":"levelo://app?vid=8493c85b-d5b7-4ab7-959f-f4c34b57bc3d"},"vehicle_type_id":"4","last_reported":1679130398,"current_range_meters":26800,"station_id":"ce4bhhp2rcd13ifvqfm0","pricing_plan_id":"free"},{"bike_id":"6b3dcc17-e244-4278-873b-dcc4f88e1197","system_id":"levelo_inurba_marseille","lat":43.33775,"lon":5.42131,"is_reserved":false,"is_disabled":false,"rental_uris":{"android":"levelo://app?vid=6b3dcc17-e244-4278-873b-dcc4f88e1197","ios":"levelo://app?vid=6b3dcc17-e244-4278-873b-dcc4f88e1197"},"vehicle_type_id":"4","last_reported":1679130398,"current_range_meters":12000,"station_id":"","pricing_plan_id":"free"},{"bike_id":"158062a1-9281-42f2-a28c-caa2d1a13372","system_id":"levelo_inurba_marseille","lat":43.265714,"lon":5.372891,"is_reserved":false,"is_disabled":false,"rental_uris":{"android":"levelo://app?vid=158062a1-9281-42f2-a28c-caa2d1a13372","ios":"levelo://app?vid=158062a1-9281-42f2-a28c-caa2d1a13372"},"vehicle_type_id":"4","last_reported":1679130398,"current_range_meters":3200,"station_id":"ce4bhg12rcd13ifvqf70","pricing_plan_id":"free"},{"bike_id":"29ea0626-4c3b-487d-bae3-e7379a3827bd","system_id":"levelo_inurba_marseille","lat":43.26681,"lon":5.382694,"is_reserved":false,"is_disabled":false,"rental_uris":{"android":"levelo://app?vid=29ea0626-4c3b-487d-bae3-e7379a3827bd","ios":"levelo://app?vid=29ea0626-4c3b-487d-bae3-e7379a3827bd"},"vehicle_type_id":"4","last_reported":1679130398,"current_range_meters":3200,"station_id":"ce4bhg92rcd13ifvqf90","pricing_plan_id":"free"},{"bike_id":"915f6c8b-c22e-41eb-9649-b6aa14e905af","system_id":"levelo_inurba_marseille","lat":43.265714,"lon":5.372891,"is_reserved":false,"is_disabled":false,"rental_uris":{"android":"levelo://app?vid=915f6c8b-c22e-41eb-9649-b6aa14e905af","ios":"levelo://app?vid=915f6c8b-c22e-41eb-9649-b6aa14e905af"},"vehicle_type_id":"4","last_reported":1679130398,"current_range_meters":20800,"station_id":"ce4bhg12rcd13ifvqf70","pricing_plan_id":"free"},{"bike_id":"99822dd8-4db4-4157-970f-f73a190fbaff","system_id":"levelo_inurba_marseille","lat":43.267966,"lon":5.393976,"is_reserved":false,"is_disabled":false,"rental_uris":{"android":"levelo://app?vid=99822dd8-4db4-4157-970f-f73a190fbaff","ios":"levelo://app?vid=99822dd8-4db4-4157-970f-f73a190fbaff"},"vehicle_type_id":"4","last_reported":1679130398,"current_range_meters":31600,"station_id":"ce4bhh12rcd13ifvqfg0","pricing_plan_id":"free"},{"bike_id":"f93f6975-2376-4c9e-a335-45a6a605512f","system_id":"levelo_inurba_marseille","lat":43.267966,"lon":5.393976,"is_reserved":false,"is_disabled":false,"rental_uris":{"android":"levelo://app?vid=f93f6975-2376-4c9e-a335-45a6a605512f","ios":"levelo://app?vid=f93f6975-2376-4c9e-a335-45a6a605512f"},"vehicle_type_id":"4","last_reported":1679130398,"current_range_meters":31600,"station_id":"ce4bhh12rcd13ifvqfg0","pricing_plan_id":"free"},{"bike_id":"864e4a65-6ef1-4cb1-bcac-a59d5dc301e3","system_id":"levelo_inurba_marseille","lat":43.267808,"lon":5.394138,"is_reserved":false,"is_disabled":false,"rental_uris":{"android":"levelo://app?vid=864e4a65-6ef1-4cb1-bcac-a59d5dc301e3","ios":"levelo://app?vid=864e4a65-6ef1-4cb1-bcac-a59d5dc301e3"},"vehicle_type_id":"4","last_reported":1679130398,"current_range_meters":29200,"station_id":"","pricing_plan_id":"free"},{"bike_id":"2370ea06-f925-4bbc-a3eb-baad2753cfce","system_id":"levelo_inurba_marseille","lat":43.261782,"lon":5.374515,"is_reserved":false,"is_disabled":false,"rental_uris":{"android":"levelo://app?vid=2370ea06-f925-4bbc-a3eb-baad2753cfce","ios":"levelo://app?vid=2370ea06-f925-4bbc-a3eb-baad2753cfce"},"vehicle_type_id":"4","last_reported":1679130398,"current_range_meters":24400,"station_id":"ce4bhgp2rcd13ifvqfc0","pricing_plan_id":"free"},{"bike_id":"1d6cea91-78d1-4d11-aa67-c705a612bd2e","system_id":"levelo_inurba_marseille","lat":43.317104,"lon":5.436818,"is_reserved":false,"is_disabled":false,"rental_uris":{"android":"levelo://app?vid=1d6cea91-78d1-4d11-aa67-c705a612bd2e","ios":"levelo://app?vid=1d6cea91-78d1-4d11-aa67-c705a612bd2e"},"vehicle_type_id":"4","last_reported":1679130398,"current_range_meters":12800,"station_id":"ce4bhp92rcd13ifvqhcg","pricing_plan_id":"free"},{"bike_id":"e96667f1-a214-4a1c-b594-76b9eac8aafa","system_id":"levelo_inurba_marseille","lat":43.317104,"lon":5.436818,"is_reserved":false,"is_disabled":false,"rental_uris":{"android":"levelo://app?vid=e96667f1-a214-4a1c-b594-76b9eac8aafa","ios":"levelo://app?vid=e96667f1-a214-4a1c-b594-76b9eac8aafa"},"vehicle_type_id":"4","last_reported":1679130398,"current_range_meters":12800,"station_id":"ce4bhp92rcd13ifvqhcg","pricing_plan_id":"free"},{"bike_id":"c93aaf60-9a72-48f6-8cb6-a0a2d971e7a2","system_id":"levelo_inurba_marseille","lat":43.26206,"lon":5.37924,"is_reserved":false,"is_disabled":false,"rental_uris":{"android":"levelo://app?vid=c93aaf60-9a72-48f6-8cb6-a0a2d971e7a2","ios":"levelo://app?vid=c93aaf60-9a72-48f6-8cb6-a0a2d971e7a2"},"vehicle_type_id":"4","last_reported":1679130398,"current_range_meters":0,"station_id":"ce4bhjp2rcd13ifvqg90","pricing_plan_id":"free"},{"bike_id":"7212bc5e-4034-4cb8-b4ad-d08759e0262a","system_id":"levelo_inurba_marseille","lat":43.26203,"lon":5.3793,"is_reserved":false,"is_disabled":false,"rental_uris":{"android":"levelo://app?vid=7212bc5e-4034-4cb8-b4ad-d08759e0262a","ios":"levelo://app?vid=7212bc5e-4034-4cb8-b4ad-d08759e0262a"},"vehicle_type_id":"4","last_reported":1679130398,"current_range_meters":20800,"station_id":"ce4bhjp2rcd13ifvqg90","pricing_plan_id":"free"},{"bike_id":"a92d537f-e05c-4948-bbe4-ccbc49d8fb6e","system_id":"levelo_inurba_marseille","lat":43.262012,"lon":5.379307,"is_reserved":false,"is_disabled":false,"rental_uris":{"android":"levelo://app?vid=a92d537f-e05c-4948-bbe4-ccbc49d8fb6e","ios":"levelo://app?vid=a92d537f-e05c-4948-bbe4-ccbc49d8fb6e"},"vehicle_type_id":"4","last_reported":1679130398,"current_range_meters":20400,"station_id":"ce4bhjp2rcd13ifvqg90","pricing_plan_id":"free"},{"bike_id":"8bb7774a-3e46-4f99-8509-95e645870912","system_id":"levelo_inurba_marseille","lat":43.26193,"lon":5.37928,"is_reserved":false,"is_disabled":false,"rental_uris":{"android":"levelo://app?vid=8bb7774a-3e46-4f99-8509-95e645870912","ios":"levelo://app?vid=8bb7774a-3e46-4f99-8509-95e645870912"},"vehicle_type_id":"4","last_reported":1679130398,"current_range_meters":28000,"station_id":"","pricing_plan_id":"free"},{"bike_id":"25e190db-29b6-4521-aacd-9d587e53f0b1","system_id":"levelo_inurba_marseille","lat":43.267959,"lon":5.402687,"is_reserved":false,"is_disabled":false,"rental_uris":{"android":"levelo://app?vid=25e190db-29b6-4521-aacd-9d587e53f0b1","ios":"levelo://app?vid=25e190db-29b6-4521-aacd-9d587e53f0b1"},"vehicle_type_id":"4","last_reported":1679130398,"current_range_meters":24400,"station_id":"ce501612rcd8frsf0b60","pricing_plan_id":"free"},{"bike_id":"bdfc0743-8727-493e-99b0-9b2bcd8cb704","system_id":"levelo_inurba_marseille","lat":43.267959,"lon":5.402685,"is_reserved":false,"is_disabled":false,"rental_uris":{"android":"levelo://app?vid=bdfc0743-8727-493e-99b0-9b2bcd8cb704","ios":"levelo://app?vid=bdfc0743-8727-493e-99b0-9b2bcd8cb704"},"vehicle_type_id":"4","last_reported":1679130398,"current_range_meters":26800,"station_id":"ce501612rcd8frsf0b60","pricing_plan_id":"free"},{"bike_id":"e0dfcb0e-9b5d-4433-b37d-983d43a1e977","system_id":"levelo_inurba_marseille","lat":43.260225,"lon":5.375455,"is_reserved":false,"is_disabled":false,"rental_uris":{"android":"levelo://app?vid=e0dfcb0e-9b5d-4433-b37d-983d43a1e977","ios":"levelo://app?vid=e0dfcb0e-9b5d-4433-b37d-983d43a1e977"},"vehicle_type_id":"4","last_reported":1679130398,"current_range_meters":4800,"station_id":"ce4bhgh2rcd13ifvqfa0","pricing_plan_id":"free"},{"bike_id":"4771475e-9e36-4bda-8975-732fd73a60f0","system_id":"levelo_inurba_marseille","lat":43.26012,"lon":5.37553,"is_reserved":false,"is_disabled":false,"rental_uris":{"android":"levelo://app?vid=4771475e-9e36-4bda-8975-732fd73a60f0","ios":"levelo://app?vid=4771475e-9e36-4bda-8975-732fd73a60f0"},"vehicle_type_id":"4","last_reported":1679130398,"current_range_meters":8000,"station_id":"ce4bhgh2rcd13ifvqfa0","pricing_plan_id":"free"},{"bike_id":"a3caadf5-36d9-4834-abce-92f976adbd98","system_id":"levelo_inurba_marseille","lat":43.260909,"lon":5.397591,"is_reserved":false,"is_disabled":false,"rental_uris":{"android":"levelo://app?vid=a3caadf5-36d9-4834-abce-92f976adbd98","ios":"levelo://app?vid=a3caadf5-36d9-4834-abce-92f976adbd98"},"vehicle_type_id":"4","last_reported":1679130398,"current_range_meters":28000,"station_id":"ce4bhi12rcd13ifvqfq0","pricing_plan_id":"free"},{"bike_id":"876bac53-a75b-4fd3-ab3a-449a30a095cb","system_id":"levelo_inurba_marseille","lat":43.255756,"lon":5.382303,"is_reserved":false,"is_disabled":false,"rental_uris":{"android":"levelo://app?vid=876bac53-a75b-4fd3-ab3a-449a30a095cb","ios":"levelo://app?vid=876bac53-a75b-4fd3-ab3a-449a30a095cb"},"vehicle_type_id":"4","last_reported":1679130398,"current_range_meters":23600,"station_id":"ce4bhih2rcd13ifvqfs0","pricing_plan_id":"free"},{"bike_id":"db26e18b-aab2-4a23-9e45-3cf7b1bf06f1","system_id":"levelo_inurba_marseille","lat":43.255785,"lon":5.382385,"is_reserved":false,"is_disabled":false,"rental_uris":{"android":"levelo://app?vid=db26e18b-aab2-4a23-9e45-3cf7b1bf06f1","ios":"levelo://app?vid=db26e18b-aab2-4a23-9e45-3cf7b1bf06f1"},"vehicle_type_id":"4","last_reported":1679130398,"current_range_meters":0,"station_id":"ce4bhih2rcd13ifvqfs0","pricing_plan_id":"free"},{"bike_id":"5f36aa2d-a9a0-48e5-8604-2636489cfd34","system_id":"levelo_inurba_marseille","lat":43.255756,"lon":5.382303,"is_reserved":false,"is_disabled":false,"rental_uris":{"android":"levelo://app?vid=5f36aa2d-a9a0-48e5-8604-2636489cfd34","ios":"levelo://app?vid=5f36aa2d-a9a0-48e5-8604-2636489cfd34"},"vehicle_type_id":"4","last_reported":1679130398,"current_range_meters":9200,"station_id":"ce4bhih2rcd13ifvqfs0","pricing_plan_id":"free"},{"bike_id":"6dc5f284-9f36-4d77-8777-29e8722bf162","system_id":"levelo_inurba_marseille","lat":43.255756,"lon":5.382303,"is_reserved":false,"is_disabled":false,"rental_uris":{"android":"levelo://app?vid=6dc5f284-9f36-4d77-8777-29e8722bf162","ios":"levelo://app?vid=6dc5f284-9f36-4d77-8777-29e8722bf162"},"vehicle_type_id":"4","last_reported":1679130398,"current_range_meters":26400,"station_id":"ce4bhih2rcd13ifvqfs0","pricing_plan_id":"free"},{"bike_id":"206b87ee-7e92-434d-866d-002ab3b698dd","system_id":"levelo_inurba_marseille","lat":43.270721,"lon":5.422764,"is_reserved":false,"is_disabled":false,"rental_uris":{"android":"levelo://app?vid=206b87ee-7e92-434d-866d-002ab3b698dd","ios":"levelo://app?vid=206b87ee-7e92-434d-866d-002ab3b698dd"},"vehicle_type_id":"4","last_reported":1679130398,"current_range_meters":17200,"station_id":"ce4bhk92rcd13ifvqgb0","pricing_plan_id":"free"},{"bike_id":"01f9478c-d287-4d04-8514-90768cd6040c","system_id":"levelo_inurba_marseille","lat":43.270721,"lon":5.422764,"is_reserved":false,"is_disabled":false,"rental_uris":{"android":"levelo://app?vid=01f9478c-d287-4d04-8514-90768cd6040c","ios":"levelo://app?vid=01f9478c-d287-4d04-8514-90768cd6040c"},"vehicle_type_id":"4","last_reported":1679130398,"current_range_meters":12800,"station_id":"ce4bhk92rcd13ifvqgb0","pricing_plan_id":"free"},{"bike_id":"5a4f00b0-535f-4dde-93c2-d600d6ccbdfc","system_id":"levelo_inurba_marseille","lat":43.270687,"lon":5.422799,"is_reserved":false,"is_disabled":false,"rental_uris":{"android":"levelo://app?vid=5a4f00b0-535f-4dde-93c2-d600d6ccbdfc","ios":"levelo://app?vid=5a4f00b0-535f-4dde-93c2-d600d6ccbdfc"},"vehicle_type_id":"4","last_reported":1679130398,"current_range_meters":6400,"station_id":"ce4bhk92rcd13ifvqgb0","pricing_plan_id":"free"},{"bike_id":"1698e4bc-0cd4-42c8-b568-28e7f57b0656","system_id":"levelo_inurba_marseille","lat":43.270721,"lon":5.422764,"is_reserved":false,"is_disabled":false,"rental_uris":{"android":"levelo://app?vid=1698e4bc-0cd4-42c8-b568-28e7f57b0656","ios":"levelo://app?vid=1698e4bc-0cd4-42c8-b568-28e7f57b0656"},"vehicle_type_id":"4","last_reported":1679130398,"current_range_meters":23600,"station_id":"ce4bhk92rcd13ifvqgb0","pricing_plan_id":"free"},{"bike_id":"9135f07c-339d-4a06-811b-4c16e2b39cea","system_id":"levelo_inurba_marseille","lat":43.254947,"lon":5.376454,"is_reserved":false,"is_disabled":false,"rental_uris":{"android":"levelo://app?vid=9135f07c-339d-4a06-811b-4c16e2b39cea","ios":"levelo://app?vid=9135f07c-339d-4a06-811b-4c16e2b39cea"},"vehicle_type_id":"4","last_reported":1679130398,"current_range_meters":20400,"station_id":"ce4bhh12rcd13ifvqff0","pricing_plan_id":"free"},{"bike_id":"e0fd48dc-999a-4a05-924e-75cc52b3a4e7","system_id":"levelo_inurba_marseille","lat":43.258658,"lon":5.398935,"is_reserved":false,"is_disabled":false,"rental_uris":{"android":"levelo://app?vid=e0fd48dc-999a-4a05-924e-75cc52b3a4e7","ios":"levelo://app?vid=e0fd48dc-999a-4a05-924e-75cc52b3a4e7"},"vehicle_type_id":"4","last_reported":1679130398,"current_range_meters":22000,"station_id":"ce4bhl92rcd13ifvqghg","pricing_plan_id":"free"},{"bike_id":"1ed5ae6e-b7d7-45dc-988d-696fc03ac8b2","system_id":"levelo_inurba_marseille","lat":43.258665,"lon":5.399029,"is_reserved":false,"is_disabled":false,"rental_uris":{"android":"levelo://app?vid=1ed5ae6e-b7d7-45dc-988d-696fc03ac8b2","ios":"levelo://app?vid=1ed5ae6e-b7d7-45dc-988d-696fc03ac8b2"},"vehicle_type_id":"4","last_reported":1679130398,"current_range_meters":21200,"station_id":"ce4bhl92rcd13ifvqghg","pricing_plan_id":"free"},{"bike_id":"48c92539-5b1d-427d-8194-94f6969f4638","system_id":"levelo_inurba_marseille","lat":43.262798,"lon":5.411884,"is_reserved":false,"is_disabled":false,"rental_uris":{"android":"levelo://app?vid=48c92539-5b1d-427d-8194-94f6969f4638","ios":"levelo://app?vid=48c92539-5b1d-427d-8194-94f6969f4638"},"vehicle_type_id":"4","last_reported":1679130398,"current_range_meters":0,"station_id":"","pricing_plan_id":"free"},{"bike_id":"1e222674-c7fa-4849-9836-a6f20052e7b9","system_id":"levelo_inurba_marseille","lat":43.250009,"lon":5.389195,"is_reserved":false,"is_disabled":false,"rental_uris":{"android":"levelo://app?vid=1e222674-c7fa-4849-9836-a6f20052e7b9","ios":"levelo://app?vid=1e222674-c7fa-4849-9836-a6f20052e7b9"},"vehicle_type_id":"4","last_reported":1679130398,"current_range_meters":27200,"station_id":"ce4bhgp2rcd13ifvqfd0","pricing_plan_id":"free"},{"bike_id":"b97371b0-2081-4d7c-9ff6-4ce3dbddad9f","system_id":"levelo_inurba_marseille","lat":43.250009,"lon":5.389195,"is_reserved":false,"is_disabled":false,"rental_uris":{"android":"levelo://app?vid=b97371b0-2081-4d7c-9ff6-4ce3dbddad9f","ios":"levelo://app?vid=b97371b0-2081-4d7c-9ff6-4ce3dbddad9f"},"vehicle_type_id":"4","last_reported":1679130398,"current_range_meters":31600,"station_id":"ce4bhgp2rcd13ifvqfd0","pricing_plan_id":"free"},{"bike_id":"9402795b-e345-4c63-998c-39ec5c0ea4c1","system_id":"levelo_inurba_marseille","lat":43.250009,"lon":5.389195,"is_reserved":false,"is_disabled":false,"rental_uris":{"android":"levelo://app?vid=9402795b-e345-4c63-998c-39ec5c0ea4c1","ios":"levelo://app?vid=9402795b-e345-4c63-998c-39ec5c0ea4c1"},"vehicle_type_id":"4","last_reported":1679130398,"current_range_meters":31600,"station_id":"ce4bhgp2rcd13ifvqfd0","pricing_plan_id":"free"},{"bike_id":"d3033048-c81a-4bb4-9bf8-b1c88293fa96","system_id":"levelo_inurba_marseille","lat":43.250009,"lon":5.389195,"is_reserved":false,"is_disabled":false,"rental_uris":{"android":"levelo://app?vid=d3033048-c81a-4bb4-9bf8-b1c88293fa96","ios":"levelo://app?vid=d3033048-c81a-4bb4-9bf8-b1c88293fa96"},"vehicle_type_id":"4","last_reported":1679130398,"current_range_meters":31600,"station_id":"ce4bhgp2rcd13ifvqfd0","pricing_plan_id":"free"},{"bike_id":"bf4fb621-500e-4434-aef7-29623ecc99dc","system_id":"levelo_inurba_marseille","lat":43.250009,"lon":5.389195,"is_reserved":false,"is_disabled":false,"rental_uris":{"android":"levelo://app?vid=bf4fb621-500e-4434-aef7-29623ecc99dc","ios":"levelo://app?vid=bf4fb621-500e-4434-aef7-29623ecc99dc"},"vehicle_type_id":"4","last_reported":1679130398,"current_range_meters":13600,"station_id":"ce4bhgp2rcd13ifvqfd0","pricing_plan_id":"free"},{"bike_id":"d4c63f60-40f1-48d2-8689-3c61ecbc0b6c","system_id":"levelo_inurba_marseille","lat":43.250009,"lon":5.389195,"is_reserved":false,"is_disabled":false,"rental_uris":{"android":"levelo://app?vid=d4c63f60-40f1-48d2-8689-3c61ecbc0b6c","ios":"levelo://app?vid=d4c63f60-40f1-48d2-8689-3c61ecbc0b6c"},"vehicle_type_id":"4","last_reported":1679130398,"current_range_meters":31600,"station_id":"ce4bhgp2rcd13ifvqfd0","pricing_plan_id":"free"},{"bike_id":"84af4f38-ec70-4ebb-af39-a66368d94cd0","system_id":"levelo_inurba_marseille","lat":43.250009,"lon":5.389195,"is_reserved":false,"is_disabled":false,"rental_uris":{"android":"levelo://app?vid=84af4f38-ec70-4ebb-af39-a66368d94cd0","ios":"levelo://app?vid=84af4f38-ec70-4ebb-af39-a66368d94cd0"},"vehicle_type_id":"4","last_reported":1679130398,"current_range_meters":30000,"station_id":"ce4bhgp2rcd13ifvqfd0","pricing_plan_id":"free"},{"bike_id":"fa2b681f-8672-4599-8263-aa7e1cbcfe31","system_id":"levelo_inurba_marseille","lat":43.24812,"lon":5.37455,"is_reserved":false,"is_disabled":false,"rental_uris":{"android":"levelo://app?vid=fa2b681f-8672-4599-8263-aa7e1cbcfe31","ios":"levelo://app?vid=fa2b681f-8672-4599-8263-aa7e1cbcfe31"},"vehicle_type_id":"4","last_reported":1679130398,"current_range_meters":17600,"station_id":"","pricing_plan_id":"free"},{"bike_id":"0d931327-2afb-4863-afec-a87278f14e2e","system_id":"levelo_inurba_marseille","lat":43.250009,"lon":5.389195,"is_reserved":false,"is_disabled":false,"rental_uris":{"android":"levelo://app?vid=0d931327-2afb-4863-afec-a87278f14e2e","ios":"levelo://app?vid=0d931327-2afb-4863-afec-a87278f14e2e"},"vehicle_type_id":"4","last_reported":1679130398,"current_range_meters":28800,"station_id":"ce4bhgp2rcd13ifvqfd0","pricing_plan_id":"free"},{"bike_id":"e7987d1e-4c1e-4857-95a0-727645aaef87","system_id":"levelo_inurba_marseille","lat":43.250009,"lon":5.389195,"is_reserved":false,"is_disabled":false,"rental_uris":{"android":"levelo://app?vid=e7987d1e-4c1e-4857-95a0-727645aaef87","ios":"levelo://app?vid=e7987d1e-4c1e-4857-95a0-727645aaef87"},"vehicle_type_id":"4","last_reported":1679130398,"current_range_meters":19200,"station_id":"ce4bhgp2rcd13ifvqfd0","pricing_plan_id":"free"},{"bike_id":"b0ccfefc-3daf-4987-8681-8c237e38623c","system_id":"levelo_inurba_marseille","lat":43.2479,"lon":5.374457,"is_reserved":false,"is_disabled":false,"rental_uris":{"android":"levelo://app?vid=b0ccfefc-3daf-4987-8681-8c237e38623c","ios":"levelo://app?vid=b0ccfefc-3daf-4987-8681-8c237e38623c"},"vehicle_type_id":"4","last_reported":1679130398,"current_range_meters":31600,"station_id":"ce4bhgh2rcd13ifvqfb0","pricing_plan_id":"free"},{"bike_id":"b45c3d7d-725d-4701-b842-177ec60ec6ed","system_id":"levelo_inurba_marseille","lat":43.24693,"lon":5.382096,"is_reserved":false,"is_disabled":false,"rental_uris":{"android":"levelo://app?vid=b45c3d7d-725d-4701-b842-177ec60ec6ed","ios":"levelo://app?vid=b45c3d7d-725d-4701-b842-177ec60ec6ed"},"vehicle_type_id":"4","last_reported":1679130398,"current_range_meters":28800,"station_id":"ce4bhih2rcd13ifvqfr0","pricing_plan_id":"free"},{"bike_id":"e56b01f5-e13c-4a51-a6f6-d4286fbeb09e","system_id":"levelo_inurba_marseille","lat":43.24693,"lon":5.382096,"is_reserved":false,"is_disabled":false,"rental_uris":{"android":"levelo://app?vid=e56b01f5-e13c-4a51-a6f6-d4286fbeb09e","ios":"levelo://app?vid=e56b01f5-e13c-4a51-a6f6-d4286fbeb09e"},"vehicle_type_id":"4","last_reported":1679130398,"current_range_meters":28000,"station_id":"ce4bhih2rcd13ifvqfr0","pricing_plan_id":"free"},{"bike_id":"7ce66863-916e-43d9-9f4d-1ac9f0665a8c","system_id":"levelo_inurba_marseille","lat":43.246467,"lon":5.388984,"is_reserved":false,"is_disabled":false,"rental_uris":{"android":"levelo://app?vid=7ce66863-916e-43d9-9f4d-1ac9f0665a8c","ios":"levelo://app?vid=7ce66863-916e-43d9-9f4d-1ac9f0665a8c"},"vehicle_type_id":"4","last_reported":1679130398,"current_range_meters":26400,"station_id":"ce4bhg12rcd13ifvqf60","pricing_plan_id":"free"},{"bike_id":"33a7a515-75f4-4728-94fc-64b9dc836eeb","system_id":"levelo_inurba_marseille","lat":43.246461,"lon":5.389014,"is_reserved":false,"is_disabled":false,"rental_uris":{"android":"levelo://app?vid=33a7a515-75f4-4728-94fc-64b9dc836eeb","ios":"levelo://app?vid=33a7a515-75f4-4728-94fc-64b9dc836eeb"},"vehicle_type_id":"4","last_reported":1679130398,"current_range_meters":1600,"station_id":"ce4bhg12rcd13ifvqf60","pricing_plan_id":"free"},{"bike_id":"592adabc-a5ae-45cb-8040-f3f3638a9dd4","system_id":"levelo_inurba_marseille","lat":43.246461,"lon":5.389014,"is_reserved":false,"is_disabled":false,"rental_uris":{"android":"levelo://app?vid=592adabc-a5ae-45cb-8040-f3f3638a9dd4","ios":"levelo://app?vid=592adabc-a5ae-45cb-8040-f3f3638a9dd4"},"vehicle_type_id":"4","last_reported":1679130398,"current_range_meters":29600,"station_id":"ce4bhg12rcd13ifvqf60","pricing_plan_id":"free"},{"bike_id":"2f2e67d9-ef12-49f5-93bb-89e83bd22016","system_id":"levelo_inurba_marseille","lat":43.246467,"lon":5.388984,"is_reserved":false,"is_disabled":false,"rental_uris":{"android":"levelo://app?vid=2f2e67d9-ef12-49f5-93bb-89e83bd22016","ios":"levelo://app?vid=2f2e67d9-ef12-49f5-93bb-89e83bd22016"},"vehicle_type_id":"4","last_reported":1679130398,"current_range_meters":31200,"station_id":"ce4bhg12rcd13ifvqf60","pricing_plan_id":"free"},{"bike_id":"ecb3a446-224f-464f-b1cd-12740cea4b67","system_id":"levelo_inurba_marseille","lat":43.24391,"lon":5.37062,"is_reserved":false,"is_disabled":false,"rental_uris":{"android":"levelo://app?vid=ecb3a446-224f-464f-b1cd-12740cea4b67","ios":"levelo://app?vid=ecb3a446-224f-464f-b1cd-12740cea4b67"},"vehicle_type_id":"4","last_reported":1679130398,"current_range_meters":30000,"station_id":"","pricing_plan_id":"free"},{"bike_id":"27451b56-b88f-4f88-8075-fbbc8f0dc709","system_id":"levelo_inurba_marseille","lat":43.2439,"lon":5.37057,"is_reserved":false,"is_disabled":false,"rental_uris":{"android":"levelo://app?vid=27451b56-b88f-4f88-8075-fbbc8f0dc709","ios":"levelo://app?vid=27451b56-b88f-4f88-8075-fbbc8f0dc709"},"vehicle_type_id":"4","last_reported":1679130398,"current_range_meters":31600,"station_id":"","pricing_plan_id":"free"},{"bike_id":"27450aed-d877-488a-a0ec-8d24e5ef24d4","system_id":"levelo_inurba_marseille","lat":43.2439,"lon":5.37058,"is_reserved":false,"is_disabled":false,"rental_uris":{"android":"levelo://app?vid=27450aed-d877-488a-a0ec-8d24e5ef24d4","ios":"levelo://app?vid=27450aed-d877-488a-a0ec-8d24e5ef24d4"},"vehicle_type_id":"4","last_reported":1679130398,"current_range_meters":20400,"station_id":"ce4bhhh2rcd13ifvqfk0","pricing_plan_id":"free"},{"bike_id":"d0da3aac-1c7e-4106-a795-89b78a7e6298","system_id":"levelo_inurba_marseille","lat":43.24389,"lon":5.3706,"is_reserved":false,"is_disabled":false,"rental_uris":{"android":"levelo://app?vid=d0da3aac-1c7e-4106-a795-89b78a7e6298","ios":"levelo://app?vid=d0da3aac-1c7e-4106-a795-89b78a7e6298"},"vehicle_type_id":"4","last_reported":1679130398,"current_range_meters":31600,"station_id":"","pricing_plan_id":"free"},{"bike_id":"7cf502a4-d89a-4150-9a4f-384b140ecf74","system_id":"levelo_inurba_marseille","lat":43.243884,"lon":5.370736,"is_reserved":false,"is_disabled":false,"rental_uris":{"android":"levelo://app?vid=7cf502a4-d89a-4150-9a4f-384b140ecf74","ios":"levelo://app?vid=7cf502a4-d89a-4150-9a4f-384b140ecf74"},"vehicle_type_id":"4","last_reported":1679130398,"current_range_meters":13600,"station_id":"ce4bhhh2rcd13ifvqfk0","pricing_plan_id":"free"},{"bike_id":"8b7b458d-aa1c-4fcc-a769-93085e71bc1e","system_id":"levelo_inurba_marseille","lat":43.243884,"lon":5.370736,"is_reserved":false,"is_disabled":false,"rental_uris":{"android":"levelo://app?vid=8b7b458d-aa1c-4fcc-a769-93085e71bc1e","ios":"levelo://app?vid=8b7b458d-aa1c-4fcc-a769-93085e71bc1e"},"vehicle_type_id":"4","last_reported":1679130398,"current_range_meters":20000,"station_id":"ce4bhhh2rcd13ifvqfk0","pricing_plan_id":"free"},{"bike_id":"782a3d8c-8a8b-4ca2-a441-c2168bb095ed","system_id":"levelo_inurba_marseille","lat":43.245581,"lon":5.395069,"is_reserved":false,"is_disabled":false,"rental_uris":{"android":"levelo://app?vid=782a3d8c-8a8b-4ca2-a441-c2168bb095ed","ios":"levelo://app?vid=782a3d8c-8a8b-4ca2-a441-c2168bb095ed"},"vehicle_type_id":"4","last_reported":1679130398,"current_range_meters":25200,"station_id":"ce4bhlp2rcd13ifvqgjg","pricing_plan_id":"free"},{"bike_id":"a21ff591-b797-470a-9a64-b6c3a667dee5","system_id":"levelo_inurba_marseille","lat":43.245581,"lon":5.395069,"is_reserved":false,"is_disabled":false,"rental_uris":{"android":"levelo://app?vid=a21ff591-b797-470a-9a64-b6c3a667dee5","ios":"levelo://app?vid=a21ff591-b797-470a-9a64-b6c3a667dee5"},"vehicle_type_id":"4","last_reported":1679130398,"current_range_meters":31600,"station_id":"ce4bhlp2rcd13ifvqgjg","pricing_plan_id":"free"},{"bike_id":"fd4f3f4c-fe43-47d4-bd0a-5ece4cf39169","system_id":"levelo_inurba_marseille","lat":43.287526,"lon":5.458848,"is_reserved":false,"is_disabled":false,"rental_uris":{"android":"levelo://app?vid=fd4f3f4c-fe43-47d4-bd0a-5ece4cf39169","ios":"levelo://app?vid=fd4f3f4c-fe43-47d4-bd0a-5ece4cf39169"},"vehicle_type_id":"4","last_reported":1679130398,"current_range_meters":0,"station_id":"","pricing_plan_id":"free"},{"bike_id":"5c6341fd-8bc2-48ef-b984-5aab12472d86","system_id":"levelo_inurba_marseille","lat":43.287541,"lon":5.458903,"is_reserved":false,"is_disabled":false,"rental_uris":{"android":"levelo://app?vid=5c6341fd-8bc2-48ef-b984-5aab12472d86","ios":"levelo://app?vid=5c6341fd-8bc2-48ef-b984-5aab12472d86"},"vehicle_type_id":"4","last_reported":1679130398,"current_range_meters":8400,"station_id":"","pricing_plan_id":"free"},{"bike_id":"5521ec33-ee6d-49f4-9471-d24cf70bcd7b","system_id":"levelo_inurba_marseille","lat":43.240623,"lon":5.377642,"is_reserved":false,"is_disabled":false,"rental_uris":{"android":"levelo://app?vid=5521ec33-ee6d-49f4-9471-d24cf70bcd7b","ios":"levelo://app?vid=5521ec33-ee6d-49f4-9471-d24cf70bcd7b"},"vehicle_type_id":"4","last_reported":1679130398,"current_range_meters":31600,"station_id":"ce4bhnp2rcd13ifvqgvg","pricing_plan_id":"free"},{"bike_id":"ad1dc089-4a54-4561-856d-26d7bb94e38b","system_id":"levelo_inurba_marseille","lat":43.240623,"lon":5.377642,"is_reserved":false,"is_disabled":false,"rental_uris":{"android":"levelo://app?vid=ad1dc089-4a54-4561-856d-26d7bb94e38b","ios":"levelo://app?vid=ad1dc089-4a54-4561-856d-26d7bb94e38b"},"vehicle_type_id":"4","last_reported":1679130398,"current_range_meters":800,"station_id":"ce4bhnp2rcd13ifvqgvg","pricing_plan_id":"free"},{"bike_id":"c03daf93-bd02-4eae-9c2b-09e471aa7c7a","system_id":"levelo_inurba_marseille","lat":43.240623,"lon":5.377642,"is_reserved":false,"is_disabled":false,"rental_uris":{"android":"levelo://app?vid=c03daf93-bd02-4eae-9c2b-09e471aa7c7a","ios":"levelo://app?vid=c03daf93-bd02-4eae-9c2b-09e471aa7c7a"},"vehicle_type_id":"4","last_reported":1679130398,"current_range_meters":15200,"station_id":"ce4bhnp2rcd13ifvqgvg","pricing_plan_id":"free"},{"bike_id":"d1636f64-6b09-4b48-bf38-0b5b7957612a","system_id":"levelo_inurba_marseille","lat":43.240623,"lon":5.377642,"is_reserved":false,"is_disabled":false,"rental_uris":{"android":"levelo://app?vid=d1636f64-6b09-4b48-bf38-0b5b7957612a","ios":"levelo://app?vid=d1636f64-6b09-4b48-bf38-0b5b7957612a"},"vehicle_type_id":"4","last_reported":1679130398,"current_range_meters":31600,"station_id":"ce4bhnp2rcd13ifvqgvg","pricing_plan_id":"free"},{"bike_id":"6c1b86ae-6f99-47ab-850c-d6cfd7e427f3","system_id":"levelo_inurba_marseille","lat":43.240623,"lon":5.377642,"is_reserved":false,"is_disabled":false,"rental_uris":{"android":"levelo://app?vid=6c1b86ae-6f99-47ab-850c-d6cfd7e427f3","ios":"levelo://app?vid=6c1b86ae-6f99-47ab-850c-d6cfd7e427f3"},"vehicle_type_id":"4","last_reported":1679130398,"current_range_meters":23200,"station_id":"ce4bhnp2rcd13ifvqgvg","pricing_plan_id":"free"},{"bike_id":"e2b39f61-a433-4fea-8ef4-f9a8742713b8","system_id":"levelo_inurba_marseille","lat":43.240623,"lon":5.377642,"is_reserved":false,"is_disabled":false,"rental_uris":{"android":"levelo://app?vid=e2b39f61-a433-4fea-8ef4-f9a8742713b8","ios":"levelo://app?vid=e2b39f61-a433-4fea-8ef4-f9a8742713b8"},"vehicle_type_id":"4","last_reported":1679130398,"current_range_meters":10400,"station_id":"ce4bhnp2rcd13ifvqgvg","pricing_plan_id":"free"},{"bike_id":"77800063-d00a-4522-9222-b8d7fdda693b","system_id":"levelo_inurba_marseille","lat":43.240623,"lon":5.377642,"is_reserved":false,"is_disabled":false,"rental_uris":{"android":"levelo://app?vid=77800063-d00a-4522-9222-b8d7fdda693b","ios":"levelo://app?vid=77800063-d00a-4522-9222-b8d7fdda693b"},"vehicle_type_id":"4","last_reported":1679130398,"current_range_meters":31600,"station_id":"ce4bhnp2rcd13ifvqgvg","pricing_plan_id":"free"},