{"last_updated":1751717894,"ttl":60,"version":"2.2","data":{"bikes":[{"bike_id":"3da29fb8-fc97-44c6-b9ac-31dd456b2fd4","system_id":"levelo_inurba_marseille","lat":43.33771,"lon":5.37424,"is_reserved":false,"is_disabled":true,"rental_uris":{"android":"levelo://app?vid=3da29fb8-fc97-44c6-b9ac-31dd456b2fd4","ios":"levelo://app?vid=3da29fb8-fc97-44c6-b9ac-31dd456b2fd4"},"vehicle_type_id":"4","last_reported":1751717894,"current_range_meters":0,"station_id":"","pricing_plan_id":"cebpf4jnsgd1na2vs0mg"},{"bike_id":"01861ad8-a8d7-4be6-816e-651927c87584","system_id":"levelo_inurba_marseille","lat":43.33751,"lon":5.37456,"is_reserved":false,"is_disabled":true,"rental_uris":{"android":"levelo://app?vid=01861ad8-a8d7-4be6-816e-651927c87584","ios":"levelo://app?vid=01861ad8-a8d7-4be6-816e-651927c87584"},"vehicle_type_id":"4","last_reported":1751717894,"current_range_meters":0,"station_id":"","pricing_plan_id":"cebpf4jnsgd1na2vs0mg"},{"bike_id":"f70f4eac-3f58-4e34-b450-f4227420bc3d","system_id":"levelo_inurba_marseille","lat":43.30529,"lon":5.39159,"is_reserved":false,"is_disabled":true,"rental_uris":{"android":"levelo://app?vid=f70f4eac-3f58-4e34-b450-f4227420bc3d","ios":"levelo://app?vid=f70f4eac-3f58-4e34-b450-f4227420bc3d"},"vehicle_type_id":"4","last_reported":1751717894,"current_range_meters":0,"station_id":"","pricing_plan_id":"cebpf4jnsgd1na2vs0mg"},{"bike_id":"c8885025-0b30-48c0-846f-ea87c2948681","system_id":"levelo_inurba_marseille","lat":43.30148,"lon":5.37757,"is_reserved":false,"is_disabled":true,"rental_uris":{"android":"levelo://app?vid=c8885025-0b30-48c0-846f-ea87c2948681","ios":"levelo://app?vid=c8885025-0b30-48c0-846f-ea87c2948681"},"vehicle_type_id":"4","last_reported":1751717894,"current_range_meters":0,"station_id":"","pricing_plan_id":"cebpf4jnsgd1na2vs0mg"},{"bike_id":"cf009ed5-001b-40a0-89bc-4d918287205f","system_id":"levelo_inurba_marseille","lat":43.3061,"lon":5.37231,"is_reserved":false,"is_disabled":true,"rental_uris":{"android":"levelo://app?vid=cf009ed5-001b-40a0-89bc-4d918287205f","ios":"levelo://app?vid=cf009ed5-001b-40a0-89bc-4d918287205f"},"vehicle_type_id":"4","last_reported":1751717894,"current_range_meters":0,"station_id":"ce4bgqh2rcd13ifvqc4g","pricing_plan_id":"cebpf4jnsgd1na2vs0mg"},{"bike_id":"5c24dfbb-618c-44fe-a8d0-88a673731d78","system_id":"levelo_inurba_marseille","lat":43.30541,"lon":5.36516,"is_reserved":false,"is_disabled":true,"rental_uris":{"android":"levelo://app?vid=5c24dfbb-618c-44fe-a8d0-88a673731d78","ios":"levelo://app?vid=5c24dfbb-618c-44fe-a8d0-88a673731d78"},"vehicle_type_id":"4","last_reported":1751717894,"current_range_meters":0,"station_id":"ce4bgs12rcd13ifvqcag","pricing_plan_id":"cebpf4jnsgd1na2vs0mg"},{"bike_id":"c9c1daf4-a7c2-403a-9448-2d7f40669937","system_id":"levelo_inurba_marseille","lat":43.31375,"lon":5.3852,"is_reserved":false,"is_disabled":true,"rental_uris":{"android":"levelo://app?vid=c9c1daf4-a7c2-403a-9448-2d7f40669937","ios":"levelo://app?vid=c9c1daf4-a7c2-403a-9448-2d7f40669937"},"vehicle_type_id":"4","last_reported":1751717894,"current_range_meters":0,"station_id":"ce4bgt92rcd13ifvqcf0","pricing_plan_id":"cebpf4jnsgd1na2vs0mg"},{"bike_id":"63c721c0-726e-49d3-82b5-423fc46da94a","system_id":"levelo_inurba_marseille","lat":43.30271,"lon":5.40085,"is_reserved":false,"is_disabled":true,"rental_uris":{"android":"levelo://app?vid=63c721c0-726e-49d3-82b5-423fc46da94a","ios":"levelo://app?vid=63c721c0-726e-49d3-82b5-423fc46da94a"},"vehicle_type_id":"4","last_reported":1751717894,"current_range_meters":0,"station_id":"ce4bgvh2rcd13ifvqcs0","pricing_plan_id":"cebpf4jnsgd1na2vs0mg"},{"bike_id":"bb86dfb0-cda1-464f-a9f9-e45a5c068f3c","system_id":"levelo_inurba_marseille","lat":43.29097,"lon":5.38157,"is_reserved":false,"is_disabled":true,"rental_uris":{"android":"levelo://app?vid=bb86dfb0-cda1-464f-a9f9-e45a5c068f3c","ios":"levelo://app?vid=bb86dfb0-cda1-464f-a9f9-e45a5c068f3c"},"vehicle_type_id":"4","last_reported":1751717894,"current_range_meters":0,"station_id":"ce4bh512rcd13ifvqe2g","pricing_plan_id":"cebpf4jnsgd1na2vs0mg"},{"bike_id":"7b59b02f-d11f-4605-98d5-ae20c43c1982","system_id":"levelo_inurba_marseille","lat":43.241713,"lon":5.364399,"is_reserved":false,"is_disabled":true,"rental_uris":{"android":"levelo://app?vid=7b59b02f-d11f-4605-98d5-ae20c43c1982","ios":"levelo://app?vid=7b59b02f-d11f-4605-98d5-ae20c43c1982"},"vehicle_type_id":"4","last_reported":1751717894,"current_range_meters":0,"station_id":"ce4bhbh2rcd13ifvqeqg","pricing_plan_id":"cebpf4jnsgd1na2vs0mg"},{"bike_id":"e2c3b26c-7af2-402a-8384-b86cb1b42112","system_id":"levelo_inurba_marseille","lat":43.27055,"lon":5.40277,"is_reserved":false,"is_disabled":true,"rental_uris":{"android":"levelo://app?vid=e2c3b26c-7af2-402a-8384-b86cb1b42112","ios":"levelo://app?vid=e2c3b26c-7af2-402a-8384-b86cb1b42112"},"vehicle_type_id":"4","last_reported":1751717894,"current_range_meters":0,"station_id":"ce4bhk92rcd13ifvqgc0","pricing_plan_id":"cebpf4jnsgd1na2vs0mg"},{"bike_id":"030833f6-f365-4b0a-ab3c-50584a2e4a9a","system_id":"levelo_inurba_marseille","lat":43.3107,"lon":5.38399,"is_reserved":false,"is_disabled":true,"rental_uris":{"android":"levelo://app?vid=030833f6-f365-4b0a-ab3c-50584a2e4a9a","ios":"levelo://app?vid=030833f6-f365-4b0a-ab3c-50584a2e4a9a"},"vehicle_type_id":"4","last_reported":1751717894,"current_range_meters":400,"station_id":"ce4bgv92rcd13ifvqcr0","pricing_plan_id":"cebpf4jnsgd1na2vs0mg"},{"bike_id":"8afa7640-ebe8-4025-983a-c83f3912a2dd","system_id":"levelo_inurba_marseille","lat":43.21224,"lon":5.35089,"is_reserved":false,"is_disabled":true,"rental_uris":{"android":"levelo://app?vid=8afa7640-ebe8-4025-983a-c83f3912a2dd","ios":"levelo://app?vid=8afa7640-ebe8-4025-983a-c83f3912a2dd"},"vehicle_type_id":"4","last_reported":1751717894,"current_range_meters":400,"station_id":"st_cvj6sg6p6f1abm77japg","pricing_plan_id":"cebpf4jnsgd1na2vs0mg"},{"bike_id":"260d8f64-b0c0-4721-a099-c59bc14cec2b","system_id":"levelo_inurba_marseille","lat":43.27975,"lon":5.38739,"is_reserved":false,"is_disabled":true,"rental_uris":{"android":"levelo://app?vid=260d8f64-b0c0-4721-a099-c59bc14cec2b","ios":"levelo://app?vid=260d8f64-b0c0-4721-a099-c59bc14cec2b"},"vehicle_type_id":"4","last_reported":1751717894,"current_range_meters":800,"station_id":"ce4bhg12rcd13ifvqf80","pricing_plan_id":"cebpf4jnsgd1na2vs0mg"},{"bike_id":"837df4cd-55b1-4912-a7b5-e001d84cb2a1","system_id":"levelo_inurba_marseille","lat":43.23973,"lon":5.36653,"is_reserved":false,"is_disabled":true,"rental_uris":{"android":"levelo://app?vid=837df4cd-55b1-4912-a7b5-e001d84cb2a1","ios":"levelo://app?vid=837df4cd-55b1-4912-a7b5-e001d84cb2a1"},"vehicle_type_id":"4","last_reported":1751717894,"current_range_meters":800,"station_id":"ce4bhi12rcd13ifvqfp0","pricing_plan_id":"cebpf4jnsgd1na2vs0mg"},{"bike_id":"20ccfc80-4a71-4aff-a61e-6d0c3818cf7c","system_id":"levelo_inurba_marseille","lat":43.262047,"lon":5.379337,"is_reserved":false,"is_disabled":true,"rental_uris":{"android":"levelo://app?vid=20ccfc80-4a71-4aff-a61e-6d0c3818cf7c","ios":"levelo://app?vid=20ccfc80-4a71-4aff-a61e-6d0c3818cf7c"},"vehicle_type_id":"4","last_reported":1751717894,"current_range_meters":800,"station_id":"ce4bhjp2rcd13ifvqg90","pricing_plan_id":"cebpf4jnsgd1na2vs0mg"},{"bike_id":"9f4da16d-9d2f-4736-978d-bea47d1b6b6b","system_id":"levelo_inurba_marseille","lat":43.26942,"lon":5.4026,"is_reserved":false,"is_disabled":true,"rental_uris":{"android":"levelo://app?vid=9f4da16d-9d2f-4736-978d-bea47d1b6b6b","ios":"levelo://app?vid=9f4da16d-9d2f-4736-978d-bea47d1b6b6b"},"vehicle_type_id":"4","last_reported":1751717894,"current_range_meters":800,"station_id":"cjm6bp8fraef2m0cb0m0","pricing_plan_id":"cebpf4jnsgd1na2vs0mg"},{"bike_id":"0c49a7d6-f9db-4a6c-978f-71d3ca86d4a3","system_id":"levelo_inurba_marseille","lat":43.22509,"lon":5.34791,"is_reserved":false,"is_disabled":true,"rental_uris":{"android":"levelo://app?vid=0c49a7d6-f9db-4a6c-978f-71d3ca86d4a3","ios":"levelo://app?vid=0c49a7d6-f9db-4a6c-978f-71d3ca86d4a3"},"vehicle_type_id":"4","last_reported":1751717894,"current_range_meters":800,"station_id":"st_cvj5dfep6f1abm77gieg","pricing_plan_id":"cebpf4jnsgd1na2vs0mg"},{"bike_id":"e26ba497-efc7-4420-b8c5-9fa5e27f2ce4","system_id":"levelo_inurba_marseille","lat":43.313708,"lon":5.370705,"is_reserved":false,"is_disabled":true,"rental_uris":{"android":"levelo://app?vid=e26ba497-efc7-4420-b8c5-9fa5e27f2ce4","ios":"levelo://app?vid=e26ba497-efc7-4420-b8c5-9fa5e27f2ce4"},"vehicle_type_id":"4","last_reported":1751717894,"current_range_meters":1600,"station_id":"","pricing_plan_id":"cebpf4jnsgd1na2vs0mg"},{"bike_id":"aef5dba8-dff6-417f-b93a-471c87a4986f","system_id":"levelo_inurba_marseille","lat":43.31279,"lon":5.4016,"is_reserved":false,"is_disabled":true,"rental_uris":{"android":"levelo://app?vid=aef5dba8-dff6-417f-b93a-471c87a4986f","ios":"levelo://app?vid=aef5dba8-dff6-417f-b93a-471c87a4986f"},"vehicle_type_id":"4","last_reported":1751717894,"current_range_meters":1600,"station_id":"ce4bh092rcd13ifvqd30","pricing_plan_id":"cebpf4jnsgd1na2vs0mg"},{"bike_id":"9f99a3e7-d2b4-43a4-bfb2-dfd975d15db0","system_id":"levelo_inurba_marseille","lat":43.298903,"lon":5.389107,"is_reserved":false,"is_disabled":true,"rental_uris":{"android":"levelo://app?vid=9f99a3e7-d2b4-43a4-bfb2-dfd975d15db0","ios":"levelo://app?vid=9f99a3e7-d2b4-43a4-bfb2-dfd975d15db0"},"vehicle_type_id":"4","last_reported":1751717894,"current_range_meters":1600,"station_id":"ce4bh392rcd13ifvqdl0","pricing_plan_id":"cebpf4jnsgd1na2vs0mg"},{"bike_id":"fa27a237-9c79-4620-83f1-a6c7c73aeb00","system_id":"levelo_inurba_marseille","lat":43.28619,"lon":5.35109,"is_reserved":false,"is_disabled":true,"rental_uris":{"android":"levelo://app?vid=fa27a237-9c79-4620-83f1-a6c7c73aeb00","ios":"levelo://app?vid=fa27a237-9c79-4620-83f1-a6c7c73aeb00"},"vehicle_type_id":"4","last_reported":1751717894,"current_range_meters":1600,"station_id":"ce4bhch2rcd13ifvqeug","pricing_plan_id":"cebpf4jnsgd1na2vs0mg"},{"bike_id":"33a7516a-7da6-4d99-97bb-14e06afc8700","system_id":"levelo_inurba_marseille","lat":43.22936,"lon":5.35374,"is_reserved":false,"is_disabled":true,"rental_uris":{"android":"levelo://app?vid=33a7516a-7da6-4d99-97bb-14e06afc8700","ios":"levelo://app?vid=33a7516a-7da6-4d99-97bb-14e06afc8700"},"vehicle_type_id":"4","last_reported":1751717894,"current_range_meters":1600,"station_id":"cpo3532slgdg3j2ikp40","pricing_plan_id":"cebpf4jnsgd1na2vs0mg"},{"bike_id":"d9de979a-79f9-473a-a42b-22a1a18a6c50","system_id":"levelo_inurba_marseille","lat":43.2841,"lon":5.37518,"is_reserved":false,"is_disabled":true,"rental_uris":{"android":"levelo://app?vid=d9de979a-79f9-473a-a42b-22a1a18a6c50","ios":"levelo://app?vid=d9de979a-79f9-473a-a42b-22a1a18a6c50"},"vehicle_type_id":"4","last_reported":1751717894,"current_range_meters":2000,"station_id":"ce4bh412rcd13ifvqds0","pricing_plan_id":"cebpf4jnsgd1na2vs0mg"},{"bike_id":"3eb120e2-3667-44d6-a0fa-4cad7280e1e5","system_id":"levelo_inurba_marseille","lat":43.28268,"lon":5.35072,"is_reserved":false,"is_disabled":true,"rental_uris":{"android":"levelo://app?vid=3eb120e2-3667-44d6-a0fa-4cad7280e1e5","ios":"levelo://app?vid=3eb120e2-3667-44d6-a0fa-4cad7280e1e5"},"vehicle_type_id":"4","last_reported":1751717894,"current_range_meters":2000,"station_id":"ce4bhbp2rcd13ifvqerg","pricing_plan_id":"cebpf4jnsgd1na2vs0mg"},{"bike_id":"980def74-a601-42aa-baab-df1eb4d87057","system_id":"levelo_inurba_marseille","lat":43.23195,"lon":5.35555,"is_reserved":false,"is_disabled":false,"rental_uris":{"android":"levelo://app?vid=980def74-a601-42aa-baab-df1eb4d87057","ios":"levelo://app?vid=980def74-a601-42aa-baab-df1eb4d87057"},"vehicle_type_id":"4","last_reported":1751717894,"current_range_meters":2800,"station_id":"ce4bhu92rcd13ifvqi70","pricing_plan_id":"cebpf4jnsgd1na2vs0mg"},{"bike_id":"c68d619d-fbc5-4a5a-ad96-d1373620cee0","system_id":"levelo_inurba_marseille","lat":43.23068,"lon":5.35493,"is_reserved":false,"is_disabled":false,"rental_uris":{"android":"levelo://app?vid=c68d619d-fbc5-4a5a-ad96-d1373620cee0","ios":"levelo://app?vid=c68d619d-fbc5-4a5a-ad96-d1373620cee0"},"vehicle_type_id":"4","last_reported":1751717894,"current_range_meters":2800,"station_id":"cpo3342slgdg3j2ifvpg","pricing_plan_id":"cebpf4jnsgd1na2vs0mg"},{"bike_id":"9bfc7d3d-4e60-4f8a-9c32-ef3d0e77ec5b","system_id":"levelo_inurba_marseille","lat":43.211928,"lon":5.350728,"is_reserved":false,"is_disabled":false,"rental_uris":{"android":"levelo://app?vid=9bfc7d3d-4e60-4f8a-9c32-ef3d0e77ec5b","ios":"levelo://app?vid=9bfc7d3d-4e60-4f8a-9c32-ef3d0e77ec5b"},"vehicle_type_id":"4","last_reported":1751717894,"current_range_meters":2800,"station_id":"st_cvj6sg6p6f1abm77japg","pricing_plan_id":"cebpf4jnsgd1na2vs0mg"},{"bike_id":"a3254185-0252-4bd0-b39d-205b94ce7177","system_id":"levelo_inurba_marseille","lat":43.312,"lon":5.3685,"is_reserved":false,"is_disabled":false,"rental_uris":{"android":"levelo://app?vid=a3254185-0252-4bd0-b39d-205b94ce7177","ios":"levelo://app?vid=a3254185-0252-4bd0-b39d-205b94ce7177"},"vehicle_type_id":"4","last_reported":1751717894,"current_range_meters":3200,"station_id":"ce4bgl92rcd13ifvqbq0","pricing_plan_id":"cebpf4jnsgd1na2vs0mg"},{"bike_id":"d52317ec-9d8e-4e5d-a5ef-563eb0952a26","system_id":"levelo_inurba_marseille","lat":43.31762,"lon":5.39007,"is_reserved":false,"is_disabled":false,"rental_uris":{"android":"levelo://app?vid=d52317ec-9d8e-4e5d-a5ef-563eb0952a26","ios":"levelo://app?vid=d52317ec-9d8e-4e5d-a5ef-563eb0952a26"},"vehicle_type_id":"4","last_reported":1751717894,"current_range_meters":3200,"station_id":"ce4bhqp2rcd13ifvqhng","pricing_plan_id":"cebpf4jnsgd1na2vs0mg"},{"bike_id":"e6e3ebe5-5d8f-437c-8f99-f6bd243ac5b2","system_id":"levelo_inurba_marseille","lat":43.30483,"lon":5.36957,"is_reserved":false,"is_disabled":false,"rental_uris":{"android":"levelo://app?vid=e6e3ebe5-5d8f-437c-8f99-f6bd243ac5b2","ios":"levelo://app?vid=e6e3ebe5-5d8f-437c-8f99-f6bd243ac5b2"},"vehicle_type_id":"4","last_reported":1751717894,"current_range_meters":3600,"station_id":"","pricing_plan_id":"cebpf4jnsgd1na2vs0mg"},{"bike_id":"80335fc8-36c8-4c76-b240-2c0da993dff0","system_id":"levelo_inurba_marseille","lat":43.31714,"lon":5.40476,"is_reserved":false,"is_disabled":false,"rental_uris":{"android":"levelo://app?vid=80335fc8-36c8-4c76-b240-2c0da993dff0","ios":"levelo://app?vid=80335fc8-36c8-4c76-b240-2c0da993dff0"},"vehicle_type_id":"4","last_reported":1751717894,"current_range_meters":3600,"station_id":"ce4bh012rcd13ifvqd00","pricing_plan_id":"cebpf4jnsgd1na2vs0mg"},{"bike_id":"3e8a510b-f222-4526-a77c-246b1d34e03b","system_id":"levelo_inurba_marseille","lat":43.28356,"lon":5.38103,"is_reserved":false,"is_disabled":false,"rental_uris":{"android":"levelo://app?vid=3e8a510b-f222-4526-a77c-246b1d34e03b","ios":"levelo://app?vid=3e8a510b-f222-4526-a77c-246b1d34e03b"},"vehicle_type_id":"4","last_reported":1751717894,"current_range_meters":3600,"station_id":"ce4bh412rcd13ifvqdr0","pricing_plan_id":"cebpf4jnsgd1na2vs0mg"},{"bike_id":"be4e2ba2-f83c-4be6-923a-932d435bb5ce","system_id":"levelo_inurba_marseille","lat":43.28248,"lon":5.40478,"is_reserved":false,"is_disabled":false,"rental_uris":{"android":"levelo://app?vid=be4e2ba2-f83c-4be6-923a-932d435bb5ce","ios":"levelo://app?vid=be4e2ba2-f83c-4be6-923a-932d435bb5ce"},"vehicle_type_id":"4","last_reported":1751717894,"current_range_meters":4000,"station_id":"","pricing_plan_id":"cebpf4jnsgd1na2vs0mg"},{"bike_id":"2c6dece5-6a69-4a34-b926-2252928e63d9","system_id":"levelo_inurba_marseille","lat":43.27381,"lon":5.3626,"is_reserved":false,"is_disabled":false,"rental_uris":{"android":"levelo://app?vid=2c6dece5-6a69-4a34-b926-2252928e63d9","ios":"levelo://app?vid=2c6dece5-6a69-4a34-b926-2252928e63d9"},"vehicle_type_id":"4","last_reported":1751717894,"current_range_meters":4000,"station_id":"ce4bhbh2rcd13ifvqeo0","pricing_plan_id":"cebpf4jnsgd1na2vs0mg"},{"bike_id":"2bfd8194-1788-482a-abe4-630e6963af29","system_id":"levelo_inurba_marseille","lat":43.29541,"lon":5.38549,"is_reserved":false,"is_disabled":false,"rental_uris":{"android":"levelo://app?vid=2bfd8194-1788-482a-abe4-630e6963af29","ios":"levelo://app?vid=2bfd8194-1788-482a-abe4-630e6963af29"},"vehicle_type_id":"4","last_reported":1751717894,"current_range_meters":4400,"station_id":"ce4bgih2rcd13ifvqba0","pricing_plan_id":"cebpf4jnsgd1na2vs0mg"},{"bike_id":"8d560a0f-188b-4ce4-b1af-a028cd41ab2e","system_id":"levelo_inurba_marseille","lat":43.30549,"lon":5.36556,"is_reserved":false,"is_disabled":false,"rental_uris":{"android":"levelo://app?vid=8d560a0f-188b-4ce4-b1af-a028cd41ab2e","ios":"levelo://app?vid=8d560a0f-188b-4ce4-b1af-a028cd41ab2e"},"vehicle_type_id":"4","last_reported":1751717894,"current_range_meters":4400,"station_id":"ce4bgs12rcd13ifvqcag","pricing_plan_id":"cebpf4jnsgd1na2vs0mg"},{"bike_id":"5ca9e49b-0b30-4330-a0e7-919c93fcd958","system_id":"levelo_inurba_marseille","lat":43.31198,"lon":5.38736,"is_reserved":false,"is_disabled":false,"rental_uris":{"android":"levelo://app?vid=5ca9e49b-0b30-4330-a0e7-919c93fcd958","ios":"levelo://app?vid=5ca9e49b-0b30-4330-a0e7-919c93fcd958"},"vehicle_type_id":"4","last_reported":1751717894,"current_range_meters":4400,"station_id":"ce4bgv12rcd13ifvqcp0","pricing_plan_id":"cebpf4jnsgd1na2vs0mg"},{"bike_id":"aeede861-5b57-441b-ba12-2c9071ad4f5d","system_id":"levelo_inurba_marseille","lat":43.25499,"lon":5.37652,"is_reserved":false,"is_disabled":false,"rental_uris":{"android":"levelo://app?vid=aeede861-5b57-441b-ba12-2c9071ad4f5d","ios":"levelo://app?vid=aeede861-5b57-441b-ba12-2c9071ad4f5d"},"vehicle_type_id":"4","last_reported":1751717894,"current_range_meters":4400,"station_id":"ce4bhh12rcd13ifvqff0","pricing_plan_id":"cebpf4jnsgd1na2vs0mg"},{"bike_id":"f6ac2ca1-a3ac-4f58-b1a1-b74be8a76990","system_id":"levelo_inurba_marseille","lat":43.298961,"lon":5.436419,"is_reserved":false,"is_disabled":false,"rental_uris":{"android":"levelo://app?vid=f6ac2ca1-a3ac-4f58-b1a1-b74be8a76990","ios":"levelo://app?vid=f6ac2ca1-a3ac-4f58-b1a1-b74be8a76990"},"vehicle_type_id":"4","last_reported":1751717894,"current_range_meters":4400,"station_id":"ce4bhpp2rcd13ifvqhfg","pricing_plan_id":"cebpf4jnsgd1na2vs0mg"},{"bike_id":"6c2a6d04-4b0d-45c2-99de-4707245db9b8","system_id":"levelo_inurba_marseille","lat":43.318909,"lon":5.407285,"is_reserved":false,"is_disabled":false,"rental_uris":{"android":"levelo://app?vid=6c2a6d04-4b0d-45c2-99de-4707245db9b8","ios":"levelo://app?vid=6c2a6d04-4b0d-45c2-99de-4707245db9b8"},"vehicle_type_id":"4","last_reported":1751717894,"current_range_meters":4400,"station_id":"ce4bhq12rcd13ifvqhig","pricing_plan_id":"cebpf4jnsgd1na2vs0mg"},{"bike_id":"0be4dbd2-fc80-4c8a-a385-92bf6c5eec44","system_id":"levelo_inurba_marseille","lat":43.29093,"lon":5.38155,"is_reserved":false,"is_disabled":false,"rental_uris":{"android":"levelo://app?vid=0be4dbd2-fc80-4c8a-a385-92bf6c5eec44","ios":"levelo://app?vid=0be4dbd2-fc80-4c8a-a385-92bf6c5eec44"},"vehicle_type_id":"4","last_reported":1751717894,"current_range_meters":4800,"station_id":"ce4bh512rcd13ifvqe2g","pricing_plan_id":"cebpf4jnsgd1na2vs0mg"},{"bike_id":"02cd26cf-a4f5-404b-8bd6-08fb2e24dd05","system_id":"levelo_inurba_marseille","lat":43.29202,"lon":5.39327,"is_reserved":false,"is_disabled":false,"rental_uris":{"android":"levelo://app?vid=02cd26cf-a4f5-404b-8bd6-08fb2e24dd05","ios":"levelo://app?vid=02cd26cf-a4f5-404b-8bd6-08fb2e24dd05"},"vehicle_type_id":"4","last_reported":1751717894,"current_range_meters":5600,"station_id":"ce4bh192rcd13ifvqdd0","pricing_plan_id":"cebpf4jnsgd1na2vs0mg"},{"bike_id":"5467ba82-e602-4302-97ae-ae761f0ad28b","system_id":"levelo_inurba_marseille","lat":43.23068,"lon":5.35494,"is_reserved":false,"is_disabled":false,"rental_uris":{"android":"levelo://app?vid=5467ba82-e602-4302-97ae-ae761f0ad28b","ios":"levelo://app?vid=5467ba82-e602-4302-97ae-ae761f0ad28b"},"vehicle_type_id":"4","last_reported":1751717894,"current_range_meters":5600,"station_id":"cpo3342slgdg3j2ifvpg","pricing_plan_id":"cebpf4jnsgd1na2vs0mg"},{"bike_id":"d799b321-3a7d-4201-b46e-ffe2ad124f19","system_id":"levelo_inurba_marseille","lat":43.329,"lon":5.38413,"is_reserved":false,"is_disabled":false,"rental_uris":{"android":"levelo://app?vid=d799b321-3a7d-4201-b46e-ffe2ad124f19","ios":"levelo://app?vid=d799b321-3a7d-4201-b46e-ffe2ad124f19"},"vehicle_type_id":"4","last_reported":1751717894,"current_range_meters":6000,"station_id":"","pricing_plan_id":"cebpf4jnsgd1na2vs0mg"},{"bike_id":"5f8e5eb3-04d3-411e-a94b-c4257968a6e4","system_id":"levelo_inurba_marseille","lat":43.25871,"lon":5.39915,"is_reserved":false,"is_disabled":false,"rental_uris":{"android":"levelo://app?vid=5f8e5eb3-04d3-411e-a94b-c4257968a6e4","ios":"levelo://app?vid=5f8e5eb3-04d3-411e-a94b-c4257968a6e4"},"vehicle_type_id":"4","last_reported":1751717894,"current_range_meters":6000,"station_id":"ce4bhl92rcd13ifvqghg","pricing_plan_id":"cebpf4jnsgd1na2vs0mg"},{"bike_id":"e3822c24-4fb4-45b7-8cd2-6e1079eeff65","system_id":"levelo_inurba_marseille","lat":43.310916,"lon":5.424323,"is_reserved":false,"is_disabled":false,"rental_uris":{"android":"levelo://app?vid=e3822c24-4fb4-45b7-8cd2-6e1079eeff65","ios":"levelo://app?vid=e3822c24-4fb4-45b7-8cd2-6e1079eeff65"},"vehicle_type_id":"4","last_reported":1751717894,"current_range_meters":6000,"station_id":"ce4bhp92rcd13ifvqhag","pricing_plan_id":"cebpf4jnsgd1na2vs0mg"},{"bike_id":"c964f9ad-5fd6-4560-bebc-83a1ddb1841f","system_id":"levelo_inurba_marseille","lat":43.31525,"lon":5.38037,"is_reserved":false,"is_disabled":false,"rental_uris":{"android":"levelo://app?vid=c964f9ad-5fd6-4560-bebc-83a1ddb1841f","ios":"levelo://app?vid=c964f9ad-5fd6-4560-bebc-83a1ddb1841f"},"vehicle_type_id":"4","last_reported":1751717894,"current_range_meters":6400,"station_id":"ce4bhsp2rcd13ifvqi50","pricing_plan_id":"cebpf4jnsgd1na2vs0mg"},{"bike_id":"33d63bdf-de3b-4638-b96e-2f67317f8dbf","system_id":"levelo_inurba_marseille","lat":43.21194,"lon":5.35074,"is_reserved":false,"is_disabled":false,"rental_uris":{"android":"levelo://app?vid=33d63bdf-de3b-4638-b96e-2f67317f8dbf","ios":"levelo://app?vid=33d63bdf-de3b-4638-b96e-2f67317f8dbf"},"vehicle_type_id":"4","last_reported":1751717894,"current_range_meters":6400,"station_id":"st_cvj6sg6p6f1abm77japg","pricing_plan_id":"cebpf4jnsgd1na2vs0mg"},{"bike_id":"dbde0d81-068a-4fa4-a92a-5f5e4289de54","system_id":"levelo_inurba_marseille","lat":43.28424,"lon":5.34985,"is_reserved":false,"is_disabled":false,"rental_uris":{"android":"levelo://app?vid=dbde0d81-068a-4fa4-a92a-5f5e4289de54","ios":"levelo://app?vid=dbde0d81-068a-4fa4-a92a-5f5e4289de54"},"vehicle_type_id":"4","last_reported":1751717894,"current_range_meters":6800,"station_id":"","pricing_plan_id":"cebpf4jnsgd1na2vs0mg"},{"bike_id":"7d700fe5-59ec-4d47-b8c2-c85d7cc322a5","system_id":"levelo_inurba_marseille","lat":43.297082,"lon":5.376935,"is_reserved":false,"is_disabled":false,"rental_uris":{"android":"levelo://app?vid=7d700fe5-59ec-4d47-b8c2-c85d7cc322a5","ios":"levelo://app?vid=7d700fe5-59ec-4d47-b8c2-c85d7cc322a5"},"vehicle_type_id":"4","last_reported":1751717894,"current_range_meters":6800,"station_id":"ce4bgkh2rcd13ifvqbl0","pricing_plan_id":"cebpf4jnsgd1na2vs0mg"},{"bike_id":"ba154a12-11bd-42a5-958a-5992f5d043d1","system_id":"levelo_inurba_marseille","lat":43.305056,"lon":5.370747,"is_reserved":false,"is_disabled":false,"rental_uris":{"android":"levelo://app?vid=ba154a12-11bd-42a5-958a-5992f5d043d1","ios":"levelo://app?vid=ba154a12-11bd-42a5-958a-5992f5d043d1"},"vehicle_type_id":"4","last_reported":1751717894,"current_range_meters":7200,"station_id":"","pricing_plan_id":"cebpf4jnsgd1na2vs0mg"},{"bike_id":"fa04917b-0ab4-477a-83af-9ca165bc10b5","system_id":"levelo_inurba_marseille","lat":43.2953,"lon":5.38537,"is_reserved":false,"is_disabled":false,"rental_uris":{"android":"levelo://app?vid=fa04917b-0ab4-477a-83af-9ca165bc10b5","ios":"levelo://app?vid=fa04917b-0ab4-477a-83af-9ca165bc10b5"},"vehicle_type_id":"4","last_reported":1751717894,"current_range_meters":7200,"station_id":"ce4bgih2rcd13ifvqba0","pricing_plan_id":"cebpf4jnsgd1na2vs0mg"},{"bike_id":"3a39d633-2bdc-4c0e-8610-db72d033a07d","system_id":"levelo_inurba_marseille","lat":43.29287,"lon":5.40127,"is_reserved":false,"is_disabled":false,"rental_uris":{"android":"levelo://app?vid=3a39d633-2bdc-4c0e-8610-db72d033a07d","ios":"levelo://app?vid=3a39d633-2bdc-4c0e-8610-db72d033a07d"},"vehicle_type_id":"4","last_reported":1751717894,"current_range_meters":7200,"station_id":"ce4bh312rcd13ifvqdk0","pricing_plan_id":"cebpf4jnsgd1na2vs0mg"},{"bike_id":"18672532-2c01-424c-a061-b11736b6e545","system_id":"levelo_inurba_marseille","lat":43.28932,"lon":5.38388,"is_reserved":false,"is_disabled":false,"rental_uris":{"android":"levelo://app?vid=18672532-2c01-424c-a061-b11736b6e545","ios":"levelo://app?vid=18672532-2c01-424c-a061-b11736b6e545"},"vehicle_type_id":"4","last_reported":1751717894,"current_range_meters":7200,"station_id":"ce4bh612rcd13ifvqe6g","pricing_plan_id":"cebpf4jnsgd1na2vs0mg"},{"bike_id":"28a93013-239d-4aad-b74f-1edc51452a44","system_id":"levelo_inurba_marseille","lat":43.24667,"lon":5.38158,"is_reserved":false,"is_disabled":false,"rental_uris":{"android":"levelo://app?vid=28a93013-239d-4aad-b74f-1edc51452a44","ios":"levelo://app?vid=28a93013-239d-4aad-b74f-1edc51452a44"},"vehicle_type_id":"4","last_reported":1751717894,"current_range_meters":7200,"station_id":"ce4bhih2rcd13ifvqfr0","pricing_plan_id":"cebpf4jnsgd1na2vs0mg"},{"bike_id":"edcd27cf-91ab-4ebe-b50e-2828eb362aa2","system_id":"levelo_inurba_marseille","lat":43.258636,"lon":5.398998,"is_reserved":false,"is_disabled":false,"rental_uris":{"android":"levelo://app?vid=edcd27cf-91ab-4ebe-b50e-2828eb362aa2","ios":"levelo://app?vid=edcd27cf-91ab-4ebe-b50e-2828eb362aa2"},"vehicle_type_id":"4","last_reported":1751717894,"current_range_meters":7200,"station_id":"ce4bhl92rcd13ifvqghg","pricing_plan_id":"cebpf4jnsgd1na2vs0mg"},{"bike_id":"b5d0e912-66e1-479b-bc4c-148874b07810","system_id":"levelo_inurba_marseille","lat":43.31722,"lon":5.42398,"is_reserved":false,"is_disabled":false,"rental_uris":{"android":"levelo://app?vid=b5d0e912-66e1-479b-bc4c-148874b07810","ios":"levelo://app?vid=b5d0e912-66e1-479b-bc4c-148874b07810"},"vehicle_type_id":"4","last_reported":1751717894,"current_range_meters":7200,"station_id":"ce4bhp92rcd13ifvqhbg","pricing_plan_id":"cebpf4jnsgd1na2vs0mg"},{"bike_id":"ef23af67-d763-4b65-94e2-18e41a6b6975","system_id":"levelo_inurba_marseille","lat":43.23067,"lon":5.35496,"is_reserved":false,"is_disabled":false,"rental_uris":{"android":"levelo://app?vid=ef23af67-d763-4b65-94e2-18e41a6b6975","ios":"levelo://app?vid=ef23af67-d763-4b65-94e2-18e41a6b6975"},"vehicle_type_id":"4","last_reported":1751717894,"current_range_meters":7200,"station_id":"cpo3342slgdg3j2ifvpg","pricing_plan_id":"cebpf4jnsgd1na2vs0mg"},{"bike_id":"a57434b9-cc81-4f0b-ba91-1feeb211115e","system_id":"levelo_inurba_marseille","lat":43.30673,"lon":5.36527,"is_reserved":false,"is_disabled":false,"rental_uris":{"android":"levelo://app?vid=a57434b9-cc81-4f0b-ba91-1feeb211115e","ios":"levelo://app?vid=a57434b9-cc81-4f0b-ba91-1feeb211115e"},"vehicle_type_id":"4","last_reported":1751717894,"current_range_meters":8000,"station_id":"","pricing_plan_id":"cebpf4jnsgd1na2vs0mg"},{"bike_id":"0c4b7fdb-b39e-49b3-a2b0-ae3d0f43e89d","system_id":"levelo_inurba_marseille","lat":43.329106,"lon":5.406039,"is_reserved":false,"is_disabled":false,"rental_uris":{"android":"levelo://app?vid=0c4b7fdb-b39e-49b3-a2b0-ae3d0f43e89d","ios":"levelo://app?vid=0c4b7fdb-b39e-49b3-a2b0-ae3d0f43e89d"},"vehicle_type_id":"4","last_reported":1751717894,"current_range_meters":8000,"station_id":"","pricing_plan_id":"cebpf4jnsgd1na2vs0mg"},{"bike_id":"8358635a-ffb4-4dbc-9378-2cb6960e13f3","system_id":"levelo_inurba_marseille","lat":43.27059,"lon":5.40263,"is_reserved":false,"is_disabled":false,"rental_uris":{"android":"levelo://app?vid=8358635a-ffb4-4dbc-9378-2cb6960e13f3","ios":"levelo://app?vid=8358635a-ffb4-4dbc-9378-2cb6960e13f3"},"vehicle_type_id":"4","last_reported":1751717894,"current_range_meters":8000,"station_id":"ce4bhk92rcd13ifvqgc0","pricing_plan_id":"cebpf4jnsgd1na2vs0mg"},{"bike_id":"571abec9-12fe-4261-907b-5b08f5260cfb","system_id":"levelo_inurba_marseille","lat":43.23162,"lon":5.43707,"is_reserved":false,"is_disabled":false,"rental_uris":{"android":"levelo://app?vid=571abec9-12fe-4261-907b-5b08f5260cfb","ios":"levelo://app?vid=571abec9-12fe-4261-907b-5b08f5260cfb"},"vehicle_type_id":"4","last_reported":1751717894,"current_range_meters":8000,"station_id":"ce4bhmp2rcd13ifvqgog","pricing_plan_id":"cebpf4jnsgd1na2vs0mg"},{"bike_id":"4f424b5e-efc8-4a41-8592-3ccb81c888d3","system_id":"levelo_inurba_marseille","lat":43.23217,"lon":5.35541,"is_reserved":false,"is_disabled":false,"rental_uris":{"android":"levelo://app?vid=4f424b5e-efc8-4a41-8592-3ccb81c888d3","ios":"levelo://app?vid=4f424b5e-efc8-4a41-8592-3ccb81c888d3"},"vehicle_type_id":"4","last_reported":1751717894,"current_range_meters":8000,"station_id":"ce4bhu92rcd13ifvqi70","pricing_plan_id":"cebpf4jnsgd1na2vs0mg"},{"bike_id":"72befbae-cb73-4f60-b531-c5083bb82323","system_id":"levelo_inurba_marseille","lat":43.2307,"lon":5.3549,"is_reserved":false,"is_disabled":false,"rental_uris":{"android":"levelo://app?vid=72befbae-cb73-4f60-b531-c5083bb82323","ios":"levelo://app?vid=72befbae-cb73-4f60-b531-c5083bb82323"},"vehicle_type_id":"4","last_reported":1751717894,"current_range_meters":8000,"station_id":"cpo3342slgdg3j2ifvpg","pricing_plan_id":"cebpf4jnsgd1na2vs0mg"},{"bike_id":"2ffeba7a-8316-4052-8019-91454da58cbe","system_id":"levelo_inurba_marseille","lat":43.26976,"lon":5.42053,"is_reserved":false,"is_disabled":false,"rental_uris":{"android":"levelo://app?vid=2ffeba7a-8316-4052-8019-91454da58cbe","ios":"levelo://app?vid=2ffeba7a-8316-4052-8019-91454da58cbe"},"vehicle_type_id":"4","last_reported":1751717894,"current_range_meters":8400,"station_id":"","pricing_plan_id":"cebpf4jnsgd1na2vs0mg"},{"bike_id":"abb64691-0678-4714-a33c-772657334f13","system_id":"levelo_inurba_marseille","lat":43.29785,"lon":5.37128,"is_reserved":false,"is_disabled":false,"rental_uris":{"android":"levelo://app?vid=abb64691-0678-4714-a33c-772657334f13","ios":"levelo://app?vid=abb64691-0678-4714-a33c-772657334f13"},"vehicle_type_id":"4","last_reported":1751717894,"current_range_meters":8400,"station_id":"ce4bgop2rcd13ifvqc1g","pricing_plan_id":"cebpf4jnsgd1na2vs0mg"},{"bike_id":"7ccc9ae8-a755-4811-aaba-995910b8d24d","system_id":"levelo_inurba_marseille","lat":43.30315,"lon":5.36905,"is_reserved":false,"is_disabled":false,"rental_uris":{"android":"levelo://app?vid=7ccc9ae8-a755-4811-aaba-995910b8d24d","ios":"levelo://app?vid=7ccc9ae8-a755-4811-aaba-995910b8d24d"},"vehicle_type_id":"4","last_reported":1751717894,"current_range_meters":8400,"station_id":"ce4bgqh2rcd13ifvqc5g","pricing_plan_id":"cebpf4jnsgd1na2vs0mg"},{"bike_id":"45c682e2-b684-482d-953c-0da06daeb7c5","system_id":"levelo_inurba_marseille","lat":43.28613,"lon":5.384822,"is_reserved":false,"is_disabled":false,"rental_uris":{"android":"levelo://app?vid=45c682e2-b684-482d-953c-0da06daeb7c5","ios":"levelo://app?vid=45c682e2-b684-482d-953c-0da06daeb7c5"},"vehicle_type_id":"4","last_reported":1751717894,"current_range_meters":8400,"station_id":"ce4bh8p2rcd13ifvqeb0","pricing_plan_id":"cebpf4jnsgd1na2vs0mg"},{"bike_id":"0da28be7-6429-4fa6-9c63-647a2a04ef06","system_id":"levelo_inurba_marseille","lat":43.21747,"lon":5.34603,"is_reserved":false,"is_disabled":false,"rental_uris":{"android":"levelo://app?vid=0da28be7-6429-4fa6-9c63-647a2a04ef06","ios":"levelo://app?vid=0da28be7-6429-4fa6-9c63-647a2a04ef06"},"vehicle_type_id":"4","last_reported":1751717894,"current_range_meters":8400,"station_id":"st_cvj6r9ubvosntc0bgbag","pricing_plan_id":"cebpf4jnsgd1na2vs0mg"},{"bike_id":"6917bed5-c21f-48c3-870d-5408dab99803","system_id":"levelo_inurba_marseille","lat":43.296885,"lon":5.368854,"is_reserved":false,"is_disabled":false,"rental_uris":{"android":"levelo://app?vid=6917bed5-c21f-48c3-870d-5408dab99803","ios":"levelo://app?vid=6917bed5-c21f-48c3-870d-5408dab99803"},"vehicle_type_id":"4","last_reported":1751717894,"current_range_meters":8800,"station_id":"","pricing_plan_id":"cebpf4jnsgd1na2vs0mg"},{"bike_id":"09560b54-221e-46a1-ae7f-563b2c226485","system_id":"levelo_inurba_marseille","lat":43.29729,"lon":5.37065,"is_reserved":false,"is_disabled":false,"rental_uris":{"android":"levelo://app?vid=09560b54-221e-46a1-ae7f-563b2c226485","ios":"levelo://app?vid=09560b54-221e-46a1-ae7f-563b2c226485"},"vehicle_type_id":"4","last_reported":1751717894,"current_range_meters":8800,"station_id":"ce4bgop2rcd13ifvqc1g","pricing_plan_id":"cebpf4jnsgd1na2vs0mg"},{"bike_id":"03b7f533-e5ef-456e-92f8-de79b4a06395","system_id":"levelo_inurba_marseille","lat":43.3149,"lon":5.373053,"is_reserved":false,"is_disabled":false,"rental_uris":{"android":"levelo://app?vid=03b7f533-e5ef-456e-92f8-de79b4a06395","ios":"levelo://app?vid=03b7f533-e5ef-456e-92f8-de79b4a06395"},"vehicle_type_id":"4","last_reported":1751717894,"current_range_meters":8800,"station_id":"ce4bgt12rcd13ifvqcd0","pricing_plan_id":"cebpf4jnsgd1na2vs0mg"},{"bike_id":"2f47a0b3-fd72-4314-816a-30303669fbae","system_id":"levelo_inurba_marseille","lat":43.28838,"lon":5.35871,"is_reserved":false,"is_disabled":false,"rental_uris":{"android":"levelo://app?vid=2f47a0b3-fd72-4314-816a-30303669fbae","ios":"levelo://app?vid=2f47a0b3-fd72-4314-816a-30303669fbae"},"vehicle_type_id":"4","last_reported":1751717894,"current_range_meters":8800,"station_id":"ce4bhb12rcd13ifvqem0","pricing_plan_id":"cebpf4jnsgd1na2vs0mg"},{"bike_id":"8b6fce85-1f2b-439e-8d00-88cc18e55198","system_id":"levelo_inurba_marseille","lat":43.29714,"lon":5.36625,"is_reserved":false,"is_disabled":false,"rental_uris":{"android":"levelo://app?vid=8b6fce85-1f2b-439e-8d00-88cc18e55198","ios":"levelo://app?vid=8b6fce85-1f2b-439e-8d00-88cc18e55198"},"vehicle_type_id":"4","last_reported":1751717894,"current_range_meters":9200,"station_id":"ce4bgn12rcd13ifvqbt0","pricing_plan_id":"cebpf4jnsgd1na2vs0mg"},{"bike_id":"6649acc9-10b3-43ec-876e-cacaab99a63f","system_id":"levelo_inurba_marseille","lat":43.30931,"lon":5.40149,"is_reserved":false,"is_disabled":false,"rental_uris":{"android":"levelo://app?vid=6649acc9-10b3-43ec-876e-cacaab99a63f","ios":"levelo://app?vid=6649acc9-10b3-43ec-876e-cacaab99a63f"},"vehicle_type_id":"4","last_reported":1751717894,"current_range_meters":9200,"station_id":"ce4bgvp2rcd13ifvqct0","pricing_plan_id":"cebpf4jnsgd1na2vs0mg"},{"bike_id":"4e96d4ff-4fc9-4194-9794-0de49fa5aec4","system_id":"levelo_inurba_marseille","lat":43.30323,"lon":5.40449,"is_reserved":false,"is_disabled":false,"rental_uris":{"android":"levelo://app?vid=4e96d4ff-4fc9-4194-9794-0de49fa5aec4","ios":"levelo://app?vid=4e96d4ff-4fc9-4194-9794-0de49fa5aec4"},"vehicle_type_id":"4","last_reported":1751717894,"current_range_meters":9200,"station_id":"ce4bh012rcd13ifvqd10","pricing_plan_id":"cebpf4jnsgd1na2vs0mg"},{"bike_id":"a097b57c-cb1b-4abb-aacf-3fb6ffe25b64","system_id":"levelo_inurba_marseille","lat":43.29887,"lon":5.38907,"is_reserved":false,"is_disabled":false,"rental_uris":{"android":"levelo://app?vid=a097b57c-cb1b-4abb-aacf-3fb6ffe25b64","ios":"levelo://app?vid=a097b57c-cb1b-4abb-aacf-3fb6ffe25b64"},"vehicle_type_id":"4","last_reported":1751717894,"current_range_meters":9200,"station_id":"ce4bh392rcd13ifvqdl0","pricing_plan_id":"cebpf4jnsgd1na2vs0mg"},{"bike_id":"25c06a20-7c56-4126-b34d-ec7118a8549c","system_id":"levelo_inurba_marseille","lat":43.26063,"lon":5.39398,"is_reserved":false,"is_disabled":false,"rental_uris":{"android":"levelo://app?vid=25c06a20-7c56-4126-b34d-ec7118a8549c","ios":"levelo://app?vid=25c06a20-7c56-4126-b34d-ec7118a8549c"},"vehicle_type_id":"4","last_reported":1751717894,"current_range_meters":9200,"station_id":"ce4bhh92rcd13ifvqfj0","pricing_plan_id":"cebpf4jnsgd1na2vs0mg"},{"bike_id":"dcb06e32-c52f-42f8-9d41-116ca0820b71","system_id":"levelo_inurba_marseille","lat":43.29792,"lon":5.37102,"is_reserved":false,"is_disabled":false,"rental_uris":{"android":"levelo://app?vid=dcb06e32-c52f-42f8-9d41-116ca0820b71","ios":"levelo://app?vid=dcb06e32-c52f-42f8-9d41-116ca0820b71"},"vehicle_type_id":"4","last_reported":1751717894,"current_range_meters":9600,"station_id":"ce4bgop2rcd13ifvqc1g","pricing_plan_id":"cebpf4jnsgd1na2vs0mg"},{"bike_id":"6689766a-f026-4ecf-b66f-775eb918d4d7","system_id":"levelo_inurba_marseille","lat":43.27945,"lon":5.41057,"is_reserved":false,"is_disabled":false,"rental_uris":{"android":"levelo://app?vid=6689766a-f026-4ecf-b66f-775eb918d4d7","ios":"levelo://app?vid=6689766a-f026-4ecf-b66f-775eb918d4d7"},"vehicle_type_id":"4","last_reported":1751717894,"current_range_meters":9600,"station_id":"ce4bhnp2rcd13ifvqh0g","pricing_plan_id":"cebpf4jnsgd1na2vs0mg"},{"bike_id":"96b05bea-c75f-4f69-92c0-5319f2c84401","system_id":"levelo_inurba_marseille","lat":43.232,"lon":5.35551,"is_reserved":false,"is_disabled":false,"rental_uris":{"android":"levelo://app?vid=96b05bea-c75f-4f69-92c0-5319f2c84401","ios":"levelo://app?vid=96b05bea-c75f-4f69-92c0-5319f2c84401"},"vehicle_type_id":"4","last_reported":1751717894,"current_range_meters":9600,"station_id":"ce4bhu92rcd13ifvqi70","pricing_plan_id":"cebpf4jnsgd1na2vs0mg"},{"bike_id":"e0c01446-5176-4397-80f9-d12a75855164","system_id":"levelo_inurba_marseille","lat":43.21749,"lon":5.34605,"is_reserved":false,"is_disabled":false,"rental_uris":{"android":"levelo://app?vid=e0c01446-5176-4397-80f9-d12a75855164","ios":"levelo://app?vid=e0c01446-5176-4397-80f9-d12a75855164"},"vehicle_type_id":"4","last_reported":1751717894,"current_range_meters":9600,"station_id":"st_cvj6r9ubvosntc0bgbag","pricing_plan_id":"cebpf4jnsgd1na2vs0mg"},{"bike_id":"1c8ab180-05fd-405f-9922-b2b2c2d5142f","system_id":"levelo_inurba_marseille","lat":43.337902,"lon":5.381284,"is_reserved":false,"is_disabled":false,"rental_uris":{"android":"levelo://app?vid=1c8ab180-05fd-405f-9922-b2b2c2d5142f","ios":"levelo://app?vid=1c8ab180-05fd-405f-9922-b2b2c2d5142f"},"vehicle_type_id":"4","last_reported":1751717894,"current_range_meters":10000,"station_id":"","pricing_plan_id":"cebpf4jnsgd1na2vs0mg"},{"bike_id":"b26fae72-751e-4090-a9c4-76ff5de1ad66","system_id":"levelo_inurba_marseille","lat":43.332538,"lon":5.380411,"is_reserved":false,"is_disabled":false,"rental_uris":{"android":"levelo://app?vid=b26fae72-751e-4090-a9c4-76ff5de1ad66","ios":"levelo://app?vid=b26fae72-751e-4090-a9c4-76ff5de1ad66"},"vehicle_type_id":"4","last_reported":1751717894,"current_range_meters":10000,"station_id":"","pricing_plan_id":"cebpf4jnsgd1na2vs0mg"},{"bike_id":"6b0a1fd8-d9c6-42b7-8aee-05d9231cf95a","system_id":"levelo_inurba_marseille","lat":43.29212,"lon":5.40017,"is_reserved":false,"is_disabled":false,"rental_uris":{"android":"levelo://app?vid=6b0a1fd8-d9c6-42b7-8aee-05d9231cf95a","ios":"levelo://app?vid=6b0a1fd8-d9c6-42b7-8aee-05d9231cf95a"},"vehicle_type_id":"4","last_reported":1751717894,"current_range_meters":10000,"station_id":"","pricing_plan_id":"cebpf4jnsgd1na2vs0mg"},{"bike_id":"b2af4a6c-cc23-4b08-804e-761ba133a3ff","system_id":"levelo_inurba_marseille","lat":43.30894,"lon":5.36852,"is_reserved":false,"is_disabled":false,"rental_uris":{"android":"levelo://app?vid=b2af4a6c-cc23-4b08-804e-761ba133a3ff","ios":"levelo://app?vid=b2af4a6c-cc23-4b08-804e-761ba133a3ff"},"vehicle_type_id":"4","last_reported":1751717894,"current_range_meters":10000,"station_id":"ce4bgn92rcd13ifvqbvg","pricing_plan_id":"cebpf4jnsgd1na2vs0mg"},{"bike_id":"dc3cb026-8582-4182-81b9-b4cd7611214c","system_id":"levelo_inurba_marseille","lat":43.28723,"lon":5.36102,"is_reserved":false,"is_disabled":false,"rental_uris":{"android":"levelo://app?vid=dc3cb026-8582-4182-81b9-b4cd7611214c","ios":"levelo://app?vid=dc3cb026-8582-4182-81b9-b4cd7611214c"},"vehicle_type_id":"4","last_reported":1751717894,"current_range_meters":10000,"station_id":"cki0cbj6b192h4jlfktg","pricing_plan_id":"cebpf4jnsgd1na2vs0mg"},{"bike_id":"0b528480-d98f-4305-b1b9-d966d45d9050","system_id":"levelo_inurba_marseille","lat":43.21189,"lon":5.35081,"is_reserved":false,"is_disabled":false,"rental_uris":{"android":"levelo://app?vid=0b528480-d98f-4305-b1b9-d966d45d9050","ios":"levelo://app?vid=0b528480-d98f-4305-b1b9-d966d45d9050"},"vehicle_type_id":"4","last_reported":1751717894,"current_range_meters":10000,"station_id":"st_cvj6sg6p6f1abm77japg","pricing_plan_id":"cebpf4jnsgd1na2vs0mg"},{"bike_id":"76d127a6-3385-47a2-9e3a-490d1d976c59","system_id":"levelo_inurba_marseille","lat":43.31175,"lon":5.38245,"is_reserved":false,"is_disabled":false,"rental_uris":{"android":"levelo://app?vid=76d127a6-3385-47a2-9e3a-490d1d976c59","ios":"levelo://app?vid=76d127a6-3385-47a2-9e3a-490d1d976c59"},"vehicle_type_id":"4","last_reported":1751717894,"current_range_meters":10800,"station_id":"","pricing_plan_id":"cebpf4jnsgd1na2vs0mg"},{"bike_id":"c6f51d30-2d9f-4736-baf6-43b471782644","system_id":"levelo_inurba_marseille","lat":43.286652,"lon":5.386668,"is_reserved":false,"is_disabled":false,"rental_uris":{"android":"levelo://app?vid=c6f51d30-2d9f-4736-baf6-43b471782644","ios":"levelo://app?vid=c6f51d30-2d9f-4736-baf6-43b471782644"},"vehicle_type_id":"4","last_reported":1751717894,"current_range_meters":10800,"station_id":"ce4bh492rcd13ifvqdug","pricing_plan_id":"cebpf4jnsgd1na2vs0mg"},{"bike_id":"6d8f1569-0b7b-4bd0-9558-c13af4d6dc3d","system_id":"levelo_inurba_marseille","lat":43.22937,"lon":5.35381,"is_reserved":false,"is_disabled":false,"rental_uris":{"android":"levelo://app?vid=6d8f1569-0b7b-4bd0-9558-c13af4d6dc3d","ios":"levelo://app?vid=6d8f1569-0b7b-4bd0-9558-c13af4d6dc3d"},"vehicle_type_id":"4","last_reported":1751717894,"current_range_meters":10800,"station_id":"cpo3532slgdg3j2ikp40","pricing_plan_id":"cebpf4jnsgd1na2vs0mg"},{"bike_id":"4b8da722-ee9e-48a4-a5e5-3a8a10364708","system_id":"levelo_inurba_marseille","lat":43.31234,"lon":5.37841,"is_reserved":false,"is_disabled":false,"rental_uris":{"android":"levelo://app?vid=4b8da722-ee9e-48a4-a5e5-3a8a10364708","ios":"levelo://app?vid=4b8da722-ee9e-48a4-a5e5-3a8a10364708"},"vehicle_type_id":"4","last_reported":1751717894,"current_range_meters":11200,"station_id":"","pricing_plan_id":"cebpf4jnsgd1na2vs0mg"},{"bike_id":"69c2280d-9883-47db-99f2-c073a6babae6","system_id":"levelo_inurba_marseille","lat":43.30867,"lon":5.37041,"is_reserved":false,"is_disabled":false,"rental_uris":{"android":"levelo://app?vid=69c2280d-9883-47db-99f2-c073a6babae6","ios":"levelo://app?vid=69c2280d-9883-47db-99f2-c073a6babae6"},"vehicle_type_id":"4","last_reported":1751717894,"current_range_meters":11200,"station_id":"","pricing_plan_id":"cebpf4jnsgd1na2vs0mg"},{"bike_id":"04c69447-ff85-4420-9e38-68f16d4e80e1","system_id":"levelo_inurba_marseille","lat":43.30142,"lon":5.39883,"is_reserved":false,"is_disabled":false,"rental_uris":{"android":"levelo://app?vid=04c69447-ff85-4420-9e38-68f16d4e80e1","ios":"levelo://app?vid=04c69447-ff85-4420-9e38-68f16d4e80e1"},"vehicle_type_id":"4","last_reported":1751717894,"current_range_meters":11200,"station_id":"ce4bh0h2rcd13ifvqd40","pricing_plan_id":"cebpf4jnsgd1na2vs0mg"},{"bike_id":"5339303a-66e5-4edc-a454-f03fe25655ba","system_id":"levelo_inurba_marseille","lat":43.29796,"lon":5.38112,"is_reserved":false,"is_disabled":false,"rental_uris":{"android":"levelo://app?vid=5339303a-66e5-4edc-a454-f03fe25655ba","ios":"levelo://app?vid=5339303a-66e5-4edc-a454-f03fe25655ba"},"vehicle_type_id":"4","last_reported":1751717894,"current_range_meters":11600,"station_id":"ce4bgip2rcd13ifvqbb0","pricing_plan_id":"cebpf4jnsgd1na2vs0mg"},{"bike_id":"b26adda9-ae93-4038-aecd-8a11d63ddf17","system_id":"levelo_inurba_marseille","lat":43.30434,"lon":5.39743,"is_reserved":false,"is_disabled":false,"rental_uris":{"android":"levelo://app?vid=b26adda9-ae93-4038-aecd-8a11d63ddf17","ios":"levelo://app?vid=b26adda9-ae93-4038-aecd-8a11d63ddf17"},"vehicle_type_id":"4","last_reported":1751717894,"current_range_meters":11600,"station_id":"ce4bh092rcd13ifvqd20","pricing_plan_id":"cebpf4jnsgd1na2vs0mg"},{"bike_id":"8540eae3-ead3-4b83-ba8b-6b7654e615e1","system_id":"levelo_inurba_marseille","lat":43.28158,"lon":5.42642,"is_reserved":false,"is_disabled":false,"rental_uris":{"android":"levelo://app?vid=8540eae3-ead3-4b83-ba8b-6b7654e615e1","ios":"levelo://app?vid=8540eae3-ead3-4b83-ba8b-6b7654e615e1"},"vehicle_type_id":"4","last_reported":1751717894,"current_range_meters":11600,"station_id":"ce4bhnh2rcd13ifvqgug","pricing_plan_id":"cebpf4jnsgd1na2vs0mg"},{"bike_id":"d29a5719-29ad-4bf7-ba41-2cce4240a30b","system_id":"levelo_inurba_marseille","lat":43.279414,"lon":5.410444,"is_reserved":false,"is_disabled":false,"rental_uris":{"android":"levelo://app?vid=d29a5719-29ad-4bf7-ba41-2cce4240a30b","ios":"levelo://app?vid=d29a5719-29ad-4bf7-ba41-2cce4240a30b"},"vehicle_type_id":"4","last_reported":1751717894,"current_range_meters":11600,"station_id":"ce4bhnp2rcd13ifvqh0g","pricing_plan_id":"cebpf4jnsgd1na2vs0mg"},{"bike_id":"4db45513-e520-4598-82fa-5809d80d4f3d","system_id":"levelo_inurba_marseille","lat":43.280965,"lon":5.354839,"is_reserved":false,"is_disabled":false,"rental_uris":{"android":"levelo://app?vid=4db45513-e520-4598-82fa-5809d80d4f3d","ios":"levelo://app?vid=4db45513-e520-4598-82fa-5809d80d4f3d"},"vehicle_type_id":"4","last_reported":1751717894,"current_range_meters":12000,"station_id":"","pricing_plan_id":"cebpf4jnsgd1na2vs0mg"},{"bike_id":"3da7a7a2-9364-4916-b617-f643e3f7d37c","system_id":"levelo_inurba_marseille","lat":43.30122,"lon":5.38079,"is_reserved":false,"is_disabled":false,"rental_uris":{"android":"levelo://app?vid=3da7a7a2-9364-4916-b617-f643e3f7d37c","ios":"levelo://app?vid=3da7a7a2-9364-4916-b617-f643e3f7d37c"},"vehicle_type_id":"4","last_reported":1751717894,"current_range_meters":12000,"station_id":"ce4bgjp2rcd13ifvqbh0","pricing_plan_id":"cebpf4jnsgd1na2vs0mg"},{"bike_id":"037e80d1-5d00-4dbf-be73-4a45ff22fd30","system_id":"levelo_inurba_marseille","lat":43.29809,"lon":5.37116,"is_reserved":false,"is_disabled":false,"rental_uris":{"android":"levelo://app?vid=037e80d1-5d00-4dbf-be73-4a45ff22fd30","ios":"levelo://app?vid=037e80d1-5d00-4dbf-be73-4a45ff22fd30"},"vehicle_type_id":"4","last_reported":1751717894,"current_range_meters":12000,"station_id":"ce4bgop2rcd13ifvqc1g","pricing_plan_id":"cebpf4jnsgd1na2vs0mg"},{"bike_id":"5221514d-11c1-430d-80b4-aca1a803a1ae","system_id":"levelo_inurba_marseille","lat":43.28412,"lon":5.3499,"is_reserved":false,"is_disabled":false,"rental_uris":{"android":"levelo://app?vid=5221514d-11c1-430d-80b4-aca1a803a1ae","ios":"levelo://app?vid=5221514d-11c1-430d-80b4-aca1a803a1ae"},"vehicle_type_id":"4","last_reported":1751717894,"current_range_meters":12000,"station_id":"ce4bhbh2rcd13ifvqepg","pricing_plan_id":"cebpf4jnsgd1na2vs0mg"},{"bike_id":"ef086af5-e34f-4e4b-b345-7e3a952273cd","system_id":"levelo_inurba_marseille","lat":43.23149,"lon":5.43728,"is_reserved":false,"is_disabled":false,"rental_uris":{"android":"levelo://app?vid=ef086af5-e34f-4e4b-b345-7e3a952273cd","ios":"levelo://app?vid=ef086af5-e34f-4e4b-b345-7e3a952273cd"},"vehicle_type_id":"4","last_reported":1751717894,"current_range_meters":12000,"station_id":"ce4bhmp2rcd13ifvqgog","pricing_plan_id":"cebpf4jnsgd1na2vs0mg"},{"bike_id":"04edf994-7a6f-42bd-bdb9-6db229bd33ae","system_id":"levelo_inurba_marseille","lat":43.29555,"lon":5.42294,"is_reserved":false,"is_disabled":false,"rental_uris":{"android":"levelo://app?vid=04edf994-7a6f-42bd-bdb9-6db229bd33ae","ios":"levelo://app?vid=04edf994-7a6f-42bd-bdb9-6db229bd33ae"},"vehicle_type_id":"4","last_reported":1751717894,"current_range_meters":12000,"station_id":"ce4bhph2rcd13ifvqhdg","pricing_plan_id":"cebpf4jnsgd1na2vs0mg"},{"bike_id":"e0ba000b-b6a4-4cdc-a687-e40143d99a01","system_id":"levelo_inurba_marseille","lat":43.30561,"lon":5.3656,"is_reserved":false,"is_disabled":false,"rental_uris":{"android":"levelo://app?vid=e0ba000b-b6a4-4cdc-a687-e40143d99a01","ios":"levelo://app?vid=e0ba000b-b6a4-4cdc-a687-e40143d99a01"},"vehicle_type_id":"4","last_reported":1751717894,"current_range_meters":12400,"station_id":"ce4bgs12rcd13ifvqcag","pricing_plan_id":"cebpf4jnsgd1na2vs0mg"},{"bike_id":"0a39793f-f01a-42d7-bcc7-32cc05b8375d","system_id":"levelo_inurba_marseille","lat":43.28925,"lon":5.38391,"is_reserved":false,"is_disabled":false,"rental_uris":{"android":"levelo://app?vid=0a39793f-f01a-42d7-bcc7-32cc05b8375d","ios":"levelo://app?vid=0a39793f-f01a-42d7-bcc7-32cc05b8375d"},"vehicle_type_id":"4","last_reported":1751717894,"current_range_meters":12400,"station_id":"ce4bh612rcd13ifvqe6g","pricing_plan_id":"cebpf4jnsgd1na2vs0mg"},{"bike_id":"30b1bd8c-5882-4521-925e-cbeb026f98c7","system_id":"levelo_inurba_marseille","lat":43.24181,"lon":5.39736,"is_reserved":false,"is_disabled":false,"rental_uris":{"android":"levelo://app?vid=30b1bd8c-5882-4521-925e-cbeb026f98c7","ios":"levelo://app?vid=30b1bd8c-5882-4521-925e-cbeb026f98c7"},"vehicle_type_id":"4","last_reported":1751717894,"current_range_meters":12400,"station_id":"ce4bhn12rcd13ifvqgpg","pricing_plan_id":"cebpf4jnsgd1na2vs0mg"},{"bike_id":"5c5bcca8-ce1b-4fb2-ade6-e9b96c84bdd4","system_id":"levelo_inurba_marseille","lat":43.231847,"lon":5.399837,"is_reserved":false,"is_disabled":false,"rental_uris":{"android":"levelo://app?vid=5c5bcca8-ce1b-4fb2-ade6-e9b96c84bdd4","ios":"levelo://app?vid=5c5bcca8-ce1b-4fb2-ade6-e9b96c84bdd4"},"vehicle_type_id":"4","last_reported":1751717894,"current_range_meters":12400,"station_id":"ce4bhn12rcd13ifvqgqg","pricing_plan_id":"cebpf4jnsgd1na2vs0mg"},{"bike_id":"ae16f5e0-7344-47e5-bfdf-f837fbd0da34","system_id":"levelo_inurba_marseille","lat":43.3248,"lon":5.36587,"is_reserved":false,"is_disabled":false,"rental_uris":{"android":"levelo://app?vid=ae16f5e0-7344-47e5-bfdf-f837fbd0da34","ios":"levelo://app?vid=ae16f5e0-7344-47e5-bfdf-f837fbd0da34"},"vehicle_type_id":"4","last_reported":1751717894,"current_range_meters":12400,"station_id":"ce4bhs12rcd13ifvqhvg","pricing_plan_id":"cebpf4jnsgd1na2vs0mg"},{"bike_id":"29b19e99-4845-4ee3-b1ee-35721cd36dc7","system_id":"levelo_inurba_marseille","lat":43.231999,"lon":5.355498,"is_reserved":false,"is_disabled":false,"rental_uris":{"android":"levelo://app?vid=29b19e99-4845-4ee3-b1ee-35721cd36dc7","ios":"levelo://app?vid=29b19e99-4845-4ee3-b1ee-35721cd36dc7"},"vehicle_type_id":"4","last_reported":1751717894,"current_range_meters":12400,"station_id":"ce4bhu92rcd13ifvqi70","pricing_plan_id":"cebpf4jnsgd1na2vs0mg"},{"bike_id":"2414b5f9-94ea-4e8d-a11f-76ece078fb9a","system_id":"levelo_inurba_marseille","lat":43.21745,"lon":5.34614,"is_reserved":false,"is_disabled":false,"rental_uris":{"android":"levelo://app?vid=2414b5f9-94ea-4e8d-a11f-76ece078fb9a","ios":"levelo://app?vid=2414b5f9-94ea-4e8d-a11f-76ece078fb9a"},"vehicle_type_id":"4","last_reported":1751717894,"current_range_meters":12400,"station_id":"st_cvj6r9ubvosntc0bgbag","pricing_plan_id":"cebpf4jnsgd1na2vs0mg"},{"bike_id":"672fc69a-31c0-4b40-a532-4a811d670207","system_id":"levelo_inurba_marseille","lat":43.211903,"lon":5.350681,"is_reserved":false,"is_disabled":false,"rental_uris":{"android":"levelo://app?vid=672fc69a-31c0-4b40-a532-4a811d670207","ios":"levelo://app?vid=672fc69a-31c0-4b40-a532-4a811d670207"},"vehicle_type_id":"4","last_reported":1751717894,"current_range_meters":12400,"station_id":"st_cvj6sg6p6f1abm77japg","pricing_plan_id":"cebpf4jnsgd1na2vs0mg"},{"bike_id":"eaa694bf-19a9-4173-8b84-a7849a118787","system_id":"levelo_inurba_marseille","lat":43.21754,"lon":5.34604,"is_reserved":false,"is_disabled":false,"rental_uris":{"android":"levelo://app?vid=eaa694bf-19a9-4173-8b84-a7849a118787","ios":"levelo://app?vid=eaa694bf-19a9-4173-8b84-a7849a118787"},"vehicle_type_id":"4","last_reported":1751717894,"current_range_meters":12800,"station_id":"st_cvj6r9ubvosntc0bgbag","pricing_plan_id":"cebpf4jnsgd1na2vs0mg"},{"bike_id":"0445b3cb-c85c-4c18-83a8-32d9df779da7","system_id":"levelo_inurba_marseille","lat":43.29715,"lon":5.36626,"is_reserved":false,"is_disabled":false,"rental_uris":{"android":"levelo://app?vid=0445b3cb-c85c-4c18-83a8-32d9df779da7","ios":"levelo://app?vid=0445b3cb-c85c-4c18-83a8-32d9df779da7"},"vehicle_type_id":"4","last_reported":1751717894,"current_range_meters":13600,"station_id":"ce4bgn12rcd13ifvqbt0","pricing_plan_id":"cebpf4jnsgd1na2vs0mg"},{"bike_id":"785501ba-d77e-4534-887a-97313c4f9a8b","system_id":"levelo_inurba_marseille","lat":43.30612,"lon":5.3723,"is_reserved":false,"is_disabled":false,"rental_uris":{"android":"levelo://app?vid=785501ba-d77e-4534-887a-97313c4f9a8b","ios":"levelo://app?vid=785501ba-d77e-4534-887a-97313c4f9a8b"},"vehicle_type_id":"4","last_reported":1751717894,"current_range_meters":13600,"station_id":"ce4bgqh2rcd13ifvqc4g","pricing_plan_id":"cebpf4jnsgd1na2vs0mg"},{"bike_id":"f69a5fb8-4b43-4c92-b9a1-575ca9077199","system_id":"levelo_inurba_marseille","lat":43.26222,"lon":5.40441,"is_reserved":false,"is_disabled":false,"rental_uris":{"android":"levelo://app?vid=f69a5fb8-4b43-4c92-b9a1-575ca9077199","ios":"levelo://app?vid=f69a5fb8-4b43-4c92-b9a1-575ca9077199"},"vehicle_type_id":"4","last_reported":1751717894,"current_range_meters":13600,"station_id":"ce4bhmh2rcd13ifvqgmg","pricing_plan_id":"cebpf4jnsgd1na2vs0mg"},{"bike_id":"5e811c86-824d-4978-918d-a61aa3a543ea","system_id":"levelo_inurba_marseille","lat":43.30417,"lon":5.412883,"is_reserved":false,"is_disabled":false,"rental_uris":{"android":"levelo://app?vid=5e811c86-824d-4978-918d-a61aa3a543ea","ios":"levelo://app?vid=5e811c86-824d-4978-918d-a61aa3a543ea"},"vehicle_type_id":"4","last_reported":1751717894,"current_range_meters":13600,"station_id":"ce4bhop2rcd13ifvqh8g","pricing_plan_id":"cebpf4jnsgd1na2vs0mg"},{"bike_id":"c5b91b0a-5fc4-4165-b464-20e1a4c673fb","system_id":"levelo_inurba_marseille","lat":43.32374,"lon":5.36761,"is_reserved":false,"is_disabled":false,"rental_uris":{"android":"levelo://app?vid=c5b91b0a-5fc4-4165-b464-20e1a4c673fb","ios":"levelo://app?vid=c5b91b0a-5fc4-4165-b464-20e1a4c673fb"},"vehicle_type_id":"4","last_reported":1751717894,"current_range_meters":13600,"station_id":"ce4bhsh2rcd13ifvqi2g","pricing_plan_id":"cebpf4jnsgd1na2vs0mg"},{"bike_id":"e0066225-8550-4954-8946-77d2c6d38f67","system_id":"levelo_inurba_marseille","lat":43.22927,"lon":5.35373,"is_reserved":false,"is_disabled":false,"rental_uris":{"android":"levelo://app?vid=e0066225-8550-4954-8946-77d2c6d38f67","ios":"levelo://app?vid=e0066225-8550-4954-8946-77d2c6d38f67"},"vehicle_type_id":"4","last_reported":1751717894,"current_range_meters":13600,"station_id":"cpo3532slgdg3j2ikp40","pricing_plan_id":"cebpf4jnsgd1na2vs0mg"},{"bike_id":"25d65b54-2483-49ad-9e8c-b4102ded682f","system_id":"levelo_inurba_marseille","lat":43.211936,"lon":5.350746,"is_reserved":false,"is_disabled":false,"rental_uris":{"android":"levelo://app?vid=25d65b54-2483-49ad-9e8c-b4102ded682f","ios":"levelo://app?vid=25d65b54-2483-49ad-9e8c-b4102ded682f"},"vehicle_type_id":"4","last_reported":1751717894,"current_range_meters":13600,"station_id":"st_cvj6sg6p6f1abm77japg","pricing_plan_id":"cebpf4jnsgd1na2vs0mg"},{"bike_id":"daeee1e5-3b93-44da-8e47-7b24df6d544e","system_id":"levelo_inurba_marseille","lat":43.300069,"lon":5.373706,"is_reserved":false,"is_disabled":false,"rental_uris":{"android":"levelo://app?vid=daeee1e5-3b93-44da-8e47-7b24df6d544e","ios":"levelo://app?vid=daeee1e5-3b93-44da-8e47-7b24df6d544e"},"vehicle_type_id":"4","last_reported":1751717894,"current_range_meters":14000,"station_id":"","pricing_plan_id":"cebpf4jnsgd1na2vs0mg"},{"bike_id":"02e49158-7e33-4ff2-aace-c7da50a8e403","system_id":"levelo_inurba_marseille","lat":43.30166,"lon":5.38088,"is_reserved":false,"is_disabled":false,"rental_uris":{"android":"levelo://app?vid=02e49158-7e33-4ff2-aace-c7da50a8e403","ios":"levelo://app?vid=02e49158-7e33-4ff2-aace-c7da50a8e403"},"vehicle_type_id":"4","last_reported":1751717894,"current_range_meters":14000,"station_id":"ce4bgjp2rcd13ifvqbh0","pricing_plan_id":"cebpf4jnsgd1na2vs0mg"},{"bike_id":"3913ad23-cf89-4f24-8bec-6574be33c73e","system_id":"levelo_inurba_marseille","lat":43.312799,"lon":5.401676,"is_reserved":false,"is_disabled":false,"rental_uris":{"android":"levelo://app?vid=3913ad23-cf89-4f24-8bec-6574be33c73e","ios":"levelo://app?vid=3913ad23-cf89-4f24-8bec-6574be33c73e"},"vehicle_type_id":"4","last_reported":1751717894,"current_range_meters":14000,"station_id":"ce4bh092rcd13ifvqd30","pricing_plan_id":"cebpf4jnsgd1na2vs0mg"},{"bike_id":"3ddbba30-83fc-4406-8b51-decfffba50fc","system_id":"levelo_inurba_marseille","lat":43.25727,"lon":5.41113,"is_reserved":false,"is_disabled":false,"rental_uris":{"android":"levelo://app?vid=3ddbba30-83fc-4406-8b51-decfffba50fc","ios":"levelo://app?vid=3ddbba30-83fc-4406-8b51-decfffba50fc"},"vehicle_type_id":"4","last_reported":1751717894,"current_range_meters":14000,"station_id":"ce4bhkp2rcd13ifvqgd0","pricing_plan_id":"cebpf4jnsgd1na2vs0mg"},{"bike_id":"4563b49e-ee7b-4862-bfba-86abb89fc71a","system_id":"levelo_inurba_marseille","lat":43.23185,"lon":5.39989,"is_reserved":false,"is_disabled":false,"rental_uris":{"android":"levelo://app?vid=4563b49e-ee7b-4862-bfba-86abb89fc71a","ios":"levelo://app?vid=4563b49e-ee7b-4862-bfba-86abb89fc71a"},"vehicle_type_id":"4","last_reported":1751717894,"current_range_meters":14000,"station_id":"ce4bhn12rcd13ifvqgqg","pricing_plan_id":"cebpf4jnsgd1na2vs0mg"},{"bike_id":"89c4c171-fa34-44ee-8818-b4f1de745083","system_id":"levelo_inurba_marseille","lat":43.231948,"lon":5.355474,"is_reserved":false,"is_disabled":false,"rental_uris":{"android":"levelo://app?vid=89c4c171-fa34-44ee-8818-b4f1de745083","ios":"levelo://app?vid=89c4c171-fa34-44ee-8818-b4f1de745083"},"vehicle_type_id":"4","last_reported":1751717894,"current_range_meters":14000,"station_id":"ce4bhu92rcd13ifvqi70","pricing_plan_id":"cebpf4jnsgd1na2vs0mg"},{"bike_id":"43b433cf-6050-4ea7-8ddd-7b98c73b8e4a","system_id":"levelo_inurba_marseille","lat":43.23165,"lon":5.43711,"is_reserved":false,"is_disabled":false,"rental_uris":{"android":"levelo://app?vid=43b433cf-6050-4ea7-8ddd-7b98c73b8e4a","ios":"levelo://app?vid=43b433cf-6050-4ea7-8ddd-7b98c73b8e4a"},"vehicle_type_id":"4","last_reported":1751717894,"current_range_meters":14400,"station_id":"ce4bhmp2rcd13ifvqgog","pricing_plan_id":"cebpf4jnsgd1na2vs0mg"},{"bike_id":"4580512b-1a8f-424f-aed6-8bf40d8ebfef","system_id":"levelo_inurba_marseille","lat":43.24183,"lon":5.39738,"is_reserved":false,"is_disabled":false,"rental_uris":{"android":"levelo://app?vid=4580512b-1a8f-424f-aed6-8bf40d8ebfef","ios":"levelo://app?vid=4580512b-1a8f-424f-aed6-8bf40d8ebfef"},"vehicle_type_id":"4","last_reported":1751717894,"current_range_meters":14400,"station_id":"ce4bhn12rcd13ifvqgpg","pricing_plan_id":"cebpf4jnsgd1na2vs0mg"},{"bike_id":"38e0cd1e-a5d3-4c61-9452-a61fb50b071b","system_id":"levelo_inurba_marseille","lat":43.27945,"lon":5.41056,"is_reserved":false,"is_disabled":false,"rental_uris":{"android":"levelo://app?vid=38e0cd1e-a5d3-4c61-9452-a61fb50b071b","ios":"levelo://app?vid=38e0cd1e-a5d3-4c61-9452-a61fb50b071b"},"vehicle_type_id":"4","last_reported":1751717894,"current_range_meters":14400,"station_id":"ce4bhnp2rcd13ifvqh0g","pricing_plan_id":"cebpf4jnsgd1na2vs0mg"},{"bike_id":"d008f2d7-a6e8-4370-83cd-46244114c79c","system_id":"levelo_inurba_marseille","lat":43.23189,"lon":5.35555,"is_reserved":false,"is_disabled":false,"rental_uris":{"android":"levelo://app?vid=d008f2d7-a6e8-4370-83cd-46244114c79c","ios":"levelo://app?vid=d008f2d7-a6e8-4370-83cd-46244114c79c"},"vehicle_type_id":"4","last_reported":1751717894,"current_range_meters":14800,"station_id":"ce4bhu92rcd13ifvqi70","pricing_plan_id":"cebpf4jnsgd1na2vs0mg"},{"bike_id":"85e59ae2-b351-4789-8c40-11e04c4e6808","system_id":"levelo_inurba_marseille","lat":43.23217,"lon":5.35548,"is_reserved":false,"is_disabled":false,"rental_uris":{"android":"levelo://app?vid=85e59ae2-b351-4789-8c40-11e04c4e6808","ios":"levelo://app?vid=85e59ae2-b351-4789-8c40-11e04c4e6808"},"vehicle_type_id":"4","last_reported":1751717894,"current_range_meters":14800,"station_id":"ce4bhu92rcd13ifvqi70","pricing_plan_id":"cebpf4jnsgd1na2vs0mg"},{"bike_id":"b1d40197-e49c-4962-8cd8-0babe05d31a6","system_id":"levelo_inurba_marseille","lat":43.21264,"lon":5.35297,"is_reserved":false,"is_disabled":false,"rental_uris":{"android":"levelo://app?vid=b1d40197-e49c-4962-8cd8-0babe05d31a6","ios":"levelo://app?vid=b1d40197-e49c-4962-8cd8-0babe05d31a6"},"vehicle_type_id":"4","last_reported":1751717894,"current_range_meters":15200,"station_id":"","pricing_plan_id":"cebpf4jnsgd1na2vs0mg"},{"bike_id":"51f23ffe-fe76-46d3-a20b-5e2dc216881e","system_id":"levelo_inurba_marseille","lat":43.29276,"lon":5.37651,"is_reserved":false,"is_disabled":false,"rental_uris":{"android":"levelo://app?vid=51f23ffe-fe76-46d3-a20b-5e2dc216881e","ios":"levelo://app?vid=51f23ffe-fe76-46d3-a20b-5e2dc216881e"},"vehicle_type_id":"4","last_reported":1751717894,"current_range_meters":15200,"station_id":"ce4bgi12rcd13ifvqb80","pricing_plan_id":"cebpf4jnsgd1na2vs0mg"},{"bike_id":"3b94207c-4139-4abc-9bb5-5a1e38510ecd","system_id":"levelo_inurba_marseille","lat":43.26215,"lon":5.40441,"is_reserved":false,"is_disabled":false,"rental_uris":{"android":"levelo://app?vid=3b94207c-4139-4abc-9bb5-5a1e38510ecd","ios":"levelo://app?vid=3b94207c-4139-4abc-9bb5-5a1e38510ecd"},"vehicle_type_id":"4","last_reported":1751717894,"current_range_meters":15200,"station_id":"ce4bhmh2rcd13ifvqgmg","pricing_plan_id":"cebpf4jnsgd1na2vs0mg"},{"bike_id":"8501c7f1-4540-433a-9226-9677bd87b71a","system_id":"levelo_inurba_marseille","lat":43.21177,"lon":5.35089,"is_reserved":false,"is_disabled":false,"rental_uris":{"android":"levelo://app?vid=8501c7f1-4540-433a-9226-9677bd87b71a","ios":"levelo://app?vid=8501c7f1-4540-433a-9226-9677bd87b71a"},"vehicle_type_id":"4","last_reported":1751717894,"current_range_meters":15200,"station_id":"st_cvj6sg6p6f1abm77japg","pricing_plan_id":"cebpf4jnsgd1na2vs0mg"},{"bike_id":"adf1d38d-1f03-40cf-9b57-0a8f15f62b2d","system_id":"levelo_inurba_marseille","lat":43.329536,"lon":5.364008,"is_reserved":false,"is_disabled":false,"rental_uris":{"android":"levelo://app?vid=adf1d38d-1f03-40cf-9b57-0a8f15f62b2d","ios":"levelo://app?vid=adf1d38d-1f03-40cf-9b57-0a8f15f62b2d"},"vehicle_type_id":"4","last_reported":1751717894,"current_range_meters":16000,"station_id":"","pricing_plan_id":"cebpf4jnsgd1na2vs0mg"},{"bike_id":"cca681f4-cce5-4fb7-9918-cb13c2d9cbe6","system_id":"levelo_inurba_marseille","lat":43.2573,"lon":5.41107,"is_reserved":false,"is_disabled":false,"rental_uris":{"android":"levelo://app?vid=cca681f4-cce5-4fb7-9918-cb13c2d9cbe6","ios":"levelo://app?vid=cca681f4-cce5-4fb7-9918-cb13c2d9cbe6"},"vehicle_type_id":"4","last_reported":1751717894,"current_range_meters":16000,"station_id":"","pricing_plan_id":"cebpf4jnsgd1na2vs0mg"},{"bike_id":"136a39d7-b17f-490a-9dd8-af5eb0199e7d","system_id":"levelo_inurba_marseille","lat":43.30245,"lon":5.40049,"is_reserved":false,"is_disabled":false,"rental_uris":{"android":"levelo://app?vid=136a39d7-b17f-490a-9dd8-af5eb0199e7d","ios":"levelo://app?vid=136a39d7-b17f-490a-9dd8-af5eb0199e7d"},"vehicle_type_id":"4","last_reported":1751717894,"current_range_meters":16000,"station_id":"ce4bgvh2rcd13ifvqcs0","pricing_plan_id":"cebpf4jnsgd1na2vs0mg"},{"bike_id":"633ad17a-84ce-4fab-ac21-74a558572d7f","system_id":"levelo_inurba_marseille","lat":43.28494,"lon":5.38421,"is_reserved":false,"is_disabled":false,"rental_uris":{"android":"levelo://app?vid=633ad17a-84ce-4fab-ac21-74a558572d7f","ios":"levelo://app?vid=633ad17a-84ce-4fab-ac21-74a558572d7f"},"vehicle_type_id":"4","last_reported":1751717894,"current_range_meters":16000,"station_id":"ce4bh512rcd13ifvqe3g","pricing_plan_id":"cebpf4jnsgd1na2vs0mg"},{"bike_id":"7da2b3da-a969-4072-bc40-10fab52f2f6e","system_id":"levelo_inurba_marseille","lat":43.28467,"lon":5.35898,"is_reserved":false,"is_disabled":false,"rental_uris":{"android":"levelo://app?vid=7da2b3da-a969-4072-bc40-10fab52f2f6e","ios":"levelo://app?vid=7da2b3da-a969-4072-bc40-10fab52f2f6e"},"vehicle_type_id":"4","last_reported":1751717894,"current_range_meters":16000,"station_id":"ce4bhah2rcd13ifvqei0","pricing_plan_id":"cebpf4jnsgd1na2vs0mg"},{"bike_id":"f6ba93ec-8ccf-43c1-a8b3-4e0a7f4366f1","system_id":"levelo_inurba_marseille","lat":43.28284,"lon":5.35079,"is_reserved":false,"is_disabled":false,"rental_uris":{"android":"levelo://app?vid=f6ba93ec-8ccf-43c1-a8b3-4e0a7f4366f1","ios":"levelo://app?vid=f6ba93ec-8ccf-43c1-a8b3-4e0a7f4366f1"},"vehicle_type_id":"4","last_reported":1751717894,"current_range_meters":16000,"station_id":"ce4bhbp2rcd13ifvqerg","pricing_plan_id":"cebpf4jnsgd1na2vs0mg"},{"bike_id":"fcbb47f0-480f-4647-b620-44d3e4ef9dc8","system_id":"levelo_inurba_marseille","lat":43.25482,"lon":5.37654,"is_reserved":false,"is_disabled":false,"rental_uris":{"android":"levelo://app?vid=fcbb47f0-480f-4647-b620-44d3e4ef9dc8","ios":"levelo://app?vid=fcbb47f0-480f-4647-b620-44d3e4ef9dc8"},"vehicle_type_id":"4","last_reported":1751717894,"current_range_meters":16000,"station_id":"ce4bhh12rcd13ifvqff0","pricing_plan_id":"cebpf4jnsgd1na2vs0mg"},{"bike_id":"f6b09216-3f78-4c6d-ad55-f19b248d42c9","system_id":"levelo_inurba_marseille","lat":43.24389,"lon":5.37058,"is_reserved":false,"is_disabled":false,"rental_uris":{"android":"levelo://app?vid=f6b09216-3f78-4c6d-ad55-f19b248d42c9","ios":"levelo://app?vid=f6b09216-3f78-4c6d-ad55-f19b248d42c9"},"vehicle_type_id":"4","last_reported":1751717894,"current_range_meters":16000,"station_id":"ce4bhhh2rcd13ifvqfk0","pricing_plan_id":"cebpf4jnsgd1na2vs0mg"},{"bike_id":"e71bcd81-9ad3-4c70-8aed-a8c086e789ac","system_id":"levelo_inurba_marseille","lat":43.25929,"lon":5.40903,"is_reserved":false,"is_disabled":false,"rental_uris":{"android":"levelo://app?vid=e71bcd81-9ad3-4c70-8aed-a8c086e789ac","ios":"levelo://app?vid=e71bcd81-9ad3-4c70-8aed-a8c086e789ac"},"vehicle_type_id":"4","last_reported":1751717894,"current_range_meters":16000,"station_id":"ce4bhm92rcd13ifvqglg","pricing_plan_id":"cebpf4jnsgd1na2vs0mg"},{"bike_id":"18e903c3-bd69-4cad-bc4b-fefd2f289489","system_id":"levelo_inurba_marseille","lat":43.2623,"lon":5.404539,"is_reserved":false,"is_disabled":false,"rental_uris":{"android":"levelo://app?vid=18e903c3-bd69-4cad-bc4b-fefd2f289489","ios":"levelo://app?vid=18e903c3-bd69-4cad-bc4b-fefd2f289489"},"vehicle_type_id":"4","last_reported":1751717894,"current_range_meters":16000,"station_id":"ce4bhmh2rcd13ifvqgmg","pricing_plan_id":"cebpf4jnsgd1na2vs0mg"},{"bike_id":"c3fae141-3322-46bb-976b-c85803ceeb5f","system_id":"levelo_inurba_marseille","lat":43.295566,"lon":5.422754,"is_reserved":false,"is_disabled":false,"rental_uris":{"android":"levelo://app?vid=c3fae141-3322-46bb-976b-c85803ceeb5f","ios":"levelo://app?vid=c3fae141-3322-46bb-976b-c85803ceeb5f"},"vehicle_type_id":"4","last_reported":1751717894,"current_range_meters":16000,"station_id":"ce4bhph2rcd13ifvqhdg","pricing_plan_id":"cebpf4jnsgd1na2vs0mg"},{"bike_id":"134a6fd1-cb8b-4ade-a0c2-0b22bf7dca76","system_id":"levelo_inurba_marseille","lat":43.21195,"lon":5.35079,"is_reserved":false,"is_disabled":false,"rental_uris":{"android":"levelo://app?vid=134a6fd1-cb8b-4ade-a0c2-0b22bf7dca76","ios":"levelo://app?vid=134a6fd1-cb8b-4ade-a0c2-0b22bf7dca76"},"vehicle_type_id":"4","last_reported":1751717894,"current_range_meters":16000,"station_id":"st_cvj6sg6p6f1abm77japg","pricing_plan_id":"cebpf4jnsgd1na2vs0mg"},{"bike_id":"856c776b-976c-4e7f-97c1-3dc27b8380dd","system_id":"levelo_inurba_marseille","lat":43.31629,"lon":5.38321,"is_reserved":false,"is_disabled":false,"rental_uris":{"android":"levelo://app?vid=856c776b-976c-4e7f-97c1-3dc27b8380dd","ios":"levelo://app?vid=856c776b-976c-4e7f-97c1-3dc27b8380dd"},"vehicle_type_id":"4","last_reported":1751717894,"current_range_meters":16400,"station_id":"","pricing_plan_id":"cebpf4jnsgd1na2vs0mg"},{"bike_id":"fe8ee84c-fdfc-40aa-a1c2-6e36409c0740","system_id":"levelo_inurba_marseille","lat":43.268179,"lon":5.390507,"is_reserved":false,"is_disabled":false,"rental_uris":{"android":"levelo://app?vid=fe8ee84c-fdfc-40aa-a1c2-6e36409c0740","ios":"levelo://app?vid=fe8ee84c-fdfc-40aa-a1c2-6e36409c0740"},"vehicle_type_id":"4","last_reported":1751717894,"current_range_meters":16400,"station_id":"","pricing_plan_id":"cebpf4jnsgd1na2vs0mg"},{"bike_id":"be9a640c-3ff8-4734-b40a-50500fdbb334","system_id":"levelo_inurba_marseille","lat":43.29532,"lon":5.38561,"is_reserved":false,"is_disabled":false,"rental_uris":{"android":"levelo://app?vid=be9a640c-3ff8-4734-b40a-50500fdbb334","ios":"levelo://app?vid=be9a640c-3ff8-4734-b40a-50500fdbb334"},"vehicle_type_id":"4","last_reported":1751717894,"current_range_meters":16400,"station_id":"ce4bgih2rcd13ifvqba0","pricing_plan_id":"cebpf4jnsgd1na2vs0mg"},{"bike_id":"75c3b754-79ac-4fc9-813d-cc3df78729fc","system_id":"levelo_inurba_marseille","lat":43.30609,"lon":5.3725,"is_reserved":false,"is_disabled":false,"rental_uris":{"android":"levelo://app?vid=75c3b754-79ac-4fc9-813d-cc3df78729fc","ios":"levelo://app?vid=75c3b754-79ac-4fc9-813d-cc3df78729fc"},"vehicle_type_id":"4","last_reported":1751717894,"current_range_meters":16400,"station_id":"ce4bgqh2rcd13ifvqc4g","pricing_plan_id":"cebpf4jnsgd1na2vs0mg"},{"bike_id":"1da8e8f3-29d9-453e-9159-6d3ce6a9cd5f","system_id":"levelo_inurba_marseille","lat":43.30463,"lon":5.37904,"is_reserved":false,"is_disabled":false,"rental_uris":{"android":"levelo://app?vid=1da8e8f3-29d9-453e-9159-6d3ce6a9cd5f","ios":"levelo://app?vid=1da8e8f3-29d9-453e-9159-6d3ce6a9cd5f"},"vehicle_type_id":"4","last_reported":1751717894,"current_range_meters":16400,"station_id":"ce4bgup2rcd13ifvqcn0","pricing_plan_id":"cebpf4jnsgd1na2vs0mg"},{"bike_id":"51a0fc2e-a937-4c3f-8625-c5e25ed03d72","system_id":"levelo_inurba_marseille","lat":43.30324,"lon":5.4044,"is_reserved":false,"is_disabled":false,"rental_uris":{"android":"levelo://app?vid=51a0fc2e-a937-4c3f-8625-c5e25ed03d72","ios":"levelo://app?vid=51a0fc2e-a937-4c3f-8625-c5e25ed03d72"},"vehicle_type_id":"4","last_reported":1751717894,"current_range_meters":16400,"station_id":"ce4bh012rcd13ifvqd10","pricing_plan_id":"cebpf4jnsgd1na2vs0mg"},{"bike_id":"dda72f4f-33a4-456d-b1a6-88aa7d6b1ada","system_id":"levelo_inurba_marseille","lat":43.30134,"lon":5.39861,"is_reserved":false,"is_disabled":false,"rental_uris":{"android":"levelo://app?vid=dda72f4f-33a4-456d-b1a6-88aa7d6b1ada","ios":"levelo://app?vid=dda72f4f-33a4-456d-b1a6-88aa7d6b1ada"},"vehicle_type_id":"4","last_reported":1751717894,"current_range_meters":16400,"station_id":"ce4bh0h2rcd13ifvqd40","pricing_plan_id":"cebpf4jnsgd1na2vs0mg"},{"bike_id":"701ad92a-e3d8-4482-8949-a6b777588bad","system_id":"levelo_inurba_marseille","lat":43.320256,"lon":5.415621,"is_reserved":false,"is_disabled":false,"rental_uris":{"android":"levelo://app?vid=701ad92a-e3d8-4482-8949-a6b777588bad","ios":"levelo://app?vid=701ad92a-e3d8-4482-8949-a6b777588bad"},"vehicle_type_id":"4","last_reported":1751717894,"current_range_meters":16400,"station_id":"ce4bhq92rcd13ifvqhkg","pricing_plan_id":"cebpf4jnsgd1na2vs0mg"},{"bike_id":"e9f184b7-4c52-47df-adfb-be4fdc9c8ed3","system_id":"levelo_inurba_marseille","lat":43.232203,"lon":5.355812,"is_reserved":false,"is_disabled":false,"rental_uris":{"android":"levelo://app?vid=e9f184b7-4c52-47df-adfb-be4fdc9c8ed3","ios":"levelo://app?vid=e9f184b7-4c52-47df-adfb-be4fdc9c8ed3"},"vehicle_type_id":"4","last_reported":1751717894,"current_range_meters":16400,"station_id":"ce4bhu92rcd13ifvqi70","pricing_plan_id":"cebpf4jnsgd1na2vs0mg"},{"bike_id":"07ba84a8-f478-421c-96ed-6c0402ece04f","system_id":"levelo_inurba_marseille","lat":43.229414,"lon":5.35396,"is_reserved":false,"is_disabled":false,"rental_uris":{"android":"levelo://app?vid=07ba84a8-f478-421c-96ed-6c0402ece04f","ios":"levelo://app?vid=07ba84a8-f478-421c-96ed-6c0402ece04f"},"vehicle_type_id":"4","last_reported":1751717894,"current_range_meters":16400,"station_id":"cpo3532slgdg3j2ikp40","pricing_plan_id":"cebpf4jnsgd1na2vs0mg"},{"bike_id":"a6fe0581-5daf-4b07-9e14-c0bfec26b1cd","system_id":"levelo_inurba_marseille","lat":43.21749,"lon":5.34623,"is_reserved":false,"is_disabled":false,"rental_uris":{"android":"levelo://app?vid=a6fe0581-5daf-4b07-9e14-c0bfec26b1cd","ios":"levelo://app?vid=a6fe0581-5daf-4b07-9e14-c0bfec26b1cd"},"vehicle_type_id":"4","last_reported":1751717894,"current_range_meters":16400,"station_id":"st_cvj6r9ubvosntc0bgbag","pricing_plan_id":"cebpf4jnsgd1na2vs0mg"},{"bike_id":"cd6f91d4-bdaf-4e38-b4f5-14f6e83055e8","system_id":"levelo_inurba_marseille","lat":43.21193,"lon":5.35092,"is_reserved":false,"is_disabled":false,"rental_uris":{"android":"levelo://app?vid=cd6f91d4-bdaf-4e38-b4f5-14f6e83055e8","ios":"levelo://app?vid=cd6f91d4-bdaf-4e38-b4f5-14f6e83055e8"},"vehicle_type_id":"4","last_reported":1751717894,"current_range_meters":16400,"station_id":"st_cvj6sg6p6f1abm77japg","pricing_plan_id":"cebpf4jnsgd1na2vs0mg"},{"bike_id":"bb4a28ca-bcb8-4241-b0fb-7b24851d517f","system_id":"levelo_inurba_marseille","lat":43.211912,"lon":5.350698,"is_reserved":false,"is_disabled":false,"rental_uris":{"android":"levelo://app?vid=bb4a28ca-bcb8-4241-b0fb-7b24851d517f","ios":"levelo://app?vid=bb4a28ca-bcb8-4241-b0fb-7b24851d517f"},"vehicle_type_id":"4","last_reported":1751717894,"current_range_meters":16400,"station_id":"st_cvj6sg6p6f1abm77japg","pricing_plan_id":"cebpf4jnsgd1na2vs0mg"},{"bike_id":"8a42812b-a6a1-406d-afe6-f3a1f04badd8","system_id":"levelo_inurba_marseille","lat":43.30845,"lon":5.37003,"is_reserved":false,"is_disabled":false,"rental_uris":{"android":"levelo://app?vid=8a42812b-a6a1-406d-afe6-f3a1f04badd8","ios":"levelo://app?vid=8a42812b-a6a1-406d-afe6-f3a1f04badd8"},"vehicle_type_id":"4","last_reported":1751717894,"current_range_meters":16800,"station_id":"","pricing_plan_id":"cebpf4jnsgd1na2vs0mg"},{"bike_id":"8499eb99-d444-451a-88ed-4dfa6ad8b657","system_id":"levelo_inurba_marseille","lat":43.30148,"lon":5.39881,"is_reserved":false,"is_disabled":false,"rental_uris":{"android":"levelo://app?vid=8499eb99-d444-451a-88ed-4dfa6ad8b657","ios":"levelo://app?vid=8499eb99-d444-451a-88ed-4dfa6ad8b657"},"vehicle_type_id":"4","last_reported":1751717894,"current_range_meters":16800,"station_id":"ce4bh0h2rcd13ifvqd40","pricing_plan_id":"cebpf4jnsgd1na2vs0mg"},{"bike_id":"1133fa96-960d-45e6-9328-aa458deeee07","system_id":"levelo_inurba_marseille","lat":43.26221,"lon":5.40458,"is_reserved":false,"is_disabled":false,"rental_uris":{"android":"levelo://app?vid=1133fa96-960d-45e6-9328-aa458deeee07","ios":"levelo://app?vid=1133fa96-960d-45e6-9328-aa458deeee07"},"vehicle_type_id":"4","last_reported":1751717894,"current_range_meters":16800,"station_id":"ce4bhmh2rcd13ifvqgmg","pricing_plan_id":"cebpf4jnsgd1na2vs0mg"},{"bike_id":"84303959-8cba-4981-9cd0-d7bbd107feff","system_id":"levelo_inurba_marseille","lat":43.304217,"lon":5.412748,"is_reserved":false,"is_disabled":false,"rental_uris":{"android":"levelo://app?vid=84303959-8cba-4981-9cd0-d7bbd107feff","ios":"levelo://app?vid=84303959-8cba-4981-9cd0-d7bbd107feff"},"vehicle_type_id":"4","last_reported":1751717894,"current_range_meters":16800,"station_id":"ce4bhop2rcd13ifvqh8g","pricing_plan_id":"cebpf4jnsgd1na2vs0mg"},{"bike_id":"7d7ca329-d013-418c-84c4-2b0666103eeb","system_id":"levelo_inurba_marseille","lat":43.29901,"lon":5.43675,"is_reserved":false,"is_disabled":false,"rental_uris":{"android":"levelo://app?vid=7d7ca329-d013-418c-84c4-2b0666103eeb","ios":"levelo://app?vid=7d7ca329-d013-418c-84c4-2b0666103eeb"},"vehicle_type_id":"4","last_reported":1751717894,"current_range_meters":16800,"station_id":"ce4bhpp2rcd13ifvqhfg","pricing_plan_id":"cebpf4jnsgd1na2vs0mg"},{"bike_id":"79075e0b-0992-4b28-86d5-b6ddb29a70a1","system_id":"levelo_inurba_marseille","lat":43.23196,"lon":5.35558,"is_reserved":false,"is_disabled":false,"rental_uris":{"android":"levelo://app?vid=79075e0b-0992-4b28-86d5-b6ddb29a70a1","ios":"levelo://app?vid=79075e0b-0992-4b28-86d5-b6ddb29a70a1"},"vehicle_type_id":"4","last_reported":1751717894,"current_range_meters":16800,"station_id":"ce4bhu92rcd13ifvqi70","pricing_plan_id":"cebpf4jnsgd1na2vs0mg"},{"bike_id":"a9bd35a6-9215-4e3b-b7d0-0e671843e1f2","system_id":"levelo_inurba_marseille","lat":43.24168,"lon":5.364,"is_reserved":false,"is_disabled":false,"rental_uris":{"android":"levelo://app?vid=a9bd35a6-9215-4e3b-b7d0-0e671843e1f2","ios":"levelo://app?vid=a9bd35a6-9215-4e3b-b7d0-0e671843e1f2"},"vehicle_type_id":"4","last_reported":1751717894,"current_range_meters":16800,"station_id":"cpo36qri1sfpv3e86is0","pricing_plan_id":"cebpf4jnsgd1na2vs0mg"},{"bike_id":"bf24b26e-7f51-4120-9a48-54c87edaa2f7","system_id":"levelo_inurba_marseille","lat":43.211974,"lon":5.350723,"is_reserved":false,"is_disabled":false,"rental_uris":{"android":"levelo://app?vid=bf24b26e-7f51-4120-9a48-54c87edaa2f7","ios":"levelo://app?vid=bf24b26e-7f51-4120-9a48-54c87edaa2f7"},"vehicle_type_id":"4","last_reported":1751717894,"current_range_meters":16800,"station_id":"st_cvj6sg6p6f1abm77japg","pricing_plan_id":"cebpf4jnsgd1na2vs0mg"},{"bike_id":"71ea80de-d88a-4694-92e8-06565a792b83","system_id":"levelo_inurba_marseille","lat":43.295785,"lon":5.375165,"is_reserved":false,"is_disabled":false,"rental_uris":{"android":"levelo://app?vid=71ea80de-d88a-4694-92e8-06565a792b83","ios":"levelo://app?vid=71ea80de-d88a-4694-92e8-06565a792b83"},"vehicle_type_id":"4","last_reported":1751717894,"current_range_meters":17200,"station_id":"","pricing_plan_id":"cebpf4jnsgd1na2vs0mg"},{"bike_id":"7f0c1e3c-145d-459e-b135-55934e2c45cf","system_id":"levelo_inurba_marseille","lat":43.28112,"lon":5.42557,"is_reserved":false,"is_disabled":false,"rental_uris":{"android":"levelo://app?vid=7f0c1e3c-145d-459e-b135-55934e2c45cf","ios":"levelo://app?vid=7f0c1e3c-145d-459e-b135-55934e2c45cf"},"vehicle_type_id":"4","last_reported":1751717894,"current_range_meters":17200,"station_id":"","pricing_plan_id":"cebpf4jnsgd1na2vs0mg"},{"bike_id":"3ed3cd5f-f6ea-4ff9-a05d-3ea7f3a8eadc","system_id":"levelo_inurba_marseille","lat":43.29589,"lon":5.37517,"is_reserved":false,"is_disabled":false,"rental_uris":{"android":"levelo://app?vid=3ed3cd5f-f6ea-4ff9-a05d-3ea7f3a8eadc","ios":"levelo://app?vid=3ed3cd5f-f6ea-4ff9-a05d-3ea7f3a8eadc"},"vehicle_type_id":"4","last_reported":1751717894,"current_range_meters":17200,"station_id":"ce4bgh92rcd13ifvqb50","pricing_plan_id":"cebpf4jnsgd1na2vs0mg"},{"bike_id":"a432562a-30ff-4df9-a4a5-167573d04372","system_id":"levelo_inurba_marseille","lat":43.31716,"lon":5.40492,"is_reserved":false,"is_disabled":false,"rental_uris":{"android":"levelo://app?vid=a432562a-30ff-4df9-a4a5-167573d04372","ios":"levelo://app?vid=a432562a-30ff-4df9-a4a5-167573d04372"},"vehicle_type_id":"4","last_reported":1751717894,"current_range_meters":17200,"station_id":"ce4bh012rcd13ifvqd00","pricing_plan_id":"cebpf4jnsgd1na2vs0mg"},{"bike_id":"a9e86f9b-660c-4eae-9748-1d4e3d8cc7fb","system_id":"levelo_inurba_marseille","lat":43.28712,"lon":5.37423,"is_reserved":false,"is_disabled":false,"rental_uris":{"android":"levelo://app?vid=a9e86f9b-660c-4eae-9748-1d4e3d8cc7fb","ios":"levelo://app?vid=a9e86f9b-660c-4eae-9748-1d4e3d8cc7fb"},"vehicle_type_id":"4","last_reported":1751717894,"current_range_meters":17200,"station_id":"ce4bh3p2rcd13ifvqdq0","pricing_plan_id":"cebpf4jnsgd1na2vs0mg"},{"bike_id":"694e6ad2-1b8a-4d1c-86fe-89a3d6b35ffd","system_id":"levelo_inurba_marseille","lat":43.29045,"lon":5.35919,"is_reserved":false,"is_disabled":false,"rental_uris":{"android":"levelo://app?vid=694e6ad2-1b8a-4d1c-86fe-89a3d6b35ffd","ios":"levelo://app?vid=694e6ad2-1b8a-4d1c-86fe-89a3d6b35ffd"},"vehicle_type_id":"4","last_reported":1751717894,"current_range_meters":17200,"station_id":"ce4bha92rcd13ifvqeg0","pricing_plan_id":"cebpf4jnsgd1na2vs0mg"},{"bike_id":"85080208-5a96-4cad-acb1-d768af0f84c7","system_id":"levelo_inurba_marseille","lat":43.289374,"lon":5.366249,"is_reserved":false,"is_disabled":false,"rental_uris":{"android":"levelo://app?vid=85080208-5a96-4cad-acb1-d768af0f84c7","ios":"levelo://app?vid=85080208-5a96-4cad-acb1-d768af0f84c7"},"vehicle_type_id":"4","last_reported":1751717894,"current_range_meters":17200,"station_id":"ce4bhap2rcd13ifvqek0","pricing_plan_id":"cebpf4jnsgd1na2vs0mg"},{"bike_id":"5e4669bd-8536-4919-8da2-15409e182044","system_id":"levelo_inurba_marseille","lat":43.231526,"lon":5.437243,"is_reserved":false,"is_disabled":false,"rental_uris":{"android":"levelo://app?vid=5e4669bd-8536-4919-8da2-15409e182044","ios":"levelo://app?vid=5e4669bd-8536-4919-8da2-15409e182044"},"vehicle_type_id":"4","last_reported":1751717894,"current_range_meters":17200,"station_id":"ce4bhmp2rcd13ifvqgog","pricing_plan_id":"cebpf4jnsgd1na2vs0mg"},{"bike_id":"cfedde4d-29e4-48a6-bc2a-67d1ad344395","system_id":"levelo_inurba_marseille","lat":43.23204,"lon":5.35551,"is_reserved":false,"is_disabled":false,"rental_uris":{"android":"levelo://app?vid=cfedde4d-29e4-48a6-bc2a-67d1ad344395","ios":"levelo://app?vid=cfedde4d-29e4-48a6-bc2a-67d1ad344395"},"vehicle_type_id":"4","last_reported":1751717894,"current_range_meters":17200,"station_id":"ce4bhu92rcd13ifvqi70","pricing_plan_id":"cebpf4jnsgd1na2vs0mg"},{"bike_id":"e449aa29-cae1-4432-9aec-dedc13360b20","system_id":"levelo_inurba_marseille","lat":43.21186,"lon":5.35078,"is_reserved":false,"is_disabled":false,"rental_uris":{"android":"levelo://app?vid=e449aa29-cae1-4432-9aec-dedc13360b20","ios":"levelo://app?vid=e449aa29-cae1-4432-9aec-dedc13360b20"},"vehicle_type_id":"4","last_reported":1751717894,"current_range_meters":17200,"station_id":"st_cvj6sg6p6f1abm77japg","pricing_plan_id":"cebpf4jnsgd1na2vs0mg"},{"bike_id":"00d8a1cb-a108-40db-9a51-20299b144efe","system_id":"levelo_inurba_marseille","lat":43.29799,"lon":5.37111,"is_reserved":false,"is_disabled":false,"rental_uris":{"android":"levelo://app?vid=00d8a1cb-a108-40db-9a51-20299b144efe","ios":"levelo://app?vid=00d8a1cb-a108-40db-9a51-20299b144efe"},"vehicle_type_id":"4","last_reported":1751717894,"current_range_meters":17600,"station_id":"ce4bgop2rcd13ifvqc1g","pricing_plan_id":"cebpf4jnsgd1na2vs0mg"},{"bike_id":"bfdd0f0d-5811-48a9-a679-8d75462464a7","system_id":"levelo_inurba_marseille","lat":43.29852,"lon":5.36304,"is_reserved":false,"is_disabled":false,"rental_uris":{"android":"levelo://app?vid=bfdd0f0d-5811-48a9-a679-8d75462464a7","ios":"levelo://app?vid=bfdd0f0d-5811-48a9-a679-8d75462464a7"},"vehicle_type_id":"4","last_reported":1751717894,"current_range_meters":17600,"station_id":"ce4bgpp2rcd13ifvqc3g","pricing_plan_id":"cebpf4jnsgd1na2vs0mg"},{"bike_id":"37c266a0-8898-44d2-a26a-51b9713edc59","system_id":"levelo_inurba_marseille","lat":43.30093,"lon":5.39082,"is_reserved":false,"is_disabled":false,"rental_uris":{"android":"levelo://app?vid=37c266a0-8898-44d2-a26a-51b9713edc59","ios":"levelo://app?vid=37c266a0-8898-44d2-a26a-51b9713edc59"},"vehicle_type_id":"4","last_reported":1751717894,"current_range_meters":17600,"station_id":"ce4bh192rcd13ifvqdb0","pricing_plan_id":"cebpf4jnsgd1na2vs0mg"},{"bike_id":"47de5f55-2556-4a90-8d72-0cec55ec9e79","system_id":"levelo_inurba_marseille","lat":43.295227,"lon":5.390406,"is_reserved":false,"is_disabled":false,"rental_uris":{"android":"levelo://app?vid=47de5f55-2556-4a90-8d72-0cec55ec9e79","ios":"levelo://app?vid=47de5f55-2556-4a90-8d72-0cec55ec9e79"},"vehicle_type_id":"4","last_reported":1751717894,"current_range_meters":17600,"station_id":"ce4bh3p2rcd13ifvqdp0","pricing_plan_id":"cebpf4jnsgd1na2vs0mg"},{"bike_id":"ef3b6156-c2ea-4a02-8532-dbf3e247298e","system_id":"levelo_inurba_marseille","lat":43.27374,"lon":5.36265,"is_reserved":false,"is_disabled":false,"rental_uris":{"android":"levelo://app?vid=ef3b6156-c2ea-4a02-8532-dbf3e247298e","ios":"levelo://app?vid=ef3b6156-c2ea-4a02-8532-dbf3e247298e"},"vehicle_type_id":"4","last_reported":1751717894,"current_range_meters":17600,"station_id":"ce4bhbh2rcd13ifvqeo0","pricing_plan_id":"cebpf4jnsgd1na2vs0mg"},{"bike_id":"84ecec0c-2f91-42a5-8791-abca74e53738","system_id":"levelo_inurba_marseille","lat":43.26166,"lon":5.37932,"is_reserved":false,"is_disabled":false,"rental_uris":{"android":"levelo://app?vid=84ecec0c-2f91-42a5-8791-abca74e53738","ios":"levelo://app?vid=84ecec0c-2f91-42a5-8791-abca74e53738"},"vehicle_type_id":"4","last_reported":1751717894,"current_range_meters":17600,"station_id":"ce4bhjp2rcd13ifvqg90","pricing_plan_id":"cebpf4jnsgd1na2vs0mg"},{"bike_id":"d5ef770d-9759-47e3-b3a5-7d2785ef76db","system_id":"levelo_inurba_marseille","lat":43.33021,"lon":5.38983,"is_reserved":false,"is_disabled":false,"rental_uris":{"android":"levelo://app?vid=d5ef770d-9759-47e3-b3a5-7d2785ef76db","ios":"levelo://app?vid=d5ef770d-9759-47e3-b3a5-7d2785ef76db"},"vehicle_type_id":"4","last_reported":1751717894,"current_range_meters":17600,"station_id":"ce4bhr92rcd13ifvqhrg","pricing_plan_id":"cebpf4jnsgd1na2vs0mg"},{"bike_id":"452e8211-4f44-45d0-814a-3e9e25b8c44e","system_id":"levelo_inurba_marseille","lat":43.21194,"lon":5.35077,"is_reserved":false,"is_disabled":false,"rental_uris":{"android":"levelo://app?vid=452e8211-4f44-45d0-814a-3e9e25b8c44e","ios":"levelo://app?vid=452e8211-4f44-45d0-814a-3e9e25b8c44e"},"vehicle_type_id":"4","last_reported":1751717894,"current_range_meters":17600,"station_id":"st_cvj6sg6p6f1abm77japg","pricing_plan_id":"cebpf4jnsgd1na2vs0mg"},{"bike_id":"43e5dda0-0b77-4587-9703-1510bd35dfc6","system_id":"levelo_inurba_marseille","lat":43.291007,"lon":5.355874,"is_reserved":false,"is_disabled":false,"rental_uris":{"android":"levelo://app?vid=43e5dda0-0b77-4587-9703-1510bd35dfc6","ios":"levelo://app?vid=43e5dda0-0b77-4587-9703-1510bd35dfc6"},"vehicle_type_id":"4","last_reported":1751717894,"current_range_meters":18000,"station_id":"","pricing_plan_id":"cebpf4jnsgd1na2vs0mg"},{"bike_id":"8b885149-cf7a-4df4-824d-7d686b7d76d4","system_id":"levelo_inurba_marseille","lat":43.2801,"lon":5.40881,"is_reserved":false,"is_disabled":false,"rental_uris":{"android":"levelo://app?vid=8b885149-cf7a-4df4-824d-7d686b7d76d4","ios":"levelo://app?vid=8b885149-cf7a-4df4-824d-7d686b7d76d4"},"vehicle_type_id":"4","last_reported":1751717894,"current_range_meters":18000,"station_id":"","pricing_plan_id":"cebpf4jnsgd1na2vs0mg"},{"bike_id":"d7b38d56-834e-4f13-940f-76edc49acc30","system_id":"levelo_inurba_marseille","lat":43.30144,"lon":5.38098,"is_reserved":false,"is_disabled":false,"rental_uris":{"android":"levelo://app?vid=d7b38d56-834e-4f13-940f-76edc49acc30","ios":"levelo://app?vid=d7b38d56-834e-4f13-940f-76edc49acc30"},"vehicle_type_id":"4","last_reported":1751717894,"current_range_meters":18000,"station_id":"ce4bgjp2rcd13ifvqbh0","pricing_plan_id":"cebpf4jnsgd1na2vs0mg"},{"bike_id":"0f7223ee-118a-4e7e-b9de-7d2675177506","system_id":"levelo_inurba_marseille","lat":43.30541,"lon":5.3654,"is_reserved":false,"is_disabled":false,"rental_uris":{"android":"levelo://app?vid=0f7223ee-118a-4e7e-b9de-7d2675177506","ios":"levelo://app?vid=0f7223ee-118a-4e7e-b9de-7d2675177506"},"vehicle_type_id":"4","last_reported":1751717894,"current_range_meters":18000,"station_id":"ce4bgs12rcd13ifvqcag","pricing_plan_id":"cebpf4jnsgd1na2vs0mg"},{"bike_id":"0c614db4-45b5-45e5-9500-dd75467fce41","system_id":"levelo_inurba_marseille","lat":43.28039,"lon":5.36953,"is_reserved":false,"is_disabled":false,"rental_uris":{"android":"levelo://app?vid=0c614db4-45b5-45e5-9500-dd75467fce41","ios":"levelo://app?vid=0c614db4-45b5-45e5-9500-dd75467fce41"},"vehicle_type_id":"4","last_reported":1751717894,"current_range_meters":18000,"station_id":"ce4bha12rcd13ifvqef0","pricing_plan_id":"cebpf4jnsgd1na2vs0mg"},{"bike_id":"fd900928-a6cc-465d-a048-c9a63fb1e07d","system_id":"levelo_inurba_marseille","lat":43.25863,"lon":5.39897,"is_reserved":false,"is_disabled":false,"rental_uris":{"android":"levelo://app?vid=fd900928-a6cc-465d-a048-c9a63fb1e07d","ios":"levelo://app?vid=fd900928-a6cc-465d-a048-c9a63fb1e07d"},"vehicle_type_id":"4","last_reported":1751717894,"current_range_meters":18000,"station_id":"ce4bhl92rcd13ifvqghg","pricing_plan_id":"cebpf4jnsgd1na2vs0mg"},{"bike_id":"38556a8c-bc16-440b-aba1-9df44c77db93","system_id":"levelo_inurba_marseille","lat":43.26231,"lon":5.40456,"is_reserved":false,"is_disabled":false,"rental_uris":{"android":"levelo://app?vid=38556a8c-bc16-440b-aba1-9df44c77db93","ios":"levelo://app?vid=38556a8c-bc16-440b-aba1-9df44c77db93"},"vehicle_type_id":"4","last_reported":1751717894,"current_range_meters":18000,"station_id":"ce4bhmh2rcd13ifvqgmg","pricing_plan_id":"cebpf4jnsgd1na2vs0mg"},{"bike_id":"0e07b02e-70b9-4d1c-8708-3554fa9b3848","system_id":"levelo_inurba_marseille","lat":43.232,"lon":5.35558,"is_reserved":false,"is_disabled":false,"rental_uris":{"android":"levelo://app?vid=0e07b02e-70b9-4d1c-8708-3554fa9b3848","ios":"levelo://app?vid=0e07b02e-70b9-4d1c-8708-3554fa9b3848"},"vehicle_type_id":"4","last_reported":1751717894,"current_range_meters":18000,"station_id":"ce4bhu92rcd13ifvqi70","pricing_plan_id":"cebpf4jnsgd1na2vs0mg"},{"bike_id":"35b83f8f-3d97-4c4a-aa36-e774ca0233b5","system_id":"levelo_inurba_marseille","lat":43.21749,"lon":5.34601,"is_reserved":false,"is_disabled":false,"rental_uris":{"android":"levelo://app?vid=35b83f8f-3d97-4c4a-aa36-e774ca0233b5","ios":"levelo://app?vid=35b83f8f-3d97-4c4a-aa36-e774ca0233b5"},"vehicle_type_id":"4","last_reported":1751717894,"current_range_meters":18000,"station_id":"st_cvj6r9ubvosntc0bgbag","pricing_plan_id":"cebpf4jnsgd1na2vs0mg"},{"bike_id":"92dc2466-c197-4cda-9181-c77ef09f7bb7","system_id":"levelo_inurba_marseille","lat":43.21751,"lon":5.34607,"is_reserved":false,"is_disabled":false,"rental_uris":{"android":"levelo://app?vid=92dc2466-c197-4cda-9181-c77ef09f7bb7","ios":"levelo://app?vid=92dc2466-c197-4cda-9181-c77ef09f7bb7"},"vehicle_type_id":"4","last_reported":1751717894,"current_range_meters":18000,"station_id":"st_cvj6r9ubvosntc0bgbag","pricing_plan_id":"cebpf4jnsgd1na2vs0mg"},{"bike_id":"891c3460-a85a-4b4f-8aa8-883b2204696f","system_id":"levelo_inurba_marseille","lat":43.21774,"lon":5.34633,"is_reserved":false,"is_disabled":false,"rental_uris":{"android":"levelo://app?vid=891c3460-a85a-4b4f-8aa8-883b2204696f","ios":"levelo://app?vid=891c3460-a85a-4b4f-8aa8-883b2204696f"},"vehicle_type_id":"4","last_reported":1751717894,"current_range_meters":18000,"station_id":"st_cvj6r9ubvosntc0bgbag","pricing_plan_id":"cebpf4jnsgd1na2vs0mg"},{"bike_id":"eb21e761-1968-4ef9-8f9a-0bcec666050f","system_id":"levelo_inurba_marseille","lat":43.21753,"lon":5.34619,"is_reserved":false,"is_disabled":false,"rental_uris":{"android":"levelo://app?vid=eb21e761-1968-4ef9-8f9a-0bcec666050f","ios":"levelo://app?vid=eb21e761-1968-4ef9-8f9a-0bcec666050f"},"vehicle_type_id":"4","last_reported":1751717894,"current_range_meters":18000,"station_id":"st_cvj6r9ubvosntc0bgbag","pricing_plan_id":"cebpf4jnsgd1na2vs0mg"},{"bike_id":"98aac28d-b860-4179-8d39-1798550d6dac","system_id":"levelo_inurba_marseille","lat":43.21194,"lon":5.35085,"is_reserved":false,"is_disabled":false,"rental_uris":{"android":"levelo://app?vid=98aac28d-b860-4179-8d39-1798550d6dac","ios":"levelo://app?vid=98aac28d-b860-4179-8d39-1798550d6dac"},"vehicle_type_id":"4","last_reported":1751717894,"current_range_meters":18000,"station_id":"st_cvj6sg6p6f1abm77japg","pricing_plan_id":"cebpf4jnsgd1na2vs0mg"},{"bike_id":"655a110d-474d-43b1-a203-d9e462e1a783","system_id":"levelo_inurba_marseille","lat":43.21201,"lon":5.35091,"is_reserved":false,"is_disabled":false,"rental_uris":{"android":"levelo://app?vid=655a110d-474d-43b1-a203-d9e462e1a783","ios":"levelo://app?vid=655a110d-474d-43b1-a203-d9e462e1a783"},"vehicle_type_id":"4","last_reported":1751717894,"current_range_meters":18000,"station_id":"st_cvj6sg6p6f1abm77japg","pricing_plan_id":"cebpf4jnsgd1na2vs0mg"},{"bike_id":"1608218e-ab67-4f6b-8130-1c59efb738f0","system_id":"levelo_inurba_marseille","lat":43.23962,"lon":5.36667,"is_reserved":false,"is_disabled":false,"rental_uris":{"android":"levelo://app?vid=1608218e-ab67-4f6b-8130-1c59efb738f0","ios":"levelo://app?vid=1608218e-ab67-4f6b-8130-1c59efb738f0"},"vehicle_type_id":"4","last_reported":1751717894,"current_range_meters":18800,"station_id":"ce4bhi12rcd13ifvqfp0","pricing_plan_id":"cebpf4jnsgd1na2vs0mg"},{"bike_id":"38508f1b-f809-47df-a110-d48d227fd7e8","system_id":"levelo_inurba_marseille","lat":43.23188,"lon":5.3999,"is_reserved":false,"is_disabled":false,"rental_uris":{"android":"levelo://app?vid=38508f1b-f809-47df-a110-d48d227fd7e8","ios":"levelo://app?vid=38508f1b-f809-47df-a110-d48d227fd7e8"},"vehicle_type_id":"4","last_reported":1751717894,"current_range_meters":18800,"station_id":"ce4bhn12rcd13ifvqgqg","pricing_plan_id":"cebpf4jnsgd1na2vs0mg"},{"bike_id":"30daf87a-5e7d-42b3-ac97-c9dfd23296b5","system_id":"levelo_inurba_marseille","lat":43.32447,"lon":5.36548,"is_reserved":false,"is_disabled":false,"rental_uris":{"android":"levelo://app?vid=30daf87a-5e7d-42b3-ac97-c9dfd23296b5","ios":"levelo://app?vid=30daf87a-5e7d-42b3-ac97-c9dfd23296b5"},"vehicle_type_id":"4","last_reported":1751717894,"current_range_meters":18800,"station_id":"ce4bhs12rcd13ifvqhvg","pricing_plan_id":"cebpf4jnsgd1na2vs0mg"},{"bike_id":"8bf0d992-d2a0-428e-940a-091ee9b7c2a4","system_id":"levelo_inurba_marseille","lat":43.21764,"lon":5.34611,"is_reserved":false,"is_disabled":false,"rental_uris":{"android":"levelo://app?vid=8bf0d992-d2a0-428e-940a-091ee9b7c2a4","ios":"levelo://app?vid=8bf0d992-d2a0-428e-940a-091ee9b7c2a4"},"vehicle_type_id":"4","last_reported":1751717894,"current_range_meters":18800,"station_id":"st_cvj6r9ubvosntc0bgbag","pricing_plan_id":"cebpf4jnsgd1na2vs0mg"},{"bike_id":"76558ac1-6d67-42d3-99cc-0b13879ac5f0","system_id":"levelo_inurba_marseille","lat":43.25577,"lon":5.382433,"is_reserved":false,"is_disabled":false,"rental_uris":{"android":"levelo://app?vid=76558ac1-6d67-42d3-99cc-0b13879ac5f0","ios":"levelo://app?vid=76558ac1-6d67-42d3-99cc-0b13879ac5f0"},"vehicle_type_id":"4","last_reported":1751717894,"current_range_meters":19200,"station_id":"ce4bhih2rcd13ifvqfs0","pricing_plan_id":"cebpf4jnsgd1na2vs0mg"},{"bike_id":"b3afb175-e296-40cb-8a29-922458b0062a","system_id":"levelo_inurba_marseille","lat":43.33026,"lon":5.39042,"is_reserved":false,"is_disabled":false,"rental_uris":{"android":"levelo://app?vid=b3afb175-e296-40cb-8a29-922458b0062a","ios":"levelo://app?vid=b3afb175-e296-40cb-8a29-922458b0062a"},"vehicle_type_id":"4","last_reported":1751717894,"current_range_meters":19200,"station_id":"ce4bhr92rcd13ifvqhrg","pricing_plan_id":"cebpf4jnsgd1na2vs0mg"},{"bike_id":"2e9ecc0a-afc7-4316-ac0c-3ab173435e83","system_id":"levelo_inurba_marseille","lat":43.231876,"lon":5.355834,"is_reserved":false,"is_disabled":false,"rental_uris":{"android":"levelo://app?vid=2e9ecc0a-afc7-4316-ac0c-3ab173435e83","ios":"levelo://app?vid=2e9ecc0a-afc7-4316-ac0c-3ab173435e83"},"vehicle_type_id":"4","last_reported":1751717894,"current_range_meters":19200,"station_id":"ce4bhu92rcd13ifvqi70","pricing_plan_id":"cebpf4jnsgd1na2vs0mg"},{"bike_id":"8a4a6da4-01b4-4d73-b81d-9d894b478413","system_id":"levelo_inurba_marseille","lat":43.29807,"lon":5.38095,"is_reserved":false,"is_disabled":false,"rental_uris":{"android":"levelo://app?vid=8a4a6da4-01b4-4d73-b81d-9d894b478413","ios":"levelo://app?vid=8a4a6da4-01b4-4d73-b81d-9d894b478413"},"vehicle_type_id":"4","last_reported":1751717894,"current_range_meters":19600,"station_id":"ce4bgip2rcd13ifvqbb0","pricing_plan_id":"cebpf4jnsgd1na2vs0mg"},{"bike_id":"cf934ad2-9012-4eaf-9fea-8c2c5669234f","system_id":"levelo_inurba_marseille","lat":43.29269,"lon":5.38448,"is_reserved":false,"is_disabled":false,"rental_uris":{"android":"levelo://app?vid=cf934ad2-9012-4eaf-9fea-8c2c5669234f","ios":"levelo://app?vid=cf934ad2-9012-4eaf-9fea-8c2c5669234f"},"vehicle_type_id":"4","last_reported":1751717894,"current_range_meters":19600,"station_id":"ce4bh692rcd13ifvqea0","pricing_plan_id":"cebpf4jnsgd1na2vs0mg"},{"bike_id":"eb0d0945-da73-4805-a7fa-0f4d1995a84b","system_id":"levelo_inurba_marseille","lat":43.30419,"lon":5.41296,"is_reserved":false,"is_disabled":false,"rental_uris":{"android":"levelo://app?vid=eb0d0945-da73-4805-a7fa-0f4d1995a84b","ios":"levelo://app?vid=eb0d0945-da73-4805-a7fa-0f4d1995a84b"},"vehicle_type_id":"4","last_reported":1751717894,"current_range_meters":19600,"station_id":"ce4bhop2rcd13ifvqh8g","pricing_plan_id":"cebpf4jnsgd1na2vs0mg"},{"bike_id":"efbebf17-7e5d-4850-a74c-4f11122cda36","system_id":"levelo_inurba_marseille","lat":43.22934,"lon":5.35379,"is_reserved":false,"is_disabled":false,"rental_uris":{"android":"levelo://app?vid=efbebf17-7e5d-4850-a74c-4f11122cda36","ios":"levelo://app?vid=efbebf17-7e5d-4850-a74c-4f11122cda36"},"vehicle_type_id":"4","last_reported":1751717894,"current_range_meters":19600,"station_id":"cpo3532slgdg3j2ikp40","pricing_plan_id":"cebpf4jnsgd1na2vs0mg"},{"bike_id":"c914d7ef-d553-46c7-bcaf-b154172d47bf","system_id":"levelo_inurba_marseille","lat":43.316947,"lon":5.374193,"is_reserved":false,"is_disabled":false,"rental_uris":{"android":"levelo://app?vid=c914d7ef-d553-46c7-bcaf-b154172d47bf","ios":"levelo://app?vid=c914d7ef-d553-46c7-bcaf-b154172d47bf"},"vehicle_type_id":"4","last_reported":1751717894,"current_range_meters":20000,"station_id":"","pricing_plan_id":"cebpf4jnsgd1na2vs0mg"},{"bike_id":"294c55ac-c8ae-4f49-bc9e-29d799a8277e","system_id":"levelo_inurba_marseille","lat":43.30542,"lon":5.36544,"is_reserved":false,"is_disabled":false,"rental_uris":{"android":"levelo://app?vid=294c55ac-c8ae-4f49-bc9e-29d799a8277e","ios":"levelo://app?vid=294c55ac-c8ae-4f49-bc9e-29d799a8277e"},"vehicle_type_id":"4","last_reported":1751717894,"current_range_meters":20000,"station_id":"ce4bgs12rcd13ifvqcag","pricing_plan_id":"cebpf4jnsgd1na2vs0mg"},{"bike_id":"8d5494f6-967d-40a2-ac01-1391d7cb8f56","system_id":"levelo_inurba_marseille","lat":43.28478,"lon":5.38565,"is_reserved":false,"is_disabled":false,"rental_uris":{"android":"levelo://app?vid=8d5494f6-967d-40a2-ac01-1391d7cb8f56","ios":"levelo://app?vid=8d5494f6-967d-40a2-ac01-1391d7cb8f56"},"vehicle_type_id":"4","last_reported":1751717894,"current_range_meters":20000,"station_id":"ce4bh8p2rcd13ifvqeb0","pricing_plan_id":"cebpf4jnsgd1na2vs0mg"},{"bike_id":"d1f9d37d-b429-4583-912e-805cf3889e65","system_id":"levelo_inurba_marseille","lat":43.231959,"lon":5.355643,"is_reserved":false,"is_disabled":false,"rental_uris":{"android":"levelo://app?vid=d1f9d37d-b429-4583-912e-805cf3889e65","ios":"levelo://app?vid=d1f9d37d-b429-4583-912e-805cf3889e65"},"vehicle_type_id":"4","last_reported":1751717894,"current_range_meters":20000,"station_id":"ce4bhu92rcd13ifvqi70","pricing_plan_id":"cebpf4jnsgd1na2vs0mg"},{"bike_id":"80955d0f-8669-4c02-b90f-c6fe20790c37","system_id":"levelo_inurba_marseille","lat":43.23203,"lon":5.35057,"is_reserved":false,"is_disabled":false,"rental_uris":{"android":"levelo://app?vid=80955d0f-8669-4c02-b90f-c6fe20790c37","ios":"levelo://app?vid=80955d0f-8669-4c02-b90f-c6fe20790c37"},"vehicle_type_id":"4","last_reported":1751717894,"current_range_meters":20400,"station_id":"","pricing_plan_id":"cebpf4jnsgd1na2vs0mg"},{"bike_id":"7c373ab5-a2c4-406b-95e7-e7f85b9d6f2e","system_id":"levelo_inurba_marseille","lat":43.29878,"lon":5.3973,"is_reserved":false,"is_disabled":false,"rental_uris":{"android":"levelo://app?vid=7c373ab5-a2c4-406b-95e7-e7f85b9d6f2e","ios":"levelo://app?vid=7c373ab5-a2c4-406b-95e7-e7f85b9d6f2e"},"vehicle_type_id":"4","last_reported":1751717894,"current_range_meters":20400,"station_id":"ce4bh0h2rcd13ifvqd50","pricing_plan_id":"cebpf4jnsgd1na2vs0mg"},{"bike_id":"b76d88a9-e9ba-4974-9987-401ff063a439","system_id":"levelo_inurba_marseille","lat":43.26202,"lon":5.37445,"is_reserved":false,"is_disabled":false,"rental_uris":{"android":"levelo://app?vid=b76d88a9-e9ba-4974-9987-401ff063a439","ios":"levelo://app?vid=b76d88a9-e9ba-4974-9987-401ff063a439"},"vehicle_type_id":"4","last_reported":1751717894,"current_range_meters":20400,"station_id":"ce4bhgp2rcd13ifvqfc0","pricing_plan_id":"cebpf4jnsgd1na2vs0mg"},{"bike_id":"7a2a6668-dda4-4b39-a728-dd68d936976e","system_id":"levelo_inurba_marseille","lat":43.27051,"lon":5.40268,"is_reserved":false,"is_disabled":false,"rental_uris":{"android":"levelo://app?vid=7a2a6668-dda4-4b39-a728-dd68d936976e","ios":"levelo://app?vid=7a2a6668-dda4-4b39-a728-dd68d936976e"},"vehicle_type_id":"4","last_reported":1751717894,"current_range_meters":20400,"station_id":"ce4bhk92rcd13ifvqgc0","pricing_plan_id":"cebpf4jnsgd1na2vs0mg"},