{"last_updated":1728076101,"ttl":60,"version":"2.2","data":{"bikes":[{"bike_id":"7244a60b-bd29-46a8-b6b6-1ba592f74ded","system_id":"levelo_inurba_marseille","lat":43.25117,"lon":5.40322,"is_reserved":false,"is_disabled":false,"rental_uris":{"android":"levelo://app?vid=7244a60b-bd29-46a8-b6b6-1ba592f74ded","ios":"levelo://app?vid=7244a60b-bd29-46a8-b6b6-1ba592f74ded"},"vehicle_type_id":"4","last_reported":1728076102,"current_range_meters":24000,"station_id":"ce4bhlh2rcd13ifvqgig","pricing_plan_id":"cebpf4jnsgd1na2vs0mg"},{"bike_id":"ee529dfe-cc9d-4795-9e5c-94a50c097dd8","system_id":"levelo_inurba_marseille","lat":43.30248,"lon":5.40067,"is_reserved":false,"is_disabled":false,"rental_uris":{"android":"levelo://app?vid=ee529dfe-cc9d-4795-9e5c-94a50c097dd8","ios":"levelo://app?vid=ee529dfe-cc9d-4795-9e5c-94a50c097dd8"},"vehicle_type_id":"4","last_reported":1728076102,"current_range_meters":26000,"station_id":"ce4bgvh2rcd13ifvqcs0","pricing_plan_id":"cebpf4jnsgd1na2vs0mg"},{"bike_id":"fc4cd310-d92c-4df7-a20f-bde8894c63db","system_id":"levelo_inurba_marseille","lat":43.25136,"lon":5.40332,"is_reserved":false,"is_disabled":false,"rental_uris":{"android":"levelo://app?vid=fc4cd310-d92c-4df7-a20f-bde8894c63db","ios":"levelo://app?vid=fc4cd310-d92c-4df7-a20f-bde8894c63db"},"vehicle_type_id":"4","last_reported":1728076102,"current_range_meters":6000,"station_id":"ce4bhlh2rcd13ifvqgig","pricing_plan_id":"cebpf4jnsgd1na2vs0mg"},{"bike_id":"365b5fac-18b9-49f5-acdd-bfa40c0e78a1","system_id":"levelo_inurba_marseille","lat":43.29418,"lon":5.38623,"is_reserved":false,"is_disabled":false,"rental_uris":{"android":"levelo://app?vid=365b5fac-18b9-49f5-acdd-bfa40c0e78a1","ios":"levelo://app?vid=365b5fac-18b9-49f5-acdd-bfa40c0e78a1"},"vehicle_type_id":"4","last_reported":1728076102,"current_range_meters":4000,"station_id":"ce4bh2h2rcd13ifvqdh0","pricing_plan_id":"cebpf4jnsgd1na2vs0mg"},{"bike_id":"0ab31a2b-100e-46ba-8518-e3de7fc7122e","system_id":"levelo_inurba_marseille","lat":43.33759,"lon":5.37444,"is_reserved":false,"is_disabled":false,"rental_uris":{"android":"levelo://app?vid=0ab31a2b-100e-46ba-8518-e3de7fc7122e","ios":"levelo://app?vid=0ab31a2b-100e-46ba-8518-e3de7fc7122e"},"vehicle_type_id":"4","last_reported":1728076102,"current_range_meters":35600,"station_id":"","pricing_plan_id":"cebpf4jnsgd1na2vs0mg"},{"bike_id":"756088e4-bd38-4606-aa6f-cbbf1461af00","system_id":"levelo_inurba_marseille","lat":43.22936,"lon":5.35378,"is_reserved":false,"is_disabled":false,"rental_uris":{"android":"levelo://app?vid=756088e4-bd38-4606-aa6f-cbbf1461af00","ios":"levelo://app?vid=756088e4-bd38-4606-aa6f-cbbf1461af00"},"vehicle_type_id":"4","last_reported":1728076102,"current_range_meters":10000,"station_id":"cpo3532slgdg3j2ikp40","pricing_plan_id":"cebpf4jnsgd1na2vs0mg"},{"bike_id":"c03e49f8-a938-4f51-8fce-b885053138db","system_id":"levelo_inurba_marseille","lat":43.23973,"lon":5.36636,"is_reserved":false,"is_disabled":false,"rental_uris":{"android":"levelo://app?vid=c03e49f8-a938-4f51-8fce-b885053138db","ios":"levelo://app?vid=c03e49f8-a938-4f51-8fce-b885053138db"},"vehicle_type_id":"4","last_reported":1728076102,"current_range_meters":31200,"station_id":"ce4bhi12rcd13ifvqfp0","pricing_plan_id":"cebpf4jnsgd1na2vs0mg"},{"bike_id":"fbf0dd90-9c7c-4b9d-8e8a-1372ffa5085e","system_id":"levelo_inurba_marseille","lat":43.30599,"lon":5.37229,"is_reserved":false,"is_disabled":false,"rental_uris":{"android":"levelo://app?vid=fbf0dd90-9c7c-4b9d-8e8a-1372ffa5085e","ios":"levelo://app?vid=fbf0dd90-9c7c-4b9d-8e8a-1372ffa5085e"},"vehicle_type_id":"4","last_reported":1728076102,"current_range_meters":38000,"station_id":"ce4bgqh2rcd13ifvqc4g","pricing_plan_id":"cebpf4jnsgd1na2vs0mg"},{"bike_id":"b533c485-8de5-4435-9b8a-7bede3d5f21f","system_id":"levelo_inurba_marseille","lat":43.31109,"lon":5.37768,"is_reserved":false,"is_disabled":false,"rental_uris":{"android":"levelo://app?vid=b533c485-8de5-4435-9b8a-7bede3d5f21f","ios":"levelo://app?vid=b533c485-8de5-4435-9b8a-7bede3d5f21f"},"vehicle_type_id":"4","last_reported":1728076102,"current_range_meters":38800,"station_id":"ce4bgt92rcd13ifvqcg0","pricing_plan_id":"cebpf4jnsgd1na2vs0mg"},{"bike_id":"4baa9b83-4430-4f18-814e-ddb2add7d50a","system_id":"levelo_inurba_marseille","lat":43.30925,"lon":5.40151,"is_reserved":false,"is_disabled":false,"rental_uris":{"android":"levelo://app?vid=4baa9b83-4430-4f18-814e-ddb2add7d50a","ios":"levelo://app?vid=4baa9b83-4430-4f18-814e-ddb2add7d50a"},"vehicle_type_id":"4","last_reported":1728076102,"current_range_meters":19600,"station_id":"ce4bgvp2rcd13ifvqct0","pricing_plan_id":"cebpf4jnsgd1na2vs0mg"},{"bike_id":"37042c1b-99f0-4379-a7d0-0b6867cdb669","system_id":"levelo_inurba_marseille","lat":43.23177,"lon":5.39983,"is_reserved":false,"is_disabled":false,"rental_uris":{"android":"levelo://app?vid=37042c1b-99f0-4379-a7d0-0b6867cdb669","ios":"levelo://app?vid=37042c1b-99f0-4379-a7d0-0b6867cdb669"},"vehicle_type_id":"4","last_reported":1728076102,"current_range_meters":14400,"station_id":"ce4bhn12rcd13ifvqgqg","pricing_plan_id":"cebpf4jnsgd1na2vs0mg"},{"bike_id":"187b46fd-cd72-4776-944c-289e5a4503ce","system_id":"levelo_inurba_marseille","lat":43.28703,"lon":5.39996,"is_reserved":false,"is_disabled":false,"rental_uris":{"android":"levelo://app?vid=187b46fd-cd72-4776-944c-289e5a4503ce","ios":"levelo://app?vid=187b46fd-cd72-4776-944c-289e5a4503ce"},"vehicle_type_id":"4","last_reported":1728076102,"current_range_meters":17600,"station_id":"ce4bho92rcd13ifvqh3g","pricing_plan_id":"cebpf4jnsgd1na2vs0mg"},{"bike_id":"57ca37b5-3df4-46a1-89d9-502a214a9079","system_id":"levelo_inurba_marseille","lat":43.31267,"lon":5.40174,"is_reserved":false,"is_disabled":false,"rental_uris":{"android":"levelo://app?vid=57ca37b5-3df4-46a1-89d9-502a214a9079","ios":"levelo://app?vid=57ca37b5-3df4-46a1-89d9-502a214a9079"},"vehicle_type_id":"4","last_reported":1728076102,"current_range_meters":5600,"station_id":"ce4bh092rcd13ifvqd30","pricing_plan_id":"cebpf4jnsgd1na2vs0mg"},{"bike_id":"3db4d519-fb29-4a54-b6e0-e6ce1f6a9390","system_id":"levelo_inurba_marseille","lat":43.29531,"lon":5.38544,"is_reserved":false,"is_disabled":false,"rental_uris":{"android":"levelo://app?vid=3db4d519-fb29-4a54-b6e0-e6ce1f6a9390","ios":"levelo://app?vid=3db4d519-fb29-4a54-b6e0-e6ce1f6a9390"},"vehicle_type_id":"4","last_reported":1728076102,"current_range_meters":33200,"station_id":"ce4bgih2rcd13ifvqba0","pricing_plan_id":"cebpf4jnsgd1na2vs0mg"},{"bike_id":"e93e7e70-bb2b-424c-aada-86e1fe4ff8ce","system_id":"levelo_inurba_marseille","lat":43.29043,"lon":5.3864,"is_reserved":false,"is_disabled":false,"rental_uris":{"android":"levelo://app?vid=e93e7e70-bb2b-424c-aada-86e1fe4ff8ce","ios":"levelo://app?vid=e93e7e70-bb2b-424c-aada-86e1fe4ff8ce"},"vehicle_type_id":"4","last_reported":1728076102,"current_range_meters":24000,"station_id":"ce4bh4p2rcd13ifvqe0g","pricing_plan_id":"cebpf4jnsgd1na2vs0mg"},{"bike_id":"53d26f8a-59e3-4094-bf35-ae6b2bb5e8d2","system_id":"levelo_inurba_marseille","lat":43.26203,"lon":5.37935,"is_reserved":false,"is_disabled":false,"rental_uris":{"android":"levelo://app?vid=53d26f8a-59e3-4094-bf35-ae6b2bb5e8d2","ios":"levelo://app?vid=53d26f8a-59e3-4094-bf35-ae6b2bb5e8d2"},"vehicle_type_id":"4","last_reported":1728076102,"current_range_meters":23200,"station_id":"ce4bhjp2rcd13ifvqg90","pricing_plan_id":"cebpf4jnsgd1na2vs0mg"},{"bike_id":"18d125c7-59a4-4162-aeac-aca7739552c0","system_id":"levelo_inurba_marseille","lat":43.29262,"lon":5.40908,"is_reserved":false,"is_disabled":false,"rental_uris":{"android":"levelo://app?vid=18d125c7-59a4-4162-aeac-aca7739552c0","ios":"levelo://app?vid=18d125c7-59a4-4162-aeac-aca7739552c0"},"vehicle_type_id":"4","last_reported":1728076102,"current_range_meters":11200,"station_id":"ce4bh192rcd13ifvqdc0","pricing_plan_id":"cebpf4jnsgd1na2vs0mg"},{"bike_id":"ac62835a-2084-486a-927a-ea702bc7e047","system_id":"levelo_inurba_marseille","lat":43.29101,"lon":5.38146,"is_reserved":false,"is_disabled":false,"rental_uris":{"android":"levelo://app?vid=ac62835a-2084-486a-927a-ea702bc7e047","ios":"levelo://app?vid=ac62835a-2084-486a-927a-ea702bc7e047"},"vehicle_type_id":"4","last_reported":1728076102,"current_range_meters":14000,"station_id":"ce4bh512rcd13ifvqe2g","pricing_plan_id":"cebpf4jnsgd1na2vs0mg"},{"bike_id":"69b2ab72-6eb7-403d-85c7-be72aa2ab82b","system_id":"levelo_inurba_marseille","lat":43.3009,"lon":5.40025,"is_reserved":false,"is_disabled":false,"rental_uris":{"android":"levelo://app?vid=69b2ab72-6eb7-403d-85c7-be72aa2ab82b","ios":"levelo://app?vid=69b2ab72-6eb7-403d-85c7-be72aa2ab82b"},"vehicle_type_id":"4","last_reported":1728076102,"current_range_meters":20000,"station_id":"","pricing_plan_id":"cebpf4jnsgd1na2vs0mg"},{"bike_id":"5257bc58-7f86-4691-bfd8-4409f576b50a","system_id":"levelo_inurba_marseille","lat":43.295746,"lon":5.375692,"is_reserved":false,"is_disabled":false,"rental_uris":{"android":"levelo://app?vid=5257bc58-7f86-4691-bfd8-4409f576b50a","ios":"levelo://app?vid=5257bc58-7f86-4691-bfd8-4409f576b50a"},"vehicle_type_id":"4","last_reported":1728076102,"current_range_meters":36000,"station_id":"","pricing_plan_id":"cebpf4jnsgd1na2vs0mg"},{"bike_id":"b32a9878-7bdc-4fc6-9947-58ca161b2dc7","system_id":"levelo_inurba_marseille","lat":43.29613,"lon":5.3773,"is_reserved":false,"is_disabled":false,"rental_uris":{"android":"levelo://app?vid=b32a9878-7bdc-4fc6-9947-58ca161b2dc7","ios":"levelo://app?vid=b32a9878-7bdc-4fc6-9947-58ca161b2dc7"},"vehicle_type_id":"4","last_reported":1728076102,"current_range_meters":9200,"station_id":"ce4bgi92rcd13ifvqb90","pricing_plan_id":"cebpf4jnsgd1na2vs0mg"},{"bike_id":"2ee470a2-f6fc-41c4-9ed0-be15e787887a","system_id":"levelo_inurba_marseille","lat":43.23971,"lon":5.36629,"is_reserved":false,"is_disabled":false,"rental_uris":{"android":"levelo://app?vid=2ee470a2-f6fc-41c4-9ed0-be15e787887a","ios":"levelo://app?vid=2ee470a2-f6fc-41c4-9ed0-be15e787887a"},"vehicle_type_id":"4","last_reported":1728076102,"current_range_meters":18800,"station_id":"ce4bhi12rcd13ifvqfp0","pricing_plan_id":"cebpf4jnsgd1na2vs0mg"},{"bike_id":"d2d8fb63-03b7-4912-8faa-a780e30e5e37","system_id":"levelo_inurba_marseille","lat":43.31264,"lon":5.40166,"is_reserved":false,"is_disabled":false,"rental_uris":{"android":"levelo://app?vid=d2d8fb63-03b7-4912-8faa-a780e30e5e37","ios":"levelo://app?vid=d2d8fb63-03b7-4912-8faa-a780e30e5e37"},"vehicle_type_id":"4","last_reported":1728076102,"current_range_meters":38000,"station_id":"ce4bh092rcd13ifvqd30","pricing_plan_id":"cebpf4jnsgd1na2vs0mg"},{"bike_id":"4782596d-3e6e-4437-8d44-1e1923d90165","system_id":"levelo_inurba_marseille","lat":43.31114,"lon":5.37775,"is_reserved":false,"is_disabled":false,"rental_uris":{"android":"levelo://app?vid=4782596d-3e6e-4437-8d44-1e1923d90165","ios":"levelo://app?vid=4782596d-3e6e-4437-8d44-1e1923d90165"},"vehicle_type_id":"4","last_reported":1728076102,"current_range_meters":38800,"station_id":"ce4bgt92rcd13ifvqcg0","pricing_plan_id":"cebpf4jnsgd1na2vs0mg"},{"bike_id":"e6b2df58-b4a0-4aec-933d-a62e42f34d34","system_id":"levelo_inurba_marseille","lat":43.33723,"lon":5.39199,"is_reserved":false,"is_disabled":false,"rental_uris":{"android":"levelo://app?vid=e6b2df58-b4a0-4aec-933d-a62e42f34d34","ios":"levelo://app?vid=e6b2df58-b4a0-4aec-933d-a62e42f34d34"},"vehicle_type_id":"4","last_reported":1728076102,"current_range_meters":17600,"station_id":"ce4bhr92rcd13ifvqhsg","pricing_plan_id":"cebpf4jnsgd1na2vs0mg"},{"bike_id":"445b3126-2656-47b3-82b8-be21a8d0e2fa","system_id":"levelo_inurba_marseille","lat":43.29799,"lon":5.40412,"is_reserved":false,"is_disabled":false,"rental_uris":{"android":"levelo://app?vid=445b3126-2656-47b3-82b8-be21a8d0e2fa","ios":"levelo://app?vid=445b3126-2656-47b3-82b8-be21a8d0e2fa"},"vehicle_type_id":"4","last_reported":1728076102,"current_range_meters":38800,"station_id":"ce4bh112rcd13ifvqd90","pricing_plan_id":"cebpf4jnsgd1na2vs0mg"},{"bike_id":"392eb514-a460-4091-a385-d24b73990f33","system_id":"levelo_inurba_marseille","lat":43.30298,"lon":5.39217,"is_reserved":false,"is_disabled":false,"rental_uris":{"android":"levelo://app?vid=392eb514-a460-4091-a385-d24b73990f33","ios":"levelo://app?vid=392eb514-a460-4091-a385-d24b73990f33"},"vehicle_type_id":"4","last_reported":1728076102,"current_range_meters":28800,"station_id":"ce4bgkh2rcd13ifvqbk0","pricing_plan_id":"cebpf4jnsgd1na2vs0mg"},{"bike_id":"d77938b7-ff1e-465c-a8b9-4b07085a5cc9","system_id":"levelo_inurba_marseille","lat":43.2307,"lon":5.35496,"is_reserved":false,"is_disabled":false,"rental_uris":{"android":"levelo://app?vid=d77938b7-ff1e-465c-a8b9-4b07085a5cc9","ios":"levelo://app?vid=d77938b7-ff1e-465c-a8b9-4b07085a5cc9"},"vehicle_type_id":"4","last_reported":1728076102,"current_range_meters":17200,"station_id":"cpo3342slgdg3j2ifvpg","pricing_plan_id":"cebpf4jnsgd1na2vs0mg"},{"bike_id":"852457a1-813f-46b8-bb13-232384e208e9","system_id":"levelo_inurba_marseille","lat":43.337622,"lon":5.374406,"is_reserved":false,"is_disabled":false,"rental_uris":{"android":"levelo://app?vid=852457a1-813f-46b8-bb13-232384e208e9","ios":"levelo://app?vid=852457a1-813f-46b8-bb13-232384e208e9"},"vehicle_type_id":"4","last_reported":1728076102,"current_range_meters":36800,"station_id":"","pricing_plan_id":"cebpf4jnsgd1na2vs0mg"},{"bike_id":"ba58bb03-90ab-4537-a6ac-96433ebb45c5","system_id":"levelo_inurba_marseille","lat":43.288635,"lon":5.382289,"is_reserved":false,"is_disabled":false,"rental_uris":{"android":"levelo://app?vid=ba58bb03-90ab-4537-a6ac-96433ebb45c5","ios":"levelo://app?vid=ba58bb03-90ab-4537-a6ac-96433ebb45c5"},"vehicle_type_id":"4","last_reported":1728076102,"current_range_meters":20400,"station_id":"ce4bh4p2rcd13ifvqe1g","pricing_plan_id":"cebpf4jnsgd1na2vs0mg"},{"bike_id":"d039477b-084e-4144-ad4a-3dc6b03871ba","system_id":"levelo_inurba_marseille","lat":43.31371,"lon":5.38499,"is_reserved":false,"is_disabled":false,"rental_uris":{"android":"levelo://app?vid=d039477b-084e-4144-ad4a-3dc6b03871ba","ios":"levelo://app?vid=d039477b-084e-4144-ad4a-3dc6b03871ba"},"vehicle_type_id":"4","last_reported":1728076102,"current_range_meters":26800,"station_id":"ce4bgt92rcd13ifvqcf0","pricing_plan_id":"cebpf4jnsgd1na2vs0mg"},{"bike_id":"566a9cf0-f209-4c9f-9e1e-a43a024de395","system_id":"levelo_inurba_marseille","lat":43.27379,"lon":5.36253,"is_reserved":false,"is_disabled":false,"rental_uris":{"android":"levelo://app?vid=566a9cf0-f209-4c9f-9e1e-a43a024de395","ios":"levelo://app?vid=566a9cf0-f209-4c9f-9e1e-a43a024de395"},"vehicle_type_id":"4","last_reported":1728076102,"current_range_meters":24400,"station_id":"ce4bhbh2rcd13ifvqeo0","pricing_plan_id":"cebpf4jnsgd1na2vs0mg"},{"bike_id":"54d09a39-e79d-434c-8a05-a8f2660c6a94","system_id":"levelo_inurba_marseille","lat":43.299,"lon":5.43668,"is_reserved":false,"is_disabled":false,"rental_uris":{"android":"levelo://app?vid=54d09a39-e79d-434c-8a05-a8f2660c6a94","ios":"levelo://app?vid=54d09a39-e79d-434c-8a05-a8f2660c6a94"},"vehicle_type_id":"4","last_reported":1728076102,"current_range_meters":14400,"station_id":"ce4bhpp2rcd13ifvqhfg","pricing_plan_id":"cebpf4jnsgd1na2vs0mg"},{"bike_id":"54d5de15-25b5-4c11-b9ad-e619b7bbb551","system_id":"levelo_inurba_marseille","lat":43.29306,"lon":5.37453,"is_reserved":false,"is_disabled":false,"rental_uris":{"android":"levelo://app?vid=54d5de15-25b5-4c11-b9ad-e619b7bbb551","ios":"levelo://app?vid=54d5de15-25b5-4c11-b9ad-e619b7bbb551"},"vehicle_type_id":"4","last_reported":1728076102,"current_range_meters":28800,"station_id":"ce4bgi12rcd13ifvqb70","pricing_plan_id":"cebpf4jnsgd1na2vs0mg"},{"bike_id":"6acf263d-6277-47a9-a98b-35b7f7dea564","system_id":"levelo_inurba_marseille","lat":43.32651,"lon":5.40998,"is_reserved":false,"is_disabled":false,"rental_uris":{"android":"levelo://app?vid=6acf263d-6277-47a9-a98b-35b7f7dea564","ios":"levelo://app?vid=6acf263d-6277-47a9-a98b-35b7f7dea564"},"vehicle_type_id":"4","last_reported":1728076102,"current_range_meters":13600,"station_id":"ce4bhpp2rcd13ifvqhgg","pricing_plan_id":"cebpf4jnsgd1na2vs0mg"},{"bike_id":"1b5570bc-0cd8-4e9b-8227-4974e5a1d5c5","system_id":"levelo_inurba_marseille","lat":43.25715,"lon":5.41101,"is_reserved":false,"is_disabled":false,"rental_uris":{"android":"levelo://app?vid=1b5570bc-0cd8-4e9b-8227-4974e5a1d5c5","ios":"levelo://app?vid=1b5570bc-0cd8-4e9b-8227-4974e5a1d5c5"},"vehicle_type_id":"4","last_reported":1728076102,"current_range_meters":36000,"station_id":"ce4bhkp2rcd13ifvqgd0","pricing_plan_id":"cebpf4jnsgd1na2vs0mg"},{"bike_id":"100326a3-91ba-4a23-bde7-ae389c763c24","system_id":"levelo_inurba_marseille","lat":43.28078,"lon":5.39642,"is_reserved":false,"is_disabled":false,"rental_uris":{"android":"levelo://app?vid=100326a3-91ba-4a23-bde7-ae389c763c24","ios":"levelo://app?vid=100326a3-91ba-4a23-bde7-ae389c763c24"},"vehicle_type_id":"4","last_reported":1728076102,"current_range_meters":19200,"station_id":"ce4bho12rcd13ifvqh2g","pricing_plan_id":"cebpf4jnsgd1na2vs0mg"},{"bike_id":"a2757abc-4224-428a-a673-690954ea5d2d","system_id":"levelo_inurba_marseille","lat":43.25006,"lon":5.38197,"is_reserved":false,"is_disabled":false,"rental_uris":{"android":"levelo://app?vid=a2757abc-4224-428a-a673-690954ea5d2d","ios":"levelo://app?vid=a2757abc-4224-428a-a673-690954ea5d2d"},"vehicle_type_id":"4","last_reported":1728076102,"current_range_meters":24800,"station_id":"","pricing_plan_id":"cebpf4jnsgd1na2vs0mg"},{"bike_id":"2d432a32-df4f-4be1-94da-97aa9c077267","system_id":"levelo_inurba_marseille","lat":43.28929,"lon":5.3963,"is_reserved":false,"is_disabled":false,"rental_uris":{"android":"levelo://app?vid=2d432a32-df4f-4be1-94da-97aa9c077267","ios":"levelo://app?vid=2d432a32-df4f-4be1-94da-97aa9c077267"},"vehicle_type_id":"4","last_reported":1728076102,"current_range_meters":19600,"station_id":"ce4bh3h2rcd13ifvqdn0","pricing_plan_id":"cebpf4jnsgd1na2vs0mg"},{"bike_id":"49462b5e-5147-4afc-8565-eb9ead5b9476","system_id":"levelo_inurba_marseille","lat":43.29646,"lon":5.37785,"is_reserved":false,"is_disabled":false,"rental_uris":{"android":"levelo://app?vid=49462b5e-5147-4afc-8565-eb9ead5b9476","ios":"levelo://app?vid=49462b5e-5147-4afc-8565-eb9ead5b9476"},"vehicle_type_id":"4","last_reported":1728076102,"current_range_meters":38800,"station_id":"","pricing_plan_id":"cebpf4jnsgd1na2vs0mg"},{"bike_id":"3ab35772-ab98-4e0e-bb77-b34f7802889b","system_id":"levelo_inurba_marseille","lat":43.25118,"lon":5.40319,"is_reserved":false,"is_disabled":false,"rental_uris":{"android":"levelo://app?vid=3ab35772-ab98-4e0e-bb77-b34f7802889b","ios":"levelo://app?vid=3ab35772-ab98-4e0e-bb77-b34f7802889b"},"vehicle_type_id":"4","last_reported":1728076102,"current_range_meters":27200,"station_id":"ce4bhlh2rcd13ifvqgig","pricing_plan_id":"cebpf4jnsgd1na2vs0mg"},{"bike_id":"a4721277-157e-42b9-87f0-290a3d401919","system_id":"levelo_inurba_marseille","lat":43.2594,"lon":5.40904,"is_reserved":false,"is_disabled":false,"rental_uris":{"android":"levelo://app?vid=a4721277-157e-42b9-87f0-290a3d401919","ios":"levelo://app?vid=a4721277-157e-42b9-87f0-290a3d401919"},"vehicle_type_id":"4","last_reported":1728076102,"current_range_meters":38800,"station_id":"ce4bhm92rcd13ifvqglg","pricing_plan_id":"cebpf4jnsgd1na2vs0mg"},{"bike_id":"cda9a186-5007-4af0-8430-c0b5fc5e4bde","system_id":"levelo_inurba_marseille","lat":43.29008,"lon":5.35611,"is_reserved":false,"is_disabled":false,"rental_uris":{"android":"levelo://app?vid=cda9a186-5007-4af0-8430-c0b5fc5e4bde","ios":"levelo://app?vid=cda9a186-5007-4af0-8430-c0b5fc5e4bde"},"vehicle_type_id":"4","last_reported":1728076102,"current_range_meters":14000,"station_id":"ce4bhb92rcd13ifvqen0","pricing_plan_id":"cebpf4jnsgd1na2vs0mg"},{"bike_id":"22d18cbd-26e2-4932-ba54-b92ff29566b0","system_id":"levelo_inurba_marseille","lat":43.29294,"lon":5.37452,"is_reserved":false,"is_disabled":false,"rental_uris":{"android":"levelo://app?vid=22d18cbd-26e2-4932-ba54-b92ff29566b0","ios":"levelo://app?vid=22d18cbd-26e2-4932-ba54-b92ff29566b0"},"vehicle_type_id":"4","last_reported":1728076102,"current_range_meters":11200,"station_id":"ce4bgi12rcd13ifvqb70","pricing_plan_id":"cebpf4jnsgd1na2vs0mg"},{"bike_id":"e9fc149b-7764-48a9-957a-fec59dd9dbdd","system_id":"levelo_inurba_marseille","lat":43.31237,"lon":5.36871,"is_reserved":false,"is_disabled":false,"rental_uris":{"android":"levelo://app?vid=e9fc149b-7764-48a9-957a-fec59dd9dbdd","ios":"levelo://app?vid=e9fc149b-7764-48a9-957a-fec59dd9dbdd"},"vehicle_type_id":"4","last_reported":1728076102,"current_range_meters":4800,"station_id":"ce4bgl92rcd13ifvqbq0","pricing_plan_id":"cebpf4jnsgd1na2vs0mg"},{"bike_id":"2b308a79-ebea-47bc-9d28-3ef9dfaf0c12","system_id":"levelo_inurba_marseille","lat":43.30904,"lon":5.36852,"is_reserved":false,"is_disabled":false,"rental_uris":{"android":"levelo://app?vid=2b308a79-ebea-47bc-9d28-3ef9dfaf0c12","ios":"levelo://app?vid=2b308a79-ebea-47bc-9d28-3ef9dfaf0c12"},"vehicle_type_id":"4","last_reported":1728076102,"current_range_meters":38400,"station_id":"ce4bgn92rcd13ifvqbvg","pricing_plan_id":"cebpf4jnsgd1na2vs0mg"},{"bike_id":"bf214ee5-bcc3-48ed-b2c5-a945b0468078","system_id":"levelo_inurba_marseille","lat":43.24651,"lon":5.38902,"is_reserved":false,"is_disabled":false,"rental_uris":{"android":"levelo://app?vid=bf214ee5-bcc3-48ed-b2c5-a945b0468078","ios":"levelo://app?vid=bf214ee5-bcc3-48ed-b2c5-a945b0468078"},"vehicle_type_id":"4","last_reported":1728076102,"current_range_meters":8400,"station_id":"ce4bhg12rcd13ifvqf60","pricing_plan_id":"cebpf4jnsgd1na2vs0mg"},{"bike_id":"2fc29456-73ce-4590-a0ad-fed5cac8bec3","system_id":"levelo_inurba_marseille","lat":43.29871,"lon":5.39727,"is_reserved":false,"is_disabled":false,"rental_uris":{"android":"levelo://app?vid=2fc29456-73ce-4590-a0ad-fed5cac8bec3","ios":"levelo://app?vid=2fc29456-73ce-4590-a0ad-fed5cac8bec3"},"vehicle_type_id":"4","last_reported":1728076102,"current_range_meters":23200,"station_id":"ce4bh0h2rcd13ifvqd50","pricing_plan_id":"cebpf4jnsgd1na2vs0mg"},{"bike_id":"6102bacc-0bb3-4c79-854a-2d4ec81b21c1","system_id":"levelo_inurba_marseille","lat":43.317181,"lon":5.424051,"is_reserved":false,"is_disabled":false,"rental_uris":{"android":"levelo://app?vid=6102bacc-0bb3-4c79-854a-2d4ec81b21c1","ios":"levelo://app?vid=6102bacc-0bb3-4c79-854a-2d4ec81b21c1"},"vehicle_type_id":"4","last_reported":1728076102,"current_range_meters":38800,"station_id":"ce4bhp92rcd13ifvqhbg","pricing_plan_id":"cebpf4jnsgd1na2vs0mg"},{"bike_id":"6f9ea692-b854-4466-8783-f86828c11080","system_id":"levelo_inurba_marseille","lat":43.32544,"lon":5.41453,"is_reserved":false,"is_disabled":false,"rental_uris":{"android":"levelo://app?vid=6f9ea692-b854-4466-8783-f86828c11080","ios":"levelo://app?vid=6f9ea692-b854-4466-8783-f86828c11080"},"vehicle_type_id":"4","last_reported":1728076102,"current_range_meters":38800,"station_id":"ce4bhq12rcd13ifvqhhg","pricing_plan_id":"cebpf4jnsgd1na2vs0mg"},{"bike_id":"e76dc3b1-b555-4d34-b606-b7a0364700bd","system_id":"levelo_inurba_marseille","lat":43.29553,"lon":5.42288,"is_reserved":false,"is_disabled":false,"rental_uris":{"android":"levelo://app?vid=e76dc3b1-b555-4d34-b606-b7a0364700bd","ios":"levelo://app?vid=e76dc3b1-b555-4d34-b606-b7a0364700bd"},"vehicle_type_id":"4","last_reported":1728076102,"current_range_meters":35200,"station_id":"ce4bhph2rcd13ifvqhdg","pricing_plan_id":"cebpf4jnsgd1na2vs0mg"},{"bike_id":"0bc4da86-c871-4c42-9afa-cbea77a620ca","system_id":"levelo_inurba_marseille","lat":43.28046,"lon":5.36949,"is_reserved":false,"is_disabled":false,"rental_uris":{"android":"levelo://app?vid=0bc4da86-c871-4c42-9afa-cbea77a620ca","ios":"levelo://app?vid=0bc4da86-c871-4c42-9afa-cbea77a620ca"},"vehicle_type_id":"4","last_reported":1728076102,"current_range_meters":38800,"station_id":"ce4bha12rcd13ifvqef0","pricing_plan_id":"cebpf4jnsgd1na2vs0mg"},{"bike_id":"e08c062f-61a2-493a-875d-6e296e2965d6","system_id":"levelo_inurba_marseille","lat":43.33755,"lon":5.37446,"is_reserved":false,"is_disabled":false,"rental_uris":{"android":"levelo://app?vid=e08c062f-61a2-493a-875d-6e296e2965d6","ios":"levelo://app?vid=e08c062f-61a2-493a-875d-6e296e2965d6"},"vehicle_type_id":"4","last_reported":1728076102,"current_range_meters":32400,"station_id":"","pricing_plan_id":"cebpf4jnsgd1na2vs0mg"},{"bike_id":"767b5572-7a96-45fd-9ea6-1b05056115f2","system_id":"levelo_inurba_marseille","lat":43.33023,"lon":5.39037,"is_reserved":false,"is_disabled":false,"rental_uris":{"android":"levelo://app?vid=767b5572-7a96-45fd-9ea6-1b05056115f2","ios":"levelo://app?vid=767b5572-7a96-45fd-9ea6-1b05056115f2"},"vehicle_type_id":"4","last_reported":1728076102,"current_range_meters":35600,"station_id":"ce4bhr92rcd13ifvqhrg","pricing_plan_id":"cebpf4jnsgd1na2vs0mg"},{"bike_id":"b871d3e1-c5d5-4d1f-8267-43a325f41cf2","system_id":"levelo_inurba_marseille","lat":43.25086,"lon":5.39513,"is_reserved":false,"is_disabled":false,"rental_uris":{"android":"levelo://app?vid=b871d3e1-c5d5-4d1f-8267-43a325f41cf2","ios":"levelo://app?vid=b871d3e1-c5d5-4d1f-8267-43a325f41cf2"},"vehicle_type_id":"4","last_reported":1728076102,"current_range_meters":38800,"station_id":"ce4bhm12rcd13ifvqgkg","pricing_plan_id":"cebpf4jnsgd1na2vs0mg"},{"bike_id":"74f1008a-2df1-4e28-a788-b63e1b328743","system_id":"levelo_inurba_marseille","lat":43.2958,"lon":5.36749,"is_reserved":false,"is_disabled":false,"rental_uris":{"android":"levelo://app?vid=74f1008a-2df1-4e28-a788-b63e1b328743","ios":"levelo://app?vid=74f1008a-2df1-4e28-a788-b63e1b328743"},"vehicle_type_id":"4","last_reported":1728076102,"current_range_meters":36400,"station_id":"ce4bgph2rcd13ifvqc2g","pricing_plan_id":"cebpf4jnsgd1na2vs0mg"},{"bike_id":"bc1b148a-ae96-4b81-9ce7-320279fa0c05","system_id":"levelo_inurba_marseille","lat":43.29526,"lon":5.39049,"is_reserved":false,"is_disabled":false,"rental_uris":{"android":"levelo://app?vid=bc1b148a-ae96-4b81-9ce7-320279fa0c05","ios":"levelo://app?vid=bc1b148a-ae96-4b81-9ce7-320279fa0c05"},"vehicle_type_id":"4","last_reported":1728076102,"current_range_meters":2800,"station_id":"ce4bh3p2rcd13ifvqdp0","pricing_plan_id":"cebpf4jnsgd1na2vs0mg"},{"bike_id":"ba1b760c-54ef-42e8-b328-f8b6995afafd","system_id":"levelo_inurba_marseille","lat":43.3081,"lon":5.38149,"is_reserved":false,"is_disabled":false,"rental_uris":{"android":"levelo://app?vid=ba1b760c-54ef-42e8-b328-f8b6995afafd","ios":"levelo://app?vid=ba1b760c-54ef-42e8-b328-f8b6995afafd"},"vehicle_type_id":"4","last_reported":1728076102,"current_range_meters":14400,"station_id":"ce4bgt12rcd13ifvqce0","pricing_plan_id":"cebpf4jnsgd1na2vs0mg"},{"bike_id":"fcfb42de-cde1-4ec3-8e89-f197fdfcc1a8","system_id":"levelo_inurba_marseille","lat":43.2397,"lon":5.36646,"is_reserved":false,"is_disabled":false,"rental_uris":{"android":"levelo://app?vid=fcfb42de-cde1-4ec3-8e89-f197fdfcc1a8","ios":"levelo://app?vid=fcfb42de-cde1-4ec3-8e89-f197fdfcc1a8"},"vehicle_type_id":"4","last_reported":1728076102,"current_range_meters":25600,"station_id":"ce4bhi12rcd13ifvqfp0","pricing_plan_id":"cebpf4jnsgd1na2vs0mg"},{"bike_id":"633d2344-d99e-4174-b6fb-920c3267e701","system_id":"levelo_inurba_marseille","lat":43.33724,"lon":5.39184,"is_reserved":false,"is_disabled":false,"rental_uris":{"android":"levelo://app?vid=633d2344-d99e-4174-b6fb-920c3267e701","ios":"levelo://app?vid=633d2344-d99e-4174-b6fb-920c3267e701"},"vehicle_type_id":"4","last_reported":1728076102,"current_range_meters":27600,"station_id":"ce4bhr92rcd13ifvqhsg","pricing_plan_id":"cebpf4jnsgd1na2vs0mg"},{"bike_id":"1430cd6d-6908-47a1-b334-5c4a178bcdf7","system_id":"levelo_inurba_marseille","lat":43.25115,"lon":5.40319,"is_reserved":false,"is_disabled":false,"rental_uris":{"android":"levelo://app?vid=1430cd6d-6908-47a1-b334-5c4a178bcdf7","ios":"levelo://app?vid=1430cd6d-6908-47a1-b334-5c4a178bcdf7"},"vehicle_type_id":"4","last_reported":1728076102,"current_range_meters":32000,"station_id":"ce4bhlh2rcd13ifvqgig","pricing_plan_id":"cebpf4jnsgd1na2vs0mg"},{"bike_id":"88d763e9-254b-4f45-a733-903d4efd49e1","system_id":"levelo_inurba_marseille","lat":43.31071,"lon":5.38356,"is_reserved":false,"is_disabled":false,"rental_uris":{"android":"levelo://app?vid=88d763e9-254b-4f45-a733-903d4efd49e1","ios":"levelo://app?vid=88d763e9-254b-4f45-a733-903d4efd49e1"},"vehicle_type_id":"4","last_reported":1728076102,"current_range_meters":37600,"station_id":"ce4bgv92rcd13ifvqcr0","pricing_plan_id":"cebpf4jnsgd1na2vs0mg"},{"bike_id":"fd872ba7-9877-4e67-9269-d8995abba644","system_id":"levelo_inurba_marseille","lat":43.22941,"lon":5.35377,"is_reserved":false,"is_disabled":false,"rental_uris":{"android":"levelo://app?vid=fd872ba7-9877-4e67-9269-d8995abba644","ios":"levelo://app?vid=fd872ba7-9877-4e67-9269-d8995abba644"},"vehicle_type_id":"4","last_reported":1728076102,"current_range_meters":18000,"station_id":"cpo3532slgdg3j2ikp40","pricing_plan_id":"cebpf4jnsgd1na2vs0mg"},{"bike_id":"fe069c0c-ab7e-4066-b369-24f70f595c37","system_id":"levelo_inurba_marseille","lat":43.32482,"lon":5.36563,"is_reserved":false,"is_disabled":false,"rental_uris":{"android":"levelo://app?vid=fe069c0c-ab7e-4066-b369-24f70f595c37","ios":"levelo://app?vid=fe069c0c-ab7e-4066-b369-24f70f595c37"},"vehicle_type_id":"4","last_reported":1728076102,"current_range_meters":19600,"station_id":"ce4bhs12rcd13ifvqhvg","pricing_plan_id":"cebpf4jnsgd1na2vs0mg"},{"bike_id":"c3f8c2ad-abd8-4a05-8289-36ad2ed31939","system_id":"levelo_inurba_marseille","lat":43.295288,"lon":5.394065,"is_reserved":false,"is_disabled":false,"rental_uris":{"android":"levelo://app?vid=c3f8c2ad-abd8-4a05-8289-36ad2ed31939","ios":"levelo://app?vid=c3f8c2ad-abd8-4a05-8289-36ad2ed31939"},"vehicle_type_id":"4","last_reported":1728076102,"current_range_meters":28400,"station_id":"ce4bh292rcd13ifvqdf0","pricing_plan_id":"cebpf4jnsgd1na2vs0mg"},{"bike_id":"2e175973-ae28-4dde-8166-673dec534973","system_id":"levelo_inurba_marseille","lat":43.28438,"lon":5.392,"is_reserved":false,"is_disabled":false,"rental_uris":{"android":"levelo://app?vid=2e175973-ae28-4dde-8166-673dec534973","ios":"levelo://app?vid=2e175973-ae28-4dde-8166-673dec534973"},"vehicle_type_id":"4","last_reported":1728076102,"current_range_meters":3200,"station_id":"ce4bhoh2rcd13ifvqh5g","pricing_plan_id":"cebpf4jnsgd1na2vs0mg"},{"bike_id":"02287b3e-a2e5-4db9-badc-4f46622493bb","system_id":"levelo_inurba_marseille","lat":43.27073,"lon":5.4228,"is_reserved":false,"is_disabled":false,"rental_uris":{"android":"levelo://app?vid=02287b3e-a2e5-4db9-badc-4f46622493bb","ios":"levelo://app?vid=02287b3e-a2e5-4db9-badc-4f46622493bb"},"vehicle_type_id":"4","last_reported":1728076102,"current_range_meters":38800,"station_id":"ce4bhk92rcd13ifvqgb0","pricing_plan_id":"cebpf4jnsgd1na2vs0mg"},{"bike_id":"2dfa250e-fa81-43be-b763-8f49843284b7","system_id":"levelo_inurba_marseille","lat":43.23196,"lon":5.39981,"is_reserved":false,"is_disabled":false,"rental_uris":{"android":"levelo://app?vid=2dfa250e-fa81-43be-b763-8f49843284b7","ios":"levelo://app?vid=2dfa250e-fa81-43be-b763-8f49843284b7"},"vehicle_type_id":"4","last_reported":1728076102,"current_range_meters":4400,"station_id":"ce4bhn12rcd13ifvqgqg","pricing_plan_id":"cebpf4jnsgd1na2vs0mg"},{"bike_id":"3879a0e9-5083-48f5-ab30-6db0abb01470","system_id":"levelo_inurba_marseille","lat":43.29881,"lon":5.38902,"is_reserved":false,"is_disabled":false,"rental_uris":{"android":"levelo://app?vid=3879a0e9-5083-48f5-ab30-6db0abb01470","ios":"levelo://app?vid=3879a0e9-5083-48f5-ab30-6db0abb01470"},"vehicle_type_id":"4","last_reported":1728076102,"current_range_meters":36000,"station_id":"ce4bh392rcd13ifvqdl0","pricing_plan_id":"cebpf4jnsgd1na2vs0mg"},{"bike_id":"796f7bf9-e0c7-4ea3-b96f-9594e19b892e","system_id":"levelo_inurba_marseille","lat":43.24648,"lon":5.38893,"is_reserved":false,"is_disabled":false,"rental_uris":{"android":"levelo://app?vid=796f7bf9-e0c7-4ea3-b96f-9594e19b892e","ios":"levelo://app?vid=796f7bf9-e0c7-4ea3-b96f-9594e19b892e"},"vehicle_type_id":"4","last_reported":1728076102,"current_range_meters":37600,"station_id":"ce4bhg12rcd13ifvqf60","pricing_plan_id":"cebpf4jnsgd1na2vs0mg"},{"bike_id":"82fb1d9b-f78d-4572-93cd-c097376a885d","system_id":"levelo_inurba_marseille","lat":43.23156,"lon":5.43707,"is_reserved":false,"is_disabled":false,"rental_uris":{"android":"levelo://app?vid=82fb1d9b-f78d-4572-93cd-c097376a885d","ios":"levelo://app?vid=82fb1d9b-f78d-4572-93cd-c097376a885d"},"vehicle_type_id":"4","last_reported":1728076102,"current_range_meters":6400,"station_id":"ce4bhmp2rcd13ifvqgog","pricing_plan_id":"cebpf4jnsgd1na2vs0mg"},{"bike_id":"e04e5431-207d-4263-8b72-762e4c4878e5","system_id":"levelo_inurba_marseille","lat":43.23059,"lon":5.35492,"is_reserved":false,"is_disabled":false,"rental_uris":{"android":"levelo://app?vid=e04e5431-207d-4263-8b72-762e4c4878e5","ios":"levelo://app?vid=e04e5431-207d-4263-8b72-762e4c4878e5"},"vehicle_type_id":"4","last_reported":1728076102,"current_range_meters":20000,"station_id":"cpo3342slgdg3j2ifvpg","pricing_plan_id":"cebpf4jnsgd1na2vs0mg"},{"bike_id":"1a5410ba-9fbb-4266-a0fe-2364c4d5e366","system_id":"levelo_inurba_marseille","lat":43.31349,"lon":5.36717,"is_reserved":false,"is_disabled":false,"rental_uris":{"android":"levelo://app?vid=1a5410ba-9fbb-4266-a0fe-2364c4d5e366","ios":"levelo://app?vid=1a5410ba-9fbb-4266-a0fe-2364c4d5e366"},"vehicle_type_id":"4","last_reported":1728076102,"current_range_meters":19600,"station_id":"ce4bgr92rcd13ifvqc6g","pricing_plan_id":"cebpf4jnsgd1na2vs0mg"},{"bike_id":"50e6aeb8-7e25-4c09-9781-24c9f5d23dff","system_id":"levelo_inurba_marseille","lat":43.3376,"lon":5.37448,"is_reserved":false,"is_disabled":false,"rental_uris":{"android":"levelo://app?vid=50e6aeb8-7e25-4c09-9781-24c9f5d23dff","ios":"levelo://app?vid=50e6aeb8-7e25-4c09-9781-24c9f5d23dff"},"vehicle_type_id":"4","last_reported":1728076102,"current_range_meters":30400,"station_id":"","pricing_plan_id":"cebpf4jnsgd1na2vs0mg"},{"bike_id":"db6d3114-5e27-4869-bbbf-86348f43961f","system_id":"levelo_inurba_marseille","lat":43.29557,"lon":5.42274,"is_reserved":false,"is_disabled":false,"rental_uris":{"android":"levelo://app?vid=db6d3114-5e27-4869-bbbf-86348f43961f","ios":"levelo://app?vid=db6d3114-5e27-4869-bbbf-86348f43961f"},"vehicle_type_id":"4","last_reported":1728076102,"current_range_meters":6800,"station_id":"ce4bhph2rcd13ifvqhdg","pricing_plan_id":"cebpf4jnsgd1na2vs0mg"},{"bike_id":"094b268c-4cc2-43fc-862b-773d8ae92352","system_id":"levelo_inurba_marseille","lat":43.3111,"lon":5.37787,"is_reserved":false,"is_disabled":false,"rental_uris":{"android":"levelo://app?vid=094b268c-4cc2-43fc-862b-773d8ae92352","ios":"levelo://app?vid=094b268c-4cc2-43fc-862b-773d8ae92352"},"vehicle_type_id":"4","last_reported":1728076102,"current_range_meters":38800,"station_id":"ce4bgt92rcd13ifvqcg0","pricing_plan_id":"cebpf4jnsgd1na2vs0mg"},{"bike_id":"044c5ab3-08f5-42f9-b29c-4976069b2351","system_id":"levelo_inurba_marseille","lat":43.303,"lon":5.39213,"is_reserved":false,"is_disabled":false,"rental_uris":{"android":"levelo://app?vid=044c5ab3-08f5-42f9-b29c-4976069b2351","ios":"levelo://app?vid=044c5ab3-08f5-42f9-b29c-4976069b2351"},"vehicle_type_id":"4","last_reported":1728076102,"current_range_meters":38800,"station_id":"ce4bgkh2rcd13ifvqbk0","pricing_plan_id":"cebpf4jnsgd1na2vs0mg"},{"bike_id":"6ec1ba7a-89a4-4032-b8b8-3d55f16ef137","system_id":"levelo_inurba_marseille","lat":43.28077,"lon":5.39663,"is_reserved":false,"is_disabled":false,"rental_uris":{"android":"levelo://app?vid=6ec1ba7a-89a4-4032-b8b8-3d55f16ef137","ios":"levelo://app?vid=6ec1ba7a-89a4-4032-b8b8-3d55f16ef137"},"vehicle_type_id":"4","last_reported":1728076102,"current_range_meters":24400,"station_id":"ce4bho12rcd13ifvqh2g","pricing_plan_id":"cebpf4jnsgd1na2vs0mg"},{"bike_id":"be855d3f-aa37-4c69-9485-bcd30590fee9","system_id":"levelo_inurba_marseille","lat":43.31069,"lon":5.38355,"is_reserved":false,"is_disabled":false,"rental_uris":{"android":"levelo://app?vid=be855d3f-aa37-4c69-9485-bcd30590fee9","ios":"levelo://app?vid=be855d3f-aa37-4c69-9485-bcd30590fee9"},"vehicle_type_id":"4","last_reported":1728076102,"current_range_meters":38800,"station_id":"ce4bgv92rcd13ifvqcr0","pricing_plan_id":"cebpf4jnsgd1na2vs0mg"},{"bike_id":"9adfcb1c-21dd-4df6-bbc4-e21a153c59fb","system_id":"levelo_inurba_marseille","lat":43.30423,"lon":5.397438,"is_reserved":false,"is_disabled":false,"rental_uris":{"android":"levelo://app?vid=9adfcb1c-21dd-4df6-bbc4-e21a153c59fb","ios":"levelo://app?vid=9adfcb1c-21dd-4df6-bbc4-e21a153c59fb"},"vehicle_type_id":"4","last_reported":1728076102,"current_range_meters":30000,"station_id":"ce4bh092rcd13ifvqd20","pricing_plan_id":"cebpf4jnsgd1na2vs0mg"},{"bike_id":"dd8af227-7efe-455f-9239-378f0f66b55c","system_id":"levelo_inurba_marseille","lat":43.2953,"lon":5.38539,"is_reserved":false,"is_disabled":false,"rental_uris":{"android":"levelo://app?vid=dd8af227-7efe-455f-9239-378f0f66b55c","ios":"levelo://app?vid=dd8af227-7efe-455f-9239-378f0f66b55c"},"vehicle_type_id":"4","last_reported":1728076102,"current_range_meters":5600,"station_id":"ce4bgih2rcd13ifvqba0","pricing_plan_id":"cebpf4jnsgd1na2vs0mg"},{"bike_id":"84fde295-4bb3-4d89-b079-ccf1de65ac3e","system_id":"levelo_inurba_marseille","lat":43.30251,"lon":5.3903,"is_reserved":false,"is_disabled":false,"rental_uris":{"android":"levelo://app?vid=84fde295-4bb3-4d89-b079-ccf1de65ac3e","ios":"levelo://app?vid=84fde295-4bb3-4d89-b079-ccf1de65ac3e"},"vehicle_type_id":"4","last_reported":1728076102,"current_range_meters":3600,"station_id":"ce4bgkh2rcd13ifvqbk0","pricing_plan_id":"cebpf4jnsgd1na2vs0mg"},{"bike_id":"926dee15-a04b-438f-b84d-18676849432b","system_id":"levelo_inurba_marseille","lat":43.30467,"lon":5.37909,"is_reserved":false,"is_disabled":false,"rental_uris":{"android":"levelo://app?vid=926dee15-a04b-438f-b84d-18676849432b","ios":"levelo://app?vid=926dee15-a04b-438f-b84d-18676849432b"},"vehicle_type_id":"4","last_reported":1728076102,"current_range_meters":39200,"station_id":"ce4bgup2rcd13ifvqcn0","pricing_plan_id":"cebpf4jnsgd1na2vs0mg"},{"bike_id":"d4de802b-7b1f-4c87-bfd7-e6e463405806","system_id":"levelo_inurba_marseille","lat":43.31271,"lon":5.40168,"is_reserved":false,"is_disabled":false,"rental_uris":{"android":"levelo://app?vid=d4de802b-7b1f-4c87-bfd7-e6e463405806","ios":"levelo://app?vid=d4de802b-7b1f-4c87-bfd7-e6e463405806"},"vehicle_type_id":"4","last_reported":1728076102,"current_range_meters":32800,"station_id":"ce4bh092rcd13ifvqd30","pricing_plan_id":"cebpf4jnsgd1na2vs0mg"},{"bike_id":"ef92c01f-dc36-48a5-9340-3ee0c2836923","system_id":"levelo_inurba_marseille","lat":43.30454,"lon":5.37909,"is_reserved":false,"is_disabled":false,"rental_uris":{"android":"levelo://app?vid=ef92c01f-dc36-48a5-9340-3ee0c2836923","ios":"levelo://app?vid=ef92c01f-dc36-48a5-9340-3ee0c2836923"},"vehicle_type_id":"4","last_reported":1728076102,"current_range_meters":29600,"station_id":"ce4bgup2rcd13ifvqcn0","pricing_plan_id":"cebpf4jnsgd1na2vs0mg"},{"bike_id":"f54f4499-302b-4ab3-9465-cdf60f08d6c0","system_id":"levelo_inurba_marseille","lat":43.25086,"lon":5.39525,"is_reserved":false,"is_disabled":false,"rental_uris":{"android":"levelo://app?vid=f54f4499-302b-4ab3-9465-cdf60f08d6c0","ios":"levelo://app?vid=f54f4499-302b-4ab3-9465-cdf60f08d6c0"},"vehicle_type_id":"4","last_reported":1728076102,"current_range_meters":27200,"station_id":"ce4bhm12rcd13ifvqgkg","pricing_plan_id":"cebpf4jnsgd1na2vs0mg"},{"bike_id":"affb755d-eb5a-4b25-8ab4-7b680f7da61e","system_id":"levelo_inurba_marseille","lat":43.30249,"lon":5.40064,"is_reserved":false,"is_disabled":false,"rental_uris":{"android":"levelo://app?vid=affb755d-eb5a-4b25-8ab4-7b680f7da61e","ios":"levelo://app?vid=affb755d-eb5a-4b25-8ab4-7b680f7da61e"},"vehicle_type_id":"4","last_reported":1728076102,"current_range_meters":39200,"station_id":"ce4bgvh2rcd13ifvqcs0","pricing_plan_id":"cebpf4jnsgd1na2vs0mg"},{"bike_id":"206bf6bf-09ad-4763-85da-6f36c3ad29a0","system_id":"levelo_inurba_marseille","lat":43.27994,"lon":5.41664,"is_reserved":false,"is_disabled":false,"rental_uris":{"android":"levelo://app?vid=206bf6bf-09ad-4763-85da-6f36c3ad29a0","ios":"levelo://app?vid=206bf6bf-09ad-4763-85da-6f36c3ad29a0"},"vehicle_type_id":"4","last_reported":1728076102,"current_range_meters":25200,"station_id":"ce4bho12rcd13ifvqh1g","pricing_plan_id":"cebpf4jnsgd1na2vs0mg"},{"bike_id":"386196d0-03db-4794-9410-3040816e6b3a","system_id":"levelo_inurba_marseille","lat":43.293,"lon":5.3745,"is_reserved":false,"is_disabled":false,"rental_uris":{"android":"levelo://app?vid=386196d0-03db-4794-9410-3040816e6b3a","ios":"levelo://app?vid=386196d0-03db-4794-9410-3040816e6b3a"},"vehicle_type_id":"4","last_reported":1728076102,"current_range_meters":35200,"station_id":"ce4bgi12rcd13ifvqb70","pricing_plan_id":"cebpf4jnsgd1na2vs0mg"},{"bike_id":"bb5f5452-4b9b-417d-b148-b396a874f3d9","system_id":"levelo_inurba_marseille","lat":43.33763,"lon":5.37426,"is_reserved":false,"is_disabled":false,"rental_uris":{"android":"levelo://app?vid=bb5f5452-4b9b-417d-b148-b396a874f3d9","ios":"levelo://app?vid=bb5f5452-4b9b-417d-b148-b396a874f3d9"},"vehicle_type_id":"4","last_reported":1728076102,"current_range_meters":35600,"station_id":"","pricing_plan_id":"cebpf4jnsgd1na2vs0mg"},{"bike_id":"a9cca9d5-e40e-483d-9a44-24c121cbe605","system_id":"levelo_inurba_marseille","lat":43.30209,"lon":5.39475,"is_reserved":false,"is_disabled":false,"rental_uris":{"android":"levelo://app?vid=a9cca9d5-e40e-483d-9a44-24c121cbe605","ios":"levelo://app?vid=a9cca9d5-e40e-483d-9a44-24c121cbe605"},"vehicle_type_id":"4","last_reported":1728076102,"current_range_meters":4800,"station_id":"ce4bh0p2rcd13ifvqd70","pricing_plan_id":"cebpf4jnsgd1na2vs0mg"},{"bike_id":"d7a0298f-5c2b-438d-ab05-5d6a7ac83160","system_id":"levelo_inurba_marseille","lat":43.30795,"lon":5.4353,"is_reserved":false,"is_disabled":false,"rental_uris":{"android":"levelo://app?vid=d7a0298f-5c2b-438d-ab05-5d6a7ac83160","ios":"levelo://app?vid=d7a0298f-5c2b-438d-ab05-5d6a7ac83160"},"vehicle_type_id":"4","last_reported":1728076102,"current_range_meters":38800,"station_id":"ce4bhph2rcd13ifvqheg","pricing_plan_id":"cebpf4jnsgd1na2vs0mg"},{"bike_id":"d23bb20b-8975-4b1a-a2c8-0cc8bead6b68","system_id":"levelo_inurba_marseille","lat":43.23195,"lon":5.39979,"is_reserved":false,"is_disabled":false,"rental_uris":{"android":"levelo://app?vid=d23bb20b-8975-4b1a-a2c8-0cc8bead6b68","ios":"levelo://app?vid=d23bb20b-8975-4b1a-a2c8-0cc8bead6b68"},"vehicle_type_id":"4","last_reported":1728076102,"current_range_meters":2000,"station_id":"ce4bhn12rcd13ifvqgqg","pricing_plan_id":"cebpf4jnsgd1na2vs0mg"},{"bike_id":"bef112e6-30fe-4308-b6e7-4d5cc9514c56","system_id":"levelo_inurba_marseille","lat":43.31894,"lon":5.40734,"is_reserved":false,"is_disabled":false,"rental_uris":{"android":"levelo://app?vid=bef112e6-30fe-4308-b6e7-4d5cc9514c56","ios":"levelo://app?vid=bef112e6-30fe-4308-b6e7-4d5cc9514c56"},"vehicle_type_id":"4","last_reported":1728076102,"current_range_meters":37600,"station_id":"ce4bhq12rcd13ifvqhig","pricing_plan_id":"cebpf4jnsgd1na2vs0mg"},{"bike_id":"43fc5487-6973-4fc7-a12f-6a97ffe8a3ce","system_id":"levelo_inurba_marseille","lat":43.2511,"lon":5.40328,"is_reserved":false,"is_disabled":false,"rental_uris":{"android":"levelo://app?vid=43fc5487-6973-4fc7-a12f-6a97ffe8a3ce","ios":"levelo://app?vid=43fc5487-6973-4fc7-a12f-6a97ffe8a3ce"},"vehicle_type_id":"4","last_reported":1728076102,"current_range_meters":38800,"station_id":"ce4bhlh2rcd13ifvqgig","pricing_plan_id":"cebpf4jnsgd1na2vs0mg"},{"bike_id":"04c2aa47-0bdb-4e21-87de-39f77f4f4003","system_id":"levelo_inurba_marseille","lat":43.292994,"lon":5.374612,"is_reserved":false,"is_disabled":false,"rental_uris":{"android":"levelo://app?vid=04c2aa47-0bdb-4e21-87de-39f77f4f4003","ios":"levelo://app?vid=04c2aa47-0bdb-4e21-87de-39f77f4f4003"},"vehicle_type_id":"4","last_reported":1728076102,"current_range_meters":28000,"station_id":"ce4bgi12rcd13ifvqb70","pricing_plan_id":"cebpf4jnsgd1na2vs0mg"},{"bike_id":"219df1b6-9d69-46f8-bdd5-caa50ce674cf","system_id":"levelo_inurba_marseille","lat":43.255493,"lon":5.37674,"is_reserved":false,"is_disabled":false,"rental_uris":{"android":"levelo://app?vid=219df1b6-9d69-46f8-bdd5-caa50ce674cf","ios":"levelo://app?vid=219df1b6-9d69-46f8-bdd5-caa50ce674cf"},"vehicle_type_id":"4","last_reported":1728076102,"current_range_meters":19600,"station_id":"","pricing_plan_id":"cebpf4jnsgd1na2vs0mg"},{"bike_id":"1c9b73b3-c2f0-428a-b15e-d17e1005fb23","system_id":"levelo_inurba_marseille","lat":43.30469,"lon":5.37912,"is_reserved":false,"is_disabled":false,"rental_uris":{"android":"levelo://app?vid=1c9b73b3-c2f0-428a-b15e-d17e1005fb23","ios":"levelo://app?vid=1c9b73b3-c2f0-428a-b15e-d17e1005fb23"},"vehicle_type_id":"4","last_reported":1728076102,"current_range_meters":23200,"station_id":"ce4bgup2rcd13ifvqcn0","pricing_plan_id":"cebpf4jnsgd1na2vs0mg"},{"bike_id":"24c93b7a-ce3a-44d6-abe9-911c0547bcc7","system_id":"levelo_inurba_marseille","lat":43.25498,"lon":5.37653,"is_reserved":false,"is_disabled":false,"rental_uris":{"android":"levelo://app?vid=24c93b7a-ce3a-44d6-abe9-911c0547bcc7","ios":"levelo://app?vid=24c93b7a-ce3a-44d6-abe9-911c0547bcc7"},"vehicle_type_id":"4","last_reported":1728076102,"current_range_meters":36400,"station_id":"ce4bhh12rcd13ifvqff0","pricing_plan_id":"cebpf4jnsgd1na2vs0mg"},{"bike_id":"24288944-0101-44b2-8f05-dfa33a293120","system_id":"levelo_inurba_marseille","lat":43.3136,"lon":5.38498,"is_reserved":false,"is_disabled":false,"rental_uris":{"android":"levelo://app?vid=24288944-0101-44b2-8f05-dfa33a293120","ios":"levelo://app?vid=24288944-0101-44b2-8f05-dfa33a293120"},"vehicle_type_id":"4","last_reported":1728076102,"current_range_meters":37600,"station_id":"ce4bgt92rcd13ifvqcf0","pricing_plan_id":"cebpf4jnsgd1na2vs0mg"},{"bike_id":"6a4b0bea-a36c-4e34-8edb-b3ea3c6da77f","system_id":"levelo_inurba_marseille","lat":43.25117,"lon":5.4032,"is_reserved":false,"is_disabled":false,"rental_uris":{"android":"levelo://app?vid=6a4b0bea-a36c-4e34-8edb-b3ea3c6da77f","ios":"levelo://app?vid=6a4b0bea-a36c-4e34-8edb-b3ea3c6da77f"},"vehicle_type_id":"4","last_reported":1728076102,"current_range_meters":25600,"station_id":"ce4bhlh2rcd13ifvqgig","pricing_plan_id":"cebpf4jnsgd1na2vs0mg"},{"bike_id":"abab4bff-fb34-4c71-91fd-a531951e78b4","system_id":"levelo_inurba_marseille","lat":43.28407,"lon":5.37514,"is_reserved":false,"is_disabled":false,"rental_uris":{"android":"levelo://app?vid=abab4bff-fb34-4c71-91fd-a531951e78b4","ios":"levelo://app?vid=abab4bff-fb34-4c71-91fd-a531951e78b4"},"vehicle_type_id":"4","last_reported":1728076102,"current_range_meters":36800,"station_id":"ce4bh412rcd13ifvqds0","pricing_plan_id":"cebpf4jnsgd1na2vs0mg"},{"bike_id":"149df3d4-2bac-4b47-b0b0-caa020d5e1f5","system_id":"levelo_inurba_marseille","lat":43.2293,"lon":5.35379,"is_reserved":false,"is_disabled":false,"rental_uris":{"android":"levelo://app?vid=149df3d4-2bac-4b47-b0b0-caa020d5e1f5","ios":"levelo://app?vid=149df3d4-2bac-4b47-b0b0-caa020d5e1f5"},"vehicle_type_id":"4","last_reported":1728076102,"current_range_meters":18800,"station_id":"cpo3532slgdg3j2ikp40","pricing_plan_id":"cebpf4jnsgd1na2vs0mg"},{"bike_id":"323f5121-082a-40ee-9620-2f6bbfc9f091","system_id":"levelo_inurba_marseille","lat":43.27006,"lon":5.402,"is_reserved":false,"is_disabled":false,"rental_uris":{"android":"levelo://app?vid=323f5121-082a-40ee-9620-2f6bbfc9f091","ios":"levelo://app?vid=323f5121-082a-40ee-9620-2f6bbfc9f091"},"vehicle_type_id":"4","last_reported":1728076102,"current_range_meters":10000,"station_id":"","pricing_plan_id":"cebpf4jnsgd1na2vs0mg"},{"bike_id":"0c8d8463-d2b8-43e4-b56e-0e670ab6ee4d","system_id":"levelo_inurba_marseille","lat":43.30201,"lon":5.36639,"is_reserved":false,"is_disabled":false,"rental_uris":{"android":"levelo://app?vid=0c8d8463-d2b8-43e4-b56e-0e670ab6ee4d","ios":"levelo://app?vid=0c8d8463-d2b8-43e4-b56e-0e670ab6ee4d"},"vehicle_type_id":"4","last_reported":1728076102,"current_range_meters":36000,"station_id":"ce4bgrh2rcd13ifvqc8g","pricing_plan_id":"cebpf4jnsgd1na2vs0mg"},{"bike_id":"77c59eab-5250-44c4-be86-099c0defe9c4","system_id":"levelo_inurba_marseille","lat":43.33754,"lon":5.37453,"is_reserved":false,"is_disabled":false,"rental_uris":{"android":"levelo://app?vid=77c59eab-5250-44c4-be86-099c0defe9c4","ios":"levelo://app?vid=77c59eab-5250-44c4-be86-099c0defe9c4"},"vehicle_type_id":"4","last_reported":1728076102,"current_range_meters":28800,"station_id":"","pricing_plan_id":"cebpf4jnsgd1na2vs0mg"},{"bike_id":"ada7479d-2eb9-4779-a791-8f453fccb20e","system_id":"levelo_inurba_marseille","lat":43.26189,"lon":5.37452,"is_reserved":false,"is_disabled":false,"rental_uris":{"android":"levelo://app?vid=ada7479d-2eb9-4779-a791-8f453fccb20e","ios":"levelo://app?vid=ada7479d-2eb9-4779-a791-8f453fccb20e"},"vehicle_type_id":"4","last_reported":1728076102,"current_range_meters":30800,"station_id":"ce4bhgp2rcd13ifvqfc0","pricing_plan_id":"cebpf4jnsgd1na2vs0mg"},{"bike_id":"655c7a70-a9e9-4bdb-90df-3dd326718d46","system_id":"levelo_inurba_marseille","lat":43.24665,"lon":5.38163,"is_reserved":false,"is_disabled":false,"rental_uris":{"android":"levelo://app?vid=655c7a70-a9e9-4bdb-90df-3dd326718d46","ios":"levelo://app?vid=655c7a70-a9e9-4bdb-90df-3dd326718d46"},"vehicle_type_id":"4","last_reported":1728076102,"current_range_meters":24800,"station_id":"ce4bhih2rcd13ifvqfr0","pricing_plan_id":"cebpf4jnsgd1na2vs0mg"},{"bike_id":"6e4404fe-9f2c-4094-b7ac-6438d3421190","system_id":"levelo_inurba_marseille","lat":43.25822,"lon":5.39425,"is_reserved":false,"is_disabled":false,"rental_uris":{"android":"levelo://app?vid=6e4404fe-9f2c-4094-b7ac-6438d3421190","ios":"levelo://app?vid=6e4404fe-9f2c-4094-b7ac-6438d3421190"},"vehicle_type_id":"4","last_reported":1728076102,"current_range_meters":38800,"station_id":"ce4bhip2rcd13ifvqft0","pricing_plan_id":"cebpf4jnsgd1na2vs0mg"},{"bike_id":"84b07b81-8a90-4e9c-96ec-461a75726f5b","system_id":"levelo_inurba_marseille","lat":43.32004,"lon":5.38168,"is_reserved":false,"is_disabled":false,"rental_uris":{"android":"levelo://app?vid=84b07b81-8a90-4e9c-96ec-461a75726f5b","ios":"levelo://app?vid=84b07b81-8a90-4e9c-96ec-461a75726f5b"},"vehicle_type_id":"4","last_reported":1728076102,"current_range_meters":9200,"station_id":"ce4bhr12rcd13ifvqhpg","pricing_plan_id":"cebpf4jnsgd1na2vs0mg"},{"bike_id":"66abda2b-1382-4853-b1f1-dd71ae8ab888","system_id":"levelo_inurba_marseille","lat":43.30811,"lon":5.38145,"is_reserved":false,"is_disabled":false,"rental_uris":{"android":"levelo://app?vid=66abda2b-1382-4853-b1f1-dd71ae8ab888","ios":"levelo://app?vid=66abda2b-1382-4853-b1f1-dd71ae8ab888"},"vehicle_type_id":"4","last_reported":1728076102,"current_range_meters":39200,"station_id":"ce4bgt12rcd13ifvqce0","pricing_plan_id":"cebpf4jnsgd1na2vs0mg"},{"bike_id":"32ceac28-dacd-4d4c-9c55-d75f7e6d1aa1","system_id":"levelo_inurba_marseille","lat":43.30802,"lon":5.43519,"is_reserved":false,"is_disabled":false,"rental_uris":{"android":"levelo://app?vid=32ceac28-dacd-4d4c-9c55-d75f7e6d1aa1","ios":"levelo://app?vid=32ceac28-dacd-4d4c-9c55-d75f7e6d1aa1"},"vehicle_type_id":"4","last_reported":1728076102,"current_range_meters":13600,"station_id":"ce4bhph2rcd13ifvqheg","pricing_plan_id":"cebpf4jnsgd1na2vs0mg"},{"bike_id":"3e0ada6c-630f-49c5-bd04-c47d3b9da6d5","system_id":"levelo_inurba_marseille","lat":43.2707,"lon":5.42279,"is_reserved":false,"is_disabled":false,"rental_uris":{"android":"levelo://app?vid=3e0ada6c-630f-49c5-bd04-c47d3b9da6d5","ios":"levelo://app?vid=3e0ada6c-630f-49c5-bd04-c47d3b9da6d5"},"vehicle_type_id":"4","last_reported":1728076102,"current_range_meters":28800,"station_id":"ce4bhk92rcd13ifvqgb0","pricing_plan_id":"cebpf4jnsgd1na2vs0mg"},{"bike_id":"b417a8d0-1fac-4a2b-9294-35cea48e57c1","system_id":"levelo_inurba_marseille","lat":43.33026,"lon":5.3905,"is_reserved":false,"is_disabled":false,"rental_uris":{"android":"levelo://app?vid=b417a8d0-1fac-4a2b-9294-35cea48e57c1","ios":"levelo://app?vid=b417a8d0-1fac-4a2b-9294-35cea48e57c1"},"vehicle_type_id":"4","last_reported":1728076102,"current_range_meters":30000,"station_id":"ce4bhr92rcd13ifvqhrg","pricing_plan_id":"cebpf4jnsgd1na2vs0mg"},{"bike_id":"a02a935a-10a8-46de-bf61-e6f06b368e7d","system_id":"levelo_inurba_marseille","lat":43.29558,"lon":5.42286,"is_reserved":false,"is_disabled":false,"rental_uris":{"android":"levelo://app?vid=a02a935a-10a8-46de-bf61-e6f06b368e7d","ios":"levelo://app?vid=a02a935a-10a8-46de-bf61-e6f06b368e7d"},"vehicle_type_id":"4","last_reported":1728076102,"current_range_meters":10000,"station_id":"ce4bhph2rcd13ifvqhdg","pricing_plan_id":"cebpf4jnsgd1na2vs0mg"},{"bike_id":"d217497d-1510-4778-9b96-28eea513fd88","system_id":"levelo_inurba_marseille","lat":43.24662,"lon":5.3817,"is_reserved":false,"is_disabled":false,"rental_uris":{"android":"levelo://app?vid=d217497d-1510-4778-9b96-28eea513fd88","ios":"levelo://app?vid=d217497d-1510-4778-9b96-28eea513fd88"},"vehicle_type_id":"4","last_reported":1728076102,"current_range_meters":24000,"station_id":"ce4bhih2rcd13ifvqfr0","pricing_plan_id":"cebpf4jnsgd1na2vs0mg"},{"bike_id":"75163c1a-7737-4edd-963e-1182a83a97e8","system_id":"levelo_inurba_marseille","lat":43.296,"lon":5.37723,"is_reserved":false,"is_disabled":false,"rental_uris":{"android":"levelo://app?vid=75163c1a-7737-4edd-963e-1182a83a97e8","ios":"levelo://app?vid=75163c1a-7737-4edd-963e-1182a83a97e8"},"vehicle_type_id":"4","last_reported":1728076102,"current_range_meters":38800,"station_id":"ce4bgi92rcd13ifvqb90","pricing_plan_id":"cebpf4jnsgd1na2vs0mg"},{"bike_id":"8444ed0b-fdac-4648-a368-f82ca7e16cd9","system_id":"levelo_inurba_marseille","lat":43.25111,"lon":5.40324,"is_reserved":false,"is_disabled":false,"rental_uris":{"android":"levelo://app?vid=8444ed0b-fdac-4648-a368-f82ca7e16cd9","ios":"levelo://app?vid=8444ed0b-fdac-4648-a368-f82ca7e16cd9"},"vehicle_type_id":"4","last_reported":1728076102,"current_range_meters":6000,"station_id":"ce4bhlh2rcd13ifvqgig","pricing_plan_id":"cebpf4jnsgd1na2vs0mg"},{"bike_id":"56c248b9-6b38-47fb-9ebf-ddbd710cc0f2","system_id":"levelo_inurba_marseille","lat":43.31325,"lon":5.39691,"is_reserved":false,"is_disabled":false,"rental_uris":{"android":"levelo://app?vid=56c248b9-6b38-47fb-9ebf-ddbd710cc0f2","ios":"levelo://app?vid=56c248b9-6b38-47fb-9ebf-ddbd710cc0f2"},"vehicle_type_id":"4","last_reported":1728076102,"current_range_meters":37600,"station_id":"ce4bgvp2rcd13ifvqcu0","pricing_plan_id":"cebpf4jnsgd1na2vs0mg"},{"bike_id":"5c12f08e-8334-4216-9455-56199ba65354","system_id":"levelo_inurba_marseille","lat":43.25827,"lon":5.39436,"is_reserved":false,"is_disabled":false,"rental_uris":{"android":"levelo://app?vid=5c12f08e-8334-4216-9455-56199ba65354","ios":"levelo://app?vid=5c12f08e-8334-4216-9455-56199ba65354"},"vehicle_type_id":"4","last_reported":1728076102,"current_range_meters":12400,"station_id":"ce4bhip2rcd13ifvqft0","pricing_plan_id":"cebpf4jnsgd1na2vs0mg"},{"bike_id":"d9513a24-3235-43a7-b9a5-1c5cfe37603f","system_id":"levelo_inurba_marseille","lat":43.23056,"lon":5.35493,"is_reserved":false,"is_disabled":false,"rental_uris":{"android":"levelo://app?vid=d9513a24-3235-43a7-b9a5-1c5cfe37603f","ios":"levelo://app?vid=d9513a24-3235-43a7-b9a5-1c5cfe37603f"},"vehicle_type_id":"4","last_reported":1728076102,"current_range_meters":24000,"station_id":"cpo3342slgdg3j2ifvpg","pricing_plan_id":"cebpf4jnsgd1na2vs0mg"},{"bike_id":"009d6d0e-c1a8-4ddc-b330-ebf04e9c45b9","system_id":"levelo_inurba_marseille","lat":43.29895,"lon":5.43643,"is_reserved":false,"is_disabled":false,"rental_uris":{"android":"levelo://app?vid=009d6d0e-c1a8-4ddc-b330-ebf04e9c45b9","ios":"levelo://app?vid=009d6d0e-c1a8-4ddc-b330-ebf04e9c45b9"},"vehicle_type_id":"4","last_reported":1728076102,"current_range_meters":24800,"station_id":"ce4bhpp2rcd13ifvqhfg","pricing_plan_id":"cebpf4jnsgd1na2vs0mg"},{"bike_id":"eb535a80-2109-432f-99be-98ec5f17543d","system_id":"levelo_inurba_marseille","lat":43.27374,"lon":5.36242,"is_reserved":false,"is_disabled":false,"rental_uris":{"android":"levelo://app?vid=eb535a80-2109-432f-99be-98ec5f17543d","ios":"levelo://app?vid=eb535a80-2109-432f-99be-98ec5f17543d"},"vehicle_type_id":"4","last_reported":1728076102,"current_range_meters":36400,"station_id":"ce4bhbh2rcd13ifvqeo0","pricing_plan_id":"cebpf4jnsgd1na2vs0mg"},{"bike_id":"a705ff6f-8863-42b9-af2a-1343e06be838","system_id":"levelo_inurba_marseille","lat":43.29225,"lon":5.36076,"is_reserved":false,"is_disabled":false,"rental_uris":{"android":"levelo://app?vid=a705ff6f-8863-42b9-af2a-1343e06be838","ios":"levelo://app?vid=a705ff6f-8863-42b9-af2a-1343e06be838"},"vehicle_type_id":"4","last_reported":1728076102,"current_range_meters":8400,"station_id":"ce4bhbh2rcd13ifvqeqg","pricing_plan_id":"cebpf4jnsgd1na2vs0mg"},{"bike_id":"e09c7bda-7fef-48d4-bc85-337ec635a254","system_id":"levelo_inurba_marseille","lat":43.28609,"lon":5.35104,"is_reserved":false,"is_disabled":false,"rental_uris":{"android":"levelo://app?vid=e09c7bda-7fef-48d4-bc85-337ec635a254","ios":"levelo://app?vid=e09c7bda-7fef-48d4-bc85-337ec635a254"},"vehicle_type_id":"4","last_reported":1728076102,"current_range_meters":8400,"station_id":"ce4bhch2rcd13ifvqeug","pricing_plan_id":"cebpf4jnsgd1na2vs0mg"},{"bike_id":"88a6f94c-53c9-4945-aa60-c877e4009ce5","system_id":"levelo_inurba_marseille","lat":43.27174,"lon":5.40995,"is_reserved":false,"is_disabled":false,"rental_uris":{"android":"levelo://app?vid=88a6f94c-53c9-4945-aa60-c877e4009ce5","ios":"levelo://app?vid=88a6f94c-53c9-4945-aa60-c877e4009ce5"},"vehicle_type_id":"4","last_reported":1728076102,"current_range_meters":29600,"station_id":"ce4bhl12rcd13ifvqgf0","pricing_plan_id":"cebpf4jnsgd1na2vs0mg"},{"bike_id":"4e0c83a2-b0c3-4894-8559-e509681998d3","system_id":"levelo_inurba_marseille","lat":43.31119,"lon":5.38339,"is_reserved":false,"is_disabled":false,"rental_uris":{"android":"levelo://app?vid=4e0c83a2-b0c3-4894-8559-e509681998d3","ios":"levelo://app?vid=4e0c83a2-b0c3-4894-8559-e509681998d3"},"vehicle_type_id":"4","last_reported":1728076102,"current_range_meters":20400,"station_id":"ce4bgv92rcd13ifvqcr0","pricing_plan_id":"cebpf4jnsgd1na2vs0mg"},{"bike_id":"c2f21302-0bda-4485-a5df-98d1ef9f2991","system_id":"levelo_inurba_marseille","lat":43.23942,"lon":5.38289,"is_reserved":false,"is_disabled":false,"rental_uris":{"android":"levelo://app?vid=c2f21302-0bda-4485-a5df-98d1ef9f2991","ios":"levelo://app?vid=c2f21302-0bda-4485-a5df-98d1ef9f2991"},"vehicle_type_id":"4","last_reported":1728076102,"current_range_meters":10800,"station_id":"","pricing_plan_id":"cebpf4jnsgd1na2vs0mg"},{"bike_id":"82140daf-1234-415b-8d75-8e008e9fdcd2","system_id":"levelo_inurba_marseille","lat":43.29297,"lon":5.37455,"is_reserved":false,"is_disabled":false,"rental_uris":{"android":"levelo://app?vid=82140daf-1234-415b-8d75-8e008e9fdcd2","ios":"levelo://app?vid=82140daf-1234-415b-8d75-8e008e9fdcd2"},"vehicle_type_id":"4","last_reported":1728076102,"current_range_meters":20000,"station_id":"ce4bgi12rcd13ifvqb70","pricing_plan_id":"cebpf4jnsgd1na2vs0mg"},{"bike_id":"745956e2-85a4-4e28-8a9f-f9dc9abb062e","system_id":"levelo_inurba_marseille","lat":43.28789,"lon":5.37363,"is_reserved":false,"is_disabled":false,"rental_uris":{"android":"levelo://app?vid=745956e2-85a4-4e28-8a9f-f9dc9abb062e","ios":"levelo://app?vid=745956e2-85a4-4e28-8a9f-f9dc9abb062e"},"vehicle_type_id":"4","last_reported":1728076102,"current_range_meters":36000,"station_id":"","pricing_plan_id":"cebpf4jnsgd1na2vs0mg"},{"bike_id":"aa6ea80f-d3cc-43e6-a69f-38faa11735ba","system_id":"levelo_inurba_marseille","lat":43.23963,"lon":5.36629,"is_reserved":false,"is_disabled":false,"rental_uris":{"android":"levelo://app?vid=aa6ea80f-d3cc-43e6-a69f-38faa11735ba","ios":"levelo://app?vid=aa6ea80f-d3cc-43e6-a69f-38faa11735ba"},"vehicle_type_id":"4","last_reported":1728076102,"current_range_meters":32800,"station_id":"ce4bhi12rcd13ifvqfp0","pricing_plan_id":"cebpf4jnsgd1na2vs0mg"},{"bike_id":"1539c9ff-b0fe-4181-b7af-2d682f035304","system_id":"levelo_inurba_marseille","lat":43.28928,"lon":5.36403,"is_reserved":false,"is_disabled":false,"rental_uris":{"android":"levelo://app?vid=1539c9ff-b0fe-4181-b7af-2d682f035304","ios":"levelo://app?vid=1539c9ff-b0fe-4181-b7af-2d682f035304"},"vehicle_type_id":"4","last_reported":1728076102,"current_range_meters":8000,"station_id":"ce4bhc92rcd13ifvqetg","pricing_plan_id":"cebpf4jnsgd1na2vs0mg"},{"bike_id":"d50ef1d5-0d0a-4e68-8023-6aa4219e430b","system_id":"levelo_inurba_marseille","lat":43.31171,"lon":5.38715,"is_reserved":false,"is_disabled":false,"rental_uris":{"android":"levelo://app?vid=d50ef1d5-0d0a-4e68-8023-6aa4219e430b","ios":"levelo://app?vid=d50ef1d5-0d0a-4e68-8023-6aa4219e430b"},"vehicle_type_id":"4","last_reported":1728076102,"current_range_meters":38800,"station_id":"ce4bgv12rcd13ifvqcp0","pricing_plan_id":"cebpf4jnsgd1na2vs0mg"},{"bike_id":"94b90cfe-feb4-4a13-9ad9-c798fa8ab1e0","system_id":"levelo_inurba_marseille","lat":43.29167,"lon":5.3717,"is_reserved":false,"is_disabled":false,"rental_uris":{"android":"levelo://app?vid=94b90cfe-feb4-4a13-9ad9-c798fa8ab1e0","ios":"levelo://app?vid=94b90cfe-feb4-4a13-9ad9-c798fa8ab1e0"},"vehicle_type_id":"4","last_reported":1728076102,"current_range_meters":27600,"station_id":"ce4bha92rcd13ifvqeh0","pricing_plan_id":"cebpf4jnsgd1na2vs0mg"},{"bike_id":"d054fab0-6a9a-4a13-8a72-8f548595cf1c","system_id":"levelo_inurba_marseille","lat":43.31539,"lon":5.38028,"is_reserved":false,"is_disabled":false,"rental_uris":{"android":"levelo://app?vid=d054fab0-6a9a-4a13-8a72-8f548595cf1c","ios":"levelo://app?vid=d054fab0-6a9a-4a13-8a72-8f548595cf1c"},"vehicle_type_id":"4","last_reported":1728076102,"current_range_meters":36800,"station_id":"ce4bhsp2rcd13ifvqi50","pricing_plan_id":"cebpf4jnsgd1na2vs0mg"},{"bike_id":"f7edf595-f825-41ac-a1df-4a794b365cee","system_id":"levelo_inurba_marseille","lat":43.28476,"lon":5.38414,"is_reserved":false,"is_disabled":false,"rental_uris":{"android":"levelo://app?vid=f7edf595-f825-41ac-a1df-4a794b365cee","ios":"levelo://app?vid=f7edf595-f825-41ac-a1df-4a794b365cee"},"vehicle_type_id":"4","last_reported":1728076102,"current_range_meters":6000,"station_id":"ce4bh512rcd13ifvqe3g","pricing_plan_id":"cebpf4jnsgd1na2vs0mg"},{"bike_id":"111ba437-4a69-4e41-8838-3f7caaee301f","system_id":"levelo_inurba_marseille","lat":43.29535,"lon":5.38541,"is_reserved":false,"is_disabled":false,"rental_uris":{"android":"levelo://app?vid=111ba437-4a69-4e41-8838-3f7caaee301f","ios":"levelo://app?vid=111ba437-4a69-4e41-8838-3f7caaee301f"},"vehicle_type_id":"4","last_reported":1728076102,"current_range_meters":6400,"station_id":"ce4bgih2rcd13ifvqba0","pricing_plan_id":"cebpf4jnsgd1na2vs0mg"},{"bike_id":"ed4aa36f-2130-4721-b127-a9963153fa74","system_id":"levelo_inurba_marseille","lat":43.28708,"lon":5.37396,"is_reserved":false,"is_disabled":false,"rental_uris":{"android":"levelo://app?vid=ed4aa36f-2130-4721-b127-a9963153fa74","ios":"levelo://app?vid=ed4aa36f-2130-4721-b127-a9963153fa74"},"vehicle_type_id":"4","last_reported":1728076102,"current_range_meters":27600,"station_id":"ce4bh3p2rcd13ifvqdq0","pricing_plan_id":"cebpf4jnsgd1na2vs0mg"},{"bike_id":"6c90d0a4-89c4-4712-924a-8a8dcaddcd8f","system_id":"levelo_inurba_marseille","lat":43.33092,"lon":5.39985,"is_reserved":false,"is_disabled":false,"rental_uris":{"android":"levelo://app?vid=6c90d0a4-89c4-4712-924a-8a8dcaddcd8f","ios":"levelo://app?vid=6c90d0a4-89c4-4712-924a-8a8dcaddcd8f"},"vehicle_type_id":"4","last_reported":1728076102,"current_range_meters":9200,"station_id":"","pricing_plan_id":"cebpf4jnsgd1na2vs0mg"},{"bike_id":"bdefae95-7cc5-4880-bfcb-b1af39586be0","system_id":"levelo_inurba_marseille","lat":43.32664,"lon":5.40985,"is_reserved":false,"is_disabled":false,"rental_uris":{"android":"levelo://app?vid=bdefae95-7cc5-4880-bfcb-b1af39586be0","ios":"levelo://app?vid=bdefae95-7cc5-4880-bfcb-b1af39586be0"},"vehicle_type_id":"4","last_reported":1728076102,"current_range_meters":38800,"station_id":"ce4bhpp2rcd13ifvqhgg","pricing_plan_id":"cebpf4jnsgd1na2vs0mg"},{"bike_id":"77f07730-0e74-42a9-8f44-71ffc7dd46b9","system_id":"levelo_inurba_marseille","lat":43.29789,"lon":5.38096,"is_reserved":false,"is_disabled":false,"rental_uris":{"android":"levelo://app?vid=77f07730-0e74-42a9-8f44-71ffc7dd46b9","ios":"levelo://app?vid=77f07730-0e74-42a9-8f44-71ffc7dd46b9"},"vehicle_type_id":"4","last_reported":1728076102,"current_range_meters":38400,"station_id":"ce4bgip2rcd13ifvqbb0","pricing_plan_id":"cebpf4jnsgd1na2vs0mg"},{"bike_id":"2a206c44-b64c-4776-a157-6fccdeea62ba","system_id":"levelo_inurba_marseille","lat":43.25583,"lon":5.38232,"is_reserved":false,"is_disabled":false,"rental_uris":{"android":"levelo://app?vid=2a206c44-b64c-4776-a157-6fccdeea62ba","ios":"levelo://app?vid=2a206c44-b64c-4776-a157-6fccdeea62ba"},"vehicle_type_id":"4","last_reported":1728076102,"current_range_meters":38000,"station_id":"ce4bhih2rcd13ifvqfs0","pricing_plan_id":"cebpf4jnsgd1na2vs0mg"},{"bike_id":"1f9e8ae5-9576-4a84-b1bd-41e95d692a10","system_id":"levelo_inurba_marseille","lat":43.2962,"lon":5.37154,"is_reserved":false,"is_disabled":false,"rental_uris":{"android":"levelo://app?vid=1f9e8ae5-9576-4a84-b1bd-41e95d692a10","ios":"levelo://app?vid=1f9e8ae5-9576-4a84-b1bd-41e95d692a10"},"vehicle_type_id":"4","last_reported":1728076102,"current_range_meters":38000,"station_id":"ce4bgnh2rcd13ifvqc0g","pricing_plan_id":"cebpf4jnsgd1na2vs0mg"},{"bike_id":"6aa318a3-f140-499e-b7dc-8e24d9212e3a","system_id":"levelo_inurba_marseille","lat":43.29581,"lon":5.38113,"is_reserved":false,"is_disabled":false,"rental_uris":{"android":"levelo://app?vid=6aa318a3-f140-499e-b7dc-8e24d9212e3a","ios":"levelo://app?vid=6aa318a3-f140-499e-b7dc-8e24d9212e3a"},"vehicle_type_id":"4","last_reported":1728076102,"current_range_meters":38000,"station_id":"ce4bgl12rcd13ifvqbo0","pricing_plan_id":"cebpf4jnsgd1na2vs0mg"},{"bike_id":"a88334b2-ff32-40ba-a2cc-5c28d793da2a","system_id":"levelo_inurba_marseille","lat":43.3107,"lon":5.38362,"is_reserved":false,"is_disabled":false,"rental_uris":{"android":"levelo://app?vid=a88334b2-ff32-40ba-a2cc-5c28d793da2a","ios":"levelo://app?vid=a88334b2-ff32-40ba-a2cc-5c28d793da2a"},"vehicle_type_id":"4","last_reported":1728076102,"current_range_meters":10800,"station_id":"ce4bgv92rcd13ifvqcr0","pricing_plan_id":"cebpf4jnsgd1na2vs0mg"},{"bike_id":"1e9e701f-fb8e-430e-be7f-54907f1b9076","system_id":"levelo_inurba_marseille","lat":43.33023,"lon":5.39043,"is_reserved":false,"is_disabled":false,"rental_uris":{"android":"levelo://app?vid=1e9e701f-fb8e-430e-be7f-54907f1b9076","ios":"levelo://app?vid=1e9e701f-fb8e-430e-be7f-54907f1b9076"},"vehicle_type_id":"4","last_reported":1728076102,"current_range_meters":22400,"station_id":"ce4bhr92rcd13ifvqhrg","pricing_plan_id":"cebpf4jnsgd1na2vs0mg"},{"bike_id":"26f290bb-1447-4f43-ab6d-1590e2a06a4b","system_id":"levelo_inurba_marseille","lat":43.31451,"lon":5.37389,"is_reserved":false,"is_disabled":false,"rental_uris":{"android":"levelo://app?vid=26f290bb-1447-4f43-ab6d-1590e2a06a4b","ios":"levelo://app?vid=26f290bb-1447-4f43-ab6d-1590e2a06a4b"},"vehicle_type_id":"4","last_reported":1728076102,"current_range_meters":37600,"station_id":"ce4bgt12rcd13ifvqcd0","pricing_plan_id":"cebpf4jnsgd1na2vs0mg"},{"bike_id":"2aea3d8d-072d-4f29-bdec-a59ec9aa8a56","system_id":"levelo_inurba_marseille","lat":43.28719,"lon":5.37938,"is_reserved":false,"is_disabled":false,"rental_uris":{"android":"levelo://app?vid=2aea3d8d-072d-4f29-bdec-a59ec9aa8a56","ios":"levelo://app?vid=2aea3d8d-072d-4f29-bdec-a59ec9aa8a56"},"vehicle_type_id":"4","last_reported":1728076102,"current_range_meters":3600,"station_id":"ce4bh9p2rcd13ifvqec0","pricing_plan_id":"cebpf4jnsgd1na2vs0mg"},{"bike_id":"e0a07a08-8ace-4a01-b000-9c812c1d132e","system_id":"levelo_inurba_marseille","lat":43.315343,"lon":5.380383,"is_reserved":false,"is_disabled":false,"rental_uris":{"android":"levelo://app?vid=e0a07a08-8ace-4a01-b000-9c812c1d132e","ios":"levelo://app?vid=e0a07a08-8ace-4a01-b000-9c812c1d132e"},"vehicle_type_id":"4","last_reported":1728076102,"current_range_meters":7200,"station_id":"ce4bhsp2rcd13ifvqi50","pricing_plan_id":"cebpf4jnsgd1na2vs0mg"},{"bike_id":"e2b62f7b-f163-4ce0-a035-e5fe5a9f421d","system_id":"levelo_inurba_marseille","lat":43.28039,"lon":5.36939,"is_reserved":false,"is_disabled":false,"rental_uris":{"android":"levelo://app?vid=e2b62f7b-f163-4ce0-a035-e5fe5a9f421d","ios":"levelo://app?vid=e2b62f7b-f163-4ce0-a035-e5fe5a9f421d"},"vehicle_type_id":"4","last_reported":1728076102,"current_range_meters":10800,"station_id":"ce4bha12rcd13ifvqef0","pricing_plan_id":"cebpf4jnsgd1na2vs0mg"},{"bike_id":"dd24d85e-c480-463f-b378-7cfa312ddf07","system_id":"levelo_inurba_marseille","lat":43.29414,"lon":5.38622,"is_reserved":false,"is_disabled":false,"rental_uris":{"android":"levelo://app?vid=dd24d85e-c480-463f-b378-7cfa312ddf07","ios":"levelo://app?vid=dd24d85e-c480-463f-b378-7cfa312ddf07"},"vehicle_type_id":"4","last_reported":1728076102,"current_range_meters":15200,"station_id":"ce4bh2h2rcd13ifvqdh0","pricing_plan_id":"cebpf4jnsgd1na2vs0mg"},{"bike_id":"ce11018c-ef79-4fba-970f-c3cd633e369b","system_id":"levelo_inurba_marseille","lat":43.30355,"lon":5.41877,"is_reserved":false,"is_disabled":false,"rental_uris":{"android":"levelo://app?vid=ce11018c-ef79-4fba-970f-c3cd633e369b","ios":"levelo://app?vid=ce11018c-ef79-4fba-970f-c3cd633e369b"},"vehicle_type_id":"4","last_reported":1728076102,"current_range_meters":34800,"station_id":"ce4bhop2rcd13ifvqh7g","pricing_plan_id":"cebpf4jnsgd1na2vs0mg"},{"bike_id":"5b0a6d7f-c426-454a-82ad-28e2608bee63","system_id":"levelo_inurba_marseille","lat":43.322986,"lon":5.386522,"is_reserved":false,"is_disabled":false,"rental_uris":{"android":"levelo://app?vid=5b0a6d7f-c426-454a-82ad-28e2608bee63","ios":"levelo://app?vid=5b0a6d7f-c426-454a-82ad-28e2608bee63"},"vehicle_type_id":"4","last_reported":1728076102,"current_range_meters":24800,"station_id":"","pricing_plan_id":"cebpf4jnsgd1na2vs0mg"},{"bike_id":"4de60834-d192-45cc-9f41-15893aad862d","system_id":"levelo_inurba_marseille","lat":43.28848,"lon":5.35866,"is_reserved":false,"is_disabled":false,"rental_uris":{"android":"levelo://app?vid=4de60834-d192-45cc-9f41-15893aad862d","ios":"levelo://app?vid=4de60834-d192-45cc-9f41-15893aad862d"},"vehicle_type_id":"4","last_reported":1728076102,"current_range_meters":28000,"station_id":"ce4bhb12rcd13ifvqem0","pricing_plan_id":"cebpf4jnsgd1na2vs0mg"},{"bike_id":"fe0ee611-09c9-4a1c-ada8-ceb6f4b7569d","system_id":"levelo_inurba_marseille","lat":43.2901,"lon":5.37278,"is_reserved":false,"is_disabled":false,"rental_uris":{"android":"levelo://app?vid=fe0ee611-09c9-4a1c-ada8-ceb6f4b7569d","ios":"levelo://app?vid=fe0ee611-09c9-4a1c-ada8-ceb6f4b7569d"},"vehicle_type_id":"4","last_reported":1728076102,"current_range_meters":35200,"station_id":"ce4bha92rcd13ifvqeh0","pricing_plan_id":"cebpf4jnsgd1na2vs0mg"},{"bike_id":"3c76bc3c-ba6b-497c-b639-532eac44bc71","system_id":"levelo_inurba_marseille","lat":43.32365,"lon":5.38892,"is_reserved":false,"is_disabled":false,"rental_uris":{"android":"levelo://app?vid=3c76bc3c-ba6b-497c-b639-532eac44bc71","ios":"levelo://app?vid=3c76bc3c-ba6b-497c-b639-532eac44bc71"},"vehicle_type_id":"4","last_reported":1728076102,"current_range_meters":9200,"station_id":"ce4bhqp2rcd13ifvqhog","pricing_plan_id":"cebpf4jnsgd1na2vs0mg"},{"bike_id":"31022170-a7e6-4f32-93d5-c4c05fe5cd29","system_id":"levelo_inurba_marseille","lat":43.29874,"lon":5.39728,"is_reserved":false,"is_disabled":false,"rental_uris":{"android":"levelo://app?vid=31022170-a7e6-4f32-93d5-c4c05fe5cd29","ios":"levelo://app?vid=31022170-a7e6-4f32-93d5-c4c05fe5cd29"},"vehicle_type_id":"4","last_reported":1728076102,"current_range_meters":36800,"station_id":"ce4bh0h2rcd13ifvqd50","pricing_plan_id":"cebpf4jnsgd1na2vs0mg"},{"bike_id":"26ecec3e-a54e-4ff0-810f-2cb92493de6d","system_id":"levelo_inurba_marseille","lat":43.25873,"lon":5.39895,"is_reserved":false,"is_disabled":false,"rental_uris":{"android":"levelo://app?vid=26ecec3e-a54e-4ff0-810f-2cb92493de6d","ios":"levelo://app?vid=26ecec3e-a54e-4ff0-810f-2cb92493de6d"},"vehicle_type_id":"4","last_reported":1728076102,"current_range_meters":16800,"station_id":"ce4bhl92rcd13ifvqghg","pricing_plan_id":"cebpf4jnsgd1na2vs0mg"},{"bike_id":"19c2c618-2c07-48c7-a973-23612d81f7df","system_id":"levelo_inurba_marseille","lat":43.25832,"lon":5.39426,"is_reserved":false,"is_disabled":false,"rental_uris":{"android":"levelo://app?vid=19c2c618-2c07-48c7-a973-23612d81f7df","ios":"levelo://app?vid=19c2c618-2c07-48c7-a973-23612d81f7df"},"vehicle_type_id":"4","last_reported":1728076102,"current_range_meters":38800,"station_id":"ce4bhip2rcd13ifvqft0","pricing_plan_id":"cebpf4jnsgd1na2vs0mg"},{"bike_id":"666bc129-da48-43b6-859c-bfc1c5948593","system_id":"levelo_inurba_marseille","lat":43.31639,"lon":5.38338,"is_reserved":false,"is_disabled":false,"rental_uris":{"android":"levelo://app?vid=666bc129-da48-43b6-859c-bfc1c5948593","ios":"levelo://app?vid=666bc129-da48-43b6-859c-bfc1c5948593"},"vehicle_type_id":"4","last_reported":1728076102,"current_range_meters":31200,"station_id":"","pricing_plan_id":"cebpf4jnsgd1na2vs0mg"},{"bike_id":"cc777f0c-4b57-495e-8fa7-af93cfa992a9","system_id":"levelo_inurba_marseille","lat":43.28493,"lon":5.38552,"is_reserved":false,"is_disabled":false,"rental_uris":{"android":"levelo://app?vid=cc777f0c-4b57-495e-8fa7-af93cfa992a9","ios":"levelo://app?vid=cc777f0c-4b57-495e-8fa7-af93cfa992a9"},"vehicle_type_id":"4","last_reported":1728076102,"current_range_meters":14800,"station_id":"ce4bh8p2rcd13ifvqeb0","pricing_plan_id":"cebpf4jnsgd1na2vs0mg"},{"bike_id":"668dc555-710b-41d2-b99b-919aadcb4d94","system_id":"levelo_inurba_marseille","lat":43.28079,"lon":5.39658,"is_reserved":false,"is_disabled":false,"rental_uris":{"android":"levelo://app?vid=668dc555-710b-41d2-b99b-919aadcb4d94","ios":"levelo://app?vid=668dc555-710b-41d2-b99b-919aadcb4d94"},"vehicle_type_id":"4","last_reported":1728076102,"current_range_meters":3600,"station_id":"ce4bho12rcd13ifvqh2g","pricing_plan_id":"cebpf4jnsgd1na2vs0mg"},{"bike_id":"e3a55123-dd31-4c6a-9a44-7e5a51c0f0eb","system_id":"levelo_inurba_marseille","lat":43.25115,"lon":5.40318,"is_reserved":false,"is_disabled":false,"rental_uris":{"android":"levelo://app?vid=e3a55123-dd31-4c6a-9a44-7e5a51c0f0eb","ios":"levelo://app?vid=e3a55123-dd31-4c6a-9a44-7e5a51c0f0eb"},"vehicle_type_id":"4","last_reported":1728076102,"current_range_meters":7200,"station_id":"ce4bhlh2rcd13ifvqgig","pricing_plan_id":"cebpf4jnsgd1na2vs0mg"},{"bike_id":"b6a817d8-5787-46a3-898e-0b46c75fc481","system_id":"levelo_inurba_marseille","lat":43.32965,"lon":5.40344,"is_reserved":false,"is_disabled":false,"rental_uris":{"android":"levelo://app?vid=b6a817d8-5787-46a3-898e-0b46c75fc481","ios":"levelo://app?vid=b6a817d8-5787-46a3-898e-0b46c75fc481"},"vehicle_type_id":"4","last_reported":1728076102,"current_range_meters":9200,"station_id":"","pricing_plan_id":"cebpf4jnsgd1na2vs0mg"},{"bike_id":"be9c2872-4b59-4bd2-9461-e45023d12436","system_id":"levelo_inurba_marseille","lat":43.29885,"lon":5.38915,"is_reserved":false,"is_disabled":false,"rental_uris":{"android":"levelo://app?vid=be9c2872-4b59-4bd2-9461-e45023d12436","ios":"levelo://app?vid=be9c2872-4b59-4bd2-9461-e45023d12436"},"vehicle_type_id":"4","last_reported":1728076102,"current_range_meters":4800,"station_id":"ce4bh392rcd13ifvqdl0","pricing_plan_id":"cebpf4jnsgd1na2vs0mg"},{"bike_id":"2729bd97-3161-4cc0-8ce5-2fbaf332608d","system_id":"levelo_inurba_marseille","lat":43.24544,"lon":5.39523,"is_reserved":false,"is_disabled":false,"rental_uris":{"android":"levelo://app?vid=2729bd97-3161-4cc0-8ce5-2fbaf332608d","ios":"levelo://app?vid=2729bd97-3161-4cc0-8ce5-2fbaf332608d"},"vehicle_type_id":"4","last_reported":1728076102,"current_range_meters":9200,"station_id":"ce4bhlp2rcd13ifvqgjg","pricing_plan_id":"cebpf4jnsgd1na2vs0mg"},{"bike_id":"64bd957e-b978-44cb-a85c-928d627d24ec","system_id":"levelo_inurba_marseille","lat":43.35424,"lon":5.35869,"is_reserved":false,"is_disabled":false,"rental_uris":{"android":"levelo://app?vid=64bd957e-b978-44cb-a85c-928d627d24ec","ios":"levelo://app?vid=64bd957e-b978-44cb-a85c-928d627d24ec"},"vehicle_type_id":"4","last_reported":1728076102,"current_range_meters":10800,"station_id":"","pricing_plan_id":"cebpf4jnsgd1na2vs0mg"},{"bike_id":"5d27344c-48db-4143-abcc-d6fc82ce47ec","system_id":"levelo_inurba_marseille","lat":43.32478,"lon":5.36572,"is_reserved":false,"is_disabled":false,"rental_uris":{"android":"levelo://app?vid=5d27344c-48db-4143-abcc-d6fc82ce47ec","ios":"levelo://app?vid=5d27344c-48db-4143-abcc-d6fc82ce47ec"},"vehicle_type_id":"4","last_reported":1728076102,"current_range_meters":33200,"station_id":"ce4bhs12rcd13ifvqhvg","pricing_plan_id":"cebpf4jnsgd1na2vs0mg"},{"bike_id":"4a79b7f5-df06-47d9-894a-c23c245e5186","system_id":"levelo_inurba_marseille","lat":43.29562,"lon":5.42283,"is_reserved":false,"is_disabled":false,"rental_uris":{"android":"levelo://app?vid=4a79b7f5-df06-47d9-894a-c23c245e5186","ios":"levelo://app?vid=4a79b7f5-df06-47d9-894a-c23c245e5186"},"vehicle_type_id":"4","last_reported":1728076102,"current_range_meters":6400,"station_id":"ce4bhph2rcd13ifvqhdg","pricing_plan_id":"cebpf4jnsgd1na2vs0mg"},{"bike_id":"32242c56-871c-43e9-886b-ffb4c5d66c0e","system_id":"levelo_inurba_marseille","lat":43.25932,"lon":5.40915,"is_reserved":false,"is_disabled":false,"rental_uris":{"android":"levelo://app?vid=32242c56-871c-43e9-886b-ffb4c5d66c0e","ios":"levelo://app?vid=32242c56-871c-43e9-886b-ffb4c5d66c0e"},"vehicle_type_id":"4","last_reported":1728076102,"current_range_meters":16000,"station_id":"ce4bhm92rcd13ifvqglg","pricing_plan_id":"cebpf4jnsgd1na2vs0mg"},{"bike_id":"19dc696a-2df3-4720-928f-146a4ed17896","system_id":"levelo_inurba_marseille","lat":43.28157,"lon":5.42647,"is_reserved":false,"is_disabled":false,"rental_uris":{"android":"levelo://app?vid=19dc696a-2df3-4720-928f-146a4ed17896","ios":"levelo://app?vid=19dc696a-2df3-4720-928f-146a4ed17896"},"vehicle_type_id":"4","last_reported":1728076102,"current_range_meters":18800,"station_id":"ce4bhnh2rcd13ifvqgug","pricing_plan_id":"cebpf4jnsgd1na2vs0mg"},{"bike_id":"9208c421-a096-4fd2-860f-0f08312fa057","system_id":"levelo_inurba_marseille","lat":43.28931,"lon":5.39636,"is_reserved":false,"is_disabled":false,"rental_uris":{"android":"levelo://app?vid=9208c421-a096-4fd2-860f-0f08312fa057","ios":"levelo://app?vid=9208c421-a096-4fd2-860f-0f08312fa057"},"vehicle_type_id":"4","last_reported":1728076102,"current_range_meters":32800,"station_id":"ce4bh3h2rcd13ifvqdn0","pricing_plan_id":"cebpf4jnsgd1na2vs0mg"},{"bike_id":"d69e74a9-2d68-4e88-b3dc-8243b25b3157","system_id":"levelo_inurba_marseille","lat":43.25113,"lon":5.40321,"is_reserved":false,"is_disabled":false,"rental_uris":{"android":"levelo://app?vid=d69e74a9-2d68-4e88-b3dc-8243b25b3157","ios":"levelo://app?vid=d69e74a9-2d68-4e88-b3dc-8243b25b3157"},"vehicle_type_id":"4","last_reported":1728076102,"current_range_meters":4800,"station_id":"ce4bhlh2rcd13ifvqgig","pricing_plan_id":"cebpf4jnsgd1na2vs0mg"},{"bike_id":"6d679b6b-38e0-4f37-8caf-d0dfb3677fc5","system_id":"levelo_inurba_marseille","lat":43.2293,"lon":5.35381,"is_reserved":false,"is_disabled":false,"rental_uris":{"android":"levelo://app?vid=6d679b6b-38e0-4f37-8caf-d0dfb3677fc5","ios":"levelo://app?vid=6d679b6b-38e0-4f37-8caf-d0dfb3677fc5"},"vehicle_type_id":"4","last_reported":1728076102,"current_range_meters":16800,"station_id":"cpo3532slgdg3j2ikp40","pricing_plan_id":"cebpf4jnsgd1na2vs0mg"},{"bike_id":"f3178be6-667f-4fe4-9d72-e745460c6c0b","system_id":"levelo_inurba_marseille","lat":43.27327,"lon":5.391,"is_reserved":false,"is_disabled":false,"rental_uris":{"android":"levelo://app?vid=f3178be6-667f-4fe4-9d72-e745460c6c0b","ios":"levelo://app?vid=f3178be6-667f-4fe4-9d72-e745460c6c0b"},"vehicle_type_id":"4","last_reported":1728076102,"current_range_meters":3600,"station_id":"ce4bhgp2rcd13ifvqfe0","pricing_plan_id":"cebpf4jnsgd1na2vs0mg"},{"bike_id":"3f287340-4558-46e9-8e34-e97c67eb1148","system_id":"levelo_inurba_marseille","lat":43.25494,"lon":5.37649,"is_reserved":false,"is_disabled":false,"rental_uris":{"android":"levelo://app?vid=3f287340-4558-46e9-8e34-e97c67eb1148","ios":"levelo://app?vid=3f287340-4558-46e9-8e34-e97c67eb1148"},"vehicle_type_id":"4","last_reported":1728076102,"current_range_meters":28800,"station_id":"ce4bhh12rcd13ifvqff0","pricing_plan_id":"cebpf4jnsgd1na2vs0mg"},{"bike_id":"5c7ab760-b4ef-4692-b13c-d9b54d6f65a4","system_id":"levelo_inurba_marseille","lat":43.25721,"lon":5.41118,"is_reserved":false,"is_disabled":false,"rental_uris":{"android":"levelo://app?vid=5c7ab760-b4ef-4692-b13c-d9b54d6f65a4","ios":"levelo://app?vid=5c7ab760-b4ef-4692-b13c-d9b54d6f65a4"},"vehicle_type_id":"4","last_reported":1728076102,"current_range_meters":28000,"station_id":"ce4bhkp2rcd13ifvqgd0","pricing_plan_id":"cebpf4jnsgd1na2vs0mg"},{"bike_id":"0953fe73-6f5b-4c0a-8a49-0a049eb6c721","system_id":"levelo_inurba_marseille","lat":43.28374,"lon":5.38627,"is_reserved":false,"is_disabled":false,"rental_uris":{"android":"levelo://app?vid=0953fe73-6f5b-4c0a-8a49-0a049eb6c721","ios":"levelo://app?vid=0953fe73-6f5b-4c0a-8a49-0a049eb6c721"},"vehicle_type_id":"4","last_reported":1728076102,"current_range_meters":34000,"station_id":"ce4bh492rcd13ifvqdvg","pricing_plan_id":"cebpf4jnsgd1na2vs0mg"},{"bike_id":"1df4a6b4-39e4-4279-8ea5-f5fb23e15a36","system_id":"levelo_inurba_marseille","lat":43.29251,"lon":5.40914,"is_reserved":false,"is_disabled":false,"rental_uris":{"android":"levelo://app?vid=1df4a6b4-39e4-4279-8ea5-f5fb23e15a36","ios":"levelo://app?vid=1df4a6b4-39e4-4279-8ea5-f5fb23e15a36"},"vehicle_type_id":"4","last_reported":1728076102,"current_range_meters":6800,"station_id":"ce4bh192rcd13ifvqdc0","pricing_plan_id":"cebpf4jnsgd1na2vs0mg"},{"bike_id":"42715632-e225-47f3-813c-9451f24e5700","system_id":"levelo_inurba_marseille","lat":43.231898,"lon":5.355551,"is_reserved":false,"is_disabled":false,"rental_uris":{"android":"levelo://app?vid=42715632-e225-47f3-813c-9451f24e5700","ios":"levelo://app?vid=42715632-e225-47f3-813c-9451f24e5700"},"vehicle_type_id":"4","last_reported":1728076102,"current_range_meters":10800,"station_id":"ce4bhu92rcd13ifvqi70","pricing_plan_id":"cebpf4jnsgd1na2vs0mg"},{"bike_id":"1544a62c-d77b-48ed-bac4-75ba00a4f909","system_id":"levelo_inurba_marseille","lat":43.22927,"lon":5.35376,"is_reserved":false,"is_disabled":false,"rental_uris":{"android":"levelo://app?vid=1544a62c-d77b-48ed-bac4-75ba00a4f909","ios":"levelo://app?vid=1544a62c-d77b-48ed-bac4-75ba00a4f909"},"vehicle_type_id":"4","last_reported":1728076102,"current_range_meters":32000,"station_id":"cpo3532slgdg3j2ikp40","pricing_plan_id":"cebpf4jnsgd1na2vs0mg"},{"bike_id":"ed0afaed-f916-4854-994b-95ae46c87002","system_id":"levelo_inurba_marseille","lat":43.24666,"lon":5.38167,"is_reserved":false,"is_disabled":false,"rental_uris":{"android":"levelo://app?vid=ed0afaed-f916-4854-994b-95ae46c87002","ios":"levelo://app?vid=ed0afaed-f916-4854-994b-95ae46c87002"},"vehicle_type_id":"4","last_reported":1728076102,"current_range_meters":2800,"station_id":"ce4bhih2rcd13ifvqfr0","pricing_plan_id":"cebpf4jnsgd1na2vs0mg"},{"bike_id":"9c6ceacf-46aa-4972-8a1c-69fbeaf93293","system_id":"levelo_inurba_marseille","lat":43.31754,"lon":5.39026,"is_reserved":false,"is_disabled":false,"rental_uris":{"android":"levelo://app?vid=9c6ceacf-46aa-4972-8a1c-69fbeaf93293","ios":"levelo://app?vid=9c6ceacf-46aa-4972-8a1c-69fbeaf93293"},"vehicle_type_id":"4","last_reported":1728076102,"current_range_meters":10000,"station_id":"ce4bhqp2rcd13ifvqhng","pricing_plan_id":"cebpf4jnsgd1na2vs0mg"},{"bike_id":"ad5f0ac4-f40f-4aa5-9806-22e6bb46df12","system_id":"levelo_inurba_marseille","lat":43.29795,"lon":5.38102,"is_reserved":false,"is_disabled":false,"rental_uris":{"android":"levelo://app?vid=ad5f0ac4-f40f-4aa5-9806-22e6bb46df12","ios":"levelo://app?vid=ad5f0ac4-f40f-4aa5-9806-22e6bb46df12"},"vehicle_type_id":"4","last_reported":1728076102,"current_range_meters":38000,"station_id":"ce4bgip2rcd13ifvqbb0","pricing_plan_id":"cebpf4jnsgd1na2vs0mg"},{"bike_id":"073a9324-28d7-46bb-93ef-72d00d89911c","system_id":"levelo_inurba_marseille","lat":43.29616,"lon":5.37731,"is_reserved":false,"is_disabled":false,"rental_uris":{"android":"levelo://app?vid=073a9324-28d7-46bb-93ef-72d00d89911c","ios":"levelo://app?vid=073a9324-28d7-46bb-93ef-72d00d89911c"},"vehicle_type_id":"4","last_reported":1728076102,"current_range_meters":16800,"station_id":"ce4bgi92rcd13ifvqb90","pricing_plan_id":"cebpf4jnsgd1na2vs0mg"},{"bike_id":"2075e900-2ac5-4699-b760-dcb31fe85674","system_id":"levelo_inurba_marseille","lat":43.30126,"lon":5.39848,"is_reserved":false,"is_disabled":false,"rental_uris":{"android":"levelo://app?vid=2075e900-2ac5-4699-b760-dcb31fe85674","ios":"levelo://app?vid=2075e900-2ac5-4699-b760-dcb31fe85674"},"vehicle_type_id":"4","last_reported":1728076102,"current_range_meters":26800,"station_id":"ce4bh0h2rcd13ifvqd40","pricing_plan_id":"cebpf4jnsgd1na2vs0mg"},{"bike_id":"c3c07741-79bf-4521-9926-981c37f32de4","system_id":"levelo_inurba_marseille","lat":43.30246,"lon":5.40067,"is_reserved":false,"is_disabled":false,"rental_uris":{"android":"levelo://app?vid=c3c07741-79bf-4521-9926-981c37f32de4","ios":"levelo://app?vid=c3c07741-79bf-4521-9926-981c37f32de4"},"vehicle_type_id":"4","last_reported":1728076102,"current_range_meters":38800,"station_id":"ce4bgvh2rcd13ifvqcs0","pricing_plan_id":"cebpf4jnsgd1na2vs0mg"},{"bike_id":"f859f821-9bcf-4b8a-ab53-338d5f943e29","system_id":"levelo_inurba_marseille","lat":43.27425,"lon":5.39414,"is_reserved":false,"is_disabled":false,"rental_uris":{"android":"levelo://app?vid=f859f821-9bcf-4b8a-ab53-338d5f943e29","ios":"levelo://app?vid=f859f821-9bcf-4b8a-ab53-338d5f943e29"},"vehicle_type_id":"4","last_reported":1728076102,"current_range_meters":3200,"station_id":"ce4bhdp2rcd13ifvqf20","pricing_plan_id":"cebpf4jnsgd1na2vs0mg"},{"bike_id":"3fcada9b-94d2-4f2c-b11e-57358f7bc56c","system_id":"levelo_inurba_marseille","lat":43.31167,"lon":5.38711,"is_reserved":false,"is_disabled":false,"rental_uris":{"android":"levelo://app?vid=3fcada9b-94d2-4f2c-b11e-57358f7bc56c","ios":"levelo://app?vid=3fcada9b-94d2-4f2c-b11e-57358f7bc56c"},"vehicle_type_id":"4","last_reported":1728076102,"current_range_meters":24400,"station_id":"ce4bgv12rcd13ifvqcp0","pricing_plan_id":"cebpf4jnsgd1na2vs0mg"},{"bike_id":"fa6cfb62-5326-4ccd-9577-45335a9efc7e","system_id":"levelo_inurba_marseille","lat":43.2511,"lon":5.40321,"is_reserved":false,"is_disabled":false,"rental_uris":{"android":"levelo://app?vid=fa6cfb62-5326-4ccd-9577-45335a9efc7e","ios":"levelo://app?vid=fa6cfb62-5326-4ccd-9577-45335a9efc7e"},"vehicle_type_id":"4","last_reported":1728076102,"current_range_meters":23200,"station_id":"ce4bhlh2rcd13ifvqgig","pricing_plan_id":"cebpf4jnsgd1na2vs0mg"},{"bike_id":"14f86341-5383-4db0-95f3-8630295bc478","system_id":"levelo_inurba_marseille","lat":43.29871,"lon":5.39744,"is_reserved":false,"is_disabled":false,"rental_uris":{"android":"levelo://app?vid=14f86341-5383-4db0-95f3-8630295bc478","ios":"levelo://app?vid=14f86341-5383-4db0-95f3-8630295bc478"},"vehicle_type_id":"4","last_reported":1728076102,"current_range_meters":28400,"station_id":"ce4bh0h2rcd13ifvqd50","pricing_plan_id":"cebpf4jnsgd1na2vs0mg"},{"bike_id":"a5ee0aa3-d510-48c1-9d63-37f1e44c2d45","system_id":"levelo_inurba_marseille","lat":43.30197,"lon":5.36636,"is_reserved":false,"is_disabled":false,"rental_uris":{"android":"levelo://app?vid=a5ee0aa3-d510-48c1-9d63-37f1e44c2d45","ios":"levelo://app?vid=a5ee0aa3-d510-48c1-9d63-37f1e44c2d45"},"vehicle_type_id":"4","last_reported":1728076102,"current_range_meters":4400,"station_id":"ce4bgrh2rcd13ifvqc8g","pricing_plan_id":"cebpf4jnsgd1na2vs0mg"},{"bike_id":"2164c337-784a-41ff-a447-693101cef04e","system_id":"levelo_inurba_marseille","lat":43.31233,"lon":5.36867,"is_reserved":false,"is_disabled":false,"rental_uris":{"android":"levelo://app?vid=2164c337-784a-41ff-a447-693101cef04e","ios":"levelo://app?vid=2164c337-784a-41ff-a447-693101cef04e"},"vehicle_type_id":"4","last_reported":1728076102,"current_range_meters":38800,"station_id":"ce4bgl92rcd13ifvqbq0","pricing_plan_id":"cebpf4jnsgd1na2vs0mg"},{"bike_id":"4b8045ea-85f9-4f13-90aa-ecf45499e1f1","system_id":"levelo_inurba_marseille","lat":43.29293,"lon":5.37445,"is_reserved":false,"is_disabled":false,"rental_uris":{"android":"levelo://app?vid=4b8045ea-85f9-4f13-90aa-ecf45499e1f1","ios":"levelo://app?vid=4b8045ea-85f9-4f13-90aa-ecf45499e1f1"},"vehicle_type_id":"4","last_reported":1728076102,"current_range_meters":31200,"station_id":"ce4bgi12rcd13ifvqb70","pricing_plan_id":"cebpf4jnsgd1na2vs0mg"},{"bike_id":"701e38d8-f93a-4ddd-b46a-2e7f85681887","system_id":"levelo_inurba_marseille","lat":43.29049,"lon":5.35913,"is_reserved":false,"is_disabled":false,"rental_uris":{"android":"levelo://app?vid=701e38d8-f93a-4ddd-b46a-2e7f85681887","ios":"levelo://app?vid=701e38d8-f93a-4ddd-b46a-2e7f85681887"},"vehicle_type_id":"4","last_reported":1728076102,"current_range_meters":10800,"station_id":"ce4bha92rcd13ifvqeg0","pricing_plan_id":"cebpf4jnsgd1na2vs0mg"},{"bike_id":"f791d285-e796-472d-a2e8-a373dd52bfca","system_id":"levelo_inurba_marseille","lat":43.250865,"lon":5.395158,"is_reserved":false,"is_disabled":false,"rental_uris":{"android":"levelo://app?vid=f791d285-e796-472d-a2e8-a373dd52bfca","ios":"levelo://app?vid=f791d285-e796-472d-a2e8-a373dd52bfca"},"vehicle_type_id":"4","last_reported":1728076102,"current_range_meters":38800,"station_id":"ce4bhm12rcd13ifvqgkg","pricing_plan_id":"cebpf4jnsgd1na2vs0mg"},{"bike_id":"e315600c-3ff8-4893-abe5-0c310d48465d","system_id":"levelo_inurba_marseille","lat":43.33768,"lon":5.37447,"is_reserved":false,"is_disabled":false,"rental_uris":{"android":"levelo://app?vid=e315600c-3ff8-4893-abe5-0c310d48465d","ios":"levelo://app?vid=e315600c-3ff8-4893-abe5-0c310d48465d"},"vehicle_type_id":"4","last_reported":1728076102,"current_range_meters":36400,"station_id":"","pricing_plan_id":"cebpf4jnsgd1na2vs0mg"},{"bike_id":"b791cdb0-446b-400c-9f6d-a092c514a36e","system_id":"levelo_inurba_marseille","lat":43.26201,"lon":5.3793,"is_reserved":false,"is_disabled":false,"rental_uris":{"android":"levelo://app?vid=b791cdb0-446b-400c-9f6d-a092c514a36e","ios":"levelo://app?vid=b791cdb0-446b-400c-9f6d-a092c514a36e"},"vehicle_type_id":"4","last_reported":1728076102,"current_range_meters":36000,"station_id":"ce4bhjp2rcd13ifvqg90","pricing_plan_id":"cebpf4jnsgd1na2vs0mg"},{"bike_id":"c3b6f2a9-0f40-4b3c-a8dd-f566325d16a7","system_id":"levelo_inurba_marseille","lat":43.28618,"lon":5.35106,"is_reserved":false,"is_disabled":false,"rental_uris":{"android":"levelo://app?vid=c3b6f2a9-0f40-4b3c-a8dd-f566325d16a7","ios":"levelo://app?vid=c3b6f2a9-0f40-4b3c-a8dd-f566325d16a7"},"vehicle_type_id":"4","last_reported":1728076102,"current_range_meters":30000,"station_id":"ce4bhch2rcd13ifvqeug","pricing_plan_id":"cebpf4jnsgd1na2vs0mg"},{"bike_id":"cfd23752-aebf-42e3-9228-b1e5e8c68d80","system_id":"levelo_inurba_marseille","lat":43.29554,"lon":5.42283,"is_reserved":false,"is_disabled":false,"rental_uris":{"android":"levelo://app?vid=cfd23752-aebf-42e3-9228-b1e5e8c68d80","ios":"levelo://app?vid=cfd23752-aebf-42e3-9228-b1e5e8c68d80"},"vehicle_type_id":"4","last_reported":1728076102,"current_range_meters":18000,"station_id":"ce4bhph2rcd13ifvqhdg","pricing_plan_id":"cebpf4jnsgd1na2vs0mg"},{"bike_id":"13e07ff9-e526-4f6b-bdb1-c99009ad9a42","system_id":"levelo_inurba_marseille","lat":43.2985,"lon":5.36286,"is_reserved":false,"is_disabled":false,"rental_uris":{"android":"levelo://app?vid=13e07ff9-e526-4f6b-bdb1-c99009ad9a42","ios":"levelo://app?vid=13e07ff9-e526-4f6b-bdb1-c99009ad9a42"},"vehicle_type_id":"4","last_reported":1728076102,"current_range_meters":36400,"station_id":"ce4bgpp2rcd13ifvqc3g","pricing_plan_id":"cebpf4jnsgd1na2vs0mg"},{"bike_id":"c9e9e421-a30d-491a-9a69-a4fe87aaa026","system_id":"levelo_inurba_marseille","lat":43.29025,"lon":5.38639,"is_reserved":false,"is_disabled":false,"rental_uris":{"android":"levelo://app?vid=c9e9e421-a30d-491a-9a69-a4fe87aaa026","ios":"levelo://app?vid=c9e9e421-a30d-491a-9a69-a4fe87aaa026"},"vehicle_type_id":"4","last_reported":1728076102,"current_range_meters":8000,"station_id":"ce4bh4p2rcd13ifvqe0g","pricing_plan_id":"cebpf4jnsgd1na2vs0mg"},{"bike_id":"0125b840-2a50-4aad-afec-ea2211d7e78e","system_id":"levelo_inurba_marseille","lat":43.2583,"lon":5.39434,"is_reserved":false,"is_disabled":false,"rental_uris":{"android":"levelo://app?vid=0125b840-2a50-4aad-afec-ea2211d7e78e","ios":"levelo://app?vid=0125b840-2a50-4aad-afec-ea2211d7e78e"},"vehicle_type_id":"4","last_reported":1728076102,"current_range_meters":38800,"station_id":"ce4bhip2rcd13ifvqft0","pricing_plan_id":"cebpf4jnsgd1na2vs0mg"},{"bike_id":"740aa9b1-bf7f-495f-b4b6-8c44676bc674","system_id":"levelo_inurba_marseille","lat":43.33757,"lon":5.37447,"is_reserved":false,"is_disabled":false,"rental_uris":{"android":"levelo://app?vid=740aa9b1-bf7f-495f-b4b6-8c44676bc674","ios":"levelo://app?vid=740aa9b1-bf7f-495f-b4b6-8c44676bc674"},"vehicle_type_id":"4","last_reported":1728076102,"current_range_meters":6800,"station_id":"","pricing_plan_id":"cebpf4jnsgd1na2vs0mg"},{"bike_id":"b9481d32-bc24-4783-849f-abb295de4957","system_id":"levelo_inurba_marseille","lat":43.32278,"lon":5.40665,"is_reserved":false,"is_disabled":false,"rental_uris":{"android":"levelo://app?vid=b9481d32-bc24-4783-849f-abb295de4957","ios":"levelo://app?vid=b9481d32-bc24-4783-849f-abb295de4957"},"vehicle_type_id":"4","last_reported":1728076102,"current_range_meters":35200,"station_id":"ce4bhq92rcd13ifvqhjg","pricing_plan_id":"cebpf4jnsgd1na2vs0mg"},{"bike_id":"ed92d9bd-59af-4997-9146-59ecb501e1ab","system_id":"levelo_inurba_marseille","lat":43.31725,"lon":5.42398,"is_reserved":false,"is_disabled":false,"rental_uris":{"android":"levelo://app?vid=ed92d9bd-59af-4997-9146-59ecb501e1ab","ios":"levelo://app?vid=ed92d9bd-59af-4997-9146-59ecb501e1ab"},"vehicle_type_id":"4","last_reported":1728076102,"current_range_meters":20000,"station_id":"ce4bhp92rcd13ifvqhbg","pricing_plan_id":"cebpf4jnsgd1na2vs0mg"},{"bike_id":"77b9203a-0842-4b45-acd8-ada92dfc3441","system_id":"levelo_inurba_marseille","lat":43.29922,"lon":5.38188,"is_reserved":false,"is_disabled":false,"rental_uris":{"android":"levelo://app?vid=77b9203a-0842-4b45-acd8-ada92dfc3441","ios":"levelo://app?vid=77b9203a-0842-4b45-acd8-ada92dfc3441"},"vehicle_type_id":"4","last_reported":1728076102,"current_range_meters":16400,"station_id":"ce4bgj12rcd13ifvqbc0","pricing_plan_id":"cebpf4jnsgd1na2vs0mg"},{"bike_id":"8c61526c-2d67-4b1a-8f32-0018924d753f","system_id":"levelo_inurba_marseille","lat":43.337444,"lon":5.374475,"is_reserved":false,"is_disabled":false,"rental_uris":{"android":"levelo://app?vid=8c61526c-2d67-4b1a-8f32-0018924d753f","ios":"levelo://app?vid=8c61526c-2d67-4b1a-8f32-0018924d753f"},"vehicle_type_id":"4","last_reported":1728076102,"current_range_meters":37600,"station_id":"","pricing_plan_id":"cebpf4jnsgd1na2vs0mg"},{"bike_id":"da04ce3f-1193-4c8b-b3d7-36532091a042","system_id":"levelo_inurba_marseille","lat":43.30353,"lon":5.41881,"is_reserved":false,"is_disabled":false,"rental_uris":{"android":"levelo://app?vid=da04ce3f-1193-4c8b-b3d7-36532091a042","ios":"levelo://app?vid=da04ce3f-1193-4c8b-b3d7-36532091a042"},"vehicle_type_id":"4","last_reported":1728076102,"current_range_meters":24400,"station_id":"ce4bhop2rcd13ifvqh7g","pricing_plan_id":"cebpf4jnsgd1na2vs0mg"},{"bike_id":"8144202e-a3ba-49df-b3fa-2014206aebe6","system_id":"levelo_inurba_marseille","lat":43.23156,"lon":5.43714,"is_reserved":false,"is_disabled":false,"rental_uris":{"android":"levelo://app?vid=8144202e-a3ba-49df-b3fa-2014206aebe6","ios":"levelo://app?vid=8144202e-a3ba-49df-b3fa-2014206aebe6"},"vehicle_type_id":"4","last_reported":1728076102,"current_range_meters":17600,"station_id":"ce4bhmp2rcd13ifvqgog","pricing_plan_id":"cebpf4jnsgd1na2vs0mg"},{"bike_id":"d27dfd94-1527-4a32-acfe-b6773691790b","system_id":"levelo_inurba_marseille","lat":43.33728,"lon":5.39183,"is_reserved":false,"is_disabled":false,"rental_uris":{"android":"levelo://app?vid=d27dfd94-1527-4a32-acfe-b6773691790b","ios":"levelo://app?vid=d27dfd94-1527-4a32-acfe-b6773691790b"},"vehicle_type_id":"4","last_reported":1728076102,"current_range_meters":36000,"station_id":"ce4bhr92rcd13ifvqhsg","pricing_plan_id":"cebpf4jnsgd1na2vs0mg"},{"bike_id":"07275201-8e7a-45f4-a4bd-8587084835d5","system_id":"levelo_inurba_marseille","lat":43.23965,"lon":5.36639,"is_reserved":false,"is_disabled":false,"rental_uris":{"android":"levelo://app?vid=07275201-8e7a-45f4-a4bd-8587084835d5","ios":"levelo://app?vid=07275201-8e7a-45f4-a4bd-8587084835d5"},"vehicle_type_id":"4","last_reported":1728076102,"current_range_meters":38800,"station_id":"ce4bhi12rcd13ifvqfp0","pricing_plan_id":"cebpf4jnsgd1na2vs0mg"},{"bike_id":"736c854e-6d10-4723-b06e-7032c36e3ae8","system_id":"levelo_inurba_marseille","lat":43.31065,"lon":5.38352,"is_reserved":false,"is_disabled":false,"rental_uris":{"android":"levelo://app?vid=736c854e-6d10-4723-b06e-7032c36e3ae8","ios":"levelo://app?vid=736c854e-6d10-4723-b06e-7032c36e3ae8"},"vehicle_type_id":"4","last_reported":1728076102,"current_range_meters":38800,"station_id":"ce4bgv92rcd13ifvqcr0","pricing_plan_id":"cebpf4jnsgd1na2vs0mg"},{"bike_id":"951f6f7d-f60d-4524-929f-7de2b3e6962b","system_id":"levelo_inurba_marseille","lat":43.24666,"lon":5.38166,"is_reserved":false,"is_disabled":false,"rental_uris":{"android":"levelo://app?vid=951f6f7d-f60d-4524-929f-7de2b3e6962b","ios":"levelo://app?vid=951f6f7d-f60d-4524-929f-7de2b3e6962b"},"vehicle_type_id":"4","last_reported":1728076102,"current_range_meters":18800,"station_id":"ce4bhih2rcd13ifvqfr0","pricing_plan_id":"cebpf4jnsgd1na2vs0mg"},{"bike_id":"6b315d99-3ae8-4acd-8c24-9531c7a83eb8","system_id":"levelo_inurba_marseille","lat":43.23063,"lon":5.35493,"is_reserved":false,"is_disabled":false,"rental_uris":{"android":"levelo://app?vid=6b315d99-3ae8-4acd-8c24-9531c7a83eb8","ios":"levelo://app?vid=6b315d99-3ae8-4acd-8c24-9531c7a83eb8"},"vehicle_type_id":"4","last_reported":1728076102,"current_range_meters":17200,"station_id":"cpo3342slgdg3j2ifvpg","pricing_plan_id":"cebpf4jnsgd1na2vs0mg"},{"bike_id":"d26e4c8e-6154-43fe-9bb3-8cfbcdb85e0a","system_id":"levelo_inurba_marseille","lat":43.30333,"lon":5.37048,"is_reserved":false,"is_disabled":false,"rental_uris":{"android":"levelo://app?vid=d26e4c8e-6154-43fe-9bb3-8cfbcdb85e0a","ios":"levelo://app?vid=d26e4c8e-6154-43fe-9bb3-8cfbcdb85e0a"},"vehicle_type_id":"4","last_reported":1728076102,"current_range_meters":6000,"station_id":"","pricing_plan_id":"cebpf4jnsgd1na2vs0mg"},{"bike_id":"d60a2ad1-bab5-4a86-b7f0-5de632f15a3e","system_id":"levelo_inurba_marseille","lat":43.2803,"lon":5.36948,"is_reserved":false,"is_disabled":false,"rental_uris":{"android":"levelo://app?vid=d60a2ad1-bab5-4a86-b7f0-5de632f15a3e","ios":"levelo://app?vid=d60a2ad1-bab5-4a86-b7f0-5de632f15a3e"},"vehicle_type_id":"4","last_reported":1728076102,"current_range_meters":18000,"station_id":"ce4bha12rcd13ifvqef0","pricing_plan_id":"cebpf4jnsgd1na2vs0mg"},{"bike_id":"55188226-ff9f-45e8-99b6-3c0c54d286d9","system_id":"levelo_inurba_marseille","lat":43.284453,"lon":5.366471,"is_reserved":false,"is_disabled":false,"rental_uris":{"android":"levelo://app?vid=55188226-ff9f-45e8-99b6-3c0c54d286d9","ios":"levelo://app?vid=55188226-ff9f-45e8-99b6-3c0c54d286d9"},"vehicle_type_id":"4","last_reported":1728076102,"current_range_meters":6400,"station_id":"ce4bhbp2rcd13ifvqerg","pricing_plan_id":"cebpf4jnsgd1na2vs0mg"},{"bike_id":"e1340993-8a3f-49e6-9408-019ab5996aa0","system_id":"levelo_inurba_marseille","lat":43.29725,"lon":5.3769,"is_reserved":false,"is_disabled":false,"rental_uris":{"android":"levelo://app?vid=e1340993-8a3f-49e6-9408-019ab5996aa0","ios":"levelo://app?vid=e1340993-8a3f-49e6-9408-019ab5996aa0"},"vehicle_type_id":"4","last_reported":1728076102,"current_range_meters":28400,"station_id":"ce4bgkh2rcd13ifvqbl0","pricing_plan_id":"cebpf4jnsgd1na2vs0mg"},{"bike_id":"a939195f-a8e4-4c38-8887-21e33dec6018","system_id":"levelo_inurba_marseille","lat":43.25583,"lon":5.38239,"is_reserved":false,"is_disabled":false,"rental_uris":{"android":"levelo://app?vid=a939195f-a8e4-4c38-8887-21e33dec6018","ios":"levelo://app?vid=a939195f-a8e4-4c38-8887-21e33dec6018"},