{"last_updated":1741839098,"ttl":60,"version":"2.2","data":{"bikes":[{"bike_id":"8447b2d4-400b-4f74-8048-25cf7f1ca261","system_id":"levelo_inurba_marseille","lat":43.23186,"lon":5.3998,"is_reserved":false,"is_disabled":false,"rental_uris":{"android":"levelo://app?vid=8447b2d4-400b-4f74-8048-25cf7f1ca261","ios":"levelo://app?vid=8447b2d4-400b-4f74-8048-25cf7f1ca261"},"vehicle_type_id":"4","last_reported":1741839099,"current_range_meters":2800,"station_id":"ce4bhn12rcd13ifvqgqg","pricing_plan_id":"cebpf4jnsgd1na2vs0mg"},{"bike_id":"e8ebfdbe-ea63-4592-a79a-3d110a8bd4cb","system_id":"levelo_inurba_marseille","lat":43.281534,"lon":5.426438,"is_reserved":false,"is_disabled":false,"rental_uris":{"android":"levelo://app?vid=e8ebfdbe-ea63-4592-a79a-3d110a8bd4cb","ios":"levelo://app?vid=e8ebfdbe-ea63-4592-a79a-3d110a8bd4cb"},"vehicle_type_id":"4","last_reported":1741839099,"current_range_meters":2800,"station_id":"ce4bhnh2rcd13ifvqgug","pricing_plan_id":"cebpf4jnsgd1na2vs0mg"},{"bike_id":"89f5252d-ca6b-4c4a-8924-1e95cb6ec267","system_id":"levelo_inurba_marseille","lat":43.239625,"lon":5.366285,"is_reserved":false,"is_disabled":false,"rental_uris":{"android":"levelo://app?vid=89f5252d-ca6b-4c4a-8924-1e95cb6ec267","ios":"levelo://app?vid=89f5252d-ca6b-4c4a-8924-1e95cb6ec267"},"vehicle_type_id":"4","last_reported":1741839099,"current_range_meters":2800,"station_id":"ce4bhi12rcd13ifvqfp0","pricing_plan_id":"cebpf4jnsgd1na2vs0mg"},{"bike_id":"80771939-f406-42f7-81c5-33180fd8a338","system_id":"levelo_inurba_marseille","lat":43.23193,"lon":5.35551,"is_reserved":false,"is_disabled":false,"rental_uris":{"android":"levelo://app?vid=80771939-f406-42f7-81c5-33180fd8a338","ios":"levelo://app?vid=80771939-f406-42f7-81c5-33180fd8a338"},"vehicle_type_id":"4","last_reported":1741839099,"current_range_meters":2800,"station_id":"ce4bhu92rcd13ifvqi70","pricing_plan_id":"cebpf4jnsgd1na2vs0mg"},{"bike_id":"94eb9559-8c4f-4d60-98ac-469a5ce58b64","system_id":"levelo_inurba_marseille","lat":43.24648,"lon":5.38912,"is_reserved":false,"is_disabled":false,"rental_uris":{"android":"levelo://app?vid=94eb9559-8c4f-4d60-98ac-469a5ce58b64","ios":"levelo://app?vid=94eb9559-8c4f-4d60-98ac-469a5ce58b64"},"vehicle_type_id":"4","last_reported":1741839099,"current_range_meters":2800,"station_id":"ce4bhg12rcd13ifvqf60","pricing_plan_id":"cebpf4jnsgd1na2vs0mg"},{"bike_id":"22b98247-434c-4803-9a50-f2f855a35c40","system_id":"levelo_inurba_marseille","lat":43.2507,"lon":5.39501,"is_reserved":false,"is_disabled":false,"rental_uris":{"android":"levelo://app?vid=22b98247-434c-4803-9a50-f2f855a35c40","ios":"levelo://app?vid=22b98247-434c-4803-9a50-f2f855a35c40"},"vehicle_type_id":"4","last_reported":1741839099,"current_range_meters":3200,"station_id":"ce4bhm12rcd13ifvqgkg","pricing_plan_id":"cebpf4jnsgd1na2vs0mg"},{"bike_id":"26a717af-e6c4-4ae5-8714-7c03042cc345","system_id":"levelo_inurba_marseille","lat":43.24086,"lon":5.37744,"is_reserved":false,"is_disabled":false,"rental_uris":{"android":"levelo://app?vid=26a717af-e6c4-4ae5-8714-7c03042cc345","ios":"levelo://app?vid=26a717af-e6c4-4ae5-8714-7c03042cc345"},"vehicle_type_id":"4","last_reported":1741839099,"current_range_meters":3200,"station_id":"ce4bhnp2rcd13ifvqgvg","pricing_plan_id":"cebpf4jnsgd1na2vs0mg"},{"bike_id":"58d1b5b3-d322-4418-97d0-3066ec3d9afc","system_id":"levelo_inurba_marseille","lat":43.23206,"lon":5.35548,"is_reserved":false,"is_disabled":false,"rental_uris":{"android":"levelo://app?vid=58d1b5b3-d322-4418-97d0-3066ec3d9afc","ios":"levelo://app?vid=58d1b5b3-d322-4418-97d0-3066ec3d9afc"},"vehicle_type_id":"4","last_reported":1741839099,"current_range_meters":3200,"station_id":"ce4bhu92rcd13ifvqi70","pricing_plan_id":"cebpf4jnsgd1na2vs0mg"},{"bike_id":"df709620-a118-4505-9780-01081510aa06","system_id":"levelo_inurba_marseille","lat":43.24073,"lon":5.37734,"is_reserved":false,"is_disabled":false,"rental_uris":{"android":"levelo://app?vid=df709620-a118-4505-9780-01081510aa06","ios":"levelo://app?vid=df709620-a118-4505-9780-01081510aa06"},"vehicle_type_id":"4","last_reported":1741839099,"current_range_meters":3600,"station_id":"ce4bhnp2rcd13ifvqgvg","pricing_plan_id":"cebpf4jnsgd1na2vs0mg"},{"bike_id":"bd0dd24d-2909-4c33-8151-ab5f1a6c3ddd","system_id":"levelo_inurba_marseille","lat":43.28447,"lon":5.39177,"is_reserved":false,"is_disabled":true,"rental_uris":{"android":"levelo://app?vid=bd0dd24d-2909-4c33-8151-ab5f1a6c3ddd","ios":"levelo://app?vid=bd0dd24d-2909-4c33-8151-ab5f1a6c3ddd"},"vehicle_type_id":"4","last_reported":1741839099,"current_range_meters":3600,"station_id":"ce4bhoh2rcd13ifvqh5g","pricing_plan_id":"cebpf4jnsgd1na2vs0mg"},{"bike_id":"985ba300-542a-4309-8532-765e28bc8981","system_id":"levelo_inurba_marseille","lat":43.30812,"lon":5.36947,"is_reserved":false,"is_disabled":false,"rental_uris":{"android":"levelo://app?vid=985ba300-542a-4309-8532-765e28bc8981","ios":"levelo://app?vid=985ba300-542a-4309-8532-765e28bc8981"},"vehicle_type_id":"4","last_reported":1741839099,"current_range_meters":3600,"station_id":"","pricing_plan_id":"cebpf4jnsgd1na2vs0mg"},{"bike_id":"5eef5338-ff8a-466a-999e-0f162b00ff22","system_id":"levelo_inurba_marseille","lat":43.2456,"lon":5.395,"is_reserved":false,"is_disabled":false,"rental_uris":{"android":"levelo://app?vid=5eef5338-ff8a-466a-999e-0f162b00ff22","ios":"levelo://app?vid=5eef5338-ff8a-466a-999e-0f162b00ff22"},"vehicle_type_id":"4","last_reported":1741839099,"current_range_meters":3600,"station_id":"ce4bhlp2rcd13ifvqgjg","pricing_plan_id":"cebpf4jnsgd1na2vs0mg"},{"bike_id":"f43a547a-a63f-466e-891d-16f53f2a7257","system_id":"levelo_inurba_marseille","lat":43.28035,"lon":5.36935,"is_reserved":false,"is_disabled":false,"rental_uris":{"android":"levelo://app?vid=f43a547a-a63f-466e-891d-16f53f2a7257","ios":"levelo://app?vid=f43a547a-a63f-466e-891d-16f53f2a7257"},"vehicle_type_id":"4","last_reported":1741839099,"current_range_meters":4000,"station_id":"ce4bha12rcd13ifvqef0","pricing_plan_id":"cebpf4jnsgd1na2vs0mg"},{"bike_id":"600eceee-4e0b-43df-8f60-e66cd0890f69","system_id":"levelo_inurba_marseille","lat":43.24387,"lon":5.37053,"is_reserved":false,"is_disabled":false,"rental_uris":{"android":"levelo://app?vid=600eceee-4e0b-43df-8f60-e66cd0890f69","ios":"levelo://app?vid=600eceee-4e0b-43df-8f60-e66cd0890f69"},"vehicle_type_id":"4","last_reported":1741839099,"current_range_meters":4000,"station_id":"ce4bhhh2rcd13ifvqfk0","pricing_plan_id":"cebpf4jnsgd1na2vs0mg"},{"bike_id":"241d79a7-8164-4ee5-8d3f-2565e2e0b3e8","system_id":"levelo_inurba_marseille","lat":43.31349,"lon":5.37942,"is_reserved":false,"is_disabled":false,"rental_uris":{"android":"levelo://app?vid=241d79a7-8164-4ee5-8d3f-2565e2e0b3e8","ios":"levelo://app?vid=241d79a7-8164-4ee5-8d3f-2565e2e0b3e8"},"vehicle_type_id":"4","last_reported":1741839099,"current_range_meters":4400,"station_id":"","pricing_plan_id":"cebpf4jnsgd1na2vs0mg"},{"bike_id":"e79b4c35-5d5e-4e09-99ae-f045e454b792","system_id":"levelo_inurba_marseille","lat":43.248093,"lon":5.374594,"is_reserved":false,"is_disabled":false,"rental_uris":{"android":"levelo://app?vid=e79b4c35-5d5e-4e09-99ae-f045e454b792","ios":"levelo://app?vid=e79b4c35-5d5e-4e09-99ae-f045e454b792"},"vehicle_type_id":"4","last_reported":1741839099,"current_range_meters":4400,"station_id":"ce4bhgh2rcd13ifvqfb0","pricing_plan_id":"cebpf4jnsgd1na2vs0mg"},{"bike_id":"1bb5dae5-2cdb-43ae-b04c-dad911982ded","system_id":"levelo_inurba_marseille","lat":43.251106,"lon":5.403118,"is_reserved":false,"is_disabled":false,"rental_uris":{"android":"levelo://app?vid=1bb5dae5-2cdb-43ae-b04c-dad911982ded","ios":"levelo://app?vid=1bb5dae5-2cdb-43ae-b04c-dad911982ded"},"vehicle_type_id":"4","last_reported":1741839099,"current_range_meters":4400,"station_id":"ce4bhlh2rcd13ifvqgig","pricing_plan_id":"cebpf4jnsgd1na2vs0mg"},{"bike_id":"f640465e-8c9e-425a-8e36-08d8d5201bf6","system_id":"levelo_inurba_marseille","lat":43.23198,"lon":5.35535,"is_reserved":false,"is_disabled":false,"rental_uris":{"android":"levelo://app?vid=f640465e-8c9e-425a-8e36-08d8d5201bf6","ios":"levelo://app?vid=f640465e-8c9e-425a-8e36-08d8d5201bf6"},"vehicle_type_id":"4","last_reported":1741839099,"current_range_meters":4400,"station_id":"ce4bhu92rcd13ifvqi70","pricing_plan_id":"cebpf4jnsgd1na2vs0mg"},{"bike_id":"fe2df0c6-5c80-48e4-8f5a-0f265c162888","system_id":"levelo_inurba_marseille","lat":43.27956,"lon":5.41019,"is_reserved":false,"is_disabled":false,"rental_uris":{"android":"levelo://app?vid=fe2df0c6-5c80-48e4-8f5a-0f265c162888","ios":"levelo://app?vid=fe2df0c6-5c80-48e4-8f5a-0f265c162888"},"vehicle_type_id":"4","last_reported":1741839099,"current_range_meters":4800,"station_id":"ce4bhnp2rcd13ifvqh0g","pricing_plan_id":"cebpf4jnsgd1na2vs0mg"},{"bike_id":"53bbc677-f662-4a74-ab20-889cce9f6bff","system_id":"levelo_inurba_marseille","lat":43.23194,"lon":5.3997,"is_reserved":false,"is_disabled":false,"rental_uris":{"android":"levelo://app?vid=53bbc677-f662-4a74-ab20-889cce9f6bff","ios":"levelo://app?vid=53bbc677-f662-4a74-ab20-889cce9f6bff"},"vehicle_type_id":"4","last_reported":1741839099,"current_range_meters":4800,"station_id":"ce4bhn12rcd13ifvqgqg","pricing_plan_id":"cebpf4jnsgd1na2vs0mg"},{"bike_id":"e649e2d0-af54-4ce5-b5f7-1fd68a3b0a85","system_id":"levelo_inurba_marseille","lat":43.28146,"lon":5.42653,"is_reserved":false,"is_disabled":false,"rental_uris":{"android":"levelo://app?vid=e649e2d0-af54-4ce5-b5f7-1fd68a3b0a85","ios":"levelo://app?vid=e649e2d0-af54-4ce5-b5f7-1fd68a3b0a85"},"vehicle_type_id":"4","last_reported":1741839099,"current_range_meters":4800,"station_id":"ce4bhnh2rcd13ifvqgug","pricing_plan_id":"cebpf4jnsgd1na2vs0mg"},{"bike_id":"a2cce4a4-3c78-443a-b589-60fda7cbbcff","system_id":"levelo_inurba_marseille","lat":43.32037,"lon":5.41527,"is_reserved":false,"is_disabled":false,"rental_uris":{"android":"levelo://app?vid=a2cce4a4-3c78-443a-b589-60fda7cbbcff","ios":"levelo://app?vid=a2cce4a4-3c78-443a-b589-60fda7cbbcff"},"vehicle_type_id":"4","last_reported":1741839099,"current_range_meters":4800,"station_id":"ce4bhq92rcd13ifvqhkg","pricing_plan_id":"cebpf4jnsgd1na2vs0mg"},{"bike_id":"e469069c-50d3-432e-8cd5-d88a0d60c085","system_id":"levelo_inurba_marseille","lat":43.308,"lon":5.38148,"is_reserved":false,"is_disabled":false,"rental_uris":{"android":"levelo://app?vid=e469069c-50d3-432e-8cd5-d88a0d60c085","ios":"levelo://app?vid=e469069c-50d3-432e-8cd5-d88a0d60c085"},"vehicle_type_id":"4","last_reported":1741839099,"current_range_meters":5600,"station_id":"ce4bgt12rcd13ifvqce0","pricing_plan_id":"cebpf4jnsgd1na2vs0mg"},{"bike_id":"44ac2f0b-f0c4-43be-9a21-9dfeb1228fbc","system_id":"levelo_inurba_marseille","lat":43.280793,"lon":5.396489,"is_reserved":false,"is_disabled":false,"rental_uris":{"android":"levelo://app?vid=44ac2f0b-f0c4-43be-9a21-9dfeb1228fbc","ios":"levelo://app?vid=44ac2f0b-f0c4-43be-9a21-9dfeb1228fbc"},"vehicle_type_id":"4","last_reported":1741839099,"current_range_meters":5600,"station_id":"ce4bho12rcd13ifvqh2g","pricing_plan_id":"cebpf4jnsgd1na2vs0mg"},{"bike_id":"a58f07f0-b33f-4953-ab0c-f29dc5595b36","system_id":"levelo_inurba_marseille","lat":43.29013,"lon":5.38142,"is_reserved":false,"is_disabled":true,"rental_uris":{"android":"levelo://app?vid=a58f07f0-b33f-4953-ab0c-f29dc5595b36","ios":"levelo://app?vid=a58f07f0-b33f-4953-ab0c-f29dc5595b36"},"vehicle_type_id":"4","last_reported":1741839099,"current_range_meters":6000,"station_id":"ce4bh4p2rcd13ifvqe1g","pricing_plan_id":"cebpf4jnsgd1na2vs0mg"},{"bike_id":"415e7a31-245d-4ead-9f33-dad092a04302","system_id":"levelo_inurba_marseille","lat":43.23038,"lon":5.35503,"is_reserved":false,"is_disabled":false,"rental_uris":{"android":"levelo://app?vid=415e7a31-245d-4ead-9f33-dad092a04302","ios":"levelo://app?vid=415e7a31-245d-4ead-9f33-dad092a04302"},"vehicle_type_id":"4","last_reported":1741839099,"current_range_meters":6000,"station_id":"cpo3342slgdg3j2ifvpg","pricing_plan_id":"cebpf4jnsgd1na2vs0mg"},{"bike_id":"60addeb5-8b0b-4949-b3a6-5f197b8d4abb","system_id":"levelo_inurba_marseille","lat":43.333485,"lon":5.39645,"is_reserved":false,"is_disabled":false,"rental_uris":{"android":"levelo://app?vid=60addeb5-8b0b-4949-b3a6-5f197b8d4abb","ios":"levelo://app?vid=60addeb5-8b0b-4949-b3a6-5f197b8d4abb"},"vehicle_type_id":"4","last_reported":1741839099,"current_range_meters":6000,"station_id":"","pricing_plan_id":"cebpf4jnsgd1na2vs0mg"},{"bike_id":"ca22ef6f-f9d0-47ed-8a5b-41482f4ea577","system_id":"levelo_inurba_marseille","lat":43.29208,"lon":5.39304,"is_reserved":false,"is_disabled":false,"rental_uris":{"android":"levelo://app?vid=ca22ef6f-f9d0-47ed-8a5b-41482f4ea577","ios":"levelo://app?vid=ca22ef6f-f9d0-47ed-8a5b-41482f4ea577"},"vehicle_type_id":"4","last_reported":1741839099,"current_range_meters":6000,"station_id":"ce4bh192rcd13ifvqdd0","pricing_plan_id":"cebpf4jnsgd1na2vs0mg"},{"bike_id":"60942055-d2d8-4aa9-a28b-001380041759","system_id":"levelo_inurba_marseille","lat":43.282734,"lon":5.350753,"is_reserved":false,"is_disabled":false,"rental_uris":{"android":"levelo://app?vid=60942055-d2d8-4aa9-a28b-001380041759","ios":"levelo://app?vid=60942055-d2d8-4aa9-a28b-001380041759"},"vehicle_type_id":"4","last_reported":1741839099,"current_range_meters":6000,"station_id":"ce4bhbp2rcd13ifvqerg","pricing_plan_id":"cebpf4jnsgd1na2vs0mg"},{"bike_id":"c8424a2d-efd9-4ccf-9fc2-6fdb41afc986","system_id":"levelo_inurba_marseille","lat":43.281533,"lon":5.426433,"is_reserved":false,"is_disabled":false,"rental_uris":{"android":"levelo://app?vid=c8424a2d-efd9-4ccf-9fc2-6fdb41afc986","ios":"levelo://app?vid=c8424a2d-efd9-4ccf-9fc2-6fdb41afc986"},"vehicle_type_id":"4","last_reported":1741839099,"current_range_meters":6000,"station_id":"ce4bhnh2rcd13ifvqgug","pricing_plan_id":"cebpf4jnsgd1na2vs0mg"},{"bike_id":"da440fc7-ae9a-4b21-83c8-a8e662a14c16","system_id":"levelo_inurba_marseille","lat":43.25489,"lon":5.37648,"is_reserved":false,"is_disabled":true,"rental_uris":{"android":"levelo://app?vid=da440fc7-ae9a-4b21-83c8-a8e662a14c16","ios":"levelo://app?vid=da440fc7-ae9a-4b21-83c8-a8e662a14c16"},"vehicle_type_id":"4","last_reported":1741839099,"current_range_meters":6000,"station_id":"ce4bhh12rcd13ifvqff0","pricing_plan_id":"cebpf4jnsgd1na2vs0mg"},{"bike_id":"4b07b260-5fba-4534-bdee-f9c50db59047","system_id":"levelo_inurba_marseille","lat":43.329304,"lon":5.390289,"is_reserved":false,"is_disabled":false,"rental_uris":{"android":"levelo://app?vid=4b07b260-5fba-4534-bdee-f9c50db59047","ios":"levelo://app?vid=4b07b260-5fba-4534-bdee-f9c50db59047"},"vehicle_type_id":"4","last_reported":1741839099,"current_range_meters":6000,"station_id":"","pricing_plan_id":"cebpf4jnsgd1na2vs0mg"},{"bike_id":"e12be538-6dde-4604-98c7-f66a323a5270","system_id":"levelo_inurba_marseille","lat":43.23063,"lon":5.35487,"is_reserved":false,"is_disabled":false,"rental_uris":{"android":"levelo://app?vid=e12be538-6dde-4604-98c7-f66a323a5270","ios":"levelo://app?vid=e12be538-6dde-4604-98c7-f66a323a5270"},"vehicle_type_id":"4","last_reported":1741839099,"current_range_meters":6000,"station_id":"cpo3342slgdg3j2ifvpg","pricing_plan_id":"cebpf4jnsgd1na2vs0mg"},{"bike_id":"feb4b9df-ca5a-441d-8892-405597e7da99","system_id":"levelo_inurba_marseille","lat":43.230607,"lon":5.354939,"is_reserved":false,"is_disabled":false,"rental_uris":{"android":"levelo://app?vid=feb4b9df-ca5a-441d-8892-405597e7da99","ios":"levelo://app?vid=feb4b9df-ca5a-441d-8892-405597e7da99"},"vehicle_type_id":"4","last_reported":1741839099,"current_range_meters":6000,"station_id":"cpo3342slgdg3j2ifvpg","pricing_plan_id":"cebpf4jnsgd1na2vs0mg"},{"bike_id":"72de4c85-7223-490f-9219-5d9d46436df5","system_id":"levelo_inurba_marseille","lat":43.33171,"lon":5.3947,"is_reserved":false,"is_disabled":false,"rental_uris":{"android":"levelo://app?vid=72de4c85-7223-490f-9219-5d9d46436df5","ios":"levelo://app?vid=72de4c85-7223-490f-9219-5d9d46436df5"},"vehicle_type_id":"4","last_reported":1741839099,"current_range_meters":6400,"station_id":"","pricing_plan_id":"cebpf4jnsgd1na2vs0mg"},{"bike_id":"eb08c81c-894a-402c-9c31-f88a336186d4","system_id":"levelo_inurba_marseille","lat":43.31228,"lon":5.36844,"is_reserved":false,"is_disabled":false,"rental_uris":{"android":"levelo://app?vid=eb08c81c-894a-402c-9c31-f88a336186d4","ios":"levelo://app?vid=eb08c81c-894a-402c-9c31-f88a336186d4"},"vehicle_type_id":"4","last_reported":1741839099,"current_range_meters":6400,"station_id":"ce4bgl92rcd13ifvqbq0","pricing_plan_id":"cebpf4jnsgd1na2vs0mg"},{"bike_id":"ef27e8a3-0ddb-45d6-8393-ba5ac76541f6","system_id":"levelo_inurba_marseille","lat":43.231856,"lon":5.39984,"is_reserved":false,"is_disabled":false,"rental_uris":{"android":"levelo://app?vid=ef27e8a3-0ddb-45d6-8393-ba5ac76541f6","ios":"levelo://app?vid=ef27e8a3-0ddb-45d6-8393-ba5ac76541f6"},"vehicle_type_id":"4","last_reported":1741839099,"current_range_meters":6400,"station_id":"ce4bhn12rcd13ifvqgqg","pricing_plan_id":"cebpf4jnsgd1na2vs0mg"},{"bike_id":"fc959b8d-1341-494f-98e8-b88bdc42e5fd","system_id":"levelo_inurba_marseille","lat":43.31987,"lon":5.38143,"is_reserved":false,"is_disabled":false,"rental_uris":{"android":"levelo://app?vid=fc959b8d-1341-494f-98e8-b88bdc42e5fd","ios":"levelo://app?vid=fc959b8d-1341-494f-98e8-b88bdc42e5fd"},"vehicle_type_id":"4","last_reported":1741839099,"current_range_meters":6400,"station_id":"ce4bhr12rcd13ifvqhpg","pricing_plan_id":"cebpf4jnsgd1na2vs0mg"},{"bike_id":"05388ace-665a-4114-a828-939b708a2589","system_id":"levelo_inurba_marseille","lat":43.231896,"lon":5.399769,"is_reserved":false,"is_disabled":false,"rental_uris":{"android":"levelo://app?vid=05388ace-665a-4114-a828-939b708a2589","ios":"levelo://app?vid=05388ace-665a-4114-a828-939b708a2589"},"vehicle_type_id":"4","last_reported":1741839099,"current_range_meters":6400,"station_id":"ce4bhn12rcd13ifvqgqg","pricing_plan_id":"cebpf4jnsgd1na2vs0mg"},{"bike_id":"6d6ee278-de07-4c7e-8835-99d4d94307ac","system_id":"levelo_inurba_marseille","lat":43.27186,"lon":5.40987,"is_reserved":false,"is_disabled":false,"rental_uris":{"android":"levelo://app?vid=6d6ee278-de07-4c7e-8835-99d4d94307ac","ios":"levelo://app?vid=6d6ee278-de07-4c7e-8835-99d4d94307ac"},"vehicle_type_id":"4","last_reported":1741839099,"current_range_meters":6800,"station_id":"ce4bhl12rcd13ifvqgf0","pricing_plan_id":"cebpf4jnsgd1na2vs0mg"},{"bike_id":"2a7a579a-d586-4021-8122-38ee6c198b27","system_id":"levelo_inurba_marseille","lat":43.251126,"lon":5.403216,"is_reserved":false,"is_disabled":false,"rental_uris":{"android":"levelo://app?vid=2a7a579a-d586-4021-8122-38ee6c198b27","ios":"levelo://app?vid=2a7a579a-d586-4021-8122-38ee6c198b27"},"vehicle_type_id":"4","last_reported":1741839099,"current_range_meters":6800,"station_id":"ce4bhlh2rcd13ifvqgig","pricing_plan_id":"cebpf4jnsgd1na2vs0mg"},{"bike_id":"4bd1d516-27fc-4a7a-a82b-0dd452c88ab3","system_id":"levelo_inurba_marseille","lat":43.274903,"lon":5.424551,"is_reserved":false,"is_disabled":false,"rental_uris":{"android":"levelo://app?vid=4bd1d516-27fc-4a7a-a82b-0dd452c88ab3","ios":"levelo://app?vid=4bd1d516-27fc-4a7a-a82b-0dd452c88ab3"},"vehicle_type_id":"4","last_reported":1741839099,"current_range_meters":6800,"station_id":"ce4bhn92rcd13ifvqgrg","pricing_plan_id":"cebpf4jnsgd1na2vs0mg"},{"bike_id":"4abe0b72-3e42-40da-aa7c-65e81840531b","system_id":"levelo_inurba_marseille","lat":43.24647,"lon":5.39594,"is_reserved":false,"is_disabled":false,"rental_uris":{"android":"levelo://app?vid=4abe0b72-3e42-40da-aa7c-65e81840531b","ios":"levelo://app?vid=4abe0b72-3e42-40da-aa7c-65e81840531b"},"vehicle_type_id":"4","last_reported":1741839099,"current_range_meters":6800,"station_id":"","pricing_plan_id":"cebpf4jnsgd1na2vs0mg"},{"bike_id":"966a843b-2687-4bd7-ad0f-8d17709f0fda","system_id":"levelo_inurba_marseille","lat":43.31061,"lon":5.38344,"is_reserved":false,"is_disabled":false,"rental_uris":{"android":"levelo://app?vid=966a843b-2687-4bd7-ad0f-8d17709f0fda","ios":"levelo://app?vid=966a843b-2687-4bd7-ad0f-8d17709f0fda"},"vehicle_type_id":"4","last_reported":1741839099,"current_range_meters":7200,"station_id":"ce4bgv92rcd13ifvqcr0","pricing_plan_id":"cebpf4jnsgd1na2vs0mg"},{"bike_id":"46f2e81a-8d75-4b81-a3ee-d46e23c0fa4e","system_id":"levelo_inurba_marseille","lat":43.245509,"lon":5.395257,"is_reserved":false,"is_disabled":false,"rental_uris":{"android":"levelo://app?vid=46f2e81a-8d75-4b81-a3ee-d46e23c0fa4e","ios":"levelo://app?vid=46f2e81a-8d75-4b81-a3ee-d46e23c0fa4e"},"vehicle_type_id":"4","last_reported":1741839099,"current_range_meters":7200,"station_id":"ce4bhlp2rcd13ifvqgjg","pricing_plan_id":"cebpf4jnsgd1na2vs0mg"},{"bike_id":"633ba8c1-2c9f-4ecd-a921-5eb75731d6da","system_id":"levelo_inurba_marseille","lat":43.287083,"lon":5.37394,"is_reserved":false,"is_disabled":false,"rental_uris":{"android":"levelo://app?vid=633ba8c1-2c9f-4ecd-a921-5eb75731d6da","ios":"levelo://app?vid=633ba8c1-2c9f-4ecd-a921-5eb75731d6da"},"vehicle_type_id":"4","last_reported":1741839099,"current_range_meters":7200,"station_id":"ce4bh3p2rcd13ifvqdq0","pricing_plan_id":"cebpf4jnsgd1na2vs0mg"},{"bike_id":"21202178-9a74-4bc8-9d9e-6fb631a00822","system_id":"levelo_inurba_marseille","lat":43.2981,"lon":5.37348,"is_reserved":false,"is_disabled":false,"rental_uris":{"android":"levelo://app?vid=21202178-9a74-4bc8-9d9e-6fb631a00822","ios":"levelo://app?vid=21202178-9a74-4bc8-9d9e-6fb631a00822"},"vehicle_type_id":"4","last_reported":1741839099,"current_range_meters":7200,"station_id":"","pricing_plan_id":"cebpf4jnsgd1na2vs0mg"},{"bike_id":"2931d81f-abb3-45b8-9224-dc3fce2fae31","system_id":"levelo_inurba_marseille","lat":43.323639,"lon":5.367494,"is_reserved":false,"is_disabled":false,"rental_uris":{"android":"levelo://app?vid=2931d81f-abb3-45b8-9224-dc3fce2fae31","ios":"levelo://app?vid=2931d81f-abb3-45b8-9224-dc3fce2fae31"},"vehicle_type_id":"4","last_reported":1741839099,"current_range_meters":7200,"station_id":"ce4bhsh2rcd13ifvqi2g","pricing_plan_id":"cebpf4jnsgd1na2vs0mg"},{"bike_id":"8dee66dd-a753-4e90-9df0-a75f60b0d66f","system_id":"levelo_inurba_marseille","lat":43.28587,"lon":5.42485,"is_reserved":false,"is_disabled":false,"rental_uris":{"android":"levelo://app?vid=8dee66dd-a753-4e90-9df0-a75f60b0d66f","ios":"levelo://app?vid=8dee66dd-a753-4e90-9df0-a75f60b0d66f"},"vehicle_type_id":"4","last_reported":1741839099,"current_range_meters":7200,"station_id":"","pricing_plan_id":"cebpf4jnsgd1na2vs0mg"},{"bike_id":"5c0be3c0-190a-43f3-becc-02f064bfef44","system_id":"levelo_inurba_marseille","lat":43.33423,"lon":5.4005,"is_reserved":false,"is_disabled":false,"rental_uris":{"android":"levelo://app?vid=5c0be3c0-190a-43f3-becc-02f064bfef44","ios":"levelo://app?vid=5c0be3c0-190a-43f3-becc-02f064bfef44"},"vehicle_type_id":"4","last_reported":1741839099,"current_range_meters":7200,"station_id":"","pricing_plan_id":"cebpf4jnsgd1na2vs0mg"},{"bike_id":"c4df4535-7d31-495a-82fb-c042b3676ebe","system_id":"levelo_inurba_marseille","lat":43.32335,"lon":5.40625,"is_reserved":false,"is_disabled":false,"rental_uris":{"android":"levelo://app?vid=c4df4535-7d31-495a-82fb-c042b3676ebe","ios":"levelo://app?vid=c4df4535-7d31-495a-82fb-c042b3676ebe"},"vehicle_type_id":"4","last_reported":1741839099,"current_range_meters":7200,"station_id":"ce4bhq92rcd13ifvqhjg","pricing_plan_id":"cebpf4jnsgd1na2vs0mg"},{"bike_id":"95166308-e962-49c6-9e7f-13343b7c7759","system_id":"levelo_inurba_marseille","lat":43.30784,"lon":5.37653,"is_reserved":false,"is_disabled":false,"rental_uris":{"android":"levelo://app?vid=95166308-e962-49c6-9e7f-13343b7c7759","ios":"levelo://app?vid=95166308-e962-49c6-9e7f-13343b7c7759"},"vehicle_type_id":"4","last_reported":1741839099,"current_range_meters":7200,"station_id":"ce4bgv92rcd13ifvqcq0","pricing_plan_id":"cebpf4jnsgd1na2vs0mg"},{"bike_id":"03fcef79-f017-4d15-a10d-891c5cd96db2","system_id":"levelo_inurba_marseille","lat":43.230611,"lon":5.354902,"is_reserved":false,"is_disabled":false,"rental_uris":{"android":"levelo://app?vid=03fcef79-f017-4d15-a10d-891c5cd96db2","ios":"levelo://app?vid=03fcef79-f017-4d15-a10d-891c5cd96db2"},"vehicle_type_id":"4","last_reported":1741839099,"current_range_meters":7200,"station_id":"cpo3342slgdg3j2ifvpg","pricing_plan_id":"cebpf4jnsgd1na2vs0mg"},{"bike_id":"f829a819-671e-4b71-9c22-56c5f8047725","system_id":"levelo_inurba_marseille","lat":43.32359,"lon":5.36751,"is_reserved":false,"is_disabled":false,"rental_uris":{"android":"levelo://app?vid=f829a819-671e-4b71-9c22-56c5f8047725","ios":"levelo://app?vid=f829a819-671e-4b71-9c22-56c5f8047725"},"vehicle_type_id":"4","last_reported":1741839099,"current_range_meters":7200,"station_id":"ce4bhsh2rcd13ifvqi2g","pricing_plan_id":"cebpf4jnsgd1na2vs0mg"},{"bike_id":"f076f6f7-e4b4-48be-92db-c2ec27c500f6","system_id":"levelo_inurba_marseille","lat":43.231875,"lon":5.399921,"is_reserved":false,"is_disabled":false,"rental_uris":{"android":"levelo://app?vid=f076f6f7-e4b4-48be-92db-c2ec27c500f6","ios":"levelo://app?vid=f076f6f7-e4b4-48be-92db-c2ec27c500f6"},"vehicle_type_id":"4","last_reported":1741839099,"current_range_meters":8000,"station_id":"ce4bhn12rcd13ifvqgqg","pricing_plan_id":"cebpf4jnsgd1na2vs0mg"},{"bike_id":"d8c62c7b-a8e4-4dab-8344-208315d443d4","system_id":"levelo_inurba_marseille","lat":43.28455,"lon":5.35872,"is_reserved":false,"is_disabled":false,"rental_uris":{"android":"levelo://app?vid=d8c62c7b-a8e4-4dab-8344-208315d443d4","ios":"levelo://app?vid=d8c62c7b-a8e4-4dab-8344-208315d443d4"},"vehicle_type_id":"4","last_reported":1741839099,"current_range_meters":8000,"station_id":"ce4bhah2rcd13ifvqei0","pricing_plan_id":"cebpf4jnsgd1na2vs0mg"},{"bike_id":"385dd9cb-1d33-48e9-8250-88818c623a92","system_id":"levelo_inurba_marseille","lat":43.260589,"lon":5.393943,"is_reserved":false,"is_disabled":false,"rental_uris":{"android":"levelo://app?vid=385dd9cb-1d33-48e9-8250-88818c623a92","ios":"levelo://app?vid=385dd9cb-1d33-48e9-8250-88818c623a92"},"vehicle_type_id":"4","last_reported":1741839099,"current_range_meters":8000,"station_id":"ce4bhh92rcd13ifvqfj0","pricing_plan_id":"cebpf4jnsgd1na2vs0mg"},{"bike_id":"c672e83a-f87f-4381-8264-e18480862593","system_id":"levelo_inurba_marseille","lat":43.32326,"lon":5.40617,"is_reserved":false,"is_disabled":false,"rental_uris":{"android":"levelo://app?vid=c672e83a-f87f-4381-8264-e18480862593","ios":"levelo://app?vid=c672e83a-f87f-4381-8264-e18480862593"},"vehicle_type_id":"4","last_reported":1741839099,"current_range_meters":8000,"station_id":"ce4bhq92rcd13ifvqhjg","pricing_plan_id":"cebpf4jnsgd1na2vs0mg"},{"bike_id":"4266cb8d-9737-42ba-b281-8709f58733da","system_id":"levelo_inurba_marseille","lat":43.318852,"lon":5.407268,"is_reserved":false,"is_disabled":false,"rental_uris":{"android":"levelo://app?vid=4266cb8d-9737-42ba-b281-8709f58733da","ios":"levelo://app?vid=4266cb8d-9737-42ba-b281-8709f58733da"},"vehicle_type_id":"4","last_reported":1741839099,"current_range_meters":8000,"station_id":"ce4bhq12rcd13ifvqhig","pricing_plan_id":"cebpf4jnsgd1na2vs0mg"},{"bike_id":"aeca8d61-61f7-41ab-a0ef-f49a44bca5c8","system_id":"levelo_inurba_marseille","lat":43.28997,"lon":5.35617,"is_reserved":false,"is_disabled":true,"rental_uris":{"android":"levelo://app?vid=aeca8d61-61f7-41ab-a0ef-f49a44bca5c8","ios":"levelo://app?vid=aeca8d61-61f7-41ab-a0ef-f49a44bca5c8"},"vehicle_type_id":"4","last_reported":1741839099,"current_range_meters":8000,"station_id":"ce4bhb92rcd13ifvqen0","pricing_plan_id":"cebpf4jnsgd1na2vs0mg"},{"bike_id":"f4f6951d-a3fd-42a9-86a0-c61cdb750c82","system_id":"levelo_inurba_marseille","lat":43.25085,"lon":5.39496,"is_reserved":false,"is_disabled":false,"rental_uris":{"android":"levelo://app?vid=f4f6951d-a3fd-42a9-86a0-c61cdb750c82","ios":"levelo://app?vid=f4f6951d-a3fd-42a9-86a0-c61cdb750c82"},"vehicle_type_id":"4","last_reported":1741839099,"current_range_meters":8000,"station_id":"ce4bhm12rcd13ifvqgkg","pricing_plan_id":"cebpf4jnsgd1na2vs0mg"},{"bike_id":"d7aaef38-7eff-471c-ba72-07e0eabbfe50","system_id":"levelo_inurba_marseille","lat":43.279417,"lon":5.410414,"is_reserved":false,"is_disabled":false,"rental_uris":{"android":"levelo://app?vid=d7aaef38-7eff-471c-ba72-07e0eabbfe50","ios":"levelo://app?vid=d7aaef38-7eff-471c-ba72-07e0eabbfe50"},"vehicle_type_id":"4","last_reported":1741839099,"current_range_meters":8000,"station_id":"ce4bhnp2rcd13ifvqh0g","pricing_plan_id":"cebpf4jnsgd1na2vs0mg"},{"bike_id":"6190eac7-4d69-4aee-8885-569caf678aef","system_id":"levelo_inurba_marseille","lat":43.25725,"lon":5.41108,"is_reserved":false,"is_disabled":false,"rental_uris":{"android":"levelo://app?vid=6190eac7-4d69-4aee-8885-569caf678aef","ios":"levelo://app?vid=6190eac7-4d69-4aee-8885-569caf678aef"},"vehicle_type_id":"4","last_reported":1741839099,"current_range_meters":8000,"station_id":"ce4bhkp2rcd13ifvqgd0","pricing_plan_id":"cebpf4jnsgd1na2vs0mg"},{"bike_id":"4d4acf51-c07c-4aef-b577-238196b1ded2","system_id":"levelo_inurba_marseille","lat":43.270651,"lon":5.422743,"is_reserved":false,"is_disabled":false,"rental_uris":{"android":"levelo://app?vid=4d4acf51-c07c-4aef-b577-238196b1ded2","ios":"levelo://app?vid=4d4acf51-c07c-4aef-b577-238196b1ded2"},"vehicle_type_id":"4","last_reported":1741839099,"current_range_meters":8400,"station_id":"ce4bhk92rcd13ifvqgb0","pricing_plan_id":"cebpf4jnsgd1na2vs0mg"},{"bike_id":"dcf27482-e5b6-402e-97ae-49ee73e7d34a","system_id":"levelo_inurba_marseille","lat":43.29064,"lon":5.39926,"is_reserved":false,"is_disabled":false,"rental_uris":{"android":"levelo://app?vid=dcf27482-e5b6-402e-97ae-49ee73e7d34a","ios":"levelo://app?vid=dcf27482-e5b6-402e-97ae-49ee73e7d34a"},"vehicle_type_id":"4","last_reported":1741839099,"current_range_meters":8400,"station_id":"ce4bh392rcd13ifvqdm0","pricing_plan_id":"cebpf4jnsgd1na2vs0mg"},{"bike_id":"efab6700-508c-45e7-a250-bfb1d4670a97","system_id":"levelo_inurba_marseille","lat":43.31316,"lon":5.3971,"is_reserved":false,"is_disabled":false,"rental_uris":{"android":"levelo://app?vid=efab6700-508c-45e7-a250-bfb1d4670a97","ios":"levelo://app?vid=efab6700-508c-45e7-a250-bfb1d4670a97"},"vehicle_type_id":"4","last_reported":1741839099,"current_range_meters":8400,"station_id":"ce4bgvp2rcd13ifvqcu0","pricing_plan_id":"cebpf4jnsgd1na2vs0mg"},{"bike_id":"600a8b1d-91ce-4fc9-92cd-846d63d5cb51","system_id":"levelo_inurba_marseille","lat":43.250013,"lon":5.38927,"is_reserved":false,"is_disabled":false,"rental_uris":{"android":"levelo://app?vid=600a8b1d-91ce-4fc9-92cd-846d63d5cb51","ios":"levelo://app?vid=600a8b1d-91ce-4fc9-92cd-846d63d5cb51"},"vehicle_type_id":"4","last_reported":1741839099,"current_range_meters":8400,"station_id":"ce4bhgp2rcd13ifvqfd0","pricing_plan_id":"cebpf4jnsgd1na2vs0mg"},{"bike_id":"485f1510-a973-46b6-8b2d-6d22ffc60cae","system_id":"levelo_inurba_marseille","lat":43.24174,"lon":5.36395,"is_reserved":false,"is_disabled":false,"rental_uris":{"android":"levelo://app?vid=485f1510-a973-46b6-8b2d-6d22ffc60cae","ios":"levelo://app?vid=485f1510-a973-46b6-8b2d-6d22ffc60cae"},"vehicle_type_id":"4","last_reported":1741839099,"current_range_meters":8400,"station_id":"cpo36qri1sfpv3e86is0","pricing_plan_id":"cebpf4jnsgd1na2vs0mg"},{"bike_id":"98c8b670-4b5b-4474-aa78-906a8b4c3fb0","system_id":"levelo_inurba_marseille","lat":43.288444,"lon":5.358653,"is_reserved":false,"is_disabled":false,"rental_uris":{"android":"levelo://app?vid=98c8b670-4b5b-4474-aa78-906a8b4c3fb0","ios":"levelo://app?vid=98c8b670-4b5b-4474-aa78-906a8b4c3fb0"},"vehicle_type_id":"4","last_reported":1741839099,"current_range_meters":8400,"station_id":"ce4bhb12rcd13ifvqem0","pricing_plan_id":"cebpf4jnsgd1na2vs0mg"},{"bike_id":"707f97a7-32db-422b-bfa8-ef8d193a1bb4","system_id":"levelo_inurba_marseille","lat":43.22927,"lon":5.35378,"is_reserved":false,"is_disabled":false,"rental_uris":{"android":"levelo://app?vid=707f97a7-32db-422b-bfa8-ef8d193a1bb4","ios":"levelo://app?vid=707f97a7-32db-422b-bfa8-ef8d193a1bb4"},"vehicle_type_id":"4","last_reported":1741839099,"current_range_meters":8400,"station_id":"cpo3532slgdg3j2ikp40","pricing_plan_id":"cebpf4jnsgd1na2vs0mg"},{"bike_id":"f43c9137-3d11-4a51-9675-5a3c95d6f6ef","system_id":"levelo_inurba_marseille","lat":43.23962,"lon":5.36633,"is_reserved":false,"is_disabled":false,"rental_uris":{"android":"levelo://app?vid=f43c9137-3d11-4a51-9675-5a3c95d6f6ef","ios":"levelo://app?vid=f43c9137-3d11-4a51-9675-5a3c95d6f6ef"},"vehicle_type_id":"4","last_reported":1741839099,"current_range_meters":8400,"station_id":"ce4bhi12rcd13ifvqfp0","pricing_plan_id":"cebpf4jnsgd1na2vs0mg"},{"bike_id":"17a0412c-bb8f-4fb2-b696-b6456aa36d2c","system_id":"levelo_inurba_marseille","lat":43.285075,"lon":5.385705,"is_reserved":false,"is_disabled":false,"rental_uris":{"android":"levelo://app?vid=17a0412c-bb8f-4fb2-b696-b6456aa36d2c","ios":"levelo://app?vid=17a0412c-bb8f-4fb2-b696-b6456aa36d2c"},"vehicle_type_id":"4","last_reported":1741839099,"current_range_meters":8400,"station_id":"ce4bh8p2rcd13ifvqeb0","pricing_plan_id":"cebpf4jnsgd1na2vs0mg"},{"bike_id":"51dd079e-0925-4112-b09d-769424a40dbf","system_id":"levelo_inurba_marseille","lat":43.284599,"lon":5.358816,"is_reserved":false,"is_disabled":false,"rental_uris":{"android":"levelo://app?vid=51dd079e-0925-4112-b09d-769424a40dbf","ios":"levelo://app?vid=51dd079e-0925-4112-b09d-769424a40dbf"},"vehicle_type_id":"4","last_reported":1741839099,"current_range_meters":8400,"station_id":"ce4bhah2rcd13ifvqei0","pricing_plan_id":"cebpf4jnsgd1na2vs0mg"},{"bike_id":"ec5d08ce-934d-49b5-9a73-c20b44942d11","system_id":"levelo_inurba_marseille","lat":43.31405,"lon":5.37587,"is_reserved":false,"is_disabled":false,"rental_uris":{"android":"levelo://app?vid=ec5d08ce-934d-49b5-9a73-c20b44942d11","ios":"levelo://app?vid=ec5d08ce-934d-49b5-9a73-c20b44942d11"},"vehicle_type_id":"4","last_reported":1741839099,"current_range_meters":8400,"station_id":"","pricing_plan_id":"cebpf4jnsgd1na2vs0mg"},{"bike_id":"c16477d5-7793-4073-b158-0eaf5052f2dc","system_id":"levelo_inurba_marseille","lat":43.28302,"lon":5.43213,"is_reserved":false,"is_disabled":false,"rental_uris":{"android":"levelo://app?vid=c16477d5-7793-4073-b158-0eaf5052f2dc","ios":"levelo://app?vid=c16477d5-7793-4073-b158-0eaf5052f2dc"},"vehicle_type_id":"4","last_reported":1741839099,"current_range_meters":8400,"station_id":"","pricing_plan_id":"cebpf4jnsgd1na2vs0mg"},{"bike_id":"d31c9539-ca6c-4187-90d4-7ac7eab92e8e","system_id":"levelo_inurba_marseille","lat":43.29796,"lon":5.40402,"is_reserved":false,"is_disabled":false,"rental_uris":{"android":"levelo://app?vid=d31c9539-ca6c-4187-90d4-7ac7eab92e8e","ios":"levelo://app?vid=d31c9539-ca6c-4187-90d4-7ac7eab92e8e"},"vehicle_type_id":"4","last_reported":1741839099,"current_range_meters":8400,"station_id":"ce4bh112rcd13ifvqd90","pricing_plan_id":"cebpf4jnsgd1na2vs0mg"},{"bike_id":"ccc60824-c79b-431c-a6af-0ceb79e3288a","system_id":"levelo_inurba_marseille","lat":43.28454,"lon":5.35892,"is_reserved":false,"is_disabled":true,"rental_uris":{"android":"levelo://app?vid=ccc60824-c79b-431c-a6af-0ceb79e3288a","ios":"levelo://app?vid=ccc60824-c79b-431c-a6af-0ceb79e3288a"},"vehicle_type_id":"4","last_reported":1741839099,"current_range_meters":8400,"station_id":"ce4bhah2rcd13ifvqei0","pricing_plan_id":"cebpf4jnsgd1na2vs0mg"},{"bike_id":"0a995a9a-6122-4f4b-b298-a8b06cbca7e2","system_id":"levelo_inurba_marseille","lat":43.25012,"lon":5.38911,"is_reserved":false,"is_disabled":false,"rental_uris":{"android":"levelo://app?vid=0a995a9a-6122-4f4b-b298-a8b06cbca7e2","ios":"levelo://app?vid=0a995a9a-6122-4f4b-b298-a8b06cbca7e2"},"vehicle_type_id":"4","last_reported":1741839099,"current_range_meters":8800,"station_id":"ce4bhgp2rcd13ifvqfd0","pricing_plan_id":"cebpf4jnsgd1na2vs0mg"},{"bike_id":"f8f97435-bb92-4dae-bc09-cbdc3a0f8165","system_id":"levelo_inurba_marseille","lat":43.23152,"lon":5.4372,"is_reserved":false,"is_disabled":false,"rental_uris":{"android":"levelo://app?vid=f8f97435-bb92-4dae-bc09-cbdc3a0f8165","ios":"levelo://app?vid=f8f97435-bb92-4dae-bc09-cbdc3a0f8165"},"vehicle_type_id":"4","last_reported":1741839099,"current_range_meters":8800,"station_id":"ce4bhmp2rcd13ifvqgog","pricing_plan_id":"cebpf4jnsgd1na2vs0mg"},{"bike_id":"85e5198d-7b5c-47df-8c25-3139b7284419","system_id":"levelo_inurba_marseille","lat":43.30647,"lon":5.40068,"is_reserved":false,"is_disabled":false,"rental_uris":{"android":"levelo://app?vid=85e5198d-7b5c-47df-8c25-3139b7284419","ios":"levelo://app?vid=85e5198d-7b5c-47df-8c25-3139b7284419"},"vehicle_type_id":"4","last_reported":1741839099,"current_range_meters":8800,"station_id":"ce4bh112rcd13ifvqda0","pricing_plan_id":"cebpf4jnsgd1na2vs0mg"},{"bike_id":"96b68334-5aca-43bb-99d6-07e7361f7430","system_id":"levelo_inurba_marseille","lat":43.23137,"lon":5.43719,"is_reserved":false,"is_disabled":false,"rental_uris":{"android":"levelo://app?vid=96b68334-5aca-43bb-99d6-07e7361f7430","ios":"levelo://app?vid=96b68334-5aca-43bb-99d6-07e7361f7430"},"vehicle_type_id":"4","last_reported":1741839099,"current_range_meters":8800,"station_id":"ce4bhmp2rcd13ifvqgog","pricing_plan_id":"cebpf4jnsgd1na2vs0mg"},{"bike_id":"f83b1590-73f8-4900-a667-6c005eb9b249","system_id":"levelo_inurba_marseille","lat":43.29564,"lon":5.399537,"is_reserved":false,"is_disabled":true,"rental_uris":{"android":"levelo://app?vid=f83b1590-73f8-4900-a667-6c005eb9b249","ios":"levelo://app?vid=f83b1590-73f8-4900-a667-6c005eb9b249"},"vehicle_type_id":"4","last_reported":1741839099,"current_range_meters":8800,"station_id":"ce4bh312rcd13ifvqdj0","pricing_plan_id":"cebpf4jnsgd1na2vs0mg"},{"bike_id":"55fe5d5a-17ad-4e56-ad62-6cc28a264c81","system_id":"levelo_inurba_marseille","lat":43.249996,"lon":5.389354,"is_reserved":false,"is_disabled":false,"rental_uris":{"android":"levelo://app?vid=55fe5d5a-17ad-4e56-ad62-6cc28a264c81","ios":"levelo://app?vid=55fe5d5a-17ad-4e56-ad62-6cc28a264c81"},"vehicle_type_id":"4","last_reported":1741839099,"current_range_meters":8800,"station_id":"ce4bhgp2rcd13ifvqfd0","pricing_plan_id":"cebpf4jnsgd1na2vs0mg"},{"bike_id":"d4c11c66-c406-46fd-810b-5ee53fc49085","system_id":"levelo_inurba_marseille","lat":43.30356,"lon":5.41877,"is_reserved":false,"is_disabled":false,"rental_uris":{"android":"levelo://app?vid=d4c11c66-c406-46fd-810b-5ee53fc49085","ios":"levelo://app?vid=d4c11c66-c406-46fd-810b-5ee53fc49085"},"vehicle_type_id":"4","last_reported":1741839099,"current_range_meters":8800,"station_id":"ce4bhop2rcd13ifvqh7g","pricing_plan_id":"cebpf4jnsgd1na2vs0mg"},{"bike_id":"97c4a06f-d8ef-4a57-9bb4-11a0bc4f8fb5","system_id":"levelo_inurba_marseille","lat":43.284561,"lon":5.358844,"is_reserved":false,"is_disabled":false,"rental_uris":{"android":"levelo://app?vid=97c4a06f-d8ef-4a57-9bb4-11a0bc4f8fb5","ios":"levelo://app?vid=97c4a06f-d8ef-4a57-9bb4-11a0bc4f8fb5"},"vehicle_type_id":"4","last_reported":1741839099,"current_range_meters":8800,"station_id":"ce4bhah2rcd13ifvqei0","pricing_plan_id":"cebpf4jnsgd1na2vs0mg"},{"bike_id":"ffd8c5d8-18f0-49f2-bfe6-b98d3b862a68","system_id":"levelo_inurba_marseille","lat":43.30931,"lon":5.40144,"is_reserved":false,"is_disabled":false,"rental_uris":{"android":"levelo://app?vid=ffd8c5d8-18f0-49f2-bfe6-b98d3b862a68","ios":"levelo://app?vid=ffd8c5d8-18f0-49f2-bfe6-b98d3b862a68"},"vehicle_type_id":"4","last_reported":1741839099,"current_range_meters":8800,"station_id":"ce4bgvp2rcd13ifvqct0","pricing_plan_id":"cebpf4jnsgd1na2vs0mg"},{"bike_id":"540f8b94-18a7-495a-be2a-6d9b18696d20","system_id":"levelo_inurba_marseille","lat":43.3108,"lon":5.42437,"is_reserved":false,"is_disabled":false,"rental_uris":{"android":"levelo://app?vid=540f8b94-18a7-495a-be2a-6d9b18696d20","ios":"levelo://app?vid=540f8b94-18a7-495a-be2a-6d9b18696d20"},"vehicle_type_id":"4","last_reported":1741839099,"current_range_meters":8800,"station_id":"ce4bhp92rcd13ifvqhag","pricing_plan_id":"cebpf4jnsgd1na2vs0mg"},{"bike_id":"81503b9c-0016-4a91-a79c-42b4d25413e2","system_id":"levelo_inurba_marseille","lat":43.29923,"lon":5.39742,"is_reserved":false,"is_disabled":false,"rental_uris":{"android":"levelo://app?vid=81503b9c-0016-4a91-a79c-42b4d25413e2","ios":"levelo://app?vid=81503b9c-0016-4a91-a79c-42b4d25413e2"},"vehicle_type_id":"4","last_reported":1741839099,"current_range_meters":8800,"station_id":"","pricing_plan_id":"cebpf4jnsgd1na2vs0mg"},{"bike_id":"be919f00-bcb7-44c2-9ec0-74df186c2b29","system_id":"levelo_inurba_marseille","lat":43.30912,"lon":5.40156,"is_reserved":false,"is_disabled":false,"rental_uris":{"android":"levelo://app?vid=be919f00-bcb7-44c2-9ec0-74df186c2b29","ios":"levelo://app?vid=be919f00-bcb7-44c2-9ec0-74df186c2b29"},"vehicle_type_id":"4","last_reported":1741839099,"current_range_meters":8800,"station_id":"ce4bgvp2rcd13ifvqct0","pricing_plan_id":"cebpf4jnsgd1na2vs0mg"},{"bike_id":"2d16443d-ed2e-4c48-af94-4deffe2479f1","system_id":"levelo_inurba_marseille","lat":43.2504,"lon":5.38873,"is_reserved":false,"is_disabled":false,"rental_uris":{"android":"levelo://app?vid=2d16443d-ed2e-4c48-af94-4deffe2479f1","ios":"levelo://app?vid=2d16443d-ed2e-4c48-af94-4deffe2479f1"},"vehicle_type_id":"4","last_reported":1741839099,"current_range_meters":8800,"station_id":"ce4bhgp2rcd13ifvqfd0","pricing_plan_id":"cebpf4jnsgd1na2vs0mg"},{"bike_id":"9c9b4fe2-0c24-4e47-8858-2d4973e49f79","system_id":"levelo_inurba_marseille","lat":43.27566,"lon":5.384259,"is_reserved":false,"is_disabled":false,"rental_uris":{"android":"levelo://app?vid=9c9b4fe2-0c24-4e47-8858-2d4973e49f79","ios":"levelo://app?vid=9c9b4fe2-0c24-4e47-8858-2d4973e49f79"},"vehicle_type_id":"4","last_reported":1741839099,"current_range_meters":9200,"station_id":"ce4bhh92rcd13ifvqfi0","pricing_plan_id":"cebpf4jnsgd1na2vs0mg"},{"bike_id":"0e3a10ba-e0c5-40c0-afb1-01187fd29419","system_id":"levelo_inurba_marseille","lat":43.2293,"lon":5.3538,"is_reserved":false,"is_disabled":false,"rental_uris":{"android":"levelo://app?vid=0e3a10ba-e0c5-40c0-afb1-01187fd29419","ios":"levelo://app?vid=0e3a10ba-e0c5-40c0-afb1-01187fd29419"},"vehicle_type_id":"4","last_reported":1741839099,"current_range_meters":9200,"station_id":"cpo3532slgdg3j2ikp40","pricing_plan_id":"cebpf4jnsgd1na2vs0mg"},{"bike_id":"03d10ce5-6405-4b2f-93ca-cf0b42ef9a6f","system_id":"levelo_inurba_marseille","lat":43.30864,"lon":5.39622,"is_reserved":false,"is_disabled":false,"rental_uris":{"android":"levelo://app?vid=03d10ce5-6405-4b2f-93ca-cf0b42ef9a6f","ios":"levelo://app?vid=03d10ce5-6405-4b2f-93ca-cf0b42ef9a6f"},"vehicle_type_id":"4","last_reported":1741839099,"current_range_meters":9200,"station_id":"ce4bh012rcd13ifvqcv0","pricing_plan_id":"cebpf4jnsgd1na2vs0mg"},{"bike_id":"9f25a6ad-433a-45b0-a0d0-4a619d769e26","system_id":"levelo_inurba_marseille","lat":43.23192,"lon":5.355533,"is_reserved":false,"is_disabled":false,"rental_uris":{"android":"levelo://app?vid=9f25a6ad-433a-45b0-a0d0-4a619d769e26","ios":"levelo://app?vid=9f25a6ad-433a-45b0-a0d0-4a619d769e26"},"vehicle_type_id":"4","last_reported":1741839099,"current_range_meters":9200,"station_id":"ce4bhu92rcd13ifvqi70","pricing_plan_id":"cebpf4jnsgd1na2vs0mg"},{"bike_id":"3dc12a3e-12f9-4e69-a46d-74dccb593f75","system_id":"levelo_inurba_marseille","lat":43.28487,"lon":5.38433,"is_reserved":false,"is_disabled":false,"rental_uris":{"android":"levelo://app?vid=3dc12a3e-12f9-4e69-a46d-74dccb593f75","ios":"levelo://app?vid=3dc12a3e-12f9-4e69-a46d-74dccb593f75"},"vehicle_type_id":"4","last_reported":1741839099,"current_range_meters":9200,"station_id":"ce4bh512rcd13ifvqe3g","pricing_plan_id":"cebpf4jnsgd1na2vs0mg"},{"bike_id":"e82a7765-952e-473e-ae93-51129021ba92","system_id":"levelo_inurba_marseille","lat":43.23967,"lon":5.366298,"is_reserved":false,"is_disabled":false,"rental_uris":{"android":"levelo://app?vid=e82a7765-952e-473e-ae93-51129021ba92","ios":"levelo://app?vid=e82a7765-952e-473e-ae93-51129021ba92"},"vehicle_type_id":"4","last_reported":1741839099,"current_range_meters":9200,"station_id":"ce4bhi12rcd13ifvqfp0","pricing_plan_id":"cebpf4jnsgd1na2vs0mg"},{"bike_id":"234f837a-7327-4b92-8f17-adec428df1b9","system_id":"levelo_inurba_marseille","lat":43.259297,"lon":5.409056,"is_reserved":false,"is_disabled":false,"rental_uris":{"android":"levelo://app?vid=234f837a-7327-4b92-8f17-adec428df1b9","ios":"levelo://app?vid=234f837a-7327-4b92-8f17-adec428df1b9"},"vehicle_type_id":"4","last_reported":1741839099,"current_range_meters":9200,"station_id":"ce4bhm92rcd13ifvqglg","pricing_plan_id":"cebpf4jnsgd1na2vs0mg"},{"bike_id":"f89b9f3b-9595-4d0e-acf5-ac5f650bb50c","system_id":"levelo_inurba_marseille","lat":43.30378,"lon":5.42483,"is_reserved":false,"is_disabled":false,"rental_uris":{"android":"levelo://app?vid=f89b9f3b-9595-4d0e-acf5-ac5f650bb50c","ios":"levelo://app?vid=f89b9f3b-9595-4d0e-acf5-ac5f650bb50c"},"vehicle_type_id":"4","last_reported":1741839099,"current_range_meters":9200,"station_id":"ce4bghh2rcd13ifvqb60","pricing_plan_id":"cebpf4jnsgd1na2vs0mg"},{"bike_id":"f773648d-9d69-477c-8acc-61a93b2feb18","system_id":"levelo_inurba_marseille","lat":43.28515,"lon":5.389225,"is_reserved":false,"is_disabled":false,"rental_uris":{"android":"levelo://app?vid=f773648d-9d69-477c-8acc-61a93b2feb18","ios":"levelo://app?vid=f773648d-9d69-477c-8acc-61a93b2feb18"},"vehicle_type_id":"4","last_reported":1741839099,"current_range_meters":9200,"station_id":"","pricing_plan_id":"cebpf4jnsgd1na2vs0mg"},{"bike_id":"7d4aedfe-c4d1-46e1-9530-386849f612f8","system_id":"levelo_inurba_marseille","lat":43.303741,"lon":5.424831,"is_reserved":false,"is_disabled":false,"rental_uris":{"android":"levelo://app?vid=7d4aedfe-c4d1-46e1-9530-386849f612f8","ios":"levelo://app?vid=7d4aedfe-c4d1-46e1-9530-386849f612f8"},"vehicle_type_id":"4","last_reported":1741839099,"current_range_meters":9200,"station_id":"ce4bghh2rcd13ifvqb60","pricing_plan_id":"cebpf4jnsgd1na2vs0mg"},{"bike_id":"c8f5a7aa-328f-49c1-a785-9624fa888d07","system_id":"levelo_inurba_marseille","lat":43.250184,"lon":5.389119,"is_reserved":false,"is_disabled":false,"rental_uris":{"android":"levelo://app?vid=c8f5a7aa-328f-49c1-a785-9624fa888d07","ios":"levelo://app?vid=c8f5a7aa-328f-49c1-a785-9624fa888d07"},"vehicle_type_id":"4","last_reported":1741839099,"current_range_meters":9200,"station_id":"ce4bhgp2rcd13ifvqfd0","pricing_plan_id":"cebpf4jnsgd1na2vs0mg"},{"bike_id":"173885c2-0f60-4df7-8df1-3150ed08e8db","system_id":"levelo_inurba_marseille","lat":43.30911,"lon":5.40144,"is_reserved":false,"is_disabled":false,"rental_uris":{"android":"levelo://app?vid=173885c2-0f60-4df7-8df1-3150ed08e8db","ios":"levelo://app?vid=173885c2-0f60-4df7-8df1-3150ed08e8db"},"vehicle_type_id":"4","last_reported":1741839099,"current_range_meters":9200,"station_id":"ce4bgvp2rcd13ifvqct0","pricing_plan_id":"cebpf4jnsgd1na2vs0mg"},{"bike_id":"6c83aba9-eb1e-4e35-add9-1ed6c49a74fd","system_id":"levelo_inurba_marseille","lat":43.279975,"lon":5.416535,"is_reserved":false,"is_disabled":false,"rental_uris":{"android":"levelo://app?vid=6c83aba9-eb1e-4e35-add9-1ed6c49a74fd","ios":"levelo://app?vid=6c83aba9-eb1e-4e35-add9-1ed6c49a74fd"},"vehicle_type_id":"4","last_reported":1741839099,"current_range_meters":9200,"station_id":"ce4bho12rcd13ifvqh1g","pricing_plan_id":"cebpf4jnsgd1na2vs0mg"},{"bike_id":"59a73add-11cf-4c4d-baa2-a77f085ab088","system_id":"levelo_inurba_marseille","lat":43.30325,"lon":5.40438,"is_reserved":false,"is_disabled":false,"rental_uris":{"android":"levelo://app?vid=59a73add-11cf-4c4d-baa2-a77f085ab088","ios":"levelo://app?vid=59a73add-11cf-4c4d-baa2-a77f085ab088"},"vehicle_type_id":"4","last_reported":1741839099,"current_range_meters":9600,"station_id":"ce4bh012rcd13ifvqd10","pricing_plan_id":"cebpf4jnsgd1na2vs0mg"},{"bike_id":"63a97a08-5bd6-402f-a69b-1a4f72254415","system_id":"levelo_inurba_marseille","lat":43.31064,"lon":5.38347,"is_reserved":false,"is_disabled":false,"rental_uris":{"android":"levelo://app?vid=63a97a08-5bd6-402f-a69b-1a4f72254415","ios":"levelo://app?vid=63a97a08-5bd6-402f-a69b-1a4f72254415"},"vehicle_type_id":"4","last_reported":1741839099,"current_range_meters":9600,"station_id":"ce4bgv92rcd13ifvqcr0","pricing_plan_id":"cebpf4jnsgd1na2vs0mg"},{"bike_id":"27978618-6a05-41e9-b500-4c9c04aec95f","system_id":"levelo_inurba_marseille","lat":43.28153,"lon":5.42645,"is_reserved":false,"is_disabled":false,"rental_uris":{"android":"levelo://app?vid=27978618-6a05-41e9-b500-4c9c04aec95f","ios":"levelo://app?vid=27978618-6a05-41e9-b500-4c9c04aec95f"},"vehicle_type_id":"4","last_reported":1741839099,"current_range_meters":9600,"station_id":"ce4bhnh2rcd13ifvqgug","pricing_plan_id":"cebpf4jnsgd1na2vs0mg"},{"bike_id":"6797bf15-c428-46eb-86a3-64177d518a4c","system_id":"levelo_inurba_marseille","lat":43.313404,"lon":5.396968,"is_reserved":false,"is_disabled":false,"rental_uris":{"android":"levelo://app?vid=6797bf15-c428-46eb-86a3-64177d518a4c","ios":"levelo://app?vid=6797bf15-c428-46eb-86a3-64177d518a4c"},"vehicle_type_id":"4","last_reported":1741839099,"current_range_meters":9600,"station_id":"ce4bgvp2rcd13ifvqcu0","pricing_plan_id":"cebpf4jnsgd1na2vs0mg"},{"bike_id":"23667599-c39f-4b94-a83e-082050eb199c","system_id":"levelo_inurba_marseille","lat":43.28407,"lon":5.37522,"is_reserved":false,"is_disabled":false,"rental_uris":{"android":"levelo://app?vid=23667599-c39f-4b94-a83e-082050eb199c","ios":"levelo://app?vid=23667599-c39f-4b94-a83e-082050eb199c"},"vehicle_type_id":"4","last_reported":1741839099,"current_range_meters":9600,"station_id":"ce4bh412rcd13ifvqds0","pricing_plan_id":"cebpf4jnsgd1na2vs0mg"},{"bike_id":"6dbc9b4a-c5a1-4dbf-a00f-5bb7462d2694","system_id":"levelo_inurba_marseille","lat":43.28108,"lon":5.39845,"is_reserved":false,"is_disabled":false,"rental_uris":{"android":"levelo://app?vid=6dbc9b4a-c5a1-4dbf-a00f-5bb7462d2694","ios":"levelo://app?vid=6dbc9b4a-c5a1-4dbf-a00f-5bb7462d2694"},"vehicle_type_id":"4","last_reported":1741839099,"current_range_meters":9600,"station_id":"","pricing_plan_id":"cebpf4jnsgd1na2vs0mg"},{"bike_id":"df666d8d-21bb-4a31-a58c-0e4b634c7195","system_id":"levelo_inurba_marseille","lat":43.2952,"lon":5.39394,"is_reserved":false,"is_disabled":true,"rental_uris":{"android":"levelo://app?vid=df666d8d-21bb-4a31-a58c-0e4b634c7195","ios":"levelo://app?vid=df666d8d-21bb-4a31-a58c-0e4b634c7195"},"vehicle_type_id":"4","last_reported":1741839099,"current_range_meters":9600,"station_id":"ce4bh292rcd13ifvqdf0","pricing_plan_id":"cebpf4jnsgd1na2vs0mg"},{"bike_id":"74167f98-ac4d-4d97-ac14-ba0c6b0de907","system_id":"levelo_inurba_marseille","lat":43.27059,"lon":5.40251,"is_reserved":false,"is_disabled":false,"rental_uris":{"android":"levelo://app?vid=74167f98-ac4d-4d97-ac14-ba0c6b0de907","ios":"levelo://app?vid=74167f98-ac4d-4d97-ac14-ba0c6b0de907"},"vehicle_type_id":"4","last_reported":1741839099,"current_range_meters":9600,"station_id":"ce4bhk92rcd13ifvqgc0","pricing_plan_id":"cebpf4jnsgd1na2vs0mg"},{"bike_id":"0234a9c0-0d92-4771-9dd1-5abbd3156dde","system_id":"levelo_inurba_marseille","lat":43.2407,"lon":5.37739,"is_reserved":false,"is_disabled":false,"rental_uris":{"android":"levelo://app?vid=0234a9c0-0d92-4771-9dd1-5abbd3156dde","ios":"levelo://app?vid=0234a9c0-0d92-4771-9dd1-5abbd3156dde"},"vehicle_type_id":"4","last_reported":1741839099,"current_range_meters":9600,"station_id":"ce4bhnp2rcd13ifvqgvg","pricing_plan_id":"cebpf4jnsgd1na2vs0mg"},{"bike_id":"4347b6f7-d9e2-4ed7-900a-976262b3a4ad","system_id":"levelo_inurba_marseille","lat":43.23181,"lon":5.39948,"is_reserved":false,"is_disabled":false,"rental_uris":{"android":"levelo://app?vid=4347b6f7-d9e2-4ed7-900a-976262b3a4ad","ios":"levelo://app?vid=4347b6f7-d9e2-4ed7-900a-976262b3a4ad"},"vehicle_type_id":"4","last_reported":1741839099,"current_range_meters":9600,"station_id":"ce4bhn12rcd13ifvqgqg","pricing_plan_id":"cebpf4jnsgd1na2vs0mg"},{"bike_id":"9dc8ba98-3de9-4f14-81e1-9a5589e794de","system_id":"levelo_inurba_marseille","lat":43.25863,"lon":5.39904,"is_reserved":false,"is_disabled":true,"rental_uris":{"android":"levelo://app?vid=9dc8ba98-3de9-4f14-81e1-9a5589e794de","ios":"levelo://app?vid=9dc8ba98-3de9-4f14-81e1-9a5589e794de"},"vehicle_type_id":"4","last_reported":1741839099,"current_range_meters":10000,"station_id":"ce4bhl92rcd13ifvqghg","pricing_plan_id":"cebpf4jnsgd1na2vs0mg"},{"bike_id":"e3188810-2d91-47fb-82c5-1c6e391c67f5","system_id":"levelo_inurba_marseille","lat":43.29743,"lon":5.37692,"is_reserved":false,"is_disabled":false,"rental_uris":{"android":"levelo://app?vid=e3188810-2d91-47fb-82c5-1c6e391c67f5","ios":"levelo://app?vid=e3188810-2d91-47fb-82c5-1c6e391c67f5"},"vehicle_type_id":"4","last_reported":1741839099,"current_range_meters":10000,"station_id":"ce4bgkh2rcd13ifvqbl0","pricing_plan_id":"cebpf4jnsgd1na2vs0mg"},{"bike_id":"79397302-4916-493d-9bc0-e5035ae3c476","system_id":"levelo_inurba_marseille","lat":43.229353,"lon":5.353794,"is_reserved":false,"is_disabled":false,"rental_uris":{"android":"levelo://app?vid=79397302-4916-493d-9bc0-e5035ae3c476","ios":"levelo://app?vid=79397302-4916-493d-9bc0-e5035ae3c476"},"vehicle_type_id":"4","last_reported":1741839099,"current_range_meters":10000,"station_id":"cpo3532slgdg3j2ikp40","pricing_plan_id":"cebpf4jnsgd1na2vs0mg"},{"bike_id":"6ab11c47-b743-457e-ba0c-16f42dc6710a","system_id":"levelo_inurba_marseille","lat":43.30361,"lon":5.39294,"is_reserved":false,"is_disabled":false,"rental_uris":{"android":"levelo://app?vid=6ab11c47-b743-457e-ba0c-16f42dc6710a","ios":"levelo://app?vid=6ab11c47-b743-457e-ba0c-16f42dc6710a"},"vehicle_type_id":"4","last_reported":1741839099,"current_range_meters":10000,"station_id":"","pricing_plan_id":"cebpf4jnsgd1na2vs0mg"},{"bike_id":"ece86757-6640-491c-a421-ba8c6be1515c","system_id":"levelo_inurba_marseille","lat":43.251231,"lon":5.403169,"is_reserved":false,"is_disabled":false,"rental_uris":{"android":"levelo://app?vid=ece86757-6640-491c-a421-ba8c6be1515c","ios":"levelo://app?vid=ece86757-6640-491c-a421-ba8c6be1515c"},"vehicle_type_id":"4","last_reported":1741839099,"current_range_meters":10000,"station_id":"ce4bhlh2rcd13ifvqgig","pricing_plan_id":"cebpf4jnsgd1na2vs0mg"},{"bike_id":"b7cedda7-a79b-4c49-b922-401f53e0e167","system_id":"levelo_inurba_marseille","lat":43.29049,"lon":5.39971,"is_reserved":false,"is_disabled":false,"rental_uris":{"android":"levelo://app?vid=b7cedda7-a79b-4c49-b922-401f53e0e167","ios":"levelo://app?vid=b7cedda7-a79b-4c49-b922-401f53e0e167"},"vehicle_type_id":"4","last_reported":1741839099,"current_range_meters":10000,"station_id":"ce4bh392rcd13ifvqdm0","pricing_plan_id":"cebpf4jnsgd1na2vs0mg"},{"bike_id":"5bd2347b-8815-4b16-9f3e-1652de5c79df","system_id":"levelo_inurba_marseille","lat":43.30237,"lon":5.40075,"is_reserved":false,"is_disabled":false,"rental_uris":{"android":"levelo://app?vid=5bd2347b-8815-4b16-9f3e-1652de5c79df","ios":"levelo://app?vid=5bd2347b-8815-4b16-9f3e-1652de5c79df"},"vehicle_type_id":"4","last_reported":1741839099,"current_range_meters":10800,"station_id":"ce4bgvh2rcd13ifvqcs0","pricing_plan_id":"cebpf4jnsgd1na2vs0mg"},{"bike_id":"2418d0da-086d-4e67-b2f5-3f1067242595","system_id":"levelo_inurba_marseille","lat":43.262252,"lon":5.404536,"is_reserved":false,"is_disabled":false,"rental_uris":{"android":"levelo://app?vid=2418d0da-086d-4e67-b2f5-3f1067242595","ios":"levelo://app?vid=2418d0da-086d-4e67-b2f5-3f1067242595"},"vehicle_type_id":"4","last_reported":1741839099,"current_range_meters":10800,"station_id":"ce4bhmh2rcd13ifvqgmg","pricing_plan_id":"cebpf4jnsgd1na2vs0mg"},{"bike_id":"559d880c-413b-4bec-b478-ce00f72287ce","system_id":"levelo_inurba_marseille","lat":43.31708,"lon":5.377609,"is_reserved":false,"is_disabled":false,"rental_uris":{"android":"levelo://app?vid=559d880c-413b-4bec-b478-ce00f72287ce","ios":"levelo://app?vid=559d880c-413b-4bec-b478-ce00f72287ce"},"vehicle_type_id":"4","last_reported":1741839099,"current_range_meters":10800,"station_id":"ce4bgth2rcd13ifvqch0","pricing_plan_id":"cebpf4jnsgd1na2vs0mg"},{"bike_id":"2c7213de-1d2d-4b17-ab38-ba3bb19fab23","system_id":"levelo_inurba_marseille","lat":43.28954,"lon":5.36606,"is_reserved":false,"is_disabled":false,"rental_uris":{"android":"levelo://app?vid=2c7213de-1d2d-4b17-ab38-ba3bb19fab23","ios":"levelo://app?vid=2c7213de-1d2d-4b17-ab38-ba3bb19fab23"},"vehicle_type_id":"4","last_reported":1741839099,"current_range_meters":10800,"station_id":"ce4bhap2rcd13ifvqek0","pricing_plan_id":"cebpf4jnsgd1na2vs0mg"},{"bike_id":"4c607265-c996-4d9b-81fd-daa80dd99e32","system_id":"levelo_inurba_marseille","lat":43.2873,"lon":5.38447,"is_reserved":false,"is_disabled":false,"rental_uris":{"android":"levelo://app?vid=4c607265-c996-4d9b-81fd-daa80dd99e32","ios":"levelo://app?vid=4c607265-c996-4d9b-81fd-daa80dd99e32"},"vehicle_type_id":"4","last_reported":1741839099,"current_range_meters":10800,"station_id":"","pricing_plan_id":"cebpf4jnsgd1na2vs0mg"},{"bike_id":"e7b25e36-0a83-4dda-88d0-c2926bc1cbb4","system_id":"levelo_inurba_marseille","lat":43.2985,"lon":5.36287,"is_reserved":false,"is_disabled":true,"rental_uris":{"android":"levelo://app?vid=e7b25e36-0a83-4dda-88d0-c2926bc1cbb4","ios":"levelo://app?vid=e7b25e36-0a83-4dda-88d0-c2926bc1cbb4"},"vehicle_type_id":"4","last_reported":1741839099,"current_range_meters":10800,"station_id":"ce4bgpp2rcd13ifvqc3g","pricing_plan_id":"cebpf4jnsgd1na2vs0mg"},{"bike_id":"79e732be-e7d8-4dc9-8c8f-89d56717d799","system_id":"levelo_inurba_marseille","lat":43.29047,"lon":5.37552,"is_reserved":false,"is_disabled":true,"rental_uris":{"android":"levelo://app?vid=79e732be-e7d8-4dc9-8c8f-89d56717d799","ios":"levelo://app?vid=79e732be-e7d8-4dc9-8c8f-89d56717d799"},"vehicle_type_id":"4","last_reported":1741839099,"current_range_meters":10800,"station_id":"ce4bh692rcd13ifvqe90","pricing_plan_id":"cebpf4jnsgd1na2vs0mg"},{"bike_id":"45fd1bb1-794d-4df4-b163-157b6c4166f2","system_id":"levelo_inurba_marseille","lat":43.313303,"lon":5.397,"is_reserved":false,"is_disabled":false,"rental_uris":{"android":"levelo://app?vid=45fd1bb1-794d-4df4-b163-157b6c4166f2","ios":"levelo://app?vid=45fd1bb1-794d-4df4-b163-157b6c4166f2"},"vehicle_type_id":"4","last_reported":1741839099,"current_range_meters":10800,"station_id":"ce4bgvp2rcd13ifvqcu0","pricing_plan_id":"cebpf4jnsgd1na2vs0mg"},{"bike_id":"5412c073-a21a-4f09-b8b3-6e8cd885fd55","system_id":"levelo_inurba_marseille","lat":43.31072,"lon":5.38349,"is_reserved":false,"is_disabled":true,"rental_uris":{"android":"levelo://app?vid=5412c073-a21a-4f09-b8b3-6e8cd885fd55","ios":"levelo://app?vid=5412c073-a21a-4f09-b8b3-6e8cd885fd55"},"vehicle_type_id":"4","last_reported":1741839099,"current_range_meters":10800,"station_id":"ce4bgv92rcd13ifvqcr0","pricing_plan_id":"cebpf4jnsgd1na2vs0mg"},{"bike_id":"443a3fb1-e6f8-4551-9dcb-92b2072390e6","system_id":"levelo_inurba_marseille","lat":43.30151,"lon":5.37683,"is_reserved":false,"is_disabled":false,"rental_uris":{"android":"levelo://app?vid=443a3fb1-e6f8-4551-9dcb-92b2072390e6","ios":"levelo://app?vid=443a3fb1-e6f8-4551-9dcb-92b2072390e6"},"vehicle_type_id":"4","last_reported":1741839099,"current_range_meters":10800,"station_id":"","pricing_plan_id":"cebpf4jnsgd1na2vs0mg"},{"bike_id":"04b6b0f6-d318-40e6-a023-347d481d621c","system_id":"levelo_inurba_marseille","lat":43.2919,"lon":5.37574,"is_reserved":false,"is_disabled":false,"rental_uris":{"android":"levelo://app?vid=04b6b0f6-d318-40e6-a023-347d481d621c","ios":"levelo://app?vid=04b6b0f6-d318-40e6-a023-347d481d621c"},"vehicle_type_id":"4","last_reported":1741839099,"current_range_meters":11200,"station_id":"","pricing_plan_id":"cebpf4jnsgd1na2vs0mg"},{"bike_id":"2a582046-21ee-41f2-8491-144751555225","system_id":"levelo_inurba_marseille","lat":43.30357,"lon":5.40415,"is_reserved":false,"is_disabled":false,"rental_uris":{"android":"levelo://app?vid=2a582046-21ee-41f2-8491-144751555225","ios":"levelo://app?vid=2a582046-21ee-41f2-8491-144751555225"},"vehicle_type_id":"4","last_reported":1741839099,"current_range_meters":11200,"station_id":"ce4bh012rcd13ifvqd10","pricing_plan_id":"cebpf4jnsgd1na2vs0mg"},{"bike_id":"6df1e7f3-12c0-481c-9941-2246e17807ca","system_id":"levelo_inurba_marseille","lat":43.28497,"lon":5.36795,"is_reserved":false,"is_disabled":true,"rental_uris":{"android":"levelo://app?vid=6df1e7f3-12c0-481c-9941-2246e17807ca","ios":"levelo://app?vid=6df1e7f3-12c0-481c-9941-2246e17807ca"},"vehicle_type_id":"4","last_reported":1741839099,"current_range_meters":11200,"station_id":"","pricing_plan_id":"cebpf4jnsgd1na2vs0mg"},{"bike_id":"14cdb32a-9821-4b92-bebf-08afd4f081b1","system_id":"levelo_inurba_marseille","lat":43.292539,"lon":5.409164,"is_reserved":false,"is_disabled":false,"rental_uris":{"android":"levelo://app?vid=14cdb32a-9821-4b92-bebf-08afd4f081b1","ios":"levelo://app?vid=14cdb32a-9821-4b92-bebf-08afd4f081b1"},"vehicle_type_id":"4","last_reported":1741839099,"current_range_meters":11200,"station_id":"ce4bh192rcd13ifvqdc0","pricing_plan_id":"cebpf4jnsgd1na2vs0mg"},{"bike_id":"a90afa33-b0ad-4184-8c0f-92c29581747e","system_id":"levelo_inurba_marseille","lat":43.27055,"lon":5.40256,"is_reserved":false,"is_disabled":false,"rental_uris":{"android":"levelo://app?vid=a90afa33-b0ad-4184-8c0f-92c29581747e","ios":"levelo://app?vid=a90afa33-b0ad-4184-8c0f-92c29581747e"},"vehicle_type_id":"4","last_reported":1741839099,"current_range_meters":11200,"station_id":"ce4bhk92rcd13ifvqgc0","pricing_plan_id":"cebpf4jnsgd1na2vs0mg"},{"bike_id":"eed25f50-0672-43b6-899a-5b11c18349d9","system_id":"levelo_inurba_marseille","lat":43.28553,"lon":5.39507,"is_reserved":false,"is_disabled":false,"rental_uris":{"android":"levelo://app?vid=eed25f50-0672-43b6-899a-5b11c18349d9","ios":"levelo://app?vid=eed25f50-0672-43b6-899a-5b11c18349d9"},"vehicle_type_id":"4","last_reported":1741839099,"current_range_meters":11200,"station_id":"ce4bh292rcd13ifvqdg0","pricing_plan_id":"cebpf4jnsgd1na2vs0mg"},{"bike_id":"a94f52d3-8f92-4581-aa55-a6373f361c0f","system_id":"levelo_inurba_marseille","lat":43.30878,"lon":5.39645,"is_reserved":false,"is_disabled":false,"rental_uris":{"android":"levelo://app?vid=a94f52d3-8f92-4581-aa55-a6373f361c0f","ios":"levelo://app?vid=a94f52d3-8f92-4581-aa55-a6373f361c0f"},"vehicle_type_id":"4","last_reported":1741839099,"current_range_meters":11200,"station_id":"ce4bh012rcd13ifvqcv0","pricing_plan_id":"cebpf4jnsgd1na2vs0mg"},{"bike_id":"9c298458-9168-485c-a6fd-bc9aa475b8d1","system_id":"levelo_inurba_marseille","lat":43.29298,"lon":5.40637,"is_reserved":false,"is_disabled":false,"rental_uris":{"android":"levelo://app?vid=9c298458-9168-485c-a6fd-bc9aa475b8d1","ios":"levelo://app?vid=9c298458-9168-485c-a6fd-bc9aa475b8d1"},"vehicle_type_id":"4","last_reported":1741839099,"current_range_meters":11200,"station_id":"","pricing_plan_id":"cebpf4jnsgd1na2vs0mg"},{"bike_id":"7382db7c-ea28-4d6b-a6ac-0a5dc179880b","system_id":"levelo_inurba_marseille","lat":43.33062,"lon":5.38139,"is_reserved":false,"is_disabled":false,"rental_uris":{"android":"levelo://app?vid=7382db7c-ea28-4d6b-a6ac-0a5dc179880b","ios":"levelo://app?vid=7382db7c-ea28-4d6b-a6ac-0a5dc179880b"},"vehicle_type_id":"4","last_reported":1741839099,"current_range_meters":11600,"station_id":"","pricing_plan_id":"cebpf4jnsgd1na2vs0mg"},{"bike_id":"0c542f7d-ece8-4ab5-be0e-e8dc24df7532","system_id":"levelo_inurba_marseille","lat":43.283521,"lon":5.381029,"is_reserved":false,"is_disabled":false,"rental_uris":{"android":"levelo://app?vid=0c542f7d-ece8-4ab5-be0e-e8dc24df7532","ios":"levelo://app?vid=0c542f7d-ece8-4ab5-be0e-e8dc24df7532"},"vehicle_type_id":"4","last_reported":1741839099,"current_range_meters":11600,"station_id":"ce4bh412rcd13ifvqdr0","pricing_plan_id":"cebpf4jnsgd1na2vs0mg"},{"bike_id":"60c9af3c-da06-4543-8fc5-ffa3849ed252","system_id":"levelo_inurba_marseille","lat":43.27366,"lon":5.36204,"is_reserved":false,"is_disabled":false,"rental_uris":{"android":"levelo://app?vid=60c9af3c-da06-4543-8fc5-ffa3849ed252","ios":"levelo://app?vid=60c9af3c-da06-4543-8fc5-ffa3849ed252"},"vehicle_type_id":"4","last_reported":1741839099,"current_range_meters":11600,"station_id":"","pricing_plan_id":"cebpf4jnsgd1na2vs0mg"},{"bike_id":"ac03e251-f109-43a3-82d8-343daf4cd1d5","system_id":"levelo_inurba_marseille","lat":43.279468,"lon":5.410322,"is_reserved":false,"is_disabled":false,"rental_uris":{"android":"levelo://app?vid=ac03e251-f109-43a3-82d8-343daf4cd1d5","ios":"levelo://app?vid=ac03e251-f109-43a3-82d8-343daf4cd1d5"},"vehicle_type_id":"4","last_reported":1741839099,"current_range_meters":11600,"station_id":"ce4bhnp2rcd13ifvqh0g","pricing_plan_id":"cebpf4jnsgd1na2vs0mg"},{"bike_id":"43210ee2-7bae-42bd-8e6d-b2d5802f48a9","system_id":"levelo_inurba_marseille","lat":43.29042,"lon":5.3999,"is_reserved":false,"is_disabled":false,"rental_uris":{"android":"levelo://app?vid=43210ee2-7bae-42bd-8e6d-b2d5802f48a9","ios":"levelo://app?vid=43210ee2-7bae-42bd-8e6d-b2d5802f48a9"},"vehicle_type_id":"4","last_reported":1741839099,"current_range_meters":11600,"station_id":"ce4bh392rcd13ifvqdm0","pricing_plan_id":"cebpf4jnsgd1na2vs0mg"},{"bike_id":"93bf71d7-3544-4769-a1d2-0279c0ff4611","system_id":"levelo_inurba_marseille","lat":43.279429,"lon":5.410395,"is_reserved":false,"is_disabled":false,"rental_uris":{"android":"levelo://app?vid=93bf71d7-3544-4769-a1d2-0279c0ff4611","ios":"levelo://app?vid=93bf71d7-3544-4769-a1d2-0279c0ff4611"},"vehicle_type_id":"4","last_reported":1741839099,"current_range_meters":11600,"station_id":"ce4bhnp2rcd13ifvqh0g","pricing_plan_id":"cebpf4jnsgd1na2vs0mg"},{"bike_id":"3082748f-98e4-4f65-aad3-436c5bc661ca","system_id":"levelo_inurba_marseille","lat":43.27998,"lon":5.39996,"is_reserved":false,"is_disabled":false,"rental_uris":{"android":"levelo://app?vid=3082748f-98e4-4f65-aad3-436c5bc661ca","ios":"levelo://app?vid=3082748f-98e4-4f65-aad3-436c5bc661ca"},"vehicle_type_id":"4","last_reported":1741839099,"current_range_meters":12000,"station_id":"ce4bho92rcd13ifvqh4g","pricing_plan_id":"cebpf4jnsgd1na2vs0mg"},{"bike_id":"96a2ded3-1991-4d9a-999d-06cdb7b93665","system_id":"levelo_inurba_marseille","lat":43.28731,"lon":5.36093,"is_reserved":false,"is_disabled":false,"rental_uris":{"android":"levelo://app?vid=96a2ded3-1991-4d9a-999d-06cdb7b93665","ios":"levelo://app?vid=96a2ded3-1991-4d9a-999d-06cdb7b93665"},"vehicle_type_id":"4","last_reported":1741839099,"current_range_meters":12000,"station_id":"cki0cbj6b192h4jlfktg","pricing_plan_id":"cebpf4jnsgd1na2vs0mg"},{"bike_id":"14584d64-8c35-48cb-b241-92b5577e6edf","system_id":"levelo_inurba_marseille","lat":43.27992,"lon":5.39989,"is_reserved":false,"is_disabled":false,"rental_uris":{"android":"levelo://app?vid=14584d64-8c35-48cb-b241-92b5577e6edf","ios":"levelo://app?vid=14584d64-8c35-48cb-b241-92b5577e6edf"},"vehicle_type_id":"4","last_reported":1741839099,"current_range_meters":12000,"station_id":"ce4bho92rcd13ifvqh4g","pricing_plan_id":"cebpf4jnsgd1na2vs0mg"},{"bike_id":"c33697f1-556a-4df5-876f-ea0ed28ee3a6","system_id":"levelo_inurba_marseille","lat":43.298757,"lon":5.389091,"is_reserved":false,"is_disabled":false,"rental_uris":{"android":"levelo://app?vid=c33697f1-556a-4df5-876f-ea0ed28ee3a6","ios":"levelo://app?vid=c33697f1-556a-4df5-876f-ea0ed28ee3a6"},"vehicle_type_id":"4","last_reported":1741839099,"current_range_meters":12000,"station_id":"ce4bh0h2rcd13ifvqd50","pricing_plan_id":"cebpf4jnsgd1na2vs0mg"},{"bike_id":"f2123f56-4b86-4f37-9277-4e46a6129744","system_id":"levelo_inurba_marseille","lat":43.279436,"lon":5.410381,"is_reserved":false,"is_disabled":false,"rental_uris":{"android":"levelo://app?vid=f2123f56-4b86-4f37-9277-4e46a6129744","ios":"levelo://app?vid=f2123f56-4b86-4f37-9277-4e46a6129744"},"vehicle_type_id":"4","last_reported":1741839099,"current_range_meters":12000,"station_id":"ce4bhnp2rcd13ifvqh0g","pricing_plan_id":"cebpf4jnsgd1na2vs0mg"},{"bike_id":"090953b7-cc15-4183-bb95-59952ed68ce5","system_id":"levelo_inurba_marseille","lat":43.294384,"lon":5.397467,"is_reserved":false,"is_disabled":false,"rental_uris":{"android":"levelo://app?vid=090953b7-cc15-4183-bb95-59952ed68ce5","ios":"levelo://app?vid=090953b7-cc15-4183-bb95-59952ed68ce5"},"vehicle_type_id":"4","last_reported":1741839099,"current_range_meters":12000,"station_id":"ce4bh3h2rcd13ifvqdo0","pricing_plan_id":"cebpf4jnsgd1na2vs0mg"},{"bike_id":"0118782e-a9be-4c57-a3c6-f989e8d3b9bf","system_id":"levelo_inurba_marseille","lat":43.24168,"lon":5.39708,"is_reserved":false,"is_disabled":false,"rental_uris":{"android":"levelo://app?vid=0118782e-a9be-4c57-a3c6-f989e8d3b9bf","ios":"levelo://app?vid=0118782e-a9be-4c57-a3c6-f989e8d3b9bf"},"vehicle_type_id":"4","last_reported":1741839099,"current_range_meters":12000,"station_id":"ce4bhn12rcd13ifvqgpg","pricing_plan_id":"cebpf4jnsgd1na2vs0mg"},{"bike_id":"278cc6d0-f87b-4a85-be1c-9ab962284920","system_id":"levelo_inurba_marseille","lat":43.31131,"lon":5.37753,"is_reserved":false,"is_disabled":false,"rental_uris":{"android":"levelo://app?vid=278cc6d0-f87b-4a85-be1c-9ab962284920","ios":"levelo://app?vid=278cc6d0-f87b-4a85-be1c-9ab962284920"},"vehicle_type_id":"4","last_reported":1741839099,"current_range_meters":12000,"station_id":"ce4bgt92rcd13ifvqcg0","pricing_plan_id":"cebpf4jnsgd1na2vs0mg"},{"bike_id":"3f79fd40-20c7-41e6-bf25-f409081cafe4","system_id":"levelo_inurba_marseille","lat":43.292552,"lon":5.409028,"is_reserved":false,"is_disabled":false,"rental_uris":{"android":"levelo://app?vid=3f79fd40-20c7-41e6-bf25-f409081cafe4","ios":"levelo://app?vid=3f79fd40-20c7-41e6-bf25-f409081cafe4"},"vehicle_type_id":"4","last_reported":1741839099,"current_range_meters":12000,"station_id":"ce4bh192rcd13ifvqdc0","pricing_plan_id":"cebpf4jnsgd1na2vs0mg"},{"bike_id":"303ff363-ae27-464f-897b-a8687ab6ce28","system_id":"levelo_inurba_marseille","lat":43.308888,"lon":5.396423,"is_reserved":false,"is_disabled":false,"rental_uris":{"android":"levelo://app?vid=303ff363-ae27-464f-897b-a8687ab6ce28","ios":"levelo://app?vid=303ff363-ae27-464f-897b-a8687ab6ce28"},"vehicle_type_id":"4","last_reported":1741839099,"current_range_meters":12000,"station_id":"ce4bh012rcd13ifvqcv0","pricing_plan_id":"cebpf4jnsgd1na2vs0mg"},{"bike_id":"673d81e8-8ab9-4ce6-83bf-142379266fb2","system_id":"levelo_inurba_marseille","lat":43.31053,"lon":5.38346,"is_reserved":false,"is_disabled":false,"rental_uris":{"android":"levelo://app?vid=673d81e8-8ab9-4ce6-83bf-142379266fb2","ios":"levelo://app?vid=673d81e8-8ab9-4ce6-83bf-142379266fb2"},"vehicle_type_id":"4","last_reported":1741839099,"current_range_meters":12400,"station_id":"ce4bgv92rcd13ifvqcr0","pricing_plan_id":"cebpf4jnsgd1na2vs0mg"},{"bike_id":"160ee366-45ff-4abc-859b-170d32229d5d","system_id":"levelo_inurba_marseille","lat":43.23959,"lon":5.36639,"is_reserved":false,"is_disabled":false,"rental_uris":{"android":"levelo://app?vid=160ee366-45ff-4abc-859b-170d32229d5d","ios":"levelo://app?vid=160ee366-45ff-4abc-859b-170d32229d5d"},"vehicle_type_id":"4","last_reported":1741839099,"current_range_meters":12400,"station_id":"ce4bhi12rcd13ifvqfp0","pricing_plan_id":"cebpf4jnsgd1na2vs0mg"},{"bike_id":"fd440347-0404-4c36-8fbe-7ebffd7a9e8f","system_id":"levelo_inurba_marseille","lat":43.33341,"lon":5.39635,"is_reserved":false,"is_disabled":false,"rental_uris":{"android":"levelo://app?vid=fd440347-0404-4c36-8fbe-7ebffd7a9e8f","ios":"levelo://app?vid=fd440347-0404-4c36-8fbe-7ebffd7a9e8f"},"vehicle_type_id":"4","last_reported":1741839099,"current_range_meters":12400,"station_id":"","pricing_plan_id":"cebpf4jnsgd1na2vs0mg"},{"bike_id":"894adb72-eba3-4c31-be33-a34cdb918fbd","system_id":"levelo_inurba_marseille","lat":43.257232,"lon":5.411091,"is_reserved":false,"is_disabled":false,"rental_uris":{"android":"levelo://app?vid=894adb72-eba3-4c31-be33-a34cdb918fbd","ios":"levelo://app?vid=894adb72-eba3-4c31-be33-a34cdb918fbd"},"vehicle_type_id":"4","last_reported":1741839099,"current_range_meters":12400,"station_id":"ce4bhkp2rcd13ifvqgd0","pricing_plan_id":"cebpf4jnsgd1na2vs0mg"},{"bike_id":"d1235ce3-1007-4d2d-9e28-ea39398a63a8","system_id":"levelo_inurba_marseille","lat":43.232029,"lon":5.355469,"is_reserved":false,"is_disabled":false,"rental_uris":{"android":"levelo://app?vid=d1235ce3-1007-4d2d-9e28-ea39398a63a8","ios":"levelo://app?vid=d1235ce3-1007-4d2d-9e28-ea39398a63a8"},"vehicle_type_id":"4","last_reported":1741839099,"current_range_meters":12400,"station_id":"ce4bhu92rcd13ifvqi70","pricing_plan_id":"cebpf4jnsgd1na2vs0mg"},{"bike_id":"a349870b-a227-4e56-b9fc-94759dc9b18a","system_id":"levelo_inurba_marseille","lat":43.29044,"lon":5.39967,"is_reserved":false,"is_disabled":false,"rental_uris":{"android":"levelo://app?vid=a349870b-a227-4e56-b9fc-94759dc9b18a","ios":"levelo://app?vid=a349870b-a227-4e56-b9fc-94759dc9b18a"},"vehicle_type_id":"4","last_reported":1741839099,"current_range_meters":12400,"station_id":"ce4bh392rcd13ifvqdm0","pricing_plan_id":"cebpf4jnsgd1na2vs0mg"},{"bike_id":"fc3e2299-43e3-44f6-b38f-f445795becb9","system_id":"levelo_inurba_marseille","lat":43.310831,"lon":5.424286,"is_reserved":false,"is_disabled":false,"rental_uris":{"android":"levelo://app?vid=fc3e2299-43e3-44f6-b38f-f445795becb9","ios":"levelo://app?vid=fc3e2299-43e3-44f6-b38f-f445795becb9"},"vehicle_type_id":"4","last_reported":1741839099,"current_range_meters":12400,"station_id":"ce4bhp92rcd13ifvqhag","pricing_plan_id":"cebpf4jnsgd1na2vs0mg"},{"bike_id":"1d1f4a3f-6c94-4e86-a876-396888239c67","system_id":"levelo_inurba_marseille","lat":43.23185,"lon":5.39995,"is_reserved":false,"is_disabled":false,"rental_uris":{"android":"levelo://app?vid=1d1f4a3f-6c94-4e86-a876-396888239c67","ios":"levelo://app?vid=1d1f4a3f-6c94-4e86-a876-396888239c67"},"vehicle_type_id":"4","last_reported":1741839099,"current_range_meters":12400,"station_id":"ce4bhn12rcd13ifvqgqg","pricing_plan_id":"cebpf4jnsgd1na2vs0mg"},{"bike_id":"81b9cb1e-db42-4d55-9d6b-044a4092416a","system_id":"levelo_inurba_marseille","lat":43.30943,"lon":5.40134,"is_reserved":false,"is_disabled":false,"rental_uris":{"android":"levelo://app?vid=81b9cb1e-db42-4d55-9d6b-044a4092416a","ios":"levelo://app?vid=81b9cb1e-db42-4d55-9d6b-044a4092416a"},"vehicle_type_id":"4","last_reported":1741839099,"current_range_meters":12800,"station_id":"ce4bgvp2rcd13ifvqct0","pricing_plan_id":"cebpf4jnsgd1na2vs0mg"},{"bike_id":"a823fe98-0845-44f0-af70-a3e75e70ed04","system_id":"levelo_inurba_marseille","lat":43.25006,"lon":5.38911,"is_reserved":false,"is_disabled":false,"rental_uris":{"android":"levelo://app?vid=a823fe98-0845-44f0-af70-a3e75e70ed04","ios":"levelo://app?vid=a823fe98-0845-44f0-af70-a3e75e70ed04"},"vehicle_type_id":"4","last_reported":1741839099,"current_range_meters":12800,"station_id":"ce4bhgp2rcd13ifvqfd0","pricing_plan_id":"cebpf4jnsgd1na2vs0mg"},{"bike_id":"94b30f95-19e8-4b24-809a-d279976d82ea","system_id":"levelo_inurba_marseille","lat":43.31377,"lon":5.3964,"is_reserved":false,"is_disabled":false,"rental_uris":{"android":"levelo://app?vid=94b30f95-19e8-4b24-809a-d279976d82ea","ios":"levelo://app?vid=94b30f95-19e8-4b24-809a-d279976d82ea"},"vehicle_type_id":"4","last_reported":1741839099,"current_range_meters":12800,"station_id":"","pricing_plan_id":"cebpf4jnsgd1na2vs0mg"},{"bike_id":"49975c1a-a0db-47db-88f0-bdd615732279","system_id":"levelo_inurba_marseille","lat":43.313273,"lon":5.39691,"is_reserved":false,"is_disabled":false,"rental_uris":{"android":"levelo://app?vid=49975c1a-a0db-47db-88f0-bdd615732279","ios":"levelo://app?vid=49975c1a-a0db-47db-88f0-bdd615732279"},"vehicle_type_id":"4","last_reported":1741839099,"current_range_meters":12800,"station_id":"ce4bgvp2rcd13ifvqcu0","pricing_plan_id":"cebpf4jnsgd1na2vs0mg"},{"bike_id":"0807fab1-82bf-4bf0-bf30-2487c43c2d85","system_id":"levelo_inurba_marseille","lat":43.291909,"lon":5.393297,"is_reserved":false,"is_disabled":false,"rental_uris":{"android":"levelo://app?vid=0807fab1-82bf-4bf0-bf30-2487c43c2d85","ios":"levelo://app?vid=0807fab1-82bf-4bf0-bf30-2487c43c2d85"},"vehicle_type_id":"4","last_reported":1741839099,"current_range_meters":12800,"station_id":"ce4bh192rcd13ifvqdd0","pricing_plan_id":"cebpf4jnsgd1na2vs0mg"},{"bike_id":"47e69b59-ebb6-4704-8786-703b1e4ed927","system_id":"levelo_inurba_marseille","lat":43.24163,"lon":5.39733,"is_reserved":false,"is_disabled":false,"rental_uris":{"android":"levelo://app?vid=47e69b59-ebb6-4704-8786-703b1e4ed927","ios":"levelo://app?vid=47e69b59-ebb6-4704-8786-703b1e4ed927"},"vehicle_type_id":"4","last_reported":1741839099,"current_range_meters":12800,"station_id":"ce4bhn12rcd13ifvqgpg","pricing_plan_id":"cebpf4jnsgd1na2vs0mg"},{"bike_id":"f550acae-a478-493d-8418-eb4ab17dc323","system_id":"levelo_inurba_marseille","lat":43.25004,"lon":5.38951,"is_reserved":false,"is_disabled":false,"rental_uris":{"android":"levelo://app?vid=f550acae-a478-493d-8418-eb4ab17dc323","ios":"levelo://app?vid=f550acae-a478-493d-8418-eb4ab17dc323"},"vehicle_type_id":"4","last_reported":1741839099,"current_range_meters":12800,"station_id":"ce4bhgp2rcd13ifvqfd0","pricing_plan_id":"cebpf4jnsgd1na2vs0mg"},{"bike_id":"c0d93da8-20a9-43de-ac96-41ac95e88f41","system_id":"levelo_inurba_marseille","lat":43.28659,"lon":5.36352,"is_reserved":false,"is_disabled":false,"rental_uris":{"android":"levelo://app?vid=c0d93da8-20a9-43de-ac96-41ac95e88f41","ios":"levelo://app?vid=c0d93da8-20a9-43de-ac96-41ac95e88f41"},"vehicle_type_id":"4","last_reported":1741839099,"current_range_meters":12800,"station_id":"ce4bhah2rcd13ifvqej0","pricing_plan_id":"cebpf4jnsgd1na2vs0mg"},{"bike_id":"127fed04-fe1d-4143-a0f1-08353951ebd0","system_id":"levelo_inurba_marseille","lat":43.31287,"lon":5.40138,"is_reserved":false,"is_disabled":false,"rental_uris":{"android":"levelo://app?vid=127fed04-fe1d-4143-a0f1-08353951ebd0","ios":"levelo://app?vid=127fed04-fe1d-4143-a0f1-08353951ebd0"},"vehicle_type_id":"4","last_reported":1741839099,"current_range_meters":12800,"station_id":"ce4bh092rcd13ifvqd30","pricing_plan_id":"cebpf4jnsgd1na2vs0mg"},{"bike_id":"0fd34dbc-0ce1-4549-9bc2-5f465d9fc4ce","system_id":"levelo_inurba_marseille","lat":43.27319,"lon":5.39071,"is_reserved":false,"is_disabled":false,"rental_uris":{"android":"levelo://app?vid=0fd34dbc-0ce1-4549-9bc2-5f465d9fc4ce","ios":"levelo://app?vid=0fd34dbc-0ce1-4549-9bc2-5f465d9fc4ce"},"vehicle_type_id":"4","last_reported":1741839099,"current_range_meters":13600,"station_id":"ce4bhgp2rcd13ifvqfe0","pricing_plan_id":"cebpf4jnsgd1na2vs0mg"},{"bike_id":"671d55cb-191d-47bc-89c2-8691b74c74cc","system_id":"levelo_inurba_marseille","lat":43.28503,"lon":5.36012,"is_reserved":false,"is_disabled":false,"rental_uris":{"android":"levelo://app?vid=671d55cb-191d-47bc-89c2-8691b74c74cc","ios":"levelo://app?vid=671d55cb-191d-47bc-89c2-8691b74c74cc"},"vehicle_type_id":"4","last_reported":1741839099,"current_range_meters":13600,"station_id":"","pricing_plan_id":"cebpf4jnsgd1na2vs0mg"},{"bike_id":"6a01bcd6-d597-43ea-9f33-f612ae30f0a5","system_id":"levelo_inurba_marseille","lat":43.31498,"lon":5.37274,"is_reserved":false,"is_disabled":false,"rental_uris":{"android":"levelo://app?vid=6a01bcd6-d597-43ea-9f33-f612ae30f0a5","ios":"levelo://app?vid=6a01bcd6-d597-43ea-9f33-f612ae30f0a5"},"vehicle_type_id":"4","last_reported":1741839099,"current_range_meters":13600,"station_id":"ce4bgt12rcd13ifvqcd0","pricing_plan_id":"cebpf4jnsgd1na2vs0mg"},{"bike_id":"4d6e400a-ab93-4a9d-878c-f8c7b50c0c46","system_id":"levelo_inurba_marseille","lat":43.28714,"lon":5.36109,"is_reserved":false,"is_disabled":false,"rental_uris":{"android":"levelo://app?vid=4d6e400a-ab93-4a9d-878c-f8c7b50c0c46","ios":"levelo://app?vid=4d6e400a-ab93-4a9d-878c-f8c7b50c0c46"},"vehicle_type_id":"4","last_reported":1741839099,"current_range_meters":13600,"station_id":"cki0cbj6b192h4jlfktg","pricing_plan_id":"cebpf4jnsgd1na2vs0mg"},{"bike_id":"9c067a7a-ca47-4ba3-982e-e3c13c2eb137","system_id":"levelo_inurba_marseille","lat":43.280779,"lon":5.396572,"is_reserved":false,"is_disabled":false,"rental_uris":{"android":"levelo://app?vid=9c067a7a-ca47-4ba3-982e-e3c13c2eb137","ios":"levelo://app?vid=9c067a7a-ca47-4ba3-982e-e3c13c2eb137"},"vehicle_type_id":"4","last_reported":1741839099,"current_range_meters":13600,"station_id":"ce4bho12rcd13ifvqh2g","pricing_plan_id":"cebpf4jnsgd1na2vs0mg"},{"bike_id":"8d93327b-4c27-4905-8185-af00d21521bf","system_id":"levelo_inurba_marseille","lat":43.28416,"lon":5.375128,"is_reserved":false,"is_disabled":false,"rental_uris":{"android":"levelo://app?vid=8d93327b-4c27-4905-8185-af00d21521bf","ios":"levelo://app?vid=8d93327b-4c27-4905-8185-af00d21521bf"},"vehicle_type_id":"4","last_reported":1741839099,"current_range_meters":13600,"station_id":"ce4bh412rcd13ifvqds0","pricing_plan_id":"cebpf4jnsgd1na2vs0mg"},{"bike_id":"16e3afe0-cf85-410c-88a0-8e337726a46a","system_id":"levelo_inurba_marseille","lat":43.266627,"lon":5.386068,"is_reserved":false,"is_disabled":false,"rental_uris":{"android":"levelo://app?vid=16e3afe0-cf85-410c-88a0-8e337726a46a","ios":"levelo://app?vid=16e3afe0-cf85-410c-88a0-8e337726a46a"},"vehicle_type_id":"4","last_reported":1741839099,"current_range_meters":13600,"station_id":"","pricing_plan_id":"cebpf4jnsgd1na2vs0mg"},{"bike_id":"62d17995-9965-4167-bc6a-6c764d8919d0","system_id":"levelo_inurba_marseille","lat":43.309246,"lon":5.401541,"is_reserved":false,"is_disabled":false,"rental_uris":{"android":"levelo://app?vid=62d17995-9965-4167-bc6a-6c764d8919d0","ios":"levelo://app?vid=62d17995-9965-4167-bc6a-6c764d8919d0"},"vehicle_type_id":"4","last_reported":1741839099,"current_range_meters":13600,"station_id":"ce4bgvp2rcd13ifvqct0","pricing_plan_id":"cebpf4jnsgd1na2vs0mg"},{"bike_id":"1789fff5-1f9f-41e4-876c-54bb6ef81f84","system_id":"levelo_inurba_marseille","lat":43.29499,"lon":5.38644,"is_reserved":false,"is_disabled":false,"rental_uris":{"android":"levelo://app?vid=1789fff5-1f9f-41e4-876c-54bb6ef81f84","ios":"levelo://app?vid=1789fff5-1f9f-41e4-876c-54bb6ef81f84"},"vehicle_type_id":"4","last_reported":1741839099,"current_range_meters":13600,"station_id":"","pricing_plan_id":"cebpf4jnsgd1na2vs0mg"},{"bike_id":"3a0406cd-c8ef-42ef-b405-bb4a8bd64c09","system_id":"levelo_inurba_marseille","lat":43.30887,"lon":5.39633,"is_reserved":false,"is_disabled":false,"rental_uris":{"android":"levelo://app?vid=3a0406cd-c8ef-42ef-b405-bb4a8bd64c09","ios":"levelo://app?vid=3a0406cd-c8ef-42ef-b405-bb4a8bd64c09"},"vehicle_type_id":"4","last_reported":1741839099,"current_range_meters":13600,"station_id":"ce4bh012rcd13ifvqcv0","pricing_plan_id":"cebpf4jnsgd1na2vs0mg"},{"bike_id":"d0afc242-d584-4d4f-be55-e08ae87b44a3","system_id":"levelo_inurba_marseille","lat":43.28832,"lon":5.3932,"is_reserved":false,"is_disabled":false,"rental_uris":{"android":"levelo://app?vid=d0afc242-d584-4d4f-be55-e08ae87b44a3","ios":"levelo://app?vid=d0afc242-d584-4d4f-be55-e08ae87b44a3"},"vehicle_type_id":"4","last_reported":1741839099,"current_range_meters":14000,"station_id":"ce4bh2p2rcd13ifvqdi0","pricing_plan_id":"cebpf4jnsgd1na2vs0mg"},{"bike_id":"d0ab2a3e-a999-4385-92b9-ee36f2d9e18c","system_id":"levelo_inurba_marseille","lat":43.28857,"lon":5.35869,"is_reserved":false,"is_disabled":false,"rental_uris":{"android":"levelo://app?vid=d0ab2a3e-a999-4385-92b9-ee36f2d9e18c","ios":"levelo://app?vid=d0ab2a3e-a999-4385-92b9-ee36f2d9e18c"},"vehicle_type_id":"4","last_reported":1741839099,"current_range_meters":14000,"station_id":"ce4bhb12rcd13ifvqem0","pricing_plan_id":"cebpf4jnsgd1na2vs0mg"},{"bike_id":"95583956-9373-403e-a9b7-af095ab52947","system_id":"levelo_inurba_marseille","lat":43.30926,"lon":5.40145,"is_reserved":false,"is_disabled":false,"rental_uris":{"android":"levelo://app?vid=95583956-9373-403e-a9b7-af095ab52947","ios":"levelo://app?vid=95583956-9373-403e-a9b7-af095ab52947"},"vehicle_type_id":"4","last_reported":1741839099,"current_range_meters":14000,"station_id":"ce4bgvp2rcd13ifvqct0","pricing_plan_id":"cebpf4jnsgd1na2vs0mg"},{"bike_id":"588d101e-9f1e-4743-bfb3-1be6dffe89b7","system_id":"levelo_inurba_marseille","lat":43.2871,"lon":5.37394,"is_reserved":false,"is_disabled":false,"rental_uris":{"android":"levelo://app?vid=588d101e-9f1e-4743-bfb3-1be6dffe89b7","ios":"levelo://app?vid=588d101e-9f1e-4743-bfb3-1be6dffe89b7"},"vehicle_type_id":"4","last_reported":1741839099,"current_range_meters":14000,"station_id":"ce4bh3p2rcd13ifvqdq0","pricing_plan_id":"cebpf4jnsgd1na2vs0mg"},{"bike_id":"ecefee2d-0daa-4cc3-9d63-61a078601cfd","system_id":"levelo_inurba_marseille","lat":43.28707,"lon":5.37379,"is_reserved":false,"is_disabled":true,"rental_uris":{"android":"levelo://app?vid=ecefee2d-0daa-4cc3-9d63-61a078601cfd","ios":"levelo://app?vid=ecefee2d-0daa-4cc3-9d63-61a078601cfd"},"vehicle_type_id":"4","last_reported":1741839099,"current_range_meters":14000,"station_id":"ce4bh3p2rcd13ifvqdq0","pricing_plan_id":"cebpf4jnsgd1na2vs0mg"},{"bike_id":"46f57872-eb49-4260-a97a-1df293c4fba1","system_id":"levelo_inurba_marseille","lat":43.30218,"lon":5.39446,"is_reserved":false,"is_disabled":false,"rental_uris":{"android":"levelo://app?vid=46f57872-eb49-4260-a97a-1df293c4fba1","ios":"levelo://app?vid=46f57872-eb49-4260-a97a-1df293c4fba1"},"vehicle_type_id":"4","last_reported":1741839099,"current_range_meters":14000,"station_id":"ce4bh0p2rcd13ifvqd70","pricing_plan_id":"cebpf4jnsgd1na2vs0mg"},{"bike_id":"44184cb0-3e17-405e-b50a-ccb95ba1fe86","system_id":"levelo_inurba_marseille","lat":43.308904,"lon":5.371987,"is_reserved":false,"is_disabled":false,"rental_uris":{"android":"levelo://app?vid=44184cb0-3e17-405e-b50a-ccb95ba1fe86","ios":"levelo://app?vid=44184cb0-3e17-405e-b50a-ccb95ba1fe86"},"vehicle_type_id":"4","last_reported":1741839099,"current_range_meters":14000,"station_id":"ce4bguh2rcd13ifvqckg","pricing_plan_id":"cebpf4jnsgd1na2vs0mg"},{"bike_id":"b8df69cd-b52a-4f3c-a4f8-961ac24bcde1","system_id":"levelo_inurba_marseille","lat":43.240796,"lon":5.377482,"is_reserved":false,"is_disabled":false,"rental_uris":{"android":"levelo://app?vid=b8df69cd-b52a-4f3c-a4f8-961ac24bcde1","ios":"levelo://app?vid=b8df69cd-b52a-4f3c-a4f8-961ac24bcde1"},"vehicle_type_id":"4","last_reported":1741839099,"current_range_meters":14000,"station_id":"ce4bhnp2rcd13ifvqgvg","pricing_plan_id":"cebpf4jnsgd1na2vs0mg"},{"bike_id":"b2ef2790-569c-462a-85d7-d680aae1d18f","system_id":"levelo_inurba_marseille","lat":43.25082,"lon":5.39517,"is_reserved":false,"is_disabled":false,"rental_uris":{"android":"levelo://app?vid=b2ef2790-569c-462a-85d7-d680aae1d18f","ios":"levelo://app?vid=b2ef2790-569c-462a-85d7-d680aae1d18f"},"vehicle_type_id":"4","last_reported":1741839099,"current_range_meters":14000,"station_id":"ce4bhm12rcd13ifvqgkg","pricing_plan_id":"cebpf4jnsgd1na2vs0mg"},{"bike_id":"5610defd-1989-4c35-b1ab-5dd07964b516","system_id":"levelo_inurba_marseille","lat":43.319968,"lon":5.381552,"is_reserved":false,"is_disabled":false,"rental_uris":{"android":"levelo://app?vid=5610defd-1989-4c35-b1ab-5dd07964b516","ios":"levelo://app?vid=5610defd-1989-4c35-b1ab-5dd07964b516"},"vehicle_type_id":"4","last_reported":1741839099,"current_range_meters":14000,"station_id":"ce4bhr12rcd13ifvqhpg","pricing_plan_id":"cebpf4jnsgd1na2vs0mg"},{"bike_id":"6d3b21af-e6ed-4744-8f69-608405b1a7d1","system_id":"levelo_inurba_marseille","lat":43.30862,"lon":5.39659,"is_reserved":false,"is_disabled":false,"rental_uris":{"android":"levelo://app?vid=6d3b21af-e6ed-4744-8f69-608405b1a7d1","ios":"levelo://app?vid=6d3b21af-e6ed-4744-8f69-608405b1a7d1"},"vehicle_type_id":"4","last_reported":1741839099,"current_range_meters":14000,"station_id":"ce4bh012rcd13ifvqcv0","pricing_plan_id":"cebpf4jnsgd1na2vs0mg"},{"bike_id":"ae11dbfe-881b-4b31-a4f2-1955f6403035","system_id":"levelo_inurba_marseille","lat":43.27966,"lon":5.38739,"is_reserved":false,"is_disabled":false,"rental_uris":{"android":"levelo://app?vid=ae11dbfe-881b-4b31-a4f2-1955f6403035","ios":"levelo://app?vid=ae11dbfe-881b-4b31-a4f2-1955f6403035"},"vehicle_type_id":"4","last_reported":1741839099,"current_range_meters":14400,"station_id":"ce4bhg12rcd13ifvqf80","pricing_plan_id":"cebpf4jnsgd1na2vs0mg"},{"bike_id":"1c03ca8c-c489-4aeb-9098-555db3778d79","system_id":"levelo_inurba_marseille","lat":43.32334,"lon":5.40609,"is_reserved":false,"is_disabled":false,"rental_uris":{"android":"levelo://app?vid=1c03ca8c-c489-4aeb-9098-555db3778d79","ios":"levelo://app?vid=1c03ca8c-c489-4aeb-9098-555db3778d79"},"vehicle_type_id":"4","last_reported":1741839099,"current_range_meters":14400,"station_id":"ce4bhq92rcd13ifvqhjg","pricing_plan_id":"cebpf4jnsgd1na2vs0mg"},{"bike_id":"ad84dcdb-ca91-4fae-8613-31faa66d14ad","system_id":"levelo_inurba_marseille","lat":43.30332,"lon":5.40441,"is_reserved":false,"is_disabled":false,"rental_uris":{"android":"levelo://app?vid=ad84dcdb-ca91-4fae-8613-31faa66d14ad","ios":"levelo://app?vid=ad84dcdb-ca91-4fae-8613-31faa66d14ad"},"vehicle_type_id":"4","last_reported":1741839099,"current_range_meters":14400,"station_id":"ce4bh012rcd13ifvqd10","pricing_plan_id":"cebpf4jnsgd1na2vs0mg"},{"bike_id":"9dc3cd16-9473-4470-a92c-a73db8613e21","system_id":"levelo_inurba_marseille","lat":43.31718,"lon":5.3766,"is_reserved":false,"is_disabled":false,"rental_uris":{"android":"levelo://app?vid=9dc3cd16-9473-4470-a92c-a73db8613e21","ios":"levelo://app?vid=9dc3cd16-9473-4470-a92c-a73db8613e21"},"vehicle_type_id":"4","last_reported":1741839099,"current_range_meters":14400,"station_id":"","pricing_plan_id":"cebpf4jnsgd1na2vs0mg"},{"bike_id":"e403288d-b468-4ea8-b33d-644efb4c82c2","system_id":"levelo_inurba_marseille","lat":43.27811,"lon":5.40716,"is_reserved":false,"is_disabled":false,"rental_uris":{"android":"levelo://app?vid=e403288d-b468-4ea8-b33d-644efb4c82c2","ios":"levelo://app?vid=e403288d-b468-4ea8-b33d-644efb4c82c2"},"vehicle_type_id":"4","last_reported":1741839099,"current_range_meters":14400,"station_id":"ce4bhnh2rcd13ifvqgtg","pricing_plan_id":"cebpf4jnsgd1na2vs0mg"},{"bike_id":"70a53264-8bbe-452e-8c7e-ee5964d8270a","system_id":"levelo_inurba_marseille","lat":43.240823,"lon":5.377474,"is_reserved":false,"is_disabled":false,"rental_uris":{"android":"levelo://app?vid=70a53264-8bbe-452e-8c7e-ee5964d8270a","ios":"levelo://app?vid=70a53264-8bbe-452e-8c7e-ee5964d8270a"},"vehicle_type_id":"4","last_reported":1741839099,"current_range_meters":14400,"station_id":"ce4bhnp2rcd13ifvqgvg","pricing_plan_id":"cebpf4jnsgd1na2vs0mg"},{"bike_id":"ceeee897-d459-42e7-a4f8-d97e0f4762de","system_id":"levelo_inurba_marseille","lat":43.28704,"lon":5.39999,"is_reserved":false,"is_disabled":false,"rental_uris":{"android":"levelo://app?vid=ceeee897-d459-42e7-a4f8-d97e0f4762de","ios":"levelo://app?vid=ceeee897-d459-42e7-a4f8-d97e0f4762de"},"vehicle_type_id":"4","last_reported":1741839099,"current_range_meters":14400,"station_id":"ce4bho92rcd13ifvqh3g","pricing_plan_id":"cebpf4jnsgd1na2vs0mg"},{"bike_id":"2201ee96-a1ee-425d-8180-43956a73efa5","system_id":"levelo_inurba_marseille","lat":43.28657,"lon":5.36359,"is_reserved":false,"is_disabled":false,"rental_uris":{"android":"levelo://app?vid=2201ee96-a1ee-425d-8180-43956a73efa5","ios":"levelo://app?vid=2201ee96-a1ee-425d-8180-43956a73efa5"},"vehicle_type_id":"4","last_reported":1741839099,"current_range_meters":14400,"station_id":"ce4bhah2rcd13ifvqej0","pricing_plan_id":"cebpf4jnsgd1na2vs0mg"},{"bike_id":"478c6b7e-c9f5-4336-b301-c63c8b41ef49","system_id":"levelo_inurba_marseille","lat":43.311653,"lon":5.402269,"is_reserved":false,"is_disabled":false,"rental_uris":{"android":"levelo://app?vid=478c6b7e-c9f5-4336-b301-c63c8b41ef49","ios":"levelo://app?vid=478c6b7e-c9f5-4336-b301-c63c8b41ef49"},"vehicle_type_id":"4","last_reported":1741839099,"current_range_meters":14400,"station_id":"","pricing_plan_id":"cebpf4jnsgd1na2vs0mg"},{"bike_id":"58189b20-7c9f-49f4-bc87-1c5a2e968cde","system_id":"levelo_inurba_marseille","lat":43.26816,"lon":5.41096,"is_reserved":false,"is_disabled":false,"rental_uris":{"android":"levelo://app?vid=58189b20-7c9f-49f4-bc87-1c5a2e968cde","ios":"levelo://app?vid=58189b20-7c9f-49f4-bc87-1c5a2e968cde"},"vehicle_type_id":"4","last_reported":1741839099,"current_range_meters":14400,"station_id":"","pricing_plan_id":"cebpf4jnsgd1na2vs0mg"},{"bike_id":"927285e7-0e22-4c5b-9f53-d6fa1d997eea","system_id":"levelo_inurba_marseille","lat":43.25114,"lon":5.40327,"is_reserved":false,"is_disabled":false,"rental_uris":{"android":"levelo://app?vid=927285e7-0e22-4c5b-9f53-d6fa1d997eea","ios":"levelo://app?vid=927285e7-0e22-4c5b-9f53-d6fa1d997eea"},"vehicle_type_id":"4","last_reported":1741839099,"current_range_meters":14400,"station_id":"ce4bhlh2rcd13ifvqgig","pricing_plan_id":"cebpf4jnsgd1na2vs0mg"},{"bike_id":"909e037c-5e8b-42ea-b90c-fd33ecc7d0b5","system_id":"levelo_inurba_marseille","lat":43.293696,"lon":5.408829,"is_reserved":false,"is_disabled":false,"rental_uris":{"android":"levelo://app?vid=909e037c-5e8b-42ea-b90c-fd33ecc7d0b5","ios":"levelo://app?vid=909e037c-5e8b-42ea-b90c-fd33ecc7d0b5"},"vehicle_type_id":"4","last_reported":1741839099,"current_range_meters":14400,"station_id":"","pricing_plan_id":"cebpf4jnsgd1na2vs0mg"},{"bike_id":"f182cf00-e5df-43a0-878e-ed3730573c6e","system_id":"levelo_inurba_marseille","lat":43.23183,"lon":5.4,"is_reserved":false,"is_disabled":false,"rental_uris":{"android":"levelo://app?vid=f182cf00-e5df-43a0-878e-ed3730573c6e","ios":"levelo://app?vid=f182cf00-e5df-43a0-878e-ed3730573c6e"},"vehicle_type_id":"4","last_reported":1741839099,"current_range_meters":14800,"station_id":"ce4bhn12rcd13ifvqgqg","pricing_plan_id":"cebpf4jnsgd1na2vs0mg"},{"bike_id":"f3291a48-4171-4dd1-b341-037b6e6f6b32","system_id":"levelo_inurba_marseille","lat":43.28335,"lon":5.38095,"is_reserved":false,"is_disabled":true,"rental_uris":{"android":"levelo://app?vid=f3291a48-4171-4dd1-b341-037b6e6f6b32","ios":"levelo://app?vid=f3291a48-4171-4dd1-b341-037b6e6f6b32"},"vehicle_type_id":"4","last_reported":1741839099,"current_range_meters":14800,"station_id":"ce4bh412rcd13ifvqdr0","pricing_plan_id":"cebpf4jnsgd1na2vs0mg"},{"bike_id":"1144b701-514d-4936-837f-5b6a1f20d793","system_id":"levelo_inurba_marseille","lat":43.30799,"lon":5.38151,"is_reserved":false,"is_disabled":false,"rental_uris":{"android":"levelo://app?vid=1144b701-514d-4936-837f-5b6a1f20d793","ios":"levelo://app?vid=1144b701-514d-4936-837f-5b6a1f20d793"},"vehicle_type_id":"4","last_reported":1741839099,"current_range_meters":14800,"station_id":"ce4bgt12rcd13ifvqce0","pricing_plan_id":"cebpf4jnsgd1na2vs0mg"},{"bike_id":"3a254f63-8711-4d27-a9ac-39bd66820438","system_id":"levelo_inurba_marseille","lat":43.30935,"lon":5.40143,"is_reserved":false,"is_disabled":false,"rental_uris":{"android":"levelo://app?vid=3a254f63-8711-4d27-a9ac-39bd66820438","ios":"levelo://app?vid=3a254f63-8711-4d27-a9ac-39bd66820438"},"vehicle_type_id":"4","last_reported":1741839099,"current_range_meters":14800,"station_id":"ce4bgvp2rcd13ifvqct0","pricing_plan_id":"cebpf4jnsgd1na2vs0mg"},{"bike_id":"f27df232-bb49-4bc3-83b2-9956074d1efb","system_id":"levelo_inurba_marseille","lat":43.31058,"lon":5.3834,"is_reserved":false,"is_disabled":false,"rental_uris":{"android":"levelo://app?vid=f27df232-bb49-4bc3-83b2-9956074d1efb","ios":"levelo://app?vid=f27df232-bb49-4bc3-83b2-9956074d1efb"},"vehicle_type_id":"4","last_reported":1741839099,"current_range_meters":14800,"station_id":"ce4bgv92rcd13ifvqcr0","pricing_plan_id":"cebpf4jnsgd1na2vs0mg"},{"bike_id":"96d668e9-cba7-4613-8796-e10d04f90d18","system_id":"levelo_inurba_marseille","lat":43.32322,"lon":5.4061,"is_reserved":false,"is_disabled":false,"rental_uris":{"android":"levelo://app?vid=96d668e9-cba7-4613-8796-e10d04f90d18","ios":"levelo://app?vid=96d668e9-cba7-4613-8796-e10d04f90d18"},"vehicle_type_id":"4","last_reported":1741839099,"current_range_meters":14800,"station_id":"ce4bhq92rcd13ifvqhjg","pricing_plan_id":"cebpf4jnsgd1na2vs0mg"},{"bike_id":"d499aa7d-37fe-4efe-8d86-7fc011ad17ad","system_id":"levelo_inurba_marseille","lat":43.23056,"lon":5.35491,"is_reserved":false,"is_disabled":false,"rental_uris":{"android":"levelo://app?vid=d499aa7d-37fe-4efe-8d86-7fc011ad17ad","ios":"levelo://app?vid=d499aa7d-37fe-4efe-8d86-7fc011ad17ad"},"vehicle_type_id":"4","last_reported":1741839099,"current_range_meters":14800,"station_id":"cpo3342slgdg3j2ifvpg","pricing_plan_id":"cebpf4jnsgd1na2vs0mg"},{"bike_id":"82d7dd21-1379-4657-9d9a-8c2681e2f3c3","system_id":"levelo_inurba_marseille","lat":43.299308,"lon":5.365353,"is_reserved":false,"is_disabled":false,"rental_uris":{"android":"levelo://app?vid=82d7dd21-1379-4657-9d9a-8c2681e2f3c3","ios":"levelo://app?vid=82d7dd21-1379-4657-9d9a-8c2681e2f3c3"},"vehicle_type_id":"4","last_reported":1741839099,"current_range_meters":14800,"station_id":"ce4bgm92rcd13ifvqbr0","pricing_plan_id":"cebpf4jnsgd1na2vs0mg"},{"bike_id":"e3565dcf-4d34-49d7-919b-1234920ea466","system_id":"levelo_inurba_marseille","lat":43.33746,"lon":5.3745,"is_reserved":false,"is_disabled":false,"rental_uris":{"android":"levelo://app?vid=e3565dcf-4d34-49d7-919b-1234920ea466","ios":"levelo://app?vid=e3565dcf-4d34-49d7-919b-1234920ea466"},"vehicle_type_id":"4","last_reported":1741839099,"current_range_meters":14800,"station_id":"","pricing_plan_id":"cebpf4jnsgd1na2vs0mg"},{"bike_id":"2ceee151-07bf-4d36-80b7-294af7caa2e2","system_id":"levelo_inurba_marseille","lat":43.28355,"lon":5.38651,"is_reserved":false,"is_disabled":true,"rental_uris":{"android":"levelo://app?vid=2ceee151-07bf-4d36-80b7-294af7caa2e2","ios":"levelo://app?vid=2ceee151-07bf-4d36-80b7-294af7caa2e2"},"vehicle_type_id":"4","last_reported":1741839099,"current_range_meters":15200,"station_id":"ce4bh492rcd13ifvqdvg","pricing_plan_id":"cebpf4jnsgd1na2vs0mg"},{"bike_id":"a66124cb-566a-4d33-93d8-1c0403fb5851","system_id":"levelo_inurba_marseille","lat":43.32734,"lon":5.39248,"is_reserved":false,"is_disabled":false,"rental_uris":{"android":"levelo://app?vid=a66124cb-566a-4d33-93d8-1c0403fb5851","ios":"levelo://app?vid=a66124cb-566a-4d33-93d8-1c0403fb5851"},"vehicle_type_id":"4","last_reported":1741839099,"current_range_meters":15200,"station_id":"","pricing_plan_id":"cebpf4jnsgd1na2vs0mg"},{"bike_id":"7e266a52-c107-42c0-9b42-44d2b54fa50b","system_id":"levelo_inurba_marseille","lat":43.25467,"lon":5.37659,"is_reserved":false,"is_disabled":true,"rental_uris":{"android":"levelo://app?vid=7e266a52-c107-42c0-9b42-44d2b54fa50b","ios":"levelo://app?vid=7e266a52-c107-42c0-9b42-44d2b54fa50b"},"vehicle_type_id":"4","last_reported":1741839099,"current_range_meters":15200,"station_id":"ce4bhh12rcd13ifvqff0","pricing_plan_id":"cebpf4jnsgd1na2vs0mg"},{"bike_id":"76938d2c-796b-45fc-aebf-a74c87d1b386","system_id":"levelo_inurba_marseille","lat":43.30757,"lon":5.37657,"is_reserved":false,"is_disabled":false,"rental_uris":{"android":"levelo://app?vid=76938d2c-796b-45fc-aebf-a74c87d1b386","ios":"levelo://app?vid=76938d2c-796b-45fc-aebf-a74c87d1b386"},"vehicle_type_id":"4","last_reported":1741839099,"current_range_meters":15200,"station_id":"ce4bgv92rcd13ifvqcq0","pricing_plan_id":"cebpf4jnsgd1na2vs0mg"},{"bike_id":"6d41e3df-d59c-4c8f-855b-2c1aab2ac389","system_id":"levelo_inurba_marseille","lat":43.29263,"lon":5.40149,"is_reserved":false,"is_disabled":false,"rental_uris":{"android":"levelo://app?vid=6d41e3df-d59c-4c8f-855b-2c1aab2ac389","ios":"levelo://app?vid=6d41e3df-d59c-4c8f-855b-2c1aab2ac389"},"vehicle_type_id":"4","last_reported":1741839099,"current_range_meters":15200,"station_id":"ce4bh312rcd13ifvqdk0","pricing_plan_id":"cebpf4jnsgd1na2vs0mg"},{"bike_id":"1fdc081a-6925-4d03-9828-00cfe6e2a655","system_id":"levelo_inurba_marseille","lat":43.28693,"lon":5.37373,"is_reserved":false,"is_disabled":false,"rental_uris":{"android":"levelo://app?vid=1fdc081a-6925-4d03-9828-00cfe6e2a655","ios":"levelo://app?vid=1fdc081a-6925-4d03-9828-00cfe6e2a655"},"vehicle_type_id":"4","last_reported":1741839099,"current_range_meters":15200,"station_id":"ce4bh3p2rcd13ifvqdq0","pricing_plan_id":"cebpf4jnsgd1na2vs0mg"},{"bike_id":"46dd4016-d587-4a4f-8016-5b3dd037e240","system_id":"levelo_inurba_marseille","lat":43.26221,"lon":5.40449,"is_reserved":false,"is_disabled":false,"rental_uris":{"android":"levelo://app?vid=46dd4016-d587-4a4f-8016-5b3dd037e240","ios":"levelo://app?vid=46dd4016-d587-4a4f-8016-5b3dd037e240"},"vehicle_type_id":"4","last_reported":1741839099,"current_range_meters":15200,"station_id":"ce4bhmh2rcd13ifvqgmg","pricing_plan_id":"cebpf4jnsgd1na2vs0mg"},{"bike_id":"8800fe62-316d-4ba6-8e08-932f674d36e9","system_id":"levelo_inurba_marseille","lat":43.30939,"lon":5.40144,"is_reserved":false,"is_disabled":false,"rental_uris":{"android":"levelo://app?vid=8800fe62-316d-4ba6-8e08-932f674d36e9","ios":"levelo://app?vid=8800fe62-316d-4ba6-8e08-932f674d36e9"},"vehicle_type_id":"4","last_reported":1741839099,"current_range_meters":15200,"station_id":"ce4bgvp2rcd13ifvqct0","pricing_plan_id":"cebpf4jnsgd1na2vs0mg"},