{"last_updated":1682355968,"ttl":30,"version":"2.2","data":{"bikes":[{"bike_id":"1f377d78-ad25-40bc-81ad-24d0c5fa5dab","system_id":"levelo_inurba_marseille","lat":43.313478,"lon":5.367027,"is_reserved":false,"is_disabled":false,"rental_uris":{"android":"levelo://app?vid=1f377d78-ad25-40bc-81ad-24d0c5fa5dab","ios":"levelo://app?vid=1f377d78-ad25-40bc-81ad-24d0c5fa5dab"},"vehicle_type_id":"4","last_reported":1682355969,"current_range_meters":27200,"station_id":"ce4bhbh2rcd13ifvqeqg","pricing_plan_id":"free"},{"bike_id":"838d1329-cfc3-4279-94e0-e10222e38cd0","system_id":"levelo_inurba_marseille","lat":43.312239,"lon":5.368562,"is_reserved":false,"is_disabled":false,"rental_uris":{"android":"levelo://app?vid=838d1329-cfc3-4279-94e0-e10222e38cd0","ios":"levelo://app?vid=838d1329-cfc3-4279-94e0-e10222e38cd0"},"vehicle_type_id":"4","last_reported":1682355969,"current_range_meters":28400,"station_id":"ce4bgl92rcd13ifvqbq0","pricing_plan_id":"free"},{"bike_id":"035a2e4a-4404-455a-9dc6-ab6c0d93e902","system_id":"levelo_inurba_marseille","lat":43.30742,"lon":5.36795,"is_reserved":false,"is_disabled":false,"rental_uris":{"android":"levelo://app?vid=035a2e4a-4404-455a-9dc6-ab6c0d93e902","ios":"levelo://app?vid=035a2e4a-4404-455a-9dc6-ab6c0d93e902"},"vehicle_type_id":"4","last_reported":1682355969,"current_range_meters":19600,"station_id":"","pricing_plan_id":"free"},{"bike_id":"c6b1d053-3a61-460f-8b9d-c83c9f9a1072","system_id":"levelo_inurba_marseille","lat":43.305405,"lon":5.36699,"is_reserved":false,"is_disabled":false,"rental_uris":{"android":"levelo://app?vid=c6b1d053-3a61-460f-8b9d-c83c9f9a1072","ios":"levelo://app?vid=c6b1d053-3a61-460f-8b9d-c83c9f9a1072"},"vehicle_type_id":"4","last_reported":1682355969,"current_range_meters":31600,"station_id":"","pricing_plan_id":"free"},{"bike_id":"2f266608-64d0-4b9c-8c06-94dced1c7467","system_id":"levelo_inurba_marseille","lat":43.305368,"lon":5.367343,"is_reserved":false,"is_disabled":false,"rental_uris":{"android":"levelo://app?vid=2f266608-64d0-4b9c-8c06-94dced1c7467","ios":"levelo://app?vid=2f266608-64d0-4b9c-8c06-94dced1c7467"},"vehicle_type_id":"4","last_reported":1682355969,"current_range_meters":31600,"station_id":"ce4bgrp2rcd13ifvqc9g","pricing_plan_id":"free"},{"bike_id":"d2f0573d-a3b0-4f0d-b49f-ae0d4b38e62f","system_id":"levelo_inurba_marseille","lat":43.30545,"lon":5.36557,"is_reserved":false,"is_disabled":false,"rental_uris":{"android":"levelo://app?vid=d2f0573d-a3b0-4f0d-b49f-ae0d4b38e62f","ios":"levelo://app?vid=d2f0573d-a3b0-4f0d-b49f-ae0d4b38e62f"},"vehicle_type_id":"4","last_reported":1682355969,"current_range_meters":29200,"station_id":"","pricing_plan_id":"free"},{"bike_id":"a9cf9e21-c253-4156-845f-be6e21c953ea","system_id":"levelo_inurba_marseille","lat":43.305989,"lon":5.37225,"is_reserved":false,"is_disabled":false,"rental_uris":{"android":"levelo://app?vid=a9cf9e21-c253-4156-845f-be6e21c953ea","ios":"levelo://app?vid=a9cf9e21-c253-4156-845f-be6e21c953ea"},"vehicle_type_id":"4","last_reported":1682355969,"current_range_meters":30400,"station_id":"ce4bgqh2rcd13ifvqc4g","pricing_plan_id":"free"},{"bike_id":"a97448e5-2173-4ed5-9520-670c2aa66749","system_id":"levelo_inurba_marseille","lat":43.305989,"lon":5.37225,"is_reserved":false,"is_disabled":false,"rental_uris":{"android":"levelo://app?vid=a97448e5-2173-4ed5-9520-670c2aa66749","ios":"levelo://app?vid=a97448e5-2173-4ed5-9520-670c2aa66749"},"vehicle_type_id":"4","last_reported":1682355969,"current_range_meters":31200,"station_id":"ce4bgqh2rcd13ifvqc4g","pricing_plan_id":"free"},{"bike_id":"8bb173b8-9703-4be8-93bc-38b2048038bf","system_id":"levelo_inurba_marseille","lat":43.305989,"lon":5.37225,"is_reserved":false,"is_disabled":false,"rental_uris":{"android":"levelo://app?vid=8bb173b8-9703-4be8-93bc-38b2048038bf","ios":"levelo://app?vid=8bb173b8-9703-4be8-93bc-38b2048038bf"},"vehicle_type_id":"4","last_reported":1682355969,"current_range_meters":31200,"station_id":"ce4bgqh2rcd13ifvqc4g","pricing_plan_id":"free"},{"bike_id":"a22e3575-d738-42e8-a143-5cea4dadfaf5","system_id":"levelo_inurba_marseille","lat":43.305989,"lon":5.37225,"is_reserved":false,"is_disabled":false,"rental_uris":{"android":"levelo://app?vid=a22e3575-d738-42e8-a143-5cea4dadfaf5","ios":"levelo://app?vid=a22e3575-d738-42e8-a143-5cea4dadfaf5"},"vehicle_type_id":"4","last_reported":1682355969,"current_range_meters":27600,"station_id":"ce4bgqh2rcd13ifvqc4g","pricing_plan_id":"free"},{"bike_id":"37101493-aec1-4e36-beff-9363e721a7f9","system_id":"levelo_inurba_marseille","lat":43.30608,"lon":5.37231,"is_reserved":false,"is_disabled":false,"rental_uris":{"android":"levelo://app?vid=37101493-aec1-4e36-beff-9363e721a7f9","ios":"levelo://app?vid=37101493-aec1-4e36-beff-9363e721a7f9"},"vehicle_type_id":"4","last_reported":1682355969,"current_range_meters":24800,"station_id":"ce4bgqh2rcd13ifvqc4g","pricing_plan_id":"free"},{"bike_id":"17c6a2f9-29da-4eea-8677-f7f4c149f04c","system_id":"levelo_inurba_marseille","lat":43.305989,"lon":5.37225,"is_reserved":false,"is_disabled":false,"rental_uris":{"android":"levelo://app?vid=17c6a2f9-29da-4eea-8677-f7f4c149f04c","ios":"levelo://app?vid=17c6a2f9-29da-4eea-8677-f7f4c149f04c"},"vehicle_type_id":"4","last_reported":1682355969,"current_range_meters":31200,"station_id":"ce4bgqh2rcd13ifvqc4g","pricing_plan_id":"free"},{"bike_id":"899bb319-1df0-4302-bb00-c923f94a3b49","system_id":"levelo_inurba_marseille","lat":43.30602,"lon":5.37223,"is_reserved":false,"is_disabled":false,"rental_uris":{"android":"levelo://app?vid=899bb319-1df0-4302-bb00-c923f94a3b49","ios":"levelo://app?vid=899bb319-1df0-4302-bb00-c923f94a3b49"},"vehicle_type_id":"4","last_reported":1682355969,"current_range_meters":7200,"station_id":"ce4bgqh2rcd13ifvqc4g","pricing_plan_id":"free"},{"bike_id":"90007992-9418-444f-834e-9307911dbb7a","system_id":"levelo_inurba_marseille","lat":43.30605,"lon":5.37233,"is_reserved":false,"is_disabled":false,"rental_uris":{"android":"levelo://app?vid=90007992-9418-444f-834e-9307911dbb7a","ios":"levelo://app?vid=90007992-9418-444f-834e-9307911dbb7a"},"vehicle_type_id":"4","last_reported":1682355969,"current_range_meters":26400,"station_id":"ce4bgqh2rcd13ifvqc4g","pricing_plan_id":"free"},{"bike_id":"41a52bbb-dbb4-49c4-8512-158749b321a2","system_id":"levelo_inurba_marseille","lat":43.305989,"lon":5.37225,"is_reserved":false,"is_disabled":false,"rental_uris":{"android":"levelo://app?vid=41a52bbb-dbb4-49c4-8512-158749b321a2","ios":"levelo://app?vid=41a52bbb-dbb4-49c4-8512-158749b321a2"},"vehicle_type_id":"4","last_reported":1682355969,"current_range_meters":31200,"station_id":"ce4bgqh2rcd13ifvqc4g","pricing_plan_id":"free"},{"bike_id":"eac9dd88-c6ca-4ba5-be0a-5f078e4101b1","system_id":"levelo_inurba_marseille","lat":43.305989,"lon":5.37225,"is_reserved":false,"is_disabled":false,"rental_uris":{"android":"levelo://app?vid=eac9dd88-c6ca-4ba5-be0a-5f078e4101b1","ios":"levelo://app?vid=eac9dd88-c6ca-4ba5-be0a-5f078e4101b1"},"vehicle_type_id":"4","last_reported":1682355969,"current_range_meters":24000,"station_id":"ce4bgqh2rcd13ifvqc4g","pricing_plan_id":"free"},{"bike_id":"3c4e6c8c-df65-4deb-8995-f8befa733260","system_id":"levelo_inurba_marseille","lat":43.31534,"lon":5.37884,"is_reserved":false,"is_disabled":false,"rental_uris":{"android":"levelo://app?vid=3c4e6c8c-df65-4deb-8995-f8befa733260","ios":"levelo://app?vid=3c4e6c8c-df65-4deb-8995-f8befa733260"},"vehicle_type_id":"4","last_reported":1682355969,"current_range_meters":800,"station_id":"","pricing_plan_id":"free"},{"bike_id":"0747aafb-a7ad-45fb-ad0a-79a84c0b124f","system_id":"levelo_inurba_marseille","lat":43.315289,"lon":5.380349,"is_reserved":false,"is_disabled":false,"rental_uris":{"android":"levelo://app?vid=0747aafb-a7ad-45fb-ad0a-79a84c0b124f","ios":"levelo://app?vid=0747aafb-a7ad-45fb-ad0a-79a84c0b124f"},"vehicle_type_id":"4","last_reported":1682355969,"current_range_meters":31200,"station_id":"ce4bhsp2rcd13ifvqi50","pricing_plan_id":"free"},{"bike_id":"66e5840f-115c-493a-99ca-fffa0f09102c","system_id":"levelo_inurba_marseille","lat":43.315293,"lon":5.380349,"is_reserved":false,"is_disabled":false,"rental_uris":{"android":"levelo://app?vid=66e5840f-115c-493a-99ca-fffa0f09102c","ios":"levelo://app?vid=66e5840f-115c-493a-99ca-fffa0f09102c"},"vehicle_type_id":"4","last_reported":1682355969,"current_range_meters":26400,"station_id":"ce4bhsp2rcd13ifvqi50","pricing_plan_id":"free"},{"bike_id":"9c707f1c-92b9-4c2b-8cca-89fcc13354d3","system_id":"levelo_inurba_marseille","lat":43.315293,"lon":5.380349,"is_reserved":false,"is_disabled":false,"rental_uris":{"android":"levelo://app?vid=9c707f1c-92b9-4c2b-8cca-89fcc13354d3","ios":"levelo://app?vid=9c707f1c-92b9-4c2b-8cca-89fcc13354d3"},"vehicle_type_id":"4","last_reported":1682355969,"current_range_meters":20800,"station_id":"ce4bhsp2rcd13ifvqi50","pricing_plan_id":"free"},{"bike_id":"9d50b01c-5336-4ca8-9997-2323d16f7623","system_id":"levelo_inurba_marseille","lat":43.301939,"lon":5.366286,"is_reserved":false,"is_disabled":false,"rental_uris":{"android":"levelo://app?vid=9d50b01c-5336-4ca8-9997-2323d16f7623","ios":"levelo://app?vid=9d50b01c-5336-4ca8-9997-2323d16f7623"},"vehicle_type_id":"4","last_reported":1682355969,"current_range_meters":31200,"station_id":"ce4bgrh2rcd13ifvqc8g","pricing_plan_id":"free"},{"bike_id":"66ea5ee8-defb-4e46-b35e-2b4341acb7ea","system_id":"levelo_inurba_marseille","lat":43.301939,"lon":5.366286,"is_reserved":false,"is_disabled":false,"rental_uris":{"android":"levelo://app?vid=66ea5ee8-defb-4e46-b35e-2b4341acb7ea","ios":"levelo://app?vid=66ea5ee8-defb-4e46-b35e-2b4341acb7ea"},"vehicle_type_id":"4","last_reported":1682355969,"current_range_meters":5200,"station_id":"ce4bgrh2rcd13ifvqc8g","pricing_plan_id":"free"},{"bike_id":"6d4ec163-b125-428c-978f-0d9fed2e0ead","system_id":"levelo_inurba_marseille","lat":43.308012,"lon":5.381511,"is_reserved":false,"is_disabled":false,"rental_uris":{"android":"levelo://app?vid=6d4ec163-b125-428c-978f-0d9fed2e0ead","ios":"levelo://app?vid=6d4ec163-b125-428c-978f-0d9fed2e0ead"},"vehicle_type_id":"4","last_reported":1682355969,"current_range_meters":14400,"station_id":"ce4bgt12rcd13ifvqce0","pricing_plan_id":"free"},{"bike_id":"6305f54b-11a5-424b-9c59-65194ca6dcb4","system_id":"levelo_inurba_marseille","lat":43.30128,"lon":5.37346,"is_reserved":false,"is_disabled":false,"rental_uris":{"android":"levelo://app?vid=6305f54b-11a5-424b-9c59-65194ca6dcb4","ios":"levelo://app?vid=6305f54b-11a5-424b-9c59-65194ca6dcb4"},"vehicle_type_id":"4","last_reported":1682355969,"current_range_meters":24800,"station_id":"","pricing_plan_id":"free"},{"bike_id":"4f56497c-cd4d-4751-a7e3-20bc34e9c9f4","system_id":"levelo_inurba_marseille","lat":43.301429,"lon":5.37413,"is_reserved":false,"is_disabled":false,"rental_uris":{"android":"levelo://app?vid=4f56497c-cd4d-4751-a7e3-20bc34e9c9f4","ios":"levelo://app?vid=4f56497c-cd4d-4751-a7e3-20bc34e9c9f4"},"vehicle_type_id":"4","last_reported":1682355969,"current_range_meters":31600,"station_id":"ce4bgs92rcd13ifvqcc0","pricing_plan_id":"free"},{"bike_id":"099cf79b-9fb9-4b1f-8f8c-f5e742b17b0a","system_id":"levelo_inurba_marseille","lat":43.301429,"lon":5.37413,"is_reserved":false,"is_disabled":false,"rental_uris":{"android":"levelo://app?vid=099cf79b-9fb9-4b1f-8f8c-f5e742b17b0a","ios":"levelo://app?vid=099cf79b-9fb9-4b1f-8f8c-f5e742b17b0a"},"vehicle_type_id":"4","last_reported":1682355969,"current_range_meters":31600,"station_id":"ce4bgs92rcd13ifvqcc0","pricing_plan_id":"free"},{"bike_id":"9ae134c3-5d40-4bde-91b1-4a06162a9ffe","system_id":"levelo_inurba_marseille","lat":43.301429,"lon":5.37413,"is_reserved":false,"is_disabled":false,"rental_uris":{"android":"levelo://app?vid=9ae134c3-5d40-4bde-91b1-4a06162a9ffe","ios":"levelo://app?vid=9ae134c3-5d40-4bde-91b1-4a06162a9ffe"},"vehicle_type_id":"4","last_reported":1682355969,"current_range_meters":19600,"station_id":"ce4bgs92rcd13ifvqcc0","pricing_plan_id":"free"},{"bike_id":"9bdd7d97-8c0f-4e76-8f66-f369f58d22d5","system_id":"levelo_inurba_marseille","lat":43.301429,"lon":5.37413,"is_reserved":false,"is_disabled":false,"rental_uris":{"android":"levelo://app?vid=9bdd7d97-8c0f-4e76-8f66-f369f58d22d5","ios":"levelo://app?vid=9bdd7d97-8c0f-4e76-8f66-f369f58d22d5"},"vehicle_type_id":"4","last_reported":1682355969,"current_range_meters":14800,"station_id":"ce4bgs92rcd13ifvqcc0","pricing_plan_id":"free"},{"bike_id":"cc4d9d5c-dbb3-4a94-9ee2-43ff07fda860","system_id":"levelo_inurba_marseille","lat":43.301429,"lon":5.37413,"is_reserved":false,"is_disabled":false,"rental_uris":{"android":"levelo://app?vid=cc4d9d5c-dbb3-4a94-9ee2-43ff07fda860","ios":"levelo://app?vid=cc4d9d5c-dbb3-4a94-9ee2-43ff07fda860"},"vehicle_type_id":"4","last_reported":1682355969,"current_range_meters":19200,"station_id":"ce4bgs92rcd13ifvqcc0","pricing_plan_id":"free"},{"bike_id":"399fc780-fc6d-4173-bc8c-8b72ba60ace3","system_id":"levelo_inurba_marseille","lat":43.301429,"lon":5.37413,"is_reserved":false,"is_disabled":false,"rental_uris":{"android":"levelo://app?vid=399fc780-fc6d-4173-bc8c-8b72ba60ace3","ios":"levelo://app?vid=399fc780-fc6d-4173-bc8c-8b72ba60ace3"},"vehicle_type_id":"4","last_reported":1682355969,"current_range_meters":31200,"station_id":"ce4bgs92rcd13ifvqcc0","pricing_plan_id":"free"},{"bike_id":"653f8e10-1094-487d-bcf4-671afd96f3b4","system_id":"levelo_inurba_marseille","lat":43.30147,"lon":5.37427,"is_reserved":false,"is_disabled":false,"rental_uris":{"android":"levelo://app?vid=653f8e10-1094-487d-bcf4-671afd96f3b4","ios":"levelo://app?vid=653f8e10-1094-487d-bcf4-671afd96f3b4"},"vehicle_type_id":"4","last_reported":1682355969,"current_range_meters":31200,"station_id":"ce4bgs92rcd13ifvqcc0","pricing_plan_id":"free"},{"bike_id":"c30f198f-c7f6-464b-bc24-fa88e84c8062","system_id":"levelo_inurba_marseille","lat":43.301429,"lon":5.37413,"is_reserved":false,"is_disabled":false,"rental_uris":{"android":"levelo://app?vid=c30f198f-c7f6-464b-bc24-fa88e84c8062","ios":"levelo://app?vid=c30f198f-c7f6-464b-bc24-fa88e84c8062"},"vehicle_type_id":"4","last_reported":1682355969,"current_range_meters":31600,"station_id":"ce4bgs92rcd13ifvqcc0","pricing_plan_id":"free"},{"bike_id":"0794ebcf-31e8-43cb-8b9a-a9d0c181bedd","system_id":"levelo_inurba_marseille","lat":43.301435,"lon":5.374197,"is_reserved":false,"is_disabled":false,"rental_uris":{"android":"levelo://app?vid=0794ebcf-31e8-43cb-8b9a-a9d0c181bedd","ios":"levelo://app?vid=0794ebcf-31e8-43cb-8b9a-a9d0c181bedd"},"vehicle_type_id":"4","last_reported":1682355969,"current_range_meters":0,"station_id":"","pricing_plan_id":"free"},{"bike_id":"9f1a7e7c-3723-4559-9867-384dddaf8e9d","system_id":"levelo_inurba_marseille","lat":43.301429,"lon":5.37413,"is_reserved":false,"is_disabled":false,"rental_uris":{"android":"levelo://app?vid=9f1a7e7c-3723-4559-9867-384dddaf8e9d","ios":"levelo://app?vid=9f1a7e7c-3723-4559-9867-384dddaf8e9d"},"vehicle_type_id":"4","last_reported":1682355969,"current_range_meters":19200,"station_id":"ce4bgs92rcd13ifvqcc0","pricing_plan_id":"free"},{"bike_id":"3bfe9439-76be-4ad8-8724-4fe2c3a981b3","system_id":"levelo_inurba_marseille","lat":43.30138,"lon":5.37411,"is_reserved":false,"is_disabled":false,"rental_uris":{"android":"levelo://app?vid=3bfe9439-76be-4ad8-8724-4fe2c3a981b3","ios":"levelo://app?vid=3bfe9439-76be-4ad8-8724-4fe2c3a981b3"},"vehicle_type_id":"4","last_reported":1682355969,"current_range_meters":31200,"station_id":"ce4bgs92rcd13ifvqcc0","pricing_plan_id":"free"},{"bike_id":"32a8c9ac-46f2-4c3f-8534-73fd60cb7144","system_id":"levelo_inurba_marseille","lat":43.231793,"lon":5.400044,"is_reserved":false,"is_disabled":false,"rental_uris":{"android":"levelo://app?vid=32a8c9ac-46f2-4c3f-8534-73fd60cb7144","ios":"levelo://app?vid=32a8c9ac-46f2-4c3f-8534-73fd60cb7144"},"vehicle_type_id":"4","last_reported":1682355969,"current_range_meters":4000,"station_id":"ce4bhn12rcd13ifvqgqg","pricing_plan_id":"free"},{"bike_id":"741ba4d6-7747-4107-94f5-0c14e5222a43","system_id":"levelo_inurba_marseille","lat":43.313571,"lon":5.384829,"is_reserved":false,"is_disabled":false,"rental_uris":{"android":"levelo://app?vid=741ba4d6-7747-4107-94f5-0c14e5222a43","ios":"levelo://app?vid=741ba4d6-7747-4107-94f5-0c14e5222a43"},"vehicle_type_id":"4","last_reported":1682355969,"current_range_meters":11200,"station_id":"ce4bgt92rcd13ifvqcf0","pricing_plan_id":"free"},{"bike_id":"09eaf7cd-3496-430a-8525-ffefd041517f","system_id":"levelo_inurba_marseille","lat":43.313571,"lon":5.384829,"is_reserved":false,"is_disabled":false,"rental_uris":{"android":"levelo://app?vid=09eaf7cd-3496-430a-8525-ffefd041517f","ios":"levelo://app?vid=09eaf7cd-3496-430a-8525-ffefd041517f"},"vehicle_type_id":"4","last_reported":1682355969,"current_range_meters":12800,"station_id":"ce4bgt92rcd13ifvqcf0","pricing_plan_id":"free"},{"bike_id":"4581fe8b-2a36-4d3b-b9a7-d39ade469f7c","system_id":"levelo_inurba_marseille","lat":43.313571,"lon":5.384829,"is_reserved":false,"is_disabled":false,"rental_uris":{"android":"levelo://app?vid=4581fe8b-2a36-4d3b-b9a7-d39ade469f7c","ios":"levelo://app?vid=4581fe8b-2a36-4d3b-b9a7-d39ade469f7c"},"vehicle_type_id":"4","last_reported":1682355969,"current_range_meters":18800,"station_id":"ce4bgt92rcd13ifvqcf0","pricing_plan_id":"free"},{"bike_id":"c0b5366e-272f-4051-a1f3-50e796f178c9","system_id":"levelo_inurba_marseille","lat":43.313571,"lon":5.384829,"is_reserved":false,"is_disabled":false,"rental_uris":{"android":"levelo://app?vid=c0b5366e-272f-4051-a1f3-50e796f178c9","ios":"levelo://app?vid=c0b5366e-272f-4051-a1f3-50e796f178c9"},"vehicle_type_id":"4","last_reported":1682355969,"current_range_meters":19200,"station_id":"ce4bgt92rcd13ifvqcf0","pricing_plan_id":"free"},{"bike_id":"48b16660-c93f-481c-8e69-a4a7540b57fc","system_id":"levelo_inurba_marseille","lat":43.313571,"lon":5.384829,"is_reserved":false,"is_disabled":false,"rental_uris":{"android":"levelo://app?vid=48b16660-c93f-481c-8e69-a4a7540b57fc","ios":"levelo://app?vid=48b16660-c93f-481c-8e69-a4a7540b57fc"},"vehicle_type_id":"4","last_reported":1682355969,"current_range_meters":23200,"station_id":"ce4bgt92rcd13ifvqcf0","pricing_plan_id":"free"},{"bike_id":"edf1e47a-91a5-4f12-894c-53aeb1ebbf86","system_id":"levelo_inurba_marseille","lat":43.313571,"lon":5.384829,"is_reserved":false,"is_disabled":false,"rental_uris":{"android":"levelo://app?vid=edf1e47a-91a5-4f12-894c-53aeb1ebbf86","ios":"levelo://app?vid=edf1e47a-91a5-4f12-894c-53aeb1ebbf86"},"vehicle_type_id":"4","last_reported":1682355969,"current_range_meters":15600,"station_id":"ce4bgt92rcd13ifvqcf0","pricing_plan_id":"free"},{"bike_id":"461dd549-f1ff-41c4-be0d-1015eca41ea5","system_id":"levelo_inurba_marseille","lat":43.313571,"lon":5.384829,"is_reserved":false,"is_disabled":false,"rental_uris":{"android":"levelo://app?vid=461dd549-f1ff-41c4-be0d-1015eca41ea5","ios":"levelo://app?vid=461dd549-f1ff-41c4-be0d-1015eca41ea5"},"vehicle_type_id":"4","last_reported":1682355969,"current_range_meters":400,"station_id":"ce4bgt92rcd13ifvqcf0","pricing_plan_id":"free"},{"bike_id":"78d97fa6-0732-49f0-be52-f40beccaa257","system_id":"levelo_inurba_marseille","lat":43.313571,"lon":5.384829,"is_reserved":false,"is_disabled":false,"rental_uris":{"android":"levelo://app?vid=78d97fa6-0732-49f0-be52-f40beccaa257","ios":"levelo://app?vid=78d97fa6-0732-49f0-be52-f40beccaa257"},"vehicle_type_id":"4","last_reported":1682355969,"current_range_meters":19200,"station_id":"ce4bgt92rcd13ifvqcf0","pricing_plan_id":"free"},{"bike_id":"dbd7597e-b833-46b0-9ddc-c0d489525d92","system_id":"levelo_inurba_marseille","lat":43.299222,"lon":5.365554,"is_reserved":false,"is_disabled":false,"rental_uris":{"android":"levelo://app?vid=dbd7597e-b833-46b0-9ddc-c0d489525d92","ios":"levelo://app?vid=dbd7597e-b833-46b0-9ddc-c0d489525d92"},"vehicle_type_id":"4","last_reported":1682355969,"current_range_meters":30000,"station_id":"ce4bgm92rcd13ifvqbr0","pricing_plan_id":"free"},{"bike_id":"665d0207-c141-46d6-998d-01abc40a4a60","system_id":"levelo_inurba_marseille","lat":43.299222,"lon":5.365554,"is_reserved":false,"is_disabled":false,"rental_uris":{"android":"levelo://app?vid=665d0207-c141-46d6-998d-01abc40a4a60","ios":"levelo://app?vid=665d0207-c141-46d6-998d-01abc40a4a60"},"vehicle_type_id":"4","last_reported":1682355969,"current_range_meters":31200,"station_id":"ce4bgm92rcd13ifvqbr0","pricing_plan_id":"free"},{"bike_id":"a56fb576-0297-4d24-85d7-66e1204b3769","system_id":"levelo_inurba_marseille","lat":43.298975,"lon":5.365218,"is_reserved":false,"is_disabled":false,"rental_uris":{"android":"levelo://app?vid=a56fb576-0297-4d24-85d7-66e1204b3769","ios":"levelo://app?vid=a56fb576-0297-4d24-85d7-66e1204b3769"},"vehicle_type_id":"4","last_reported":1682355969,"current_range_meters":0,"station_id":"ce4bgm92rcd13ifvqbr0","pricing_plan_id":"free"},{"bike_id":"3d90ab18-21a6-435d-aaa5-a06d00cfbb64","system_id":"levelo_inurba_marseille","lat":43.299243,"lon":5.37481,"is_reserved":false,"is_disabled":false,"rental_uris":{"android":"levelo://app?vid=3d90ab18-21a6-435d-aaa5-a06d00cfbb64","ios":"levelo://app?vid=3d90ab18-21a6-435d-aaa5-a06d00cfbb64"},"vehicle_type_id":"4","last_reported":1682355969,"current_range_meters":31200,"station_id":"ce4bgjh2rcd13ifvqbg0","pricing_plan_id":"free"},{"bike_id":"a66cd79d-7359-49af-8719-348311941782","system_id":"levelo_inurba_marseille","lat":43.298433,"lon":5.362774,"is_reserved":false,"is_disabled":false,"rental_uris":{"android":"levelo://app?vid=a66cd79d-7359-49af-8719-348311941782","ios":"levelo://app?vid=a66cd79d-7359-49af-8719-348311941782"},"vehicle_type_id":"4","last_reported":1682355969,"current_range_meters":23600,"station_id":"ce4bgpp2rcd13ifvqc3g","pricing_plan_id":"free"},{"bike_id":"92939f4a-d037-4278-87c7-1c58aad3df0a","system_id":"levelo_inurba_marseille","lat":43.299243,"lon":5.374807,"is_reserved":false,"is_disabled":false,"rental_uris":{"android":"levelo://app?vid=92939f4a-d037-4278-87c7-1c58aad3df0a","ios":"levelo://app?vid=92939f4a-d037-4278-87c7-1c58aad3df0a"},"vehicle_type_id":"4","last_reported":1682355969,"current_range_meters":31200,"station_id":"ce4bgjh2rcd13ifvqbg0","pricing_plan_id":"free"},{"bike_id":"d4962fb6-04e0-40b0-8b27-d673257aa6e1","system_id":"levelo_inurba_marseille","lat":43.299243,"lon":5.374807,"is_reserved":false,"is_disabled":false,"rental_uris":{"android":"levelo://app?vid=d4962fb6-04e0-40b0-8b27-d673257aa6e1","ios":"levelo://app?vid=d4962fb6-04e0-40b0-8b27-d673257aa6e1"},"vehicle_type_id":"4","last_reported":1682355969,"current_range_meters":31200,"station_id":"ce4bgjh2rcd13ifvqbg0","pricing_plan_id":"free"},{"bike_id":"ff684e10-4915-44d5-8c58-a65d987ac067","system_id":"levelo_inurba_marseille","lat":43.299243,"lon":5.374807,"is_reserved":false,"is_disabled":false,"rental_uris":{"android":"levelo://app?vid=ff684e10-4915-44d5-8c58-a65d987ac067","ios":"levelo://app?vid=ff684e10-4915-44d5-8c58-a65d987ac067"},"vehicle_type_id":"4","last_reported":1682355969,"current_range_meters":1200,"station_id":"ce4bgjh2rcd13ifvqbg0","pricing_plan_id":"free"},{"bike_id":"b6faa14b-61e4-4872-bf6c-f86644d83ef5","system_id":"levelo_inurba_marseille","lat":43.31164,"lon":5.38713,"is_reserved":false,"is_disabled":false,"rental_uris":{"android":"levelo://app?vid=b6faa14b-61e4-4872-bf6c-f86644d83ef5","ios":"levelo://app?vid=b6faa14b-61e4-4872-bf6c-f86644d83ef5"},"vehicle_type_id":"4","last_reported":1682355969,"current_range_meters":5200,"station_id":"ce4bgv12rcd13ifvqcp0","pricing_plan_id":"free"},{"bike_id":"05788152-7ea7-4dae-9ef5-1b82cb0e8fcb","system_id":"levelo_inurba_marseille","lat":43.299243,"lon":5.374807,"is_reserved":false,"is_disabled":false,"rental_uris":{"android":"levelo://app?vid=05788152-7ea7-4dae-9ef5-1b82cb0e8fcb","ios":"levelo://app?vid=05788152-7ea7-4dae-9ef5-1b82cb0e8fcb"},"vehicle_type_id":"4","last_reported":1682355969,"current_range_meters":24800,"station_id":"ce4bgjh2rcd13ifvqbg0","pricing_plan_id":"free"},{"bike_id":"9b9ac17e-6dac-4b1f-bf47-3a4e13c16ccc","system_id":"levelo_inurba_marseille","lat":43.299243,"lon":5.37481,"is_reserved":false,"is_disabled":false,"rental_uris":{"android":"levelo://app?vid=9b9ac17e-6dac-4b1f-bf47-3a4e13c16ccc","ios":"levelo://app?vid=9b9ac17e-6dac-4b1f-bf47-3a4e13c16ccc"},"vehicle_type_id":"4","last_reported":1682355969,"current_range_meters":2000,"station_id":"ce4bgjh2rcd13ifvqbg0","pricing_plan_id":"free"},{"bike_id":"95b98989-e201-4065-876c-bb8ffeccacf2","system_id":"levelo_inurba_marseille","lat":43.299243,"lon":5.374807,"is_reserved":false,"is_disabled":false,"rental_uris":{"android":"levelo://app?vid=95b98989-e201-4065-876c-bb8ffeccacf2","ios":"levelo://app?vid=95b98989-e201-4065-876c-bb8ffeccacf2"},"vehicle_type_id":"4","last_reported":1682355969,"current_range_meters":31600,"station_id":"ce4bgjh2rcd13ifvqbg0","pricing_plan_id":"free"},{"bike_id":"0022baff-aa2d-4288-b78f-1daa72ad6ace","system_id":"levelo_inurba_marseille","lat":43.297794,"lon":5.370888,"is_reserved":false,"is_disabled":false,"rental_uris":{"android":"levelo://app?vid=0022baff-aa2d-4288-b78f-1daa72ad6ace","ios":"levelo://app?vid=0022baff-aa2d-4288-b78f-1daa72ad6ace"},"vehicle_type_id":"4","last_reported":1682355969,"current_range_meters":22800,"station_id":"ce4bgop2rcd13ifvqc1g","pricing_plan_id":"free"},{"bike_id":"a07b6f04-6ed4-41f2-b90a-863cc4ca5121","system_id":"levelo_inurba_marseille","lat":43.328371,"lon":5.366912,"is_reserved":false,"is_disabled":false,"rental_uris":{"android":"levelo://app?vid=a07b6f04-6ed4-41f2-b90a-863cc4ca5121","ios":"levelo://app?vid=a07b6f04-6ed4-41f2-b90a-863cc4ca5121"},"vehicle_type_id":"4","last_reported":1682355969,"current_range_meters":25200,"station_id":"ce4bhs92rcd13ifvqi0g","pricing_plan_id":"free"},{"bike_id":"bb095569-7c3f-435a-af11-3d18055547f4","system_id":"levelo_inurba_marseille","lat":43.328371,"lon":5.366912,"is_reserved":false,"is_disabled":false,"rental_uris":{"android":"levelo://app?vid=bb095569-7c3f-435a-af11-3d18055547f4","ios":"levelo://app?vid=bb095569-7c3f-435a-af11-3d18055547f4"},"vehicle_type_id":"4","last_reported":1682355969,"current_range_meters":23200,"station_id":"ce4bhs92rcd13ifvqi0g","pricing_plan_id":"free"},{"bike_id":"06165b73-0659-444e-b5d1-fdaee1a6da70","system_id":"levelo_inurba_marseille","lat":43.328371,"lon":5.366912,"is_reserved":false,"is_disabled":false,"rental_uris":{"android":"levelo://app?vid=06165b73-0659-444e-b5d1-fdaee1a6da70","ios":"levelo://app?vid=06165b73-0659-444e-b5d1-fdaee1a6da70"},"vehicle_type_id":"4","last_reported":1682355969,"current_range_meters":24800,"station_id":"ce4bhs92rcd13ifvqi0g","pricing_plan_id":"free"},{"bike_id":"81b4e9fe-31e2-4a91-9e50-52f1853587cc","system_id":"levelo_inurba_marseille","lat":43.328371,"lon":5.366912,"is_reserved":false,"is_disabled":false,"rental_uris":{"android":"levelo://app?vid=81b4e9fe-31e2-4a91-9e50-52f1853587cc","ios":"levelo://app?vid=81b4e9fe-31e2-4a91-9e50-52f1853587cc"},"vehicle_type_id":"4","last_reported":1682355969,"current_range_meters":30000,"station_id":"ce4bhs92rcd13ifvqi0g","pricing_plan_id":"free"},{"bike_id":"8578ff6a-113f-4e4f-b1d2-0be91e7b8ec1","system_id":"levelo_inurba_marseille","lat":43.328371,"lon":5.366912,"is_reserved":false,"is_disabled":false,"rental_uris":{"android":"levelo://app?vid=8578ff6a-113f-4e4f-b1d2-0be91e7b8ec1","ios":"levelo://app?vid=8578ff6a-113f-4e4f-b1d2-0be91e7b8ec1"},"vehicle_type_id":"4","last_reported":1682355969,"current_range_meters":30400,"station_id":"ce4bhs92rcd13ifvqi0g","pricing_plan_id":"free"},{"bike_id":"3715c281-72cb-4c63-8c26-a01371a29b03","system_id":"levelo_inurba_marseille","lat":43.328371,"lon":5.366912,"is_reserved":false,"is_disabled":false,"rental_uris":{"android":"levelo://app?vid=3715c281-72cb-4c63-8c26-a01371a29b03","ios":"levelo://app?vid=3715c281-72cb-4c63-8c26-a01371a29b03"},"vehicle_type_id":"4","last_reported":1682355969,"current_range_meters":30000,"station_id":"ce4bhs92rcd13ifvqi0g","pricing_plan_id":"free"},{"bike_id":"a8b39d06-24a1-4b01-bb53-d311ff7a5399","system_id":"levelo_inurba_marseille","lat":43.32829,"lon":5.3669,"is_reserved":false,"is_disabled":false,"rental_uris":{"android":"levelo://app?vid=a8b39d06-24a1-4b01-bb53-d311ff7a5399","ios":"levelo://app?vid=a8b39d06-24a1-4b01-bb53-d311ff7a5399"},"vehicle_type_id":"4","last_reported":1682355969,"current_range_meters":22000,"station_id":"ce4bhs92rcd13ifvqi0g","pricing_plan_id":"free"},{"bike_id":"70fbabac-c38a-4ae0-ba9c-7d92375d184b","system_id":"levelo_inurba_marseille","lat":43.32829,"lon":5.36689,"is_reserved":false,"is_disabled":false,"rental_uris":{"android":"levelo://app?vid=70fbabac-c38a-4ae0-ba9c-7d92375d184b","ios":"levelo://app?vid=70fbabac-c38a-4ae0-ba9c-7d92375d184b"},"vehicle_type_id":"4","last_reported":1682355969,"current_range_meters":23600,"station_id":"ce4bhs92rcd13ifvqi0g","pricing_plan_id":"free"},{"bike_id":"e6eb28d4-8f9f-49c3-ad12-5b297fc34b1f","system_id":"levelo_inurba_marseille","lat":43.328371,"lon":5.366909,"is_reserved":false,"is_disabled":false,"rental_uris":{"android":"levelo://app?vid=e6eb28d4-8f9f-49c3-ad12-5b297fc34b1f","ios":"levelo://app?vid=e6eb28d4-8f9f-49c3-ad12-5b297fc34b1f"},"vehicle_type_id":"4","last_reported":1682355969,"current_range_meters":19600,"station_id":"ce4bhs92rcd13ifvqi0g","pricing_plan_id":"free"},{"bike_id":"77a15084-c151-4d9e-8db8-4eb1a02ee92f","system_id":"levelo_inurba_marseille","lat":43.32833,"lon":5.36681,"is_reserved":false,"is_disabled":false,"rental_uris":{"android":"levelo://app?vid=77a15084-c151-4d9e-8db8-4eb1a02ee92f","ios":"levelo://app?vid=77a15084-c151-4d9e-8db8-4eb1a02ee92f"},"vehicle_type_id":"4","last_reported":1682355969,"current_range_meters":20000,"station_id":"ce4bhs92rcd13ifvqi0g","pricing_plan_id":"free"},{"bike_id":"62125dd7-01b6-4b47-9996-086499457a1d","system_id":"levelo_inurba_marseille","lat":43.32833,"lon":5.3668,"is_reserved":false,"is_disabled":false,"rental_uris":{"android":"levelo://app?vid=62125dd7-01b6-4b47-9996-086499457a1d","ios":"levelo://app?vid=62125dd7-01b6-4b47-9996-086499457a1d"},"vehicle_type_id":"4","last_reported":1682355969,"current_range_meters":24000,"station_id":"ce4bhs92rcd13ifvqi0g","pricing_plan_id":"free"},{"bike_id":"6eefb3ec-87e5-418f-8757-2069de526952","system_id":"levelo_inurba_marseille","lat":43.32836,"lon":5.36688,"is_reserved":false,"is_disabled":false,"rental_uris":{"android":"levelo://app?vid=6eefb3ec-87e5-418f-8757-2069de526952","ios":"levelo://app?vid=6eefb3ec-87e5-418f-8757-2069de526952"},"vehicle_type_id":"4","last_reported":1682355969,"current_range_meters":24000,"station_id":"ce4bhs92rcd13ifvqi0g","pricing_plan_id":"free"},{"bike_id":"ef6a0c55-d630-4eca-b96f-d8f8154de38b","system_id":"levelo_inurba_marseille","lat":43.32839,"lon":5.36684,"is_reserved":false,"is_disabled":false,"rental_uris":{"android":"levelo://app?vid=ef6a0c55-d630-4eca-b96f-d8f8154de38b","ios":"levelo://app?vid=ef6a0c55-d630-4eca-b96f-d8f8154de38b"},"vehicle_type_id":"4","last_reported":1682355969,"current_range_meters":20800,"station_id":"ce4bhs92rcd13ifvqi0g","pricing_plan_id":"free"},{"bike_id":"efcf4a18-406e-4422-b55f-8365cff7eb6e","system_id":"levelo_inurba_marseille","lat":43.31608,"lon":5.38945,"is_reserved":false,"is_disabled":false,"rental_uris":{"android":"levelo://app?vid=efcf4a18-406e-4422-b55f-8365cff7eb6e","ios":"levelo://app?vid=efcf4a18-406e-4422-b55f-8365cff7eb6e"},"vehicle_type_id":"4","last_reported":1682355969,"current_range_meters":11600,"station_id":"","pricing_plan_id":"free"},{"bike_id":"6b7946ff-c7bf-4fd7-8f95-48a50484e7f8","system_id":"levelo_inurba_marseille","lat":43.296131,"lon":5.370791,"is_reserved":false,"is_disabled":false,"rental_uris":{"android":"levelo://app?vid=6b7946ff-c7bf-4fd7-8f95-48a50484e7f8","ios":"levelo://app?vid=6b7946ff-c7bf-4fd7-8f95-48a50484e7f8"},"vehicle_type_id":"4","last_reported":1682355969,"current_range_meters":31200,"station_id":"ce4bgnh2rcd13ifvqc0g","pricing_plan_id":"free"},{"bike_id":"32ce0e89-e659-4364-9f67-5979239d8577","system_id":"levelo_inurba_marseille","lat":43.296129,"lon":5.370777,"is_reserved":false,"is_disabled":false,"rental_uris":{"android":"levelo://app?vid=32ce0e89-e659-4364-9f67-5979239d8577","ios":"levelo://app?vid=32ce0e89-e659-4364-9f67-5979239d8577"},"vehicle_type_id":"4","last_reported":1682355969,"current_range_meters":31200,"station_id":"ce4bgnh2rcd13ifvqc0g","pricing_plan_id":"free"},{"bike_id":"fa4ee5b9-fc9c-4b99-b0b4-1a65262d04ae","system_id":"levelo_inurba_marseille","lat":43.296131,"lon":5.370791,"is_reserved":false,"is_disabled":false,"rental_uris":{"android":"levelo://app?vid=fa4ee5b9-fc9c-4b99-b0b4-1a65262d04ae","ios":"levelo://app?vid=fa4ee5b9-fc9c-4b99-b0b4-1a65262d04ae"},"vehicle_type_id":"4","last_reported":1682355969,"current_range_meters":16400,"station_id":"ce4bgnh2rcd13ifvqc0g","pricing_plan_id":"free"},{"bike_id":"b1e9e527-8a5a-48d2-af64-9a6c4bb1dc41","system_id":"levelo_inurba_marseille","lat":43.296129,"lon":5.370777,"is_reserved":false,"is_disabled":false,"rental_uris":{"android":"levelo://app?vid=b1e9e527-8a5a-48d2-af64-9a6c4bb1dc41","ios":"levelo://app?vid=b1e9e527-8a5a-48d2-af64-9a6c4bb1dc41"},"vehicle_type_id":"4","last_reported":1682355969,"current_range_meters":31200,"station_id":"ce4bgnh2rcd13ifvqc0g","pricing_plan_id":"free"},{"bike_id":"88b8468a-5acc-4f0e-97d4-e98c0baa99e4","system_id":"levelo_inurba_marseille","lat":43.315771,"lon":5.389732,"is_reserved":false,"is_disabled":false,"rental_uris":{"android":"levelo://app?vid=88b8468a-5acc-4f0e-97d4-e98c0baa99e4","ios":"levelo://app?vid=88b8468a-5acc-4f0e-97d4-e98c0baa99e4"},"vehicle_type_id":"4","last_reported":1682355969,"current_range_meters":800,"station_id":"","pricing_plan_id":"free"},{"bike_id":"63faaefe-9142-431c-8860-fbcba52e6163","system_id":"levelo_inurba_marseille","lat":43.296131,"lon":5.370791,"is_reserved":false,"is_disabled":false,"rental_uris":{"android":"levelo://app?vid=63faaefe-9142-431c-8860-fbcba52e6163","ios":"levelo://app?vid=63faaefe-9142-431c-8860-fbcba52e6163"},"vehicle_type_id":"4","last_reported":1682355969,"current_range_meters":22000,"station_id":"ce4bgnh2rcd13ifvqc0g","pricing_plan_id":"free"},{"bike_id":"7164ba8c-40a1-44e6-8c12-dc9fede65c2f","system_id":"levelo_inurba_marseille","lat":43.29573,"lon":5.367355,"is_reserved":false,"is_disabled":false,"rental_uris":{"android":"levelo://app?vid=7164ba8c-40a1-44e6-8c12-dc9fede65c2f","ios":"levelo://app?vid=7164ba8c-40a1-44e6-8c12-dc9fede65c2f"},"vehicle_type_id":"4","last_reported":1682355969,"current_range_meters":21600,"station_id":"ce4bgph2rcd13ifvqc2g","pricing_plan_id":"free"},{"bike_id":"1a82f5c7-bce3-4347-a5ea-27dca5a011db","system_id":"levelo_inurba_marseille","lat":43.296131,"lon":5.370791,"is_reserved":false,"is_disabled":false,"rental_uris":{"android":"levelo://app?vid=1a82f5c7-bce3-4347-a5ea-27dca5a011db","ios":"levelo://app?vid=1a82f5c7-bce3-4347-a5ea-27dca5a011db"},"vehicle_type_id":"4","last_reported":1682355969,"current_range_meters":21600,"station_id":"ce4bgnh2rcd13ifvqc0g","pricing_plan_id":"free"},{"bike_id":"2dfa2d61-654a-43c0-862d-e4cdd4316dec","system_id":"levelo_inurba_marseille","lat":43.29573,"lon":5.367355,"is_reserved":false,"is_disabled":false,"rental_uris":{"android":"levelo://app?vid=2dfa2d61-654a-43c0-862d-e4cdd4316dec","ios":"levelo://app?vid=2dfa2d61-654a-43c0-862d-e4cdd4316dec"},"vehicle_type_id":"4","last_reported":1682355969,"current_range_meters":8000,"station_id":"ce4bgph2rcd13ifvqc2g","pricing_plan_id":"free"},{"bike_id":"b82d7741-8171-4d33-a6f7-ece963283aeb","system_id":"levelo_inurba_marseille","lat":43.29725,"lon":5.37688,"is_reserved":false,"is_disabled":false,"rental_uris":{"android":"levelo://app?vid=b82d7741-8171-4d33-a6f7-ece963283aeb","ios":"levelo://app?vid=b82d7741-8171-4d33-a6f7-ece963283aeb"},"vehicle_type_id":"4","last_reported":1682355969,"current_range_meters":31200,"station_id":"","pricing_plan_id":"free"},{"bike_id":"9172dbf5-e83e-4a39-956c-5d9acd1250b1","system_id":"levelo_inurba_marseille","lat":43.29726,"lon":5.37693,"is_reserved":false,"is_disabled":false,"rental_uris":{"android":"levelo://app?vid=9172dbf5-e83e-4a39-956c-5d9acd1250b1","ios":"levelo://app?vid=9172dbf5-e83e-4a39-956c-5d9acd1250b1"},"vehicle_type_id":"4","last_reported":1682355969,"current_range_meters":28800,"station_id":"","pricing_plan_id":"free"},{"bike_id":"fbb779a0-6ec5-42c9-85cb-e69e774c76f2","system_id":"levelo_inurba_marseille","lat":43.29722,"lon":5.37687,"is_reserved":false,"is_disabled":false,"rental_uris":{"android":"levelo://app?vid=fbb779a0-6ec5-42c9-85cb-e69e774c76f2","ios":"levelo://app?vid=fbb779a0-6ec5-42c9-85cb-e69e774c76f2"},"vehicle_type_id":"4","last_reported":1682355969,"current_range_meters":21200,"station_id":"","pricing_plan_id":"free"},{"bike_id":"9b51ff99-1386-45ee-9dc7-b97311e6890d","system_id":"levelo_inurba_marseille","lat":43.29723,"lon":5.37696,"is_reserved":false,"is_disabled":false,"rental_uris":{"android":"levelo://app?vid=9b51ff99-1386-45ee-9dc7-b97311e6890d","ios":"levelo://app?vid=9b51ff99-1386-45ee-9dc7-b97311e6890d"},"vehicle_type_id":"4","last_reported":1682355969,"current_range_meters":29200,"station_id":"","pricing_plan_id":"free"},{"bike_id":"1c96a603-3ad2-45d0-99f0-9bbf9ad8d6fa","system_id":"levelo_inurba_marseille","lat":43.29719,"lon":5.3769,"is_reserved":false,"is_disabled":false,"rental_uris":{"android":"levelo://app?vid=1c96a603-3ad2-45d0-99f0-9bbf9ad8d6fa","ios":"levelo://app?vid=1c96a603-3ad2-45d0-99f0-9bbf9ad8d6fa"},"vehicle_type_id":"4","last_reported":1682355969,"current_range_meters":30400,"station_id":"","pricing_plan_id":"free"},{"bike_id":"1cfae987-0bad-47a5-8cea-e4d414dd934d","system_id":"levelo_inurba_marseille","lat":43.296921,"lon":5.376579,"is_reserved":false,"is_disabled":false,"rental_uris":{"android":"levelo://app?vid=1cfae987-0bad-47a5-8cea-e4d414dd934d","ios":"levelo://app?vid=1cfae987-0bad-47a5-8cea-e4d414dd934d"},"vehicle_type_id":"4","last_reported":1682355969,"current_range_meters":31200,"station_id":"ce4bgkh2rcd13ifvqbl0","pricing_plan_id":"free"},{"bike_id":"0e4eb899-e322-4883-af5f-d61bb67e3a74","system_id":"levelo_inurba_marseille","lat":43.29711,"lon":5.37688,"is_reserved":false,"is_disabled":false,"rental_uris":{"android":"levelo://app?vid=0e4eb899-e322-4883-af5f-d61bb67e3a74","ios":"levelo://app?vid=0e4eb899-e322-4883-af5f-d61bb67e3a74"},"vehicle_type_id":"4","last_reported":1682355969,"current_range_meters":29600,"station_id":"","pricing_plan_id":"free"},{"bike_id":"2721d494-da66-4aab-8b05-2fb4c3fa8f5a","system_id":"levelo_inurba_marseille","lat":43.29713,"lon":5.37698,"is_reserved":false,"is_disabled":false,"rental_uris":{"android":"levelo://app?vid=2721d494-da66-4aab-8b05-2fb4c3fa8f5a","ios":"levelo://app?vid=2721d494-da66-4aab-8b05-2fb4c3fa8f5a"},"vehicle_type_id":"4","last_reported":1682355969,"current_range_meters":27200,"station_id":"","pricing_plan_id":"free"},{"bike_id":"2842c540-4fdd-40d8-93ae-6a5a0f5b9d4a","system_id":"levelo_inurba_marseille","lat":43.309589,"lon":5.390258,"is_reserved":false,"is_disabled":false,"rental_uris":{"android":"levelo://app?vid=2842c540-4fdd-40d8-93ae-6a5a0f5b9d4a","ios":"levelo://app?vid=2842c540-4fdd-40d8-93ae-6a5a0f5b9d4a"},"vehicle_type_id":"4","last_reported":1682355969,"current_range_meters":26400,"station_id":"ce4bgup2rcd13ifvqco0","pricing_plan_id":"free"},{"bike_id":"7a7e6565-f7a2-4f47-bdc1-233140edd12b","system_id":"levelo_inurba_marseille","lat":43.30948,"lon":5.39033,"is_reserved":false,"is_disabled":false,"rental_uris":{"android":"levelo://app?vid=7a7e6565-f7a2-4f47-bdc1-233140edd12b","ios":"levelo://app?vid=7a7e6565-f7a2-4f47-bdc1-233140edd12b"},"vehicle_type_id":"4","last_reported":1682355969,"current_range_meters":22400,"station_id":"ce4bgup2rcd13ifvqco0","pricing_plan_id":"free"},{"bike_id":"8b2c329a-9e8a-447c-878a-89c38eee2f9d","system_id":"levelo_inurba_marseille","lat":43.30143,"lon":5.38552,"is_reserved":false,"is_disabled":false,"rental_uris":{"android":"levelo://app?vid=8b2c329a-9e8a-447c-878a-89c38eee2f9d","ios":"levelo://app?vid=8b2c329a-9e8a-447c-878a-89c38eee2f9d"},"vehicle_type_id":"4","last_reported":1682355969,"current_range_meters":4800,"station_id":"","pricing_plan_id":"free"},{"bike_id":"3ec13288-88fd-4b8c-a697-c0287bf7487f","system_id":"levelo_inurba_marseille","lat":43.298037,"lon":5.381066,"is_reserved":false,"is_disabled":false,"rental_uris":{"android":"levelo://app?vid=3ec13288-88fd-4b8c-a697-c0287bf7487f","ios":"levelo://app?vid=3ec13288-88fd-4b8c-a697-c0287bf7487f"},"vehicle_type_id":"4","last_reported":1682355969,"current_range_meters":17600,"station_id":"ce4bgip2rcd13ifvqbb0","pricing_plan_id":"free"},{"bike_id":"734f0a2a-e2a4-4089-8c58-57a59eaaeebb","system_id":"levelo_inurba_marseille","lat":43.295748,"lon":5.37522,"is_reserved":false,"is_disabled":false,"rental_uris":{"android":"levelo://app?vid=734f0a2a-e2a4-4089-8c58-57a59eaaeebb","ios":"levelo://app?vid=734f0a2a-e2a4-4089-8c58-57a59eaaeebb"},"vehicle_type_id":"4","last_reported":1682355969,"current_range_meters":30000,"station_id":"ce4bgh92rcd13ifvqb50","pricing_plan_id":"free"},{"bike_id":"3821dd8f-d009-43e5-a137-d2e16a5b6c40","system_id":"levelo_inurba_marseille","lat":43.295748,"lon":5.37522,"is_reserved":false,"is_disabled":false,"rental_uris":{"android":"levelo://app?vid=3821dd8f-d009-43e5-a137-d2e16a5b6c40","ios":"levelo://app?vid=3821dd8f-d009-43e5-a137-d2e16a5b6c40"},"vehicle_type_id":"4","last_reported":1682355969,"current_range_meters":29600,"station_id":"ce4bgh92rcd13ifvqb50","pricing_plan_id":"free"},{"bike_id":"5a3284e7-1846-4dcd-b3a5-7a0986f57358","system_id":"levelo_inurba_marseille","lat":43.295748,"lon":5.37522,"is_reserved":false,"is_disabled":false,"rental_uris":{"android":"levelo://app?vid=5a3284e7-1846-4dcd-b3a5-7a0986f57358","ios":"levelo://app?vid=5a3284e7-1846-4dcd-b3a5-7a0986f57358"},"vehicle_type_id":"4","last_reported":1682355969,"current_range_meters":31200,"station_id":"ce4bgh92rcd13ifvqb50","pricing_plan_id":"free"},{"bike_id":"36a99b7c-be93-441f-be5a-314dd4ba6aac","system_id":"levelo_inurba_marseille","lat":43.295748,"lon":5.37522,"is_reserved":false,"is_disabled":false,"rental_uris":{"android":"levelo://app?vid=36a99b7c-be93-441f-be5a-314dd4ba6aac","ios":"levelo://app?vid=36a99b7c-be93-441f-be5a-314dd4ba6aac"},"vehicle_type_id":"4","last_reported":1682355969,"current_range_meters":27200,"station_id":"ce4bgh92rcd13ifvqb50","pricing_plan_id":"free"},{"bike_id":"43914801-fa80-402d-a06a-bca283809789","system_id":"levelo_inurba_marseille","lat":43.295748,"lon":5.37522,"is_reserved":false,"is_disabled":false,"rental_uris":{"android":"levelo://app?vid=43914801-fa80-402d-a06a-bca283809789","ios":"levelo://app?vid=43914801-fa80-402d-a06a-bca283809789"},"vehicle_type_id":"4","last_reported":1682355969,"current_range_meters":27200,"station_id":"ce4bgh92rcd13ifvqb50","pricing_plan_id":"free"},{"bike_id":"01a4e87c-b573-45f4-94fb-df236e88ff05","system_id":"levelo_inurba_marseille","lat":43.295748,"lon":5.37522,"is_reserved":false,"is_disabled":false,"rental_uris":{"android":"levelo://app?vid=01a4e87c-b573-45f4-94fb-df236e88ff05","ios":"levelo://app?vid=01a4e87c-b573-45f4-94fb-df236e88ff05"},"vehicle_type_id":"4","last_reported":1682355969,"current_range_meters":24400,"station_id":"ce4bgh92rcd13ifvqb50","pricing_plan_id":"free"},{"bike_id":"48f9d66b-d4aa-4f73-bd9f-34718db70a5c","system_id":"levelo_inurba_marseille","lat":43.295748,"lon":5.37522,"is_reserved":false,"is_disabled":false,"rental_uris":{"android":"levelo://app?vid=48f9d66b-d4aa-4f73-bd9f-34718db70a5c","ios":"levelo://app?vid=48f9d66b-d4aa-4f73-bd9f-34718db70a5c"},"vehicle_type_id":"4","last_reported":1682355969,"current_range_meters":31200,"station_id":"ce4bgh92rcd13ifvqb50","pricing_plan_id":"free"},{"bike_id":"f66e9876-17b1-4d44-8bd6-8ca566012a47","system_id":"levelo_inurba_marseille","lat":43.295748,"lon":5.37522,"is_reserved":false,"is_disabled":false,"rental_uris":{"android":"levelo://app?vid=f66e9876-17b1-4d44-8bd6-8ca566012a47","ios":"levelo://app?vid=f66e9876-17b1-4d44-8bd6-8ca566012a47"},"vehicle_type_id":"4","last_reported":1682355969,"current_range_meters":29200,"station_id":"ce4bgh92rcd13ifvqb50","pricing_plan_id":"free"},{"bike_id":"dcfbf310-7930-4204-94e9-7029f7496521","system_id":"levelo_inurba_marseille","lat":43.295748,"lon":5.37522,"is_reserved":false,"is_disabled":false,"rental_uris":{"android":"levelo://app?vid=dcfbf310-7930-4204-94e9-7029f7496521","ios":"levelo://app?vid=dcfbf310-7930-4204-94e9-7029f7496521"},"vehicle_type_id":"4","last_reported":1682355969,"current_range_meters":29200,"station_id":"ce4bgh92rcd13ifvqb50","pricing_plan_id":"free"},{"bike_id":"7da74c57-8bd0-495e-9eb1-b2ec5704f680","system_id":"levelo_inurba_marseille","lat":43.295748,"lon":5.37522,"is_reserved":false,"is_disabled":false,"rental_uris":{"android":"levelo://app?vid=7da74c57-8bd0-495e-9eb1-b2ec5704f680","ios":"levelo://app?vid=7da74c57-8bd0-495e-9eb1-b2ec5704f680"},"vehicle_type_id":"4","last_reported":1682355969,"current_range_meters":26400,"station_id":"ce4bgh92rcd13ifvqb50","pricing_plan_id":"free"},{"bike_id":"f4e9f167-fcdc-45f8-905d-7283af35f990","system_id":"levelo_inurba_marseille","lat":43.295748,"lon":5.37522,"is_reserved":false,"is_disabled":false,"rental_uris":{"android":"levelo://app?vid=f4e9f167-fcdc-45f8-905d-7283af35f990","ios":"levelo://app?vid=f4e9f167-fcdc-45f8-905d-7283af35f990"},"vehicle_type_id":"4","last_reported":1682355969,"current_range_meters":31200,"station_id":"ce4bgh92rcd13ifvqb50","pricing_plan_id":"free"},{"bike_id":"4eea6332-45a6-46a0-b190-17c0ff74e4fd","system_id":"levelo_inurba_marseille","lat":43.295748,"lon":5.37522,"is_reserved":false,"is_disabled":false,"rental_uris":{"android":"levelo://app?vid=4eea6332-45a6-46a0-b190-17c0ff74e4fd","ios":"levelo://app?vid=4eea6332-45a6-46a0-b190-17c0ff74e4fd"},"vehicle_type_id":"4","last_reported":1682355969,"current_range_meters":26000,"station_id":"ce4bgh92rcd13ifvqb50","pricing_plan_id":"free"},{"bike_id":"2d6d39e0-edc5-4bfc-9564-af78ab7ca781","system_id":"levelo_inurba_marseille","lat":43.295748,"lon":5.37522,"is_reserved":false,"is_disabled":false,"rental_uris":{"android":"levelo://app?vid=2d6d39e0-edc5-4bfc-9564-af78ab7ca781","ios":"levelo://app?vid=2d6d39e0-edc5-4bfc-9564-af78ab7ca781"},"vehicle_type_id":"4","last_reported":1682355969,"current_range_meters":13200,"station_id":"ce4bgh92rcd13ifvqb50","pricing_plan_id":"free"},{"bike_id":"1eb56ea1-030a-4ad6-95e4-4df5ddaf8d4e","system_id":"levelo_inurba_marseille","lat":43.295748,"lon":5.37522,"is_reserved":false,"is_disabled":false,"rental_uris":{"android":"levelo://app?vid=1eb56ea1-030a-4ad6-95e4-4df5ddaf8d4e","ios":"levelo://app?vid=1eb56ea1-030a-4ad6-95e4-4df5ddaf8d4e"},"vehicle_type_id":"4","last_reported":1682355969,"current_range_meters":27600,"station_id":"ce4bgh92rcd13ifvqb50","pricing_plan_id":"free"},{"bike_id":"8869e65c-6478-4ae6-a1a0-ff2b27d10e28","system_id":"levelo_inurba_marseille","lat":43.304278,"lon":5.388868,"is_reserved":false,"is_disabled":false,"rental_uris":{"android":"levelo://app?vid=8869e65c-6478-4ae6-a1a0-ff2b27d10e28","ios":"levelo://app?vid=8869e65c-6478-4ae6-a1a0-ff2b27d10e28"},"vehicle_type_id":"4","last_reported":1682355969,"current_range_meters":0,"station_id":"ce4bgk12rcd13ifvqbi0","pricing_plan_id":"free"},{"bike_id":"2ecca37d-370d-419b-acab-133af18941cb","system_id":"levelo_inurba_marseille","lat":43.304278,"lon":5.388868,"is_reserved":false,"is_disabled":false,"rental_uris":{"android":"levelo://app?vid=2ecca37d-370d-419b-acab-133af18941cb","ios":"levelo://app?vid=2ecca37d-370d-419b-acab-133af18941cb"},"vehicle_type_id":"4","last_reported":1682355969,"current_range_meters":20800,"station_id":"ce4bgk12rcd13ifvqbi0","pricing_plan_id":"free"},{"bike_id":"b1c19bab-4ec3-49a1-880c-9a2e62c5d1c0","system_id":"levelo_inurba_marseille","lat":43.298037,"lon":5.381066,"is_reserved":false,"is_disabled":false,"rental_uris":{"android":"levelo://app?vid=b1c19bab-4ec3-49a1-880c-9a2e62c5d1c0","ios":"levelo://app?vid=b1c19bab-4ec3-49a1-880c-9a2e62c5d1c0"},"vehicle_type_id":"4","last_reported":1682355969,"current_range_meters":28800,"station_id":"ce4bgip2rcd13ifvqbb0","pricing_plan_id":"free"},{"bike_id":"455a0ea3-b6b1-4d3f-a5b2-3f733c398e18","system_id":"levelo_inurba_marseille","lat":43.29542,"lon":5.37491,"is_reserved":false,"is_disabled":false,"rental_uris":{"android":"levelo://app?vid=455a0ea3-b6b1-4d3f-a5b2-3f733c398e18","ios":"levelo://app?vid=455a0ea3-b6b1-4d3f-a5b2-3f733c398e18"},"vehicle_type_id":"4","last_reported":1682355969,"current_range_meters":28800,"station_id":"ce4bgkp2rcd13ifvqbmg","pricing_plan_id":"free"},{"bike_id":"d538941a-eeb2-4a78-a30c-69a050b27376","system_id":"levelo_inurba_marseille","lat":43.295279,"lon":5.375048,"is_reserved":false,"is_disabled":false,"rental_uris":{"android":"levelo://app?vid=d538941a-eeb2-4a78-a30c-69a050b27376","ios":"levelo://app?vid=d538941a-eeb2-4a78-a30c-69a050b27376"},"vehicle_type_id":"4","last_reported":1682355969,"current_range_meters":14400,"station_id":"ce4bgkp2rcd13ifvqbmg","pricing_plan_id":"free"},{"bike_id":"a03ad451-5911-40af-9e6c-79e5dfdb7eb7","system_id":"levelo_inurba_marseille","lat":43.29968,"lon":5.3849,"is_reserved":false,"is_disabled":false,"rental_uris":{"android":"levelo://app?vid=a03ad451-5911-40af-9e6c-79e5dfdb7eb7","ios":"levelo://app?vid=a03ad451-5911-40af-9e6c-79e5dfdb7eb7"},"vehicle_type_id":"4","last_reported":1682355969,"current_range_meters":19200,"station_id":"ce4bgj92rcd13ifvqbd0","pricing_plan_id":"free"},{"bike_id":"c7baaa17-cc5f-4b52-b51d-28215937a0fb","system_id":"levelo_inurba_marseille","lat":43.293009,"lon":5.374584,"is_reserved":false,"is_disabled":false,"rental_uris":{"android":"levelo://app?vid=c7baaa17-cc5f-4b52-b51d-28215937a0fb","ios":"levelo://app?vid=c7baaa17-cc5f-4b52-b51d-28215937a0fb"},"vehicle_type_id":"4","last_reported":1682355969,"current_range_meters":18400,"station_id":"ce4bgi12rcd13ifvqb70","pricing_plan_id":"free"},{"bike_id":"b5bf1a1b-9726-480e-a79f-9505746f0c25","system_id":"levelo_inurba_marseille","lat":43.293009,"lon":5.374584,"is_reserved":false,"is_disabled":false,"rental_uris":{"android":"levelo://app?vid=b5bf1a1b-9726-480e-a79f-9505746f0c25","ios":"levelo://app?vid=b5bf1a1b-9726-480e-a79f-9505746f0c25"},"vehicle_type_id":"4","last_reported":1682355969,"current_range_meters":0,"station_id":"ce4bgi12rcd13ifvqb70","pricing_plan_id":"free"},{"bike_id":"31bd2040-ff73-487c-9eac-ffa1a1011d0e","system_id":"levelo_inurba_marseille","lat":43.29302,"lon":5.37461,"is_reserved":false,"is_disabled":false,"rental_uris":{"android":"levelo://app?vid=31bd2040-ff73-487c-9eac-ffa1a1011d0e","ios":"levelo://app?vid=31bd2040-ff73-487c-9eac-ffa1a1011d0e"},"vehicle_type_id":"4","last_reported":1682355969,"current_range_meters":21200,"station_id":"","pricing_plan_id":"free"},{"bike_id":"3fe6a496-09fe-4b07-965f-7f2395367858","system_id":"levelo_inurba_marseille","lat":43.305994,"lon":5.393687,"is_reserved":false,"is_disabled":false,"rental_uris":{"android":"levelo://app?vid=3fe6a496-09fe-4b07-965f-7f2395367858","ios":"levelo://app?vid=3fe6a496-09fe-4b07-965f-7f2395367858"},"vehicle_type_id":"4","last_reported":1682355969,"current_range_meters":31600,"station_id":"ce4bh0p2rcd13ifvqd80","pricing_plan_id":"free"},{"bike_id":"1d78e1c9-fec7-44a1-9385-240ca4fb8ca0","system_id":"levelo_inurba_marseille","lat":43.293009,"lon":5.374584,"is_reserved":false,"is_disabled":false,"rental_uris":{"android":"levelo://app?vid=1d78e1c9-fec7-44a1-9385-240ca4fb8ca0","ios":"levelo://app?vid=1d78e1c9-fec7-44a1-9385-240ca4fb8ca0"},"vehicle_type_id":"4","last_reported":1682355969,"current_range_meters":9200,"station_id":"ce4bgi12rcd13ifvqb70","pricing_plan_id":"free"},{"bike_id":"406c8fed-6a80-4de3-8a9f-a21b9e133a9c","system_id":"levelo_inurba_marseille","lat":43.293009,"lon":5.374584,"is_reserved":false,"is_disabled":false,"rental_uris":{"android":"levelo://app?vid=406c8fed-6a80-4de3-8a9f-a21b9e133a9c","ios":"levelo://app?vid=406c8fed-6a80-4de3-8a9f-a21b9e133a9c"},"vehicle_type_id":"4","last_reported":1682355969,"current_range_meters":2400,"station_id":"ce4bgi12rcd13ifvqb70","pricing_plan_id":"free"},{"bike_id":"46de962b-03ef-4ca3-8821-9996e1fafd9a","system_id":"levelo_inurba_marseille","lat":43.293009,"lon":5.374584,"is_reserved":false,"is_disabled":false,"rental_uris":{"android":"levelo://app?vid=46de962b-03ef-4ca3-8821-9996e1fafd9a","ios":"levelo://app?vid=46de962b-03ef-4ca3-8821-9996e1fafd9a"},"vehicle_type_id":"4","last_reported":1682355969,"current_range_meters":28800,"station_id":"ce4bgi12rcd13ifvqb70","pricing_plan_id":"free"},{"bike_id":"757eee25-14a6-471b-aa76-a540a5d2ffea","system_id":"levelo_inurba_marseille","lat":43.324981,"lon":5.38965,"is_reserved":false,"is_disabled":false,"rental_uris":{"android":"levelo://app?vid=757eee25-14a6-471b-aa76-a540a5d2ffea","ios":"levelo://app?vid=757eee25-14a6-471b-aa76-a540a5d2ffea"},"vehicle_type_id":"4","last_reported":1682355969,"current_range_meters":0,"station_id":"","pricing_plan_id":"free"},{"bike_id":"9f3d7157-f309-4b34-b1d0-78deebf30384","system_id":"levelo_inurba_marseille","lat":43.293009,"lon":5.374584,"is_reserved":false,"is_disabled":false,"rental_uris":{"android":"levelo://app?vid=9f3d7157-f309-4b34-b1d0-78deebf30384","ios":"levelo://app?vid=9f3d7157-f309-4b34-b1d0-78deebf30384"},"vehicle_type_id":"4","last_reported":1682355969,"current_range_meters":24800,"station_id":"ce4bgi12rcd13ifvqb70","pricing_plan_id":"free"},{"bike_id":"3d5fc897-0d2a-4511-9e0c-c6af4820e9af","system_id":"levelo_inurba_marseille","lat":43.293009,"lon":5.374584,"is_reserved":false,"is_disabled":false,"rental_uris":{"android":"levelo://app?vid=3d5fc897-0d2a-4511-9e0c-c6af4820e9af","ios":"levelo://app?vid=3d5fc897-0d2a-4511-9e0c-c6af4820e9af"},"vehicle_type_id":"4","last_reported":1682355969,"current_range_meters":15600,"station_id":"ce4bgi12rcd13ifvqb70","pricing_plan_id":"free"},{"bike_id":"cb3d174b-fce7-442c-8426-d1f21cf496a6","system_id":"levelo_inurba_marseille","lat":43.303002,"lon":5.392142,"is_reserved":false,"is_disabled":false,"rental_uris":{"android":"levelo://app?vid=cb3d174b-fce7-442c-8426-d1f21cf496a6","ios":"levelo://app?vid=cb3d174b-fce7-442c-8426-d1f21cf496a6"},"vehicle_type_id":"4","last_reported":1682355969,"current_range_meters":30400,"station_id":"ce4bgkh2rcd13ifvqbk0","pricing_plan_id":"free"},{"bike_id":"e79c38ed-1d72-47c9-be0f-907eb7862509","system_id":"levelo_inurba_marseille","lat":43.303002,"lon":5.392142,"is_reserved":false,"is_disabled":false,"rental_uris":{"android":"levelo://app?vid=e79c38ed-1d72-47c9-be0f-907eb7862509","ios":"levelo://app?vid=e79c38ed-1d72-47c9-be0f-907eb7862509"},"vehicle_type_id":"4","last_reported":1682355969,"current_range_meters":16000,"station_id":"ce4bgkh2rcd13ifvqbk0","pricing_plan_id":"free"},{"bike_id":"539bd12c-84d4-49d5-a646-2ff7ac9e1e58","system_id":"levelo_inurba_marseille","lat":43.29231,"lon":5.36067,"is_reserved":false,"is_disabled":false,"rental_uris":{"android":"levelo://app?vid=539bd12c-84d4-49d5-a646-2ff7ac9e1e58","ios":"levelo://app?vid=539bd12c-84d4-49d5-a646-2ff7ac9e1e58"},"vehicle_type_id":"4","last_reported":1682355969,"current_range_meters":30800,"station_id":"ce4bhbh2rcd13ifvqeqg","pricing_plan_id":"free"},{"bike_id":"8d9db074-49b4-492f-a716-80b9a4d4337c","system_id":"levelo_inurba_marseille","lat":43.2923,"lon":5.36071,"is_reserved":false,"is_disabled":false,"rental_uris":{"android":"levelo://app?vid=8d9db074-49b4-492f-a716-80b9a4d4337c","ios":"levelo://app?vid=8d9db074-49b4-492f-a716-80b9a4d4337c"},"vehicle_type_id":"4","last_reported":1682355969,"current_range_meters":29600,"station_id":"ce4bhbh2rcd13ifvqeqg","pricing_plan_id":"free"},{"bike_id":"d1bd313d-104b-419e-acf5-745dad1b0b50","system_id":"levelo_inurba_marseille","lat":43.29229,"lon":5.36069,"is_reserved":false,"is_disabled":false,"rental_uris":{"android":"levelo://app?vid=d1bd313d-104b-419e-acf5-745dad1b0b50","ios":"levelo://app?vid=d1bd313d-104b-419e-acf5-745dad1b0b50"},"vehicle_type_id":"4","last_reported":1682355969,"current_range_meters":28000,"station_id":"ce4bhbh2rcd13ifvqeqg","pricing_plan_id":"free"},{"bike_id":"0cdbac87-4b4e-430b-8889-2e13e9447028","system_id":"levelo_inurba_marseille","lat":43.29229,"lon":5.36062,"is_reserved":false,"is_disabled":false,"rental_uris":{"android":"levelo://app?vid=0cdbac87-4b4e-430b-8889-2e13e9447028","ios":"levelo://app?vid=0cdbac87-4b4e-430b-8889-2e13e9447028"},"vehicle_type_id":"4","last_reported":1682355969,"current_range_meters":28000,"station_id":"ce4bhbh2rcd13ifvqeqg","pricing_plan_id":"free"},{"bike_id":"0aa28b86-1497-4979-b0d9-3877eec98cf2","system_id":"levelo_inurba_marseille","lat":43.29229,"lon":5.36059,"is_reserved":false,"is_disabled":false,"rental_uris":{"android":"levelo://app?vid=0aa28b86-1497-4979-b0d9-3877eec98cf2","ios":"levelo://app?vid=0aa28b86-1497-4979-b0d9-3877eec98cf2"},"vehicle_type_id":"4","last_reported":1682355969,"current_range_meters":31200,"station_id":"ce4bhbh2rcd13ifvqeqg","pricing_plan_id":"free"},{"bike_id":"d3dd0e31-78ee-4230-82d7-f53097000ee0","system_id":"levelo_inurba_marseille","lat":43.30085,"lon":5.390856,"is_reserved":false,"is_disabled":false,"rental_uris":{"android":"levelo://app?vid=d3dd0e31-78ee-4230-82d7-f53097000ee0","ios":"levelo://app?vid=d3dd0e31-78ee-4230-82d7-f53097000ee0"},"vehicle_type_id":"4","last_reported":1682355969,"current_range_meters":29600,"station_id":"ce4bh192rcd13ifvqdb0","pricing_plan_id":"free"},{"bike_id":"8236c8b9-0c4e-4b85-9a92-ae2cb4f3b075","system_id":"levelo_inurba_marseille","lat":43.29226,"lon":5.36061,"is_reserved":false,"is_disabled":false,"rental_uris":{"android":"levelo://app?vid=8236c8b9-0c4e-4b85-9a92-ae2cb4f3b075","ios":"levelo://app?vid=8236c8b9-0c4e-4b85-9a92-ae2cb4f3b075"},"vehicle_type_id":"4","last_reported":1682355969,"current_range_meters":29200,"station_id":"ce4bhbh2rcd13ifvqeqg","pricing_plan_id":"free"},{"bike_id":"8bb2f5dc-c67b-457f-8d75-da5f7b5ce72f","system_id":"levelo_inurba_marseille","lat":43.29222,"lon":5.36073,"is_reserved":false,"is_disabled":false,"rental_uris":{"android":"levelo://app?vid=8bb2f5dc-c67b-457f-8d75-da5f7b5ce72f","ios":"levelo://app?vid=8bb2f5dc-c67b-457f-8d75-da5f7b5ce72f"},"vehicle_type_id":"4","last_reported":1682355969,"current_range_meters":31200,"station_id":"ce4bhbh2rcd13ifvqeqg","pricing_plan_id":"free"},{"bike_id":"6380c066-cecd-43a3-b843-3dc21509a616","system_id":"levelo_inurba_marseille","lat":43.29217,"lon":5.36063,"is_reserved":false,"is_disabled":false,"rental_uris":{"android":"levelo://app?vid=6380c066-cecd-43a3-b843-3dc21509a616","ios":"levelo://app?vid=6380c066-cecd-43a3-b843-3dc21509a616"},"vehicle_type_id":"4","last_reported":1682355969,"current_range_meters":28000,"station_id":"ce4bhbh2rcd13ifvqeqg","pricing_plan_id":"free"},{"bike_id":"4208e8c5-275a-407c-9aa3-90d489b1f0a6","system_id":"levelo_inurba_marseille","lat":43.292663,"lon":5.376394,"is_reserved":false,"is_disabled":false,"rental_uris":{"android":"levelo://app?vid=4208e8c5-275a-407c-9aa3-90d489b1f0a6","ios":"levelo://app?vid=4208e8c5-275a-407c-9aa3-90d489b1f0a6"},"vehicle_type_id":"4","last_reported":1682355969,"current_range_meters":28800,"station_id":"ce4bgi12rcd13ifvqb80","pricing_plan_id":"free"},{"bike_id":"1678e3b1-44ec-46f2-a969-c00e9005559b","system_id":"levelo_inurba_marseille","lat":43.291675,"lon":5.371583,"is_reserved":false,"is_disabled":false,"rental_uris":{"android":"levelo://app?vid=1678e3b1-44ec-46f2-a969-c00e9005559b","ios":"levelo://app?vid=1678e3b1-44ec-46f2-a969-c00e9005559b"},"vehicle_type_id":"4","last_reported":1682355969,"current_range_meters":26400,"station_id":"ce4bha92rcd13ifvqeh0","pricing_plan_id":"free"},{"bike_id":"2c73f24c-271c-4dd3-9f7f-76d396737c9f","system_id":"levelo_inurba_marseille","lat":43.292663,"lon":5.376389,"is_reserved":false,"is_disabled":false,"rental_uris":{"android":"levelo://app?vid=2c73f24c-271c-4dd3-9f7f-76d396737c9f","ios":"levelo://app?vid=2c73f24c-271c-4dd3-9f7f-76d396737c9f"},"vehicle_type_id":"4","last_reported":1682355969,"current_range_meters":22800,"station_id":"ce4bgi12rcd13ifvqb80","pricing_plan_id":"free"},{"bike_id":"27c6ce5a-264c-42b8-ae39-54bf3d322e2f","system_id":"levelo_inurba_marseille","lat":43.29879,"lon":5.3891,"is_reserved":false,"is_disabled":false,"rental_uris":{"android":"levelo://app?vid=27c6ce5a-264c-42b8-ae39-54bf3d322e2f","ios":"levelo://app?vid=27c6ce5a-264c-42b8-ae39-54bf3d322e2f"},"vehicle_type_id":"4","last_reported":1682355969,"current_range_meters":2000,"station_id":"ce4bh392rcd13ifvqdl0","pricing_plan_id":"free"},{"bike_id":"4298a4b1-38ac-4409-aeda-e84f8ad47e42","system_id":"levelo_inurba_marseille","lat":43.29876,"lon":5.38909,"is_reserved":false,"is_disabled":false,"rental_uris":{"android":"levelo://app?vid=4298a4b1-38ac-4409-aeda-e84f8ad47e42","ios":"levelo://app?vid=4298a4b1-38ac-4409-aeda-e84f8ad47e42"},"vehicle_type_id":"4","last_reported":1682355969,"current_range_meters":12000,"station_id":"ce4bh392rcd13ifvqdl0","pricing_plan_id":"free"},{"bike_id":"da21d7b9-e24a-45fd-86e1-9e9daab8ef3a","system_id":"levelo_inurba_marseille","lat":43.313291,"lon":5.396838,"is_reserved":false,"is_disabled":false,"rental_uris":{"android":"levelo://app?vid=da21d7b9-e24a-45fd-86e1-9e9daab8ef3a","ios":"levelo://app?vid=da21d7b9-e24a-45fd-86e1-9e9daab8ef3a"},"vehicle_type_id":"4","last_reported":1682355969,"current_range_meters":21200,"station_id":"ce4bgvp2rcd13ifvqcu0","pricing_plan_id":"free"},{"bike_id":"c41b501c-4ea3-43e6-bd49-3a041abdf4a2","system_id":"levelo_inurba_marseille","lat":43.31328,"lon":5.39682,"is_reserved":false,"is_disabled":false,"rental_uris":{"android":"levelo://app?vid=c41b501c-4ea3-43e6-bd49-3a041abdf4a2","ios":"levelo://app?vid=c41b501c-4ea3-43e6-bd49-3a041abdf4a2"},"vehicle_type_id":"4","last_reported":1682355969,"current_range_meters":2400,"station_id":"","pricing_plan_id":"free"},{"bike_id":"5b5a9ef7-65fa-4d8b-9ce9-e9d75b38f5a1","system_id":"levelo_inurba_marseille","lat":43.313291,"lon":5.396838,"is_reserved":false,"is_disabled":false,"rental_uris":{"android":"levelo://app?vid=5b5a9ef7-65fa-4d8b-9ce9-e9d75b38f5a1","ios":"levelo://app?vid=5b5a9ef7-65fa-4d8b-9ce9-e9d75b38f5a1"},"vehicle_type_id":"4","last_reported":1682355969,"current_range_meters":11600,"station_id":"ce4bgvp2rcd13ifvqcu0","pricing_plan_id":"free"},{"bike_id":"d8b7af4e-c3f9-4736-90c0-2c0df5d950fe","system_id":"levelo_inurba_marseille","lat":43.309038,"lon":5.396546,"is_reserved":false,"is_disabled":false,"rental_uris":{"android":"levelo://app?vid=d8b7af4e-c3f9-4736-90c0-2c0df5d950fe","ios":"levelo://app?vid=d8b7af4e-c3f9-4736-90c0-2c0df5d950fe"},"vehicle_type_id":"4","last_reported":1682355969,"current_range_meters":16400,"station_id":"ce4bh012rcd13ifvqcv0","pricing_plan_id":"free"},{"bike_id":"a6084a11-e676-492c-9fe4-7f4397b76854","system_id":"levelo_inurba_marseille","lat":43.313291,"lon":5.396838,"is_reserved":false,"is_disabled":false,"rental_uris":{"android":"levelo://app?vid=a6084a11-e676-492c-9fe4-7f4397b76854","ios":"levelo://app?vid=a6084a11-e676-492c-9fe4-7f4397b76854"},"vehicle_type_id":"4","last_reported":1682355969,"current_range_meters":24800,"station_id":"ce4bgvp2rcd13ifvqcu0","pricing_plan_id":"free"},{"bike_id":"e0c93417-0bf8-4a9c-9073-95b1e24e9941","system_id":"levelo_inurba_marseille","lat":43.313291,"lon":5.396838,"is_reserved":false,"is_disabled":false,"rental_uris":{"android":"levelo://app?vid=e0c93417-0bf8-4a9c-9073-95b1e24e9941","ios":"levelo://app?vid=e0c93417-0bf8-4a9c-9073-95b1e24e9941"},"vehicle_type_id":"4","last_reported":1682355969,"current_range_meters":24800,"station_id":"ce4bgvp2rcd13ifvqcu0","pricing_plan_id":"free"},{"bike_id":"c95786db-4140-4d46-956e-ec58fbddd9c5","system_id":"levelo_inurba_marseille","lat":43.309038,"lon":5.396546,"is_reserved":false,"is_disabled":false,"rental_uris":{"android":"levelo://app?vid=c95786db-4140-4d46-956e-ec58fbddd9c5","ios":"levelo://app?vid=c95786db-4140-4d46-956e-ec58fbddd9c5"},"vehicle_type_id":"4","last_reported":1682355969,"current_range_meters":30800,"station_id":"ce4bh012rcd13ifvqcv0","pricing_plan_id":"free"},{"bike_id":"9b27e764-896d-4aef-82c9-8896efbd848d","system_id":"levelo_inurba_marseille","lat":43.313291,"lon":5.396838,"is_reserved":false,"is_disabled":false,"rental_uris":{"android":"levelo://app?vid=9b27e764-896d-4aef-82c9-8896efbd848d","ios":"levelo://app?vid=9b27e764-896d-4aef-82c9-8896efbd848d"},"vehicle_type_id":"4","last_reported":1682355969,"current_range_meters":8800,"station_id":"ce4bgvp2rcd13ifvqcu0","pricing_plan_id":"free"},{"bike_id":"7b8c3870-9727-47bb-a26d-9379f0b43ff1","system_id":"levelo_inurba_marseille","lat":43.309038,"lon":5.396546,"is_reserved":false,"is_disabled":false,"rental_uris":{"android":"levelo://app?vid=7b8c3870-9727-47bb-a26d-9379f0b43ff1","ios":"levelo://app?vid=7b8c3870-9727-47bb-a26d-9379f0b43ff1"},"vehicle_type_id":"4","last_reported":1682355969,"current_range_meters":11200,"station_id":"ce4bh012rcd13ifvqcv0","pricing_plan_id":"free"},{"bike_id":"9f223705-de60-445a-858a-179c31e2aacb","system_id":"levelo_inurba_marseille","lat":43.290779,"lon":5.371482,"is_reserved":false,"is_disabled":false,"rental_uris":{"android":"levelo://app?vid=9f223705-de60-445a-858a-179c31e2aacb","ios":"levelo://app?vid=9f223705-de60-445a-858a-179c31e2aacb"},"vehicle_type_id":"4","last_reported":1682355969,"current_range_meters":13200,"station_id":"ce4bh5p2rcd13ifvqe4g","pricing_plan_id":"free"},{"bike_id":"e672d963-2b40-41ba-b367-6671687c722f","system_id":"levelo_inurba_marseille","lat":43.290779,"lon":5.371482,"is_reserved":false,"is_disabled":false,"rental_uris":{"android":"levelo://app?vid=e672d963-2b40-41ba-b367-6671687c722f","ios":"levelo://app?vid=e672d963-2b40-41ba-b367-6671687c722f"},"vehicle_type_id":"4","last_reported":1682355969,"current_range_meters":0,"station_id":"ce4bh5p2rcd13ifvqe4g","pricing_plan_id":"free"},{"bike_id":"60a1aea7-4258-47e9-815e-b228283cdb07","system_id":"levelo_inurba_marseille","lat":43.30215,"lon":5.39456,"is_reserved":false,"is_disabled":false,"rental_uris":{"android":"levelo://app?vid=60a1aea7-4258-47e9-815e-b228283cdb07","ios":"levelo://app?vid=60a1aea7-4258-47e9-815e-b228283cdb07"},"vehicle_type_id":"4","last_reported":1682355969,"current_range_meters":18800,"station_id":"ce4bh0p2rcd13ifvqd70","pricing_plan_id":"free"},{"bike_id":"3b6b5369-df0c-4dc8-ad23-131bb5197a51","system_id":"levelo_inurba_marseille","lat":43.302008,"lon":5.394694,"is_reserved":false,"is_disabled":false,"rental_uris":{"android":"levelo://app?vid=3b6b5369-df0c-4dc8-ad23-131bb5197a51","ios":"levelo://app?vid=3b6b5369-df0c-4dc8-ad23-131bb5197a51"},"vehicle_type_id":"4","last_reported":1682355969,"current_range_meters":30000,"station_id":"ce4bh0p2rcd13ifvqd70","pricing_plan_id":"free"},{"bike_id":"eee67360-3029-4a36-a229-17aff9a8ab60","system_id":"levelo_inurba_marseille","lat":43.302008,"lon":5.394694,"is_reserved":false,"is_disabled":false,"rental_uris":{"android":"levelo://app?vid=eee67360-3029-4a36-a229-17aff9a8ab60","ios":"levelo://app?vid=eee67360-3029-4a36-a229-17aff9a8ab60"},"vehicle_type_id":"4","last_reported":1682355969,"current_range_meters":22000,"station_id":"ce4bh0p2rcd13ifvqd70","pricing_plan_id":"free"},{"bike_id":"acf2f99a-8310-4dcd-95bc-17a85bc39f33","system_id":"levelo_inurba_marseille","lat":43.3021,"lon":5.39466,"is_reserved":false,"is_disabled":false,"rental_uris":{"android":"levelo://app?vid=acf2f99a-8310-4dcd-95bc-17a85bc39f33","ios":"levelo://app?vid=acf2f99a-8310-4dcd-95bc-17a85bc39f33"},"vehicle_type_id":"4","last_reported":1682355969,"current_range_meters":20400,"station_id":"ce4bh0p2rcd13ifvqd70","pricing_plan_id":"free"},{"bike_id":"f811dac3-4aec-4222-8532-fa3a689043c4","system_id":"levelo_inurba_marseille","lat":43.290103,"lon":5.356114,"is_reserved":false,"is_disabled":false,"rental_uris":{"android":"levelo://app?vid=f811dac3-4aec-4222-8532-fa3a689043c4","ios":"levelo://app?vid=f811dac3-4aec-4222-8532-fa3a689043c4"},"vehicle_type_id":"4","last_reported":1682355969,"current_range_meters":22000,"station_id":"ce4bhb92rcd13ifvqen0","pricing_plan_id":"free"},{"bike_id":"fb40fb3f-2657-4d74-b49d-ba3a28aa362e","system_id":"levelo_inurba_marseille","lat":43.290327,"lon":5.375711,"is_reserved":false,"is_disabled":false,"rental_uris":{"android":"levelo://app?vid=fb40fb3f-2657-4d74-b49d-ba3a28aa362e","ios":"levelo://app?vid=fb40fb3f-2657-4d74-b49d-ba3a28aa362e"},"vehicle_type_id":"4","last_reported":1682355969,"current_range_meters":22000,"station_id":"ce4bh692rcd13ifvqe90","pricing_plan_id":"free"},{"bike_id":"e6603fe6-f367-41ce-a426-190af197eea8","system_id":"levelo_inurba_marseille","lat":43.29418,"lon":5.38617,"is_reserved":false,"is_disabled":false,"rental_uris":{"android":"levelo://app?vid=e6603fe6-f367-41ce-a426-190af197eea8","ios":"levelo://app?vid=e6603fe6-f367-41ce-a426-190af197eea8"},"vehicle_type_id":"4","last_reported":1682355969,"current_range_meters":2400,"station_id":"ce4bh2h2rcd13ifvqdh0","pricing_plan_id":"free"},{"bike_id":"9844017a-94dd-4761-8986-a5029d487b70","system_id":"levelo_inurba_marseille","lat":43.294162,"lon":5.386292,"is_reserved":false,"is_disabled":false,"rental_uris":{"android":"levelo://app?vid=9844017a-94dd-4761-8986-a5029d487b70","ios":"levelo://app?vid=9844017a-94dd-4761-8986-a5029d487b70"},"vehicle_type_id":"4","last_reported":1682355969,"current_range_meters":27200,"station_id":"ce4bh2h2rcd13ifvqdh0","pricing_plan_id":"free"},{"bike_id":"d9443672-02e0-46a9-a65b-891b213611ac","system_id":"levelo_inurba_marseille","lat":43.294162,"lon":5.386292,"is_reserved":false,"is_disabled":false,"rental_uris":{"android":"levelo://app?vid=d9443672-02e0-46a9-a65b-891b213611ac","ios":"levelo://app?vid=d9443672-02e0-46a9-a65b-891b213611ac"},"vehicle_type_id":"4","last_reported":1682355969,"current_range_meters":7200,"station_id":"ce4bh2h2rcd13ifvqdh0","pricing_plan_id":"free"},{"bike_id":"4411037c-ea67-4a07-af4c-e6c457c43a0d","system_id":"levelo_inurba_marseille","lat":43.294142,"lon":5.386186,"is_reserved":false,"is_disabled":false,"rental_uris":{"android":"levelo://app?vid=4411037c-ea67-4a07-af4c-e6c457c43a0d","ios":"levelo://app?vid=4411037c-ea67-4a07-af4c-e6c457c43a0d"},"vehicle_type_id":"4","last_reported":1682355969,"current_range_meters":26800,"station_id":"ce4bh2h2rcd13ifvqdh0","pricing_plan_id":"free"},{"bike_id":"90f8f340-3f9e-4cbd-b7b0-13da24535edb","system_id":"levelo_inurba_marseille","lat":43.29416,"lon":5.38625,"is_reserved":false,"is_disabled":false,"rental_uris":{"android":"levelo://app?vid=90f8f340-3f9e-4cbd-b7b0-13da24535edb","ios":"levelo://app?vid=90f8f340-3f9e-4cbd-b7b0-13da24535edb"},"vehicle_type_id":"4","last_reported":1682355969,"current_range_meters":28000,"station_id":"ce4bh2h2rcd13ifvqdh0","pricing_plan_id":"free"},{"bike_id":"3724ceb9-e2a2-4f99-81d7-67e90e3ad69c","system_id":"levelo_inurba_marseille","lat":43.29419,"lon":5.38635,"is_reserved":false,"is_disabled":false,"rental_uris":{"android":"levelo://app?vid=3724ceb9-e2a2-4f99-81d7-67e90e3ad69c","ios":"levelo://app?vid=3724ceb9-e2a2-4f99-81d7-67e90e3ad69c"},"vehicle_type_id":"4","last_reported":1682355969,"current_range_meters":29600,"station_id":"ce4bh2h2rcd13ifvqdh0","pricing_plan_id":"free"},{"bike_id":"e980ba2f-6869-4b4f-b3b6-f3d284222bba","system_id":"levelo_inurba_marseille","lat":43.28941,"lon":5.3664,"is_reserved":false,"is_disabled":false,"rental_uris":{"android":"levelo://app?vid=e980ba2f-6869-4b4f-b3b6-f3d284222bba","ios":"levelo://app?vid=e980ba2f-6869-4b4f-b3b6-f3d284222bba"},"vehicle_type_id":"4","last_reported":1682355969,"current_range_meters":28800,"station_id":"ce4bhap2rcd13ifvqek0","pricing_plan_id":"free"},{"bike_id":"0dd4d804-02d5-413d-9ae1-5fefb0e000fe","system_id":"levelo_inurba_marseille","lat":43.289184,"lon":5.366408,"is_reserved":false,"is_disabled":false,"rental_uris":{"android":"levelo://app?vid=0dd4d804-02d5-413d-9ae1-5fefb0e000fe","ios":"levelo://app?vid=0dd4d804-02d5-413d-9ae1-5fefb0e000fe"},"vehicle_type_id":"4","last_reported":1682355969,"current_range_meters":4800,"station_id":"ce4bhap2rcd13ifvqek0","pricing_plan_id":"free"},{"bike_id":"1aa864be-ed37-45ab-b106-a1f95835fdd4","system_id":"levelo_inurba_marseille","lat":43.289184,"lon":5.366408,"is_reserved":false,"is_disabled":false,"rental_uris":{"android":"levelo://app?vid=1aa864be-ed37-45ab-b106-a1f95835fdd4","ios":"levelo://app?vid=1aa864be-ed37-45ab-b106-a1f95835fdd4"},"vehicle_type_id":"4","last_reported":1682355969,"current_range_meters":24000,"station_id":"ce4bhap2rcd13ifvqek0","pricing_plan_id":"free"},{"bike_id":"c0a4cfd1-11b4-4a7b-ba75-7345b6359255","system_id":"levelo_inurba_marseille","lat":43.289184,"lon":5.366408,"is_reserved":false,"is_disabled":false,"rental_uris":{"android":"levelo://app?vid=c0a4cfd1-11b4-4a7b-ba75-7345b6359255","ios":"levelo://app?vid=c0a4cfd1-11b4-4a7b-ba75-7345b6359255"},"vehicle_type_id":"4","last_reported":1682355969,"current_range_meters":20800,"station_id":"ce4bhap2rcd13ifvqek0","pricing_plan_id":"free"},{"bike_id":"efc7f1bc-bf73-4474-b5dd-35f9a9ff73a5","system_id":"levelo_inurba_marseille","lat":43.289184,"lon":5.366408,"is_reserved":false,"is_disabled":false,"rental_uris":{"android":"levelo://app?vid=efc7f1bc-bf73-4474-b5dd-35f9a9ff73a5","ios":"levelo://app?vid=efc7f1bc-bf73-4474-b5dd-35f9a9ff73a5"},"vehicle_type_id":"4","last_reported":1682355969,"current_range_meters":27600,"station_id":"ce4bhap2rcd13ifvqek0","pricing_plan_id":"free"},{"bike_id":"51e31723-7745-4715-90ba-64ef386c3a2e","system_id":"levelo_inurba_marseille","lat":43.28935,"lon":5.36635,"is_reserved":false,"is_disabled":false,"rental_uris":{"android":"levelo://app?vid=51e31723-7745-4715-90ba-64ef386c3a2e","ios":"levelo://app?vid=51e31723-7745-4715-90ba-64ef386c3a2e"},"vehicle_type_id":"4","last_reported":1682355969,"current_range_meters":4800,"station_id":"ce4bhap2rcd13ifvqek0","pricing_plan_id":"free"},{"bike_id":"4fedb7b2-fa29-4fcb-96ba-01785f2f1c51","system_id":"levelo_inurba_marseille","lat":43.289184,"lon":5.366408,"is_reserved":false,"is_disabled":false,"rental_uris":{"android":"levelo://app?vid=4fedb7b2-fa29-4fcb-96ba-01785f2f1c51","ios":"levelo://app?vid=4fedb7b2-fa29-4fcb-96ba-01785f2f1c51"},"vehicle_type_id":"4","last_reported":1682355969,"current_range_meters":18800,"station_id":"ce4bhap2rcd13ifvqek0","pricing_plan_id":"free"},{"bike_id":"bbb94293-8e75-492a-a661-ac2aade24565","system_id":"levelo_inurba_marseille","lat":43.289184,"lon":5.366408,"is_reserved":false,"is_disabled":false,"rental_uris":{"android":"levelo://app?vid=bbb94293-8e75-492a-a661-ac2aade24565","ios":"levelo://app?vid=bbb94293-8e75-492a-a661-ac2aade24565"},"vehicle_type_id":"4","last_reported":1682355969,"current_range_meters":2400,"station_id":"ce4bhap2rcd13ifvqek0","pricing_plan_id":"free"},{"bike_id":"cf0ace9c-663d-40c6-b478-6f6bec8cc579","system_id":"levelo_inurba_marseille","lat":43.289184,"lon":5.366408,"is_reserved":false,"is_disabled":false,"rental_uris":{"android":"levelo://app?vid=cf0ace9c-663d-40c6-b478-6f6bec8cc579","ios":"levelo://app?vid=cf0ace9c-663d-40c6-b478-6f6bec8cc579"},"vehicle_type_id":"4","last_reported":1682355969,"current_range_meters":17200,"station_id":"ce4bhap2rcd13ifvqek0","pricing_plan_id":"free"},{"bike_id":"d3da0489-9b94-475f-87b8-f8f296429ea3","system_id":"levelo_inurba_marseille","lat":43.289184,"lon":5.366408,"is_reserved":false,"is_disabled":false,"rental_uris":{"android":"levelo://app?vid=d3da0489-9b94-475f-87b8-f8f296429ea3","ios":"levelo://app?vid=d3da0489-9b94-475f-87b8-f8f296429ea3"},"vehicle_type_id":"4","last_reported":1682355969,"current_range_meters":6000,"station_id":"ce4bhap2rcd13ifvqek0","pricing_plan_id":"free"},{"bike_id":"1f2cdbda-4198-4c0e-aa88-3e1502423d71","system_id":"levelo_inurba_marseille","lat":43.289184,"lon":5.366408,"is_reserved":false,"is_disabled":false,"rental_uris":{"android":"levelo://app?vid=1f2cdbda-4198-4c0e-aa88-3e1502423d71","ios":"levelo://app?vid=1f2cdbda-4198-4c0e-aa88-3e1502423d71"},"vehicle_type_id":"4","last_reported":1682355969,"current_range_meters":6800,"station_id":"ce4bhap2rcd13ifvqek0","pricing_plan_id":"free"},{"bike_id":"826c6242-eead-4712-a331-64c994b28f34","system_id":"levelo_inurba_marseille","lat":43.289184,"lon":5.366408,"is_reserved":false,"is_disabled":false,"rental_uris":{"android":"levelo://app?vid=826c6242-eead-4712-a331-64c994b28f34","ios":"levelo://app?vid=826c6242-eead-4712-a331-64c994b28f34"},"vehicle_type_id":"4","last_reported":1682355969,"current_range_meters":16400,"station_id":"ce4bhap2rcd13ifvqek0","pricing_plan_id":"free"},{"bike_id":"8839abff-02b0-4c90-9303-394a286dc3ff","system_id":"levelo_inurba_marseille","lat":43.289184,"lon":5.366408,"is_reserved":false,"is_disabled":false,"rental_uris":{"android":"levelo://app?vid=8839abff-02b0-4c90-9303-394a286dc3ff","ios":"levelo://app?vid=8839abff-02b0-4c90-9303-394a286dc3ff"},"vehicle_type_id":"4","last_reported":1682355969,"current_range_meters":6000,"station_id":"ce4bhap2rcd13ifvqek0","pricing_plan_id":"free"},{"bike_id":"b982b571-c621-46d2-b4a9-e89eff846269","system_id":"levelo_inurba_marseille","lat":43.289468,"lon":5.363719,"is_reserved":false,"is_disabled":false,"rental_uris":{"android":"levelo://app?vid=b982b571-c621-46d2-b4a9-e89eff846269","ios":"levelo://app?vid=b982b571-c621-46d2-b4a9-e89eff846269"},"vehicle_type_id":"4","last_reported":1682355969,"current_range_meters":13600,"station_id":"ce4bhc92rcd13ifvqetg","pricing_plan_id":"free"},{"bike_id":"b1b9574c-213b-4529-9f34-3ee5a4b1f6de","system_id":"levelo_inurba_marseille","lat":43.289184,"lon":5.366408,"is_reserved":false,"is_disabled":false,"rental_uris":{"android":"levelo://app?vid=b1b9574c-213b-4529-9f34-3ee5a4b1f6de","ios":"levelo://app?vid=b1b9574c-213b-4529-9f34-3ee5a4b1f6de"},"vehicle_type_id":"4","last_reported":1682355969,"current_range_meters":7200,"station_id":"ce4bhap2rcd13ifvqek0","pricing_plan_id":"free"},{"bike_id":"66726368-4e93-4c4c-a8b9-ea3cff7dcab8","system_id":"levelo_inurba_marseille","lat":43.289468,"lon":5.363719,"is_reserved":false,"is_disabled":false,"rental_uris":{"android":"levelo://app?vid=66726368-4e93-4c4c-a8b9-ea3cff7dcab8","ios":"levelo://app?vid=66726368-4e93-4c4c-a8b9-ea3cff7dcab8"},"vehicle_type_id":"4","last_reported":1682355969,"current_range_meters":26400,"station_id":"ce4bhc92rcd13ifvqetg","pricing_plan_id":"free"},{"bike_id":"ed09f048-c257-4dc2-a8be-b8ccda3f51e2","system_id":"levelo_inurba_marseille","lat":43.292644,"lon":5.384257,"is_reserved":false,"is_disabled":false,"rental_uris":{"android":"levelo://app?vid=ed09f048-c257-4dc2-a8be-b8ccda3f51e2","ios":"levelo://app?vid=ed09f048-c257-4dc2-a8be-b8ccda3f51e2"},"vehicle_type_id":"4","last_reported":1682355969,"current_range_meters":10800,"station_id":"ce4bh692rcd13ifvqea0","pricing_plan_id":"free"},{"bike_id":"a54c4e1c-0d2e-4e90-b5ae-973f6d2de3aa","system_id":"levelo_inurba_marseille","lat":43.304296,"lon":5.397513,"is_reserved":false,"is_disabled":false,"rental_uris":{"android":"levelo://app?vid=a54c4e1c-0d2e-4e90-b5ae-973f6d2de3aa","ios":"levelo://app?vid=a54c4e1c-0d2e-4e90-b5ae-973f6d2de3aa"},"vehicle_type_id":"4","last_reported":1682355969,"current_range_meters":25600,"station_id":"ce4bh092rcd13ifvqd20","pricing_plan_id":"free"},{"bike_id":"171b7a83-3ecf-4147-a6a9-54b8bd5347a2","system_id":"levelo_inurba_marseille","lat":43.304274,"lon":5.397513,"is_reserved":false,"is_disabled":false,"rental_uris":{"android":"levelo://app?vid=171b7a83-3ecf-4147-a6a9-54b8bd5347a2","ios":"levelo://app?vid=171b7a83-3ecf-4147-a6a9-54b8bd5347a2"},"vehicle_type_id":"4","last_reported":1682355969,"current_range_meters":19600,"station_id":"ce4bh092rcd13ifvqd20","pricing_plan_id":"free"},{"bike_id":"ba091bb2-1cd6-40f9-bdaf-239d24ce737d","system_id":"levelo_inurba_marseille","lat":43.292644,"lon":5.384257,"is_reserved":false,"is_disabled":false,"rental_uris":{"android":"levelo://app?vid=ba091bb2-1cd6-40f9-bdaf-239d24ce737d","ios":"levelo://app?vid=ba091bb2-1cd6-40f9-bdaf-239d24ce737d"},"vehicle_type_id":"4","last_reported":1682355969,"current_range_meters":27200,"station_id":"ce4bh692rcd13ifvqea0","pricing_plan_id":"free"},{"bike_id":"63288802-2ef8-400f-a4dd-494960088703","system_id":"levelo_inurba_marseille","lat":43.292614,"lon":5.384264,"is_reserved":false,"is_disabled":false,"rental_uris":{"android":"levelo://app?vid=63288802-2ef8-400f-a4dd-494960088703","ios":"levelo://app?vid=63288802-2ef8-400f-a4dd-494960088703"},"vehicle_type_id":"4","last_reported":1682355969,"current_range_meters":7600,"station_id":"ce4bh692rcd13ifvqea0","pricing_plan_id":"free"},{"bike_id":"2634deb2-3910-46e5-a89e-6f7dc600d1dc","system_id":"levelo_inurba_marseille","lat":43.29261,"lon":5.38426,"is_reserved":false,"is_disabled":false,"rental_uris":{"android":"levelo://app?vid=2634deb2-3910-46e5-a89e-6f7dc600d1dc","ios":"levelo://app?vid=2634deb2-3910-46e5-a89e-6f7dc600d1dc"},"vehicle_type_id":"4","last_reported":1682355969,"current_range_meters":25200,"station_id":"ce4bh692rcd13ifvqea0","pricing_plan_id":"free"},{"bike_id":"cc35c15f-923b-4738-a57c-0cee57cebd58","system_id":"levelo_inurba_marseille","lat":43.292644,"lon":5.384257,"is_reserved":false,"is_disabled":false,"rental_uris":{"android":"levelo://app?vid=cc35c15f-923b-4738-a57c-0cee57cebd58","ios":"levelo://app?vid=cc35c15f-923b-4738-a57c-0cee57cebd58"},"vehicle_type_id":"4","last_reported":1682355969,"current_range_meters":16400,"station_id":"ce4bh692rcd13ifvqea0","pricing_plan_id":"free"},{"bike_id":"1f2a5019-357d-4de5-b5d9-ad4d1c26dfde","system_id":"levelo_inurba_marseille","lat":43.29264,"lon":5.3844,"is_reserved":false,"is_disabled":false,"rental_uris":{"android":"levelo://app?vid=1f2a5019-357d-4de5-b5d9-ad4d1c26dfde","ios":"levelo://app?vid=1f2a5019-357d-4de5-b5d9-ad4d1c26dfde"},"vehicle_type_id":"4","last_reported":1682355969,"current_range_meters":20000,"station_id":"ce4bh692rcd13ifvqea0","pricing_plan_id":"free"},{"bike_id":"c1617788-5819-4fa2-9bd1-7ff0a915e701","system_id":"levelo_inurba_marseille","lat":43.304296,"lon":5.397513,"is_reserved":false,"is_disabled":false,"rental_uris":{"android":"levelo://app?vid=c1617788-5819-4fa2-9bd1-7ff0a915e701","ios":"levelo://app?vid=c1617788-5819-4fa2-9bd1-7ff0a915e701"},"vehicle_type_id":"4","last_reported":1682355969,"current_range_meters":3200,"station_id":"ce4bh092rcd13ifvqd20","pricing_plan_id":"free"},{"bike_id":"6c32bd08-02a5-4f8b-9de1-c337591dd592","system_id":"levelo_inurba_marseille","lat":43.29262,"lon":5.38437,"is_reserved":false,"is_disabled":false,"rental_uris":{"android":"levelo://app?vid=6c32bd08-02a5-4f8b-9de1-c337591dd592","ios":"levelo://app?vid=6c32bd08-02a5-4f8b-9de1-c337591dd592"},"vehicle_type_id":"4","last_reported":1682355969,"current_range_meters":21200,"station_id":"ce4bh692rcd13ifvqea0","pricing_plan_id":"free"},{"bike_id":"3b29d1b4-9341-4e9c-a6f2-3e8e88ce0f85","system_id":"levelo_inurba_marseille","lat":43.304296,"lon":5.397513,"is_reserved":false,"is_disabled":false,"rental_uris":{"android":"levelo://app?vid=3b29d1b4-9341-4e9c-a6f2-3e8e88ce0f85","ios":"levelo://app?vid=3b29d1b4-9341-4e9c-a6f2-3e8e88ce0f85"},"vehicle_type_id":"4","last_reported":1682355969,"current_range_meters":22800,"station_id":"ce4bh092rcd13ifvqd20","pricing_plan_id":"free"},{"bike_id":"5f118d3f-958a-4076-824d-f4b29c77e976","system_id":"levelo_inurba_marseille","lat":43.292644,"lon":5.384257,"is_reserved":false,"is_disabled":false,"rental_uris":{"android":"levelo://app?vid=5f118d3f-958a-4076-824d-f4b29c77e976","ios":"levelo://app?vid=5f118d3f-958a-4076-824d-f4b29c77e976"},"vehicle_type_id":"4","last_reported":1682355969,"current_range_meters":27600,"station_id":"ce4bh692rcd13ifvqea0","pricing_plan_id":"free"},{"bike_id":"cb160745-75bb-4edc-b157-2e08951b21a9","system_id":"levelo_inurba_marseille","lat":43.29256,"lon":5.38429,"is_reserved":false,"is_disabled":false,"rental_uris":{"android":"levelo://app?vid=cb160745-75bb-4edc-b157-2e08951b21a9","ios":"levelo://app?vid=cb160745-75bb-4edc-b157-2e08951b21a9"},"vehicle_type_id":"4","last_reported":1682355969,"current_range_meters":28400,"station_id":"ce4bh692rcd13ifvqea0","pricing_plan_id":"free"},{"bike_id":"b6d09682-fd7f-44a3-b548-a40f5cfe56bd","system_id":"levelo_inurba_marseille","lat":43.29262,"lon":5.38447,"is_reserved":false,"is_disabled":false,"rental_uris":{"android":"levelo://app?vid=b6d09682-fd7f-44a3-b548-a40f5cfe56bd","ios":"levelo://app?vid=b6d09682-fd7f-44a3-b548-a40f5cfe56bd"},"vehicle_type_id":"4","last_reported":1682355969,"current_range_meters":0,"station_id":"ce4bh692rcd13ifvqea0","pricing_plan_id":"free"},{"bike_id":"f0a950ec-bba6-4b4c-8e78-122f48a0196b","system_id":"levelo_inurba_marseille","lat":43.29255,"lon":5.38442,"is_reserved":false,"is_disabled":false,"rental_uris":{"android":"levelo://app?vid=f0a950ec-bba6-4b4c-8e78-122f48a0196b","ios":"levelo://app?vid=f0a950ec-bba6-4b4c-8e78-122f48a0196b"},"vehicle_type_id":"4","last_reported":1682355969,"current_range_meters":0,"station_id":"ce4bh692rcd13ifvqea0","pricing_plan_id":"free"},{"bike_id":"6681fddd-cf2b-4fc0-879d-0c7c52704ae1","system_id":"levelo_inurba_marseille","lat":43.29014,"lon":5.35609,"is_reserved":false,"is_disabled":false,"rental_uris":{"android":"levelo://app?vid=6681fddd-cf2b-4fc0-879d-0c7c52704ae1","ios":"levelo://app?vid=6681fddd-cf2b-4fc0-879d-0c7c52704ae1"},"vehicle_type_id":"4","last_reported":1682355969,"current_range_meters":24800,"station_id":"ce4bhb92rcd13ifvqen0","pricing_plan_id":"free"},{"bike_id":"3ce3bdcd-ad08-4d25-957e-bbd0cf1aef38","system_id":"levelo_inurba_marseille","lat":43.290104,"lon":5.356111,"is_reserved":false,"is_disabled":false,"rental_uris":{"android":"levelo://app?vid=3ce3bdcd-ad08-4d25-957e-bbd0cf1aef38","ios":"levelo://app?vid=3ce3bdcd-ad08-4d25-957e-bbd0cf1aef38"},"vehicle_type_id":"4","last_reported":1682355969,"current_range_meters":22800,"station_id":"ce4bhb92rcd13ifvqen0","pricing_plan_id":"free"},{"bike_id":"79ba7c5e-788d-4cae-97e5-ea9f9d8a03c3","system_id":"levelo_inurba_marseille","lat":43.29013,"lon":5.35606,"is_reserved":false,"is_disabled":false,"rental_uris":{"android":"levelo://app?vid=79ba7c5e-788d-4cae-97e5-ea9f9d8a03c3","ios":"levelo://app?vid=79ba7c5e-788d-4cae-97e5-ea9f9d8a03c3"},"vehicle_type_id":"4","last_reported":1682355969,"current_range_meters":29600,"station_id":"ce4bhb92rcd13ifvqen0","pricing_plan_id":"free"},{"bike_id":"e331abef-b768-4bb0-87d4-bcf70dfa24a9","system_id":"levelo_inurba_marseille","lat":43.29011,"lon":5.35613,"is_reserved":false,"is_disabled":false,"rental_uris":{"android":"levelo://app?vid=e331abef-b768-4bb0-87d4-bcf70dfa24a9","ios":"levelo://app?vid=e331abef-b768-4bb0-87d4-bcf70dfa24a9"},"vehicle_type_id":"4","last_reported":1682355969,"current_range_meters":31200,"station_id":"ce4bhb92rcd13ifvqen0","pricing_plan_id":"free"},{"bike_id":"634ce226-4bfa-4e55-80c1-7e9cecf07f79","system_id":"levelo_inurba_marseille","lat":43.29011,"lon":5.35613,"is_reserved":false,"is_disabled":false,"rental_uris":{"android":"levelo://app?vid=634ce226-4bfa-4e55-80c1-7e9cecf07f79","ios":"levelo://app?vid=634ce226-4bfa-4e55-80c1-7e9cecf07f79"},"vehicle_type_id":"4","last_reported":1682355969,"current_range_meters":22400,"station_id":"ce4bhb92rcd13ifvqen0","pricing_plan_id":"free"},{"bike_id":"69ac561d-2c3d-4f42-a032-24c873554e83","system_id":"levelo_inurba_marseille","lat":43.33041,"lon":5.38916,"is_reserved":false,"is_disabled":false,"rental_uris":{"android":"levelo://app?vid=69ac561d-2c3d-4f42-a032-24c873554e83","ios":"levelo://app?vid=69ac561d-2c3d-4f42-a032-24c873554e83"},"vehicle_type_id":"4","last_reported":1682355969,"current_range_meters":14800,"station_id":"ce4bhr92rcd13ifvqhrg","pricing_plan_id":"free"},{"bike_id":"5c182264-b7f0-4676-a4b8-6c07bbf7698e","system_id":"levelo_inurba_marseille","lat":43.290104,"lon":5.356111,"is_reserved":false,"is_disabled":false,"rental_uris":{"android":"levelo://app?vid=5c182264-b7f0-4676-a4b8-6c07bbf7698e","ios":"levelo://app?vid=5c182264-b7f0-4676-a4b8-6c07bbf7698e"},"vehicle_type_id":"4","last_reported":1682355969,"current_range_meters":31600,"station_id":"ce4bhb92rcd13ifvqen0","pricing_plan_id":"free"},{"bike_id":"1e797ab1-b987-4263-8237-0bc2eb4f06f4","system_id":"levelo_inurba_marseille","lat":43.33041,"lon":5.38918,"is_reserved":false,"is_disabled":false,"rental_uris":{"android":"levelo://app?vid=1e797ab1-b987-4263-8237-0bc2eb4f06f4","ios":"levelo://app?vid=1e797ab1-b987-4263-8237-0bc2eb4f06f4"},"vehicle_type_id":"4","last_reported":1682355969,"current_range_meters":21200,"station_id":"ce4bhr92rcd13ifvqhrg","pricing_plan_id":"free"},{"bike_id":"7422ee98-7fed-47d8-aa48-6bd02f3716d4","system_id":"levelo_inurba_marseille","lat":43.33042,"lon":5.38917,"is_reserved":false,"is_disabled":false,"rental_uris":{"android":"levelo://app?vid=7422ee98-7fed-47d8-aa48-6bd02f3716d4","ios":"levelo://app?vid=7422ee98-7fed-47d8-aa48-6bd02f3716d4"},"vehicle_type_id":"4","last_reported":1682355969,"current_range_meters":19200,"station_id":"ce4bhr92rcd13ifvqhrg","pricing_plan_id":"free"},{"bike_id":"eead4607-cae4-4893-92d8-e3122d0b31e4","system_id":"levelo_inurba_marseille","lat":43.33043,"lon":5.38916,"is_reserved":false,"is_disabled":false,"rental_uris":{"android":"levelo://app?vid=eead4607-cae4-4893-92d8-e3122d0b31e4","ios":"levelo://app?vid=eead4607-cae4-4893-92d8-e3122d0b31e4"},"vehicle_type_id":"4","last_reported":1682355969,"current_range_meters":20800,"station_id":"ce4bhr92rcd13ifvqhrg","pricing_plan_id":"free"},{"bike_id":"1f87e8f4-97c0-45e2-9e60-9b88335b7c96","system_id":"levelo_inurba_marseille","lat":43.290103,"lon":5.356114,"is_reserved":false,"is_disabled":false,"rental_uris":{"android":"levelo://app?vid=1f87e8f4-97c0-45e2-9e60-9b88335b7c96","ios":"levelo://app?vid=1f87e8f4-97c0-45e2-9e60-9b88335b7c96"},"vehicle_type_id":"4","last_reported":1682355969,"current_range_meters":31200,"station_id":"ce4bhb92rcd13ifvqen0","pricing_plan_id":"free"},{"bike_id":"348dd639-1b9d-44e6-b6bd-bcf7b3cd4e00","system_id":"levelo_inurba_marseille","lat":43.290104,"lon":5.356111,"is_reserved":false,"is_disabled":false,"rental_uris":{"android":"levelo://app?vid=348dd639-1b9d-44e6-b6bd-bcf7b3cd4e00","ios":"levelo://app?vid=348dd639-1b9d-44e6-b6bd-bcf7b3cd4e00"},"vehicle_type_id":"4","last_reported":1682355969,"current_range_meters":31200,"station_id":"ce4bhb92rcd13ifvqen0","pricing_plan_id":"free"},{"bike_id":"67d1234f-9f8d-49ef-a9cc-0d34a22ed3b7","system_id":"levelo_inurba_marseille","lat":43.290103,"lon":5.356114,"is_reserved":false,"is_disabled":false,"rental_uris":{"android":"levelo://app?vid=67d1234f-9f8d-49ef-a9cc-0d34a22ed3b7","ios":"levelo://app?vid=67d1234f-9f8d-49ef-a9cc-0d34a22ed3b7"},"vehicle_type_id":"4","last_reported":1682355969,"current_range_meters":30400,"station_id":"ce4bhb92rcd13ifvqen0","pricing_plan_id":"free"},{"bike_id":"70dbbb44-2d9f-4e93-ae2c-1b736e7c3c92","system_id":"levelo_inurba_marseille","lat":43.290103,"lon":5.356114,"is_reserved":false,"is_disabled":false,"rental_uris":{"android":"levelo://app?vid=70dbbb44-2d9f-4e93-ae2c-1b736e7c3c92","ios":"levelo://app?vid=70dbbb44-2d9f-4e93-ae2c-1b736e7c3c92"},"vehicle_type_id":"4","last_reported":1682355969,"current_range_meters":31600,"station_id":"ce4bhb92rcd13ifvqen0","pricing_plan_id":"free"},{"bike_id":"e9366c90-dd9a-4814-84be-ec46dc025363","system_id":"levelo_inurba_marseille","lat":43.33044,"lon":5.38916,"is_reserved":false,"is_disabled":false,"rental_uris":{"android":"levelo://app?vid=e9366c90-dd9a-4814-84be-ec46dc025363","ios":"levelo://app?vid=e9366c90-dd9a-4814-84be-ec46dc025363"},"vehicle_type_id":"4","last_reported":1682355969,"current_range_meters":18400,"station_id":"ce4bhr92rcd13ifvqhrg","pricing_plan_id":"free"},{"bike_id":"cc21fbe4-abaa-4d36-9a28-53eaaed6fa89","system_id":"levelo_inurba_marseille","lat":43.33046,"lon":5.38913,"is_reserved":false,"is_disabled":false,"rental_uris":{"android":"levelo://app?vid=cc21fbe4-abaa-4d36-9a28-53eaaed6fa89","ios":"levelo://app?vid=cc21fbe4-abaa-4d36-9a28-53eaaed6fa89"},"vehicle_type_id":"4","last_reported":1682355969,"current_range_meters":7600,"station_id":"ce4bhr92rcd13ifvqhrg","pricing_plan_id":"free"},{"bike_id":"13337b9a-286d-40ab-ad5c-6640cb331620","system_id":"levelo_inurba_marseille","lat":43.33043,"lon":5.38918,"is_reserved":false,"is_disabled":false,"rental_uris":{"android":"levelo://app?vid=13337b9a-286d-40ab-ad5c-6640cb331620","ios":"levelo://app?vid=13337b9a-286d-40ab-ad5c-6640cb331620"},"vehicle_type_id":"4","last_reported":1682355969,"current_range_meters":31200,"station_id":"ce4bhr92rcd13ifvqhrg","pricing_plan_id":"free"},{"bike_id":"a623ebad-1b44-46d8-abed-6feddb868f81","system_id":"levelo_inurba_marseille","lat":43.33045,"lon":5.38915,"is_reserved":false,"is_disabled":false,"rental_uris":{"android":"levelo://app?vid=a623ebad-1b44-46d8-abed-6feddb868f81","ios":"levelo://app?vid=a623ebad-1b44-46d8-abed-6feddb868f81"},"vehicle_type_id":"4","last_reported":1682355969,"current_range_meters":7200,"station_id":"ce4bhr92rcd13ifvqhrg","pricing_plan_id":"free"},{"bike_id":"b3dc7295-e9e6-4dfe-9441-0d010d76148c","system_id":"levelo_inurba_marseille","lat":43.290104,"lon":5.356111,"is_reserved":false,"is_disabled":false,"rental_uris":{"android":"levelo://app?vid=b3dc7295-e9e6-4dfe-9441-0d010d76148c","ios":"levelo://app?vid=b3dc7295-e9e6-4dfe-9441-0d010d76148c"},"vehicle_type_id":"4","last_reported":1682355969,"current_range_meters":31600,"station_id":"ce4bhb92rcd13ifvqen0","pricing_plan_id":"free"},{"bike_id":"517c5fc7-2c54-49ef-b55f-f29019740d8f","system_id":"levelo_inurba_marseille","lat":43.290103,"lon":5.356114,"is_reserved":false,"is_disabled":false,"rental_uris":{"android":"levelo://app?vid=517c5fc7-2c54-49ef-b55f-f29019740d8f","ios":"levelo://app?vid=517c5fc7-2c54-49ef-b55f-f29019740d8f"},"vehicle_type_id":"4","last_reported":1682355969,"current_range_meters":18000,"station_id":"ce4bhb92rcd13ifvqen0","pricing_plan_id":"free"},{"bike_id":"21e4a3ca-8f0d-4ba4-97f1-2aeb6db4698c","system_id":"levelo_inurba_marseille","lat":43.33046,"lon":5.38915,"is_reserved":false,"is_disabled":false,"rental_uris":{"android":"levelo://app?vid=21e4a3ca-8f0d-4ba4-97f1-2aeb6db4698c","ios":"levelo://app?vid=21e4a3ca-8f0d-4ba4-97f1-2aeb6db4698c"},"vehicle_type_id":"4","last_reported":1682355969,"current_range_meters":18800,"station_id":"ce4bhr92rcd13ifvqhrg","pricing_plan_id":"free"},{"bike_id":"59db3557-401d-4b9f-a84c-ade06fd0444e","system_id":"levelo_inurba_marseille","lat":43.290104,"lon":5.356111,"is_reserved":false,"is_disabled":false,"rental_uris":{"android":"levelo://app?vid=59db3557-401d-4b9f-a84c-ade06fd0444e","ios":"levelo://app?vid=59db3557-401d-4b9f-a84c-ade06fd0444e"},"vehicle_type_id":"4","last_reported":1682355969,"current_range_meters":7600,"station_id":"ce4bhb92rcd13ifvqen0","pricing_plan_id":"free"},{"bike_id":"411731d4-e60e-4dbe-a387-32fdf902228e","system_id":"levelo_inurba_marseille","lat":43.29008,"lon":5.35609,"is_reserved":false,"is_disabled":false,"rental_uris":{"android":"levelo://app?vid=411731d4-e60e-4dbe-a387-32fdf902228e","ios":"levelo://app?vid=411731d4-e60e-4dbe-a387-32fdf902228e"},"vehicle_type_id":"4","last_reported":1682355969,"current_range_meters":4000,"station_id":"ce4bhb92rcd13ifvqen0","pricing_plan_id":"free"},{"bike_id":"7c63fd15-42d2-433e-9414-21cada8b87b0","system_id":"levelo_inurba_marseille","lat":43.33045,"lon":5.38918,"is_reserved":false,"is_disabled":false,"rental_uris":{"android":"levelo://app?vid=7c63fd15-42d2-433e-9414-21cada8b87b0","ios":"levelo://app?vid=7c63fd15-42d2-433e-9414-21cada8b87b0"},"vehicle_type_id":"4","last_reported":1682355969,"current_range_meters":28800,"station_id":"ce4bhr92rcd13ifvqhrg","pricing_plan_id":"free"},{"bike_id":"aba66c14-ea8b-4df4-b80e-aac316414796","system_id":"levelo_inurba_marseille","lat":43.33047,"lon":5.38915,"is_reserved":false,"is_disabled":false,"rental_uris":{"android":"levelo://app?vid=aba66c14-ea8b-4df4-b80e-aac316414796","ios":"levelo://app?vid=aba66c14-ea8b-4df4-b80e-aac316414796"},"vehicle_type_id":"4","last_reported":1682355969,"current_range_meters":27200,"station_id":"ce4bhr92rcd13ifvqhrg","pricing_plan_id":"free"},{"bike_id":"33722839-6a53-443e-9a73-e5cc9b3a44ce","system_id":"levelo_inurba_marseille","lat":43.33043,"lon":5.38923,"is_reserved":false,"is_disabled":false,"rental_uris":{"android":"levelo://app?vid=33722839-6a53-443e-9a73-e5cc9b3a44ce","ios":"levelo://app?vid=33722839-6a53-443e-9a73-e5cc9b3a44ce"},"vehicle_type_id":"4","last_reported":1682355969,"current_range_meters":29600,"station_id":"ce4bhr92rcd13ifvqhrg","pricing_plan_id":"free"},{"bike_id":"071ba8e8-ad25-4f26-aa61-8cfe1c7f56c2","system_id":"levelo_inurba_marseille","lat":43.29008,"lon":5.35603,"is_reserved":false,"is_disabled":false,"rental_uris":{"android":"levelo://app?vid=071ba8e8-ad25-4f26-aa61-8cfe1c7f56c2","ios":"levelo://app?vid=071ba8e8-ad25-4f26-aa61-8cfe1c7f56c2"},"vehicle_type_id":"4","last_reported":1682355969,"current_range_meters":4400,"station_id":"ce4bhb92rcd13ifvqen0","pricing_plan_id":"free"},{"bike_id":"52006289-b58a-43d8-abf4-e2e349a5e27c","system_id":"levelo_inurba_marseille","lat":43.29007,"lon":5.35605,"is_reserved":false,"is_disabled":false,"rental_uris":{"android":"levelo://app?vid=52006289-b58a-43d8-abf4-e2e349a5e27c","ios":"levelo://app?vid=52006289-b58a-43d8-abf4-e2e349a5e27c"},"vehicle_type_id":"4","last_reported":1682355969,"current_range_meters":12400,"station_id":"ce4bhb92rcd13ifvqen0","pricing_plan_id":"free"},{"bike_id":"fc6e4dbd-4920-4316-b74e-7c53d227807e","system_id":"levelo_inurba_marseille","lat":43.290103,"lon":5.356114,"is_reserved":false,"is_disabled":false,"rental_uris":{"android":"levelo://app?vid=fc6e4dbd-4920-4316-b74e-7c53d227807e","ios":"levelo://app?vid=fc6e4dbd-4920-4316-b74e-7c53d227807e"},"vehicle_type_id":"4","last_reported":1682355969,"current_range_meters":31200,"station_id":"ce4bhb92rcd13ifvqen0","pricing_plan_id":"free"},{"bike_id":"332f365e-3f53-4bed-ae88-f3a7ec1d3260","system_id":"levelo_inurba_marseille","lat":43.29006,"lon":5.35608,"is_reserved":false,"is_disabled":false,"rental_uris":{"android":"levelo://app?vid=332f365e-3f53-4bed-ae88-f3a7ec1d3260","ios":"levelo://app?vid=332f365e-3f53-4bed-ae88-f3a7ec1d3260"},"vehicle_type_id":"4","last_reported":1682355969,"current_range_meters":31200,"station_id":"ce4bhb92rcd13ifvqen0","pricing_plan_id":"free"},{"bike_id":"d4c0ff20-3b45-4474-8378-8ebb3d3da6fc","system_id":"levelo_inurba_marseille","lat":43.290104,"lon":5.356111,"is_reserved":false,"is_disabled":false,"rental_uris":{"android":"levelo://app?vid=d4c0ff20-3b45-4474-8378-8ebb3d3da6fc","ios":"levelo://app?vid=d4c0ff20-3b45-4474-8378-8ebb3d3da6fc"},"vehicle_type_id":"4","last_reported":1682355969,"current_range_meters":31600,"station_id":"ce4bhb92rcd13ifvqen0","pricing_plan_id":"free"},{"bike_id":"5d33386d-4c00-4679-9266-0d7de937bdec","system_id":"levelo_inurba_marseille","lat":43.290104,"lon":5.356111,"is_reserved":false,"is_disabled":false,"rental_uris":{"android":"levelo://app?vid=5d33386d-4c00-4679-9266-0d7de937bdec","ios":"levelo://app?vid=5d33386d-4c00-4679-9266-0d7de937bdec"},"vehicle_type_id":"4","last_reported":1682355969,"current_range_meters":31200,"station_id":"ce4bhb92rcd13ifvqen0","pricing_plan_id":"free"},{"bike_id":"4a3694c9-dc4e-4499-af70-3ae859e6f5c0","system_id":"levelo_inurba_marseille","lat":43.290104,"lon":5.356111,"is_reserved":false,"is_disabled":false,"rental_uris":{"android":"levelo://app?vid=4a3694c9-dc4e-4499-af70-3ae859e6f5c0","ios":"levelo://app?vid=4a3694c9-dc4e-4499-af70-3ae859e6f5c0"},"vehicle_type_id":"4","last_reported":1682355969,"current_range_meters":31600,"station_id":"ce4bhb92rcd13ifvqen0","pricing_plan_id":"free"},{"bike_id":"da91e61e-dbba-444f-bf86-3c3929adf7ea","system_id":"levelo_inurba_marseille","lat":43.290103,"lon":5.356114,"is_reserved":false,"is_disabled":false,"rental_uris":{"android":"levelo://app?vid=da91e61e-dbba-444f-bf86-3c3929adf7ea","ios":"levelo://app?vid=da91e61e-dbba-444f-bf86-3c3929adf7ea"},"vehicle_type_id":"4","last_reported":1682355969,"current_range_meters":16400,"station_id":"ce4bhb92rcd13ifvqen0","pricing_plan_id":"free"},{"bike_id":"b2af88d1-3c89-436b-9814-ab299130f818","system_id":"levelo_inurba_marseille","lat":43.290104,"lon":5.356111,"is_reserved":false,"is_disabled":false,"rental_uris":{"android":"levelo://app?vid=b2af88d1-3c89-436b-9814-ab299130f818","ios":"levelo://app?vid=b2af88d1-3c89-436b-9814-ab299130f818"},"vehicle_type_id":"4","last_reported":1682355969,"current_range_meters":23200,"station_id":"ce4bhb92rcd13ifvqen0","pricing_plan_id":"free"},