{"last_updated":1774017356,"ttl":60,"version":"2.2","data":{"bikes":[{"bike_id":"5ae6863c-1051-4a74-8be6-a3088e4a22eb","system_id":"levelo_inurba_marseille","lat":43.29439,"lon":5.39758,"is_reserved":false,"is_disabled":false,"rental_uris":{"android":"levelo://app?vid=5ae6863c-1051-4a74-8be6-a3088e4a22eb","ios":"levelo://app?vid=5ae6863c-1051-4a74-8be6-a3088e4a22eb"},"vehicle_type_id":"4","last_reported":1774017357,"current_range_meters":2800,"station_id":"ce4bh3h2rcd13ifvqdo0","pricing_plan_id":"cebpf4jnsgd1na2vs0mg"},{"bike_id":"b0741341-2417-49ec-b602-523a9ebb6768","system_id":"levelo_inurba_marseille","lat":43.23195,"lon":5.35552,"is_reserved":false,"is_disabled":false,"rental_uris":{"android":"levelo://app?vid=b0741341-2417-49ec-b602-523a9ebb6768","ios":"levelo://app?vid=b0741341-2417-49ec-b602-523a9ebb6768"},"vehicle_type_id":"4","last_reported":1774017357,"current_range_meters":2800,"station_id":"ce4bhu92rcd13ifvqi70","pricing_plan_id":"cebpf4jnsgd1na2vs0mg"},{"bike_id":"66b8f748-e7c4-4432-9fcf-311125247b9f","system_id":"levelo_inurba_marseille","lat":43.21742,"lon":5.34607,"is_reserved":false,"is_disabled":false,"rental_uris":{"android":"levelo://app?vid=66b8f748-e7c4-4432-9fcf-311125247b9f","ios":"levelo://app?vid=66b8f748-e7c4-4432-9fcf-311125247b9f"},"vehicle_type_id":"4","last_reported":1774017357,"current_range_meters":2800,"station_id":"st_cvj6r9ubvosntc0bgbag","pricing_plan_id":"cebpf4jnsgd1na2vs0mg"},{"bike_id":"1feb6f34-9d93-4f97-a3b3-dedd989afd92","system_id":"levelo_inurba_marseille","lat":43.26213,"lon":5.37439,"is_reserved":false,"is_disabled":false,"rental_uris":{"android":"levelo://app?vid=1feb6f34-9d93-4f97-a3b3-dedd989afd92","ios":"levelo://app?vid=1feb6f34-9d93-4f97-a3b3-dedd989afd92"},"vehicle_type_id":"4","last_reported":1774017357,"current_range_meters":2800,"station_id":"ce4bhgp2rcd13ifvqfc0","pricing_plan_id":"cebpf4jnsgd1na2vs0mg"},{"bike_id":"cf21a704-d1d6-45ac-b508-b7d48f023c9f","system_id":"levelo_inurba_marseille","lat":43.32117,"lon":5.36769,"is_reserved":false,"is_disabled":false,"rental_uris":{"android":"levelo://app?vid=cf21a704-d1d6-45ac-b508-b7d48f023c9f","ios":"levelo://app?vid=cf21a704-d1d6-45ac-b508-b7d48f023c9f"},"vehicle_type_id":"4","last_reported":1774017357,"current_range_meters":3200,"station_id":"ce4bhrh2rcd13ifvqhug","pricing_plan_id":"cebpf4jnsgd1na2vs0mg"},{"bike_id":"ebd72b68-f0e7-4cc4-b6d8-46ac1a2ac8be","system_id":"levelo_inurba_marseille","lat":43.288406,"lon":5.358653,"is_reserved":false,"is_disabled":false,"rental_uris":{"android":"levelo://app?vid=ebd72b68-f0e7-4cc4-b6d8-46ac1a2ac8be","ios":"levelo://app?vid=ebd72b68-f0e7-4cc4-b6d8-46ac1a2ac8be"},"vehicle_type_id":"4","last_reported":1774017357,"current_range_meters":3200,"station_id":"ce4bhb12rcd13ifvqem0","pricing_plan_id":"cebpf4jnsgd1na2vs0mg"},{"bike_id":"24dc1ce5-2db6-421b-869a-69d6f082b300","system_id":"levelo_inurba_marseille","lat":43.29807,"lon":5.36276,"is_reserved":false,"is_disabled":false,"rental_uris":{"android":"levelo://app?vid=24dc1ce5-2db6-421b-869a-69d6f082b300","ios":"levelo://app?vid=24dc1ce5-2db6-421b-869a-69d6f082b300"},"vehicle_type_id":"4","last_reported":1774017357,"current_range_meters":3200,"station_id":"ce4bgpp2rcd13ifvqc3g","pricing_plan_id":"cebpf4jnsgd1na2vs0mg"},{"bike_id":"8a854e0a-3b9f-471d-80f2-bfadb0595e6b","system_id":"levelo_inurba_marseille","lat":43.31363,"lon":5.38352,"is_reserved":false,"is_disabled":false,"rental_uris":{"android":"levelo://app?vid=8a854e0a-3b9f-471d-80f2-bfadb0595e6b","ios":"levelo://app?vid=8a854e0a-3b9f-471d-80f2-bfadb0595e6b"},"vehicle_type_id":"4","last_reported":1774017357,"current_range_meters":3200,"station_id":"","pricing_plan_id":"cebpf4jnsgd1na2vs0mg"},{"bike_id":"868e32ef-041c-4da6-9818-4d2e0ec63d82","system_id":"levelo_inurba_marseille","lat":43.30961,"lon":5.39067,"is_reserved":false,"is_disabled":false,"rental_uris":{"android":"levelo://app?vid=868e32ef-041c-4da6-9818-4d2e0ec63d82","ios":"levelo://app?vid=868e32ef-041c-4da6-9818-4d2e0ec63d82"},"vehicle_type_id":"4","last_reported":1774017357,"current_range_meters":3200,"station_id":"ce4bgup2rcd13ifvqco0","pricing_plan_id":"cebpf4jnsgd1na2vs0mg"},{"bike_id":"2f2df6f1-8c8d-4fd3-9b75-8435a11b33b6","system_id":"levelo_inurba_marseille","lat":43.28392,"lon":5.38907,"is_reserved":false,"is_disabled":false,"rental_uris":{"android":"levelo://app?vid=2f2df6f1-8c8d-4fd3-9b75-8435a11b33b6","ios":"levelo://app?vid=2f2df6f1-8c8d-4fd3-9b75-8435a11b33b6"},"vehicle_type_id":"4","last_reported":1774017357,"current_range_meters":3200,"station_id":"","pricing_plan_id":"cebpf4jnsgd1na2vs0mg"},{"bike_id":"9e998917-7be1-4dfa-84ec-ae9895c9cd2f","system_id":"levelo_inurba_marseille","lat":43.27368,"lon":5.36251,"is_reserved":false,"is_disabled":false,"rental_uris":{"android":"levelo://app?vid=9e998917-7be1-4dfa-84ec-ae9895c9cd2f","ios":"levelo://app?vid=9e998917-7be1-4dfa-84ec-ae9895c9cd2f"},"vehicle_type_id":"4","last_reported":1774017357,"current_range_meters":3200,"station_id":"ce4bhbh2rcd13ifvqeo0","pricing_plan_id":"cebpf4jnsgd1na2vs0mg"},{"bike_id":"a2858752-113b-4571-b0d9-f5de0d1f5974","system_id":"levelo_inurba_marseille","lat":43.24395,"lon":5.37076,"is_reserved":false,"is_disabled":false,"rental_uris":{"android":"levelo://app?vid=a2858752-113b-4571-b0d9-f5de0d1f5974","ios":"levelo://app?vid=a2858752-113b-4571-b0d9-f5de0d1f5974"},"vehicle_type_id":"4","last_reported":1774017357,"current_range_meters":3200,"station_id":"ce4bhhh2rcd13ifvqfk0","pricing_plan_id":"cebpf4jnsgd1na2vs0mg"},{"bike_id":"299e519b-3b2c-4aa3-9af1-362f343fe8f8","system_id":"levelo_inurba_marseille","lat":43.23767,"lon":5.36603,"is_reserved":false,"is_disabled":false,"rental_uris":{"android":"levelo://app?vid=299e519b-3b2c-4aa3-9af1-362f343fe8f8","ios":"levelo://app?vid=299e519b-3b2c-4aa3-9af1-362f343fe8f8"},"vehicle_type_id":"4","last_reported":1774017357,"current_range_meters":3200,"station_id":"st_d3nk18o9ro0c73en2l3g","pricing_plan_id":"cebpf4jnsgd1na2vs0mg"},{"bike_id":"3ad6b523-5794-48c7-ba48-285b603b9b08","system_id":"levelo_inurba_marseille","lat":43.28417,"lon":5.34992,"is_reserved":false,"is_disabled":false,"rental_uris":{"android":"levelo://app?vid=3ad6b523-5794-48c7-ba48-285b603b9b08","ios":"levelo://app?vid=3ad6b523-5794-48c7-ba48-285b603b9b08"},"vehicle_type_id":"4","last_reported":1774017357,"current_range_meters":3200,"station_id":"ce4bhbh2rcd13ifvqepg","pricing_plan_id":"cebpf4jnsgd1na2vs0mg"},{"bike_id":"ebdf3d42-2450-419f-8469-243e3cc126fd","system_id":"levelo_inurba_marseille","lat":43.23146,"lon":5.43685,"is_reserved":false,"is_disabled":false,"rental_uris":{"android":"levelo://app?vid=ebdf3d42-2450-419f-8469-243e3cc126fd","ios":"levelo://app?vid=ebdf3d42-2450-419f-8469-243e3cc126fd"},"vehicle_type_id":"4","last_reported":1774017357,"current_range_meters":3200,"station_id":"ce4bhmp2rcd13ifvqgog","pricing_plan_id":"cebpf4jnsgd1na2vs0mg"},{"bike_id":"13243d3c-36f1-423c-9b1a-5632aef121d8","system_id":"levelo_inurba_marseille","lat":43.337444,"lon":5.374475,"is_reserved":false,"is_disabled":false,"rental_uris":{"android":"levelo://app?vid=13243d3c-36f1-423c-9b1a-5632aef121d8","ios":"levelo://app?vid=13243d3c-36f1-423c-9b1a-5632aef121d8"},"vehicle_type_id":"4","last_reported":1774017357,"current_range_meters":3200,"station_id":"","pricing_plan_id":"cebpf4jnsgd1na2vs0mg"},{"bike_id":"4c6a4d6a-2427-4c2c-bc2d-a0973ca4e7b9","system_id":"levelo_inurba_marseille","lat":43.2799,"lon":5.41653,"is_reserved":false,"is_disabled":false,"rental_uris":{"android":"levelo://app?vid=4c6a4d6a-2427-4c2c-bc2d-a0973ca4e7b9","ios":"levelo://app?vid=4c6a4d6a-2427-4c2c-bc2d-a0973ca4e7b9"},"vehicle_type_id":"4","last_reported":1774017357,"current_range_meters":3200,"station_id":"ce4bho12rcd13ifvqh1g","pricing_plan_id":"cebpf4jnsgd1na2vs0mg"},{"bike_id":"0359e2a2-57b1-4a86-8584-167a77b4cf9f","system_id":"levelo_inurba_marseille","lat":43.29053,"lon":5.40072,"is_reserved":false,"is_disabled":false,"rental_uris":{"android":"levelo://app?vid=0359e2a2-57b1-4a86-8584-167a77b4cf9f","ios":"levelo://app?vid=0359e2a2-57b1-4a86-8584-167a77b4cf9f"},"vehicle_type_id":"4","last_reported":1774017357,"current_range_meters":3600,"station_id":"","pricing_plan_id":"cebpf4jnsgd1na2vs0mg"},{"bike_id":"54c8b55d-2b52-4e40-8ffe-f1d582a4ad8a","system_id":"levelo_inurba_marseille","lat":43.27173,"lon":5.40993,"is_reserved":false,"is_disabled":false,"rental_uris":{"android":"levelo://app?vid=54c8b55d-2b52-4e40-8ffe-f1d582a4ad8a","ios":"levelo://app?vid=54c8b55d-2b52-4e40-8ffe-f1d582a4ad8a"},"vehicle_type_id":"4","last_reported":1774017357,"current_range_meters":3600,"station_id":"ce4bhl12rcd13ifvqgf0","pricing_plan_id":"cebpf4jnsgd1na2vs0mg"},{"bike_id":"a20ce637-8468-4012-8c9b-f0983fc9eb53","system_id":"levelo_inurba_marseille","lat":43.25,"lon":5.38922,"is_reserved":false,"is_disabled":false,"rental_uris":{"android":"levelo://app?vid=a20ce637-8468-4012-8c9b-f0983fc9eb53","ios":"levelo://app?vid=a20ce637-8468-4012-8c9b-f0983fc9eb53"},"vehicle_type_id":"4","last_reported":1774017357,"current_range_meters":3600,"station_id":"ce4bhgp2rcd13ifvqfd0","pricing_plan_id":"cebpf4jnsgd1na2vs0mg"},{"bike_id":"a691c38d-8b4d-4432-8b93-b0f77de99cf3","system_id":"levelo_inurba_marseille","lat":43.29297,"lon":5.37449,"is_reserved":false,"is_disabled":false,"rental_uris":{"android":"levelo://app?vid=a691c38d-8b4d-4432-8b93-b0f77de99cf3","ios":"levelo://app?vid=a691c38d-8b4d-4432-8b93-b0f77de99cf3"},"vehicle_type_id":"4","last_reported":1774017357,"current_range_meters":3600,"station_id":"ce4bgi12rcd13ifvqb70","pricing_plan_id":"cebpf4jnsgd1na2vs0mg"},{"bike_id":"d2c159bf-4e4d-40b9-86d7-031645a1ca8f","system_id":"levelo_inurba_marseille","lat":43.30207,"lon":5.39466,"is_reserved":false,"is_disabled":false,"rental_uris":{"android":"levelo://app?vid=d2c159bf-4e4d-40b9-86d7-031645a1ca8f","ios":"levelo://app?vid=d2c159bf-4e4d-40b9-86d7-031645a1ca8f"},"vehicle_type_id":"4","last_reported":1774017357,"current_range_meters":3600,"station_id":"ce4bh0p2rcd13ifvqd70","pricing_plan_id":"cebpf4jnsgd1na2vs0mg"},{"bike_id":"2c89b5e3-e878-4a8c-8ae0-b254483562fb","system_id":"levelo_inurba_marseille","lat":43.29195,"lon":5.35806,"is_reserved":false,"is_disabled":false,"rental_uris":{"android":"levelo://app?vid=2c89b5e3-e878-4a8c-8ae0-b254483562fb","ios":"levelo://app?vid=2c89b5e3-e878-4a8c-8ae0-b254483562fb"},"vehicle_type_id":"4","last_reported":1774017357,"current_range_meters":3600,"station_id":"ce4bhb12rcd13ifvqel0","pricing_plan_id":"cebpf4jnsgd1na2vs0mg"},{"bike_id":"dd10efc5-28b9-436a-be78-8011941e89fc","system_id":"levelo_inurba_marseille","lat":43.28481,"lon":5.48395,"is_reserved":false,"is_disabled":false,"rental_uris":{"android":"levelo://app?vid=dd10efc5-28b9-436a-be78-8011941e89fc","ios":"levelo://app?vid=dd10efc5-28b9-436a-be78-8011941e89fc"},"vehicle_type_id":"4","last_reported":1774017357,"current_range_meters":3600,"station_id":"st_d3svhcjqgbts73a3dn0g","pricing_plan_id":"cebpf4jnsgd1na2vs0mg"},{"bike_id":"a7589a93-7e92-46e3-9adb-33c382fc7b2d","system_id":"levelo_inurba_marseille","lat":43.2396,"lon":5.36609,"is_reserved":false,"is_disabled":false,"rental_uris":{"android":"levelo://app?vid=a7589a93-7e92-46e3-9adb-33c382fc7b2d","ios":"levelo://app?vid=a7589a93-7e92-46e3-9adb-33c382fc7b2d"},"vehicle_type_id":"4","last_reported":1774017357,"current_range_meters":3600,"station_id":"ce4bhi12rcd13ifvqfp0","pricing_plan_id":"cebpf4jnsgd1na2vs0mg"},{"bike_id":"850200ab-1ba5-4459-b11b-b5a332624756","system_id":"levelo_inurba_marseille","lat":43.2929,"lon":5.37378,"is_reserved":false,"is_disabled":false,"rental_uris":{"android":"levelo://app?vid=850200ab-1ba5-4459-b11b-b5a332624756","ios":"levelo://app?vid=850200ab-1ba5-4459-b11b-b5a332624756"},"vehicle_type_id":"4","last_reported":1774017357,"current_range_meters":3600,"station_id":"ce4bgi12rcd13ifvqb70","pricing_plan_id":"cebpf4jnsgd1na2vs0mg"},{"bike_id":"3ed4bc13-b22d-44b4-aa6f-19f196c483da","system_id":"levelo_inurba_marseille","lat":43.24174,"lon":5.36399,"is_reserved":false,"is_disabled":false,"rental_uris":{"android":"levelo://app?vid=3ed4bc13-b22d-44b4-aa6f-19f196c483da","ios":"levelo://app?vid=3ed4bc13-b22d-44b4-aa6f-19f196c483da"},"vehicle_type_id":"4","last_reported":1774017357,"current_range_meters":3600,"station_id":"cpo36qri1sfpv3e86is0","pricing_plan_id":"cebpf4jnsgd1na2vs0mg"},{"bike_id":"0cbe5d65-8750-47dc-8602-e36aefc95967","system_id":"levelo_inurba_marseille","lat":43.24164,"lon":5.36401,"is_reserved":false,"is_disabled":false,"rental_uris":{"android":"levelo://app?vid=0cbe5d65-8750-47dc-8602-e36aefc95967","ios":"levelo://app?vid=0cbe5d65-8750-47dc-8602-e36aefc95967"},"vehicle_type_id":"4","last_reported":1774017357,"current_range_meters":3600,"station_id":"cpo36qri1sfpv3e86is0","pricing_plan_id":"cebpf4jnsgd1na2vs0mg"},{"bike_id":"5ab2600a-040b-4995-bfc6-9e44799ea303","system_id":"levelo_inurba_marseille","lat":43.30958,"lon":5.39031,"is_reserved":false,"is_disabled":false,"rental_uris":{"android":"levelo://app?vid=5ab2600a-040b-4995-bfc6-9e44799ea303","ios":"levelo://app?vid=5ab2600a-040b-4995-bfc6-9e44799ea303"},"vehicle_type_id":"4","last_reported":1774017357,"current_range_meters":3600,"station_id":"ce4bgup2rcd13ifvqco0","pricing_plan_id":"cebpf4jnsgd1na2vs0mg"},{"bike_id":"ec327ac2-9680-48a1-8584-22f43bc41c50","system_id":"levelo_inurba_marseille","lat":43.29283,"lon":5.37621,"is_reserved":false,"is_disabled":true,"rental_uris":{"android":"levelo://app?vid=ec327ac2-9680-48a1-8584-22f43bc41c50","ios":"levelo://app?vid=ec327ac2-9680-48a1-8584-22f43bc41c50"},"vehicle_type_id":"4","last_reported":1774017357,"current_range_meters":3600,"station_id":"ce4bgi12rcd13ifvqb80","pricing_plan_id":"cebpf4jnsgd1na2vs0mg"},{"bike_id":"90a69217-838c-4068-b7fe-3cca14eb91b4","system_id":"levelo_inurba_marseille","lat":43.24798,"lon":5.37453,"is_reserved":false,"is_disabled":false,"rental_uris":{"android":"levelo://app?vid=90a69217-838c-4068-b7fe-3cca14eb91b4","ios":"levelo://app?vid=90a69217-838c-4068-b7fe-3cca14eb91b4"},"vehicle_type_id":"4","last_reported":1774017357,"current_range_meters":3600,"station_id":"ce4bhgh2rcd13ifvqfb0","pricing_plan_id":"cebpf4jnsgd1na2vs0mg"},{"bike_id":"3f9fb310-6fac-4137-b487-279ff0e33710","system_id":"levelo_inurba_marseille","lat":43.26028,"lon":5.3754,"is_reserved":false,"is_disabled":false,"rental_uris":{"android":"levelo://app?vid=3f9fb310-6fac-4137-b487-279ff0e33710","ios":"levelo://app?vid=3f9fb310-6fac-4137-b487-279ff0e33710"},"vehicle_type_id":"4","last_reported":1774017357,"current_range_meters":4000,"station_id":"ce4bhgh2rcd13ifvqfa0","pricing_plan_id":"cebpf4jnsgd1na2vs0mg"},{"bike_id":"ae3653ee-4b50-4f8a-971b-1802190756aa","system_id":"levelo_inurba_marseille","lat":43.284,"lon":5.34981,"is_reserved":false,"is_disabled":false,"rental_uris":{"android":"levelo://app?vid=ae3653ee-4b50-4f8a-971b-1802190756aa","ios":"levelo://app?vid=ae3653ee-4b50-4f8a-971b-1802190756aa"},"vehicle_type_id":"4","last_reported":1774017357,"current_range_meters":4000,"station_id":"ce4bhbh2rcd13ifvqepg","pricing_plan_id":"cebpf4jnsgd1na2vs0mg"},{"bike_id":"24e02049-7d35-48ad-9eee-757709960f87","system_id":"levelo_inurba_marseille","lat":43.26036,"lon":5.37536,"is_reserved":false,"is_disabled":false,"rental_uris":{"android":"levelo://app?vid=24e02049-7d35-48ad-9eee-757709960f87","ios":"levelo://app?vid=24e02049-7d35-48ad-9eee-757709960f87"},"vehicle_type_id":"4","last_reported":1774017357,"current_range_meters":4000,"station_id":"ce4bhgh2rcd13ifvqfa0","pricing_plan_id":"cebpf4jnsgd1na2vs0mg"},{"bike_id":"a2cfb655-b16d-4eca-9168-160be8d2b3a0","system_id":"levelo_inurba_marseille","lat":43.28418,"lon":5.34992,"is_reserved":false,"is_disabled":false,"rental_uris":{"android":"levelo://app?vid=a2cfb655-b16d-4eca-9168-160be8d2b3a0","ios":"levelo://app?vid=a2cfb655-b16d-4eca-9168-160be8d2b3a0"},"vehicle_type_id":"4","last_reported":1774017357,"current_range_meters":4000,"station_id":"ce4bhbh2rcd13ifvqepg","pricing_plan_id":"cebpf4jnsgd1na2vs0mg"},{"bike_id":"cbc8599d-0f53-4276-b29f-85b323d36cb9","system_id":"levelo_inurba_marseille","lat":43.25495,"lon":5.37647,"is_reserved":false,"is_disabled":false,"rental_uris":{"android":"levelo://app?vid=cbc8599d-0f53-4276-b29f-85b323d36cb9","ios":"levelo://app?vid=cbc8599d-0f53-4276-b29f-85b323d36cb9"},"vehicle_type_id":"4","last_reported":1774017357,"current_range_meters":4000,"station_id":"ce4bhh12rcd13ifvqff0","pricing_plan_id":"cebpf4jnsgd1na2vs0mg"},{"bike_id":"d5f7f0bf-c4f5-45e1-bf7d-f4959ca7505e","system_id":"levelo_inurba_marseille","lat":43.24393,"lon":5.37066,"is_reserved":false,"is_disabled":false,"rental_uris":{"android":"levelo://app?vid=d5f7f0bf-c4f5-45e1-bf7d-f4959ca7505e","ios":"levelo://app?vid=d5f7f0bf-c4f5-45e1-bf7d-f4959ca7505e"},"vehicle_type_id":"4","last_reported":1774017357,"current_range_meters":4000,"station_id":"ce4bhhh2rcd13ifvqfk0","pricing_plan_id":"cebpf4jnsgd1na2vs0mg"},{"bike_id":"d870c031-9d59-454d-95d3-c308a0ee650a","system_id":"levelo_inurba_marseille","lat":43.28409,"lon":5.34988,"is_reserved":false,"is_disabled":false,"rental_uris":{"android":"levelo://app?vid=d870c031-9d59-454d-95d3-c308a0ee650a","ios":"levelo://app?vid=d870c031-9d59-454d-95d3-c308a0ee650a"},"vehicle_type_id":"4","last_reported":1774017357,"current_range_meters":4000,"station_id":"ce4bhbh2rcd13ifvqepg","pricing_plan_id":"cebpf4jnsgd1na2vs0mg"},{"bike_id":"3174c810-8dab-4aca-86b3-462a3e49b6f5","system_id":"levelo_inurba_marseille","lat":43.24079,"lon":5.3775,"is_reserved":false,"is_disabled":false,"rental_uris":{"android":"levelo://app?vid=3174c810-8dab-4aca-86b3-462a3e49b6f5","ios":"levelo://app?vid=3174c810-8dab-4aca-86b3-462a3e49b6f5"},"vehicle_type_id":"4","last_reported":1774017357,"current_range_meters":4000,"station_id":"ce4bhnp2rcd13ifvqgvg","pricing_plan_id":"cebpf4jnsgd1na2vs0mg"},{"bike_id":"db548758-2da6-453e-9119-c071f08b6416","system_id":"levelo_inurba_marseille","lat":43.2929,"lon":5.37455,"is_reserved":false,"is_disabled":false,"rental_uris":{"android":"levelo://app?vid=db548758-2da6-453e-9119-c071f08b6416","ios":"levelo://app?vid=db548758-2da6-453e-9119-c071f08b6416"},"vehicle_type_id":"4","last_reported":1774017357,"current_range_meters":4000,"station_id":"ce4bgi12rcd13ifvqb70","pricing_plan_id":"cebpf4jnsgd1na2vs0mg"},{"bike_id":"06ce4f90-d2c1-4cdf-8e92-af4e6c83cb49","system_id":"levelo_inurba_marseille","lat":43.2902,"lon":5.35619,"is_reserved":false,"is_disabled":true,"rental_uris":{"android":"levelo://app?vid=06ce4f90-d2c1-4cdf-8e92-af4e6c83cb49","ios":"levelo://app?vid=06ce4f90-d2c1-4cdf-8e92-af4e6c83cb49"},"vehicle_type_id":"4","last_reported":1774017357,"current_range_meters":4000,"station_id":"ce4bhb92rcd13ifvqen0","pricing_plan_id":"cebpf4jnsgd1na2vs0mg"},{"bike_id":"f5fa439e-11aa-4f8c-b2ed-eb0b456ee1b5","system_id":"levelo_inurba_marseille","lat":43.30912,"lon":5.36857,"is_reserved":false,"is_disabled":false,"rental_uris":{"android":"levelo://app?vid=f5fa439e-11aa-4f8c-b2ed-eb0b456ee1b5","ios":"levelo://app?vid=f5fa439e-11aa-4f8c-b2ed-eb0b456ee1b5"},"vehicle_type_id":"4","last_reported":1774017357,"current_range_meters":4000,"station_id":"ce4bgn92rcd13ifvqbvg","pricing_plan_id":"cebpf4jnsgd1na2vs0mg"},{"bike_id":"1e79f2ff-4081-45ff-b647-90b12c596965","system_id":"levelo_inurba_marseille","lat":43.30742,"lon":5.42445,"is_reserved":false,"is_disabled":false,"rental_uris":{"android":"levelo://app?vid=1e79f2ff-4081-45ff-b647-90b12c596965","ios":"levelo://app?vid=1e79f2ff-4081-45ff-b647-90b12c596965"},"vehicle_type_id":"4","last_reported":1774017357,"current_range_meters":4000,"station_id":"st_cvj6ca6bvosntc0bfgr0","pricing_plan_id":"cebpf4jnsgd1na2vs0mg"},{"bike_id":"bebae7b0-c2c6-4b1d-8855-8b06d4443a00","system_id":"levelo_inurba_marseille","lat":43.28475,"lon":5.48393,"is_reserved":false,"is_disabled":false,"rental_uris":{"android":"levelo://app?vid=bebae7b0-c2c6-4b1d-8855-8b06d4443a00","ios":"levelo://app?vid=bebae7b0-c2c6-4b1d-8855-8b06d4443a00"},"vehicle_type_id":"4","last_reported":1774017357,"current_range_meters":4000,"station_id":"st_d3svhcjqgbts73a3dn0g","pricing_plan_id":"cebpf4jnsgd1na2vs0mg"},{"bike_id":"15750178-4f9b-426f-bafa-493e04eb7e36","system_id":"levelo_inurba_marseille","lat":43.30823,"lon":5.40663,"is_reserved":false,"is_disabled":false,"rental_uris":{"android":"levelo://app?vid=15750178-4f9b-426f-bafa-493e04eb7e36","ios":"levelo://app?vid=15750178-4f9b-426f-bafa-493e04eb7e36"},"vehicle_type_id":"4","last_reported":1774017357,"current_range_meters":4000,"station_id":"","pricing_plan_id":"cebpf4jnsgd1na2vs0mg"},{"bike_id":"4ad826a4-cb3a-4033-adb8-3bd28a14340d","system_id":"levelo_inurba_marseille","lat":43.28935,"lon":5.39628,"is_reserved":false,"is_disabled":false,"rental_uris":{"android":"levelo://app?vid=4ad826a4-cb3a-4033-adb8-3bd28a14340d","ios":"levelo://app?vid=4ad826a4-cb3a-4033-adb8-3bd28a14340d"},"vehicle_type_id":"4","last_reported":1774017357,"current_range_meters":4000,"station_id":"ce4bh3h2rcd13ifvqdn0","pricing_plan_id":"cebpf4jnsgd1na2vs0mg"},{"bike_id":"16cb908c-a612-40ca-a199-554ed3743551","system_id":"levelo_inurba_marseille","lat":43.27566,"lon":5.38436,"is_reserved":false,"is_disabled":false,"rental_uris":{"android":"levelo://app?vid=16cb908c-a612-40ca-a199-554ed3743551","ios":"levelo://app?vid=16cb908c-a612-40ca-a199-554ed3743551"},"vehicle_type_id":"4","last_reported":1774017357,"current_range_meters":4000,"station_id":"ce4bhh92rcd13ifvqfi0","pricing_plan_id":"cebpf4jnsgd1na2vs0mg"},{"bike_id":"66be2595-d8a5-40d3-b0b9-334f8fbba844","system_id":"levelo_inurba_marseille","lat":43.24645,"lon":5.43154,"is_reserved":false,"is_disabled":false,"rental_uris":{"android":"levelo://app?vid=66be2595-d8a5-40d3-b0b9-334f8fbba844","ios":"levelo://app?vid=66be2595-d8a5-40d3-b0b9-334f8fbba844"},"vehicle_type_id":"4","last_reported":1774017357,"current_range_meters":4400,"station_id":"","pricing_plan_id":"cebpf4jnsgd1na2vs0mg"},{"bike_id":"27cfd7f2-48c6-4fe4-9d82-e5b76120df75","system_id":"levelo_inurba_marseille","lat":43.29814,"lon":5.4406,"is_reserved":false,"is_disabled":false,"rental_uris":{"android":"levelo://app?vid=27cfd7f2-48c6-4fe4-9d82-e5b76120df75","ios":"levelo://app?vid=27cfd7f2-48c6-4fe4-9d82-e5b76120df75"},"vehicle_type_id":"4","last_reported":1774017357,"current_range_meters":4400,"station_id":"st_d3jp68qikq2c7381ktn0","pricing_plan_id":"cebpf4jnsgd1na2vs0mg"},{"bike_id":"94b09a65-e849-44a7-8e1e-e41267c77ed6","system_id":"levelo_inurba_marseille","lat":43.34481,"lon":5.35942,"is_reserved":false,"is_disabled":false,"rental_uris":{"android":"levelo://app?vid=94b09a65-e849-44a7-8e1e-e41267c77ed6","ios":"levelo://app?vid=94b09a65-e849-44a7-8e1e-e41267c77ed6"},"vehicle_type_id":"4","last_reported":1774017357,"current_range_meters":4400,"station_id":"","pricing_plan_id":"cebpf4jnsgd1na2vs0mg"},{"bike_id":"347a0133-45d3-4213-ae48-606f4453bbf3","system_id":"levelo_inurba_marseille","lat":43.23057,"lon":5.35489,"is_reserved":false,"is_disabled":false,"rental_uris":{"android":"levelo://app?vid=347a0133-45d3-4213-ae48-606f4453bbf3","ios":"levelo://app?vid=347a0133-45d3-4213-ae48-606f4453bbf3"},"vehicle_type_id":"4","last_reported":1774017357,"current_range_meters":4400,"station_id":"cpo3342slgdg3j2ifvpg","pricing_plan_id":"cebpf4jnsgd1na2vs0mg"},{"bike_id":"88f62a4c-1dd5-4d07-a59a-902271acdb70","system_id":"levelo_inurba_marseille","lat":43.28146,"lon":5.42653,"is_reserved":false,"is_disabled":false,"rental_uris":{"android":"levelo://app?vid=88f62a4c-1dd5-4d07-a59a-902271acdb70","ios":"levelo://app?vid=88f62a4c-1dd5-4d07-a59a-902271acdb70"},"vehicle_type_id":"4","last_reported":1774017357,"current_range_meters":4400,"station_id":"ce4bhnh2rcd13ifvqgug","pricing_plan_id":"cebpf4jnsgd1na2vs0mg"},{"bike_id":"0c6eb4c8-7044-42e6-83df-5772888b276f","system_id":"levelo_inurba_marseille","lat":43.28083,"lon":5.39664,"is_reserved":false,"is_disabled":false,"rental_uris":{"android":"levelo://app?vid=0c6eb4c8-7044-42e6-83df-5772888b276f","ios":"levelo://app?vid=0c6eb4c8-7044-42e6-83df-5772888b276f"},"vehicle_type_id":"4","last_reported":1774017357,"current_range_meters":4400,"station_id":"ce4bho12rcd13ifvqh2g","pricing_plan_id":"cebpf4jnsgd1na2vs0mg"},{"bike_id":"5e345259-5585-4ccf-87d8-422a81862b7a","system_id":"levelo_inurba_marseille","lat":43.28228,"lon":5.3907,"is_reserved":false,"is_disabled":false,"rental_uris":{"android":"levelo://app?vid=5e345259-5585-4ccf-87d8-422a81862b7a","ios":"levelo://app?vid=5e345259-5585-4ccf-87d8-422a81862b7a"},"vehicle_type_id":"4","last_reported":1774017357,"current_range_meters":4400,"station_id":"ce4bhn92rcd13ifvqgsg","pricing_plan_id":"cebpf4jnsgd1na2vs0mg"},{"bike_id":"6ae814ae-c49a-4bd8-b440-d66c1369f1c6","system_id":"levelo_inurba_marseille","lat":43.298035,"lon":5.381036,"is_reserved":false,"is_disabled":false,"rental_uris":{"android":"levelo://app?vid=6ae814ae-c49a-4bd8-b440-d66c1369f1c6","ios":"levelo://app?vid=6ae814ae-c49a-4bd8-b440-d66c1369f1c6"},"vehicle_type_id":"4","last_reported":1774017357,"current_range_meters":4400,"station_id":"ce4bgip2rcd13ifvqbb0","pricing_plan_id":"cebpf4jnsgd1na2vs0mg"},{"bike_id":"9fbfdc7a-8398-40b5-b97f-ba1104c7c96f","system_id":"levelo_inurba_marseille","lat":43.23191,"lon":5.3556,"is_reserved":false,"is_disabled":false,"rental_uris":{"android":"levelo://app?vid=9fbfdc7a-8398-40b5-b97f-ba1104c7c96f","ios":"levelo://app?vid=9fbfdc7a-8398-40b5-b97f-ba1104c7c96f"},"vehicle_type_id":"4","last_reported":1774017357,"current_range_meters":4400,"station_id":"ce4bhu92rcd13ifvqi70","pricing_plan_id":"cebpf4jnsgd1na2vs0mg"},{"bike_id":"5236fe4d-e250-44b5-8013-3f83419cddd7","system_id":"levelo_inurba_marseille","lat":43.31548,"lon":5.38001,"is_reserved":false,"is_disabled":false,"rental_uris":{"android":"levelo://app?vid=5236fe4d-e250-44b5-8013-3f83419cddd7","ios":"levelo://app?vid=5236fe4d-e250-44b5-8013-3f83419cddd7"},"vehicle_type_id":"4","last_reported":1774017357,"current_range_meters":4400,"station_id":"ce4bhsp2rcd13ifvqi50","pricing_plan_id":"cebpf4jnsgd1na2vs0mg"},{"bike_id":"0e654315-d6a5-4499-8029-ae7d8c8cbca3","system_id":"levelo_inurba_marseille","lat":43.27373,"lon":5.36239,"is_reserved":false,"is_disabled":false,"rental_uris":{"android":"levelo://app?vid=0e654315-d6a5-4499-8029-ae7d8c8cbca3","ios":"levelo://app?vid=0e654315-d6a5-4499-8029-ae7d8c8cbca3"},"vehicle_type_id":"4","last_reported":1774017357,"current_range_meters":4400,"station_id":"ce4bhbh2rcd13ifvqeo0","pricing_plan_id":"cebpf4jnsgd1na2vs0mg"},{"bike_id":"ee118268-61d9-4515-af25-35c4303f4a29","system_id":"levelo_inurba_marseille","lat":43.23898,"lon":5.37443,"is_reserved":false,"is_disabled":false,"rental_uris":{"android":"levelo://app?vid=ee118268-61d9-4515-af25-35c4303f4a29","ios":"levelo://app?vid=ee118268-61d9-4515-af25-35c4303f4a29"},"vehicle_type_id":"4","last_reported":1774017357,"current_range_meters":4400,"station_id":"st_d6sm7csbq4hs73f8fpjg","pricing_plan_id":"cebpf4jnsgd1na2vs0mg"},{"bike_id":"6443900c-da0c-4905-bee6-0bb1b84d34d9","system_id":"levelo_inurba_marseille","lat":43.24533,"lon":5.39527,"is_reserved":false,"is_disabled":false,"rental_uris":{"android":"levelo://app?vid=6443900c-da0c-4905-bee6-0bb1b84d34d9","ios":"levelo://app?vid=6443900c-da0c-4905-bee6-0bb1b84d34d9"},"vehicle_type_id":"4","last_reported":1774017357,"current_range_meters":4400,"station_id":"ce4bhlp2rcd13ifvqgjg","pricing_plan_id":"cebpf4jnsgd1na2vs0mg"},{"bike_id":"addd9e53-bfde-4c2f-8c89-4a891b6a7add","system_id":"levelo_inurba_marseille","lat":43.31342,"lon":5.3792,"is_reserved":false,"is_disabled":false,"rental_uris":{"android":"levelo://app?vid=addd9e53-bfde-4c2f-8c89-4a891b6a7add","ios":"levelo://app?vid=addd9e53-bfde-4c2f-8c89-4a891b6a7add"},"vehicle_type_id":"4","last_reported":1774017357,"current_range_meters":4800,"station_id":"","pricing_plan_id":"cebpf4jnsgd1na2vs0mg"},{"bike_id":"52f6a6b9-7af9-4956-b458-baf5061e66bf","system_id":"levelo_inurba_marseille","lat":43.23335,"lon":5.44471,"is_reserved":false,"is_disabled":false,"rental_uris":{"android":"levelo://app?vid=52f6a6b9-7af9-4956-b458-baf5061e66bf","ios":"levelo://app?vid=52f6a6b9-7af9-4956-b458-baf5061e66bf"},"vehicle_type_id":"4","last_reported":1774017357,"current_range_meters":4800,"station_id":"","pricing_plan_id":"cebpf4jnsgd1na2vs0mg"},{"bike_id":"487e42e0-4448-4acd-a8cf-7a61aa440414","system_id":"levelo_inurba_marseille","lat":43.23782,"lon":5.3663,"is_reserved":false,"is_disabled":false,"rental_uris":{"android":"levelo://app?vid=487e42e0-4448-4acd-a8cf-7a61aa440414","ios":"levelo://app?vid=487e42e0-4448-4acd-a8cf-7a61aa440414"},"vehicle_type_id":"4","last_reported":1774017357,"current_range_meters":4800,"station_id":"st_d3nk18o9ro0c73en2l3g","pricing_plan_id":"cebpf4jnsgd1na2vs0mg"},{"bike_id":"cccfdac7-7f97-4127-9b31-7c370a1abbad","system_id":"levelo_inurba_marseille","lat":43.28634,"lon":5.37144,"is_reserved":false,"is_disabled":false,"rental_uris":{"android":"levelo://app?vid=cccfdac7-7f97-4127-9b31-7c370a1abbad","ios":"levelo://app?vid=cccfdac7-7f97-4127-9b31-7c370a1abbad"},"vehicle_type_id":"4","last_reported":1774017357,"current_range_meters":4800,"station_id":"","pricing_plan_id":"cebpf4jnsgd1na2vs0mg"},{"bike_id":"6e50a54a-c657-4ef5-9339-4c225154dc0d","system_id":"levelo_inurba_marseille","lat":43.27927,"lon":5.42225,"is_reserved":false,"is_disabled":false,"rental_uris":{"android":"levelo://app?vid=6e50a54a-c657-4ef5-9339-4c225154dc0d","ios":"levelo://app?vid=6e50a54a-c657-4ef5-9339-4c225154dc0d"},"vehicle_type_id":"4","last_reported":1774017357,"current_range_meters":4800,"station_id":"","pricing_plan_id":"cebpf4jnsgd1na2vs0mg"},{"bike_id":"5cc8e3ed-b06f-4543-8afd-114d51b9bc0e","system_id":"levelo_inurba_marseille","lat":43.28408,"lon":5.34983,"is_reserved":false,"is_disabled":false,"rental_uris":{"android":"levelo://app?vid=5cc8e3ed-b06f-4543-8afd-114d51b9bc0e","ios":"levelo://app?vid=5cc8e3ed-b06f-4543-8afd-114d51b9bc0e"},"vehicle_type_id":"4","last_reported":1774017357,"current_range_meters":4800,"station_id":"ce4bhbh2rcd13ifvqepg","pricing_plan_id":"cebpf4jnsgd1na2vs0mg"},{"bike_id":"744826ba-753a-4ecc-8e5c-e31c07526efd","system_id":"levelo_inurba_marseille","lat":43.27981,"lon":5.41659,"is_reserved":false,"is_disabled":false,"rental_uris":{"android":"levelo://app?vid=744826ba-753a-4ecc-8e5c-e31c07526efd","ios":"levelo://app?vid=744826ba-753a-4ecc-8e5c-e31c07526efd"},"vehicle_type_id":"4","last_reported":1774017357,"current_range_meters":4800,"station_id":"ce4bho12rcd13ifvqh1g","pricing_plan_id":"cebpf4jnsgd1na2vs0mg"},{"bike_id":"b3c6ee7e-839e-47ca-8bd1-12618e78dd87","system_id":"levelo_inurba_marseille","lat":43.23963,"lon":5.36607,"is_reserved":false,"is_disabled":false,"rental_uris":{"android":"levelo://app?vid=b3c6ee7e-839e-47ca-8bd1-12618e78dd87","ios":"levelo://app?vid=b3c6ee7e-839e-47ca-8bd1-12618e78dd87"},"vehicle_type_id":"4","last_reported":1774017357,"current_range_meters":4800,"station_id":"ce4bhi12rcd13ifvqfp0","pricing_plan_id":"cebpf4jnsgd1na2vs0mg"},{"bike_id":"f627f0e1-0059-446c-8293-509785084896","system_id":"levelo_inurba_marseille","lat":43.260877,"lon":5.399773,"is_reserved":false,"is_disabled":false,"rental_uris":{"android":"levelo://app?vid=f627f0e1-0059-446c-8293-509785084896","ios":"levelo://app?vid=f627f0e1-0059-446c-8293-509785084896"},"vehicle_type_id":"4","last_reported":1774017357,"current_range_meters":4800,"station_id":"ce4bhmh2rcd13ifvqgmg","pricing_plan_id":"cebpf4jnsgd1na2vs0mg"},{"bike_id":"f5eea55f-72d0-4f68-9b5a-0048db1e192e","system_id":"levelo_inurba_marseille","lat":43.29923,"lon":5.36537,"is_reserved":false,"is_disabled":false,"rental_uris":{"android":"levelo://app?vid=f5eea55f-72d0-4f68-9b5a-0048db1e192e","ios":"levelo://app?vid=f5eea55f-72d0-4f68-9b5a-0048db1e192e"},"vehicle_type_id":"4","last_reported":1774017357,"current_range_meters":5600,"station_id":"ce4bgm92rcd13ifvqbr0","pricing_plan_id":"cebpf4jnsgd1na2vs0mg"},{"bike_id":"dce76f09-b9bf-42a3-83fc-064be3f50558","system_id":"levelo_inurba_marseille","lat":43.29619,"lon":5.40596,"is_reserved":false,"is_disabled":false,"rental_uris":{"android":"levelo://app?vid=dce76f09-b9bf-42a3-83fc-064be3f50558","ios":"levelo://app?vid=dce76f09-b9bf-42a3-83fc-064be3f50558"},"vehicle_type_id":"4","last_reported":1774017357,"current_range_meters":5600,"station_id":"ce4bh0h2rcd13ifvqd60","pricing_plan_id":"cebpf4jnsgd1na2vs0mg"},{"bike_id":"d4776486-3084-421f-968a-3d6e49dfba03","system_id":"levelo_inurba_marseille","lat":43.28534,"lon":5.44097,"is_reserved":false,"is_disabled":false,"rental_uris":{"android":"levelo://app?vid=d4776486-3084-421f-968a-3d6e49dfba03","ios":"levelo://app?vid=d4776486-3084-421f-968a-3d6e49dfba03"},"vehicle_type_id":"4","last_reported":1774017357,"current_range_meters":5600,"station_id":"st_d3j3df2ikq2c7380ej80","pricing_plan_id":"cebpf4jnsgd1na2vs0mg"},{"bike_id":"055ed470-658f-4b17-a42c-bac72fee1fc1","system_id":"levelo_inurba_marseille","lat":43.23895,"lon":5.37462,"is_reserved":false,"is_disabled":false,"rental_uris":{"android":"levelo://app?vid=055ed470-658f-4b17-a42c-bac72fee1fc1","ios":"levelo://app?vid=055ed470-658f-4b17-a42c-bac72fee1fc1"},"vehicle_type_id":"4","last_reported":1774017357,"current_range_meters":5600,"station_id":"st_d6sm7csbq4hs73f8fpjg","pricing_plan_id":"cebpf4jnsgd1na2vs0mg"},{"bike_id":"fd1b91d2-ec38-49fe-aace-bba1c6e6afbb","system_id":"levelo_inurba_marseille","lat":43.30415,"lon":5.41281,"is_reserved":false,"is_disabled":false,"rental_uris":{"android":"levelo://app?vid=fd1b91d2-ec38-49fe-aace-bba1c6e6afbb","ios":"levelo://app?vid=fd1b91d2-ec38-49fe-aace-bba1c6e6afbb"},"vehicle_type_id":"4","last_reported":1774017357,"current_range_meters":5600,"station_id":"ce4bhop2rcd13ifvqh8g","pricing_plan_id":"cebpf4jnsgd1na2vs0mg"},{"bike_id":"166e62b4-89c7-42df-8d26-562e5b8d1f69","system_id":"levelo_inurba_marseille","lat":43.27327,"lon":5.3909,"is_reserved":false,"is_disabled":true,"rental_uris":{"android":"levelo://app?vid=166e62b4-89c7-42df-8d26-562e5b8d1f69","ios":"levelo://app?vid=166e62b4-89c7-42df-8d26-562e5b8d1f69"},"vehicle_type_id":"4","last_reported":1774017357,"current_range_meters":5600,"station_id":"ce4bhgp2rcd13ifvqfe0","pricing_plan_id":"cebpf4jnsgd1na2vs0mg"},{"bike_id":"1fc87fed-6040-40bc-99c6-6f694d257aa1","system_id":"levelo_inurba_marseille","lat":43.30932,"lon":5.40857,"is_reserved":false,"is_disabled":false,"rental_uris":{"android":"levelo://app?vid=1fc87fed-6040-40bc-99c6-6f694d257aa1","ios":"levelo://app?vid=1fc87fed-6040-40bc-99c6-6f694d257aa1"},"vehicle_type_id":"4","last_reported":1774017357,"current_range_meters":5600,"station_id":"","pricing_plan_id":"cebpf4jnsgd1na2vs0mg"},{"bike_id":"3bcd3f37-7909-4e8a-be03-a9562a2c0e45","system_id":"levelo_inurba_marseille","lat":43.28468,"lon":5.48388,"is_reserved":false,"is_disabled":false,"rental_uris":{"android":"levelo://app?vid=3bcd3f37-7909-4e8a-be03-a9562a2c0e45","ios":"levelo://app?vid=3bcd3f37-7909-4e8a-be03-a9562a2c0e45"},"vehicle_type_id":"4","last_reported":1774017357,"current_range_meters":6000,"station_id":"","pricing_plan_id":"cebpf4jnsgd1na2vs0mg"},{"bike_id":"b85bed3a-1c4a-45f8-8d83-5fd82343f719","system_id":"levelo_inurba_marseille","lat":43.29043,"lon":5.3715,"is_reserved":false,"is_disabled":false,"rental_uris":{"android":"levelo://app?vid=b85bed3a-1c4a-45f8-8d83-5fd82343f719","ios":"levelo://app?vid=b85bed3a-1c4a-45f8-8d83-5fd82343f719"},"vehicle_type_id":"4","last_reported":1774017357,"current_range_meters":6000,"station_id":"ce4bh5p2rcd13ifvqe4g","pricing_plan_id":"cebpf4jnsgd1na2vs0mg"},{"bike_id":"856fe66d-4acf-4111-b537-8a0bb0fdb356","system_id":"levelo_inurba_marseille","lat":43.29909,"lon":5.38459,"is_reserved":false,"is_disabled":false,"rental_uris":{"android":"levelo://app?vid=856fe66d-4acf-4111-b537-8a0bb0fdb356","ios":"levelo://app?vid=856fe66d-4acf-4111-b537-8a0bb0fdb356"},"vehicle_type_id":"4","last_reported":1774017357,"current_range_meters":6000,"station_id":"","pricing_plan_id":"cebpf4jnsgd1na2vs0mg"},{"bike_id":"e4f2f0b0-a87c-4dc2-80b7-a9fb5703d035","system_id":"levelo_inurba_marseille","lat":43.33714,"lon":5.39194,"is_reserved":false,"is_disabled":false,"rental_uris":{"android":"levelo://app?vid=e4f2f0b0-a87c-4dc2-80b7-a9fb5703d035","ios":"levelo://app?vid=e4f2f0b0-a87c-4dc2-80b7-a9fb5703d035"},"vehicle_type_id":"4","last_reported":1774017357,"current_range_meters":6000,"station_id":"ce4bhr92rcd13ifvqhsg","pricing_plan_id":"cebpf4jnsgd1na2vs0mg"},{"bike_id":"b343f5f8-c1bb-4ce3-a7a6-a6599510fd8f","system_id":"levelo_inurba_marseille","lat":43.2842,"lon":5.34988,"is_reserved":false,"is_disabled":false,"rental_uris":{"android":"levelo://app?vid=b343f5f8-c1bb-4ce3-a7a6-a6599510fd8f","ios":"levelo://app?vid=b343f5f8-c1bb-4ce3-a7a6-a6599510fd8f"},"vehicle_type_id":"4","last_reported":1774017357,"current_range_meters":6000,"station_id":"ce4bhbh2rcd13ifvqepg","pricing_plan_id":"cebpf4jnsgd1na2vs0mg"},{"bike_id":"578aea03-5374-481f-9c14-64d1b35854b1","system_id":"levelo_inurba_marseille","lat":43.30129,"lon":5.37412,"is_reserved":false,"is_disabled":false,"rental_uris":{"android":"levelo://app?vid=578aea03-5374-481f-9c14-64d1b35854b1","ios":"levelo://app?vid=578aea03-5374-481f-9c14-64d1b35854b1"},"vehicle_type_id":"4","last_reported":1774017357,"current_range_meters":6000,"station_id":"ce4bgs92rcd13ifvqcc0","pricing_plan_id":"cebpf4jnsgd1na2vs0mg"},{"bike_id":"10ced8a1-0004-454c-a343-b116c3880ed6","system_id":"levelo_inurba_marseille","lat":43.32124,"lon":5.36748,"is_reserved":false,"is_disabled":false,"rental_uris":{"android":"levelo://app?vid=10ced8a1-0004-454c-a343-b116c3880ed6","ios":"levelo://app?vid=10ced8a1-0004-454c-a343-b116c3880ed6"},"vehicle_type_id":"4","last_reported":1774017357,"current_range_meters":6000,"station_id":"ce4bhrh2rcd13ifvqhug","pricing_plan_id":"cebpf4jnsgd1na2vs0mg"},{"bike_id":"a3fa2b9c-4ac9-4a2c-a843-7fba654e52db","system_id":"levelo_inurba_marseille","lat":43.28152,"lon":5.42631,"is_reserved":false,"is_disabled":false,"rental_uris":{"android":"levelo://app?vid=a3fa2b9c-4ac9-4a2c-a843-7fba654e52db","ios":"levelo://app?vid=a3fa2b9c-4ac9-4a2c-a843-7fba654e52db"},"vehicle_type_id":"4","last_reported":1774017357,"current_range_meters":6000,"station_id":"ce4bhnh2rcd13ifvqgug","pricing_plan_id":"cebpf4jnsgd1na2vs0mg"},{"bike_id":"2bb48e9b-5dbd-4dbc-9496-dfcf4e4148c5","system_id":"levelo_inurba_marseille","lat":43.27567,"lon":5.38418,"is_reserved":false,"is_disabled":false,"rental_uris":{"android":"levelo://app?vid=2bb48e9b-5dbd-4dbc-9496-dfcf4e4148c5","ios":"levelo://app?vid=2bb48e9b-5dbd-4dbc-9496-dfcf4e4148c5"},"vehicle_type_id":"4","last_reported":1774017357,"current_range_meters":6000,"station_id":"ce4bhh92rcd13ifvqfi0","pricing_plan_id":"cebpf4jnsgd1na2vs0mg"},{"bike_id":"bab3fc79-e0c2-432c-9cfa-8df953159e2f","system_id":"levelo_inurba_marseille","lat":43.25109,"lon":5.40321,"is_reserved":false,"is_disabled":false,"rental_uris":{"android":"levelo://app?vid=bab3fc79-e0c2-432c-9cfa-8df953159e2f","ios":"levelo://app?vid=bab3fc79-e0c2-432c-9cfa-8df953159e2f"},"vehicle_type_id":"4","last_reported":1774017357,"current_range_meters":6000,"station_id":"ce4bhlh2rcd13ifvqgig","pricing_plan_id":"cebpf4jnsgd1na2vs0mg"},{"bike_id":"c5ef3f31-bcfb-4cf8-b84e-dd7c3151fd6c","system_id":"levelo_inurba_marseille","lat":43.28268,"lon":5.35057,"is_reserved":false,"is_disabled":false,"rental_uris":{"android":"levelo://app?vid=c5ef3f31-bcfb-4cf8-b84e-dd7c3151fd6c","ios":"levelo://app?vid=c5ef3f31-bcfb-4cf8-b84e-dd7c3151fd6c"},"vehicle_type_id":"4","last_reported":1774017357,"current_range_meters":6000,"station_id":"ce4bhbp2rcd13ifvqerg","pricing_plan_id":"cebpf4jnsgd1na2vs0mg"},{"bike_id":"e08d225b-8f4a-4ce0-895d-d9f7f842408c","system_id":"levelo_inurba_marseille","lat":43.24171,"lon":5.36387,"is_reserved":false,"is_disabled":false,"rental_uris":{"android":"levelo://app?vid=e08d225b-8f4a-4ce0-895d-d9f7f842408c","ios":"levelo://app?vid=e08d225b-8f4a-4ce0-895d-d9f7f842408c"},"vehicle_type_id":"4","last_reported":1774017357,"current_range_meters":6000,"station_id":"cpo36qri1sfpv3e86is0","pricing_plan_id":"cebpf4jnsgd1na2vs0mg"},{"bike_id":"938f5b2b-699a-47ff-8381-c70adbd93b65","system_id":"levelo_inurba_marseille","lat":43.29779,"lon":5.37113,"is_reserved":false,"is_disabled":true,"rental_uris":{"android":"levelo://app?vid=938f5b2b-699a-47ff-8381-c70adbd93b65","ios":"levelo://app?vid=938f5b2b-699a-47ff-8381-c70adbd93b65"},"vehicle_type_id":"4","last_reported":1774017357,"current_range_meters":6000,"station_id":"ce4bgop2rcd13ifvqc1g","pricing_plan_id":"cebpf4jnsgd1na2vs0mg"},{"bike_id":"3a07d73d-6428-4cc1-823b-27a716fb54d1","system_id":"levelo_inurba_marseille","lat":43.2796,"lon":5.38706,"is_reserved":false,"is_disabled":false,"rental_uris":{"android":"levelo://app?vid=3a07d73d-6428-4cc1-823b-27a716fb54d1","ios":"levelo://app?vid=3a07d73d-6428-4cc1-823b-27a716fb54d1"},"vehicle_type_id":"4","last_reported":1774017357,"current_range_meters":6000,"station_id":"ce4bhg12rcd13ifvqf80","pricing_plan_id":"cebpf4jnsgd1na2vs0mg"},{"bike_id":"5290db71-45f5-42e4-b592-312b6a66ffa2","system_id":"levelo_inurba_marseille","lat":43.2655,"lon":5.37284,"is_reserved":false,"is_disabled":false,"rental_uris":{"android":"levelo://app?vid=5290db71-45f5-42e4-b592-312b6a66ffa2","ios":"levelo://app?vid=5290db71-45f5-42e4-b592-312b6a66ffa2"},"vehicle_type_id":"4","last_reported":1774017357,"current_range_meters":6000,"station_id":"ce4bhg12rcd13ifvqf70","pricing_plan_id":"cebpf4jnsgd1na2vs0mg"},{"bike_id":"a0ae73c0-ecdd-481e-b51f-b9cebe6fde29","system_id":"levelo_inurba_marseille","lat":43.29164,"lon":5.37153,"is_reserved":false,"is_disabled":false,"rental_uris":{"android":"levelo://app?vid=a0ae73c0-ecdd-481e-b51f-b9cebe6fde29","ios":"levelo://app?vid=a0ae73c0-ecdd-481e-b51f-b9cebe6fde29"},"vehicle_type_id":"4","last_reported":1774017357,"current_range_meters":6000,"station_id":"ce4bha92rcd13ifvqeh0","pricing_plan_id":"cebpf4jnsgd1na2vs0mg"},{"bike_id":"8439d0fb-bacc-4dd2-aab9-bd162f1fc6b9","system_id":"levelo_inurba_marseille","lat":43.27053,"lon":5.40259,"is_reserved":false,"is_disabled":false,"rental_uris":{"android":"levelo://app?vid=8439d0fb-bacc-4dd2-aab9-bd162f1fc6b9","ios":"levelo://app?vid=8439d0fb-bacc-4dd2-aab9-bd162f1fc6b9"},"vehicle_type_id":"4","last_reported":1774017357,"current_range_meters":6000,"station_id":"ce4bhk92rcd13ifvqgc0","pricing_plan_id":"cebpf4jnsgd1na2vs0mg"},{"bike_id":"08201ed2-95ac-4bdf-90f9-7b398c7d7cb6","system_id":"levelo_inurba_marseille","lat":43.22558,"lon":5.41635,"is_reserved":false,"is_disabled":false,"rental_uris":{"android":"levelo://app?vid=08201ed2-95ac-4bdf-90f9-7b398c7d7cb6","ios":"levelo://app?vid=08201ed2-95ac-4bdf-90f9-7b398c7d7cb6"},"vehicle_type_id":"4","last_reported":1774017357,"current_range_meters":6000,"station_id":"st_d2o4gvlbi1j2169b742g","pricing_plan_id":"cebpf4jnsgd1na2vs0mg"},{"bike_id":"0eb68c14-f479-45a4-b4fa-579190a803aa","system_id":"levelo_inurba_marseille","lat":43.29574,"lon":5.39954,"is_reserved":false,"is_disabled":false,"rental_uris":{"android":"levelo://app?vid=0eb68c14-f479-45a4-b4fa-579190a803aa","ios":"levelo://app?vid=0eb68c14-f479-45a4-b4fa-579190a803aa"},"vehicle_type_id":"4","last_reported":1774017357,"current_range_meters":6400,"station_id":"ce4bh312rcd13ifvqdj0","pricing_plan_id":"cebpf4jnsgd1na2vs0mg"},{"bike_id":"54ea4c10-0db9-423f-9295-8fae81041c64","system_id":"levelo_inurba_marseille","lat":43.29009,"lon":5.35612,"is_reserved":false,"is_disabled":false,"rental_uris":{"android":"levelo://app?vid=54ea4c10-0db9-423f-9295-8fae81041c64","ios":"levelo://app?vid=54ea4c10-0db9-423f-9295-8fae81041c64"},"vehicle_type_id":"4","last_reported":1774017357,"current_range_meters":6400,"station_id":"ce4bhb92rcd13ifvqen0","pricing_plan_id":"cebpf4jnsgd1na2vs0mg"},{"bike_id":"69067704-4b9d-4067-8ddd-5b71f4ef1a8a","system_id":"levelo_inurba_marseille","lat":43.25929,"lon":5.40905,"is_reserved":false,"is_disabled":true,"rental_uris":{"android":"levelo://app?vid=69067704-4b9d-4067-8ddd-5b71f4ef1a8a","ios":"levelo://app?vid=69067704-4b9d-4067-8ddd-5b71f4ef1a8a"},"vehicle_type_id":"4","last_reported":1774017357,"current_range_meters":6400,"station_id":"ce4bhm92rcd13ifvqglg","pricing_plan_id":"cebpf4jnsgd1na2vs0mg"},{"bike_id":"b9b052e4-5765-496c-8905-f31272226f5e","system_id":"levelo_inurba_marseille","lat":43.30149,"lon":5.37402,"is_reserved":false,"is_disabled":false,"rental_uris":{"android":"levelo://app?vid=b9b052e4-5765-496c-8905-f31272226f5e","ios":"levelo://app?vid=b9b052e4-5765-496c-8905-f31272226f5e"},"vehicle_type_id":"4","last_reported":1774017357,"current_range_meters":6400,"station_id":"ce4bgs92rcd13ifvqcc0","pricing_plan_id":"cebpf4jnsgd1na2vs0mg"},{"bike_id":"685ea90c-093a-4f05-927f-d1f9fbfccdf1","system_id":"levelo_inurba_marseille","lat":43.21734,"lon":5.34611,"is_reserved":false,"is_disabled":false,"rental_uris":{"android":"levelo://app?vid=685ea90c-093a-4f05-927f-d1f9fbfccdf1","ios":"levelo://app?vid=685ea90c-093a-4f05-927f-d1f9fbfccdf1"},"vehicle_type_id":"4","last_reported":1774017357,"current_range_meters":6400,"station_id":"st_cvj6r9ubvosntc0bgbag","pricing_plan_id":"cebpf4jnsgd1na2vs0mg"},{"bike_id":"a58b14be-ade4-498e-ab67-6c2572ad511a","system_id":"levelo_inurba_marseille","lat":43.30921,"lon":5.36849,"is_reserved":false,"is_disabled":false,"rental_uris":{"android":"levelo://app?vid=a58b14be-ade4-498e-ab67-6c2572ad511a","ios":"levelo://app?vid=a58b14be-ade4-498e-ab67-6c2572ad511a"},"vehicle_type_id":"4","last_reported":1774017357,"current_range_meters":6400,"station_id":"ce4bgn92rcd13ifvqbvg","pricing_plan_id":"cebpf4jnsgd1na2vs0mg"},{"bike_id":"1b225086-509c-4fa1-86e3-82a69b408351","system_id":"levelo_inurba_marseille","lat":43.25586,"lon":5.38257,"is_reserved":false,"is_disabled":false,"rental_uris":{"android":"levelo://app?vid=1b225086-509c-4fa1-86e3-82a69b408351","ios":"levelo://app?vid=1b225086-509c-4fa1-86e3-82a69b408351"},"vehicle_type_id":"4","last_reported":1774017357,"current_range_meters":6400,"station_id":"ce4bhih2rcd13ifvqfs0","pricing_plan_id":"cebpf4jnsgd1na2vs0mg"},{"bike_id":"4ebc5a1c-fa8c-44d8-a7fc-38229c55eb9d","system_id":"levelo_inurba_marseille","lat":43.24629,"lon":5.38924,"is_reserved":false,"is_disabled":false,"rental_uris":{"android":"levelo://app?vid=4ebc5a1c-fa8c-44d8-a7fc-38229c55eb9d","ios":"levelo://app?vid=4ebc5a1c-fa8c-44d8-a7fc-38229c55eb9d"},"vehicle_type_id":"4","last_reported":1774017357,"current_range_meters":6400,"station_id":"ce4bhg12rcd13ifvqf60","pricing_plan_id":"cebpf4jnsgd1na2vs0mg"},{"bike_id":"5d093622-4e87-4d50-9da4-eab65f5eb92c","system_id":"levelo_inurba_marseille","lat":43.26346,"lon":5.41091,"is_reserved":false,"is_disabled":false,"rental_uris":{"android":"levelo://app?vid=5d093622-4e87-4d50-9da4-eab65f5eb92c","ios":"levelo://app?vid=5d093622-4e87-4d50-9da4-eab65f5eb92c"},"vehicle_type_id":"4","last_reported":1774017357,"current_range_meters":6400,"station_id":"st_d4e5ca6na9uc73bfl5fg","pricing_plan_id":"cebpf4jnsgd1na2vs0mg"},{"bike_id":"ab09d209-60f6-4303-8d09-86dc43261279","system_id":"levelo_inurba_marseille","lat":43.21206,"lon":5.3504,"is_reserved":false,"is_disabled":false,"rental_uris":{"android":"levelo://app?vid=ab09d209-60f6-4303-8d09-86dc43261279","ios":"levelo://app?vid=ab09d209-60f6-4303-8d09-86dc43261279"},"vehicle_type_id":"4","last_reported":1774017357,"current_range_meters":6400,"station_id":"st_cvj6sg6p6f1abm77japg","pricing_plan_id":"cebpf4jnsgd1na2vs0mg"},{"bike_id":"12118d88-8157-4d76-ad00-12ce3bc20921","system_id":"levelo_inurba_marseille","lat":43.30848,"lon":5.37099,"is_reserved":false,"is_disabled":false,"rental_uris":{"android":"levelo://app?vid=12118d88-8157-4d76-ad00-12ce3bc20921","ios":"levelo://app?vid=12118d88-8157-4d76-ad00-12ce3bc20921"},"vehicle_type_id":"4","last_reported":1774017357,"current_range_meters":6800,"station_id":"","pricing_plan_id":"cebpf4jnsgd1na2vs0mg"},{"bike_id":"9edfb5ad-ce05-4fd6-98fe-499b54db8e9a","system_id":"levelo_inurba_marseille","lat":43.256849,"lon":5.410427,"is_reserved":false,"is_disabled":false,"rental_uris":{"android":"levelo://app?vid=9edfb5ad-ce05-4fd6-98fe-499b54db8e9a","ios":"levelo://app?vid=9edfb5ad-ce05-4fd6-98fe-499b54db8e9a"},"vehicle_type_id":"4","last_reported":1774017357,"current_range_meters":6800,"station_id":"ce4bhkp2rcd13ifvqgd0","pricing_plan_id":"cebpf4jnsgd1na2vs0mg"},{"bike_id":"ac4ca0f2-f5c2-4c9c-81db-9f7b20e89d0c","system_id":"levelo_inurba_marseille","lat":43.28539,"lon":5.4412,"is_reserved":false,"is_disabled":true,"rental_uris":{"android":"levelo://app?vid=ac4ca0f2-f5c2-4c9c-81db-9f7b20e89d0c","ios":"levelo://app?vid=ac4ca0f2-f5c2-4c9c-81db-9f7b20e89d0c"},"vehicle_type_id":"4","last_reported":1774017357,"current_range_meters":6800,"station_id":"st_d3j3df2ikq2c7380ej80","pricing_plan_id":"cebpf4jnsgd1na2vs0mg"},{"bike_id":"b5076d1f-3eaa-4ea2-84a9-828ed3f4695b","system_id":"levelo_inurba_marseille","lat":43.25587,"lon":5.38213,"is_reserved":false,"is_disabled":false,"rental_uris":{"android":"levelo://app?vid=b5076d1f-3eaa-4ea2-84a9-828ed3f4695b","ios":"levelo://app?vid=b5076d1f-3eaa-4ea2-84a9-828ed3f4695b"},"vehicle_type_id":"4","last_reported":1774017357,"current_range_meters":6800,"station_id":"ce4bhih2rcd13ifvqfs0","pricing_plan_id":"cebpf4jnsgd1na2vs0mg"},{"bike_id":"c6b20400-3641-48f3-b609-b110a5527d07","system_id":"levelo_inurba_marseille","lat":43.22568,"lon":5.41638,"is_reserved":false,"is_disabled":false,"rental_uris":{"android":"levelo://app?vid=c6b20400-3641-48f3-b609-b110a5527d07","ios":"levelo://app?vid=c6b20400-3641-48f3-b609-b110a5527d07"},"vehicle_type_id":"4","last_reported":1774017357,"current_range_meters":6800,"station_id":"st_d2o4gvlbi1j2169b742g","pricing_plan_id":"cebpf4jnsgd1na2vs0mg"},{"bike_id":"0264288d-82fa-4432-8751-6c08c0e54bb7","system_id":"levelo_inurba_marseille","lat":43.3028,"lon":5.42477,"is_reserved":false,"is_disabled":false,"rental_uris":{"android":"levelo://app?vid=0264288d-82fa-4432-8751-6c08c0e54bb7","ios":"levelo://app?vid=0264288d-82fa-4432-8751-6c08c0e54bb7"},"vehicle_type_id":"4","last_reported":1774017357,"current_range_meters":6800,"station_id":"","pricing_plan_id":"cebpf4jnsgd1na2vs0mg"},{"bike_id":"be9b4f06-9d1a-41ee-b10b-9de4e628d9db","system_id":"levelo_inurba_marseille","lat":43.25593,"lon":5.3826,"is_reserved":false,"is_disabled":false,"rental_uris":{"android":"levelo://app?vid=be9b4f06-9d1a-41ee-b10b-9de4e628d9db","ios":"levelo://app?vid=be9b4f06-9d1a-41ee-b10b-9de4e628d9db"},"vehicle_type_id":"4","last_reported":1774017357,"current_range_meters":6800,"station_id":"ce4bhih2rcd13ifvqfs0","pricing_plan_id":"cebpf4jnsgd1na2vs0mg"},{"bike_id":"97f89870-e3a2-4acc-b807-3b7fdbf7b741","system_id":"levelo_inurba_marseille","lat":43.26527,"lon":5.37279,"is_reserved":false,"is_disabled":false,"rental_uris":{"android":"levelo://app?vid=97f89870-e3a2-4acc-b807-3b7fdbf7b741","ios":"levelo://app?vid=97f89870-e3a2-4acc-b807-3b7fdbf7b741"},"vehicle_type_id":"4","last_reported":1774017357,"current_range_meters":6800,"station_id":"ce4bhg12rcd13ifvqf70","pricing_plan_id":"cebpf4jnsgd1na2vs0mg"},{"bike_id":"7cc5dd3b-6353-467a-8a3e-fcee0d22f523","system_id":"levelo_inurba_marseille","lat":43.2824,"lon":5.35055,"is_reserved":false,"is_disabled":false,"rental_uris":{"android":"levelo://app?vid=7cc5dd3b-6353-467a-8a3e-fcee0d22f523","ios":"levelo://app?vid=7cc5dd3b-6353-467a-8a3e-fcee0d22f523"},"vehicle_type_id":"4","last_reported":1774017357,"current_range_meters":6800,"station_id":"ce4bhbp2rcd13ifvqerg","pricing_plan_id":"cebpf4jnsgd1na2vs0mg"},{"bike_id":"29ceb06a-4df8-4e2a-9dd9-b070e185b37f","system_id":"levelo_inurba_marseille","lat":43.28482,"lon":5.48379,"is_reserved":false,"is_disabled":false,"rental_uris":{"android":"levelo://app?vid=29ceb06a-4df8-4e2a-9dd9-b070e185b37f","ios":"levelo://app?vid=29ceb06a-4df8-4e2a-9dd9-b070e185b37f"},"vehicle_type_id":"4","last_reported":1774017357,"current_range_meters":6800,"station_id":"st_d3svhcjqgbts73a3dn0g","pricing_plan_id":"cebpf4jnsgd1na2vs0mg"},{"bike_id":"0d700ad2-8689-42d2-8ad7-006eda0d1511","system_id":"levelo_inurba_marseille","lat":43.28931,"lon":5.38384,"is_reserved":false,"is_disabled":false,"rental_uris":{"android":"levelo://app?vid=0d700ad2-8689-42d2-8ad7-006eda0d1511","ios":"levelo://app?vid=0d700ad2-8689-42d2-8ad7-006eda0d1511"},"vehicle_type_id":"4","last_reported":1774017357,"current_range_meters":6800,"station_id":"ce4bh612rcd13ifvqe6g","pricing_plan_id":"cebpf4jnsgd1na2vs0mg"},{"bike_id":"29705345-7a8e-4bdd-8b65-5ba8856c877f","system_id":"levelo_inurba_marseille","lat":43.3031,"lon":5.44953,"is_reserved":false,"is_disabled":false,"rental_uris":{"android":"levelo://app?vid=29705345-7a8e-4bdd-8b65-5ba8856c877f","ios":"levelo://app?vid=29705345-7a8e-4bdd-8b65-5ba8856c877f"},"vehicle_type_id":"4","last_reported":1774017357,"current_range_meters":6800,"station_id":"","pricing_plan_id":"cebpf4jnsgd1na2vs0mg"},{"bike_id":"a55d5460-d008-41a0-81de-10d6e4eb5bee","system_id":"levelo_inurba_marseille","lat":43.29437,"lon":5.39751,"is_reserved":false,"is_disabled":false,"rental_uris":{"android":"levelo://app?vid=a55d5460-d008-41a0-81de-10d6e4eb5bee","ios":"levelo://app?vid=a55d5460-d008-41a0-81de-10d6e4eb5bee"},"vehicle_type_id":"4","last_reported":1774017357,"current_range_meters":6800,"station_id":"ce4bh3h2rcd13ifvqdo0","pricing_plan_id":"cebpf4jnsgd1na2vs0mg"},{"bike_id":"a4659d68-246f-4ec4-9eda-fd8e8645e205","system_id":"levelo_inurba_marseille","lat":43.27365,"lon":5.36252,"is_reserved":false,"is_disabled":false,"rental_uris":{"android":"levelo://app?vid=a4659d68-246f-4ec4-9eda-fd8e8645e205","ios":"levelo://app?vid=a4659d68-246f-4ec4-9eda-fd8e8645e205"},"vehicle_type_id":"4","last_reported":1774017357,"current_range_meters":6800,"station_id":"ce4bhbh2rcd13ifvqeo0","pricing_plan_id":"cebpf4jnsgd1na2vs0mg"},{"bike_id":"c48440d7-f4d5-4be3-a842-7dc1a317748e","system_id":"levelo_inurba_marseille","lat":43.33946,"lon":5.35701,"is_reserved":false,"is_disabled":false,"rental_uris":{"android":"levelo://app?vid=c48440d7-f4d5-4be3-a842-7dc1a317748e","ios":"levelo://app?vid=c48440d7-f4d5-4be3-a842-7dc1a317748e"},"vehicle_type_id":"4","last_reported":1774017357,"current_range_meters":6800,"station_id":"","pricing_plan_id":"cebpf4jnsgd1na2vs0mg"},{"bike_id":"0c9023de-8137-451b-9298-40f5a0b20516","system_id":"levelo_inurba_marseille","lat":43.29924,"lon":5.36531,"is_reserved":false,"is_disabled":false,"rental_uris":{"android":"levelo://app?vid=0c9023de-8137-451b-9298-40f5a0b20516","ios":"levelo://app?vid=0c9023de-8137-451b-9298-40f5a0b20516"},"vehicle_type_id":"4","last_reported":1774017357,"current_range_meters":6800,"station_id":"ce4bgm92rcd13ifvqbr0","pricing_plan_id":"cebpf4jnsgd1na2vs0mg"},{"bike_id":"b73bce7e-4cc3-4ead-8d21-18d20bbd962e","system_id":"levelo_inurba_marseille","lat":43.308944,"lon":5.396585,"is_reserved":false,"is_disabled":false,"rental_uris":{"android":"levelo://app?vid=b73bce7e-4cc3-4ead-8d21-18d20bbd962e","ios":"levelo://app?vid=b73bce7e-4cc3-4ead-8d21-18d20bbd962e"},"vehicle_type_id":"4","last_reported":1774017357,"current_range_meters":7200,"station_id":"ce4bh012rcd13ifvqcv0","pricing_plan_id":"cebpf4jnsgd1na2vs0mg"},{"bike_id":"a775511c-9985-4a58-8c4c-775aad7f3e36","system_id":"levelo_inurba_marseille","lat":43.29893,"lon":5.43632,"is_reserved":false,"is_disabled":false,"rental_uris":{"android":"levelo://app?vid=a775511c-9985-4a58-8c4c-775aad7f3e36","ios":"levelo://app?vid=a775511c-9985-4a58-8c4c-775aad7f3e36"},"vehicle_type_id":"4","last_reported":1774017357,"current_range_meters":7200,"station_id":"ce4bhpp2rcd13ifvqhfg","pricing_plan_id":"cebpf4jnsgd1na2vs0mg"},{"bike_id":"b1c8545e-5372-49f4-9ed5-3721b8a3a120","system_id":"levelo_inurba_marseille","lat":43.29015,"lon":5.38123,"is_reserved":false,"is_disabled":false,"rental_uris":{"android":"levelo://app?vid=b1c8545e-5372-49f4-9ed5-3721b8a3a120","ios":"levelo://app?vid=b1c8545e-5372-49f4-9ed5-3721b8a3a120"},"vehicle_type_id":"4","last_reported":1774017357,"current_range_meters":7200,"station_id":"ce4bh4p2rcd13ifvqe1g","pricing_plan_id":"cebpf4jnsgd1na2vs0mg"},{"bike_id":"c4ca07a2-1375-4eb0-8afe-39b4f1d9568a","system_id":"levelo_inurba_marseille","lat":43.29005,"lon":5.35615,"is_reserved":false,"is_disabled":false,"rental_uris":{"android":"levelo://app?vid=c4ca07a2-1375-4eb0-8afe-39b4f1d9568a","ios":"levelo://app?vid=c4ca07a2-1375-4eb0-8afe-39b4f1d9568a"},"vehicle_type_id":"4","last_reported":1774017357,"current_range_meters":7200,"station_id":"ce4bhb92rcd13ifvqen0","pricing_plan_id":"cebpf4jnsgd1na2vs0mg"},{"bike_id":"dd74091b-705a-4531-bc39-afff2195d9a1","system_id":"levelo_inurba_marseille","lat":43.24796,"lon":5.37465,"is_reserved":false,"is_disabled":false,"rental_uris":{"android":"levelo://app?vid=dd74091b-705a-4531-bc39-afff2195d9a1","ios":"levelo://app?vid=dd74091b-705a-4531-bc39-afff2195d9a1"},"vehicle_type_id":"4","last_reported":1774017357,"current_range_meters":7200,"station_id":"ce4bhgh2rcd13ifvqfb0","pricing_plan_id":"cebpf4jnsgd1na2vs0mg"},{"bike_id":"3a020cc7-0ef3-4026-bbef-4a34ffa3f008","system_id":"levelo_inurba_marseille","lat":43.26204,"lon":5.37925,"is_reserved":false,"is_disabled":false,"rental_uris":{"android":"levelo://app?vid=3a020cc7-0ef3-4026-bbef-4a34ffa3f008","ios":"levelo://app?vid=3a020cc7-0ef3-4026-bbef-4a34ffa3f008"},"vehicle_type_id":"4","last_reported":1774017357,"current_range_meters":7200,"station_id":"ce4bhjp2rcd13ifvqg90","pricing_plan_id":"cebpf4jnsgd1na2vs0mg"},{"bike_id":"39eab5fd-2ecc-45b4-9a7e-632f77c83ae6","system_id":"levelo_inurba_marseille","lat":43.2828,"lon":5.35074,"is_reserved":false,"is_disabled":false,"rental_uris":{"android":"levelo://app?vid=39eab5fd-2ecc-45b4-9a7e-632f77c83ae6","ios":"levelo://app?vid=39eab5fd-2ecc-45b4-9a7e-632f77c83ae6"},"vehicle_type_id":"4","last_reported":1774017357,"current_range_meters":7200,"station_id":"ce4bhbp2rcd13ifvqerg","pricing_plan_id":"cebpf4jnsgd1na2vs0mg"},{"bike_id":"b8949f29-42ce-4a7d-b0a5-15fd3e4fd108","system_id":"levelo_inurba_marseille","lat":43.28979,"lon":5.37828,"is_reserved":false,"is_disabled":false,"rental_uris":{"android":"levelo://app?vid=b8949f29-42ce-4a7d-b0a5-15fd3e4fd108","ios":"levelo://app?vid=b8949f29-42ce-4a7d-b0a5-15fd3e4fd108"},"vehicle_type_id":"4","last_reported":1774017357,"current_range_meters":7200,"station_id":"ce4bh9p2rcd13ifvqed0","pricing_plan_id":"cebpf4jnsgd1na2vs0mg"},{"bike_id":"0f318777-55ac-4f36-8a6e-dc261b2c3acf","system_id":"levelo_inurba_marseille","lat":43.30432,"lon":5.39754,"is_reserved":false,"is_disabled":false,"rental_uris":{"android":"levelo://app?vid=0f318777-55ac-4f36-8a6e-dc261b2c3acf","ios":"levelo://app?vid=0f318777-55ac-4f36-8a6e-dc261b2c3acf"},"vehicle_type_id":"4","last_reported":1774017357,"current_range_meters":7200,"station_id":"ce4bh092rcd13ifvqd20","pricing_plan_id":"cebpf4jnsgd1na2vs0mg"},{"bike_id":"c142af26-b83c-4aa3-ab8b-699576493d34","system_id":"levelo_inurba_marseille","lat":43.21192,"lon":5.35068,"is_reserved":false,"is_disabled":true,"rental_uris":{"android":"levelo://app?vid=c142af26-b83c-4aa3-ab8b-699576493d34","ios":"levelo://app?vid=c142af26-b83c-4aa3-ab8b-699576493d34"},"vehicle_type_id":"4","last_reported":1774017357,"current_range_meters":7200,"station_id":"st_cvj6sg6p6f1abm77japg","pricing_plan_id":"cebpf4jnsgd1na2vs0mg"},{"bike_id":"ece3bb1f-c73b-432a-86c1-36d4f3109b45","system_id":"levelo_inurba_marseille","lat":43.28991,"lon":5.35608,"is_reserved":false,"is_disabled":false,"rental_uris":{"android":"levelo://app?vid=ece3bb1f-c73b-432a-86c1-36d4f3109b45","ios":"levelo://app?vid=ece3bb1f-c73b-432a-86c1-36d4f3109b45"},"vehicle_type_id":"4","last_reported":1774017357,"current_range_meters":7200,"station_id":"ce4bhb92rcd13ifvqen0","pricing_plan_id":"cebpf4jnsgd1na2vs0mg"},{"bike_id":"e5eba928-e3a4-441b-9540-937747ee47b9","system_id":"levelo_inurba_marseille","lat":43.22564,"lon":5.41625,"is_reserved":false,"is_disabled":false,"rental_uris":{"android":"levelo://app?vid=e5eba928-e3a4-441b-9540-937747ee47b9","ios":"levelo://app?vid=e5eba928-e3a4-441b-9540-937747ee47b9"},"vehicle_type_id":"4","last_reported":1774017357,"current_range_meters":7200,"station_id":"st_d2o4gvlbi1j2169b742g","pricing_plan_id":"cebpf4jnsgd1na2vs0mg"},{"bike_id":"646c7015-5400-49b6-9ecb-1fc782efa767","system_id":"levelo_inurba_marseille","lat":43.21749,"lon":5.34611,"is_reserved":false,"is_disabled":false,"rental_uris":{"android":"levelo://app?vid=646c7015-5400-49b6-9ecb-1fc782efa767","ios":"levelo://app?vid=646c7015-5400-49b6-9ecb-1fc782efa767"},"vehicle_type_id":"4","last_reported":1774017357,"current_range_meters":7200,"station_id":"st_cvj6r9ubvosntc0bgbag","pricing_plan_id":"cebpf4jnsgd1na2vs0mg"},{"bike_id":"2996c3e5-9699-4f2e-a5ac-ea5a8ba3a138","system_id":"levelo_inurba_marseille","lat":43.30152,"lon":5.38082,"is_reserved":false,"is_disabled":false,"rental_uris":{"android":"levelo://app?vid=2996c3e5-9699-4f2e-a5ac-ea5a8ba3a138","ios":"levelo://app?vid=2996c3e5-9699-4f2e-a5ac-ea5a8ba3a138"},"vehicle_type_id":"4","last_reported":1774017357,"current_range_meters":7200,"station_id":"ce4bgjp2rcd13ifvqbh0","pricing_plan_id":"cebpf4jnsgd1na2vs0mg"},{"bike_id":"f328e3b6-a38c-49fe-80e0-c552630893a5","system_id":"levelo_inurba_marseille","lat":43.22919,"lon":5.35384,"is_reserved":false,"is_disabled":false,"rental_uris":{"android":"levelo://app?vid=f328e3b6-a38c-49fe-80e0-c552630893a5","ios":"levelo://app?vid=f328e3b6-a38c-49fe-80e0-c552630893a5"},"vehicle_type_id":"4","last_reported":1774017357,"current_range_meters":8000,"station_id":"cpo3532slgdg3j2ikp40","pricing_plan_id":"cebpf4jnsgd1na2vs0mg"},{"bike_id":"53f48266-4564-420b-96ab-d243233055dc","system_id":"levelo_inurba_marseille","lat":43.28488,"lon":5.48397,"is_reserved":false,"is_disabled":false,"rental_uris":{"android":"levelo://app?vid=53f48266-4564-420b-96ab-d243233055dc","ios":"levelo://app?vid=53f48266-4564-420b-96ab-d243233055dc"},"vehicle_type_id":"4","last_reported":1774017357,"current_range_meters":8000,"station_id":"","pricing_plan_id":"cebpf4jnsgd1na2vs0mg"},{"bike_id":"e9929c48-1ae0-4824-b681-d819e61ba386","system_id":"levelo_inurba_marseille","lat":43.26204,"lon":5.37441,"is_reserved":false,"is_disabled":false,"rental_uris":{"android":"levelo://app?vid=e9929c48-1ae0-4824-b681-d819e61ba386","ios":"levelo://app?vid=e9929c48-1ae0-4824-b681-d819e61ba386"},"vehicle_type_id":"4","last_reported":1774017357,"current_range_meters":8000,"station_id":"ce4bhgp2rcd13ifvqfc0","pricing_plan_id":"cebpf4jnsgd1na2vs0mg"},{"bike_id":"5c37a49c-ab60-4c11-8a61-6592ff444186","system_id":"levelo_inurba_marseille","lat":43.27908,"lon":5.39175,"is_reserved":false,"is_disabled":false,"rental_uris":{"android":"levelo://app?vid=5c37a49c-ab60-4c11-8a61-6592ff444186","ios":"levelo://app?vid=5c37a49c-ab60-4c11-8a61-6592ff444186"},"vehicle_type_id":"4","last_reported":1774017357,"current_range_meters":8000,"station_id":"","pricing_plan_id":"cebpf4jnsgd1na2vs0mg"},{"bike_id":"efaeaac2-37d1-487c-ade3-c1d910c99c2d","system_id":"levelo_inurba_marseille","lat":43.29781,"lon":5.37118,"is_reserved":false,"is_disabled":false,"rental_uris":{"android":"levelo://app?vid=efaeaac2-37d1-487c-ade3-c1d910c99c2d","ios":"levelo://app?vid=efaeaac2-37d1-487c-ade3-c1d910c99c2d"},"vehicle_type_id":"4","last_reported":1774017357,"current_range_meters":8000,"station_id":"ce4bgop2rcd13ifvqc1g","pricing_plan_id":"cebpf4jnsgd1na2vs0mg"},{"bike_id":"1ef60419-4859-4c07-9e3d-0978249289e5","system_id":"levelo_inurba_marseille","lat":43.29677,"lon":5.37291,"is_reserved":false,"is_disabled":false,"rental_uris":{"android":"levelo://app?vid=1ef60419-4859-4c07-9e3d-0978249289e5","ios":"levelo://app?vid=1ef60419-4859-4c07-9e3d-0978249289e5"},"vehicle_type_id":"4","last_reported":1774017357,"current_range_meters":8000,"station_id":"ce4bgk12rcd13ifvqbj0","pricing_plan_id":"cebpf4jnsgd1na2vs0mg"},{"bike_id":"32114caa-ea8a-4fd4-b51a-deb7db1d0588","system_id":"levelo_inurba_marseille","lat":43.265555,"lon":5.372833,"is_reserved":false,"is_disabled":false,"rental_uris":{"android":"levelo://app?vid=32114caa-ea8a-4fd4-b51a-deb7db1d0588","ios":"levelo://app?vid=32114caa-ea8a-4fd4-b51a-deb7db1d0588"},"vehicle_type_id":"4","last_reported":1774017357,"current_range_meters":8000,"station_id":"ce4bhg12rcd13ifvqf70","pricing_plan_id":"cebpf4jnsgd1na2vs0mg"},{"bike_id":"e65b4135-a3e1-41d8-8ffa-7d0c39e46cfe","system_id":"levelo_inurba_marseille","lat":43.28234,"lon":5.35065,"is_reserved":false,"is_disabled":false,"rental_uris":{"android":"levelo://app?vid=e65b4135-a3e1-41d8-8ffa-7d0c39e46cfe","ios":"levelo://app?vid=e65b4135-a3e1-41d8-8ffa-7d0c39e46cfe"},"vehicle_type_id":"4","last_reported":1774017357,"current_range_meters":8000,"station_id":"ce4bhbp2rcd13ifvqerg","pricing_plan_id":"cebpf4jnsgd1na2vs0mg"},{"bike_id":"89ad46cf-ad84-4e5e-be57-87ac2cebe69c","system_id":"levelo_inurba_marseille","lat":43.28478,"lon":5.48385,"is_reserved":false,"is_disabled":false,"rental_uris":{"android":"levelo://app?vid=89ad46cf-ad84-4e5e-be57-87ac2cebe69c","ios":"levelo://app?vid=89ad46cf-ad84-4e5e-be57-87ac2cebe69c"},"vehicle_type_id":"4","last_reported":1774017357,"current_range_meters":8000,"station_id":"st_d3svhcjqgbts73a3dn0g","pricing_plan_id":"cebpf4jnsgd1na2vs0mg"},{"bike_id":"441f86a4-85a7-41f9-9c8b-b9dbb0046704","system_id":"levelo_inurba_marseille","lat":43.29034,"lon":5.39969,"is_reserved":false,"is_disabled":false,"rental_uris":{"android":"levelo://app?vid=441f86a4-85a7-41f9-9c8b-b9dbb0046704","ios":"levelo://app?vid=441f86a4-85a7-41f9-9c8b-b9dbb0046704"},"vehicle_type_id":"4","last_reported":1774017357,"current_range_meters":8000,"station_id":"ce4bh392rcd13ifvqdm0","pricing_plan_id":"cebpf4jnsgd1na2vs0mg"},{"bike_id":"a545c754-e350-45a1-864b-ec76871d3bf7","system_id":"levelo_inurba_marseille","lat":43.21765,"lon":5.34597,"is_reserved":false,"is_disabled":false,"rental_uris":{"android":"levelo://app?vid=a545c754-e350-45a1-864b-ec76871d3bf7","ios":"levelo://app?vid=a545c754-e350-45a1-864b-ec76871d3bf7"},"vehicle_type_id":"4","last_reported":1774017357,"current_range_meters":8000,"station_id":"","pricing_plan_id":"cebpf4jnsgd1na2vs0mg"},{"bike_id":"9ec1942c-b173-4801-9f27-3e6493805e2b","system_id":"levelo_inurba_marseille","lat":43.24636,"lon":5.38882,"is_reserved":false,"is_disabled":false,"rental_uris":{"android":"levelo://app?vid=9ec1942c-b173-4801-9f27-3e6493805e2b","ios":"levelo://app?vid=9ec1942c-b173-4801-9f27-3e6493805e2b"},"vehicle_type_id":"4","last_reported":1774017357,"current_range_meters":8400,"station_id":"ce4bhg12rcd13ifvqf60","pricing_plan_id":"cebpf4jnsgd1na2vs0mg"},{"bike_id":"4a0e609e-6c21-48e8-8aeb-8e3d0c22ce4c","system_id":"levelo_inurba_marseille","lat":43.26558,"lon":5.37288,"is_reserved":false,"is_disabled":false,"rental_uris":{"android":"levelo://app?vid=4a0e609e-6c21-48e8-8aeb-8e3d0c22ce4c","ios":"levelo://app?vid=4a0e609e-6c21-48e8-8aeb-8e3d0c22ce4c"},"vehicle_type_id":"4","last_reported":1774017357,"current_range_meters":8400,"station_id":"ce4bhg12rcd13ifvqf70","pricing_plan_id":"cebpf4jnsgd1na2vs0mg"},{"bike_id":"0d02aa34-bb4c-4444-b87a-e10b800b22dc","system_id":"levelo_inurba_marseille","lat":43.28276,"lon":5.3507,"is_reserved":false,"is_disabled":false,"rental_uris":{"android":"levelo://app?vid=0d02aa34-bb4c-4444-b87a-e10b800b22dc","ios":"levelo://app?vid=0d02aa34-bb4c-4444-b87a-e10b800b22dc"},"vehicle_type_id":"4","last_reported":1774017357,"current_range_meters":8400,"station_id":"ce4bhbp2rcd13ifvqerg","pricing_plan_id":"cebpf4jnsgd1na2vs0mg"},{"bike_id":"047ba141-be1a-459b-b4e4-3f69e624e803","system_id":"levelo_inurba_marseille","lat":43.27381,"lon":5.36264,"is_reserved":false,"is_disabled":false,"rental_uris":{"android":"levelo://app?vid=047ba141-be1a-459b-b4e4-3f69e624e803","ios":"levelo://app?vid=047ba141-be1a-459b-b4e4-3f69e624e803"},"vehicle_type_id":"4","last_reported":1774017357,"current_range_meters":8400,"station_id":"ce4bhbh2rcd13ifvqeo0","pricing_plan_id":"cebpf4jnsgd1na2vs0mg"},{"bike_id":"81cf3a80-d27c-41a5-bba2-090b787936bd","system_id":"levelo_inurba_marseille","lat":43.32456,"lon":5.38298,"is_reserved":false,"is_disabled":false,"rental_uris":{"android":"levelo://app?vid=81cf3a80-d27c-41a5-bba2-090b787936bd","ios":"levelo://app?vid=81cf3a80-d27c-41a5-bba2-090b787936bd"},"vehicle_type_id":"4","last_reported":1774017357,"current_range_meters":8400,"station_id":"st_d4asgbiv49dc73anf9m0","pricing_plan_id":"cebpf4jnsgd1na2vs0mg"},{"bike_id":"56640da4-a6be-4a43-9973-085a6297ede0","system_id":"levelo_inurba_marseille","lat":43.27358,"lon":5.3627,"is_reserved":false,"is_disabled":false,"rental_uris":{"android":"levelo://app?vid=56640da4-a6be-4a43-9973-085a6297ede0","ios":"levelo://app?vid=56640da4-a6be-4a43-9973-085a6297ede0"},"vehicle_type_id":"4","last_reported":1774017357,"current_range_meters":8400,"station_id":"ce4bhbh2rcd13ifvqeo0","pricing_plan_id":"cebpf4jnsgd1na2vs0mg"},{"bike_id":"26d77e2d-72e0-48dd-9362-94d476fb9d85","system_id":"levelo_inurba_marseille","lat":43.29234,"lon":5.36082,"is_reserved":false,"is_disabled":false,"rental_uris":{"android":"levelo://app?vid=26d77e2d-72e0-48dd-9362-94d476fb9d85","ios":"levelo://app?vid=26d77e2d-72e0-48dd-9362-94d476fb9d85"},"vehicle_type_id":"4","last_reported":1774017357,"current_range_meters":8400,"station_id":"ce4bhbh2rcd13ifvqeqg","pricing_plan_id":"cebpf4jnsgd1na2vs0mg"},{"bike_id":"2d9e4754-9b17-40b5-bbeb-5b1c9c5bbe64","system_id":"levelo_inurba_marseille","lat":43.30132,"lon":5.38779,"is_reserved":false,"is_disabled":true,"rental_uris":{"android":"levelo://app?vid=2d9e4754-9b17-40b5-bbeb-5b1c9c5bbe64","ios":"levelo://app?vid=2d9e4754-9b17-40b5-bbeb-5b1c9c5bbe64"},"vehicle_type_id":"4","last_reported":1774017357,"current_range_meters":8400,"station_id":"ce4bghh2rcd13ifvqb60","pricing_plan_id":"cebpf4jnsgd1na2vs0mg"},{"bike_id":"56657b3b-0ad4-4d76-92d0-1c208aca9081","system_id":"levelo_inurba_marseille","lat":43.28611,"lon":5.3511,"is_reserved":false,"is_disabled":false,"rental_uris":{"android":"levelo://app?vid=56657b3b-0ad4-4d76-92d0-1c208aca9081","ios":"levelo://app?vid=56657b3b-0ad4-4d76-92d0-1c208aca9081"},"vehicle_type_id":"4","last_reported":1774017357,"current_range_meters":8400,"station_id":"ce4bhch2rcd13ifvqeug","pricing_plan_id":"cebpf4jnsgd1na2vs0mg"},{"bike_id":"a21c66aa-3c00-4df5-8e6f-91b2549e46d1","system_id":"levelo_inurba_marseille","lat":43.27962,"lon":5.43612,"is_reserved":false,"is_disabled":false,"rental_uris":{"android":"levelo://app?vid=a21c66aa-3c00-4df5-8e6f-91b2549e46d1","ios":"levelo://app?vid=a21c66aa-3c00-4df5-8e6f-91b2549e46d1"},"vehicle_type_id":"4","last_reported":1774017357,"current_range_meters":8400,"station_id":"","pricing_plan_id":"cebpf4jnsgd1na2vs0mg"},{"bike_id":"4019ec88-bf3a-4ec3-b41d-e5202ed89418","system_id":"levelo_inurba_marseille","lat":43.29721,"lon":5.37687,"is_reserved":false,"is_disabled":false,"rental_uris":{"android":"levelo://app?vid=4019ec88-bf3a-4ec3-b41d-e5202ed89418","ios":"levelo://app?vid=4019ec88-bf3a-4ec3-b41d-e5202ed89418"},"vehicle_type_id":"4","last_reported":1774017357,"current_range_meters":8400,"station_id":"ce4bgkh2rcd13ifvqbl0","pricing_plan_id":"cebpf4jnsgd1na2vs0mg"},{"bike_id":"7fa64d84-cd92-4f02-a79d-c348b129b15f","system_id":"levelo_inurba_marseille","lat":43.24172,"lon":5.36407,"is_reserved":false,"is_disabled":false,"rental_uris":{"android":"levelo://app?vid=7fa64d84-cd92-4f02-a79d-c348b129b15f","ios":"levelo://app?vid=7fa64d84-cd92-4f02-a79d-c348b129b15f"},"vehicle_type_id":"4","last_reported":1774017357,"current_range_meters":8400,"station_id":"cpo36qri1sfpv3e86is0","pricing_plan_id":"cebpf4jnsgd1na2vs0mg"},{"bike_id":"cf644b4a-b00b-4198-9a69-695c69bc416b","system_id":"levelo_inurba_marseille","lat":43.23051,"lon":5.35494,"is_reserved":false,"is_disabled":false,"rental_uris":{"android":"levelo://app?vid=cf644b4a-b00b-4198-9a69-695c69bc416b","ios":"levelo://app?vid=cf644b4a-b00b-4198-9a69-695c69bc416b"},"vehicle_type_id":"4","last_reported":1774017357,"current_range_meters":8400,"station_id":"cpo3342slgdg3j2ifvpg","pricing_plan_id":"cebpf4jnsgd1na2vs0mg"},{"bike_id":"74b58ec7-91b4-487f-80ed-5a89281e2994","system_id":"levelo_inurba_marseille","lat":43.3013,"lon":5.39865,"is_reserved":false,"is_disabled":false,"rental_uris":{"android":"levelo://app?vid=74b58ec7-91b4-487f-80ed-5a89281e2994","ios":"levelo://app?vid=74b58ec7-91b4-487f-80ed-5a89281e2994"},"vehicle_type_id":"4","last_reported":1774017357,"current_range_meters":8400,"station_id":"ce4bh0h2rcd13ifvqd40","pricing_plan_id":"cebpf4jnsgd1na2vs0mg"},{"bike_id":"0c744d67-74b3-4bed-8fa1-274d8c3afbea","system_id":"levelo_inurba_marseille","lat":43.23787,"lon":5.36631,"is_reserved":false,"is_disabled":false,"rental_uris":{"android":"levelo://app?vid=0c744d67-74b3-4bed-8fa1-274d8c3afbea","ios":"levelo://app?vid=0c744d67-74b3-4bed-8fa1-274d8c3afbea"},"vehicle_type_id":"4","last_reported":1774017357,"current_range_meters":8400,"station_id":"st_d3nk18o9ro0c73en2l3g","pricing_plan_id":"cebpf4jnsgd1na2vs0mg"},{"bike_id":"c311bb97-a28c-427b-a9e3-316251031a80","system_id":"levelo_inurba_marseille","lat":43.24083,"lon":5.37749,"is_reserved":false,"is_disabled":false,"rental_uris":{"android":"levelo://app?vid=c311bb97-a28c-427b-a9e3-316251031a80","ios":"levelo://app?vid=c311bb97-a28c-427b-a9e3-316251031a80"},"vehicle_type_id":"4","last_reported":1774017357,"current_range_meters":8400,"station_id":"ce4bhnp2rcd13ifvqgvg","pricing_plan_id":"cebpf4jnsgd1na2vs0mg"},{"bike_id":"912e5f30-2e0b-48a9-85db-a984611241c9","system_id":"levelo_inurba_marseille","lat":43.299,"lon":5.4401,"is_reserved":false,"is_disabled":false,"rental_uris":{"android":"levelo://app?vid=912e5f30-2e0b-48a9-85db-a984611241c9","ios":"levelo://app?vid=912e5f30-2e0b-48a9-85db-a984611241c9"},"vehicle_type_id":"4","last_reported":1774017357,"current_range_meters":8800,"station_id":"","pricing_plan_id":"cebpf4jnsgd1na2vs0mg"},{"bike_id":"3cd9733c-2059-4780-9b16-2a32eb55587a","system_id":"levelo_inurba_marseille","lat":43.29624,"lon":5.3716,"is_reserved":false,"is_disabled":false,"rental_uris":{"android":"levelo://app?vid=3cd9733c-2059-4780-9b16-2a32eb55587a","ios":"levelo://app?vid=3cd9733c-2059-4780-9b16-2a32eb55587a"},"vehicle_type_id":"4","last_reported":1774017357,"current_range_meters":8800,"station_id":"ce4bgnh2rcd13ifvqc0g","pricing_plan_id":"cebpf4jnsgd1na2vs0mg"},{"bike_id":"d98676a3-493e-49af-8b89-e7d7e5b495a4","system_id":"levelo_inurba_marseille","lat":43.30523,"lon":5.36691,"is_reserved":false,"is_disabled":false,"rental_uris":{"android":"levelo://app?vid=d98676a3-493e-49af-8b89-e7d7e5b495a4","ios":"levelo://app?vid=d98676a3-493e-49af-8b89-e7d7e5b495a4"},"vehicle_type_id":"4","last_reported":1774017357,"current_range_meters":8800,"station_id":"ce4bgrp2rcd13ifvqc9g","pricing_plan_id":"cebpf4jnsgd1na2vs0mg"},{"bike_id":"b63e28c4-e4db-4a92-a9ce-06fc27566f70","system_id":"levelo_inurba_marseille","lat":43.254928,"lon":5.376482,"is_reserved":false,"is_disabled":true,"rental_uris":{"android":"levelo://app?vid=b63e28c4-e4db-4a92-a9ce-06fc27566f70","ios":"levelo://app?vid=b63e28c4-e4db-4a92-a9ce-06fc27566f70"},"vehicle_type_id":"4","last_reported":1774017357,"current_range_meters":8800,"station_id":"ce4bhh12rcd13ifvqff0","pricing_plan_id":"cebpf4jnsgd1na2vs0mg"},{"bike_id":"e2420c11-4646-4145-aa2e-baedb91a43dc","system_id":"levelo_inurba_marseille","lat":43.32055,"lon":5.37105,"is_reserved":false,"is_disabled":false,"rental_uris":{"android":"levelo://app?vid=e2420c11-4646-4145-aa2e-baedb91a43dc","ios":"levelo://app?vid=e2420c11-4646-4145-aa2e-baedb91a43dc"},"vehicle_type_id":"4","last_reported":1774017357,"current_range_meters":8800,"station_id":"","pricing_plan_id":"cebpf4jnsgd1na2vs0mg"},{"bike_id":"d00ce6b1-d263-4644-9ac8-801c3d34ac19","system_id":"levelo_inurba_marseille","lat":43.2259,"lon":5.41623,"is_reserved":false,"is_disabled":false,"rental_uris":{"android":"levelo://app?vid=d00ce6b1-d263-4644-9ac8-801c3d34ac19","ios":"levelo://app?vid=d00ce6b1-d263-4644-9ac8-801c3d34ac19"},"vehicle_type_id":"4","last_reported":1774017357,"current_range_meters":8800,"station_id":"st_d2o4gvlbi1j2169b742g","pricing_plan_id":"cebpf4jnsgd1na2vs0mg"},{"bike_id":"8648ff3d-a49d-4491-be6c-bab3f9812603","system_id":"levelo_inurba_marseille","lat":43.28302,"lon":5.43834,"is_reserved":false,"is_disabled":false,"rental_uris":{"android":"levelo://app?vid=8648ff3d-a49d-4491-be6c-bab3f9812603","ios":"levelo://app?vid=8648ff3d-a49d-4491-be6c-bab3f9812603"},"vehicle_type_id":"4","last_reported":1774017357,"current_range_meters":8800,"station_id":"","pricing_plan_id":"cebpf4jnsgd1na2vs0mg"},{"bike_id":"a8c8307b-e1e9-4950-a785-578e1a82f805","system_id":"levelo_inurba_marseille","lat":43.31273,"lon":5.37783,"is_reserved":false,"is_disabled":false,"rental_uris":{"android":"levelo://app?vid=a8c8307b-e1e9-4950-a785-578e1a82f805","ios":"levelo://app?vid=a8c8307b-e1e9-4950-a785-578e1a82f805"},"vehicle_type_id":"4","last_reported":1774017357,"current_range_meters":8800,"station_id":"","pricing_plan_id":"cebpf4jnsgd1na2vs0mg"},{"bike_id":"962e3e51-db50-4f61-a079-9b1c6a103eb5","system_id":"levelo_inurba_marseille","lat":43.30963,"lon":5.36814,"is_reserved":false,"is_disabled":false,"rental_uris":{"android":"levelo://app?vid=962e3e51-db50-4f61-a079-9b1c6a103eb5","ios":"levelo://app?vid=962e3e51-db50-4f61-a079-9b1c6a103eb5"},"vehicle_type_id":"4","last_reported":1774017357,"current_range_meters":8800,"station_id":"","pricing_plan_id":"cebpf4jnsgd1na2vs0mg"},{"bike_id":"7f166c91-9eb1-4dc8-a940-85d8139ad9d9","system_id":"levelo_inurba_marseille","lat":43.23968,"lon":5.36608,"is_reserved":false,"is_disabled":false,"rental_uris":{"android":"levelo://app?vid=7f166c91-9eb1-4dc8-a940-85d8139ad9d9","ios":"levelo://app?vid=7f166c91-9eb1-4dc8-a940-85d8139ad9d9"},"vehicle_type_id":"4","last_reported":1774017357,"current_range_meters":8800,"station_id":"ce4bhi12rcd13ifvqfp0","pricing_plan_id":"cebpf4jnsgd1na2vs0mg"},{"bike_id":"d83d86a0-48a4-442a-9465-a11cff966d5c","system_id":"levelo_inurba_marseille","lat":43.30472,"lon":5.37918,"is_reserved":false,"is_disabled":false,"rental_uris":{"android":"levelo://app?vid=d83d86a0-48a4-442a-9465-a11cff966d5c","ios":"levelo://app?vid=d83d86a0-48a4-442a-9465-a11cff966d5c"},"vehicle_type_id":"4","last_reported":1774017357,"current_range_meters":8800,"station_id":"","pricing_plan_id":"cebpf4jnsgd1na2vs0mg"},{"bike_id":"f80242bd-cda9-4de1-a643-4d63093f953c","system_id":"levelo_inurba_marseille","lat":43.29763,"lon":5.42781,"is_reserved":false,"is_disabled":false,"rental_uris":{"android":"levelo://app?vid=f80242bd-cda9-4de1-a643-4d63093f953c","ios":"levelo://app?vid=f80242bd-cda9-4de1-a643-4d63093f953c"},"vehicle_type_id":"4","last_reported":1774017357,"current_range_meters":8800,"station_id":"st_d3md5207bmas73dh9klg","pricing_plan_id":"cebpf4jnsgd1na2vs0mg"},{"bike_id":"48cfc7be-02a1-4e6d-886c-2db0b498b9a6","system_id":"levelo_inurba_marseille","lat":43.24083,"lon":5.37744,"is_reserved":false,"is_disabled":false,"rental_uris":{"android":"levelo://app?vid=48cfc7be-02a1-4e6d-886c-2db0b498b9a6","ios":"levelo://app?vid=48cfc7be-02a1-4e6d-886c-2db0b498b9a6"},"vehicle_type_id":"4","last_reported":1774017357,"current_range_meters":8800,"station_id":"ce4bhnp2rcd13ifvqgvg","pricing_plan_id":"cebpf4jnsgd1na2vs0mg"},{"bike_id":"f8893fa6-770a-49c5-86cd-177ca8ecd695","system_id":"levelo_inurba_marseille","lat":43.3053,"lon":5.36537,"is_reserved":false,"is_disabled":false,"rental_uris":{"android":"levelo://app?vid=f8893fa6-770a-49c5-86cd-177ca8ecd695","ios":"levelo://app?vid=f8893fa6-770a-49c5-86cd-177ca8ecd695"},"vehicle_type_id":"4","last_reported":1774017357,"current_range_meters":8800,"station_id":"ce4bgs12rcd13ifvqcag","pricing_plan_id":"cebpf4jnsgd1na2vs0mg"},{"bike_id":"1376a9e6-82f2-4044-9646-2a6072ea4527","system_id":"levelo_inurba_marseille","lat":43.23772,"lon":5.36617,"is_reserved":false,"is_disabled":false,"rental_uris":{"android":"levelo://app?vid=1376a9e6-82f2-4044-9646-2a6072ea4527","ios":"levelo://app?vid=1376a9e6-82f2-4044-9646-2a6072ea4527"},"vehicle_type_id":"4","last_reported":1774017357,"current_range_meters":8800,"station_id":"st_d3nk18o9ro0c73en2l3g","pricing_plan_id":"cebpf4jnsgd1na2vs0mg"},{"bike_id":"16aa874e-2b86-408f-b2c0-c41b1499d8ac","system_id":"levelo_inurba_marseille","lat":43.24462,"lon":5.42547,"is_reserved":false,"is_disabled":false,"rental_uris":{"android":"levelo://app?vid=16aa874e-2b86-408f-b2c0-c41b1499d8ac","ios":"levelo://app?vid=16aa874e-2b86-408f-b2c0-c41b1499d8ac"},"vehicle_type_id":"4","last_reported":1774017357,"current_range_meters":8800,"station_id":"st_d4a3vfp97mjs738cd8kg","pricing_plan_id":"cebpf4jnsgd1na2vs0mg"},{"bike_id":"d7055860-d002-41ab-bba9-04e6c1884541","system_id":"levelo_inurba_marseille","lat":43.31987,"lon":5.38165,"is_reserved":false,"is_disabled":false,"rental_uris":{"android":"levelo://app?vid=d7055860-d002-41ab-bba9-04e6c1884541","ios":"levelo://app?vid=d7055860-d002-41ab-bba9-04e6c1884541"},"vehicle_type_id":"4","last_reported":1774017357,"current_range_meters":8800,"station_id":"ce4bhr12rcd13ifvqhpg","pricing_plan_id":"cebpf4jnsgd1na2vs0mg"},{"bike_id":"2c2bc86c-c116-4001-acc9-ccf716bfa824","system_id":"levelo_inurba_marseille","lat":43.29708,"lon":5.38262,"is_reserved":false,"is_disabled":false,"rental_uris":{"android":"levelo://app?vid=2c2bc86c-c116-4001-acc9-ccf716bfa824","ios":"levelo://app?vid=2c2bc86c-c116-4001-acc9-ccf716bfa824"},"vehicle_type_id":"4","last_reported":1774017357,"current_range_meters":8800,"station_id":"","pricing_plan_id":"cebpf4jnsgd1na2vs0mg"},{"bike_id":"503d1342-2683-48a9-bd4a-8ce095f8e7c7","system_id":"levelo_inurba_marseille","lat":43.27624,"lon":5.36106,"is_reserved":false,"is_disabled":false,"rental_uris":{"android":"levelo://app?vid=503d1342-2683-48a9-bd4a-8ce095f8e7c7","ios":"levelo://app?vid=503d1342-2683-48a9-bd4a-8ce095f8e7c7"},"vehicle_type_id":"4","last_reported":1774017357,"current_range_meters":8800,"station_id":"ce4bgj92rcd13ifvqbe0","pricing_plan_id":"cebpf4jnsgd1na2vs0mg"},{"bike_id":"164ef4bd-d279-4e43-b18f-276ca93b0ec8","system_id":"levelo_inurba_marseille","lat":43.26675,"lon":5.38276,"is_reserved":false,"is_disabled":false,"rental_uris":{"android":"levelo://app?vid=164ef4bd-d279-4e43-b18f-276ca93b0ec8","ios":"levelo://app?vid=164ef4bd-d279-4e43-b18f-276ca93b0ec8"},"vehicle_type_id":"4","last_reported":1774017357,"current_range_meters":8800,"station_id":"ce4bhg92rcd13ifvqf90","pricing_plan_id":"cebpf4jnsgd1na2vs0mg"},{"bike_id":"7f69ea73-8aff-462b-a819-a0809de4b8a2","system_id":"levelo_inurba_marseille","lat":43.30555,"lon":5.36525,"is_reserved":false,"is_disabled":false,"rental_uris":{"android":"levelo://app?vid=7f69ea73-8aff-462b-a819-a0809de4b8a2","ios":"levelo://app?vid=7f69ea73-8aff-462b-a819-a0809de4b8a2"},"vehicle_type_id":"4","last_reported":1774017357,"current_range_meters":9200,"station_id":"ce4bgs12rcd13ifvqcag","pricing_plan_id":"cebpf4jnsgd1na2vs0mg"},{"bike_id":"8b1ca434-1bac-40e0-a905-303e63e0c8f3","system_id":"levelo_inurba_marseille","lat":43.23192,"lon":5.39986,"is_reserved":false,"is_disabled":false,"rental_uris":{"android":"levelo://app?vid=8b1ca434-1bac-40e0-a905-303e63e0c8f3","ios":"levelo://app?vid=8b1ca434-1bac-40e0-a905-303e63e0c8f3"},"vehicle_type_id":"4","last_reported":1774017357,"current_range_meters":9200,"station_id":"ce4bhn12rcd13ifvqgqg","pricing_plan_id":"cebpf4jnsgd1na2vs0mg"},{"bike_id":"f3414e99-2d7c-4b03-96db-df8c1c6d3f2b","system_id":"levelo_inurba_marseille","lat":43.28472,"lon":5.48398,"is_reserved":false,"is_disabled":false,"rental_uris":{"android":"levelo://app?vid=f3414e99-2d7c-4b03-96db-df8c1c6d3f2b","ios":"levelo://app?vid=f3414e99-2d7c-4b03-96db-df8c1c6d3f2b"},"vehicle_type_id":"4","last_reported":1774017357,"current_range_meters":9200,"station_id":"","pricing_plan_id":"cebpf4jnsgd1na2vs0mg"},{"bike_id":"ab77a418-345e-453b-bca3-3815a5ee3842","system_id":"levelo_inurba_marseille","lat":43.23194,"lon":5.35541,"is_reserved":false,"is_disabled":false,"rental_uris":{"android":"levelo://app?vid=ab77a418-345e-453b-bca3-3815a5ee3842","ios":"levelo://app?vid=ab77a418-345e-453b-bca3-3815a5ee3842"},"vehicle_type_id":"4","last_reported":1774017357,"current_range_meters":9200,"station_id":"ce4bhu92rcd13ifvqi70","pricing_plan_id":"cebpf4jnsgd1na2vs0mg"},{"bike_id":"bfa999de-7a32-454a-b31e-f99ace51a3fc","system_id":"levelo_inurba_marseille","lat":43.28471,"lon":5.48402,"is_reserved":false,"is_disabled":false,"rental_uris":{"android":"levelo://app?vid=bfa999de-7a32-454a-b31e-f99ace51a3fc","ios":"levelo://app?vid=bfa999de-7a32-454a-b31e-f99ace51a3fc"},"vehicle_type_id":"4","last_reported":1774017357,"current_range_meters":9200,"station_id":"","pricing_plan_id":"cebpf4jnsgd1na2vs0mg"},{"bike_id":"b3b3bb0b-fb2d-4490-a557-6f80b344e03f","system_id":"levelo_inurba_marseille","lat":43.28909,"lon":5.39626,"is_reserved":false,"is_disabled":true,"rental_uris":{"android":"levelo://app?vid=b3b3bb0b-fb2d-4490-a557-6f80b344e03f","ios":"levelo://app?vid=b3b3bb0b-fb2d-4490-a557-6f80b344e03f"},"vehicle_type_id":"4","last_reported":1774017357,"current_range_meters":9200,"station_id":"ce4bh3h2rcd13ifvqdn0","pricing_plan_id":"cebpf4jnsgd1na2vs0mg"},{"bike_id":"8e931a80-78ce-4e14-9e1c-d5938b31cf49","system_id":"levelo_inurba_marseille","lat":43.28417,"lon":5.34991,"is_reserved":false,"is_disabled":false,"rental_uris":{"android":"levelo://app?vid=8e931a80-78ce-4e14-9e1c-d5938b31cf49","ios":"levelo://app?vid=8e931a80-78ce-4e14-9e1c-d5938b31cf49"},"vehicle_type_id":"4","last_reported":1774017357,"current_range_meters":9200,"station_id":"ce4bhbh2rcd13ifvqepg","pricing_plan_id":"cebpf4jnsgd1na2vs0mg"},{"bike_id":"579f6a9e-3f10-40f4-a2b5-bec337898fde","system_id":"levelo_inurba_marseille","lat":43.29927,"lon":5.37471,"is_reserved":false,"is_disabled":false,"rental_uris":{"android":"levelo://app?vid=579f6a9e-3f10-40f4-a2b5-bec337898fde","ios":"levelo://app?vid=579f6a9e-3f10-40f4-a2b5-bec337898fde"},"vehicle_type_id":"4","last_reported":1774017357,"current_range_meters":9200,"station_id":"ce4bgjh2rcd13ifvqbg0","pricing_plan_id":"cebpf4jnsgd1na2vs0mg"},{"bike_id":"ffee91b4-e1f4-4cfe-bfbf-9ca7434cffe2","system_id":"levelo_inurba_marseille","lat":43.27408,"lon":5.39423,"is_reserved":false,"is_disabled":true,"rental_uris":{"android":"levelo://app?vid=ffee91b4-e1f4-4cfe-bfbf-9ca7434cffe2","ios":"levelo://app?vid=ffee91b4-e1f4-4cfe-bfbf-9ca7434cffe2"},"vehicle_type_id":"4","last_reported":1774017357,"current_range_meters":9200,"station_id":"ce4bhdp2rcd13ifvqf20","pricing_plan_id":"cebpf4jnsgd1na2vs0mg"},{"bike_id":"0b2c6a9b-2915-41f7-aea8-701c94865c1f","system_id":"levelo_inurba_marseille","lat":43.28157,"lon":5.42631,"is_reserved":false,"is_disabled":false,"rental_uris":{"android":"levelo://app?vid=0b2c6a9b-2915-41f7-aea8-701c94865c1f","ios":"levelo://app?vid=0b2c6a9b-2915-41f7-aea8-701c94865c1f"},"vehicle_type_id":"4","last_reported":1774017357,"current_range_meters":9200,"station_id":"ce4bhnh2rcd13ifvqgug","pricing_plan_id":"cebpf4jnsgd1na2vs0mg"},{"bike_id":"558bb93e-42e9-44dd-8020-b873634352f1","system_id":"levelo_inurba_marseille","lat":43.28487,"lon":5.38547,"is_reserved":false,"is_disabled":false,"rental_uris":{"android":"levelo://app?vid=558bb93e-42e9-44dd-8020-b873634352f1","ios":"levelo://app?vid=558bb93e-42e9-44dd-8020-b873634352f1"},"vehicle_type_id":"4","last_reported":1774017357,"current_range_meters":9200,"station_id":"ce4bh8p2rcd13ifvqeb0","pricing_plan_id":"cebpf4jnsgd1na2vs0mg"},{"bike_id":"fa225d4c-b481-4eae-a4d6-4234063591e0","system_id":"levelo_inurba_marseille","lat":43.2119,"lon":5.35072,"is_reserved":false,"is_disabled":false,"rental_uris":{"android":"levelo://app?vid=fa225d4c-b481-4eae-a4d6-4234063591e0","ios":"levelo://app?vid=fa225d4c-b481-4eae-a4d6-4234063591e0"},"vehicle_type_id":"4","last_reported":1774017357,"current_range_meters":9200,"station_id":"","pricing_plan_id":"cebpf4jnsgd1na2vs0mg"},{"bike_id":"49393f3b-f329-4d01-9fb1-6c63b6508bf0","system_id":"levelo_inurba_marseille","lat":43.28843,"lon":5.35842,"is_reserved":false,"is_disabled":false,"rental_uris":{"android":"levelo://app?vid=49393f3b-f329-4d01-9fb1-6c63b6508bf0","ios":"levelo://app?vid=49393f3b-f329-4d01-9fb1-6c63b6508bf0"},"vehicle_type_id":"4","last_reported":1774017357,"current_range_meters":9200,"station_id":"ce4bhb12rcd13ifvqem0","pricing_plan_id":"cebpf4jnsgd1na2vs0mg"},{"bike_id":"aef78bd0-ea9a-490e-b29e-79fe1986976a","system_id":"levelo_inurba_marseille","lat":43.24656,"lon":5.38881,"is_reserved":false,"is_disabled":false,"rental_uris":{"android":"levelo://app?vid=aef78bd0-ea9a-490e-b29e-79fe1986976a","ios":"levelo://app?vid=aef78bd0-ea9a-490e-b29e-79fe1986976a"},"vehicle_type_id":"4","last_reported":1774017357,"current_range_meters":9200,"station_id":"ce4bhg12rcd13ifvqf60","pricing_plan_id":"cebpf4jnsgd1na2vs0mg"},{"bike_id":"64230c20-bfea-4fc5-9860-4a93e1ab7bcc","system_id":"levelo_inurba_marseille","lat":43.29175,"lon":5.35798,"is_reserved":false,"is_disabled":false,"rental_uris":{"android":"levelo://app?vid=64230c20-bfea-4fc5-9860-4a93e1ab7bcc","ios":"levelo://app?vid=64230c20-bfea-4fc5-9860-4a93e1ab7bcc"},"vehicle_type_id":"4","last_reported":1774017357,"current_range_meters":9200,"station_id":"ce4bhb12rcd13ifvqel0","pricing_plan_id":"cebpf4jnsgd1na2vs0mg"},{"bike_id":"b87d7938-28e4-46e7-994e-fdebd5392225","system_id":"levelo_inurba_marseille","lat":43.32105,"lon":5.36773,"is_reserved":false,"is_disabled":false,"rental_uris":{"android":"levelo://app?vid=b87d7938-28e4-46e7-994e-fdebd5392225","ios":"levelo://app?vid=b87d7938-28e4-46e7-994e-fdebd5392225"},"vehicle_type_id":"4","last_reported":1774017357,"current_range_meters":9200,"station_id":"ce4bhrh2rcd13ifvqhug","pricing_plan_id":"cebpf4jnsgd1na2vs0mg"},{"bike_id":"c9d3bf05-4fb6-474e-8422-a1cba5849edb","system_id":"levelo_inurba_marseille","lat":43.302557,"lon":5.400895,"is_reserved":false,"is_disabled":false,"rental_uris":{"android":"levelo://app?vid=c9d3bf05-4fb6-474e-8422-a1cba5849edb","ios":"levelo://app?vid=c9d3bf05-4fb6-474e-8422-a1cba5849edb"},"vehicle_type_id":"4","last_reported":1774017357,"current_range_meters":9600,"station_id":"ce4bgvh2rcd13ifvqcs0","pricing_plan_id":"cebpf4jnsgd1na2vs0mg"},{"bike_id":"79676942-3051-4c8d-9ec5-fa7181a0eac0","system_id":"levelo_inurba_marseille","lat":43.25114,"lon":5.40315,"is_reserved":false,"is_disabled":false,"rental_uris":{"android":"levelo://app?vid=79676942-3051-4c8d-9ec5-fa7181a0eac0","ios":"levelo://app?vid=79676942-3051-4c8d-9ec5-fa7181a0eac0"},"vehicle_type_id":"4","last_reported":1774017357,"current_range_meters":9600,"station_id":"ce4bhlh2rcd13ifvqgig","pricing_plan_id":"cebpf4jnsgd1na2vs0mg"},{"bike_id":"69e5862b-f343-4b27-ba3d-ee22ee84f251","system_id":"levelo_inurba_marseille","lat":43.29926,"lon":5.36546,"is_reserved":false,"is_disabled":false,"rental_uris":{"android":"levelo://app?vid=69e5862b-f343-4b27-ba3d-ee22ee84f251","ios":"levelo://app?vid=69e5862b-f343-4b27-ba3d-ee22ee84f251"},"vehicle_type_id":"4","last_reported":1774017357,"current_range_meters":9600,"station_id":"ce4bgm92rcd13ifvqbr0","pricing_plan_id":"cebpf4jnsgd1na2vs0mg"},{"bike_id":"cc777a7e-f3d4-4026-819d-66c6f1a5d2b6","system_id":"levelo_inurba_marseille","lat":43.29207,"lon":5.42593,"is_reserved":false,"is_disabled":false,"rental_uris":{"android":"levelo://app?vid=cc777a7e-f3d4-4026-819d-66c6f1a5d2b6","ios":"levelo://app?vid=cc777a7e-f3d4-4026-819d-66c6f1a5d2b6"},"vehicle_type_id":"4","last_reported":1774017357,"current_range_meters":9600,"station_id":"","pricing_plan_id":"cebpf4jnsgd1na2vs0mg"},{"bike_id":"92f32112-8a58-4a2d-8380-c50aa46da344","system_id":"levelo_inurba_marseille","lat":43.24061,"lon":5.36385,"is_reserved":false,"is_disabled":false,"rental_uris":{"android":"levelo://app?vid=92f32112-8a58-4a2d-8380-c50aa46da344","ios":"levelo://app?vid=92f32112-8a58-4a2d-8380-c50aa46da344"},"vehicle_type_id":"4","last_reported":1774017357,"current_range_meters":9600,"station_id":"","pricing_plan_id":"cebpf4jnsgd1na2vs0mg"},{"bike_id":"3676a395-9d4a-4d07-81c5-7b1d4a0acb38","system_id":"levelo_inurba_marseille","lat":43.3152,"lon":5.37297,"is_reserved":false,"is_disabled":false,"rental_uris":{"android":"levelo://app?vid=3676a395-9d4a-4d07-81c5-7b1d4a0acb38","ios":"levelo://app?vid=3676a395-9d4a-4d07-81c5-7b1d4a0acb38"},"vehicle_type_id":"4","last_reported":1774017357,"current_range_meters":9600,"station_id":"ce4bgt12rcd13ifvqcd0","pricing_plan_id":"cebpf4jnsgd1na2vs0mg"},{"bike_id":"360fd481-1b79-4851-bf35-4750a475ff1d","system_id":"levelo_inurba_marseille","lat":43.28621,"lon":5.35105,"is_reserved":false,"is_disabled":false,"rental_uris":{"android":"levelo://app?vid=360fd481-1b79-4851-bf35-4750a475ff1d","ios":"levelo://app?vid=360fd481-1b79-4851-bf35-4750a475ff1d"},"vehicle_type_id":"4","last_reported":1774017357,"current_range_meters":9600,"station_id":"ce4bhch2rcd13ifvqeug","pricing_plan_id":"cebpf4jnsgd1na2vs0mg"},{"bike_id":"9ac23d4b-5df2-4f22-919a-db52f5246dc1","system_id":"levelo_inurba_marseille","lat":43.2797,"lon":5.38737,"is_reserved":false,"is_disabled":false,"rental_uris":{"android":"levelo://app?vid=9ac23d4b-5df2-4f22-919a-db52f5246dc1","ios":"levelo://app?vid=9ac23d4b-5df2-4f22-919a-db52f5246dc1"},"vehicle_type_id":"4","last_reported":1774017357,"current_range_meters":9600,"station_id":"ce4bhg12rcd13ifvqf80","pricing_plan_id":"cebpf4jnsgd1na2vs0mg"},{"bike_id":"a8b3b22e-10f8-462d-91a6-f5b63bf4d876","system_id":"levelo_inurba_marseille","lat":43.30425,"lon":5.39744,"is_reserved":false,"is_disabled":false,"rental_uris":{"android":"levelo://app?vid=a8b3b22e-10f8-462d-91a6-f5b63bf4d876","ios":"levelo://app?vid=a8b3b22e-10f8-462d-91a6-f5b63bf4d876"},"vehicle_type_id":"4","last_reported":1774017357,"current_range_meters":9600,"station_id":"ce4bh092rcd13ifvqd20","pricing_plan_id":"cebpf4jnsgd1na2vs0mg"},{"bike_id":"5823234a-ebe5-4f73-a6ca-e22e8e37fb65","system_id":"levelo_inurba_marseille","lat":43.30785,"lon":5.37663,"is_reserved":false,"is_disabled":true,"rental_uris":{"android":"levelo://app?vid=5823234a-ebe5-4f73-a6ca-e22e8e37fb65","ios":"levelo://app?vid=5823234a-ebe5-4f73-a6ca-e22e8e37fb65"},"vehicle_type_id":"4","last_reported":1774017357,"current_range_meters":9600,"station_id":"ce4bgv92rcd13ifvqcq0","pricing_plan_id":"cebpf4jnsgd1na2vs0mg"},{"bike_id":"3c9d980d-f346-4d43-bd11-d2a07881646f","system_id":"levelo_inurba_marseille","lat":43.26071,"lon":5.39395,"is_reserved":false,"is_disabled":false,"rental_uris":{"android":"levelo://app?vid=3c9d980d-f346-4d43-bd11-d2a07881646f","ios":"levelo://app?vid=3c9d980d-f346-4d43-bd11-d2a07881646f"},"vehicle_type_id":"4","last_reported":1774017357,"current_range_meters":9600,"station_id":"ce4bhh92rcd13ifvqfj0","pricing_plan_id":"cebpf4jnsgd1na2vs0mg"},{"bike_id":"01644c2b-d562-4818-9c53-7fb90863c6f9","system_id":"levelo_inurba_marseille","lat":43.28347,"lon":5.38107,"is_reserved":false,"is_disabled":false,"rental_uris":{"android":"levelo://app?vid=01644c2b-d562-4818-9c53-7fb90863c6f9","ios":"levelo://app?vid=01644c2b-d562-4818-9c53-7fb90863c6f9"},"vehicle_type_id":"4","last_reported":1774017357,"current_range_meters":9600,"station_id":"ce4bh412rcd13ifvqdr0","pricing_plan_id":"cebpf4jnsgd1na2vs0mg"},{"bike_id":"94d7ff09-819e-489a-bb88-56ef8c2bc4bf","system_id":"levelo_inurba_marseille","lat":43.28415,"lon":5.34982,"is_reserved":false,"is_disabled":false,"rental_uris":{"android":"levelo://app?vid=94d7ff09-819e-489a-bb88-56ef8c2bc4bf","ios":"levelo://app?vid=94d7ff09-819e-489a-bb88-56ef8c2bc4bf"},"vehicle_type_id":"4","last_reported":1774017357,"current_range_meters":9600,"station_id":"ce4bhbh2rcd13ifvqepg","pricing_plan_id":"cebpf4jnsgd1na2vs0mg"},{"bike_id":"bb64248e-0e5d-4ee1-9d8f-d48a0dd77d66","system_id":"levelo_inurba_marseille","lat":43.21622,"lon":5.34464,"is_reserved":false,"is_disabled":false,"rental_uris":{"android":"levelo://app?vid=bb64248e-0e5d-4ee1-9d8f-d48a0dd77d66","ios":"levelo://app?vid=bb64248e-0e5d-4ee1-9d8f-d48a0dd77d66"},"vehicle_type_id":"4","last_reported":1774017357,"current_range_meters":9600,"station_id":"","pricing_plan_id":"cebpf4jnsgd1na2vs0mg"},{"bike_id":"f44e27c5-d3c1-470f-b047-cface7316b82","system_id":"levelo_inurba_marseille","lat":43.31237,"lon":5.36834,"is_reserved":false,"is_disabled":false,"rental_uris":{"android":"levelo://app?vid=f44e27c5-d3c1-470f-b047-cface7316b82","ios":"levelo://app?vid=f44e27c5-d3c1-470f-b047-cface7316b82"},"vehicle_type_id":"4","last_reported":1774017357,"current_range_meters":9600,"station_id":"ce4bgl92rcd13ifvqbq0","pricing_plan_id":"cebpf4jnsgd1na2vs0mg"},{"bike_id":"c9b3c56d-e58a-4122-ac1f-e329bf8c6d22","system_id":"levelo_inurba_marseille","lat":43.26677,"lon":5.38282,"is_reserved":false,"is_disabled":false,"rental_uris":{"android":"levelo://app?vid=c9b3c56d-e58a-4122-ac1f-e329bf8c6d22","ios":"levelo://app?vid=c9b3c56d-e58a-4122-ac1f-e329bf8c6d22"},"vehicle_type_id":"4","last_reported":1774017357,"current_range_meters":9600,"station_id":"ce4bhg92rcd13ifvqf90","pricing_plan_id":"cebpf4jnsgd1na2vs0mg"},{"bike_id":"98fd4811-f5fe-471b-acec-fa220e91fa77","system_id":"levelo_inurba_marseille","lat":43.3028,"lon":5.369,"is_reserved":false,"is_disabled":false,"rental_uris":{"android":"levelo://app?vid=98fd4811-f5fe-471b-acec-fa220e91fa77","ios":"levelo://app?vid=98fd4811-f5fe-471b-acec-fa220e91fa77"},"vehicle_type_id":"4","last_reported":1774017357,"current_range_meters":10000,"station_id":"ce4bgqh2rcd13ifvqc5g","pricing_plan_id":"cebpf4jnsgd1na2vs0mg"},{"bike_id":"9fc3100e-4d82-48d6-89bc-f6f291702956","system_id":"levelo_inurba_marseille","lat":43.31761,"lon":5.39005,"is_reserved":false,"is_disabled":false,"rental_uris":{"android":"levelo://app?vid=9fc3100e-4d82-48d6-89bc-f6f291702956","ios":"levelo://app?vid=9fc3100e-4d82-48d6-89bc-f6f291702956"},"vehicle_type_id":"4","last_reported":1774017357,"current_range_meters":10000,"station_id":"ce4bhqp2rcd13ifvqhng","pricing_plan_id":"cebpf4jnsgd1na2vs0mg"},{"bike_id":"df5ad533-8354-43dd-b4db-d4118becde63","system_id":"levelo_inurba_marseille","lat":43.28515,"lon":5.48317,"is_reserved":false,"is_disabled":false,"rental_uris":{"android":"levelo://app?vid=df5ad533-8354-43dd-b4db-d4118becde63","ios":"levelo://app?vid=df5ad533-8354-43dd-b4db-d4118becde63"},"vehicle_type_id":"4","last_reported":1774017357,"current_range_meters":10000,"station_id":"","pricing_plan_id":"cebpf4jnsgd1na2vs0mg"},{"bike_id":"dd0f6c85-b51e-4562-8646-e69311fbbbe0","system_id":"levelo_inurba_marseille","lat":43.29008,"lon":5.35609,"is_reserved":false,"is_disabled":false,"rental_uris":{"android":"levelo://app?vid=dd0f6c85-b51e-4562-8646-e69311fbbbe0","ios":"levelo://app?vid=dd0f6c85-b51e-4562-8646-e69311fbbbe0"},"vehicle_type_id":"4","last_reported":1774017357,"current_range_meters":10000,"station_id":"ce4bhb92rcd13ifvqen0","pricing_plan_id":"cebpf4jnsgd1na2vs0mg"},{"bike_id":"f679e1f0-7274-496e-9bfd-1e40b7ada538","system_id":"levelo_inurba_marseille","lat":43.270692,"lon":5.422856,"is_reserved":false,"is_disabled":false,"rental_uris":{"android":"levelo://app?vid=f679e1f0-7274-496e-9bfd-1e40b7ada538","ios":"levelo://app?vid=f679e1f0-7274-496e-9bfd-1e40b7ada538"},"vehicle_type_id":"4","last_reported":1774017357,"current_range_meters":10000,"station_id":"ce4bhk92rcd13ifvqgb0","pricing_plan_id":"cebpf4jnsgd1na2vs0mg"},{"bike_id":"d9a2340f-4dc0-456b-89f0-454af4d93a65","system_id":"levelo_inurba_marseille","lat":43.28506,"lon":5.35124,"is_reserved":false,"is_disabled":false,"rental_uris":{"android":"levelo://app?vid=d9a2340f-4dc0-456b-89f0-454af4d93a65","ios":"levelo://app?vid=d9a2340f-4dc0-456b-89f0-454af4d93a65"},"vehicle_type_id":"4","last_reported":1774017357,"current_range_meters":10000,"station_id":"","pricing_plan_id":"cebpf4jnsgd1na2vs0mg"},{"bike_id":"c2b52866-248f-424d-b0b0-f737703f3470","system_id":"levelo_inurba_marseille","lat":43.23064,"lon":5.35485,"is_reserved":false,"is_disabled":false,"rental_uris":{"android":"levelo://app?vid=c2b52866-248f-424d-b0b0-f737703f3470","ios":"levelo://app?vid=c2b52866-248f-424d-b0b0-f737703f3470"},"vehicle_type_id":"4","last_reported":1774017357,"current_range_meters":10000,"station_id":"cpo3342slgdg3j2ifvpg","pricing_plan_id":"cebpf4jnsgd1na2vs0mg"},