{"last_updated":1729494617,"ttl":60,"version":"2.2","data":{"bikes":[{"bike_id":"abb54e6d-c05e-44fb-b455-5b5f6ff628fa","system_id":"levelo_inurba_marseille","lat":43.29306,"lon":5.37464,"is_reserved":false,"is_disabled":false,"rental_uris":{"android":"levelo://app?vid=abb54e6d-c05e-44fb-b455-5b5f6ff628fa","ios":"levelo://app?vid=abb54e6d-c05e-44fb-b455-5b5f6ff628fa"},"vehicle_type_id":"4","last_reported":1729494617,"current_range_meters":32800,"station_id":"ce4bgi12rcd13ifvqb70","pricing_plan_id":"cebpf4jnsgd1na2vs0mg"},{"bike_id":"45e39af7-2318-411e-bd12-f66a360408d2","system_id":"levelo_inurba_marseille","lat":43.30466,"lon":5.37899,"is_reserved":false,"is_disabled":false,"rental_uris":{"android":"levelo://app?vid=45e39af7-2318-411e-bd12-f66a360408d2","ios":"levelo://app?vid=45e39af7-2318-411e-bd12-f66a360408d2"},"vehicle_type_id":"4","last_reported":1729494617,"current_range_meters":22800,"station_id":"ce4bgup2rcd13ifvqcn0","pricing_plan_id":"cebpf4jnsgd1na2vs0mg"},{"bike_id":"04cc92cc-2f07-489b-aab4-02bc92fdd9a8","system_id":"levelo_inurba_marseille","lat":43.30148,"lon":5.37432,"is_reserved":false,"is_disabled":false,"rental_uris":{"android":"levelo://app?vid=04cc92cc-2f07-489b-aab4-02bc92fdd9a8","ios":"levelo://app?vid=04cc92cc-2f07-489b-aab4-02bc92fdd9a8"},"vehicle_type_id":"4","last_reported":1729494617,"current_range_meters":12800,"station_id":"ce4bgs92rcd13ifvqcc0","pricing_plan_id":"cebpf4jnsgd1na2vs0mg"},{"bike_id":"685a354f-ff49-4ca8-a6ba-515d8049af7f","system_id":"levelo_inurba_marseille","lat":43.2761,"lon":5.36117,"is_reserved":false,"is_disabled":false,"rental_uris":{"android":"levelo://app?vid=685a354f-ff49-4ca8-a6ba-515d8049af7f","ios":"levelo://app?vid=685a354f-ff49-4ca8-a6ba-515d8049af7f"},"vehicle_type_id":"4","last_reported":1729494617,"current_range_meters":38800,"station_id":"ce4bgj92rcd13ifvqbe0","pricing_plan_id":"cebpf4jnsgd1na2vs0mg"},{"bike_id":"f069a0dc-5a55-4e02-b8d3-b52288048f52","system_id":"levelo_inurba_marseille","lat":43.30904,"lon":5.36852,"is_reserved":false,"is_disabled":false,"rental_uris":{"android":"levelo://app?vid=f069a0dc-5a55-4e02-b8d3-b52288048f52","ios":"levelo://app?vid=f069a0dc-5a55-4e02-b8d3-b52288048f52"},"vehicle_type_id":"4","last_reported":1729494617,"current_range_meters":38800,"station_id":"ce4bgn92rcd13ifvqbvg","pricing_plan_id":"cebpf4jnsgd1na2vs0mg"},{"bike_id":"e87b7e43-d266-42f2-bb17-a0593f82e999","system_id":"levelo_inurba_marseille","lat":43.31994,"lon":5.38151,"is_reserved":false,"is_disabled":false,"rental_uris":{"android":"levelo://app?vid=e87b7e43-d266-42f2-bb17-a0593f82e999","ios":"levelo://app?vid=e87b7e43-d266-42f2-bb17-a0593f82e999"},"vehicle_type_id":"4","last_reported":1729494617,"current_range_meters":14800,"station_id":"ce4bhr12rcd13ifvqhpg","pricing_plan_id":"cebpf4jnsgd1na2vs0mg"},{"bike_id":"95421779-55b0-4daa-83d6-60107af9d13d","system_id":"levelo_inurba_marseille","lat":43.305746,"lon":5.372618,"is_reserved":false,"is_disabled":false,"rental_uris":{"android":"levelo://app?vid=95421779-55b0-4daa-83d6-60107af9d13d","ios":"levelo://app?vid=95421779-55b0-4daa-83d6-60107af9d13d"},"vehicle_type_id":"4","last_reported":1729494617,"current_range_meters":36400,"station_id":"ce4bgqh2rcd13ifvqc4g","pricing_plan_id":"cebpf4jnsgd1na2vs0mg"},{"bike_id":"085e07f2-6a9a-433e-87cd-72acccbbcfff","system_id":"levelo_inurba_marseille","lat":43.29933,"lon":5.36548,"is_reserved":false,"is_disabled":false,"rental_uris":{"android":"levelo://app?vid=085e07f2-6a9a-433e-87cd-72acccbbcfff","ios":"levelo://app?vid=085e07f2-6a9a-433e-87cd-72acccbbcfff"},"vehicle_type_id":"4","last_reported":1729494617,"current_range_meters":16400,"station_id":"ce4bgm92rcd13ifvqbr0","pricing_plan_id":"cebpf4jnsgd1na2vs0mg"},{"bike_id":"af7a85fd-d938-45a0-ac2a-28b8f293932b","system_id":"levelo_inurba_marseille","lat":43.27203,"lon":5.39186,"is_reserved":false,"is_disabled":false,"rental_uris":{"android":"levelo://app?vid=af7a85fd-d938-45a0-ac2a-28b8f293932b","ios":"levelo://app?vid=af7a85fd-d938-45a0-ac2a-28b8f293932b"},"vehicle_type_id":"4","last_reported":1729494617,"current_range_meters":34000,"station_id":"ce4bhhp2rcd13ifvqfm0","pricing_plan_id":"cebpf4jnsgd1na2vs0mg"},{"bike_id":"415e15ae-cf52-4bf6-9f98-9af3ff185e52","system_id":"levelo_inurba_marseille","lat":43.34139,"lon":5.40908,"is_reserved":false,"is_disabled":false,"rental_uris":{"android":"levelo://app?vid=415e15ae-cf52-4bf6-9f98-9af3ff185e52","ios":"levelo://app?vid=415e15ae-cf52-4bf6-9f98-9af3ff185e52"},"vehicle_type_id":"4","last_reported":1729494617,"current_range_meters":30800,"station_id":"ce4bhqh2rcd13ifvqhlg","pricing_plan_id":"cebpf4jnsgd1na2vs0mg"},{"bike_id":"7a6ba3d7-846e-45d3-92b4-25ce5cda8a53","system_id":"levelo_inurba_marseille","lat":43.3373,"lon":5.39179,"is_reserved":false,"is_disabled":false,"rental_uris":{"android":"levelo://app?vid=7a6ba3d7-846e-45d3-92b4-25ce5cda8a53","ios":"levelo://app?vid=7a6ba3d7-846e-45d3-92b4-25ce5cda8a53"},"vehicle_type_id":"4","last_reported":1729494617,"current_range_meters":38800,"station_id":"ce4bhr92rcd13ifvqhsg","pricing_plan_id":"cebpf4jnsgd1na2vs0mg"},{"bike_id":"3f9992d8-818f-4658-8f0e-450cebf37db9","system_id":"levelo_inurba_marseille","lat":43.31343,"lon":5.36726,"is_reserved":false,"is_disabled":false,"rental_uris":{"android":"levelo://app?vid=3f9992d8-818f-4658-8f0e-450cebf37db9","ios":"levelo://app?vid=3f9992d8-818f-4658-8f0e-450cebf37db9"},"vehicle_type_id":"4","last_reported":1729494617,"current_range_meters":26000,"station_id":"ce4bgr92rcd13ifvqc6g","pricing_plan_id":"cebpf4jnsgd1na2vs0mg"},{"bike_id":"465d277d-c8de-4a34-9875-808758c00c7a","system_id":"levelo_inurba_marseille","lat":43.34131,"lon":5.40903,"is_reserved":false,"is_disabled":false,"rental_uris":{"android":"levelo://app?vid=465d277d-c8de-4a34-9875-808758c00c7a","ios":"levelo://app?vid=465d277d-c8de-4a34-9875-808758c00c7a"},"vehicle_type_id":"4","last_reported":1729494617,"current_range_meters":22400,"station_id":"ce4bhqh2rcd13ifvqhlg","pricing_plan_id":"cebpf4jnsgd1na2vs0mg"},{"bike_id":"0f491606-ac20-4a1f-8f30-46b9fbdf2c51","system_id":"levelo_inurba_marseille","lat":43.23186,"lon":5.3998,"is_reserved":false,"is_disabled":false,"rental_uris":{"android":"levelo://app?vid=0f491606-ac20-4a1f-8f30-46b9fbdf2c51","ios":"levelo://app?vid=0f491606-ac20-4a1f-8f30-46b9fbdf2c51"},"vehicle_type_id":"4","last_reported":1729494617,"current_range_meters":16400,"station_id":"ce4bhn12rcd13ifvqgqg","pricing_plan_id":"cebpf4jnsgd1na2vs0mg"},{"bike_id":"b3034772-5e70-40f7-a829-0910dfe1fa3d","system_id":"levelo_inurba_marseille","lat":43.25937,"lon":5.40903,"is_reserved":false,"is_disabled":false,"rental_uris":{"android":"levelo://app?vid=b3034772-5e70-40f7-a829-0910dfe1fa3d","ios":"levelo://app?vid=b3034772-5e70-40f7-a829-0910dfe1fa3d"},"vehicle_type_id":"4","last_reported":1729494617,"current_range_meters":24800,"station_id":"ce4bhm92rcd13ifvqglg","pricing_plan_id":"cebpf4jnsgd1na2vs0mg"},{"bike_id":"837cc759-4813-47d2-80e9-fb6f06f986e3","system_id":"levelo_inurba_marseille","lat":43.287,"lon":5.39987,"is_reserved":false,"is_disabled":false,"rental_uris":{"android":"levelo://app?vid=837cc759-4813-47d2-80e9-fb6f06f986e3","ios":"levelo://app?vid=837cc759-4813-47d2-80e9-fb6f06f986e3"},"vehicle_type_id":"4","last_reported":1729494617,"current_range_meters":16800,"station_id":"ce4bho92rcd13ifvqh3g","pricing_plan_id":"cebpf4jnsgd1na2vs0mg"},{"bike_id":"007b32f2-d55b-454a-941e-fca8801044b6","system_id":"levelo_inurba_marseille","lat":43.26199,"lon":5.37929,"is_reserved":false,"is_disabled":false,"rental_uris":{"android":"levelo://app?vid=007b32f2-d55b-454a-941e-fca8801044b6","ios":"levelo://app?vid=007b32f2-d55b-454a-941e-fca8801044b6"},"vehicle_type_id":"4","last_reported":1729494617,"current_range_meters":38800,"station_id":"ce4bhjp2rcd13ifvqg90","pricing_plan_id":"cebpf4jnsgd1na2vs0mg"},{"bike_id":"8e45225c-4772-4a88-b2e0-e37c273a9609","system_id":"levelo_inurba_marseille","lat":43.23152,"lon":5.43721,"is_reserved":false,"is_disabled":false,"rental_uris":{"android":"levelo://app?vid=8e45225c-4772-4a88-b2e0-e37c273a9609","ios":"levelo://app?vid=8e45225c-4772-4a88-b2e0-e37c273a9609"},"vehicle_type_id":"4","last_reported":1729494617,"current_range_meters":32000,"station_id":"ce4bhmp2rcd13ifvqgog","pricing_plan_id":"cebpf4jnsgd1na2vs0mg"},{"bike_id":"ddb0c8fc-b648-4e27-af66-b46073413c59","system_id":"levelo_inurba_marseille","lat":43.31338,"lon":5.36718,"is_reserved":false,"is_disabled":false,"rental_uris":{"android":"levelo://app?vid=ddb0c8fc-b648-4e27-af66-b46073413c59","ios":"levelo://app?vid=ddb0c8fc-b648-4e27-af66-b46073413c59"},"vehicle_type_id":"4","last_reported":1729494617,"current_range_meters":30800,"station_id":"ce4bgr92rcd13ifvqc6g","pricing_plan_id":"cebpf4jnsgd1na2vs0mg"},{"bike_id":"bc7668b3-2850-4d02-8bb0-719a9bd73c47","system_id":"levelo_inurba_marseille","lat":43.32654,"lon":5.40988,"is_reserved":false,"is_disabled":false,"rental_uris":{"android":"levelo://app?vid=bc7668b3-2850-4d02-8bb0-719a9bd73c47","ios":"levelo://app?vid=bc7668b3-2850-4d02-8bb0-719a9bd73c47"},"vehicle_type_id":"4","last_reported":1729494617,"current_range_meters":10800,"station_id":"ce4bhpp2rcd13ifvqhgg","pricing_plan_id":"cebpf4jnsgd1na2vs0mg"},{"bike_id":"fe6df0bc-802d-4ee3-942a-d7e2343f47b0","system_id":"levelo_inurba_marseille","lat":43.29569,"lon":5.37505,"is_reserved":false,"is_disabled":false,"rental_uris":{"android":"levelo://app?vid=fe6df0bc-802d-4ee3-942a-d7e2343f47b0","ios":"levelo://app?vid=fe6df0bc-802d-4ee3-942a-d7e2343f47b0"},"vehicle_type_id":"4","last_reported":1729494617,"current_range_meters":10800,"station_id":"ce4bgh92rcd13ifvqb50","pricing_plan_id":"cebpf4jnsgd1na2vs0mg"},{"bike_id":"cffc72a1-9762-4ffa-83d6-8b9856072bf4","system_id":"levelo_inurba_marseille","lat":43.317158,"lon":5.424065,"is_reserved":false,"is_disabled":false,"rental_uris":{"android":"levelo://app?vid=cffc72a1-9762-4ffa-83d6-8b9856072bf4","ios":"levelo://app?vid=cffc72a1-9762-4ffa-83d6-8b9856072bf4"},"vehicle_type_id":"4","last_reported":1729494617,"current_range_meters":38800,"station_id":"ce4bhp92rcd13ifvqhbg","pricing_plan_id":"cebpf4jnsgd1na2vs0mg"},{"bike_id":"bda848a9-9c0f-4e86-b399-a0580de506e0","system_id":"levelo_inurba_marseille","lat":43.27622,"lon":5.36108,"is_reserved":false,"is_disabled":false,"rental_uris":{"android":"levelo://app?vid=bda848a9-9c0f-4e86-b399-a0580de506e0","ios":"levelo://app?vid=bda848a9-9c0f-4e86-b399-a0580de506e0"},"vehicle_type_id":"4","last_reported":1729494617,"current_range_meters":36800,"station_id":"ce4bgj92rcd13ifvqbe0","pricing_plan_id":"cebpf4jnsgd1na2vs0mg"},{"bike_id":"37a4f9f2-5f27-41f6-8e49-92d6bbb82296","system_id":"levelo_inurba_marseille","lat":43.23191,"lon":5.35549,"is_reserved":false,"is_disabled":false,"rental_uris":{"android":"levelo://app?vid=37a4f9f2-5f27-41f6-8e49-92d6bbb82296","ios":"levelo://app?vid=37a4f9f2-5f27-41f6-8e49-92d6bbb82296"},"vehicle_type_id":"4","last_reported":1729494617,"current_range_meters":36400,"station_id":"ce4bhu92rcd13ifvqi70","pricing_plan_id":"cebpf4jnsgd1na2vs0mg"},{"bike_id":"e81ea765-23ff-4177-97c5-a724bc0d5f71","system_id":"levelo_inurba_marseille","lat":43.27216,"lon":5.39179,"is_reserved":false,"is_disabled":false,"rental_uris":{"android":"levelo://app?vid=e81ea765-23ff-4177-97c5-a724bc0d5f71","ios":"levelo://app?vid=e81ea765-23ff-4177-97c5-a724bc0d5f71"},"vehicle_type_id":"4","last_reported":1729494617,"current_range_meters":38800,"station_id":"ce4bhhp2rcd13ifvqfm0","pricing_plan_id":"cebpf4jnsgd1na2vs0mg"},{"bike_id":"1db03509-90ea-4c45-99cf-b673ae48504b","system_id":"levelo_inurba_marseille","lat":43.240895,"lon":5.37751,"is_reserved":false,"is_disabled":false,"rental_uris":{"android":"levelo://app?vid=1db03509-90ea-4c45-99cf-b673ae48504b","ios":"levelo://app?vid=1db03509-90ea-4c45-99cf-b673ae48504b"},"vehicle_type_id":"4","last_reported":1729494617,"current_range_meters":30800,"station_id":"ce4bhnp2rcd13ifvqgvg","pricing_plan_id":"cebpf4jnsgd1na2vs0mg"},{"bike_id":"f982a2ea-0271-43f3-b22e-ea172281f0ed","system_id":"levelo_inurba_marseille","lat":43.30463,"lon":5.37906,"is_reserved":false,"is_disabled":false,"rental_uris":{"android":"levelo://app?vid=f982a2ea-0271-43f3-b22e-ea172281f0ed","ios":"levelo://app?vid=f982a2ea-0271-43f3-b22e-ea172281f0ed"},"vehicle_type_id":"4","last_reported":1729494617,"current_range_meters":28800,"station_id":"ce4bgup2rcd13ifvqcn0","pricing_plan_id":"cebpf4jnsgd1na2vs0mg"},{"bike_id":"95b594b4-cc17-43e6-b358-6f2adf8d0775","system_id":"levelo_inurba_marseille","lat":43.29025,"lon":5.39977,"is_reserved":false,"is_disabled":false,"rental_uris":{"android":"levelo://app?vid=95b594b4-cc17-43e6-b358-6f2adf8d0775","ios":"levelo://app?vid=95b594b4-cc17-43e6-b358-6f2adf8d0775"},"vehicle_type_id":"4","last_reported":1729494617,"current_range_meters":38000,"station_id":"ce4bh392rcd13ifvqdm0","pricing_plan_id":"cebpf4jnsgd1na2vs0mg"},{"bike_id":"367a7833-4300-445d-9e62-34e6dc1aeeb1","system_id":"levelo_inurba_marseille","lat":43.33612,"lon":5.41035,"is_reserved":false,"is_disabled":false,"rental_uris":{"android":"levelo://app?vid=367a7833-4300-445d-9e62-34e6dc1aeeb1","ios":"levelo://app?vid=367a7833-4300-445d-9e62-34e6dc1aeeb1"},"vehicle_type_id":"4","last_reported":1729494617,"current_range_meters":35600,"station_id":"ce4bhqh2rcd13ifvqhmg","pricing_plan_id":"cebpf4jnsgd1na2vs0mg"},{"bike_id":"b1544199-bb0e-462a-bbd6-c0296d866345","system_id":"levelo_inurba_marseille","lat":43.28104,"lon":5.37834,"is_reserved":false,"is_disabled":false,"rental_uris":{"android":"levelo://app?vid=b1544199-bb0e-462a-bbd6-c0296d866345","ios":"levelo://app?vid=b1544199-bb0e-462a-bbd6-c0296d866345"},"vehicle_type_id":"4","last_reported":1729494617,"current_range_meters":27600,"station_id":"ce4bha12rcd13ifvqee0","pricing_plan_id":"cebpf4jnsgd1na2vs0mg"},{"bike_id":"5b47cbfd-3740-4a35-b9bd-478cf093a87d","system_id":"levelo_inurba_marseille","lat":43.23955,"lon":5.36627,"is_reserved":false,"is_disabled":false,"rental_uris":{"android":"levelo://app?vid=5b47cbfd-3740-4a35-b9bd-478cf093a87d","ios":"levelo://app?vid=5b47cbfd-3740-4a35-b9bd-478cf093a87d"},"vehicle_type_id":"4","last_reported":1729494617,"current_range_meters":24400,"station_id":"ce4bhi12rcd13ifvqfp0","pricing_plan_id":"cebpf4jnsgd1na2vs0mg"},{"bike_id":"9cdd8dd9-b29f-454d-ae53-de682a959e62","system_id":"levelo_inurba_marseille","lat":43.32367,"lon":5.38884,"is_reserved":false,"is_disabled":false,"rental_uris":{"android":"levelo://app?vid=9cdd8dd9-b29f-454d-ae53-de682a959e62","ios":"levelo://app?vid=9cdd8dd9-b29f-454d-ae53-de682a959e62"},"vehicle_type_id":"4","last_reported":1729494617,"current_range_meters":38000,"station_id":"ce4bhqp2rcd13ifvqhog","pricing_plan_id":"cebpf4jnsgd1na2vs0mg"},{"bike_id":"f8811201-1962-4bba-b529-81ea5759f902","system_id":"levelo_inurba_marseille","lat":43.29305,"lon":5.37463,"is_reserved":false,"is_disabled":false,"rental_uris":{"android":"levelo://app?vid=f8811201-1962-4bba-b529-81ea5759f902","ios":"levelo://app?vid=f8811201-1962-4bba-b529-81ea5759f902"},"vehicle_type_id":"4","last_reported":1729494617,"current_range_meters":36800,"station_id":"ce4bgi12rcd13ifvqb70","pricing_plan_id":"cebpf4jnsgd1na2vs0mg"},{"bike_id":"4eeaf0c9-1610-4ecb-acbf-9d8b7b9f4f98","system_id":"levelo_inurba_marseille","lat":43.30795,"lon":5.38166,"is_reserved":false,"is_disabled":false,"rental_uris":{"android":"levelo://app?vid=4eeaf0c9-1610-4ecb-acbf-9d8b7b9f4f98","ios":"levelo://app?vid=4eeaf0c9-1610-4ecb-acbf-9d8b7b9f4f98"},"vehicle_type_id":"4","last_reported":1729494617,"current_range_meters":2800,"station_id":"ce4bgt12rcd13ifvqce0","pricing_plan_id":"cebpf4jnsgd1na2vs0mg"},{"bike_id":"58342ce2-48b6-4554-b620-09ec4681a912","system_id":"levelo_inurba_marseille","lat":43.23955,"lon":5.36621,"is_reserved":false,"is_disabled":false,"rental_uris":{"android":"levelo://app?vid=58342ce2-48b6-4554-b620-09ec4681a912","ios":"levelo://app?vid=58342ce2-48b6-4554-b620-09ec4681a912"},"vehicle_type_id":"4","last_reported":1729494617,"current_range_meters":36800,"station_id":"ce4bhi12rcd13ifvqfp0","pricing_plan_id":"cebpf4jnsgd1na2vs0mg"},{"bike_id":"ff65d4d5-a08a-4411-964b-7de22636cd62","system_id":"levelo_inurba_marseille","lat":43.25001,"lon":5.38923,"is_reserved":false,"is_disabled":false,"rental_uris":{"android":"levelo://app?vid=ff65d4d5-a08a-4411-964b-7de22636cd62","ios":"levelo://app?vid=ff65d4d5-a08a-4411-964b-7de22636cd62"},"vehicle_type_id":"4","last_reported":1729494617,"current_range_meters":21600,"station_id":"ce4bhgp2rcd13ifvqfd0","pricing_plan_id":"cebpf4jnsgd1na2vs0mg"},{"bike_id":"8ccdd67c-d5de-43d7-9429-0857f5f447d9","system_id":"levelo_inurba_marseille","lat":43.30137,"lon":5.37424,"is_reserved":false,"is_disabled":false,"rental_uris":{"android":"levelo://app?vid=8ccdd67c-d5de-43d7-9429-0857f5f447d9","ios":"levelo://app?vid=8ccdd67c-d5de-43d7-9429-0857f5f447d9"},"vehicle_type_id":"4","last_reported":1729494617,"current_range_meters":19200,"station_id":"ce4bgs92rcd13ifvqcc0","pricing_plan_id":"cebpf4jnsgd1na2vs0mg"},{"bike_id":"7a0ab312-b352-44c4-87a1-5a8ea290c2b1","system_id":"levelo_inurba_marseille","lat":43.28158,"lon":5.42639,"is_reserved":false,"is_disabled":false,"rental_uris":{"android":"levelo://app?vid=7a0ab312-b352-44c4-87a1-5a8ea290c2b1","ios":"levelo://app?vid=7a0ab312-b352-44c4-87a1-5a8ea290c2b1"},"vehicle_type_id":"4","last_reported":1729494617,"current_range_meters":28400,"station_id":"ce4bhnh2rcd13ifvqgug","pricing_plan_id":"cebpf4jnsgd1na2vs0mg"},{"bike_id":"bc2f0004-0838-42e1-b42c-b6da33355750","system_id":"levelo_inurba_marseille","lat":43.30557,"lon":5.36551,"is_reserved":false,"is_disabled":false,"rental_uris":{"android":"levelo://app?vid=bc2f0004-0838-42e1-b42c-b6da33355750","ios":"levelo://app?vid=bc2f0004-0838-42e1-b42c-b6da33355750"},"vehicle_type_id":"4","last_reported":1729494617,"current_range_meters":31200,"station_id":"ce4bgs12rcd13ifvqcag","pricing_plan_id":"cebpf4jnsgd1na2vs0mg"},{"bike_id":"6fc5767c-7409-405d-8c24-4a08a7e916fc","system_id":"levelo_inurba_marseille","lat":43.24078,"lon":5.37752,"is_reserved":false,"is_disabled":false,"rental_uris":{"android":"levelo://app?vid=6fc5767c-7409-405d-8c24-4a08a7e916fc","ios":"levelo://app?vid=6fc5767c-7409-405d-8c24-4a08a7e916fc"},"vehicle_type_id":"4","last_reported":1729494617,"current_range_meters":38000,"station_id":"ce4bhnp2rcd13ifvqgvg","pricing_plan_id":"cebpf4jnsgd1na2vs0mg"},{"bike_id":"a3566e3f-3d8a-4eb0-90c2-ad687f6f5f7a","system_id":"levelo_inurba_marseille","lat":43.29568,"lon":5.3996,"is_reserved":false,"is_disabled":false,"rental_uris":{"android":"levelo://app?vid=a3566e3f-3d8a-4eb0-90c2-ad687f6f5f7a","ios":"levelo://app?vid=a3566e3f-3d8a-4eb0-90c2-ad687f6f5f7a"},"vehicle_type_id":"4","last_reported":1729494617,"current_range_meters":32000,"station_id":"ce4bh312rcd13ifvqdj0","pricing_plan_id":"cebpf4jnsgd1na2vs0mg"},{"bike_id":"7baafccc-f243-4381-9dc7-cb5a4f2816d8","system_id":"levelo_inurba_marseille","lat":43.26421,"lon":5.38689,"is_reserved":false,"is_disabled":false,"rental_uris":{"android":"levelo://app?vid=7baafccc-f243-4381-9dc7-cb5a4f2816d8","ios":"levelo://app?vid=7baafccc-f243-4381-9dc7-cb5a4f2816d8"},"vehicle_type_id":"4","last_reported":1729494617,"current_range_meters":15200,"station_id":"","pricing_plan_id":"cebpf4jnsgd1na2vs0mg"},{"bike_id":"541c4793-0686-4664-9a51-6e30e93cf10b","system_id":"levelo_inurba_marseille","lat":43.33752,"lon":5.37457,"is_reserved":false,"is_disabled":false,"rental_uris":{"android":"levelo://app?vid=541c4793-0686-4664-9a51-6e30e93cf10b","ios":"levelo://app?vid=541c4793-0686-4664-9a51-6e30e93cf10b"},"vehicle_type_id":"4","last_reported":1729494617,"current_range_meters":8400,"station_id":"","pricing_plan_id":"cebpf4jnsgd1na2vs0mg"},{"bike_id":"f649ba29-fbd0-4bfe-89f9-8f962a7e95e5","system_id":"levelo_inurba_marseille","lat":43.31491,"lon":5.37299,"is_reserved":false,"is_disabled":false,"rental_uris":{"android":"levelo://app?vid=f649ba29-fbd0-4bfe-89f9-8f962a7e95e5","ios":"levelo://app?vid=f649ba29-fbd0-4bfe-89f9-8f962a7e95e5"},"vehicle_type_id":"4","last_reported":1729494617,"current_range_meters":36000,"station_id":"ce4bgt12rcd13ifvqcd0","pricing_plan_id":"cebpf4jnsgd1na2vs0mg"},{"bike_id":"f69ca7ef-2996-4441-8144-e9b3853af022","system_id":"levelo_inurba_marseille","lat":43.25936,"lon":5.40909,"is_reserved":false,"is_disabled":false,"rental_uris":{"android":"levelo://app?vid=f69ca7ef-2996-4441-8144-e9b3853af022","ios":"levelo://app?vid=f69ca7ef-2996-4441-8144-e9b3853af022"},"vehicle_type_id":"4","last_reported":1729494617,"current_range_meters":22800,"station_id":"ce4bhm92rcd13ifvqglg","pricing_plan_id":"cebpf4jnsgd1na2vs0mg"},{"bike_id":"e36e8b70-cdbc-4b6c-9fe9-c4fbf657cc2e","system_id":"levelo_inurba_marseille","lat":43.31507,"lon":5.3896,"is_reserved":false,"is_disabled":false,"rental_uris":{"android":"levelo://app?vid=e36e8b70-cdbc-4b6c-9fe9-c4fbf657cc2e","ios":"levelo://app?vid=e36e8b70-cdbc-4b6c-9fe9-c4fbf657cc2e"},"vehicle_type_id":"4","last_reported":1729494617,"current_range_meters":24000,"station_id":"","pricing_plan_id":"cebpf4jnsgd1na2vs0mg"},{"bike_id":"ceabaa9b-7104-4954-80e9-ea25b0177bdf","system_id":"levelo_inurba_marseille","lat":43.33613,"lon":5.4104,"is_reserved":false,"is_disabled":false,"rental_uris":{"android":"levelo://app?vid=ceabaa9b-7104-4954-80e9-ea25b0177bdf","ios":"levelo://app?vid=ceabaa9b-7104-4954-80e9-ea25b0177bdf"},"vehicle_type_id":"4","last_reported":1729494617,"current_range_meters":27200,"station_id":"ce4bhqh2rcd13ifvqhmg","pricing_plan_id":"cebpf4jnsgd1na2vs0mg"},{"bike_id":"7174d7df-f95a-491a-a34e-a4275caac552","system_id":"levelo_inurba_marseille","lat":43.26683,"lon":5.38273,"is_reserved":false,"is_disabled":false,"rental_uris":{"android":"levelo://app?vid=7174d7df-f95a-491a-a34e-a4275caac552","ios":"levelo://app?vid=7174d7df-f95a-491a-a34e-a4275caac552"},"vehicle_type_id":"4","last_reported":1729494617,"current_range_meters":22000,"station_id":"ce4bhg92rcd13ifvqf90","pricing_plan_id":"cebpf4jnsgd1na2vs0mg"},{"bike_id":"cd0dce23-200f-416c-916b-7be9d153fea3","system_id":"levelo_inurba_marseille","lat":43.26058,"lon":5.3855,"is_reserved":false,"is_disabled":false,"rental_uris":{"android":"levelo://app?vid=cd0dce23-200f-416c-916b-7be9d153fea3","ios":"levelo://app?vid=cd0dce23-200f-416c-916b-7be9d153fea3"},"vehicle_type_id":"4","last_reported":1729494617,"current_range_meters":16000,"station_id":"","pricing_plan_id":"cebpf4jnsgd1na2vs0mg"},{"bike_id":"2a70a4ef-06e2-4c25-840b-e62a87183d1e","system_id":"levelo_inurba_marseille","lat":43.3122,"lon":5.36858,"is_reserved":false,"is_disabled":false,"rental_uris":{"android":"levelo://app?vid=2a70a4ef-06e2-4c25-840b-e62a87183d1e","ios":"levelo://app?vid=2a70a4ef-06e2-4c25-840b-e62a87183d1e"},"vehicle_type_id":"4","last_reported":1729494617,"current_range_meters":31200,"station_id":"ce4bgl92rcd13ifvqbq0","pricing_plan_id":"cebpf4jnsgd1na2vs0mg"},{"bike_id":"23115ac6-aff5-45af-87d0-ffdacdb28fd5","system_id":"levelo_inurba_marseille","lat":43.22929,"lon":5.35376,"is_reserved":false,"is_disabled":false,"rental_uris":{"android":"levelo://app?vid=23115ac6-aff5-45af-87d0-ffdacdb28fd5","ios":"levelo://app?vid=23115ac6-aff5-45af-87d0-ffdacdb28fd5"},"vehicle_type_id":"4","last_reported":1729494617,"current_range_meters":37600,"station_id":"cpo3532slgdg3j2ikp40","pricing_plan_id":"cebpf4jnsgd1na2vs0mg"},{"bike_id":"6aae074d-8b36-4100-8be6-d32b69ac67aa","system_id":"levelo_inurba_marseille","lat":43.31691,"lon":5.40469,"is_reserved":false,"is_disabled":false,"rental_uris":{"android":"levelo://app?vid=6aae074d-8b36-4100-8be6-d32b69ac67aa","ios":"levelo://app?vid=6aae074d-8b36-4100-8be6-d32b69ac67aa"},"vehicle_type_id":"4","last_reported":1729494617,"current_range_meters":24800,"station_id":"ce4bh012rcd13ifvqd00","pricing_plan_id":"cebpf4jnsgd1na2vs0mg"},{"bike_id":"86f680b7-d8d0-45c2-bd6c-7639aae30d26","system_id":"levelo_inurba_marseille","lat":43.2418,"lon":5.39731,"is_reserved":false,"is_disabled":false,"rental_uris":{"android":"levelo://app?vid=86f680b7-d8d0-45c2-bd6c-7639aae30d26","ios":"levelo://app?vid=86f680b7-d8d0-45c2-bd6c-7639aae30d26"},"vehicle_type_id":"4","last_reported":1729494617,"current_range_meters":20800,"station_id":"ce4bhn12rcd13ifvqgpg","pricing_plan_id":"cebpf4jnsgd1na2vs0mg"},{"bike_id":"3074eab9-5df2-4549-8df7-c8447d4f5d38","system_id":"levelo_inurba_marseille","lat":43.23191,"lon":5.39976,"is_reserved":false,"is_disabled":false,"rental_uris":{"android":"levelo://app?vid=3074eab9-5df2-4549-8df7-c8447d4f5d38","ios":"levelo://app?vid=3074eab9-5df2-4549-8df7-c8447d4f5d38"},"vehicle_type_id":"4","last_reported":1729494617,"current_range_meters":28400,"station_id":"ce4bhn12rcd13ifvqgqg","pricing_plan_id":"cebpf4jnsgd1na2vs0mg"},{"bike_id":"8deeda66-aa1d-41a6-95c2-fd6566620e6a","system_id":"levelo_inurba_marseille","lat":43.32476,"lon":5.36712,"is_reserved":false,"is_disabled":false,"rental_uris":{"android":"levelo://app?vid=8deeda66-aa1d-41a6-95c2-fd6566620e6a","ios":"levelo://app?vid=8deeda66-aa1d-41a6-95c2-fd6566620e6a"},"vehicle_type_id":"4","last_reported":1729494617,"current_range_meters":36400,"station_id":"ce4bhs12rcd13ifvqhvg","pricing_plan_id":"cebpf4jnsgd1na2vs0mg"},{"bike_id":"9b67ac7f-281a-4f0d-b938-9755eabc9ca3","system_id":"levelo_inurba_marseille","lat":43.30546,"lon":5.36713,"is_reserved":false,"is_disabled":false,"rental_uris":{"android":"levelo://app?vid=9b67ac7f-281a-4f0d-b938-9755eabc9ca3","ios":"levelo://app?vid=9b67ac7f-281a-4f0d-b938-9755eabc9ca3"},"vehicle_type_id":"4","last_reported":1729494617,"current_range_meters":29600,"station_id":"ce4bgrp2rcd13ifvqc9g","pricing_plan_id":"cebpf4jnsgd1na2vs0mg"},{"bike_id":"d4357e72-ffad-4e88-b012-4b64d985e8ee","system_id":"levelo_inurba_marseille","lat":43.31483,"lon":5.37314,"is_reserved":false,"is_disabled":false,"rental_uris":{"android":"levelo://app?vid=d4357e72-ffad-4e88-b012-4b64d985e8ee","ios":"levelo://app?vid=d4357e72-ffad-4e88-b012-4b64d985e8ee"},"vehicle_type_id":"4","last_reported":1729494617,"current_range_meters":38800,"station_id":"ce4bgt12rcd13ifvqcd0","pricing_plan_id":"cebpf4jnsgd1na2vs0mg"},{"bike_id":"f77d75a0-21c8-4ccc-bba5-f5d7d460aa1d","system_id":"levelo_inurba_marseille","lat":43.2955,"lon":5.42273,"is_reserved":false,"is_disabled":false,"rental_uris":{"android":"levelo://app?vid=f77d75a0-21c8-4ccc-bba5-f5d7d460aa1d","ios":"levelo://app?vid=f77d75a0-21c8-4ccc-bba5-f5d7d460aa1d"},"vehicle_type_id":"4","last_reported":1729494617,"current_range_meters":35200,"station_id":"ce4bhph2rcd13ifvqhdg","pricing_plan_id":"cebpf4jnsgd1na2vs0mg"},{"bike_id":"e3bd1799-d90a-4b0d-9087-8873a9f9f703","system_id":"levelo_inurba_marseille","lat":43.3054,"lon":5.36553,"is_reserved":false,"is_disabled":false,"rental_uris":{"android":"levelo://app?vid=e3bd1799-d90a-4b0d-9087-8873a9f9f703","ios":"levelo://app?vid=e3bd1799-d90a-4b0d-9087-8873a9f9f703"},"vehicle_type_id":"4","last_reported":1729494617,"current_range_meters":37600,"station_id":"ce4bgs12rcd13ifvqcag","pricing_plan_id":"cebpf4jnsgd1na2vs0mg"},{"bike_id":"dba008c7-8936-49f9-9648-f5f3c66ff3ca","system_id":"levelo_inurba_marseille","lat":43.29274,"lon":5.36854,"is_reserved":false,"is_disabled":false,"rental_uris":{"android":"levelo://app?vid=dba008c7-8936-49f9-9648-f5f3c66ff3ca","ios":"levelo://app?vid=dba008c7-8936-49f9-9648-f5f3c66ff3ca"},"vehicle_type_id":"4","last_reported":1729494617,"current_range_meters":24800,"station_id":"ce4bhbp2rcd13ifvqesg","pricing_plan_id":"cebpf4jnsgd1na2vs0mg"},{"bike_id":"fb4c1f40-f843-4a8a-8dc9-8cb92e4b3334","system_id":"levelo_inurba_marseille","lat":43.26947,"lon":5.4024,"is_reserved":false,"is_disabled":false,"rental_uris":{"android":"levelo://app?vid=fb4c1f40-f843-4a8a-8dc9-8cb92e4b3334","ios":"levelo://app?vid=fb4c1f40-f843-4a8a-8dc9-8cb92e4b3334"},"vehicle_type_id":"4","last_reported":1729494617,"current_range_meters":28400,"station_id":"cjm6bp8fraef2m0cb0m0","pricing_plan_id":"cebpf4jnsgd1na2vs0mg"},{"bike_id":"9e9796c2-ce92-408f-b9e0-895128ce3124","system_id":"levelo_inurba_marseille","lat":43.2668,"lon":5.38276,"is_reserved":false,"is_disabled":false,"rental_uris":{"android":"levelo://app?vid=9e9796c2-ce92-408f-b9e0-895128ce3124","ios":"levelo://app?vid=9e9796c2-ce92-408f-b9e0-895128ce3124"},"vehicle_type_id":"4","last_reported":1729494617,"current_range_meters":5600,"station_id":"ce4bhg92rcd13ifvqf90","pricing_plan_id":"cebpf4jnsgd1na2vs0mg"},{"bike_id":"5a86c739-e9af-4128-91c4-dda5abb05701","system_id":"levelo_inurba_marseille","lat":43.3361,"lon":5.4104,"is_reserved":false,"is_disabled":false,"rental_uris":{"android":"levelo://app?vid=5a86c739-e9af-4128-91c4-dda5abb05701","ios":"levelo://app?vid=5a86c739-e9af-4128-91c4-dda5abb05701"},"vehicle_type_id":"4","last_reported":1729494617,"current_range_meters":8400,"station_id":"ce4bhqh2rcd13ifvqhmg","pricing_plan_id":"cebpf4jnsgd1na2vs0mg"},{"bike_id":"6c389916-dedb-420b-8fbd-5618f7e63567","system_id":"levelo_inurba_marseille","lat":43.28847,"lon":5.39336,"is_reserved":false,"is_disabled":false,"rental_uris":{"android":"levelo://app?vid=6c389916-dedb-420b-8fbd-5618f7e63567","ios":"levelo://app?vid=6c389916-dedb-420b-8fbd-5618f7e63567"},"vehicle_type_id":"4","last_reported":1729494617,"current_range_meters":22800,"station_id":"ce4bh2p2rcd13ifvqdi0","pricing_plan_id":"cebpf4jnsgd1na2vs0mg"},{"bike_id":"82b8f13b-15d0-4f6f-b8f5-4e31fd9cbd91","system_id":"levelo_inurba_marseille","lat":43.27322,"lon":5.39075,"is_reserved":false,"is_disabled":false,"rental_uris":{"android":"levelo://app?vid=82b8f13b-15d0-4f6f-b8f5-4e31fd9cbd91","ios":"levelo://app?vid=82b8f13b-15d0-4f6f-b8f5-4e31fd9cbd91"},"vehicle_type_id":"4","last_reported":1729494617,"current_range_meters":37600,"station_id":"ce4bhgp2rcd13ifvqfe0","pricing_plan_id":"cebpf4jnsgd1na2vs0mg"},{"bike_id":"d06a881c-f80d-48b8-9719-6afcceb956d7","system_id":"levelo_inurba_marseille","lat":43.3302,"lon":5.39035,"is_reserved":false,"is_disabled":false,"rental_uris":{"android":"levelo://app?vid=d06a881c-f80d-48b8-9719-6afcceb956d7","ios":"levelo://app?vid=d06a881c-f80d-48b8-9719-6afcceb956d7"},"vehicle_type_id":"4","last_reported":1729494617,"current_range_meters":38800,"station_id":"ce4bhr92rcd13ifvqhrg","pricing_plan_id":"cebpf4jnsgd1na2vs0mg"},{"bike_id":"f4d3038a-f2d7-4f1c-b878-63b80a4d48a1","system_id":"levelo_inurba_marseille","lat":43.270786,"lon":5.422891,"is_reserved":false,"is_disabled":false,"rental_uris":{"android":"levelo://app?vid=f4d3038a-f2d7-4f1c-b878-63b80a4d48a1","ios":"levelo://app?vid=f4d3038a-f2d7-4f1c-b878-63b80a4d48a1"},"vehicle_type_id":"4","last_reported":1729494617,"current_range_meters":33600,"station_id":"ce4bhk92rcd13ifvqgb0","pricing_plan_id":"cebpf4jnsgd1na2vs0mg"},{"bike_id":"3701adb6-e87b-44e7-b5b8-a659a9565d5b","system_id":"levelo_inurba_marseille","lat":43.2408,"lon":5.37754,"is_reserved":false,"is_disabled":false,"rental_uris":{"android":"levelo://app?vid=3701adb6-e87b-44e7-b5b8-a659a9565d5b","ios":"levelo://app?vid=3701adb6-e87b-44e7-b5b8-a659a9565d5b"},"vehicle_type_id":"4","last_reported":1729494617,"current_range_meters":6400,"station_id":"ce4bhnp2rcd13ifvqgvg","pricing_plan_id":"cebpf4jnsgd1na2vs0mg"},{"bike_id":"fc2db51a-f0ef-4e75-ad3a-b27ae4dc3a7b","system_id":"levelo_inurba_marseille","lat":43.32482,"lon":5.36569,"is_reserved":false,"is_disabled":false,"rental_uris":{"android":"levelo://app?vid=fc2db51a-f0ef-4e75-ad3a-b27ae4dc3a7b","ios":"levelo://app?vid=fc2db51a-f0ef-4e75-ad3a-b27ae4dc3a7b"},"vehicle_type_id":"4","last_reported":1729494617,"current_range_meters":19200,"station_id":"ce4bhs12rcd13ifvqhvg","pricing_plan_id":"cebpf4jnsgd1na2vs0mg"},{"bike_id":"766da900-471d-42f5-8cfa-8db494f945d7","system_id":"levelo_inurba_marseille","lat":43.28908,"lon":5.46046,"is_reserved":false,"is_disabled":false,"rental_uris":{"android":"levelo://app?vid=766da900-471d-42f5-8cfa-8db494f945d7","ios":"levelo://app?vid=766da900-471d-42f5-8cfa-8db494f945d7"},"vehicle_type_id":"4","last_reported":1729494617,"current_range_meters":20400,"station_id":"","pricing_plan_id":"cebpf4jnsgd1na2vs0mg"},{"bike_id":"2fdf444c-bdb9-478f-ad75-22e42eee449c","system_id":"levelo_inurba_marseille","lat":43.31335,"lon":5.36739,"is_reserved":false,"is_disabled":false,"rental_uris":{"android":"levelo://app?vid=2fdf444c-bdb9-478f-ad75-22e42eee449c","ios":"levelo://app?vid=2fdf444c-bdb9-478f-ad75-22e42eee449c"},"vehicle_type_id":"4","last_reported":1729494617,"current_range_meters":31200,"station_id":"ce4bgr92rcd13ifvqc6g","pricing_plan_id":"cebpf4jnsgd1na2vs0mg"},{"bike_id":"2b732e07-d55f-46d2-9872-de0a6a9ddc8d","system_id":"levelo_inurba_marseille","lat":43.27612,"lon":5.36114,"is_reserved":false,"is_disabled":false,"rental_uris":{"android":"levelo://app?vid=2b732e07-d55f-46d2-9872-de0a6a9ddc8d","ios":"levelo://app?vid=2b732e07-d55f-46d2-9872-de0a6a9ddc8d"},"vehicle_type_id":"4","last_reported":1729494617,"current_range_meters":38400,"station_id":"ce4bgj92rcd13ifvqbe0","pricing_plan_id":"cebpf4jnsgd1na2vs0mg"},{"bike_id":"97b3151a-beeb-4204-b70d-b8d1a0c99d9e","system_id":"levelo_inurba_marseille","lat":43.304623,"lon":5.379064,"is_reserved":false,"is_disabled":false,"rental_uris":{"android":"levelo://app?vid=97b3151a-beeb-4204-b70d-b8d1a0c99d9e","ios":"levelo://app?vid=97b3151a-beeb-4204-b70d-b8d1a0c99d9e"},"vehicle_type_id":"4","last_reported":1729494617,"current_range_meters":38800,"station_id":"ce4bgup2rcd13ifvqcn0","pricing_plan_id":"cebpf4jnsgd1na2vs0mg"},{"bike_id":"4a5dc7f8-2f34-473f-9ce7-f2a853f522d2","system_id":"levelo_inurba_marseille","lat":43.30462,"lon":5.37898,"is_reserved":false,"is_disabled":false,"rental_uris":{"android":"levelo://app?vid=4a5dc7f8-2f34-473f-9ce7-f2a853f522d2","ios":"levelo://app?vid=4a5dc7f8-2f34-473f-9ce7-f2a853f522d2"},"vehicle_type_id":"4","last_reported":1729494617,"current_range_meters":38000,"station_id":"ce4bgup2rcd13ifvqcn0","pricing_plan_id":"cebpf4jnsgd1na2vs0mg"},{"bike_id":"0b923dd1-548c-4e5f-8039-71a30a1aa65f","system_id":"levelo_inurba_marseille","lat":43.34144,"lon":5.40902,"is_reserved":false,"is_disabled":false,"rental_uris":{"android":"levelo://app?vid=0b923dd1-548c-4e5f-8039-71a30a1aa65f","ios":"levelo://app?vid=0b923dd1-548c-4e5f-8039-71a30a1aa65f"},"vehicle_type_id":"4","last_reported":1729494617,"current_range_meters":23200,"station_id":"ce4bhqh2rcd13ifvqhlg","pricing_plan_id":"cebpf4jnsgd1na2vs0mg"},{"bike_id":"d1d1a053-caf5-4039-8ccb-3ddbb1660832","system_id":"levelo_inurba_marseille","lat":43.29553,"lon":5.42289,"is_reserved":false,"is_disabled":false,"rental_uris":{"android":"levelo://app?vid=d1d1a053-caf5-4039-8ccb-3ddbb1660832","ios":"levelo://app?vid=d1d1a053-caf5-4039-8ccb-3ddbb1660832"},"vehicle_type_id":"4","last_reported":1729494617,"current_range_meters":24800,"station_id":"ce4bhph2rcd13ifvqhdg","pricing_plan_id":"cebpf4jnsgd1na2vs0mg"},{"bike_id":"1c9d2093-b203-4c44-b1dd-0fa8de5b00a9","system_id":"levelo_inurba_marseille","lat":43.28999,"lon":5.35618,"is_reserved":false,"is_disabled":false,"rental_uris":{"android":"levelo://app?vid=1c9d2093-b203-4c44-b1dd-0fa8de5b00a9","ios":"levelo://app?vid=1c9d2093-b203-4c44-b1dd-0fa8de5b00a9"},"vehicle_type_id":"4","last_reported":1729494617,"current_range_meters":38800,"station_id":"ce4bhb92rcd13ifvqen0","pricing_plan_id":"cebpf4jnsgd1na2vs0mg"},{"bike_id":"5be11f9f-081a-478e-9c7b-6a3633c0017b","system_id":"levelo_inurba_marseille","lat":43.25716,"lon":5.41112,"is_reserved":false,"is_disabled":false,"rental_uris":{"android":"levelo://app?vid=5be11f9f-081a-478e-9c7b-6a3633c0017b","ios":"levelo://app?vid=5be11f9f-081a-478e-9c7b-6a3633c0017b"},"vehicle_type_id":"4","last_reported":1729494617,"current_range_meters":1600,"station_id":"ce4bhkp2rcd13ifvqgd0","pricing_plan_id":"cebpf4jnsgd1na2vs0mg"},{"bike_id":"94a416d3-6230-47ed-9d07-570324db174d","system_id":"levelo_inurba_marseille","lat":43.24802,"lon":5.37454,"is_reserved":false,"is_disabled":false,"rental_uris":{"android":"levelo://app?vid=94a416d3-6230-47ed-9d07-570324db174d","ios":"levelo://app?vid=94a416d3-6230-47ed-9d07-570324db174d"},"vehicle_type_id":"4","last_reported":1729494617,"current_range_meters":38000,"station_id":"ce4bhgh2rcd13ifvqfb0","pricing_plan_id":"cebpf4jnsgd1na2vs0mg"},{"bike_id":"80784dfe-c582-466f-95ad-8e743e8a562c","system_id":"levelo_inurba_marseille","lat":43.30267,"lon":5.37712,"is_reserved":false,"is_disabled":false,"rental_uris":{"android":"levelo://app?vid=80784dfe-c582-466f-95ad-8e743e8a562c","ios":"levelo://app?vid=80784dfe-c582-466f-95ad-8e743e8a562c"},"vehicle_type_id":"4","last_reported":1729494617,"current_range_meters":36400,"station_id":"ce4bguh2rcd13ifvqcj0","pricing_plan_id":"cebpf4jnsgd1na2vs0mg"},{"bike_id":"7bedf3cc-c91b-4c35-88ea-218fb8352c24","system_id":"levelo_inurba_marseille","lat":43.30273,"lon":5.37723,"is_reserved":false,"is_disabled":false,"rental_uris":{"android":"levelo://app?vid=7bedf3cc-c91b-4c35-88ea-218fb8352c24","ios":"levelo://app?vid=7bedf3cc-c91b-4c35-88ea-218fb8352c24"},"vehicle_type_id":"4","last_reported":1729494617,"current_range_meters":23200,"station_id":"ce4bguh2rcd13ifvqcj0","pricing_plan_id":"cebpf4jnsgd1na2vs0mg"},{"bike_id":"3a90cd5a-8d84-4a1f-9da8-3547bb5d20c1","system_id":"levelo_inurba_marseille","lat":43.23192,"lon":5.35549,"is_reserved":false,"is_disabled":false,"rental_uris":{"android":"levelo://app?vid=3a90cd5a-8d84-4a1f-9da8-3547bb5d20c1","ios":"levelo://app?vid=3a90cd5a-8d84-4a1f-9da8-3547bb5d20c1"},"vehicle_type_id":"4","last_reported":1729494617,"current_range_meters":38800,"station_id":"ce4bhu92rcd13ifvqi70","pricing_plan_id":"cebpf4jnsgd1na2vs0mg"},{"bike_id":"40fd65dc-2bb7-4b02-9e2b-7382b6a4de76","system_id":"levelo_inurba_marseille","lat":43.32657,"lon":5.40992,"is_reserved":false,"is_disabled":false,"rental_uris":{"android":"levelo://app?vid=40fd65dc-2bb7-4b02-9e2b-7382b6a4de76","ios":"levelo://app?vid=40fd65dc-2bb7-4b02-9e2b-7382b6a4de76"},"vehicle_type_id":"4","last_reported":1729494617,"current_range_meters":38800,"station_id":"ce4bhpp2rcd13ifvqhgg","pricing_plan_id":"cebpf4jnsgd1na2vs0mg"},{"bike_id":"b0fa5059-f20e-4983-a7a9-b5e7b43c7eff","system_id":"levelo_inurba_marseille","lat":43.26685,"lon":5.38275,"is_reserved":false,"is_disabled":false,"rental_uris":{"android":"levelo://app?vid=b0fa5059-f20e-4983-a7a9-b5e7b43c7eff","ios":"levelo://app?vid=b0fa5059-f20e-4983-a7a9-b5e7b43c7eff"},"vehicle_type_id":"4","last_reported":1729494617,"current_range_meters":38800,"station_id":"ce4bhg92rcd13ifvqf90","pricing_plan_id":"cebpf4jnsgd1na2vs0mg"},{"bike_id":"bddf1334-d888-40f8-b6e9-18b5529cf0f4","system_id":"levelo_inurba_marseille","lat":43.31681,"lon":5.37538,"is_reserved":false,"is_disabled":false,"rental_uris":{"android":"levelo://app?vid=bddf1334-d888-40f8-b6e9-18b5529cf0f4","ios":"levelo://app?vid=bddf1334-d888-40f8-b6e9-18b5529cf0f4"},"vehicle_type_id":"4","last_reported":1729494617,"current_range_meters":17600,"station_id":"","pricing_plan_id":"cebpf4jnsgd1na2vs0mg"},{"bike_id":"27d7397b-3a64-4c8d-985f-c89fa0625145","system_id":"levelo_inurba_marseille","lat":43.2319,"lon":5.35543,"is_reserved":false,"is_disabled":false,"rental_uris":{"android":"levelo://app?vid=27d7397b-3a64-4c8d-985f-c89fa0625145","ios":"levelo://app?vid=27d7397b-3a64-4c8d-985f-c89fa0625145"},"vehicle_type_id":"4","last_reported":1729494617,"current_range_meters":38400,"station_id":"ce4bhu92rcd13ifvqi70","pricing_plan_id":"cebpf4jnsgd1na2vs0mg"},{"bike_id":"396caf0e-ebd0-4c45-bbc5-ea3130fe74f3","system_id":"levelo_inurba_marseille","lat":43.29352,"lon":5.37846,"is_reserved":false,"is_disabled":false,"rental_uris":{"android":"levelo://app?vid=396caf0e-ebd0-4c45-bbc5-ea3130fe74f3","ios":"levelo://app?vid=396caf0e-ebd0-4c45-bbc5-ea3130fe74f3"},"vehicle_type_id":"4","last_reported":1729494617,"current_range_meters":38000,"station_id":"ce4bgjh2rcd13ifvqbf0","pricing_plan_id":"cebpf4jnsgd1na2vs0mg"},{"bike_id":"1accd2dd-ae27-42de-9ff0-0cd151a368cd","system_id":"levelo_inurba_marseille","lat":43.28151,"lon":5.42647,"is_reserved":false,"is_disabled":false,"rental_uris":{"android":"levelo://app?vid=1accd2dd-ae27-42de-9ff0-0cd151a368cd","ios":"levelo://app?vid=1accd2dd-ae27-42de-9ff0-0cd151a368cd"},"vehicle_type_id":"4","last_reported":1729494617,"current_range_meters":34800,"station_id":"ce4bhnh2rcd13ifvqgug","pricing_plan_id":"cebpf4jnsgd1na2vs0mg"},{"bike_id":"9879c1e7-8c45-42aa-ba65-39609989c26e","system_id":"levelo_inurba_marseille","lat":43.32478,"lon":5.3657,"is_reserved":false,"is_disabled":false,"rental_uris":{"android":"levelo://app?vid=9879c1e7-8c45-42aa-ba65-39609989c26e","ios":"levelo://app?vid=9879c1e7-8c45-42aa-ba65-39609989c26e"},"vehicle_type_id":"4","last_reported":1729494617,"current_range_meters":36000,"station_id":"ce4bhs12rcd13ifvqhvg","pricing_plan_id":"cebpf4jnsgd1na2vs0mg"},{"bike_id":"b7a735d7-f1dd-4ee6-9916-5d65507bb1f6","system_id":"levelo_inurba_marseille","lat":43.33608,"lon":5.41032,"is_reserved":false,"is_disabled":false,"rental_uris":{"android":"levelo://app?vid=b7a735d7-f1dd-4ee6-9916-5d65507bb1f6","ios":"levelo://app?vid=b7a735d7-f1dd-4ee6-9916-5d65507bb1f6"},"vehicle_type_id":"4","last_reported":1729494617,"current_range_meters":32400,"station_id":"ce4bhqh2rcd13ifvqhmg","pricing_plan_id":"cebpf4jnsgd1na2vs0mg"},{"bike_id":"3213665e-989c-4d22-9f5a-31c8522597dd","system_id":"levelo_inurba_marseille","lat":43.296,"lon":5.36142,"is_reserved":false,"is_disabled":false,"rental_uris":{"android":"levelo://app?vid=3213665e-989c-4d22-9f5a-31c8522597dd","ios":"levelo://app?vid=3213665e-989c-4d22-9f5a-31c8522597dd"},"vehicle_type_id":"4","last_reported":1729494617,"current_range_meters":11600,"station_id":"","pricing_plan_id":"cebpf4jnsgd1na2vs0mg"},{"bike_id":"a92add63-8344-42f2-992a-ab67d0098ee7","system_id":"levelo_inurba_marseille","lat":43.302032,"lon":5.383332,"is_reserved":false,"is_disabled":false,"rental_uris":{"android":"levelo://app?vid=a92add63-8344-42f2-992a-ab67d0098ee7","ios":"levelo://app?vid=a92add63-8344-42f2-992a-ab67d0098ee7"},"vehicle_type_id":"4","last_reported":1729494617,"current_range_meters":30800,"station_id":"ce4bh012rcd13ifvqcv0","pricing_plan_id":"cebpf4jnsgd1na2vs0mg"},{"bike_id":"584f6c19-9858-4b93-836c-f01a970b5e91","system_id":"levelo_inurba_marseille","lat":43.30463,"lon":5.37892,"is_reserved":false,"is_disabled":false,"rental_uris":{"android":"levelo://app?vid=584f6c19-9858-4b93-836c-f01a970b5e91","ios":"levelo://app?vid=584f6c19-9858-4b93-836c-f01a970b5e91"},"vehicle_type_id":"4","last_reported":1729494617,"current_range_meters":25600,"station_id":"ce4bgup2rcd13ifvqcn0","pricing_plan_id":"cebpf4jnsgd1na2vs0mg"},{"bike_id":"e0f52fbe-2799-4b21-adf4-9f6f2a2a4a15","system_id":"levelo_inurba_marseille","lat":43.31327,"lon":5.36747,"is_reserved":false,"is_disabled":false,"rental_uris":{"android":"levelo://app?vid=e0f52fbe-2799-4b21-adf4-9f6f2a2a4a15","ios":"levelo://app?vid=e0f52fbe-2799-4b21-adf4-9f6f2a2a4a15"},"vehicle_type_id":"4","last_reported":1729494617,"current_range_meters":38800,"station_id":"ce4bgr92rcd13ifvqc6g","pricing_plan_id":"cebpf4jnsgd1na2vs0mg"},{"bike_id":"9a2117f0-c5b0-4dc2-891b-026a24af23f1","system_id":"levelo_inurba_marseille","lat":43.3105,"lon":5.40092,"is_reserved":false,"is_disabled":false,"rental_uris":{"android":"levelo://app?vid=9a2117f0-c5b0-4dc2-891b-026a24af23f1","ios":"levelo://app?vid=9a2117f0-c5b0-4dc2-891b-026a24af23f1"},"vehicle_type_id":"4","last_reported":1729494617,"current_range_meters":32400,"station_id":"","pricing_plan_id":"cebpf4jnsgd1na2vs0mg"},{"bike_id":"150b2076-fa3d-4436-b76f-3b9f9d8be659","system_id":"levelo_inurba_marseille","lat":43.33603,"lon":5.4103,"is_reserved":false,"is_disabled":false,"rental_uris":{"android":"levelo://app?vid=150b2076-fa3d-4436-b76f-3b9f9d8be659","ios":"levelo://app?vid=150b2076-fa3d-4436-b76f-3b9f9d8be659"},"vehicle_type_id":"4","last_reported":1729494617,"current_range_meters":38400,"station_id":"ce4bhqh2rcd13ifvqhmg","pricing_plan_id":"cebpf4jnsgd1na2vs0mg"},{"bike_id":"d56c1027-3f82-4ee2-be22-0a6f81faea4e","system_id":"levelo_inurba_marseille","lat":43.30903,"lon":5.36854,"is_reserved":false,"is_disabled":false,"rental_uris":{"android":"levelo://app?vid=d56c1027-3f82-4ee2-be22-0a6f81faea4e","ios":"levelo://app?vid=d56c1027-3f82-4ee2-be22-0a6f81faea4e"},"vehicle_type_id":"4","last_reported":1729494617,"current_range_meters":38800,"station_id":"ce4bgn92rcd13ifvqbvg","pricing_plan_id":"cebpf4jnsgd1na2vs0mg"},{"bike_id":"2cfc7470-0924-496d-a1c3-b7271900a5b5","system_id":"levelo_inurba_marseille","lat":43.23195,"lon":5.35549,"is_reserved":false,"is_disabled":false,"rental_uris":{"android":"levelo://app?vid=2cfc7470-0924-496d-a1c3-b7271900a5b5","ios":"levelo://app?vid=2cfc7470-0924-496d-a1c3-b7271900a5b5"},"vehicle_type_id":"4","last_reported":1729494617,"current_range_meters":17200,"station_id":"ce4bhu92rcd13ifvqi70","pricing_plan_id":"cebpf4jnsgd1na2vs0mg"},{"bike_id":"342c9352-427d-4901-9e43-5bbb6deaa204","system_id":"levelo_inurba_marseille","lat":43.30317,"lon":5.36897,"is_reserved":false,"is_disabled":false,"rental_uris":{"android":"levelo://app?vid=342c9352-427d-4901-9e43-5bbb6deaa204","ios":"levelo://app?vid=342c9352-427d-4901-9e43-5bbb6deaa204"},"vehicle_type_id":"4","last_reported":1729494617,"current_range_meters":36800,"station_id":"ce4bgqh2rcd13ifvqc5g","pricing_plan_id":"cebpf4jnsgd1na2vs0mg"},{"bike_id":"2dab364a-105f-4114-b23b-94bcd65aad82","system_id":"levelo_inurba_marseille","lat":43.28152,"lon":5.42645,"is_reserved":false,"is_disabled":false,"rental_uris":{"android":"levelo://app?vid=2dab364a-105f-4114-b23b-94bcd65aad82","ios":"levelo://app?vid=2dab364a-105f-4114-b23b-94bcd65aad82"},"vehicle_type_id":"4","last_reported":1729494617,"current_range_meters":28000,"station_id":"ce4bhnh2rcd13ifvqgug","pricing_plan_id":"cebpf4jnsgd1na2vs0mg"},{"bike_id":"2b710056-10d8-45d7-a2cd-48f9f477421f","system_id":"levelo_inurba_marseille","lat":43.25578,"lon":5.38238,"is_reserved":false,"is_disabled":false,"rental_uris":{"android":"levelo://app?vid=2b710056-10d8-45d7-a2cd-48f9f477421f","ios":"levelo://app?vid=2b710056-10d8-45d7-a2cd-48f9f477421f"},"vehicle_type_id":"4","last_reported":1729494617,"current_range_meters":23200,"station_id":"ce4bhih2rcd13ifvqfs0","pricing_plan_id":"cebpf4jnsgd1na2vs0mg"},{"bike_id":"5d5ca3e6-06a9-4ef4-88f8-e8d21bffc448","system_id":"levelo_inurba_marseille","lat":43.3234,"lon":5.40617,"is_reserved":false,"is_disabled":false,"rental_uris":{"android":"levelo://app?vid=5d5ca3e6-06a9-4ef4-88f8-e8d21bffc448","ios":"levelo://app?vid=5d5ca3e6-06a9-4ef4-88f8-e8d21bffc448"},"vehicle_type_id":"4","last_reported":1729494617,"current_range_meters":38400,"station_id":"ce4bhq92rcd13ifvqhjg","pricing_plan_id":"cebpf4jnsgd1na2vs0mg"},{"bike_id":"cc13a32f-941e-42ff-8488-1e49fc35b02a","system_id":"levelo_inurba_marseille","lat":43.25001,"lon":5.38923,"is_reserved":false,"is_disabled":false,"rental_uris":{"android":"levelo://app?vid=cc13a32f-941e-42ff-8488-1e49fc35b02a","ios":"levelo://app?vid=cc13a32f-941e-42ff-8488-1e49fc35b02a"},"vehicle_type_id":"4","last_reported":1729494617,"current_range_meters":11600,"station_id":"ce4bhgp2rcd13ifvqfd0","pricing_plan_id":"cebpf4jnsgd1na2vs0mg"},{"bike_id":"cbd78056-fac2-4efa-a084-334371a0cf39","system_id":"levelo_inurba_marseille","lat":43.25942,"lon":5.40909,"is_reserved":false,"is_disabled":false,"rental_uris":{"android":"levelo://app?vid=cbd78056-fac2-4efa-a084-334371a0cf39","ios":"levelo://app?vid=cbd78056-fac2-4efa-a084-334371a0cf39"},"vehicle_type_id":"4","last_reported":1729494617,"current_range_meters":28000,"station_id":"ce4bhm92rcd13ifvqglg","pricing_plan_id":"cebpf4jnsgd1na2vs0mg"},{"bike_id":"dd5450cd-ff1d-4ef6-8c3f-8bb1e7bd15bd","system_id":"levelo_inurba_marseille","lat":43.30883,"lon":5.37205,"is_reserved":false,"is_disabled":false,"rental_uris":{"android":"levelo://app?vid=dd5450cd-ff1d-4ef6-8c3f-8bb1e7bd15bd","ios":"levelo://app?vid=dd5450cd-ff1d-4ef6-8c3f-8bb1e7bd15bd"},"vehicle_type_id":"4","last_reported":1729494617,"current_range_meters":12800,"station_id":"ce4bguh2rcd13ifvqckg","pricing_plan_id":"cebpf4jnsgd1na2vs0mg"},{"bike_id":"9b0cae09-aed8-4c2a-872b-df83b11d6d51","system_id":"levelo_inurba_marseille","lat":43.29964,"lon":5.37195,"is_reserved":false,"is_disabled":false,"rental_uris":{"android":"levelo://app?vid=9b0cae09-aed8-4c2a-872b-df83b11d6d51","ios":"levelo://app?vid=9b0cae09-aed8-4c2a-872b-df83b11d6d51"},"vehicle_type_id":"4","last_reported":1729494617,"current_range_meters":38000,"station_id":"ce4bgr92rcd13ifvqc7g","pricing_plan_id":"cebpf4jnsgd1na2vs0mg"},{"bike_id":"d76f6d3a-8c76-402a-8ab8-12bbd392bbda","system_id":"levelo_inurba_marseille","lat":43.29026,"lon":5.36906,"is_reserved":false,"is_disabled":false,"rental_uris":{"android":"levelo://app?vid=d76f6d3a-8c76-402a-8ab8-12bbd392bbda","ios":"levelo://app?vid=d76f6d3a-8c76-402a-8ab8-12bbd392bbda"},"vehicle_type_id":"4","last_reported":1729494617,"current_range_meters":24400,"station_id":"ce4bh392rcd13ifvqdm0","pricing_plan_id":"cebpf4jnsgd1na2vs0mg"},{"bike_id":"12bd3036-1eeb-409e-83a9-f84f7c98205c","system_id":"levelo_inurba_marseille","lat":43.276153,"lon":5.361143,"is_reserved":false,"is_disabled":false,"rental_uris":{"android":"levelo://app?vid=12bd3036-1eeb-409e-83a9-f84f7c98205c","ios":"levelo://app?vid=12bd3036-1eeb-409e-83a9-f84f7c98205c"},"vehicle_type_id":"4","last_reported":1729494617,"current_range_meters":38800,"station_id":"ce4bgj92rcd13ifvqbe0","pricing_plan_id":"cebpf4jnsgd1na2vs0mg"},{"bike_id":"abec9457-83c4-4369-8fdc-0ba1e4752906","system_id":"levelo_inurba_marseille","lat":43.31349,"lon":5.36696,"is_reserved":false,"is_disabled":false,"rental_uris":{"android":"levelo://app?vid=abec9457-83c4-4369-8fdc-0ba1e4752906","ios":"levelo://app?vid=abec9457-83c4-4369-8fdc-0ba1e4752906"},"vehicle_type_id":"4","last_reported":1729494617,"current_range_meters":28000,"station_id":"ce4bgr92rcd13ifvqc6g","pricing_plan_id":"cebpf4jnsgd1na2vs0mg"},{"bike_id":"7976c6c5-4643-4b43-b69c-6d012a36b7a2","system_id":"levelo_inurba_marseille","lat":43.30527,"lon":5.36724,"is_reserved":false,"is_disabled":false,"rental_uris":{"android":"levelo://app?vid=7976c6c5-4643-4b43-b69c-6d012a36b7a2","ios":"levelo://app?vid=7976c6c5-4643-4b43-b69c-6d012a36b7a2"},"vehicle_type_id":"4","last_reported":1729494617,"current_range_meters":28400,"station_id":"ce4bgrp2rcd13ifvqc9g","pricing_plan_id":"cebpf4jnsgd1na2vs0mg"},{"bike_id":"b9266bd0-e696-47a6-980f-cf98bf380b4a","system_id":"levelo_inurba_marseille","lat":43.29222,"lon":5.36073,"is_reserved":false,"is_disabled":false,"rental_uris":{"android":"levelo://app?vid=b9266bd0-e696-47a6-980f-cf98bf380b4a","ios":"levelo://app?vid=b9266bd0-e696-47a6-980f-cf98bf380b4a"},"vehicle_type_id":"4","last_reported":1729494617,"current_range_meters":36800,"station_id":"ce4bhbh2rcd13ifvqeqg","pricing_plan_id":"cebpf4jnsgd1na2vs0mg"},{"bike_id":"eaaa5fbc-63f7-46b3-b6d4-fd6dc86ad4e8","system_id":"levelo_inurba_marseille","lat":43.2395,"lon":5.36638,"is_reserved":false,"is_disabled":false,"rental_uris":{"android":"levelo://app?vid=eaaa5fbc-63f7-46b3-b6d4-fd6dc86ad4e8","ios":"levelo://app?vid=eaaa5fbc-63f7-46b3-b6d4-fd6dc86ad4e8"},"vehicle_type_id":"4","last_reported":1729494617,"current_range_meters":37600,"station_id":"ce4bhi12rcd13ifvqfp0","pricing_plan_id":"cebpf4jnsgd1na2vs0mg"},{"bike_id":"5430bba4-ce8c-4694-a91c-cbc659893ce5","system_id":"levelo_inurba_marseille","lat":43.26682,"lon":5.38266,"is_reserved":false,"is_disabled":false,"rental_uris":{"android":"levelo://app?vid=5430bba4-ce8c-4694-a91c-cbc659893ce5","ios":"levelo://app?vid=5430bba4-ce8c-4694-a91c-cbc659893ce5"},"vehicle_type_id":"4","last_reported":1729494617,"current_range_meters":19200,"station_id":"ce4bhg92rcd13ifvqf90","pricing_plan_id":"cebpf4jnsgd1na2vs0mg"},{"bike_id":"2a8cfce5-93d5-4a5e-832b-148482060dca","system_id":"levelo_inurba_marseille","lat":43.32366,"lon":5.38881,"is_reserved":false,"is_disabled":false,"rental_uris":{"android":"levelo://app?vid=2a8cfce5-93d5-4a5e-832b-148482060dca","ios":"levelo://app?vid=2a8cfce5-93d5-4a5e-832b-148482060dca"},"vehicle_type_id":"4","last_reported":1729494617,"current_range_meters":22400,"station_id":"ce4bhqp2rcd13ifvqhog","pricing_plan_id":"cebpf4jnsgd1na2vs0mg"},{"bike_id":"c5aa00cb-e6a8-4f51-9e7d-b2507f3cdf3e","system_id":"levelo_inurba_marseille","lat":43.24804,"lon":5.37451,"is_reserved":false,"is_disabled":false,"rental_uris":{"android":"levelo://app?vid=c5aa00cb-e6a8-4f51-9e7d-b2507f3cdf3e","ios":"levelo://app?vid=c5aa00cb-e6a8-4f51-9e7d-b2507f3cdf3e"},"vehicle_type_id":"4","last_reported":1729494617,"current_range_meters":38800,"station_id":"ce4bhgh2rcd13ifvqfb0","pricing_plan_id":"cebpf4jnsgd1na2vs0mg"},{"bike_id":"fccb27b3-90f4-4411-a56b-003b7acda73c","system_id":"levelo_inurba_marseille","lat":43.2815,"lon":5.4264,"is_reserved":false,"is_disabled":false,"rental_uris":{"android":"levelo://app?vid=fccb27b3-90f4-4411-a56b-003b7acda73c","ios":"levelo://app?vid=fccb27b3-90f4-4411-a56b-003b7acda73c"},"vehicle_type_id":"4","last_reported":1729494617,"current_range_meters":28800,"station_id":"ce4bhnh2rcd13ifvqgug","pricing_plan_id":"cebpf4jnsgd1na2vs0mg"},{"bike_id":"aac6e1b6-e61e-452e-94dc-d312326196a0","system_id":"levelo_inurba_marseille","lat":43.30278,"lon":5.37708,"is_reserved":false,"is_disabled":false,"rental_uris":{"android":"levelo://app?vid=aac6e1b6-e61e-452e-94dc-d312326196a0","ios":"levelo://app?vid=aac6e1b6-e61e-452e-94dc-d312326196a0"},"vehicle_type_id":"4","last_reported":1729494617,"current_range_meters":24000,"station_id":"ce4bguh2rcd13ifvqcj0","pricing_plan_id":"cebpf4jnsgd1na2vs0mg"},{"bike_id":"af00502d-b5af-402e-bab9-2b06b78e3677","system_id":"levelo_inurba_marseille","lat":43.31111,"lon":5.37764,"is_reserved":false,"is_disabled":false,"rental_uris":{"android":"levelo://app?vid=af00502d-b5af-402e-bab9-2b06b78e3677","ios":"levelo://app?vid=af00502d-b5af-402e-bab9-2b06b78e3677"},"vehicle_type_id":"4","last_reported":1729494617,"current_range_meters":4400,"station_id":"ce4bgt92rcd13ifvqcg0","pricing_plan_id":"cebpf4jnsgd1na2vs0mg"},{"bike_id":"d863885c-9de8-4c1e-b0fe-4dac0fde31c8","system_id":"levelo_inurba_marseille","lat":43.26195,"lon":5.37448,"is_reserved":false,"is_disabled":false,"rental_uris":{"android":"levelo://app?vid=d863885c-9de8-4c1e-b0fe-4dac0fde31c8","ios":"levelo://app?vid=d863885c-9de8-4c1e-b0fe-4dac0fde31c8"},"vehicle_type_id":"4","last_reported":1729494617,"current_range_meters":35600,"station_id":"ce4bhgp2rcd13ifvqfc0","pricing_plan_id":"cebpf4jnsgd1na2vs0mg"},{"bike_id":"fc7cba82-4d5b-4565-acf1-ce4ff3a48676","system_id":"levelo_inurba_marseille","lat":43.286041,"lon":5.350984,"is_reserved":false,"is_disabled":false,"rental_uris":{"android":"levelo://app?vid=fc7cba82-4d5b-4565-acf1-ce4ff3a48676","ios":"levelo://app?vid=fc7cba82-4d5b-4565-acf1-ce4ff3a48676"},"vehicle_type_id":"4","last_reported":1729494617,"current_range_meters":35600,"station_id":"ce4bhch2rcd13ifvqeug","pricing_plan_id":"cebpf4jnsgd1na2vs0mg"},{"bike_id":"619d2d79-3eda-490b-94cf-483db3844f72","system_id":"levelo_inurba_marseille","lat":43.30528,"lon":5.36714,"is_reserved":false,"is_disabled":false,"rental_uris":{"android":"levelo://app?vid=619d2d79-3eda-490b-94cf-483db3844f72","ios":"levelo://app?vid=619d2d79-3eda-490b-94cf-483db3844f72"},"vehicle_type_id":"4","last_reported":1729494617,"current_range_meters":36000,"station_id":"ce4bgrp2rcd13ifvqc9g","pricing_plan_id":"cebpf4jnsgd1na2vs0mg"},{"bike_id":"c0e918f6-a62e-4c9d-938a-2ee1b95f693a","system_id":"levelo_inurba_marseille","lat":43.26679,"lon":5.38274,"is_reserved":false,"is_disabled":false,"rental_uris":{"android":"levelo://app?vid=c0e918f6-a62e-4c9d-938a-2ee1b95f693a","ios":"levelo://app?vid=c0e918f6-a62e-4c9d-938a-2ee1b95f693a"},"vehicle_type_id":"4","last_reported":1729494617,"current_range_meters":19200,"station_id":"ce4bhg92rcd13ifvqf90","pricing_plan_id":"cebpf4jnsgd1na2vs0mg"},{"bike_id":"16efb756-7204-417a-ac94-79592a12c81c","system_id":"levelo_inurba_marseille","lat":43.33607,"lon":5.41014,"is_reserved":false,"is_disabled":false,"rental_uris":{"android":"levelo://app?vid=16efb756-7204-417a-ac94-79592a12c81c","ios":"levelo://app?vid=16efb756-7204-417a-ac94-79592a12c81c"},"vehicle_type_id":"4","last_reported":1729494617,"current_range_meters":23200,"station_id":"ce4bhqh2rcd13ifvqhmg","pricing_plan_id":"cebpf4jnsgd1na2vs0mg"},{"bike_id":"551ac5d0-b0e0-4804-a5ef-7e6bc6a1c26b","system_id":"levelo_inurba_marseille","lat":43.3361,"lon":5.41027,"is_reserved":false,"is_disabled":false,"rental_uris":{"android":"levelo://app?vid=551ac5d0-b0e0-4804-a5ef-7e6bc6a1c26b","ios":"levelo://app?vid=551ac5d0-b0e0-4804-a5ef-7e6bc6a1c26b"},"vehicle_type_id":"4","last_reported":1729494617,"current_range_meters":31200,"station_id":"ce4bhqh2rcd13ifvqhmg","pricing_plan_id":"cebpf4jnsgd1na2vs0mg"},{"bike_id":"adea3a59-bfe3-4359-9707-8838ade5bc09","system_id":"levelo_inurba_marseille","lat":43.28419,"lon":5.37562,"is_reserved":false,"is_disabled":false,"rental_uris":{"android":"levelo://app?vid=adea3a59-bfe3-4359-9707-8838ade5bc09","ios":"levelo://app?vid=adea3a59-bfe3-4359-9707-8838ade5bc09"},"vehicle_type_id":"4","last_reported":1729494617,"current_range_meters":32800,"station_id":"ce4bh412rcd13ifvqds0","pricing_plan_id":"cebpf4jnsgd1na2vs0mg"},{"bike_id":"4cf3e5d8-4f9a-4007-b965-622ecd99339e","system_id":"levelo_inurba_marseille","lat":43.31074,"lon":5.40085,"is_reserved":false,"is_disabled":false,"rental_uris":{"android":"levelo://app?vid=4cf3e5d8-4f9a-4007-b965-622ecd99339e","ios":"levelo://app?vid=4cf3e5d8-4f9a-4007-b965-622ecd99339e"},"vehicle_type_id":"4","last_reported":1729494617,"current_range_meters":5600,"station_id":"","pricing_plan_id":"cebpf4jnsgd1na2vs0mg"},{"bike_id":"eb28c191-e5cc-4e35-8818-10ea0b1447e3","system_id":"levelo_inurba_marseille","lat":43.30312,"lon":5.369,"is_reserved":false,"is_disabled":false,"rental_uris":{"android":"levelo://app?vid=eb28c191-e5cc-4e35-8818-10ea0b1447e3","ios":"levelo://app?vid=eb28c191-e5cc-4e35-8818-10ea0b1447e3"},"vehicle_type_id":"4","last_reported":1729494617,"current_range_meters":37600,"station_id":"ce4bgqh2rcd13ifvqc5g","pricing_plan_id":"cebpf4jnsgd1na2vs0mg"},{"bike_id":"b74557d0-6d55-4358-bac9-78c60a4b2484","system_id":"levelo_inurba_marseille","lat":43.292999,"lon":5.374137,"is_reserved":false,"is_disabled":false,"rental_uris":{"android":"levelo://app?vid=b74557d0-6d55-4358-bac9-78c60a4b2484","ios":"levelo://app?vid=b74557d0-6d55-4358-bac9-78c60a4b2484"},"vehicle_type_id":"4","last_reported":1729494617,"current_range_meters":27600,"station_id":"ce4bgi12rcd13ifvqb70","pricing_plan_id":"cebpf4jnsgd1na2vs0mg"},{"bike_id":"d022902e-4f7c-4f05-aec8-0c802211b8cc","system_id":"levelo_inurba_marseille","lat":43.25942,"lon":5.40895,"is_reserved":false,"is_disabled":false,"rental_uris":{"android":"levelo://app?vid=d022902e-4f7c-4f05-aec8-0c802211b8cc","ios":"levelo://app?vid=d022902e-4f7c-4f05-aec8-0c802211b8cc"},"vehicle_type_id":"4","last_reported":1729494617,"current_range_meters":37600,"station_id":"ce4bhm92rcd13ifvqglg","pricing_plan_id":"cebpf4jnsgd1na2vs0mg"},{"bike_id":"a9497fe1-bc20-4783-aa3c-fbb63f514484","system_id":"levelo_inurba_marseille","lat":43.3053,"lon":5.36549,"is_reserved":false,"is_disabled":false,"rental_uris":{"android":"levelo://app?vid=a9497fe1-bc20-4783-aa3c-fbb63f514484","ios":"levelo://app?vid=a9497fe1-bc20-4783-aa3c-fbb63f514484"},"vehicle_type_id":"4","last_reported":1729494617,"current_range_meters":38800,"station_id":"ce4bgs12rcd13ifvqcag","pricing_plan_id":"cebpf4jnsgd1na2vs0mg"},{"bike_id":"f3da7b3f-3977-4bde-ae1c-49e2e6f4d1fd","system_id":"levelo_inurba_marseille","lat":43.24997,"lon":5.38932,"is_reserved":false,"is_disabled":false,"rental_uris":{"android":"levelo://app?vid=f3da7b3f-3977-4bde-ae1c-49e2e6f4d1fd","ios":"levelo://app?vid=f3da7b3f-3977-4bde-ae1c-49e2e6f4d1fd"},"vehicle_type_id":"4","last_reported":1729494617,"current_range_meters":30000,"station_id":"ce4bhgp2rcd13ifvqfd0","pricing_plan_id":"cebpf4jnsgd1na2vs0mg"},{"bike_id":"7046b596-4b59-4c67-82d7-240dea1f1ffc","system_id":"levelo_inurba_marseille","lat":43.301636,"lon":5.374253,"is_reserved":false,"is_disabled":false,"rental_uris":{"android":"levelo://app?vid=7046b596-4b59-4c67-82d7-240dea1f1ffc","ios":"levelo://app?vid=7046b596-4b59-4c67-82d7-240dea1f1ffc"},"vehicle_type_id":"4","last_reported":1729494617,"current_range_meters":35600,"station_id":"ce4bgs92rcd13ifvqcc0","pricing_plan_id":"cebpf4jnsgd1na2vs0mg"},{"bike_id":"bb4acec1-2fd5-4ff5-8483-6b462e41d858","system_id":"levelo_inurba_marseille","lat":43.30309,"lon":5.36909,"is_reserved":false,"is_disabled":false,"rental_uris":{"android":"levelo://app?vid=bb4acec1-2fd5-4ff5-8483-6b462e41d858","ios":"levelo://app?vid=bb4acec1-2fd5-4ff5-8483-6b462e41d858"},"vehicle_type_id":"4","last_reported":1729494617,"current_range_meters":18800,"station_id":"ce4bgqh2rcd13ifvqc5g","pricing_plan_id":"cebpf4jnsgd1na2vs0mg"},{"bike_id":"ab756324-afe6-4627-bf56-3bf5aa26ef52","system_id":"levelo_inurba_marseille","lat":43.2904,"lon":5.39966,"is_reserved":false,"is_disabled":false,"rental_uris":{"android":"levelo://app?vid=ab756324-afe6-4627-bf56-3bf5aa26ef52","ios":"levelo://app?vid=ab756324-afe6-4627-bf56-3bf5aa26ef52"},"vehicle_type_id":"4","last_reported":1729494617,"current_range_meters":33600,"station_id":"ce4bh392rcd13ifvqdm0","pricing_plan_id":"cebpf4jnsgd1na2vs0mg"},{"bike_id":"041c83ea-c320-4be6-862d-deaa50b2a9d7","system_id":"levelo_inurba_marseille","lat":43.27615,"lon":5.36114,"is_reserved":false,"is_disabled":false,"rental_uris":{"android":"levelo://app?vid=041c83ea-c320-4be6-862d-deaa50b2a9d7","ios":"levelo://app?vid=041c83ea-c320-4be6-862d-deaa50b2a9d7"},"vehicle_type_id":"4","last_reported":1729494617,"current_range_meters":38400,"station_id":"ce4bgj92rcd13ifvqbe0","pricing_plan_id":"cebpf4jnsgd1na2vs0mg"},{"bike_id":"c809fe6a-245c-4a9e-866f-167a0c9ddd82","system_id":"levelo_inurba_marseille","lat":43.30539,"lon":5.36711,"is_reserved":false,"is_disabled":false,"rental_uris":{"android":"levelo://app?vid=c809fe6a-245c-4a9e-866f-167a0c9ddd82","ios":"levelo://app?vid=c809fe6a-245c-4a9e-866f-167a0c9ddd82"},"vehicle_type_id":"4","last_reported":1729494617,"current_range_meters":36400,"station_id":"ce4bgrp2rcd13ifvqc9g","pricing_plan_id":"cebpf4jnsgd1na2vs0mg"},{"bike_id":"931da876-d0ed-4146-82c7-6d132f483c10","system_id":"levelo_inurba_marseille","lat":43.32106,"lon":5.36772,"is_reserved":false,"is_disabled":false,"rental_uris":{"android":"levelo://app?vid=931da876-d0ed-4146-82c7-6d132f483c10","ios":"levelo://app?vid=931da876-d0ed-4146-82c7-6d132f483c10"},"vehicle_type_id":"4","last_reported":1729494617,"current_range_meters":37600,"station_id":"ce4bhrh2rcd13ifvqhug","pricing_plan_id":"cebpf4jnsgd1na2vs0mg"},{"bike_id":"68bb16cf-3232-4389-967e-55bb18f1f996","system_id":"levelo_inurba_marseille","lat":43.31353,"lon":5.36705,"is_reserved":false,"is_disabled":false,"rental_uris":{"android":"levelo://app?vid=68bb16cf-3232-4389-967e-55bb18f1f996","ios":"levelo://app?vid=68bb16cf-3232-4389-967e-55bb18f1f996"},"vehicle_type_id":"4","last_reported":1729494617,"current_range_meters":38000,"station_id":"ce4bgr92rcd13ifvqc6g","pricing_plan_id":"cebpf4jnsgd1na2vs0mg"},{"bike_id":"99659bc6-ecd8-48ae-8c62-cd6b46cfc7fc","system_id":"levelo_inurba_marseille","lat":43.32654,"lon":5.40991,"is_reserved":false,"is_disabled":false,"rental_uris":{"android":"levelo://app?vid=99659bc6-ecd8-48ae-8c62-cd6b46cfc7fc","ios":"levelo://app?vid=99659bc6-ecd8-48ae-8c62-cd6b46cfc7fc"},"vehicle_type_id":"4","last_reported":1729494617,"current_range_meters":36400,"station_id":"ce4bhpp2rcd13ifvqhgg","pricing_plan_id":"cebpf4jnsgd1na2vs0mg"},{"bike_id":"3be267d0-3793-404e-9704-b552bffa7f0b","system_id":"levelo_inurba_marseille","lat":43.32477,"lon":5.36566,"is_reserved":false,"is_disabled":false,"rental_uris":{"android":"levelo://app?vid=3be267d0-3793-404e-9704-b552bffa7f0b","ios":"levelo://app?vid=3be267d0-3793-404e-9704-b552bffa7f0b"},"vehicle_type_id":"4","last_reported":1729494617,"current_range_meters":8400,"station_id":"ce4bhs12rcd13ifvqhvg","pricing_plan_id":"cebpf4jnsgd1na2vs0mg"},{"bike_id":"375d33e3-2041-4b56-a557-54bde93a99de","system_id":"levelo_inurba_marseille","lat":43.30532,"lon":5.36557,"is_reserved":false,"is_disabled":false,"rental_uris":{"android":"levelo://app?vid=375d33e3-2041-4b56-a557-54bde93a99de","ios":"levelo://app?vid=375d33e3-2041-4b56-a557-54bde93a99de"},"vehicle_type_id":"4","last_reported":1729494617,"current_range_meters":20800,"station_id":"ce4bgs12rcd13ifvqcag","pricing_plan_id":"cebpf4jnsgd1na2vs0mg"},{"bike_id":"62353ce8-5cae-47d5-8c9e-f5c16446d8ef","system_id":"levelo_inurba_marseille","lat":43.31682,"lon":5.40475,"is_reserved":false,"is_disabled":false,"rental_uris":{"android":"levelo://app?vid=62353ce8-5cae-47d5-8c9e-f5c16446d8ef","ios":"levelo://app?vid=62353ce8-5cae-47d5-8c9e-f5c16446d8ef"},"vehicle_type_id":"4","last_reported":1729494617,"current_range_meters":36800,"station_id":"ce4bh012rcd13ifvqd00","pricing_plan_id":"cebpf4jnsgd1na2vs0mg"},{"bike_id":"9c061644-eef5-46e6-b90b-f79eacf06597","system_id":"levelo_inurba_marseille","lat":43.23879,"lon":5.36547,"is_reserved":false,"is_disabled":false,"rental_uris":{"android":"levelo://app?vid=9c061644-eef5-46e6-b90b-f79eacf06597","ios":"levelo://app?vid=9c061644-eef5-46e6-b90b-f79eacf06597"},"vehicle_type_id":"4","last_reported":1729494617,"current_range_meters":27600,"station_id":"ce4bhi12rcd13ifvqfp0","pricing_plan_id":"cebpf4jnsgd1na2vs0mg"},{"bike_id":"0c1c7708-b979-4d7e-982d-190e9148b9a6","system_id":"levelo_inurba_marseille","lat":43.26676,"lon":5.38265,"is_reserved":false,"is_disabled":false,"rental_uris":{"android":"levelo://app?vid=0c1c7708-b979-4d7e-982d-190e9148b9a6","ios":"levelo://app?vid=0c1c7708-b979-4d7e-982d-190e9148b9a6"},"vehicle_type_id":"4","last_reported":1729494617,"current_range_meters":35600,"station_id":"ce4bhg92rcd13ifvqf90","pricing_plan_id":"cebpf4jnsgd1na2vs0mg"},{"bike_id":"724c3898-fa40-46b5-a6ca-5091666cabb4","system_id":"levelo_inurba_marseille","lat":43.23192,"lon":5.35547,"is_reserved":false,"is_disabled":false,"rental_uris":{"android":"levelo://app?vid=724c3898-fa40-46b5-a6ca-5091666cabb4","ios":"levelo://app?vid=724c3898-fa40-46b5-a6ca-5091666cabb4"},"vehicle_type_id":"4","last_reported":1729494617,"current_range_meters":38000,"station_id":"ce4bhu92rcd13ifvqi70","pricing_plan_id":"cebpf4jnsgd1na2vs0mg"},{"bike_id":"fb574375-21a3-4cc9-b093-05167f9899a8","system_id":"levelo_inurba_marseille","lat":43.31345,"lon":5.36727,"is_reserved":false,"is_disabled":false,"rental_uris":{"android":"levelo://app?vid=fb574375-21a3-4cc9-b093-05167f9899a8","ios":"levelo://app?vid=fb574375-21a3-4cc9-b093-05167f9899a8"},"vehicle_type_id":"4","last_reported":1729494617,"current_range_meters":38800,"station_id":"ce4bgr92rcd13ifvqc6g","pricing_plan_id":"cebpf4jnsgd1na2vs0mg"},{"bike_id":"e6fe4940-a098-49cc-8d38-77b9bd14611a","system_id":"levelo_inurba_marseille","lat":43.32109,"lon":5.36775,"is_reserved":false,"is_disabled":false,"rental_uris":{"android":"levelo://app?vid=e6fe4940-a098-49cc-8d38-77b9bd14611a","ios":"levelo://app?vid=e6fe4940-a098-49cc-8d38-77b9bd14611a"},"vehicle_type_id":"4","last_reported":1729494617,"current_range_meters":18000,"station_id":"ce4bhrh2rcd13ifvqhug","pricing_plan_id":"cebpf4jnsgd1na2vs0mg"},{"bike_id":"eaf542e6-9f43-4889-bfac-b5349636dc63","system_id":"levelo_inurba_marseille","lat":43.30913,"lon":5.36857,"is_reserved":false,"is_disabled":false,"rental_uris":{"android":"levelo://app?vid=eaf542e6-9f43-4889-bfac-b5349636dc63","ios":"levelo://app?vid=eaf542e6-9f43-4889-bfac-b5349636dc63"},"vehicle_type_id":"4","last_reported":1729494617,"current_range_meters":38800,"station_id":"ce4bgn92rcd13ifvqbvg","pricing_plan_id":"cebpf4jnsgd1na2vs0mg"},{"bike_id":"d8a7728d-d180-4f9b-9e1a-49c8d31a194c","system_id":"levelo_inurba_marseille","lat":43.29227,"lon":5.36077,"is_reserved":false,"is_disabled":false,"rental_uris":{"android":"levelo://app?vid=d8a7728d-d180-4f9b-9e1a-49c8d31a194c","ios":"levelo://app?vid=d8a7728d-d180-4f9b-9e1a-49c8d31a194c"},"vehicle_type_id":"4","last_reported":1729494617,"current_range_meters":6800,"station_id":"ce4bhbh2rcd13ifvqeqg","pricing_plan_id":"cebpf4jnsgd1na2vs0mg"},{"bike_id":"8bb60c49-8ed3-4f9b-891c-0805c36ed3e1","system_id":"levelo_inurba_marseille","lat":43.29552,"lon":5.42274,"is_reserved":false,"is_disabled":false,"rental_uris":{"android":"levelo://app?vid=8bb60c49-8ed3-4f9b-891c-0805c36ed3e1","ios":"levelo://app?vid=8bb60c49-8ed3-4f9b-891c-0805c36ed3e1"},"vehicle_type_id":"4","last_reported":1729494617,"current_range_meters":38800,"station_id":"ce4bhph2rcd13ifvqhdg","pricing_plan_id":"cebpf4jnsgd1na2vs0mg"},{"bike_id":"f3b18d4c-688e-4e02-9104-7f1d559134af","system_id":"levelo_inurba_marseille","lat":43.32072,"lon":5.36769,"is_reserved":false,"is_disabled":false,"rental_uris":{"android":"levelo://app?vid=f3b18d4c-688e-4e02-9104-7f1d559134af","ios":"levelo://app?vid=f3b18d4c-688e-4e02-9104-7f1d559134af"},"vehicle_type_id":"4","last_reported":1729494617,"current_range_meters":32000,"station_id":"ce4bhrh2rcd13ifvqhug","pricing_plan_id":"cebpf4jnsgd1na2vs0mg"},{"bike_id":"5c427ec6-b3e2-4bcb-bf5e-ebf0118ba7b9","system_id":"levelo_inurba_marseille","lat":43.30472,"lon":5.37899,"is_reserved":false,"is_disabled":false,"rental_uris":{"android":"levelo://app?vid=5c427ec6-b3e2-4bcb-bf5e-ebf0118ba7b9","ios":"levelo://app?vid=5c427ec6-b3e2-4bcb-bf5e-ebf0118ba7b9"},"vehicle_type_id":"4","last_reported":1729494617,"current_range_meters":38800,"station_id":"ce4bgup2rcd13ifvqcn0","pricing_plan_id":"cebpf4jnsgd1na2vs0mg"},{"bike_id":"b905f3e4-902d-4870-a570-f469b2c923d5","system_id":"levelo_inurba_marseille","lat":43.29086,"lon":5.38154,"is_reserved":false,"is_disabled":false,"rental_uris":{"android":"levelo://app?vid=b905f3e4-902d-4870-a570-f469b2c923d5","ios":"levelo://app?vid=b905f3e4-902d-4870-a570-f469b2c923d5"},"vehicle_type_id":"4","last_reported":1729494617,"current_range_meters":36800,"station_id":"ce4bh512rcd13ifvqe2g","pricing_plan_id":"cebpf4jnsgd1na2vs0mg"},{"bike_id":"6d5f23d5-0f13-413f-be9d-b69e691fdf41","system_id":"levelo_inurba_marseille","lat":43.30147,"lon":5.38077,"is_reserved":false,"is_disabled":false,"rental_uris":{"android":"levelo://app?vid=6d5f23d5-0f13-413f-be9d-b69e691fdf41","ios":"levelo://app?vid=6d5f23d5-0f13-413f-be9d-b69e691fdf41"},"vehicle_type_id":"4","last_reported":1729494617,"current_range_meters":32000,"station_id":"ce4bgjp2rcd13ifvqbh0","pricing_plan_id":"cebpf4jnsgd1na2vs0mg"},{"bike_id":"6557f5dc-9182-4141-a913-4259e426b5ed","system_id":"levelo_inurba_marseille","lat":43.30939,"lon":5.39038,"is_reserved":false,"is_disabled":false,"rental_uris":{"android":"levelo://app?vid=6557f5dc-9182-4141-a913-4259e426b5ed","ios":"levelo://app?vid=6557f5dc-9182-4141-a913-4259e426b5ed"},"vehicle_type_id":"4","last_reported":1729494617,"current_range_meters":8000,"station_id":"ce4bgup2rcd13ifvqco0","pricing_plan_id":"cebpf4jnsgd1na2vs0mg"},{"bike_id":"ca33b17e-2aed-4795-91d7-6d4346001afc","system_id":"levelo_inurba_marseille","lat":43.29019,"lon":5.3998,"is_reserved":false,"is_disabled":false,"rental_uris":{"android":"levelo://app?vid=ca33b17e-2aed-4795-91d7-6d4346001afc","ios":"levelo://app?vid=ca33b17e-2aed-4795-91d7-6d4346001afc"},"vehicle_type_id":"4","last_reported":1729494617,"current_range_meters":28800,"station_id":"ce4bh392rcd13ifvqdm0","pricing_plan_id":"cebpf4jnsgd1na2vs0mg"},{"bike_id":"e365b716-0c03-4767-8f8e-c210c62d3218","system_id":"levelo_inurba_marseille","lat":43.29168,"lon":5.3715,"is_reserved":false,"is_disabled":false,"rental_uris":{"android":"levelo://app?vid=e365b716-0c03-4767-8f8e-c210c62d3218","ios":"levelo://app?vid=e365b716-0c03-4767-8f8e-c210c62d3218"},"vehicle_type_id":"4","last_reported":1729494617,"current_range_meters":36000,"station_id":"ce4bha92rcd13ifvqeh0","pricing_plan_id":"cebpf4jnsgd1na2vs0mg"},{"bike_id":"3bf2ae1c-49b2-4936-93d0-295eb17bee45","system_id":"levelo_inurba_marseille","lat":43.23062,"lon":5.35489,"is_reserved":false,"is_disabled":false,"rental_uris":{"android":"levelo://app?vid=3bf2ae1c-49b2-4936-93d0-295eb17bee45","ios":"levelo://app?vid=3bf2ae1c-49b2-4936-93d0-295eb17bee45"},"vehicle_type_id":"4","last_reported":1729494617,"current_range_meters":38000,"station_id":"cpo3342slgdg3j2ifvpg","pricing_plan_id":"cebpf4jnsgd1na2vs0mg"},{"bike_id":"b3efdb17-f121-4150-a9a3-a1f531401b75","system_id":"levelo_inurba_marseille","lat":43.25964,"lon":5.3984,"is_reserved":false,"is_disabled":false,"rental_uris":{"android":"levelo://app?vid=b3efdb17-f121-4150-a9a3-a1f531401b75","ios":"levelo://app?vid=b3efdb17-f121-4150-a9a3-a1f531401b75"},"vehicle_type_id":"4","last_reported":1729494617,"current_range_meters":24400,"station_id":"ce4bhm92rcd13ifvqglg","pricing_plan_id":"cebpf4jnsgd1na2vs0mg"},{"bike_id":"e771981a-ab32-44a7-80b8-59b44c9b46ff","system_id":"levelo_inurba_marseille","lat":43.30533,"lon":5.36713,"is_reserved":false,"is_disabled":false,"rental_uris":{"android":"levelo://app?vid=e771981a-ab32-44a7-80b8-59b44c9b46ff","ios":"levelo://app?vid=e771981a-ab32-44a7-80b8-59b44c9b46ff"},"vehicle_type_id":"4","last_reported":1729494617,"current_range_meters":24000,"station_id":"ce4bgrp2rcd13ifvqc9g","pricing_plan_id":"cebpf4jnsgd1na2vs0mg"},{"bike_id":"bc92cc73-d5a0-4345-b0e4-117a6c6923cb","system_id":"levelo_inurba_marseille","lat":43.30537,"lon":5.36711,"is_reserved":false,"is_disabled":false,"rental_uris":{"android":"levelo://app?vid=bc92cc73-d5a0-4345-b0e4-117a6c6923cb","ios":"levelo://app?vid=bc92cc73-d5a0-4345-b0e4-117a6c6923cb"},"vehicle_type_id":"4","last_reported":1729494617,"current_range_meters":35600,"station_id":"ce4bgrp2rcd13ifvqc9g","pricing_plan_id":"cebpf4jnsgd1na2vs0mg"},{"bike_id":"01edebeb-e9df-4db9-8e23-851a215d3d7f","system_id":"levelo_inurba_marseille","lat":43.30535,"lon":5.36708,"is_reserved":false,"is_disabled":false,"rental_uris":{"android":"levelo://app?vid=01edebeb-e9df-4db9-8e23-851a215d3d7f","ios":"levelo://app?vid=01edebeb-e9df-4db9-8e23-851a215d3d7f"},"vehicle_type_id":"4","last_reported":1729494617,"current_range_meters":39200,"station_id":"ce4bgrp2rcd13ifvqc9g","pricing_plan_id":"cebpf4jnsgd1na2vs0mg"},{"bike_id":"684997cb-a782-4cca-a670-ca233ed67c97","system_id":"levelo_inurba_marseille","lat":43.26546,"lon":5.37296,"is_reserved":false,"is_disabled":false,"rental_uris":{"android":"levelo://app?vid=684997cb-a782-4cca-a670-ca233ed67c97","ios":"levelo://app?vid=684997cb-a782-4cca-a670-ca233ed67c97"},"vehicle_type_id":"4","last_reported":1729494617,"current_range_meters":38400,"station_id":"ce4bhg12rcd13ifvqf70","pricing_plan_id":"cebpf4jnsgd1na2vs0mg"},{"bike_id":"62738b42-4d14-4992-87b3-65556f57f437","system_id":"levelo_inurba_marseille","lat":43.24389,"lon":5.3706,"is_reserved":false,"is_disabled":false,"rental_uris":{"android":"levelo://app?vid=62738b42-4d14-4992-87b3-65556f57f437","ios":"levelo://app?vid=62738b42-4d14-4992-87b3-65556f57f437"},"vehicle_type_id":"4","last_reported":1729494617,"current_range_meters":29600,"station_id":"ce4bhhh2rcd13ifvqfk0","pricing_plan_id":"cebpf4jnsgd1na2vs0mg"},{"bike_id":"0a881be8-b89e-4caa-b36d-874be8317bb8","system_id":"levelo_inurba_marseille","lat":43.29971,"lon":5.37179,"is_reserved":false,"is_disabled":false,"rental_uris":{"android":"levelo://app?vid=0a881be8-b89e-4caa-b36d-874be8317bb8","ios":"levelo://app?vid=0a881be8-b89e-4caa-b36d-874be8317bb8"},"vehicle_type_id":"4","last_reported":1729494617,"current_range_meters":38400,"station_id":"ce4bgr92rcd13ifvqc7g","pricing_plan_id":"cebpf4jnsgd1na2vs0mg"},{"bike_id":"4517af98-c83a-4c45-a9db-642c066330ca","system_id":"levelo_inurba_marseille","lat":43.3047,"lon":5.37907,"is_reserved":false,"is_disabled":false,"rental_uris":{"android":"levelo://app?vid=4517af98-c83a-4c45-a9db-642c066330ca","ios":"levelo://app?vid=4517af98-c83a-4c45-a9db-642c066330ca"},"vehicle_type_id":"4","last_reported":1729494617,"current_range_meters":36400,"station_id":"ce4bgup2rcd13ifvqcn0","pricing_plan_id":"cebpf4jnsgd1na2vs0mg"},{"bike_id":"fc9e44c7-fda4-4ce8-8818-600912cdab91","system_id":"levelo_inurba_marseille","lat":43.25941,"lon":5.40898,"is_reserved":false,"is_disabled":false,"rental_uris":{"android":"levelo://app?vid=fc9e44c7-fda4-4ce8-8818-600912cdab91","ios":"levelo://app?vid=fc9e44c7-fda4-4ce8-8818-600912cdab91"},"vehicle_type_id":"4","last_reported":1729494617,"current_range_meters":37600,"station_id":"ce4bhm92rcd13ifvqglg","pricing_plan_id":"cebpf4jnsgd1na2vs0mg"},{"bike_id":"342bb506-8e82-4fe8-8123-2298181f1aa1","system_id":"levelo_inurba_marseille","lat":43.30797,"lon":5.38167,"is_reserved":false,"is_disabled":false,"rental_uris":{"android":"levelo://app?vid=342bb506-8e82-4fe8-8123-2298181f1aa1","ios":"levelo://app?vid=342bb506-8e82-4fe8-8123-2298181f1aa1"},"vehicle_type_id":"4","last_reported":1729494617,"current_range_meters":33200,"station_id":"","pricing_plan_id":"cebpf4jnsgd1na2vs0mg"},{"bike_id":"49f034c7-bcc2-44a1-a2c0-c64d1cae1fa9","system_id":"levelo_inurba_marseille","lat":43.27611,"lon":5.36123,"is_reserved":false,"is_disabled":false,"rental_uris":{"android":"levelo://app?vid=49f034c7-bcc2-44a1-a2c0-c64d1cae1fa9","ios":"levelo://app?vid=49f034c7-bcc2-44a1-a2c0-c64d1cae1fa9"},"vehicle_type_id":"4","last_reported":1729494617,"current_range_meters":38800,"station_id":"ce4bgj92rcd13ifvqbe0","pricing_plan_id":"cebpf4jnsgd1na2vs0mg"},{"bike_id":"62fbe90b-a9cf-4737-96e1-249789b420f5","system_id":"levelo_inurba_marseille","lat":43.30349,"lon":5.41885,"is_reserved":false,"is_disabled":false,"rental_uris":{"android":"levelo://app?vid=62fbe90b-a9cf-4737-96e1-249789b420f5","ios":"levelo://app?vid=62fbe90b-a9cf-4737-96e1-249789b420f5"},"vehicle_type_id":"4","last_reported":1729494617,"current_range_meters":38800,"station_id":"ce4bhop2rcd13ifvqh7g","pricing_plan_id":"cebpf4jnsgd1na2vs0mg"},{"bike_id":"53442209-de2c-48e5-93ab-7b580e04a6b6","system_id":"levelo_inurba_marseille","lat":43.31352,"lon":5.36693,"is_reserved":false,"is_disabled":false,"rental_uris":{"android":"levelo://app?vid=53442209-de2c-48e5-93ab-7b580e04a6b6","ios":"levelo://app?vid=53442209-de2c-48e5-93ab-7b580e04a6b6"},"vehicle_type_id":"4","last_reported":1729494617,"current_range_meters":10000,"station_id":"ce4bgr92rcd13ifvqc6g","pricing_plan_id":"cebpf4jnsgd1na2vs0mg"},{"bike_id":"f4461b20-658d-429a-8ae4-eb3cfde84765","system_id":"levelo_inurba_marseille","lat":43.31322,"lon":5.36748,"is_reserved":false,"is_disabled":false,"rental_uris":{"android":"levelo://app?vid=f4461b20-658d-429a-8ae4-eb3cfde84765","ios":"levelo://app?vid=f4461b20-658d-429a-8ae4-eb3cfde84765"},"vehicle_type_id":"4","last_reported":1729494617,"current_range_meters":26800,"station_id":"ce4bgr92rcd13ifvqc6g","pricing_plan_id":"cebpf4jnsgd1na2vs0mg"},{"bike_id":"45e7f899-f5f3-4e50-a9bb-17b358a1f073","system_id":"levelo_inurba_marseille","lat":43.304635,"lon":5.378995,"is_reserved":false,"is_disabled":false,"rental_uris":{"android":"levelo://app?vid=45e7f899-f5f3-4e50-a9bb-17b358a1f073","ios":"levelo://app?vid=45e7f899-f5f3-4e50-a9bb-17b358a1f073"},"vehicle_type_id":"4","last_reported":1729494617,"current_range_meters":38400,"station_id":"ce4bgup2rcd13ifvqcn0","pricing_plan_id":"cebpf4jnsgd1na2vs0mg"},{"bike_id":"418bd683-b6c0-4394-90d1-454d0664a04c","system_id":"levelo_inurba_marseille","lat":43.33609,"lon":5.41022,"is_reserved":false,"is_disabled":false,"rental_uris":{"android":"levelo://app?vid=418bd683-b6c0-4394-90d1-454d0664a04c","ios":"levelo://app?vid=418bd683-b6c0-4394-90d1-454d0664a04c"},"vehicle_type_id":"4","last_reported":1729494617,"current_range_meters":38800,"station_id":"ce4bhqh2rcd13ifvqhmg","pricing_plan_id":"cebpf4jnsgd1na2vs0mg"},{"bike_id":"53136745-46ec-42df-a233-c8fabbec71b3","system_id":"levelo_inurba_marseille","lat":43.29838,"lon":5.36262,"is_reserved":false,"is_disabled":false,"rental_uris":{"android":"levelo://app?vid=53136745-46ec-42df-a233-c8fabbec71b3","ios":"levelo://app?vid=53136745-46ec-42df-a233-c8fabbec71b3"},"vehicle_type_id":"4","last_reported":1729494617,"current_range_meters":25200,"station_id":"ce4bgpp2rcd13ifvqc3g","pricing_plan_id":"cebpf4jnsgd1na2vs0mg"},{"bike_id":"aaf6b3b0-6fb9-4153-bb37-57af18ec9484","system_id":"levelo_inurba_marseille","lat":43.27661,"lon":5.38909,"is_reserved":false,"is_disabled":false,"rental_uris":{"android":"levelo://app?vid=aaf6b3b0-6fb9-4153-bb37-57af18ec9484","ios":"levelo://app?vid=aaf6b3b0-6fb9-4153-bb37-57af18ec9484"},"vehicle_type_id":"4","last_reported":1729494617,"current_range_meters":28000,"station_id":"ce4bhi12rcd13ifvqfo0","pricing_plan_id":"cebpf4jnsgd1na2vs0mg"},{"bike_id":"a9ad7648-551f-4776-a14a-a52198c70f1b","system_id":"levelo_inurba_marseille","lat":43.28564,"lon":5.39505,"is_reserved":false,"is_disabled":false,"rental_uris":{"android":"levelo://app?vid=a9ad7648-551f-4776-a14a-a52198c70f1b","ios":"levelo://app?vid=a9ad7648-551f-4776-a14a-a52198c70f1b"},"vehicle_type_id":"4","last_reported":1729494617,"current_range_meters":38400,"station_id":"ce4bh292rcd13ifvqdg0","pricing_plan_id":"cebpf4jnsgd1na2vs0mg"},{"bike_id":"504c7cc7-e16f-4276-a290-99155c114869","system_id":"levelo_inurba_marseille","lat":43.29036,"lon":5.39977,"is_reserved":false,"is_disabled":false,"rental_uris":{"android":"levelo://app?vid=504c7cc7-e16f-4276-a290-99155c114869","ios":"levelo://app?vid=504c7cc7-e16f-4276-a290-99155c114869"},"vehicle_type_id":"4","last_reported":1729494617,"current_range_meters":37600,"station_id":"ce4bh392rcd13ifvqdm0","pricing_plan_id":"cebpf4jnsgd1na2vs0mg"},{"bike_id":"ed4344d8-9233-49ed-aa9b-e30c82cfa496","system_id":"levelo_inurba_marseille","lat":43.29907,"lon":5.38148,"is_reserved":false,"is_disabled":false,"rental_uris":{"android":"levelo://app?vid=ed4344d8-9233-49ed-aa9b-e30c82cfa496","ios":"levelo://app?vid=ed4344d8-9233-49ed-aa9b-e30c82cfa496"},"vehicle_type_id":"4","last_reported":1729494617,"current_range_meters":23200,"station_id":"ce4bgj12rcd13ifvqbc0","pricing_plan_id":"cebpf4jnsgd1na2vs0mg"},{"bike_id":"75f3d9a9-89ad-4abc-9d7b-6216446ea90a","system_id":"levelo_inurba_marseille","lat":43.337444,"lon":5.374475,"is_reserved":false,"is_disabled":false,"rental_uris":{"android":"levelo://app?vid=75f3d9a9-89ad-4abc-9d7b-6216446ea90a","ios":"levelo://app?vid=75f3d9a9-89ad-4abc-9d7b-6216446ea90a"},"vehicle_type_id":"4","last_reported":1729494617,"current_range_meters":26800,"station_id":"","pricing_plan_id":"cebpf4jnsgd1na2vs0mg"},{"bike_id":"37d9ddb9-fa84-41ea-9dd9-14fb2fbb0724","system_id":"levelo_inurba_marseille","lat":43.30544,"lon":5.36548,"is_reserved":false,"is_disabled":false,"rental_uris":{"android":"levelo://app?vid=37d9ddb9-fa84-41ea-9dd9-14fb2fbb0724","ios":"levelo://app?vid=37d9ddb9-fa84-41ea-9dd9-14fb2fbb0724"},"vehicle_type_id":"4","last_reported":1729494617,"current_range_meters":24000,"station_id":"ce4bgs12rcd13ifvqcag","pricing_plan_id":"cebpf4jnsgd1na2vs0mg"},{"bike_id":"908f5c94-0d38-4069-b951-c6a142cb4b1c","system_id":"levelo_inurba_marseille","lat":43.29684,"lon":5.37301,"is_reserved":false,"is_disabled":false,"rental_uris":{"android":"levelo://app?vid=908f5c94-0d38-4069-b951-c6a142cb4b1c","ios":"levelo://app?vid=908f5c94-0d38-4069-b951-c6a142cb4b1c"},"vehicle_type_id":"4","last_reported":1729494617,"current_range_meters":32000,"station_id":"ce4bgk12rcd13ifvqbj0","pricing_plan_id":"cebpf4jnsgd1na2vs0mg"},{"bike_id":"1a9e8cdd-16ba-419c-8108-4c14a1491d6e","system_id":"levelo_inurba_marseille","lat":43.31332,"lon":5.36739,"is_reserved":false,"is_disabled":false,"rental_uris":{"android":"levelo://app?vid=1a9e8cdd-16ba-419c-8108-4c14a1491d6e","ios":"levelo://app?vid=1a9e8cdd-16ba-419c-8108-4c14a1491d6e"},"vehicle_type_id":"4","last_reported":1729494617,"current_range_meters":32400,"station_id":"ce4bgr92rcd13ifvqc6g","pricing_plan_id":"cebpf4jnsgd1na2vs0mg"},{"bike_id":"ca9652e1-b360-4039-a82c-ba9272ccce60","system_id":"levelo_inurba_marseille","lat":43.317541,"lon":5.390119,"is_reserved":false,"is_disabled":false,"rental_uris":{"android":"levelo://app?vid=ca9652e1-b360-4039-a82c-ba9272ccce60","ios":"levelo://app?vid=ca9652e1-b360-4039-a82c-ba9272ccce60"},"vehicle_type_id":"4","last_reported":1729494617,"current_range_meters":38000,"station_id":"ce4bhqp2rcd13ifvqhng","pricing_plan_id":"cebpf4jnsgd1na2vs0mg"},{"bike_id":"e67c9f43-1a0c-493a-b228-9f3483e6d513","system_id":"levelo_inurba_marseille","lat":43.284698,"lon":5.384185,"is_reserved":false,"is_disabled":false,"rental_uris":{"android":"levelo://app?vid=e67c9f43-1a0c-493a-b228-9f3483e6d513","ios":"levelo://app?vid=e67c9f43-1a0c-493a-b228-9f3483e6d513"},"vehicle_type_id":"4","last_reported":1729494617,"current_range_meters":38800,"station_id":"ce4bgjh2rcd13ifvqbf0","pricing_plan_id":"cebpf4jnsgd1na2vs0mg"},{"bike_id":"7bf4eac7-b54a-4766-8a72-a30fb194e7c2","system_id":"levelo_inurba_marseille","lat":43.30546,"lon":5.36558,"is_reserved":false,"is_disabled":false,"rental_uris":{"android":"levelo://app?vid=7bf4eac7-b54a-4766-8a72-a30fb194e7c2","ios":"levelo://app?vid=7bf4eac7-b54a-4766-8a72-a30fb194e7c2"},"vehicle_type_id":"4","last_reported":1729494617,"current_range_meters":30800,"station_id":"ce4bgs12rcd13ifvqcag","pricing_plan_id":"cebpf4jnsgd1na2vs0mg"},{"bike_id":"62081fb8-4276-46d4-9604-7fe2920adcfb","system_id":"levelo_inurba_marseille","lat":43.30542,"lon":5.372869,"is_reserved":false,"is_disabled":false,"rental_uris":{"android":"levelo://app?vid=62081fb8-4276-46d4-9604-7fe2920adcfb","ios":"levelo://app?vid=62081fb8-4276-46d4-9604-7fe2920adcfb"},"vehicle_type_id":"4","last_reported":1729494617,"current_range_meters":16400,"station_id":"ce4bhg92rcd13ifvqf90","pricing_plan_id":"cebpf4jnsgd1na2vs0mg"},{"bike_id":"8c489d6a-8c5d-4ace-8ce1-8ade01fdb678","system_id":"levelo_inurba_marseille","lat":43.26686,"lon":5.38269,"is_reserved":false,"is_disabled":false,"rental_uris":{"android":"levelo://app?vid=8c489d6a-8c5d-4ace-8ce1-8ade01fdb678","ios":"levelo://app?vid=8c489d6a-8c5d-4ace-8ce1-8ade01fdb678"},"vehicle_type_id":"4","last_reported":1729494617,"current_range_meters":38000,"station_id":"ce4bhg92rcd13ifvqf90","pricing_plan_id":"cebpf4jnsgd1na2vs0mg"},{"bike_id":"f3099d68-0947-4b08-8882-1b44d08d49f7","system_id":"levelo_inurba_marseille","lat":43.29014,"lon":5.35715,"is_reserved":false,"is_disabled":false,"rental_uris":{"android":"levelo://app?vid=f3099d68-0947-4b08-8882-1b44d08d49f7","ios":"levelo://app?vid=f3099d68-0947-4b08-8882-1b44d08d49f7"},"vehicle_type_id":"4","last_reported":1729494617,"current_range_meters":35600,"station_id":"ce4bgqh2rcd13ifvqc5g","pricing_plan_id":"cebpf4jnsgd1na2vs0mg"},{"bike_id":"2e31d8fa-3fe5-4fba-9403-f6f83112273d","system_id":"levelo_inurba_marseille","lat":43.24181,"lon":5.3973,"is_reserved":false,"is_disabled":false,"rental_uris":{"android":"levelo://app?vid=2e31d8fa-3fe5-4fba-9403-f6f83112273d","ios":"levelo://app?vid=2e31d8fa-3fe5-4fba-9403-f6f83112273d"},"vehicle_type_id":"4","last_reported":1729494617,"current_range_meters":16000,"station_id":"ce4bhn12rcd13ifvqgpg","pricing_plan_id":"cebpf4jnsgd1na2vs0mg"},{"bike_id":"4eeca87a-2d31-457e-ab85-83a25ab497de","system_id":"levelo_inurba_marseille","lat":43.28853,"lon":5.39317,"is_reserved":false,"is_disabled":false,"rental_uris":{"android":"levelo://app?vid=4eeca87a-2d31-457e-ab85-83a25ab497de","ios":"levelo://app?vid=4eeca87a-2d31-457e-ab85-83a25ab497de"},"vehicle_type_id":"4","last_reported":1729494617,"current_range_meters":38800,"station_id":"ce4bh2p2rcd13ifvqdi0","pricing_plan_id":"cebpf4jnsgd1na2vs0mg"},{"bike_id":"13a9ca34-f47b-4bac-bc4b-8ad80399645b","system_id":"levelo_inurba_marseille","lat":43.33718,"lon":5.3917,"is_reserved":false,"is_disabled":false,"rental_uris":{"android":"levelo://app?vid=13a9ca34-f47b-4bac-bc4b-8ad80399645b","ios":"levelo://app?vid=13a9ca34-f47b-4bac-bc4b-8ad80399645b"},"vehicle_type_id":"4","last_reported":1729494617,"current_range_meters":38400,"station_id":"ce4bhr92rcd13ifvqhsg","pricing_plan_id":"cebpf4jnsgd1na2vs0mg"},{"bike_id":"0540830f-71f4-4849-8d06-63bd57143a69","system_id":"levelo_inurba_marseille","lat":43.30905,"lon":5.36837,"is_reserved":false,"is_disabled":false,"rental_uris":{"android":"levelo://app?vid=0540830f-71f4-4849-8d06-63bd57143a69","ios":"levelo://app?vid=0540830f-71f4-4849-8d06-63bd57143a69"},"vehicle_type_id":"4","last_reported":1729494617,"current_range_meters":32800,"station_id":"ce4bgn92rcd13ifvqbvg","pricing_plan_id":"cebpf4jnsgd1na2vs0mg"},{"bike_id":"93a94103-19a0-447f-ad9d-6cb5f148a9ff","system_id":"levelo_inurba_marseille","lat":43.31354,"lon":5.3674,"is_reserved":false,"is_disabled":false,"rental_uris":{"android":"levelo://app?vid=93a94103-19a0-447f-ad9d-6cb5f148a9ff","ios":"levelo://app?vid=93a94103-19a0-447f-ad9d-6cb5f148a9ff"},"vehicle_type_id":"4","last_reported":1729494617,"current_range_meters":19200,"station_id":"ce4bgr92rcd13ifvqc6g","pricing_plan_id":"cebpf4jnsgd1na2vs0mg"},{"bike_id":"bc9f1010-ea70-4776-bd0c-aa154cc7d4be","system_id":"levelo_inurba_marseille","lat":43.24997,"lon":5.38923,"is_reserved":false,"is_disabled":false,"rental_uris":{"android":"levelo://app?vid=bc9f1010-ea70-4776-bd0c-aa154cc7d4be","ios":"levelo://app?vid=bc9f1010-ea70-4776-bd0c-aa154cc7d4be"},"vehicle_type_id":"4","last_reported":1729494617,"current_range_meters":22400,"station_id":"ce4bhgp2rcd13ifvqfd0","pricing_plan_id":"cebpf4jnsgd1na2vs0mg"},{"bike_id":"09c742b9-67aa-44f1-b833-7cf3d42021e8","system_id":"levelo_inurba_marseille","lat":43.25573,"lon":5.38232,"is_reserved":false,"is_disabled":false,"rental_uris":{"android":"levelo://app?vid=09c742b9-67aa-44f1-b833-7cf3d42021e8","ios":"levelo://app?vid=09c742b9-67aa-44f1-b833-7cf3d42021e8"},"vehicle_type_id":"4","last_reported":1729494617,"current_range_meters":33200,"station_id":"ce4bhih2rcd13ifvqfs0","pricing_plan_id":"cebpf4jnsgd1na2vs0mg"},{"bike_id":"54ba06b5-cc61-4914-b545-edd2f2c0e593","system_id":"levelo_inurba_marseille","lat":43.30461,"lon":5.37901,"is_reserved":false,"is_disabled":false,"rental_uris":{"android":"levelo://app?vid=54ba06b5-cc61-4914-b545-edd2f2c0e593","ios":"levelo://app?vid=54ba06b5-cc61-4914-b545-edd2f2c0e593"},"vehicle_type_id":"4","last_reported":1729494617,"current_range_meters":38800,"station_id":"ce4bgup2rcd13ifvqcn0","pricing_plan_id":"cebpf4jnsgd1na2vs0mg"},{"bike_id":"5d52f672-c8c1-4231-b0d6-0d2955c1b1ae","system_id":"levelo_inurba_marseille","lat":43.25934,"lon":5.40908,"is_reserved":false,"is_disabled":false,"rental_uris":{"android":"levelo://app?vid=5d52f672-c8c1-4231-b0d6-0d2955c1b1ae","ios":"levelo://app?vid=5d52f672-c8c1-4231-b0d6-0d2955c1b1ae"},"vehicle_type_id":"4","last_reported":1729494617,"current_range_meters":16800,"station_id":"ce4bhm92rcd13ifvqglg","pricing_plan_id":"cebpf4jnsgd1na2vs0mg"},{"bike_id":"af4c151b-55ef-4585-bbbe-70ad47e8c7a1","system_id":"levelo_inurba_marseille","lat":43.24176,"lon":5.39734,"is_reserved":false,"is_disabled":false,"rental_uris":{"android":"levelo://app?vid=af4c151b-55ef-4585-bbbe-70ad47e8c7a1","ios":"levelo://app?vid=af4c151b-55ef-4585-bbbe-70ad47e8c7a1"},"vehicle_type_id":"4","last_reported":1729494617,"current_range_meters":16000,"station_id":"ce4bhn12rcd13ifvqgpg","pricing_plan_id":"cebpf4jnsgd1na2vs0mg"},{"bike_id":"47a66de3-f83f-4960-b274-89d7e6705640","system_id":"levelo_inurba_marseille","lat":43.28855,"lon":5.39304,"is_reserved":false,"is_disabled":false,"rental_uris":{"android":"levelo://app?vid=47a66de3-f83f-4960-b274-89d7e6705640","ios":"levelo://app?vid=47a66de3-f83f-4960-b274-89d7e6705640"},"vehicle_type_id":"4","last_reported":1729494617,"current_range_meters":37600,"station_id":"ce4bh2p2rcd13ifvqdi0","pricing_plan_id":"cebpf4jnsgd1na2vs0mg"},{"bike_id":"a4988356-8192-430a-8cc6-0d4d4957e38b","system_id":"levelo_inurba_marseille","lat":43.30794,"lon":5.43521,"is_reserved":false,"is_disabled":false,"rental_uris":{"android":"levelo://app?vid=a4988356-8192-430a-8cc6-0d4d4957e38b","ios":"levelo://app?vid=a4988356-8192-430a-8cc6-0d4d4957e38b"},"vehicle_type_id":"4","last_reported":1729494617,"current_range_meters":28000,"station_id":"ce4bhph2rcd13ifvqheg","pricing_plan_id":"cebpf4jnsgd1na2vs0mg"},{"bike_id":"304e116c-22b7-4fec-8df3-5316f5ceb0f4","system_id":"levelo_inurba_marseille","lat":43.33726,"lon":5.39179,"is_reserved":false,"is_disabled":false,"rental_uris":{"android":"levelo://app?vid=304e116c-22b7-4fec-8df3-5316f5ceb0f4","ios":"levelo://app?vid=304e116c-22b7-4fec-8df3-5316f5ceb0f4"},"vehicle_type_id":"4","last_reported":1729494617,"current_range_meters":38800,"station_id":"ce4bhr92rcd13ifvqhsg","pricing_plan_id":"cebpf4jnsgd1na2vs0mg"},{"bike_id":"8146dc5b-11ba-4228-80a8-1d4f45ec3197","system_id":"levelo_inurba_marseille","lat":43.3015,"lon":5.38083,"is_reserved":false,"is_disabled":false,"rental_uris":{"android":"levelo://app?vid=8146dc5b-11ba-4228-80a8-1d4f45ec3197","ios":"levelo://app?vid=8146dc5b-11ba-4228-80a8-1d4f45ec3197"},"vehicle_type_id":"4","last_reported":1729494617,"current_range_meters":35200,"station_id":"ce4bgjp2rcd13ifvqbh0","pricing_plan_id":"cebpf4jnsgd1na2vs0mg"},{"bike_id":"1d1c9d6e-8229-48fa-bac0-60ce590ad3cb","system_id":"levelo_inurba_marseille","lat":43.30153,"lon":5.38078,"is_reserved":false,"is_disabled":false,"rental_uris":{"android":"levelo://app?vid=1d1c9d6e-8229-48fa-bac0-60ce590ad3cb","ios":"levelo://app?vid=1d1c9d6e-8229-48fa-bac0-60ce590ad3cb"},"vehicle_type_id":"4","last_reported":1729494617,"current_range_meters":38000,"station_id":"ce4bgjp2rcd13ifvqbh0","pricing_plan_id":"cebpf4jnsgd1na2vs0mg"},{"bike_id":"baabb23f-cc35-44b9-a42e-20ce6608ec5d","system_id":"levelo_inurba_marseille","lat":43.23153,"lon":5.43712,"is_reserved":false,"is_disabled":false,"rental_uris":{"android":"levelo://app?vid=baabb23f-cc35-44b9-a42e-20ce6608ec5d","ios":"levelo://app?vid=baabb23f-cc35-44b9-a42e-20ce6608ec5d"},"vehicle_type_id":"4","last_reported":1729494617,"current_range_meters":29600,"station_id":"ce4bhmp2rcd13ifvqgog","pricing_plan_id":"cebpf4jnsgd1na2vs0mg"},{"bike_id":"f1d0119e-3fe3-411c-ac9b-3f7a6a4fa987","system_id":"levelo_inurba_marseille","lat":43.33601,"lon":5.41012,"is_reserved":false,"is_disabled":false,"rental_uris":{"android":"levelo://app?vid=f1d0119e-3fe3-411c-ac9b-3f7a6a4fa987","ios":"levelo://app?vid=f1d0119e-3fe3-411c-ac9b-3f7a6a4fa987"},"vehicle_type_id":"4","last_reported":1729494617,"current_range_meters":38400,"station_id":"ce4bhqh2rcd13ifvqhmg","pricing_plan_id":"cebpf4jnsgd1na2vs0mg"},{"bike_id":"7a6289dd-3a08-42ce-8813-80ec3e4c95ab","system_id":"levelo_inurba_marseille","lat":43.30534,"lon":5.38422,"is_reserved":false,"is_disabled":false,"rental_uris":{"android":"levelo://app?vid=7a6289dd-3a08-42ce-8813-80ec3e4c95ab","ios":"levelo://app?vid=7a6289dd-3a08-42ce-8813-80ec3e4c95ab"},"vehicle_type_id":"4","last_reported":1729494617,"current_range_meters":29600,"station_id":"ce4bgg92rcd13ifvqb30","pricing_plan_id":"cebpf4jnsgd1na2vs0mg"},{"bike_id":"cfe568f5-7bca-43cc-89c3-e997d76d29ba","system_id":"levelo_inurba_marseille","lat":43.304941,"lon":5.365442,"is_reserved":false,"is_disabled":false,"rental_uris":{"android":"levelo://app?vid=cfe568f5-7bca-43cc-89c3-e997d76d29ba","ios":"levelo://app?vid=cfe568f5-7bca-43cc-89c3-e997d76d29ba"},"vehicle_type_id":"4","last_reported":1729494617,"current_range_meters":35200,"station_id":"ce4bgs12rcd13ifvqcag","pricing_plan_id":"cebpf4jnsgd1na2vs0mg"},{"bike_id":"be50e200-7523-4429-ad85-273908308ab7","system_id":"levelo_inurba_marseille","lat":43.23954,"lon":5.36634,"is_reserved":false,"is_disabled":false,"rental_uris":{"android":"levelo://app?vid=be50e200-7523-4429-ad85-273908308ab7","ios":"levelo://app?vid=be50e200-7523-4429-ad85-273908308ab7"},"vehicle_type_id":"4","last_reported":1729494617,"current_range_meters":37600,"station_id":"ce4bhi12rcd13ifvqfp0","pricing_plan_id":"cebpf4jnsgd1na2vs0mg"},{"bike_id":"6a1171b1-691d-43c8-acfd-ab0ec6746778","system_id":"levelo_inurba_marseille","lat":43.29035,"lon":5.39966,"is_reserved":false,"is_disabled":false,"rental_uris":{"android":"levelo://app?vid=6a1171b1-691d-43c8-acfd-ab0ec6746778","ios":"levelo://app?vid=6a1171b1-691d-43c8-acfd-ab0ec6746778"},"vehicle_type_id":"4","last_reported":1729494617,"current_range_meters":17200,"station_id":"ce4bh392rcd13ifvqdm0","pricing_plan_id":"cebpf4jnsgd1na2vs0mg"},{"bike_id":"513e3b19-d94c-4fbd-a1c5-c3226b509c4e","system_id":"levelo_inurba_marseille","lat":43.27382,"lon":5.3626,"is_reserved":false,"is_disabled":false,"rental_uris":{"android":"levelo://app?vid=513e3b19-d94c-4fbd-a1c5-c3226b509c4e","ios":"levelo://app?vid=513e3b19-d94c-4fbd-a1c5-c3226b509c4e"},"vehicle_type_id":"4","last_reported":1729494617,"current_range_meters":38400,"station_id":"ce4bhbh2rcd13ifvqeo0","pricing_plan_id":"cebpf4jnsgd1na2vs0mg"},{"bike_id":"9afc1f2e-a237-4687-a14c-68549963ad96","system_id":"levelo_inurba_marseille","lat":43.2885,"lon":5.39301,"is_reserved":false,"is_disabled":false,"rental_uris":{"android":"levelo://app?vid=9afc1f2e-a237-4687-a14c-68549963ad96","ios":"levelo://app?vid=9afc1f2e-a237-4687-a14c-68549963ad96"},"vehicle_type_id":"4","last_reported":1729494617,"current_range_meters":2800,"station_id":"ce4bh2p2rcd13ifvqdi0","pricing_plan_id":"cebpf4jnsgd1na2vs0mg"},{"bike_id":"5b0e9f0e-8175-49e6-a056-e170ae9eb9a9","system_id":"levelo_inurba_marseille","lat":43.30941,"lon":5.39024,"is_reserved":false,"is_disabled":false,"rental_uris":{"android":"levelo://app?vid=5b0e9f0e-8175-49e6-a056-e170ae9eb9a9","ios":"levelo://app?vid=5b0e9f0e-8175-49e6-a056-e170ae9eb9a9"},"vehicle_type_id":"4","last_reported":1729494617,"current_range_meters":35200,"station_id":"ce4bgup2rcd13ifvqco0","pricing_plan_id":"cebpf4jnsgd1na2vs0mg"},{"bike_id":"ec410b17-864e-49b1-89fa-4c6d52662be9","system_id":"levelo_inurba_marseille","lat":43.3054,"lon":5.3672,"is_reserved":false,"is_disabled":false,"rental_uris":{"android":"levelo://app?vid=ec410b17-864e-49b1-89fa-4c6d52662be9","ios":"levelo://app?vid=ec410b17-864e-49b1-89fa-4c6d52662be9"},"vehicle_type_id":"4","last_reported":1729494617,"current_range_meters":39200,"station_id":"ce4bgrp2rcd13ifvqc9g","pricing_plan_id":"cebpf4jnsgd1na2vs0mg"},{"bike_id":"056484fe-5a6c-4f7d-86b8-9b977e1e6184","system_id":"levelo_inurba_marseille","lat":43.29552,"lon":5.42285,"is_reserved":false,"is_disabled":false,"rental_uris":{"android":"levelo://app?vid=056484fe-5a6c-4f7d-86b8-9b977e1e6184","ios":"levelo://app?vid=056484fe-5a6c-4f7d-86b8-9b977e1e6184"},"vehicle_type_id":"4","last_reported":1729494617,"current_range_meters":38800,"station_id":"ce4bhph2rcd13ifvqhdg","pricing_plan_id":"cebpf4jnsgd1na2vs0mg"},{"bike_id":"47b139eb-680f-42ac-99b0-0d28418e7cff","system_id":"levelo_inurba_marseille","lat":43.30458,"lon":5.40181,"is_reserved":false,"is_disabled":false,"rental_uris":{"android":"levelo://app?vid=47b139eb-680f-42ac-99b0-0d28418e7cff","ios":"levelo://app?vid=47b139eb-680f-42ac-99b0-0d28418e7cff"},"vehicle_type_id":"4","last_reported":1729494617,"current_range_meters":35200,"station_id":"ce4bh112rcd13ifvqda0","pricing_plan_id":"cebpf4jnsgd1na2vs0mg"},{"bike_id":"ef172753-9e46-438a-8b1c-9816c382f862","system_id":"levelo_inurba_marseille","lat":43.30459,"lon":5.37899,"is_reserved":false,"is_disabled":false,"rental_uris":{"android":"levelo://app?vid=ef172753-9e46-438a-8b1c-9816c382f862","ios":"levelo://app?vid=ef172753-9e46-438a-8b1c-9816c382f862"},"vehicle_type_id":"4","last_reported":1729494617,"current_range_meters":17200,"station_id":"ce4bgup2rcd13ifvqcn0","pricing_plan_id":"cebpf4jnsgd1na2vs0mg"},{"bike_id":"be7101ff-0b4e-48fd-9365-13eca7a70c93","system_id":"levelo_inurba_marseille","lat":43.34145,"lon":5.40907,"is_reserved":false,"is_disabled":false,"rental_uris":{"android":"levelo://app?vid=be7101ff-0b4e-48fd-9365-13eca7a70c93","ios":"levelo://app?vid=be7101ff-0b4e-48fd-9365-13eca7a70c93"},"vehicle_type_id":"4","last_reported":1729494617,"current_range_meters":19200,"station_id":"ce4bhqh2rcd13ifvqhlg","pricing_plan_id":"cebpf4jnsgd1na2vs0mg"},{"bike_id":"9249d284-bb93-4634-9150-1aad7837644b","system_id":"levelo_inurba_marseille","lat":43.30458,"lon":5.37903,"is_reserved":false,"is_disabled":false,"rental_uris":{"android":"levelo://app?vid=9249d284-bb93-4634-9150-1aad7837644b","ios":"levelo://app?vid=9249d284-bb93-4634-9150-1aad7837644b"},"vehicle_type_id":"4","last_reported":1729494617,"current_range_meters":19600,"station_id":"ce4bgup2rcd13ifvqcn0","pricing_plan_id":"cebpf4jnsgd1na2vs0mg"},