{"last_updated":1691175921,"ttl":30,"version":"2.2","data":{"bikes":[{"bike_id":"d11bc6f4-9056-48aa-bb4a-55882297033e","system_id":"levelo_inurba_marseille","lat":43.314811,"lon":5.373103,"is_reserved":false,"is_disabled":false,"rental_uris":{"android":"levelo://app?vid=d11bc6f4-9056-48aa-bb4a-55882297033e","ios":"levelo://app?vid=d11bc6f4-9056-48aa-bb4a-55882297033e"},"vehicle_type_id":"4","last_reported":1691175922,"current_range_meters":9600,"station_id":"ce4bgt12rcd13ifvqcd0","pricing_plan_id":"free"},{"bike_id":"7cfb81a3-fd7f-41d1-987d-c1037b7c6b4a","system_id":"levelo_inurba_marseille","lat":43.31437,"lon":5.37444,"is_reserved":false,"is_disabled":false,"rental_uris":{"android":"levelo://app?vid=7cfb81a3-fd7f-41d1-987d-c1037b7c6b4a","ios":"levelo://app?vid=7cfb81a3-fd7f-41d1-987d-c1037b7c6b4a"},"vehicle_type_id":"4","last_reported":1691175922,"current_range_meters":17200,"station_id":"","pricing_plan_id":"free"},{"bike_id":"b6666d6d-20b3-40a5-86d4-84fd9fd7e335","system_id":"levelo_inurba_marseille","lat":43.30541,"lon":5.367,"is_reserved":false,"is_disabled":false,"rental_uris":{"android":"levelo://app?vid=b6666d6d-20b3-40a5-86d4-84fd9fd7e335","ios":"levelo://app?vid=b6666d6d-20b3-40a5-86d4-84fd9fd7e335"},"vehicle_type_id":"4","last_reported":1691175922,"current_range_meters":0,"station_id":"ce4bgrp2rcd13ifvqc9g","pricing_plan_id":"free"},{"bike_id":"f20ea888-8740-440b-bfeb-8eb2a7c1f652","system_id":"levelo_inurba_marseille","lat":43.30599,"lon":5.3723,"is_reserved":false,"is_disabled":false,"rental_uris":{"android":"levelo://app?vid=f20ea888-8740-440b-bfeb-8eb2a7c1f652","ios":"levelo://app?vid=f20ea888-8740-440b-bfeb-8eb2a7c1f652"},"vehicle_type_id":"4","last_reported":1691175922,"current_range_meters":31200,"station_id":"ce4bgqh2rcd13ifvqc4g","pricing_plan_id":"free"},{"bike_id":"9a55652c-c545-42e9-8400-94eb4f4edcfb","system_id":"levelo_inurba_marseille","lat":43.31122,"lon":5.37757,"is_reserved":false,"is_disabled":false,"rental_uris":{"android":"levelo://app?vid=9a55652c-c545-42e9-8400-94eb4f4edcfb","ios":"levelo://app?vid=9a55652c-c545-42e9-8400-94eb4f4edcfb"},"vehicle_type_id":"4","last_reported":1691175922,"current_range_meters":13600,"station_id":"ce4bgt92rcd13ifvqcg0","pricing_plan_id":"free"},{"bike_id":"4caa1c6a-9785-4ae7-9215-1c13b072f082","system_id":"levelo_inurba_marseille","lat":43.31124,"lon":5.37767,"is_reserved":false,"is_disabled":false,"rental_uris":{"android":"levelo://app?vid=4caa1c6a-9785-4ae7-9215-1c13b072f082","ios":"levelo://app?vid=4caa1c6a-9785-4ae7-9215-1c13b072f082"},"vehicle_type_id":"4","last_reported":1691175922,"current_range_meters":10000,"station_id":"ce4bgt92rcd13ifvqcg0","pricing_plan_id":"free"},{"bike_id":"98204378-ee5f-4653-a841-5c0f80498805","system_id":"levelo_inurba_marseille","lat":43.30777,"lon":5.37656,"is_reserved":false,"is_disabled":false,"rental_uris":{"android":"levelo://app?vid=98204378-ee5f-4653-a841-5c0f80498805","ios":"levelo://app?vid=98204378-ee5f-4653-a841-5c0f80498805"},"vehicle_type_id":"4","last_reported":1691175922,"current_range_meters":13200,"station_id":"ce4bgv92rcd13ifvqcq0","pricing_plan_id":"free"},{"bike_id":"6e7d2a81-eb04-467b-8744-5fac68edc62a","system_id":"levelo_inurba_marseille","lat":43.307945,"lon":5.376487,"is_reserved":false,"is_disabled":false,"rental_uris":{"android":"levelo://app?vid=6e7d2a81-eb04-467b-8744-5fac68edc62a","ios":"levelo://app?vid=6e7d2a81-eb04-467b-8744-5fac68edc62a"},"vehicle_type_id":"4","last_reported":1691175922,"current_range_meters":4400,"station_id":"ce4bgv92rcd13ifvqcq0","pricing_plan_id":"free"},{"bike_id":"b8caa492-4473-497b-83a8-f40b87c90e82","system_id":"levelo_inurba_marseille","lat":43.317075,"lon":5.377367,"is_reserved":false,"is_disabled":false,"rental_uris":{"android":"levelo://app?vid=b8caa492-4473-497b-83a8-f40b87c90e82","ios":"levelo://app?vid=b8caa492-4473-497b-83a8-f40b87c90e82"},"vehicle_type_id":"4","last_reported":1691175922,"current_range_meters":11600,"station_id":"ce4bgth2rcd13ifvqch0","pricing_plan_id":"free"},{"bike_id":"2e77b393-872c-4ec9-aca1-4d4e9382d578","system_id":"levelo_inurba_marseille","lat":43.303046,"lon":5.368981,"is_reserved":false,"is_disabled":false,"rental_uris":{"android":"levelo://app?vid=2e77b393-872c-4ec9-aca1-4d4e9382d578","ios":"levelo://app?vid=2e77b393-872c-4ec9-aca1-4d4e9382d578"},"vehicle_type_id":"4","last_reported":1691175922,"current_range_meters":6400,"station_id":"ce4bgqh2rcd13ifvqc5g","pricing_plan_id":"free"},{"bike_id":"d291e716-225d-4669-8ded-3af872484c42","system_id":"levelo_inurba_marseille","lat":43.31529,"lon":5.38032,"is_reserved":false,"is_disabled":false,"rental_uris":{"android":"levelo://app?vid=d291e716-225d-4669-8ded-3af872484c42","ios":"levelo://app?vid=d291e716-225d-4669-8ded-3af872484c42"},"vehicle_type_id":"4","last_reported":1691175922,"current_range_meters":20400,"station_id":"ce4bhsp2rcd13ifvqi50","pricing_plan_id":"free"},{"bike_id":"80d20e39-f50e-4a7e-b27f-c94adcc63542","system_id":"levelo_inurba_marseille","lat":43.32223,"lon":5.37635,"is_reserved":false,"is_disabled":false,"rental_uris":{"android":"levelo://app?vid=80d20e39-f50e-4a7e-b27f-c94adcc63542","ios":"levelo://app?vid=80d20e39-f50e-4a7e-b27f-c94adcc63542"},"vehicle_type_id":"4","last_reported":1691175922,"current_range_meters":0,"station_id":"","pricing_plan_id":"free"},{"bike_id":"0e291cff-f269-46cb-a3eb-03ae706c464e","system_id":"levelo_inurba_marseille","lat":43.304606,"lon":5.379026,"is_reserved":false,"is_disabled":false,"rental_uris":{"android":"levelo://app?vid=0e291cff-f269-46cb-a3eb-03ae706c464e","ios":"levelo://app?vid=0e291cff-f269-46cb-a3eb-03ae706c464e"},"vehicle_type_id":"4","last_reported":1691175922,"current_range_meters":14000,"station_id":"ce4bgup2rcd13ifvqcn0","pricing_plan_id":"free"},{"bike_id":"15dfdfb8-4280-4d7a-b34e-9f725dbac579","system_id":"levelo_inurba_marseille","lat":43.304606,"lon":5.379026,"is_reserved":false,"is_disabled":false,"rental_uris":{"android":"levelo://app?vid=15dfdfb8-4280-4d7a-b34e-9f725dbac579","ios":"levelo://app?vid=15dfdfb8-4280-4d7a-b34e-9f725dbac579"},"vehicle_type_id":"4","last_reported":1691175922,"current_range_meters":18400,"station_id":"ce4bgup2rcd13ifvqcn0","pricing_plan_id":"free"},{"bike_id":"d5f7f396-3296-41b5-bc26-a6ef0187ad90","system_id":"levelo_inurba_marseille","lat":43.31991,"lon":5.38139,"is_reserved":false,"is_disabled":false,"rental_uris":{"android":"levelo://app?vid=d5f7f396-3296-41b5-bc26-a6ef0187ad90","ios":"levelo://app?vid=d5f7f396-3296-41b5-bc26-a6ef0187ad90"},"vehicle_type_id":"4","last_reported":1691175922,"current_range_meters":0,"station_id":"ce4bhr12rcd13ifvqhpg","pricing_plan_id":"free"},{"bike_id":"45dd4b4b-71c2-4c13-9b61-10ee2e5b0fcb","system_id":"levelo_inurba_marseille","lat":43.319935,"lon":5.381699,"is_reserved":false,"is_disabled":false,"rental_uris":{"android":"levelo://app?vid=45dd4b4b-71c2-4c13-9b61-10ee2e5b0fcb","ios":"levelo://app?vid=45dd4b4b-71c2-4c13-9b61-10ee2e5b0fcb"},"vehicle_type_id":"4","last_reported":1691175922,"current_range_meters":24000,"station_id":"ce4bhr12rcd13ifvqhpg","pricing_plan_id":"free"},{"bike_id":"a1441ed0-1071-4f98-8154-3b20b7161713","system_id":"levelo_inurba_marseille","lat":43.313571,"lon":5.384829,"is_reserved":false,"is_disabled":false,"rental_uris":{"android":"levelo://app?vid=a1441ed0-1071-4f98-8154-3b20b7161713","ios":"levelo://app?vid=a1441ed0-1071-4f98-8154-3b20b7161713"},"vehicle_type_id":"4","last_reported":1691175922,"current_range_meters":17200,"station_id":"ce4bgt92rcd13ifvqcf0","pricing_plan_id":"free"},{"bike_id":"3cb7fd70-121e-4eb5-9a01-ecc8718aa1bb","system_id":"levelo_inurba_marseille","lat":43.29942,"lon":5.36537,"is_reserved":false,"is_disabled":false,"rental_uris":{"android":"levelo://app?vid=3cb7fd70-121e-4eb5-9a01-ecc8718aa1bb","ios":"levelo://app?vid=3cb7fd70-121e-4eb5-9a01-ecc8718aa1bb"},"vehicle_type_id":"4","last_reported":1691175922,"current_range_meters":26800,"station_id":"ce4bgm92rcd13ifvqbr0","pricing_plan_id":"free"},{"bike_id":"bb4af7d3-e20e-4f32-9523-e1d930b303fe","system_id":"levelo_inurba_marseille","lat":43.29934,"lon":5.36542,"is_reserved":false,"is_disabled":false,"rental_uris":{"android":"levelo://app?vid=bb4af7d3-e20e-4f32-9523-e1d930b303fe","ios":"levelo://app?vid=bb4af7d3-e20e-4f32-9523-e1d930b303fe"},"vehicle_type_id":"4","last_reported":1691175922,"current_range_meters":3200,"station_id":"ce4bgm92rcd13ifvqbr0","pricing_plan_id":"free"},{"bike_id":"b12df00d-7a90-4381-b263-362fad18b883","system_id":"levelo_inurba_marseille","lat":43.29974,"lon":5.37173,"is_reserved":false,"is_disabled":false,"rental_uris":{"android":"levelo://app?vid=b12df00d-7a90-4381-b263-362fad18b883","ios":"levelo://app?vid=b12df00d-7a90-4381-b263-362fad18b883"},"vehicle_type_id":"4","last_reported":1691175922,"current_range_meters":5200,"station_id":"ce4bgr92rcd13ifvqc7g","pricing_plan_id":"free"},{"bike_id":"c941d72e-3f7d-4c7c-81ca-82d49b02d34f","system_id":"levelo_inurba_marseille","lat":43.29973,"lon":5.37173,"is_reserved":false,"is_disabled":false,"rental_uris":{"android":"levelo://app?vid=c941d72e-3f7d-4c7c-81ca-82d49b02d34f","ios":"levelo://app?vid=c941d72e-3f7d-4c7c-81ca-82d49b02d34f"},"vehicle_type_id":"4","last_reported":1691175922,"current_range_meters":17600,"station_id":"ce4bgr92rcd13ifvqc7g","pricing_plan_id":"free"},{"bike_id":"f3cf8499-9170-466a-a3e8-890285a91659","system_id":"levelo_inurba_marseille","lat":43.31315,"lon":5.38602,"is_reserved":false,"is_disabled":false,"rental_uris":{"android":"levelo://app?vid=f3cf8499-9170-466a-a3e8-890285a91659","ios":"levelo://app?vid=f3cf8499-9170-466a-a3e8-890285a91659"},"vehicle_type_id":"4","last_reported":1691175922,"current_range_meters":2400,"station_id":"","pricing_plan_id":"free"},{"bike_id":"bf96f25e-add4-48d2-a854-d3fe7c3bc469","system_id":"levelo_inurba_marseille","lat":43.31322,"lon":5.38602,"is_reserved":false,"is_disabled":false,"rental_uris":{"android":"levelo://app?vid=bf96f25e-add4-48d2-a854-d3fe7c3bc469","ios":"levelo://app?vid=bf96f25e-add4-48d2-a854-d3fe7c3bc469"},"vehicle_type_id":"4","last_reported":1691175922,"current_range_meters":4800,"station_id":"","pricing_plan_id":"free"},{"bike_id":"e10fae54-9b81-49f4-ba53-a6a6d1ac2154","system_id":"levelo_inurba_marseille","lat":43.311722,"lon":5.387247,"is_reserved":false,"is_disabled":false,"rental_uris":{"android":"levelo://app?vid=e10fae54-9b81-49f4-ba53-a6a6d1ac2154","ios":"levelo://app?vid=e10fae54-9b81-49f4-ba53-a6a6d1ac2154"},"vehicle_type_id":"4","last_reported":1691175922,"current_range_meters":14000,"station_id":"ce4bgv12rcd13ifvqcp0","pricing_plan_id":"free"},{"bike_id":"da177490-0718-4741-909d-0a5bd42c686b","system_id":"levelo_inurba_marseille","lat":43.298433,"lon":5.362774,"is_reserved":false,"is_disabled":false,"rental_uris":{"android":"levelo://app?vid=da177490-0718-4741-909d-0a5bd42c686b","ios":"levelo://app?vid=da177490-0718-4741-909d-0a5bd42c686b"},"vehicle_type_id":"4","last_reported":1691175922,"current_range_meters":20800,"station_id":"ce4bgpp2rcd13ifvqc3g","pricing_plan_id":"free"},{"bike_id":"30537d43-af02-4a10-b928-7b9b8cf633d2","system_id":"levelo_inurba_marseille","lat":43.30542,"lon":5.38432,"is_reserved":false,"is_disabled":false,"rental_uris":{"android":"levelo://app?vid=30537d43-af02-4a10-b928-7b9b8cf633d2","ios":"levelo://app?vid=30537d43-af02-4a10-b928-7b9b8cf633d2"},"vehicle_type_id":"4","last_reported":1691175922,"current_range_meters":31200,"station_id":"ce4bgg92rcd13ifvqb30","pricing_plan_id":"free"},{"bike_id":"e926ac53-8bd0-454f-b56a-e68805ed8d6f","system_id":"levelo_inurba_marseille","lat":43.299243,"lon":5.37481,"is_reserved":false,"is_disabled":false,"rental_uris":{"android":"levelo://app?vid=e926ac53-8bd0-454f-b56a-e68805ed8d6f","ios":"levelo://app?vid=e926ac53-8bd0-454f-b56a-e68805ed8d6f"},"vehicle_type_id":"4","last_reported":1691175922,"current_range_meters":17600,"station_id":"ce4bgjh2rcd13ifvqbg0","pricing_plan_id":"free"},{"bike_id":"53034758-d18a-4e0b-a200-fa4baf2b45bc","system_id":"levelo_inurba_marseille","lat":43.311722,"lon":5.387247,"is_reserved":false,"is_disabled":false,"rental_uris":{"android":"levelo://app?vid=53034758-d18a-4e0b-a200-fa4baf2b45bc","ios":"levelo://app?vid=53034758-d18a-4e0b-a200-fa4baf2b45bc"},"vehicle_type_id":"4","last_reported":1691175922,"current_range_meters":800,"station_id":"ce4bgv12rcd13ifvqcp0","pricing_plan_id":"free"},{"bike_id":"d573b142-8979-4dcc-9991-73ea27b94f45","system_id":"levelo_inurba_marseille","lat":43.311722,"lon":5.387247,"is_reserved":false,"is_disabled":false,"rental_uris":{"android":"levelo://app?vid=d573b142-8979-4dcc-9991-73ea27b94f45","ios":"levelo://app?vid=d573b142-8979-4dcc-9991-73ea27b94f45"},"vehicle_type_id":"4","last_reported":1691175922,"current_range_meters":30800,"station_id":"ce4bgv12rcd13ifvqcp0","pricing_plan_id":"free"},{"bike_id":"db993b36-ea81-4814-923d-0ea56b9d014c","system_id":"levelo_inurba_marseille","lat":43.311722,"lon":5.387247,"is_reserved":false,"is_disabled":false,"rental_uris":{"android":"levelo://app?vid=db993b36-ea81-4814-923d-0ea56b9d014c","ios":"levelo://app?vid=db993b36-ea81-4814-923d-0ea56b9d014c"},"vehicle_type_id":"4","last_reported":1691175922,"current_range_meters":23200,"station_id":"ce4bgv12rcd13ifvqcp0","pricing_plan_id":"free"},{"bike_id":"1de3331d-4b86-41a4-8d0c-fefd964b756d","system_id":"levelo_inurba_marseille","lat":43.311722,"lon":5.387247,"is_reserved":false,"is_disabled":false,"rental_uris":{"android":"levelo://app?vid=1de3331d-4b86-41a4-8d0c-fefd964b756d","ios":"levelo://app?vid=1de3331d-4b86-41a4-8d0c-fefd964b756d"},"vehicle_type_id":"4","last_reported":1691175922,"current_range_meters":31600,"station_id":"ce4bgv12rcd13ifvqcp0","pricing_plan_id":"free"},{"bike_id":"b8cb5be2-24e6-48aa-bc88-08d3d7b2eb3a","system_id":"levelo_inurba_marseille","lat":43.311722,"lon":5.387247,"is_reserved":false,"is_disabled":false,"rental_uris":{"android":"levelo://app?vid=b8cb5be2-24e6-48aa-bc88-08d3d7b2eb3a","ios":"levelo://app?vid=b8cb5be2-24e6-48aa-bc88-08d3d7b2eb3a"},"vehicle_type_id":"4","last_reported":1691175922,"current_range_meters":21600,"station_id":"ce4bgv12rcd13ifvqcp0","pricing_plan_id":"free"},{"bike_id":"524d8772-aa1b-409e-ac89-8fe2cf931d65","system_id":"levelo_inurba_marseille","lat":43.311722,"lon":5.387247,"is_reserved":false,"is_disabled":false,"rental_uris":{"android":"levelo://app?vid=524d8772-aa1b-409e-ac89-8fe2cf931d65","ios":"levelo://app?vid=524d8772-aa1b-409e-ac89-8fe2cf931d65"},"vehicle_type_id":"4","last_reported":1691175922,"current_range_meters":15200,"station_id":"ce4bgv12rcd13ifvqcp0","pricing_plan_id":"free"},{"bike_id":"54e75ddc-e159-4779-9407-5aae85cc8294","system_id":"levelo_inurba_marseille","lat":43.299243,"lon":5.37481,"is_reserved":false,"is_disabled":false,"rental_uris":{"android":"levelo://app?vid=54e75ddc-e159-4779-9407-5aae85cc8294","ios":"levelo://app?vid=54e75ddc-e159-4779-9407-5aae85cc8294"},"vehicle_type_id":"4","last_reported":1691175922,"current_range_meters":23200,"station_id":"ce4bgjh2rcd13ifvqbg0","pricing_plan_id":"free"},{"bike_id":"40eebff0-17df-4be3-bbbc-9a2b3d679066","system_id":"levelo_inurba_marseille","lat":43.311722,"lon":5.387247,"is_reserved":false,"is_disabled":false,"rental_uris":{"android":"levelo://app?vid=40eebff0-17df-4be3-bbbc-9a2b3d679066","ios":"levelo://app?vid=40eebff0-17df-4be3-bbbc-9a2b3d679066"},"vehicle_type_id":"4","last_reported":1691175922,"current_range_meters":2800,"station_id":"ce4bgv12rcd13ifvqcp0","pricing_plan_id":"free"},{"bike_id":"8832c30c-65bc-41b1-8738-23bd28c331e2","system_id":"levelo_inurba_marseille","lat":43.297794,"lon":5.370888,"is_reserved":false,"is_disabled":false,"rental_uris":{"android":"levelo://app?vid=8832c30c-65bc-41b1-8738-23bd28c331e2","ios":"levelo://app?vid=8832c30c-65bc-41b1-8738-23bd28c331e2"},"vehicle_type_id":"4","last_reported":1691175922,"current_range_meters":11600,"station_id":"ce4bgop2rcd13ifvqc1g","pricing_plan_id":"free"},{"bike_id":"dd789220-e7b5-42c1-b9dc-dc4243148021","system_id":"levelo_inurba_marseille","lat":43.297163,"lon":5.365866,"is_reserved":false,"is_disabled":false,"rental_uris":{"android":"levelo://app?vid=dd789220-e7b5-42c1-b9dc-dc4243148021","ios":"levelo://app?vid=dd789220-e7b5-42c1-b9dc-dc4243148021"},"vehicle_type_id":"4","last_reported":1691175922,"current_range_meters":31600,"station_id":"ce4bgn12rcd13ifvqbt0","pricing_plan_id":"free"},{"bike_id":"b68cb129-a137-4c43-a5bb-63d904e7a3c4","system_id":"levelo_inurba_marseille","lat":43.2968,"lon":5.37291,"is_reserved":false,"is_disabled":false,"rental_uris":{"android":"levelo://app?vid=b68cb129-a137-4c43-a5bb-63d904e7a3c4","ios":"levelo://app?vid=b68cb129-a137-4c43-a5bb-63d904e7a3c4"},"vehicle_type_id":"4","last_reported":1691175922,"current_range_meters":11600,"station_id":"ce4bgk12rcd13ifvqbj0","pricing_plan_id":"free"},{"bike_id":"8fefc43a-73fb-4379-a183-de4b86ad5083","system_id":"levelo_inurba_marseille","lat":43.2968,"lon":5.37291,"is_reserved":false,"is_disabled":false,"rental_uris":{"android":"levelo://app?vid=8fefc43a-73fb-4379-a183-de4b86ad5083","ios":"levelo://app?vid=8fefc43a-73fb-4379-a183-de4b86ad5083"},"vehicle_type_id":"4","last_reported":1691175922,"current_range_meters":30000,"station_id":"ce4bgk12rcd13ifvqbj0","pricing_plan_id":"free"},{"bike_id":"6fab6408-560c-4d63-8866-b097e7f70531","system_id":"levelo_inurba_marseille","lat":43.296129,"lon":5.370777,"is_reserved":false,"is_disabled":false,"rental_uris":{"android":"levelo://app?vid=6fab6408-560c-4d63-8866-b097e7f70531","ios":"levelo://app?vid=6fab6408-560c-4d63-8866-b097e7f70531"},"vehicle_type_id":"4","last_reported":1691175922,"current_range_meters":19200,"station_id":"ce4bgnh2rcd13ifvqc0g","pricing_plan_id":"free"},{"bike_id":"14a6f951-53b9-4d55-9851-1b0d929019d7","system_id":"levelo_inurba_marseille","lat":43.296131,"lon":5.370773,"is_reserved":false,"is_disabled":false,"rental_uris":{"android":"levelo://app?vid=14a6f951-53b9-4d55-9851-1b0d929019d7","ios":"levelo://app?vid=14a6f951-53b9-4d55-9851-1b0d929019d7"},"vehicle_type_id":"4","last_reported":1691175922,"current_range_meters":26800,"station_id":"ce4bgnh2rcd13ifvqc0g","pricing_plan_id":"free"},{"bike_id":"e18e2187-a371-46e9-8364-a30ac831929a","system_id":"levelo_inurba_marseille","lat":43.29573,"lon":5.367355,"is_reserved":false,"is_disabled":false,"rental_uris":{"android":"levelo://app?vid=e18e2187-a371-46e9-8364-a30ac831929a","ios":"levelo://app?vid=e18e2187-a371-46e9-8364-a30ac831929a"},"vehicle_type_id":"4","last_reported":1691175922,"current_range_meters":20800,"station_id":"ce4bgph2rcd13ifvqc2g","pricing_plan_id":"free"},{"bike_id":"572bb75f-4fe3-4ff9-ad6a-8f97c3630940","system_id":"levelo_inurba_marseille","lat":43.29909,"lon":5.3813,"is_reserved":false,"is_disabled":false,"rental_uris":{"android":"levelo://app?vid=572bb75f-4fe3-4ff9-ad6a-8f97c3630940","ios":"levelo://app?vid=572bb75f-4fe3-4ff9-ad6a-8f97c3630940"},"vehicle_type_id":"4","last_reported":1691175922,"current_range_meters":4800,"station_id":"ce4bgj12rcd13ifvqbc0","pricing_plan_id":"free"},{"bike_id":"46b599ba-d8c8-4386-86c2-a3e23fdad12f","system_id":"levelo_inurba_marseille","lat":43.299028,"lon":5.381509,"is_reserved":false,"is_disabled":false,"rental_uris":{"android":"levelo://app?vid=46b599ba-d8c8-4386-86c2-a3e23fdad12f","ios":"levelo://app?vid=46b599ba-d8c8-4386-86c2-a3e23fdad12f"},"vehicle_type_id":"4","last_reported":1691175922,"current_range_meters":14800,"station_id":"ce4bgj12rcd13ifvqbc0","pricing_plan_id":"free"},{"bike_id":"6b4a9a06-6e60-4739-ae8b-def7b0a9c741","system_id":"levelo_inurba_marseille","lat":43.2991,"lon":5.38141,"is_reserved":false,"is_disabled":false,"rental_uris":{"android":"levelo://app?vid=6b4a9a06-6e60-4739-ae8b-def7b0a9c741","ios":"levelo://app?vid=6b4a9a06-6e60-4739-ae8b-def7b0a9c741"},"vehicle_type_id":"4","last_reported":1691175922,"current_range_meters":4400,"station_id":"ce4bgj12rcd13ifvqbc0","pricing_plan_id":"free"},{"bike_id":"16b50dc5-51d8-4a3a-a062-81673184c4b7","system_id":"levelo_inurba_marseille","lat":43.29905,"lon":5.38136,"is_reserved":false,"is_disabled":false,"rental_uris":{"android":"levelo://app?vid=16b50dc5-51d8-4a3a-a062-81673184c4b7","ios":"levelo://app?vid=16b50dc5-51d8-4a3a-a062-81673184c4b7"},"vehicle_type_id":"4","last_reported":1691175922,"current_range_meters":800,"station_id":"ce4bgj12rcd13ifvqbc0","pricing_plan_id":"free"},{"bike_id":"4c147a18-b3f4-495e-a17a-a8edc8f66588","system_id":"levelo_inurba_marseille","lat":43.299028,"lon":5.381509,"is_reserved":false,"is_disabled":false,"rental_uris":{"android":"levelo://app?vid=4c147a18-b3f4-495e-a17a-a8edc8f66588","ios":"levelo://app?vid=4c147a18-b3f4-495e-a17a-a8edc8f66588"},"vehicle_type_id":"4","last_reported":1691175922,"current_range_meters":26800,"station_id":"ce4bgj12rcd13ifvqbc0","pricing_plan_id":"free"},{"bike_id":"d928f4a2-2cce-4e2f-b17e-c1131eb637cc","system_id":"levelo_inurba_marseille","lat":43.3096,"lon":5.39033,"is_reserved":false,"is_disabled":false,"rental_uris":{"android":"levelo://app?vid=d928f4a2-2cce-4e2f-b17e-c1131eb637cc","ios":"levelo://app?vid=d928f4a2-2cce-4e2f-b17e-c1131eb637cc"},"vehicle_type_id":"4","last_reported":1691175922,"current_range_meters":27200,"station_id":"ce4bgup2rcd13ifvqco0","pricing_plan_id":"free"},{"bike_id":"63096b88-9083-4eb9-9216-4b36fd764a8f","system_id":"levelo_inurba_marseille","lat":43.30959,"lon":5.39034,"is_reserved":false,"is_disabled":false,"rental_uris":{"android":"levelo://app?vid=63096b88-9083-4eb9-9216-4b36fd764a8f","ios":"levelo://app?vid=63096b88-9083-4eb9-9216-4b36fd764a8f"},"vehicle_type_id":"4","last_reported":1691175922,"current_range_meters":30400,"station_id":"ce4bgup2rcd13ifvqco0","pricing_plan_id":"free"},{"bike_id":"1d2a28e8-b235-4109-a57a-59e0fa16c591","system_id":"levelo_inurba_marseille","lat":43.30951,"lon":5.39034,"is_reserved":false,"is_disabled":false,"rental_uris":{"android":"levelo://app?vid=1d2a28e8-b235-4109-a57a-59e0fa16c591","ios":"levelo://app?vid=1d2a28e8-b235-4109-a57a-59e0fa16c591"},"vehicle_type_id":"4","last_reported":1691175922,"current_range_meters":15600,"station_id":"ce4bgup2rcd13ifvqco0","pricing_plan_id":"free"},{"bike_id":"1b58ab06-e110-4265-98fb-3d1c4d88df16","system_id":"levelo_inurba_marseille","lat":43.30955,"lon":5.39038,"is_reserved":false,"is_disabled":false,"rental_uris":{"android":"levelo://app?vid=1b58ab06-e110-4265-98fb-3d1c4d88df16","ios":"levelo://app?vid=1b58ab06-e110-4265-98fb-3d1c4d88df16"},"vehicle_type_id":"4","last_reported":1691175922,"current_range_meters":31200,"station_id":"ce4bgup2rcd13ifvqco0","pricing_plan_id":"free"},{"bike_id":"a51a82e0-460a-40d9-b9eb-c16707b36e62","system_id":"levelo_inurba_marseille","lat":43.30957,"lon":5.3904,"is_reserved":false,"is_disabled":false,"rental_uris":{"android":"levelo://app?vid=a51a82e0-460a-40d9-b9eb-c16707b36e62","ios":"levelo://app?vid=a51a82e0-460a-40d9-b9eb-c16707b36e62"},"vehicle_type_id":"4","last_reported":1691175922,"current_range_meters":31200,"station_id":"ce4bgup2rcd13ifvqco0","pricing_plan_id":"free"},{"bike_id":"d45af358-87a2-4a1d-906b-0af217355bf3","system_id":"levelo_inurba_marseille","lat":43.30957,"lon":5.3904,"is_reserved":false,"is_disabled":false,"rental_uris":{"android":"levelo://app?vid=d45af358-87a2-4a1d-906b-0af217355bf3","ios":"levelo://app?vid=d45af358-87a2-4a1d-906b-0af217355bf3"},"vehicle_type_id":"4","last_reported":1691175922,"current_range_meters":23200,"station_id":"ce4bgup2rcd13ifvqco0","pricing_plan_id":"free"},{"bike_id":"5ee73636-ab6c-4db3-9e1d-b7ba13a076aa","system_id":"levelo_inurba_marseille","lat":43.3097,"lon":5.39044,"is_reserved":false,"is_disabled":false,"rental_uris":{"android":"levelo://app?vid=5ee73636-ab6c-4db3-9e1d-b7ba13a076aa","ios":"levelo://app?vid=5ee73636-ab6c-4db3-9e1d-b7ba13a076aa"},"vehicle_type_id":"4","last_reported":1691175922,"current_range_meters":27600,"station_id":"ce4bgup2rcd13ifvqco0","pricing_plan_id":"free"},{"bike_id":"f36608ba-2330-4f64-afa4-f1f49311ca56","system_id":"levelo_inurba_marseille","lat":43.30961,"lon":5.39046,"is_reserved":false,"is_disabled":false,"rental_uris":{"android":"levelo://app?vid=f36608ba-2330-4f64-afa4-f1f49311ca56","ios":"levelo://app?vid=f36608ba-2330-4f64-afa4-f1f49311ca56"},"vehicle_type_id":"4","last_reported":1691175922,"current_range_meters":31600,"station_id":"ce4bgup2rcd13ifvqco0","pricing_plan_id":"free"},{"bike_id":"e9c2df05-b501-4869-8e98-5af0faecaf8b","system_id":"levelo_inurba_marseille","lat":43.3096,"lon":5.39046,"is_reserved":false,"is_disabled":false,"rental_uris":{"android":"levelo://app?vid=e9c2df05-b501-4869-8e98-5af0faecaf8b","ios":"levelo://app?vid=e9c2df05-b501-4869-8e98-5af0faecaf8b"},"vehicle_type_id":"4","last_reported":1691175922,"current_range_meters":31200,"station_id":"ce4bgup2rcd13ifvqco0","pricing_plan_id":"free"},{"bike_id":"749ca006-96f4-415e-9ec8-0a377bff9c7f","system_id":"levelo_inurba_marseille","lat":43.30952,"lon":5.39045,"is_reserved":false,"is_disabled":false,"rental_uris":{"android":"levelo://app?vid=749ca006-96f4-415e-9ec8-0a377bff9c7f","ios":"levelo://app?vid=749ca006-96f4-415e-9ec8-0a377bff9c7f"},"vehicle_type_id":"4","last_reported":1691175922,"current_range_meters":31200,"station_id":"ce4bgup2rcd13ifvqco0","pricing_plan_id":"free"},{"bike_id":"f0b1921d-8fc5-42f6-8214-26455e772ce5","system_id":"levelo_inurba_marseille","lat":43.309589,"lon":5.390258,"is_reserved":false,"is_disabled":false,"rental_uris":{"android":"levelo://app?vid=f0b1921d-8fc5-42f6-8214-26455e772ce5","ios":"levelo://app?vid=f0b1921d-8fc5-42f6-8214-26455e772ce5"},"vehicle_type_id":"4","last_reported":1691175922,"current_range_meters":26800,"station_id":"ce4bgup2rcd13ifvqco0","pricing_plan_id":"free"},{"bike_id":"dbf3e895-3443-4510-87b3-89535d12a2f0","system_id":"levelo_inurba_marseille","lat":43.30951,"lon":5.39051,"is_reserved":false,"is_disabled":false,"rental_uris":{"android":"levelo://app?vid=dbf3e895-3443-4510-87b3-89535d12a2f0","ios":"levelo://app?vid=dbf3e895-3443-4510-87b3-89535d12a2f0"},"vehicle_type_id":"4","last_reported":1691175922,"current_range_meters":31200,"station_id":"ce4bgup2rcd13ifvqco0","pricing_plan_id":"free"},{"bike_id":"4879b09e-5533-49cc-808c-be115b214b19","system_id":"levelo_inurba_marseille","lat":43.317557,"lon":5.390173,"is_reserved":false,"is_disabled":false,"rental_uris":{"android":"levelo://app?vid=4879b09e-5533-49cc-808c-be115b214b19","ios":"levelo://app?vid=4879b09e-5533-49cc-808c-be115b214b19"},"vehicle_type_id":"4","last_reported":1691175922,"current_range_meters":29200,"station_id":"ce4bhqp2rcd13ifvqhng","pricing_plan_id":"free"},{"bike_id":"50f2c09c-534d-43c1-a558-fb4cbe988a1f","system_id":"levelo_inurba_marseille","lat":43.317557,"lon":5.390173,"is_reserved":false,"is_disabled":false,"rental_uris":{"android":"levelo://app?vid=50f2c09c-534d-43c1-a558-fb4cbe988a1f","ios":"levelo://app?vid=50f2c09c-534d-43c1-a558-fb4cbe988a1f"},"vehicle_type_id":"4","last_reported":1691175922,"current_range_meters":15600,"station_id":"ce4bhqp2rcd13ifvqhng","pricing_plan_id":"free"},{"bike_id":"fb5d1b63-b2f2-4d34-b700-b062bf6b4e69","system_id":"levelo_inurba_marseille","lat":43.317557,"lon":5.390173,"is_reserved":false,"is_disabled":false,"rental_uris":{"android":"levelo://app?vid=fb5d1b63-b2f2-4d34-b700-b062bf6b4e69","ios":"levelo://app?vid=fb5d1b63-b2f2-4d34-b700-b062bf6b4e69"},"vehicle_type_id":"4","last_reported":1691175922,"current_range_meters":31600,"station_id":"ce4bhqp2rcd13ifvqhng","pricing_plan_id":"free"},{"bike_id":"90569ba5-8bb9-4d2d-b876-dc35e42f9a0c","system_id":"levelo_inurba_marseille","lat":43.317557,"lon":5.390173,"is_reserved":false,"is_disabled":false,"rental_uris":{"android":"levelo://app?vid=90569ba5-8bb9-4d2d-b876-dc35e42f9a0c","ios":"levelo://app?vid=90569ba5-8bb9-4d2d-b876-dc35e42f9a0c"},"vehicle_type_id":"4","last_reported":1691175922,"current_range_meters":31600,"station_id":"ce4bhqp2rcd13ifvqhng","pricing_plan_id":"free"},{"bike_id":"c070a522-6c17-4333-a9ee-bbef4dc643ed","system_id":"levelo_inurba_marseille","lat":43.317557,"lon":5.390173,"is_reserved":false,"is_disabled":false,"rental_uris":{"android":"levelo://app?vid=c070a522-6c17-4333-a9ee-bbef4dc643ed","ios":"levelo://app?vid=c070a522-6c17-4333-a9ee-bbef4dc643ed"},"vehicle_type_id":"4","last_reported":1691175922,"current_range_meters":31600,"station_id":"ce4bhqp2rcd13ifvqhng","pricing_plan_id":"free"},{"bike_id":"29f2bfc8-65a3-4186-954b-bc2f5749caf2","system_id":"levelo_inurba_marseille","lat":43.317557,"lon":5.390173,"is_reserved":false,"is_disabled":false,"rental_uris":{"android":"levelo://app?vid=29f2bfc8-65a3-4186-954b-bc2f5749caf2","ios":"levelo://app?vid=29f2bfc8-65a3-4186-954b-bc2f5749caf2"},"vehicle_type_id":"4","last_reported":1691175922,"current_range_meters":31600,"station_id":"ce4bhqp2rcd13ifvqhng","pricing_plan_id":"free"},{"bike_id":"7c42d25f-0594-4878-9427-296e3ebfad1f","system_id":"levelo_inurba_marseille","lat":43.317557,"lon":5.390173,"is_reserved":false,"is_disabled":false,"rental_uris":{"android":"levelo://app?vid=7c42d25f-0594-4878-9427-296e3ebfad1f","ios":"levelo://app?vid=7c42d25f-0594-4878-9427-296e3ebfad1f"},"vehicle_type_id":"4","last_reported":1691175922,"current_range_meters":31200,"station_id":"ce4bhqp2rcd13ifvqhng","pricing_plan_id":"free"},{"bike_id":"b2f3081d-803f-4500-a8ce-732227ecc1a7","system_id":"levelo_inurba_marseille","lat":43.317557,"lon":5.390173,"is_reserved":false,"is_disabled":false,"rental_uris":{"android":"levelo://app?vid=b2f3081d-803f-4500-a8ce-732227ecc1a7","ios":"levelo://app?vid=b2f3081d-803f-4500-a8ce-732227ecc1a7"},"vehicle_type_id":"4","last_reported":1691175922,"current_range_meters":27200,"station_id":"ce4bhqp2rcd13ifvqhng","pricing_plan_id":"free"},{"bike_id":"bbd9f853-c81b-430f-b0f0-79a25b2de7e0","system_id":"levelo_inurba_marseille","lat":43.29802,"lon":5.38073,"is_reserved":false,"is_disabled":false,"rental_uris":{"android":"levelo://app?vid=bbd9f853-c81b-430f-b0f0-79a25b2de7e0","ios":"levelo://app?vid=bbd9f853-c81b-430f-b0f0-79a25b2de7e0"},"vehicle_type_id":"4","last_reported":1691175922,"current_range_meters":24800,"station_id":"ce4bgip2rcd13ifvqbb0","pricing_plan_id":"free"},{"bike_id":"6c21e1e2-150a-44a9-95d6-fe255db5eecf","system_id":"levelo_inurba_marseille","lat":43.295748,"lon":5.37522,"is_reserved":false,"is_disabled":false,"rental_uris":{"android":"levelo://app?vid=6c21e1e2-150a-44a9-95d6-fe255db5eecf","ios":"levelo://app?vid=6c21e1e2-150a-44a9-95d6-fe255db5eecf"},"vehicle_type_id":"4","last_reported":1691175922,"current_range_meters":1200,"station_id":"ce4bgh92rcd13ifvqb50","pricing_plan_id":"free"},{"bike_id":"688a902b-7c69-4545-9e66-48973968e014","system_id":"levelo_inurba_marseille","lat":43.29574,"lon":5.37527,"is_reserved":false,"is_disabled":false,"rental_uris":{"android":"levelo://app?vid=688a902b-7c69-4545-9e66-48973968e014","ios":"levelo://app?vid=688a902b-7c69-4545-9e66-48973968e014"},"vehicle_type_id":"4","last_reported":1691175922,"current_range_meters":29200,"station_id":"","pricing_plan_id":"free"},{"bike_id":"565343e5-708b-4f48-8082-26a300534afb","system_id":"levelo_inurba_marseille","lat":43.296263,"lon":5.377094,"is_reserved":false,"is_disabled":false,"rental_uris":{"android":"levelo://app?vid=565343e5-708b-4f48-8082-26a300534afb","ios":"levelo://app?vid=565343e5-708b-4f48-8082-26a300534afb"},"vehicle_type_id":"4","last_reported":1691175922,"current_range_meters":21200,"station_id":"ce4bgi92rcd13ifvqb90","pricing_plan_id":"free"},{"bike_id":"694987f7-a350-4b33-83c9-258c19c2ac66","system_id":"levelo_inurba_marseille","lat":43.295748,"lon":5.37522,"is_reserved":false,"is_disabled":false,"rental_uris":{"android":"levelo://app?vid=694987f7-a350-4b33-83c9-258c19c2ac66","ios":"levelo://app?vid=694987f7-a350-4b33-83c9-258c19c2ac66"},"vehicle_type_id":"4","last_reported":1691175922,"current_range_meters":0,"station_id":"ce4bgh92rcd13ifvqb50","pricing_plan_id":"free"},{"bike_id":"0d2224c3-fec2-462a-8441-4de1b3c6d213","system_id":"levelo_inurba_marseille","lat":43.295748,"lon":5.37522,"is_reserved":false,"is_disabled":false,"rental_uris":{"android":"levelo://app?vid=0d2224c3-fec2-462a-8441-4de1b3c6d213","ios":"levelo://app?vid=0d2224c3-fec2-462a-8441-4de1b3c6d213"},"vehicle_type_id":"4","last_reported":1691175922,"current_range_meters":22000,"station_id":"ce4bgh92rcd13ifvqb50","pricing_plan_id":"free"},{"bike_id":"ea5f7af4-af04-4959-9e98-b0994fab19a3","system_id":"levelo_inurba_marseille","lat":43.295748,"lon":5.37522,"is_reserved":false,"is_disabled":false,"rental_uris":{"android":"levelo://app?vid=ea5f7af4-af04-4959-9e98-b0994fab19a3","ios":"levelo://app?vid=ea5f7af4-af04-4959-9e98-b0994fab19a3"},"vehicle_type_id":"4","last_reported":1691175922,"current_range_meters":8000,"station_id":"ce4bgh92rcd13ifvqb50","pricing_plan_id":"free"},{"bike_id":"36a4266d-d3fa-4a3c-b384-3e5a84d4f597","system_id":"levelo_inurba_marseille","lat":43.295748,"lon":5.37522,"is_reserved":false,"is_disabled":false,"rental_uris":{"android":"levelo://app?vid=36a4266d-d3fa-4a3c-b384-3e5a84d4f597","ios":"levelo://app?vid=36a4266d-d3fa-4a3c-b384-3e5a84d4f597"},"vehicle_type_id":"4","last_reported":1691175922,"current_range_meters":4400,"station_id":"ce4bgh92rcd13ifvqb50","pricing_plan_id":"free"},{"bike_id":"9faaafe0-b274-40ed-9c05-e1a724e9963c","system_id":"levelo_inurba_marseille","lat":43.296263,"lon":5.377094,"is_reserved":false,"is_disabled":false,"rental_uris":{"android":"levelo://app?vid=9faaafe0-b274-40ed-9c05-e1a724e9963c","ios":"levelo://app?vid=9faaafe0-b274-40ed-9c05-e1a724e9963c"},"vehicle_type_id":"4","last_reported":1691175922,"current_range_meters":0,"station_id":"ce4bgi92rcd13ifvqb90","pricing_plan_id":"free"},{"bike_id":"84141f9f-3648-4047-b817-5f61ec2db917","system_id":"levelo_inurba_marseille","lat":43.296277,"lon":5.377108,"is_reserved":false,"is_disabled":false,"rental_uris":{"android":"levelo://app?vid=84141f9f-3648-4047-b817-5f61ec2db917","ios":"levelo://app?vid=84141f9f-3648-4047-b817-5f61ec2db917"},"vehicle_type_id":"4","last_reported":1691175922,"current_range_meters":13200,"station_id":"ce4bgi92rcd13ifvqb90","pricing_plan_id":"free"},{"bike_id":"e77c0f7e-fc2a-4ee5-a830-4caf75d16187","system_id":"levelo_inurba_marseille","lat":43.295279,"lon":5.375048,"is_reserved":false,"is_disabled":false,"rental_uris":{"android":"levelo://app?vid=e77c0f7e-fc2a-4ee5-a830-4caf75d16187","ios":"levelo://app?vid=e77c0f7e-fc2a-4ee5-a830-4caf75d16187"},"vehicle_type_id":"4","last_reported":1691175922,"current_range_meters":28000,"station_id":"ce4bgkp2rcd13ifvqbmg","pricing_plan_id":"free"},{"bike_id":"97222ea2-391e-45b6-bc85-b55109c0b210","system_id":"levelo_inurba_marseille","lat":43.299707,"lon":5.384859,"is_reserved":false,"is_disabled":false,"rental_uris":{"android":"levelo://app?vid=97222ea2-391e-45b6-bc85-b55109c0b210","ios":"levelo://app?vid=97222ea2-391e-45b6-bc85-b55109c0b210"},"vehicle_type_id":"4","last_reported":1691175922,"current_range_meters":14800,"station_id":"ce4bgj92rcd13ifvqbd0","pricing_plan_id":"free"},{"bike_id":"d8abf762-068e-4982-a926-39a1f99cf6a6","system_id":"levelo_inurba_marseille","lat":43.29975,"lon":5.38497,"is_reserved":false,"is_disabled":false,"rental_uris":{"android":"levelo://app?vid=d8abf762-068e-4982-a926-39a1f99cf6a6","ios":"levelo://app?vid=d8abf762-068e-4982-a926-39a1f99cf6a6"},"vehicle_type_id":"4","last_reported":1691175922,"current_range_meters":5600,"station_id":"ce4bgj92rcd13ifvqbd0","pricing_plan_id":"free"},{"bike_id":"6942d3ca-2d24-4f62-8657-9426ca3d3149","system_id":"levelo_inurba_marseille","lat":43.299717,"lon":5.384845,"is_reserved":false,"is_disabled":false,"rental_uris":{"android":"levelo://app?vid=6942d3ca-2d24-4f62-8657-9426ca3d3149","ios":"levelo://app?vid=6942d3ca-2d24-4f62-8657-9426ca3d3149"},"vehicle_type_id":"4","last_reported":1691175922,"current_range_meters":8800,"station_id":"ce4bgj92rcd13ifvqbd0","pricing_plan_id":"free"},{"bike_id":"561e49ec-81ae-4c14-9287-f80dc93a9255","system_id":"levelo_inurba_marseille","lat":43.299717,"lon":5.384845,"is_reserved":false,"is_disabled":false,"rental_uris":{"android":"levelo://app?vid=561e49ec-81ae-4c14-9287-f80dc93a9255","ios":"levelo://app?vid=561e49ec-81ae-4c14-9287-f80dc93a9255"},"vehicle_type_id":"4","last_reported":1691175922,"current_range_meters":20000,"station_id":"ce4bgj92rcd13ifvqbd0","pricing_plan_id":"free"},{"bike_id":"301f1bf5-fb86-4ec1-99a8-8f0026d38f89","system_id":"levelo_inurba_marseille","lat":43.295279,"lon":5.375048,"is_reserved":false,"is_disabled":false,"rental_uris":{"android":"levelo://app?vid=301f1bf5-fb86-4ec1-99a8-8f0026d38f89","ios":"levelo://app?vid=301f1bf5-fb86-4ec1-99a8-8f0026d38f89"},"vehicle_type_id":"4","last_reported":1691175922,"current_range_meters":16000,"station_id":"ce4bgkp2rcd13ifvqbmg","pricing_plan_id":"free"},{"bike_id":"43e03639-4029-4e8d-ad26-7f8f17f1e9de","system_id":"levelo_inurba_marseille","lat":43.32367,"lon":5.388836,"is_reserved":false,"is_disabled":false,"rental_uris":{"android":"levelo://app?vid=43e03639-4029-4e8d-ad26-7f8f17f1e9de","ios":"levelo://app?vid=43e03639-4029-4e8d-ad26-7f8f17f1e9de"},"vehicle_type_id":"4","last_reported":1691175922,"current_range_meters":20000,"station_id":"ce4bhqp2rcd13ifvqhog","pricing_plan_id":"free"},{"bike_id":"3d2edb57-516f-41bc-985e-42a721904578","system_id":"levelo_inurba_marseille","lat":43.32366,"lon":5.38878,"is_reserved":false,"is_disabled":false,"rental_uris":{"android":"levelo://app?vid=3d2edb57-516f-41bc-985e-42a721904578","ios":"levelo://app?vid=3d2edb57-516f-41bc-985e-42a721904578"},"vehicle_type_id":"4","last_reported":1691175922,"current_range_meters":24400,"station_id":"ce4bhqp2rcd13ifvqhog","pricing_plan_id":"free"},{"bike_id":"5f1c231d-5549-420b-a974-1b1406435a60","system_id":"levelo_inurba_marseille","lat":43.32368,"lon":5.38879,"is_reserved":false,"is_disabled":false,"rental_uris":{"android":"levelo://app?vid=5f1c231d-5549-420b-a974-1b1406435a60","ios":"levelo://app?vid=5f1c231d-5549-420b-a974-1b1406435a60"},"vehicle_type_id":"4","last_reported":1691175922,"current_range_meters":24800,"station_id":"ce4bhqp2rcd13ifvqhog","pricing_plan_id":"free"},{"bike_id":"ee373f4b-d04e-43ef-92b8-3105e264ba5d","system_id":"levelo_inurba_marseille","lat":43.32367,"lon":5.388836,"is_reserved":false,"is_disabled":false,"rental_uris":{"android":"levelo://app?vid=ee373f4b-d04e-43ef-92b8-3105e264ba5d","ios":"levelo://app?vid=ee373f4b-d04e-43ef-92b8-3105e264ba5d"},"vehicle_type_id":"4","last_reported":1691175922,"current_range_meters":25600,"station_id":"ce4bhqp2rcd13ifvqhog","pricing_plan_id":"free"},{"bike_id":"153806a9-c106-4acb-8efe-f81ba29b58d3","system_id":"levelo_inurba_marseille","lat":43.32366,"lon":5.38882,"is_reserved":false,"is_disabled":false,"rental_uris":{"android":"levelo://app?vid=153806a9-c106-4acb-8efe-f81ba29b58d3","ios":"levelo://app?vid=153806a9-c106-4acb-8efe-f81ba29b58d3"},"vehicle_type_id":"4","last_reported":1691175922,"current_range_meters":27600,"station_id":"ce4bhqp2rcd13ifvqhog","pricing_plan_id":"free"},{"bike_id":"96f00858-7ccf-44e7-9455-b35b0cbd49b5","system_id":"levelo_inurba_marseille","lat":43.323676,"lon":5.388816,"is_reserved":false,"is_disabled":false,"rental_uris":{"android":"levelo://app?vid=96f00858-7ccf-44e7-9455-b35b0cbd49b5","ios":"levelo://app?vid=96f00858-7ccf-44e7-9455-b35b0cbd49b5"},"vehicle_type_id":"4","last_reported":1691175922,"current_range_meters":10400,"station_id":"","pricing_plan_id":"free"},{"bike_id":"34ef5601-8765-4b80-bdc1-e9818152ffab","system_id":"levelo_inurba_marseille","lat":43.3238,"lon":5.38877,"is_reserved":false,"is_disabled":false,"rental_uris":{"android":"levelo://app?vid=34ef5601-8765-4b80-bdc1-e9818152ffab","ios":"levelo://app?vid=34ef5601-8765-4b80-bdc1-e9818152ffab"},"vehicle_type_id":"4","last_reported":1691175922,"current_range_meters":28400,"station_id":"ce4bhqp2rcd13ifvqhog","pricing_plan_id":"free"},{"bike_id":"6be534a9-96c6-4989-b3bb-e9dea76376c4","system_id":"levelo_inurba_marseille","lat":43.3237,"lon":5.38887,"is_reserved":false,"is_disabled":false,"rental_uris":{"android":"levelo://app?vid=6be534a9-96c6-4989-b3bb-e9dea76376c4","ios":"levelo://app?vid=6be534a9-96c6-4989-b3bb-e9dea76376c4"},"vehicle_type_id":"4","last_reported":1691175922,"current_range_meters":10400,"station_id":"ce4bhqp2rcd13ifvqhog","pricing_plan_id":"free"},{"bike_id":"72c9960b-0767-4145-9619-f19abdca788c","system_id":"levelo_inurba_marseille","lat":43.305994,"lon":5.393687,"is_reserved":false,"is_disabled":false,"rental_uris":{"android":"levelo://app?vid=72c9960b-0767-4145-9619-f19abdca788c","ios":"levelo://app?vid=72c9960b-0767-4145-9619-f19abdca788c"},"vehicle_type_id":"4","last_reported":1691175922,"current_range_meters":12800,"station_id":"ce4bh0p2rcd13ifvqd80","pricing_plan_id":"free"},{"bike_id":"94383c54-ab46-4898-91ac-5fc9cee2bf73","system_id":"levelo_inurba_marseille","lat":43.302992,"lon":5.392136,"is_reserved":false,"is_disabled":false,"rental_uris":{"android":"levelo://app?vid=94383c54-ab46-4898-91ac-5fc9cee2bf73","ios":"levelo://app?vid=94383c54-ab46-4898-91ac-5fc9cee2bf73"},"vehicle_type_id":"4","last_reported":1691175922,"current_range_meters":2000,"station_id":"ce4bgkh2rcd13ifvqbk0","pricing_plan_id":"free"},{"bike_id":"21e9a6f4-050b-4224-a0c0-61fb5ec9f890","system_id":"levelo_inurba_marseille","lat":43.303059,"lon":5.392125,"is_reserved":false,"is_disabled":false,"rental_uris":{"android":"levelo://app?vid=21e9a6f4-050b-4224-a0c0-61fb5ec9f890","ios":"levelo://app?vid=21e9a6f4-050b-4224-a0c0-61fb5ec9f890"},"vehicle_type_id":"4","last_reported":1691175922,"current_range_meters":0,"station_id":"","pricing_plan_id":"free"},{"bike_id":"d015647d-b399-4bf1-96e7-79939ac4680f","system_id":"levelo_inurba_marseille","lat":43.300852,"lon":5.390859,"is_reserved":false,"is_disabled":false,"rental_uris":{"android":"levelo://app?vid=d015647d-b399-4bf1-96e7-79939ac4680f","ios":"levelo://app?vid=d015647d-b399-4bf1-96e7-79939ac4680f"},"vehicle_type_id":"4","last_reported":1691175922,"current_range_meters":9600,"station_id":"ce4bh192rcd13ifvqdb0","pricing_plan_id":"free"},{"bike_id":"ed39a961-7b4d-4ab1-b6bf-f177674eea41","system_id":"levelo_inurba_marseille","lat":43.29223,"lon":5.36062,"is_reserved":false,"is_disabled":false,"rental_uris":{"android":"levelo://app?vid=ed39a961-7b4d-4ab1-b6bf-f177674eea41","ios":"levelo://app?vid=ed39a961-7b4d-4ab1-b6bf-f177674eea41"},"vehicle_type_id":"4","last_reported":1691175922,"current_range_meters":22800,"station_id":"ce4bhbh2rcd13ifvqeqg","pricing_plan_id":"free"},{"bike_id":"5ddb773e-f646-4624-88e6-e99f0cfdb0b8","system_id":"levelo_inurba_marseille","lat":43.30085,"lon":5.390856,"is_reserved":false,"is_disabled":false,"rental_uris":{"android":"levelo://app?vid=5ddb773e-f646-4624-88e6-e99f0cfdb0b8","ios":"levelo://app?vid=5ddb773e-f646-4624-88e6-e99f0cfdb0b8"},"vehicle_type_id":"4","last_reported":1691175922,"current_range_meters":6400,"station_id":"ce4bh192rcd13ifvqdb0","pricing_plan_id":"free"},{"bike_id":"78bd9e9f-c85a-49db-b4d2-b7e34f794b24","system_id":"levelo_inurba_marseille","lat":43.29174,"lon":5.37161,"is_reserved":false,"is_disabled":false,"rental_uris":{"android":"levelo://app?vid=78bd9e9f-c85a-49db-b4d2-b7e34f794b24","ios":"levelo://app?vid=78bd9e9f-c85a-49db-b4d2-b7e34f794b24"},"vehicle_type_id":"4","last_reported":1691175922,"current_range_meters":5200,"station_id":"ce4bha92rcd13ifvqeh0","pricing_plan_id":"free"},{"bike_id":"b31fa68b-17ca-4b71-85f0-3070d1fca0e8","system_id":"levelo_inurba_marseille","lat":43.291671,"lon":5.371575,"is_reserved":false,"is_disabled":false,"rental_uris":{"android":"levelo://app?vid=b31fa68b-17ca-4b71-85f0-3070d1fca0e8","ios":"levelo://app?vid=b31fa68b-17ca-4b71-85f0-3070d1fca0e8"},"vehicle_type_id":"4","last_reported":1691175922,"current_range_meters":22400,"station_id":"ce4bha92rcd13ifvqeh0","pricing_plan_id":"free"},{"bike_id":"0853fcc1-a4af-43aa-941e-1a9fd722d7f3","system_id":"levelo_inurba_marseille","lat":43.298764,"lon":5.388973,"is_reserved":false,"is_disabled":false,"rental_uris":{"android":"levelo://app?vid=0853fcc1-a4af-43aa-941e-1a9fd722d7f3","ios":"levelo://app?vid=0853fcc1-a4af-43aa-941e-1a9fd722d7f3"},"vehicle_type_id":"4","last_reported":1691175922,"current_range_meters":20800,"station_id":"ce4bh392rcd13ifvqdl0","pricing_plan_id":"free"},{"bike_id":"5abc6807-728a-4939-a3ca-c9b0b1691818","system_id":"levelo_inurba_marseille","lat":43.291671,"lon":5.371575,"is_reserved":false,"is_disabled":false,"rental_uris":{"android":"levelo://app?vid=5abc6807-728a-4939-a3ca-c9b0b1691818","ios":"levelo://app?vid=5abc6807-728a-4939-a3ca-c9b0b1691818"},"vehicle_type_id":"4","last_reported":1691175922,"current_range_meters":3600,"station_id":"ce4bha92rcd13ifvqeh0","pricing_plan_id":"free"},{"bike_id":"02a16a81-c52e-4195-946a-902675d2b807","system_id":"levelo_inurba_marseille","lat":43.29881,"lon":5.38916,"is_reserved":false,"is_disabled":false,"rental_uris":{"android":"levelo://app?vid=02a16a81-c52e-4195-946a-902675d2b807","ios":"levelo://app?vid=02a16a81-c52e-4195-946a-902675d2b807"},"vehicle_type_id":"4","last_reported":1691175922,"current_range_meters":2400,"station_id":"ce4bh392rcd13ifvqdl0","pricing_plan_id":"free"},{"bike_id":"4bcd99dd-ed58-44af-8168-654eb4040463","system_id":"levelo_inurba_marseille","lat":43.291671,"lon":5.371575,"is_reserved":false,"is_disabled":false,"rental_uris":{"android":"levelo://app?vid=4bcd99dd-ed58-44af-8168-654eb4040463","ios":"levelo://app?vid=4bcd99dd-ed58-44af-8168-654eb4040463"},"vehicle_type_id":"4","last_reported":1691175922,"current_range_meters":22000,"station_id":"ce4bha92rcd13ifvqeh0","pricing_plan_id":"free"},{"bike_id":"f6a422c5-99df-4ff3-b1ef-2857a67b6d3d","system_id":"levelo_inurba_marseille","lat":43.3089,"lon":5.39634,"is_reserved":false,"is_disabled":false,"rental_uris":{"android":"levelo://app?vid=f6a422c5-99df-4ff3-b1ef-2857a67b6d3d","ios":"levelo://app?vid=f6a422c5-99df-4ff3-b1ef-2857a67b6d3d"},"vehicle_type_id":"4","last_reported":1691175922,"current_range_meters":16400,"station_id":"ce4bh012rcd13ifvqcv0","pricing_plan_id":"free"},{"bike_id":"5849e49e-e232-4e68-959d-1102f5ec93ee","system_id":"levelo_inurba_marseille","lat":43.30885,"lon":5.39633,"is_reserved":false,"is_disabled":false,"rental_uris":{"android":"levelo://app?vid=5849e49e-e232-4e68-959d-1102f5ec93ee","ios":"levelo://app?vid=5849e49e-e232-4e68-959d-1102f5ec93ee"},"vehicle_type_id":"4","last_reported":1691175922,"current_range_meters":11600,"station_id":"ce4bh012rcd13ifvqcv0","pricing_plan_id":"free"},{"bike_id":"b728c769-d8a4-4709-85b8-789660652a4d","system_id":"levelo_inurba_marseille","lat":43.30887,"lon":5.39641,"is_reserved":false,"is_disabled":false,"rental_uris":{"android":"levelo://app?vid=b728c769-d8a4-4709-85b8-789660652a4d","ios":"levelo://app?vid=b728c769-d8a4-4709-85b8-789660652a4d"},"vehicle_type_id":"4","last_reported":1691175922,"current_range_meters":9200,"station_id":"ce4bh012rcd13ifvqcv0","pricing_plan_id":"free"},{"bike_id":"40b0dbf0-87f6-4363-b8e9-d1cac15b6861","system_id":"levelo_inurba_marseille","lat":43.31328,"lon":5.39689,"is_reserved":false,"is_disabled":false,"rental_uris":{"android":"levelo://app?vid=40b0dbf0-87f6-4363-b8e9-d1cac15b6861","ios":"levelo://app?vid=40b0dbf0-87f6-4363-b8e9-d1cac15b6861"},"vehicle_type_id":"4","last_reported":1691175922,"current_range_meters":29600,"station_id":"ce4bgvp2rcd13ifvqcu0","pricing_plan_id":"free"},{"bike_id":"0288d276-f1da-474e-8992-fc865d32c018","system_id":"levelo_inurba_marseille","lat":43.31333,"lon":5.39689,"is_reserved":false,"is_disabled":false,"rental_uris":{"android":"levelo://app?vid=0288d276-f1da-474e-8992-fc865d32c018","ios":"levelo://app?vid=0288d276-f1da-474e-8992-fc865d32c018"},"vehicle_type_id":"4","last_reported":1691175922,"current_range_meters":29600,"station_id":"ce4bgvp2rcd13ifvqcu0","pricing_plan_id":"free"},{"bike_id":"6a78cfee-a0d7-4f90-b817-7d7948c89d9c","system_id":"levelo_inurba_marseille","lat":43.31321,"lon":5.3969,"is_reserved":false,"is_disabled":false,"rental_uris":{"android":"levelo://app?vid=6a78cfee-a0d7-4f90-b817-7d7948c89d9c","ios":"levelo://app?vid=6a78cfee-a0d7-4f90-b817-7d7948c89d9c"},"vehicle_type_id":"4","last_reported":1691175922,"current_range_meters":29600,"station_id":"ce4bgvp2rcd13ifvqcu0","pricing_plan_id":"free"},{"bike_id":"ce9af7e8-c390-4052-bc70-643c83bd28f0","system_id":"levelo_inurba_marseille","lat":43.31321,"lon":5.39691,"is_reserved":false,"is_disabled":false,"rental_uris":{"android":"levelo://app?vid=ce9af7e8-c390-4052-bc70-643c83bd28f0","ios":"levelo://app?vid=ce9af7e8-c390-4052-bc70-643c83bd28f0"},"vehicle_type_id":"4","last_reported":1691175922,"current_range_meters":30000,"station_id":"ce4bgvp2rcd13ifvqcu0","pricing_plan_id":"free"},{"bike_id":"732d6916-7d23-4824-bd9d-f12772e1f638","system_id":"levelo_inurba_marseille","lat":43.3133,"lon":5.39692,"is_reserved":false,"is_disabled":false,"rental_uris":{"android":"levelo://app?vid=732d6916-7d23-4824-bd9d-f12772e1f638","ios":"levelo://app?vid=732d6916-7d23-4824-bd9d-f12772e1f638"},"vehicle_type_id":"4","last_reported":1691175922,"current_range_meters":29200,"station_id":"ce4bgvp2rcd13ifvqcu0","pricing_plan_id":"free"},{"bike_id":"152b437f-135a-41a9-8809-789f80214774","system_id":"levelo_inurba_marseille","lat":43.31332,"lon":5.39692,"is_reserved":false,"is_disabled":false,"rental_uris":{"android":"levelo://app?vid=152b437f-135a-41a9-8809-789f80214774","ios":"levelo://app?vid=152b437f-135a-41a9-8809-789f80214774"},"vehicle_type_id":"4","last_reported":1691175922,"current_range_meters":27600,"station_id":"ce4bgvp2rcd13ifvqcu0","pricing_plan_id":"free"},{"bike_id":"0c872fac-4908-4c2b-8165-2f366f0421b8","system_id":"levelo_inurba_marseille","lat":43.31333,"lon":5.39694,"is_reserved":false,"is_disabled":false,"rental_uris":{"android":"levelo://app?vid=0c872fac-4908-4c2b-8165-2f366f0421b8","ios":"levelo://app?vid=0c872fac-4908-4c2b-8165-2f366f0421b8"},"vehicle_type_id":"4","last_reported":1691175922,"current_range_meters":29600,"station_id":"ce4bgvp2rcd13ifvqcu0","pricing_plan_id":"free"},{"bike_id":"4e6846ae-36f1-4235-93d3-4da7c9b10477","system_id":"levelo_inurba_marseille","lat":43.3133,"lon":5.39695,"is_reserved":false,"is_disabled":false,"rental_uris":{"android":"levelo://app?vid=4e6846ae-36f1-4235-93d3-4da7c9b10477","ios":"levelo://app?vid=4e6846ae-36f1-4235-93d3-4da7c9b10477"},"vehicle_type_id":"4","last_reported":1691175922,"current_range_meters":26000,"station_id":"ce4bgvp2rcd13ifvqcu0","pricing_plan_id":"free"},{"bike_id":"40a7725f-bc55-4693-9c45-86bc7b0e8476","system_id":"levelo_inurba_marseille","lat":43.313291,"lon":5.396838,"is_reserved":false,"is_disabled":false,"rental_uris":{"android":"levelo://app?vid=40a7725f-bc55-4693-9c45-86bc7b0e8476","ios":"levelo://app?vid=40a7725f-bc55-4693-9c45-86bc7b0e8476"},"vehicle_type_id":"4","last_reported":1691175922,"current_range_meters":28400,"station_id":"ce4bgvp2rcd13ifvqcu0","pricing_plan_id":"free"},{"bike_id":"d1ffca73-7d13-4241-8f74-14210fca76f7","system_id":"levelo_inurba_marseille","lat":43.313291,"lon":5.396838,"is_reserved":false,"is_disabled":false,"rental_uris":{"android":"levelo://app?vid=d1ffca73-7d13-4241-8f74-14210fca76f7","ios":"levelo://app?vid=d1ffca73-7d13-4241-8f74-14210fca76f7"},"vehicle_type_id":"4","last_reported":1691175922,"current_range_meters":2400,"station_id":"ce4bgvp2rcd13ifvqcu0","pricing_plan_id":"free"},{"bike_id":"ebbf0889-294e-4a97-b816-80e14ee272d5","system_id":"levelo_inurba_marseille","lat":43.3133,"lon":5.39697,"is_reserved":false,"is_disabled":false,"rental_uris":{"android":"levelo://app?vid=ebbf0889-294e-4a97-b816-80e14ee272d5","ios":"levelo://app?vid=ebbf0889-294e-4a97-b816-80e14ee272d5"},"vehicle_type_id":"4","last_reported":1691175922,"current_range_meters":26800,"station_id":"ce4bgvp2rcd13ifvqcu0","pricing_plan_id":"free"},{"bike_id":"8dc0b473-8978-45ce-b93a-09bbacd330ee","system_id":"levelo_inurba_marseille","lat":43.29182,"lon":5.35794,"is_reserved":false,"is_disabled":false,"rental_uris":{"android":"levelo://app?vid=8dc0b473-8978-45ce-b93a-09bbacd330ee","ios":"levelo://app?vid=8dc0b473-8978-45ce-b93a-09bbacd330ee"},"vehicle_type_id":"4","last_reported":1691175922,"current_range_meters":21600,"station_id":"ce4bhb12rcd13ifvqel0","pricing_plan_id":"free"},{"bike_id":"b73e9caf-b197-4ee2-8582-a02c13241fa3","system_id":"levelo_inurba_marseille","lat":43.29529,"lon":5.385581,"is_reserved":false,"is_disabled":false,"rental_uris":{"android":"levelo://app?vid=b73e9caf-b197-4ee2-8582-a02c13241fa3","ios":"levelo://app?vid=b73e9caf-b197-4ee2-8582-a02c13241fa3"},"vehicle_type_id":"4","last_reported":1691175922,"current_range_meters":15200,"station_id":"ce4bgih2rcd13ifvqba0","pricing_plan_id":"free"},{"bike_id":"230ca692-98e9-40d9-9728-cc17b250fb30","system_id":"levelo_inurba_marseille","lat":43.29529,"lon":5.385581,"is_reserved":false,"is_disabled":false,"rental_uris":{"android":"levelo://app?vid=230ca692-98e9-40d9-9728-cc17b250fb30","ios":"levelo://app?vid=230ca692-98e9-40d9-9728-cc17b250fb30"},"vehicle_type_id":"4","last_reported":1691175922,"current_range_meters":10400,"station_id":"ce4bgih2rcd13ifvqba0","pricing_plan_id":"free"},{"bike_id":"e90eccf0-3d41-4cca-8a47-4a1a3cd627b5","system_id":"levelo_inurba_marseille","lat":43.29529,"lon":5.385581,"is_reserved":false,"is_disabled":false,"rental_uris":{"android":"levelo://app?vid=e90eccf0-3d41-4cca-8a47-4a1a3cd627b5","ios":"levelo://app?vid=e90eccf0-3d41-4cca-8a47-4a1a3cd627b5"},"vehicle_type_id":"4","last_reported":1691175922,"current_range_meters":21600,"station_id":"ce4bgih2rcd13ifvqba0","pricing_plan_id":"free"},{"bike_id":"5217f1df-a1a7-46c8-865d-9377b39910a4","system_id":"levelo_inurba_marseille","lat":43.29032,"lon":5.37569,"is_reserved":false,"is_disabled":false,"rental_uris":{"android":"levelo://app?vid=5217f1df-a1a7-46c8-865d-9377b39910a4","ios":"levelo://app?vid=5217f1df-a1a7-46c8-865d-9377b39910a4"},"vehicle_type_id":"4","last_reported":1691175922,"current_range_meters":18800,"station_id":"ce4bh692rcd13ifvqe90","pricing_plan_id":"free"},{"bike_id":"fb0a8cc1-e639-4249-a6e7-437852b7d7b2","system_id":"levelo_inurba_marseille","lat":43.289184,"lon":5.366408,"is_reserved":false,"is_disabled":false,"rental_uris":{"android":"levelo://app?vid=fb0a8cc1-e639-4249-a6e7-437852b7d7b2","ios":"levelo://app?vid=fb0a8cc1-e639-4249-a6e7-437852b7d7b2"},"vehicle_type_id":"4","last_reported":1691175922,"current_range_meters":28800,"station_id":"ce4bhap2rcd13ifvqek0","pricing_plan_id":"free"},{"bike_id":"574509e2-7b81-4b35-aab3-5c066fd8bbf1","system_id":"levelo_inurba_marseille","lat":43.294153,"lon":5.386305,"is_reserved":false,"is_disabled":false,"rental_uris":{"android":"levelo://app?vid=574509e2-7b81-4b35-aab3-5c066fd8bbf1","ios":"levelo://app?vid=574509e2-7b81-4b35-aab3-5c066fd8bbf1"},"vehicle_type_id":"4","last_reported":1691175922,"current_range_meters":24400,"station_id":"ce4bh2h2rcd13ifvqdh0","pricing_plan_id":"free"},{"bike_id":"2dce046d-a78a-4857-a359-82bd6b5613dd","system_id":"levelo_inurba_marseille","lat":43.28944,"lon":5.3638,"is_reserved":false,"is_disabled":false,"rental_uris":{"android":"levelo://app?vid=2dce046d-a78a-4857-a359-82bd6b5613dd","ios":"levelo://app?vid=2dce046d-a78a-4857-a359-82bd6b5613dd"},"vehicle_type_id":"4","last_reported":1691175922,"current_range_meters":29200,"station_id":"","pricing_plan_id":"free"},{"bike_id":"e9e042e7-c58f-4ac5-a33b-3a3933a4ec6d","system_id":"levelo_inurba_marseille","lat":43.28942,"lon":5.36387,"is_reserved":false,"is_disabled":false,"rental_uris":{"android":"levelo://app?vid=e9e042e7-c58f-4ac5-a33b-3a3933a4ec6d","ios":"levelo://app?vid=e9e042e7-c58f-4ac5-a33b-3a3933a4ec6d"},"vehicle_type_id":"4","last_reported":1691175922,"current_range_meters":0,"station_id":"ce4bhc92rcd13ifvqetg","pricing_plan_id":"free"},{"bike_id":"e6a483e4-46e4-4cc5-93b1-b3eb60553e7e","system_id":"levelo_inurba_marseille","lat":43.289468,"lon":5.363719,"is_reserved":false,"is_disabled":false,"rental_uris":{"android":"levelo://app?vid=e6a483e4-46e4-4cc5-93b1-b3eb60553e7e","ios":"levelo://app?vid=e6a483e4-46e4-4cc5-93b1-b3eb60553e7e"},"vehicle_type_id":"4","last_reported":1691175922,"current_range_meters":3200,"station_id":"ce4bhc92rcd13ifvqetg","pricing_plan_id":"free"},{"bike_id":"5e21811f-207b-48c6-9f31-474e23b6f493","system_id":"levelo_inurba_marseille","lat":43.292644,"lon":5.384257,"is_reserved":false,"is_disabled":false,"rental_uris":{"android":"levelo://app?vid=5e21811f-207b-48c6-9f31-474e23b6f493","ios":"levelo://app?vid=5e21811f-207b-48c6-9f31-474e23b6f493"},"vehicle_type_id":"4","last_reported":1691175922,"current_range_meters":23600,"station_id":"ce4bh692rcd13ifvqea0","pricing_plan_id":"free"},{"bike_id":"6ab09e1b-1329-45ae-8bfb-c6f39a394052","system_id":"levelo_inurba_marseille","lat":43.29266,"lon":5.38433,"is_reserved":false,"is_disabled":false,"rental_uris":{"android":"levelo://app?vid=6ab09e1b-1329-45ae-8bfb-c6f39a394052","ios":"levelo://app?vid=6ab09e1b-1329-45ae-8bfb-c6f39a394052"},"vehicle_type_id":"4","last_reported":1691175922,"current_range_meters":2000,"station_id":"ce4bh692rcd13ifvqea0","pricing_plan_id":"free"},{"bike_id":"8f501a34-5df6-4637-8715-2ceeecdfa8dc","system_id":"levelo_inurba_marseille","lat":43.29263,"lon":5.38436,"is_reserved":false,"is_disabled":false,"rental_uris":{"android":"levelo://app?vid=8f501a34-5df6-4637-8715-2ceeecdfa8dc","ios":"levelo://app?vid=8f501a34-5df6-4637-8715-2ceeecdfa8dc"},"vehicle_type_id":"4","last_reported":1691175922,"current_range_meters":0,"station_id":"ce4bh692rcd13ifvqea0","pricing_plan_id":"free"},{"bike_id":"742775b3-2bd7-4bbe-aece-d87f6a131ddb","system_id":"levelo_inurba_marseille","lat":43.29266,"lon":5.38446,"is_reserved":false,"is_disabled":false,"rental_uris":{"android":"levelo://app?vid=742775b3-2bd7-4bbe-aece-d87f6a131ddb","ios":"levelo://app?vid=742775b3-2bd7-4bbe-aece-d87f6a131ddb"},"vehicle_type_id":"4","last_reported":1691175922,"current_range_meters":2800,"station_id":"ce4bh692rcd13ifvqea0","pricing_plan_id":"free"},{"bike_id":"7a04a3cb-a323-4dd0-8414-2ad9c13aef45","system_id":"levelo_inurba_marseille","lat":43.29265,"lon":5.38446,"is_reserved":false,"is_disabled":false,"rental_uris":{"android":"levelo://app?vid=7a04a3cb-a323-4dd0-8414-2ad9c13aef45","ios":"levelo://app?vid=7a04a3cb-a323-4dd0-8414-2ad9c13aef45"},"vehicle_type_id":"4","last_reported":1691175922,"current_range_meters":12800,"station_id":"ce4bh692rcd13ifvqea0","pricing_plan_id":"free"},{"bike_id":"c43222cf-859e-4ae4-810f-8dfbfd030a89","system_id":"levelo_inurba_marseille","lat":43.292644,"lon":5.384257,"is_reserved":false,"is_disabled":false,"rental_uris":{"android":"levelo://app?vid=c43222cf-859e-4ae4-810f-8dfbfd030a89","ios":"levelo://app?vid=c43222cf-859e-4ae4-810f-8dfbfd030a89"},"vehicle_type_id":"4","last_reported":1691175922,"current_range_meters":5200,"station_id":"ce4bh692rcd13ifvqea0","pricing_plan_id":"free"},{"bike_id":"ea423fb5-dd91-4da7-a2a5-f71f34eed232","system_id":"levelo_inurba_marseille","lat":43.2926,"lon":5.38444,"is_reserved":false,"is_disabled":false,"rental_uris":{"android":"levelo://app?vid=ea423fb5-dd91-4da7-a2a5-f71f34eed232","ios":"levelo://app?vid=ea423fb5-dd91-4da7-a2a5-f71f34eed232"},"vehicle_type_id":"4","last_reported":1691175922,"current_range_meters":20400,"station_id":"ce4bh692rcd13ifvqea0","pricing_plan_id":"free"},{"bike_id":"18034084-1cfa-4cb5-9fa2-989fafc420b3","system_id":"levelo_inurba_marseille","lat":43.29254,"lon":5.38434,"is_reserved":false,"is_disabled":false,"rental_uris":{"android":"levelo://app?vid=18034084-1cfa-4cb5-9fa2-989fafc420b3","ios":"levelo://app?vid=18034084-1cfa-4cb5-9fa2-989fafc420b3"},"vehicle_type_id":"4","last_reported":1691175922,"current_range_meters":400,"station_id":"ce4bh692rcd13ifvqea0","pricing_plan_id":"free"},{"bike_id":"58d9daa4-9c4c-4dbc-a91c-3eee752552f5","system_id":"levelo_inurba_marseille","lat":43.30484,"lon":5.39787,"is_reserved":false,"is_disabled":false,"rental_uris":{"android":"levelo://app?vid=58d9daa4-9c4c-4dbc-a91c-3eee752552f5","ios":"levelo://app?vid=58d9daa4-9c4c-4dbc-a91c-3eee752552f5"},"vehicle_type_id":"4","last_reported":1691175922,"current_range_meters":21600,"station_id":"","pricing_plan_id":"free"},{"bike_id":"87a91d50-b0ca-4c64-94ae-7cf78dbb050f","system_id":"levelo_inurba_marseille","lat":43.33046,"lon":5.38911,"is_reserved":false,"is_disabled":false,"rental_uris":{"android":"levelo://app?vid=87a91d50-b0ca-4c64-94ae-7cf78dbb050f","ios":"levelo://app?vid=87a91d50-b0ca-4c64-94ae-7cf78dbb050f"},"vehicle_type_id":"4","last_reported":1691175922,"current_range_meters":16800,"station_id":"ce4bhr92rcd13ifvqhrg","pricing_plan_id":"free"},{"bike_id":"f67edc25-bcc7-41fb-8431-1add679b0933","system_id":"levelo_inurba_marseille","lat":43.33044,"lon":5.38915,"is_reserved":false,"is_disabled":false,"rental_uris":{"android":"levelo://app?vid=f67edc25-bcc7-41fb-8431-1add679b0933","ios":"levelo://app?vid=f67edc25-bcc7-41fb-8431-1add679b0933"},"vehicle_type_id":"4","last_reported":1691175922,"current_range_meters":19600,"station_id":"ce4bhr92rcd13ifvqhrg","pricing_plan_id":"free"},{"bike_id":"8ace282d-a246-40c2-9516-a60b5d85bb41","system_id":"levelo_inurba_marseille","lat":43.33043,"lon":5.38917,"is_reserved":false,"is_disabled":false,"rental_uris":{"android":"levelo://app?vid=8ace282d-a246-40c2-9516-a60b5d85bb41","ios":"levelo://app?vid=8ace282d-a246-40c2-9516-a60b5d85bb41"},"vehicle_type_id":"4","last_reported":1691175922,"current_range_meters":23600,"station_id":"ce4bhr92rcd13ifvqhrg","pricing_plan_id":"free"},{"bike_id":"e6c6e4e8-edee-449e-8936-76c8ef3752c4","system_id":"levelo_inurba_marseille","lat":43.33042,"lon":5.38919,"is_reserved":false,"is_disabled":false,"rental_uris":{"android":"levelo://app?vid=e6c6e4e8-edee-449e-8936-76c8ef3752c4","ios":"levelo://app?vid=e6c6e4e8-edee-449e-8936-76c8ef3752c4"},"vehicle_type_id":"4","last_reported":1691175922,"current_range_meters":22800,"station_id":"ce4bhr92rcd13ifvqhrg","pricing_plan_id":"free"},{"bike_id":"34fc0bae-b089-42d1-99d0-10d5b39f2b41","system_id":"levelo_inurba_marseille","lat":43.33042,"lon":5.38919,"is_reserved":false,"is_disabled":false,"rental_uris":{"android":"levelo://app?vid=34fc0bae-b089-42d1-99d0-10d5b39f2b41","ios":"levelo://app?vid=34fc0bae-b089-42d1-99d0-10d5b39f2b41"},"vehicle_type_id":"4","last_reported":1691175922,"current_range_meters":25200,"station_id":"ce4bhr92rcd13ifvqhrg","pricing_plan_id":"free"},{"bike_id":"20baf9c0-8e85-4ffb-a39a-3eca99fbd699","system_id":"levelo_inurba_marseille","lat":43.33042,"lon":5.38919,"is_reserved":false,"is_disabled":false,"rental_uris":{"android":"levelo://app?vid=20baf9c0-8e85-4ffb-a39a-3eca99fbd699","ios":"levelo://app?vid=20baf9c0-8e85-4ffb-a39a-3eca99fbd699"},"vehicle_type_id":"4","last_reported":1691175922,"current_range_meters":2400,"station_id":"ce4bhr92rcd13ifvqhrg","pricing_plan_id":"free"},{"bike_id":"98f910d2-52f4-4465-977e-10142d8cca43","system_id":"levelo_inurba_marseille","lat":43.33042,"lon":5.38919,"is_reserved":false,"is_disabled":false,"rental_uris":{"android":"levelo://app?vid=98f910d2-52f4-4465-977e-10142d8cca43","ios":"levelo://app?vid=98f910d2-52f4-4465-977e-10142d8cca43"},"vehicle_type_id":"4","last_reported":1691175922,"current_range_meters":20000,"station_id":"ce4bhr92rcd13ifvqhrg","pricing_plan_id":"free"},{"bike_id":"2f2d42a2-8de0-405f-9429-d3eae654394c","system_id":"levelo_inurba_marseille","lat":43.33044,"lon":5.38916,"is_reserved":false,"is_disabled":false,"rental_uris":{"android":"levelo://app?vid=2f2d42a2-8de0-405f-9429-d3eae654394c","ios":"levelo://app?vid=2f2d42a2-8de0-405f-9429-d3eae654394c"},"vehicle_type_id":"4","last_reported":1691175922,"current_range_meters":20400,"station_id":"ce4bhr92rcd13ifvqhrg","pricing_plan_id":"free"},{"bike_id":"976f718a-bfdb-4480-a757-e5b9a5d1a5d6","system_id":"levelo_inurba_marseille","lat":43.33046,"lon":5.38913,"is_reserved":false,"is_disabled":false,"rental_uris":{"android":"levelo://app?vid=976f718a-bfdb-4480-a757-e5b9a5d1a5d6","ios":"levelo://app?vid=976f718a-bfdb-4480-a757-e5b9a5d1a5d6"},"vehicle_type_id":"4","last_reported":1691175922,"current_range_meters":28800,"station_id":"ce4bhr92rcd13ifvqhrg","pricing_plan_id":"free"},{"bike_id":"9ce62819-7d94-47c9-aff2-f56e39f0ba59","system_id":"levelo_inurba_marseille","lat":43.33043,"lon":5.38918,"is_reserved":false,"is_disabled":false,"rental_uris":{"android":"levelo://app?vid=9ce62819-7d94-47c9-aff2-f56e39f0ba59","ios":"levelo://app?vid=9ce62819-7d94-47c9-aff2-f56e39f0ba59"},"vehicle_type_id":"4","last_reported":1691175922,"current_range_meters":30000,"station_id":"ce4bhr92rcd13ifvqhrg","pricing_plan_id":"free"},{"bike_id":"cedbc9c4-3cd8-4974-be60-104359550a71","system_id":"levelo_inurba_marseille","lat":43.33048,"lon":5.38911,"is_reserved":false,"is_disabled":false,"rental_uris":{"android":"levelo://app?vid=cedbc9c4-3cd8-4974-be60-104359550a71","ios":"levelo://app?vid=cedbc9c4-3cd8-4974-be60-104359550a71"},"vehicle_type_id":"4","last_reported":1691175922,"current_range_meters":11600,"station_id":"ce4bhr92rcd13ifvqhrg","pricing_plan_id":"free"},{"bike_id":"20cf3f6d-acf4-4653-bf24-baa04253f77a","system_id":"levelo_inurba_marseille","lat":43.33046,"lon":5.38915,"is_reserved":false,"is_disabled":false,"rental_uris":{"android":"levelo://app?vid=20cf3f6d-acf4-4653-bf24-baa04253f77a","ios":"levelo://app?vid=20cf3f6d-acf4-4653-bf24-baa04253f77a"},"vehicle_type_id":"4","last_reported":1691175922,"current_range_meters":18000,"station_id":"ce4bhr92rcd13ifvqhrg","pricing_plan_id":"free"},{"bike_id":"db7952dd-c6d8-42c2-918b-068ba9bccee2","system_id":"levelo_inurba_marseille","lat":43.33047,"lon":5.38914,"is_reserved":false,"is_disabled":false,"rental_uris":{"android":"levelo://app?vid=db7952dd-c6d8-42c2-918b-068ba9bccee2","ios":"levelo://app?vid=db7952dd-c6d8-42c2-918b-068ba9bccee2"},"vehicle_type_id":"4","last_reported":1691175922,"current_range_meters":8000,"station_id":"ce4bhr92rcd13ifvqhrg","pricing_plan_id":"free"},{"bike_id":"00b2dcdc-2882-40a1-9132-89c3ec15cf18","system_id":"levelo_inurba_marseille","lat":43.33045,"lon":5.38918,"is_reserved":false,"is_disabled":false,"rental_uris":{"android":"levelo://app?vid=00b2dcdc-2882-40a1-9132-89c3ec15cf18","ios":"levelo://app?vid=00b2dcdc-2882-40a1-9132-89c3ec15cf18"},"vehicle_type_id":"4","last_reported":1691175922,"current_range_meters":18000,"station_id":"ce4bhr92rcd13ifvqhrg","pricing_plan_id":"free"},{"bike_id":"9692718f-5e29-4ec7-a5d8-53f40d94ef49","system_id":"levelo_inurba_marseille","lat":43.33046,"lon":5.38922,"is_reserved":false,"is_disabled":false,"rental_uris":{"android":"levelo://app?vid=9692718f-5e29-4ec7-a5d8-53f40d94ef49","ios":"levelo://app?vid=9692718f-5e29-4ec7-a5d8-53f40d94ef49"},"vehicle_type_id":"4","last_reported":1691175922,"current_range_meters":24000,"station_id":"ce4bhr92rcd13ifvqhrg","pricing_plan_id":"free"},{"bike_id":"38c1adea-6867-4940-9699-a628b1958570","system_id":"levelo_inurba_marseille","lat":43.33042,"lon":5.38932,"is_reserved":false,"is_disabled":false,"rental_uris":{"android":"levelo://app?vid=38c1adea-6867-4940-9699-a628b1958570","ios":"levelo://app?vid=38c1adea-6867-4940-9699-a628b1958570"},"vehicle_type_id":"4","last_reported":1691175922,"current_range_meters":31200,"station_id":"ce4bhr92rcd13ifvqhrg","pricing_plan_id":"free"},{"bike_id":"882905e9-0d81-46ac-a457-40643325ecb8","system_id":"levelo_inurba_marseille","lat":43.290995,"lon":5.381361,"is_reserved":false,"is_disabled":false,"rental_uris":{"android":"levelo://app?vid=882905e9-0d81-46ac-a457-40643325ecb8","ios":"levelo://app?vid=882905e9-0d81-46ac-a457-40643325ecb8"},"vehicle_type_id":"4","last_reported":1691175922,"current_range_meters":1600,"station_id":"ce4bh512rcd13ifvqe2g","pricing_plan_id":"free"},{"bike_id":"27ab8b62-63aa-4a2a-a7ac-18b952545d24","system_id":"levelo_inurba_marseille","lat":43.290995,"lon":5.381361,"is_reserved":false,"is_disabled":false,"rental_uris":{"android":"levelo://app?vid=27ab8b62-63aa-4a2a-a7ac-18b952545d24","ios":"levelo://app?vid=27ab8b62-63aa-4a2a-a7ac-18b952545d24"},"vehicle_type_id":"4","last_reported":1691175922,"current_range_meters":9200,"station_id":"ce4bh512rcd13ifvqe2g","pricing_plan_id":"free"},{"bike_id":"05bf2cc0-c80b-4d3b-9303-5cea93148e89","system_id":"levelo_inurba_marseille","lat":43.290995,"lon":5.381361,"is_reserved":false,"is_disabled":false,"rental_uris":{"android":"levelo://app?vid=05bf2cc0-c80b-4d3b-9303-5cea93148e89","ios":"levelo://app?vid=05bf2cc0-c80b-4d3b-9303-5cea93148e89"},"vehicle_type_id":"4","last_reported":1691175922,"current_range_meters":31600,"station_id":"ce4bh512rcd13ifvqe2g","pricing_plan_id":"free"},{"bike_id":"029d360d-fae1-4a7a-a602-d22f5e7224a7","system_id":"levelo_inurba_marseille","lat":43.297996,"lon":5.393314,"is_reserved":false,"is_disabled":false,"rental_uris":{"android":"levelo://app?vid=029d360d-fae1-4a7a-a602-d22f5e7224a7","ios":"levelo://app?vid=029d360d-fae1-4a7a-a602-d22f5e7224a7"},"vehicle_type_id":"4","last_reported":1691175922,"current_range_meters":8800,"station_id":"chh1huq6cuj3fo74tm60","pricing_plan_id":"free"},{"bike_id":"51ff3281-b0c8-4797-aea9-a3f893721c7a","system_id":"levelo_inurba_marseille","lat":43.295169,"lon":5.390426,"is_reserved":false,"is_disabled":false,"rental_uris":{"android":"levelo://app?vid=51ff3281-b0c8-4797-aea9-a3f893721c7a","ios":"levelo://app?vid=51ff3281-b0c8-4797-aea9-a3f893721c7a"},"vehicle_type_id":"4","last_reported":1691175922,"current_range_meters":4800,"station_id":"ce4bh3p2rcd13ifvqdp0","pricing_plan_id":"free"},{"bike_id":"539d7694-9f7b-43e7-9809-ff9b2fdaf668","system_id":"levelo_inurba_marseille","lat":43.295169,"lon":5.390426,"is_reserved":false,"is_disabled":false,"rental_uris":{"android":"levelo://app?vid=539d7694-9f7b-43e7-9809-ff9b2fdaf668","ios":"levelo://app?vid=539d7694-9f7b-43e7-9809-ff9b2fdaf668"},"vehicle_type_id":"4","last_reported":1691175922,"current_range_meters":10400,"station_id":"ce4bh3p2rcd13ifvqdp0","pricing_plan_id":"free"},{"bike_id":"35711687-8ba0-4df7-be44-82f697f8175b","system_id":"levelo_inurba_marseille","lat":43.295169,"lon":5.390426,"is_reserved":false,"is_disabled":false,"rental_uris":{"android":"levelo://app?vid=35711687-8ba0-4df7-be44-82f697f8175b","ios":"levelo://app?vid=35711687-8ba0-4df7-be44-82f697f8175b"},"vehicle_type_id":"4","last_reported":1691175922,"current_range_meters":6000,"station_id":"ce4bh3p2rcd13ifvqdp0","pricing_plan_id":"free"},{"bike_id":"0787eac7-2b78-44c9-8ad0-6e0a3a06cf3e","system_id":"levelo_inurba_marseille","lat":43.2901,"lon":5.381269,"is_reserved":false,"is_disabled":false,"rental_uris":{"android":"levelo://app?vid=0787eac7-2b78-44c9-8ad0-6e0a3a06cf3e","ios":"levelo://app?vid=0787eac7-2b78-44c9-8ad0-6e0a3a06cf3e"},"vehicle_type_id":"4","last_reported":1691175922,"current_range_meters":0,"station_id":"ce4bh4p2rcd13ifvqe1g","pricing_plan_id":"free"},{"bike_id":"0e421f79-0ffd-4dfa-821e-6e1937e1bc45","system_id":"levelo_inurba_marseille","lat":43.28856,"lon":5.358371,"is_reserved":false,"is_disabled":false,"rental_uris":{"android":"levelo://app?vid=0e421f79-0ffd-4dfa-821e-6e1937e1bc45","ios":"levelo://app?vid=0e421f79-0ffd-4dfa-821e-6e1937e1bc45"},"vehicle_type_id":"4","last_reported":1691175922,"current_range_meters":18400,"station_id":"ce4bhb12rcd13ifvqem0","pricing_plan_id":"free"},{"bike_id":"837bc7b0-c1ba-4e76-a7f8-61e96b69dd62","system_id":"levelo_inurba_marseille","lat":43.31268,"lon":5.40162,"is_reserved":false,"is_disabled":false,"rental_uris":{"android":"levelo://app?vid=837bc7b0-c1ba-4e76-a7f8-61e96b69dd62","ios":"levelo://app?vid=837bc7b0-c1ba-4e76-a7f8-61e96b69dd62"},"vehicle_type_id":"4","last_reported":1691175922,"current_range_meters":6800,"station_id":"ce4bh092rcd13ifvqd30","pricing_plan_id":"free"},{"bike_id":"2cea64d9-cffe-42c7-adfc-ff0a82a640f9","system_id":"levelo_inurba_marseille","lat":43.33742,"lon":5.37459,"is_reserved":false,"is_disabled":false,"rental_uris":{"android":"levelo://app?vid=2cea64d9-cffe-42c7-adfc-ff0a82a640f9","ios":"levelo://app?vid=2cea64d9-cffe-42c7-adfc-ff0a82a640f9"},"vehicle_type_id":"4","last_reported":1691175922,"current_range_meters":25600,"station_id":"","pricing_plan_id":"free"},{"bike_id":"e4f04fc7-c4b8-4d42-8be1-9b9eb22468e4","system_id":"levelo_inurba_marseille","lat":43.30939,"lon":5.40144,"is_reserved":false,"is_disabled":false,"rental_uris":{"android":"levelo://app?vid=e4f04fc7-c4b8-4d42-8be1-9b9eb22468e4","ios":"levelo://app?vid=e4f04fc7-c4b8-4d42-8be1-9b9eb22468e4"},"vehicle_type_id":"4","last_reported":1691175922,"current_range_meters":2000,"station_id":"ce4bgvp2rcd13ifvqct0","pricing_plan_id":"free"},{"bike_id":"e5f02433-f395-40df-a9cd-d2817424ab69","system_id":"levelo_inurba_marseille","lat":43.30926,"lon":5.40143,"is_reserved":false,"is_disabled":false,"rental_uris":{"android":"levelo://app?vid=e5f02433-f395-40df-a9cd-d2817424ab69","ios":"levelo://app?vid=e5f02433-f395-40df-a9cd-d2817424ab69"},"vehicle_type_id":"4","last_reported":1691175922,"current_range_meters":6000,"station_id":"ce4bgvp2rcd13ifvqct0","pricing_plan_id":"free"},{"bike_id":"38e6d0d4-623e-4ec4-b329-ceedb0eb6c56","system_id":"levelo_inurba_marseille","lat":43.30642,"lon":5.401031,"is_reserved":false,"is_disabled":false,"rental_uris":{"android":"levelo://app?vid=38e6d0d4-623e-4ec4-b329-ceedb0eb6c56","ios":"levelo://app?vid=38e6d0d4-623e-4ec4-b329-ceedb0eb6c56"},"vehicle_type_id":"4","last_reported":1691175922,"current_range_meters":19200,"station_id":"ce4bh112rcd13ifvqda0","pricing_plan_id":"free"},{"bike_id":"a856a9bf-2914-4d99-b110-0ae70d1373ec","system_id":"levelo_inurba_marseille","lat":43.33763,"lon":5.37486,"is_reserved":false,"is_disabled":false,"rental_uris":{"android":"levelo://app?vid=a856a9bf-2914-4d99-b110-0ae70d1373ec","ios":"levelo://app?vid=a856a9bf-2914-4d99-b110-0ae70d1373ec"},"vehicle_type_id":"4","last_reported":1691175922,"current_range_meters":22800,"station_id":"","pricing_plan_id":"free"},{"bike_id":"a631f54f-54af-414e-a75b-512671424005","system_id":"levelo_inurba_marseille","lat":43.30645,"lon":5.40098,"is_reserved":false,"is_disabled":false,"rental_uris":{"android":"levelo://app?vid=a631f54f-54af-414e-a75b-512671424005","ios":"levelo://app?vid=a631f54f-54af-414e-a75b-512671424005"},"vehicle_type_id":"4","last_reported":1691175922,"current_range_meters":14800,"station_id":"ce4bh112rcd13ifvqda0","pricing_plan_id":"free"},{"bike_id":"54322f66-7858-4bef-85bd-6fbc01c8b70e","system_id":"levelo_inurba_marseille","lat":43.301117,"lon":5.398795,"is_reserved":false,"is_disabled":false,"rental_uris":{"android":"levelo://app?vid=54322f66-7858-4bef-85bd-6fbc01c8b70e","ios":"levelo://app?vid=54322f66-7858-4bef-85bd-6fbc01c8b70e"},"vehicle_type_id":"4","last_reported":1691175922,"current_range_meters":24800,"station_id":"ce4bh0h2rcd13ifvqd40","pricing_plan_id":"free"},{"bike_id":"a4061575-01a2-47a3-937f-82a2f5bf0eb3","system_id":"levelo_inurba_marseille","lat":43.301117,"lon":5.398795,"is_reserved":false,"is_disabled":false,"rental_uris":{"android":"levelo://app?vid=a4061575-01a2-47a3-937f-82a2f5bf0eb3","ios":"levelo://app?vid=a4061575-01a2-47a3-937f-82a2f5bf0eb3"},"vehicle_type_id":"4","last_reported":1691175922,"current_range_meters":12800,"station_id":"ce4bh0h2rcd13ifvqd40","pricing_plan_id":"free"},{"bike_id":"75199276-b705-4ad7-b6a9-49aeaa84628a","system_id":"levelo_inurba_marseille","lat":43.286591,"lon":5.363346,"is_reserved":false,"is_disabled":false,"rental_uris":{"android":"levelo://app?vid=75199276-b705-4ad7-b6a9-49aeaa84628a","ios":"levelo://app?vid=75199276-b705-4ad7-b6a9-49aeaa84628a"},"vehicle_type_id":"4","last_reported":1691175922,"current_range_meters":32000,"station_id":"ce4bhah2rcd13ifvqej0","pricing_plan_id":"free"},{"bike_id":"3184c2e8-a58f-4c91-b740-5c54bbaaff2c","system_id":"levelo_inurba_marseille","lat":43.286961,"lon":5.373785,"is_reserved":false,"is_disabled":false,"rental_uris":{"android":"levelo://app?vid=3184c2e8-a58f-4c91-b740-5c54bbaaff2c","ios":"levelo://app?vid=3184c2e8-a58f-4c91-b740-5c54bbaaff2c"},"vehicle_type_id":"4","last_reported":1691175922,"current_range_meters":12000,"station_id":"ce4bh3p2rcd13ifvqdq0","pricing_plan_id":"free"},{"bike_id":"9d996b18-ec5a-4565-a82a-797c6900c09b","system_id":"levelo_inurba_marseille","lat":43.286961,"lon":5.373785,"is_reserved":false,"is_disabled":false,"rental_uris":{"android":"levelo://app?vid=9d996b18-ec5a-4565-a82a-797c6900c09b","ios":"levelo://app?vid=9d996b18-ec5a-4565-a82a-797c6900c09b"},"vehicle_type_id":"4","last_reported":1691175922,"current_range_meters":0,"station_id":"ce4bh3p2rcd13ifvqdq0","pricing_plan_id":"free"},{"bike_id":"b5103714-a7c9-4d84-b248-9e51d5bbacdb","system_id":"levelo_inurba_marseille","lat":43.286591,"lon":5.363346,"is_reserved":false,"is_disabled":false,"rental_uris":{"android":"levelo://app?vid=b5103714-a7c9-4d84-b248-9e51d5bbacdb","ios":"levelo://app?vid=b5103714-a7c9-4d84-b248-9e51d5bbacdb"},"vehicle_type_id":"4","last_reported":1691175922,"current_range_meters":8800,"station_id":"ce4bhah2rcd13ifvqej0","pricing_plan_id":"free"},{"bike_id":"45404ddc-c469-4222-ae03-55c28805325e","system_id":"levelo_inurba_marseille","lat":43.286591,"lon":5.363346,"is_reserved":false,"is_disabled":false,"rental_uris":{"android":"levelo://app?vid=45404ddc-c469-4222-ae03-55c28805325e","ios":"levelo://app?vid=45404ddc-c469-4222-ae03-55c28805325e"},"vehicle_type_id":"4","last_reported":1691175922,"current_range_meters":8000,"station_id":"ce4bhah2rcd13ifvqej0","pricing_plan_id":"free"},{"bike_id":"a902d5b3-2462-4b4c-a792-7d638f653eb9","system_id":"levelo_inurba_marseille","lat":43.286591,"lon":5.363346,"is_reserved":false,"is_disabled":false,"rental_uris":{"android":"levelo://app?vid=a902d5b3-2462-4b4c-a792-7d638f653eb9","ios":"levelo://app?vid=a902d5b3-2462-4b4c-a792-7d638f653eb9"},"vehicle_type_id":"4","last_reported":1691175922,"current_range_meters":3600,"station_id":"ce4bhah2rcd13ifvqej0","pricing_plan_id":"free"},{"bike_id":"7b9e2d57-7c2f-4652-8ec0-ee4d147afe24","system_id":"levelo_inurba_marseille","lat":43.302548,"lon":5.400568,"is_reserved":false,"is_disabled":false,"rental_uris":{"android":"levelo://app?vid=7b9e2d57-7c2f-4652-8ec0-ee4d147afe24","ios":"levelo://app?vid=7b9e2d57-7c2f-4652-8ec0-ee4d147afe24"},"vehicle_type_id":"4","last_reported":1691175922,"current_range_meters":13600,"station_id":"","pricing_plan_id":"free"},{"bike_id":"2a8a8f72-bd42-4be9-a28f-064fdf767de3","system_id":"levelo_inurba_marseille","lat":43.28822,"lon":5.35255,"is_reserved":false,"is_disabled":false,"rental_uris":{"android":"levelo://app?vid=2a8a8f72-bd42-4be9-a28f-064fdf767de3","ios":"levelo://app?vid=2a8a8f72-bd42-4be9-a28f-064fdf767de3"},"vehicle_type_id":"4","last_reported":1691175922,"current_range_meters":25200,"station_id":"","pricing_plan_id":"free"},{"bike_id":"944536b9-0383-49ff-b6b1-a841224a9e93","system_id":"levelo_inurba_marseille","lat":43.302759,"lon":5.400793,"is_reserved":false,"is_disabled":false,"rental_uris":{"android":"levelo://app?vid=944536b9-0383-49ff-b6b1-a841224a9e93","ios":"levelo://app?vid=944536b9-0383-49ff-b6b1-a841224a9e93"},"vehicle_type_id":"4","last_reported":1691175922,"current_range_meters":31200,"station_id":"ce4bgvh2rcd13ifvqcs0","pricing_plan_id":"free"},{"bike_id":"0eec8b1c-8c3d-43c2-ade4-dab3902c07e9","system_id":"levelo_inurba_marseille","lat":43.286039,"lon":5.370679,"is_reserved":false,"is_disabled":false,"rental_uris":{"android":"levelo://app?vid=0eec8b1c-8c3d-43c2-ade4-dab3902c07e9","ios":"levelo://app?vid=0eec8b1c-8c3d-43c2-ade4-dab3902c07e9"},"vehicle_type_id":"4","last_reported":1691175922,"current_range_meters":25200,"station_id":"ce4bht12rcd13ifvqi60","pricing_plan_id":"free"},{"bike_id":"6b7c5fe9-b3fb-4058-9b1c-ee4059ab0f77","system_id":"levelo_inurba_marseille","lat":43.286039,"lon":5.370679,"is_reserved":false,"is_disabled":false,"rental_uris":{"android":"levelo://app?vid=6b7c5fe9-b3fb-4058-9b1c-ee4059ab0f77","ios":"levelo://app?vid=6b7c5fe9-b3fb-4058-9b1c-ee4059ab0f77"},"vehicle_type_id":"4","last_reported":1691175922,"current_range_meters":25600,"station_id":"ce4bht12rcd13ifvqi60","pricing_plan_id":"free"},{"bike_id":"a1fa42dd-5b77-4b06-a869-52fc92d02794","system_id":"levelo_inurba_marseille","lat":43.286039,"lon":5.370679,"is_reserved":false,"is_disabled":false,"rental_uris":{"android":"levelo://app?vid=a1fa42dd-5b77-4b06-a869-52fc92d02794","ios":"levelo://app?vid=a1fa42dd-5b77-4b06-a869-52fc92d02794"},"vehicle_type_id":"4","last_reported":1691175922,"current_range_meters":14800,"station_id":"ce4bht12rcd13ifvqi60","pricing_plan_id":"free"},{"bike_id":"4ae0059c-5a2d-426a-afef-aa8fe1206bc1","system_id":"levelo_inurba_marseille","lat":43.286039,"lon":5.370681,"is_reserved":false,"is_disabled":false,"rental_uris":{"android":"levelo://app?vid=4ae0059c-5a2d-426a-afef-aa8fe1206bc1","ios":"levelo://app?vid=4ae0059c-5a2d-426a-afef-aa8fe1206bc1"},"vehicle_type_id":"4","last_reported":1691175922,"current_range_meters":23600,"station_id":"ce4bht12rcd13ifvqi60","pricing_plan_id":"free"},{"bike_id":"1ff56fe0-1501-4c41-9474-66cb2f3126bd","system_id":"levelo_inurba_marseille","lat":43.2861,"lon":5.3706,"is_reserved":false,"is_disabled":false,"rental_uris":{"android":"levelo://app?vid=1ff56fe0-1501-4c41-9474-66cb2f3126bd","ios":"levelo://app?vid=1ff56fe0-1501-4c41-9474-66cb2f3126bd"},"vehicle_type_id":"4","last_reported":1691175922,"current_range_meters":31600,"station_id":"","pricing_plan_id":"free"},{"bike_id":"2505ec1e-c8d9-40d9-9a56-b5650062f6ff","system_id":"levelo_inurba_marseille","lat":43.286039,"lon":5.370679,"is_reserved":false,"is_disabled":false,"rental_uris":{"android":"levelo://app?vid=2505ec1e-c8d9-40d9-9a56-b5650062f6ff","ios":"levelo://app?vid=2505ec1e-c8d9-40d9-9a56-b5650062f6ff"},"vehicle_type_id":"4","last_reported":1691175922,"current_range_meters":12400,"station_id":"ce4bht12rcd13ifvqi60","pricing_plan_id":"free"},{"bike_id":"12d8d8e2-a6a7-4089-bb3b-484069969fdc","system_id":"levelo_inurba_marseille","lat":43.316517,"lon":5.404375,"is_reserved":false,"is_disabled":false,"rental_uris":{"android":"levelo://app?vid=12d8d8e2-a6a7-4089-bb3b-484069969fdc","ios":"levelo://app?vid=12d8d8e2-a6a7-4089-bb3b-484069969fdc"},"vehicle_type_id":"4","last_reported":1691175922,"current_range_meters":18000,"station_id":"ce4bh012rcd13ifvqd00","pricing_plan_id":"free"},{"bike_id":"cd11e843-27e7-4f83-9966-b84aa4c99b3c","system_id":"levelo_inurba_marseille","lat":43.291994,"lon":5.392907,"is_reserved":false,"is_disabled":false,"rental_uris":{"android":"levelo://app?vid=cd11e843-27e7-4f83-9966-b84aa4c99b3c","ios":"levelo://app?vid=cd11e843-27e7-4f83-9966-b84aa4c99b3c"},"vehicle_type_id":"4","last_reported":1691175922,"current_range_meters":25200,"station_id":"ce4bh192rcd13ifvqdd0","pricing_plan_id":"free"},{"bike_id":"9f06ead3-b0b3-4d24-a2fd-dc0eae3497c8","system_id":"levelo_inurba_marseille","lat":43.284538,"lon":5.358657,"is_reserved":false,"is_disabled":false,"rental_uris":{"android":"levelo://app?vid=9f06ead3-b0b3-4d24-a2fd-dc0eae3497c8","ios":"levelo://app?vid=9f06ead3-b0b3-4d24-a2fd-dc0eae3497c8"},"vehicle_type_id":"4","last_reported":1691175922,"current_range_meters":10800,"station_id":"ce4bhah2rcd13ifvqei0","pricing_plan_id":"free"},{"bike_id":"a501569b-c4f0-4923-ad24-1373288316aa","system_id":"levelo_inurba_marseille","lat":43.28462,"lon":5.359,"is_reserved":false,"is_disabled":false,"rental_uris":{"android":"levelo://app?vid=a501569b-c4f0-4923-ad24-1373288316aa","ios":"levelo://app?vid=a501569b-c4f0-4923-ad24-1373288316aa"},"vehicle_type_id":"4","last_reported":1691175922,"current_range_meters":12400,"station_id":"ce4bhah2rcd13ifvqei0","pricing_plan_id":"free"},{"bike_id":"7b78d55e-e99c-4fa7-968a-c672d6912f00","system_id":"levelo_inurba_marseille","lat":43.284534,"lon":5.358662,"is_reserved":false,"is_disabled":false,"rental_uris":{"android":"levelo://app?vid=7b78d55e-e99c-4fa7-968a-c672d6912f00","ios":"levelo://app?vid=7b78d55e-e99c-4fa7-968a-c672d6912f00"},"vehicle_type_id":"4","last_reported":1691175922,"current_range_meters":31600,"station_id":"ce4bhah2rcd13ifvqei0","pricing_plan_id":"free"},{"bike_id":"b7e243e7-921c-4a01-9079-418d23062b1d","system_id":"levelo_inurba_marseille","lat":43.285856,"lon":5.350771,"is_reserved":false,"is_disabled":false,"rental_uris":{"android":"levelo://app?vid=b7e243e7-921c-4a01-9079-418d23062b1d","ios":"levelo://app?vid=b7e243e7-921c-4a01-9079-418d23062b1d"},"vehicle_type_id":"4","last_reported":1691175922,"current_range_meters":20400,"station_id":"ce4bhch2rcd13ifvqeug","pricing_plan_id":"free"},{"bike_id":"e3df8caa-1e09-47cd-acd4-8c940eba31ea","system_id":"levelo_inurba_marseille","lat":43.286143,"lon":5.351084,"is_reserved":false,"is_disabled":false,"rental_uris":{"android":"levelo://app?vid=e3df8caa-1e09-47cd-acd4-8c940eba31ea","ios":"levelo://app?vid=e3df8caa-1e09-47cd-acd4-8c940eba31ea"},"vehicle_type_id":"4","last_reported":1691175922,"current_range_meters":3600,"station_id":"ce4bhch2rcd13ifvqeug","pricing_plan_id":"free"},{"bike_id":"1ae48103-394a-4477-8543-1bcb8bf53f26","system_id":"levelo_inurba_marseille","lat":43.28616,"lon":5.35103,"is_reserved":false,"is_disabled":false,"rental_uris":{"android":"levelo://app?vid=1ae48103-394a-4477-8543-1bcb8bf53f26","ios":"levelo://app?vid=1ae48103-394a-4477-8543-1bcb8bf53f26"},"vehicle_type_id":"4","last_reported":1691175922,"current_range_meters":5200,"station_id":"ce4bhch2rcd13ifvqeug","pricing_plan_id":"free"},{"bike_id":"87c3bc84-4913-4289-96ab-85f16957976e","system_id":"levelo_inurba_marseille","lat":43.285848,"lon":5.350787,"is_reserved":false,"is_disabled":false,"rental_uris":{"android":"levelo://app?vid=87c3bc84-4913-4289-96ab-85f16957976e","ios":"levelo://app?vid=87c3bc84-4913-4289-96ab-85f16957976e"},"vehicle_type_id":"4","last_reported":1691175922,"current_range_meters":4800,"station_id":"ce4bhch2rcd13ifvqeug","pricing_plan_id":"free"},{"bike_id":"87410dd2-c47c-408a-97fc-b3a8180d0990","system_id":"levelo_inurba_marseille","lat":43.28414,"lon":5.37496,"is_reserved":false,"is_disabled":false,"rental_uris":{"android":"levelo://app?vid=87410dd2-c47c-408a-97fc-b3a8180d0990","ios":"levelo://app?vid=87410dd2-c47c-408a-97fc-b3a8180d0990"},"vehicle_type_id":"4","last_reported":1691175922,"current_range_meters":20800,"station_id":"ce4bh412rcd13ifvqds0","pricing_plan_id":"free"},{"bike_id":"a0fd1e8f-25c3-405d-a958-0c72925a7b42","system_id":"levelo_inurba_marseille","lat":43.28413,"lon":5.37505,"is_reserved":false,"is_disabled":false,"rental_uris":{"android":"levelo://app?vid=a0fd1e8f-25c3-405d-a958-0c72925a7b42","ios":"levelo://app?vid=a0fd1e8f-25c3-405d-a958-0c72925a7b42"},"vehicle_type_id":"4","last_reported":1691175922,"current_range_meters":28000,"station_id":"ce4bh412rcd13ifvqds0","pricing_plan_id":"free"},{"bike_id":"92730c40-67ed-4418-9c87-ee7eee0f0fed","system_id":"levelo_inurba_marseille","lat":43.28411,"lon":5.37502,"is_reserved":false,"is_disabled":false,"rental_uris":{"android":"levelo://app?vid=92730c40-67ed-4418-9c87-ee7eee0f0fed","ios":"levelo://app?vid=92730c40-67ed-4418-9c87-ee7eee0f0fed"},"vehicle_type_id":"4","last_reported":1691175922,"current_range_meters":29600,"station_id":"ce4bh412rcd13ifvqds0","pricing_plan_id":"free"},{"bike_id":"e08ed269-96f4-4540-ab3b-b32fbaabafd7","system_id":"levelo_inurba_marseille","lat":43.28407,"lon":5.37505,"is_reserved":false,"is_disabled":false,"rental_uris":{"android":"levelo://app?vid=e08ed269-96f4-4540-ab3b-b32fbaabafd7","ios":"levelo://app?vid=e08ed269-96f4-4540-ab3b-b32fbaabafd7"},"vehicle_type_id":"4","last_reported":1691175922,"current_range_meters":4400,"station_id":"ce4bh412rcd13ifvqds0","pricing_plan_id":"free"},{"bike_id":"06f4909d-19c4-4acc-9ba7-299dd801f441","system_id":"levelo_inurba_marseille","lat":43.295713,"lon":5.399639,"is_reserved":false,"is_disabled":false,"rental_uris":{"android":"levelo://app?vid=06f4909d-19c4-4acc-9ba7-299dd801f441","ios":"levelo://app?vid=06f4909d-19c4-4acc-9ba7-299dd801f441"},"vehicle_type_id":"4","last_reported":1691175922,"current_range_meters":18400,"station_id":"ce4bh312rcd13ifvqdj0","pricing_plan_id":"free"},{"bike_id":"160b5244-6476-4b19-b701-a9654325f602","system_id":"levelo_inurba_marseille","lat":43.286595,"lon":5.386795,"is_reserved":false,"is_disabled":false,"rental_uris":{"android":"levelo://app?vid=160b5244-6476-4b19-b701-a9654325f602","ios":"levelo://app?vid=160b5244-6476-4b19-b701-a9654325f602"},"vehicle_type_id":"4","last_reported":1691175922,"current_range_meters":25600,"station_id":"ce4bh492rcd13ifvqdug","pricing_plan_id":"free"},{"bike_id":"23708b88-2756-4a02-b648-f572f3772253","system_id":"levelo_inurba_marseille","lat":43.31892,"lon":5.40728,"is_reserved":false,"is_disabled":false,"rental_uris":{"android":"levelo://app?vid=23708b88-2756-4a02-b648-f572f3772253","ios":"levelo://app?vid=23708b88-2756-4a02-b648-f572f3772253"},"vehicle_type_id":"4","last_reported":1691175922,"current_range_meters":8400,"station_id":"ce4bhq12rcd13ifvqhig","pricing_plan_id":"free"},{"bike_id":"632d4045-2ba1-4d8b-8070-04923aafd128","system_id":"levelo_inurba_marseille","lat":43.31893,"lon":5.40729,"is_reserved":false,"is_disabled":false,"rental_uris":{"android":"levelo://app?vid=632d4045-2ba1-4d8b-8070-04923aafd128","ios":"levelo://app?vid=632d4045-2ba1-4d8b-8070-04923aafd128"},"vehicle_type_id":"4","last_reported":1691175922,"current_range_meters":4400,"station_id":"ce4bhq12rcd13ifvqhig","pricing_plan_id":"free"},{"bike_id":"fd8d2354-0817-4a67-af7d-23e5ee9f2c95","system_id":"levelo_inurba_marseille","lat":43.319179,"lon":5.407725,"is_reserved":false,"is_disabled":false,"rental_uris":{"android":"levelo://app?vid=fd8d2354-0817-4a67-af7d-23e5ee9f2c95","ios":"levelo://app?vid=fd8d2354-0817-4a67-af7d-23e5ee9f2c95"},"vehicle_type_id":"4","last_reported":1691175922,"current_range_meters":30400,"station_id":"ce4bhq12rcd13ifvqhig","pricing_plan_id":"free"},{"bike_id":"eeb02a4a-fc34-4229-a72e-14ead8b86bb9","system_id":"levelo_inurba_marseille","lat":43.31885,"lon":5.40734,"is_reserved":false,"is_disabled":false,"rental_uris":{"android":"levelo://app?vid=eeb02a4a-fc34-4229-a72e-14ead8b86bb9","ios":"levelo://app?vid=eeb02a4a-fc34-4229-a72e-14ead8b86bb9"},"vehicle_type_id":"4","last_reported":1691175922,"current_range_meters":23600,"station_id":"ce4bhq12rcd13ifvqhig","pricing_plan_id":"free"},{"bike_id":"430c2063-ded1-4339-9309-d962bc415bc7","system_id":"levelo_inurba_marseille","lat":43.31893,"lon":5.40736,"is_reserved":false,"is_disabled":false,"rental_uris":{"android":"levelo://app?vid=430c2063-ded1-4339-9309-d962bc415bc7","ios":"levelo://app?vid=430c2063-ded1-4339-9309-d962bc415bc7"},"vehicle_type_id":"4","last_reported":1691175922,"current_range_meters":31200,"station_id":"ce4bhq12rcd13ifvqhig","pricing_plan_id":"free"},{"bike_id":"f18b4051-8145-4f33-aee1-6f539e29d721","system_id":"levelo_inurba_marseille","lat":43.33716,"lon":5.39182,"is_reserved":false,"is_disabled":false,"rental_uris":{"android":"levelo://app?vid=f18b4051-8145-4f33-aee1-6f539e29d721","ios":"levelo://app?vid=f18b4051-8145-4f33-aee1-6f539e29d721"},"vehicle_type_id":"4","last_reported":1691175922,"current_range_meters":18400,"station_id":"ce4bhr92rcd13ifvqhsg","pricing_plan_id":"free"},{"bike_id":"65e7209e-43de-4472-85bf-edccad84c81f","system_id":"levelo_inurba_marseille","lat":43.33719,"lon":5.39178,"is_reserved":false,"is_disabled":false,"rental_uris":{"android":"levelo://app?vid=65e7209e-43de-4472-85bf-edccad84c81f","ios":"levelo://app?vid=65e7209e-43de-4472-85bf-edccad84c81f"},"vehicle_type_id":"4","last_reported":1691175922,"current_range_meters":26400,"station_id":"ce4bhr92rcd13ifvqhsg","pricing_plan_id":"free"},{"bike_id":"3e563380-a985-451c-801d-2783d7714294","system_id":"levelo_inurba_marseille","lat":43.337168,"lon":5.391825,"is_reserved":false,"is_disabled":false,"rental_uris":{"android":"levelo://app?vid=3e563380-a985-451c-801d-2783d7714294","ios":"levelo://app?vid=3e563380-a985-451c-801d-2783d7714294"},"vehicle_type_id":"4","last_reported":1691175922,"current_range_meters":13600,"station_id":"ce4bhr92rcd13ifvqhsg","pricing_plan_id":"free"},{"bike_id":"fd53760a-588f-4760-9d7f-55ef57100aaa","system_id":"levelo_inurba_marseille","lat":43.33721,"lon":5.3918,"is_reserved":false,"is_disabled":false,"rental_uris":{"android":"levelo://app?vid=fd53760a-588f-4760-9d7f-55ef57100aaa","ios":"levelo://app?vid=fd53760a-588f-4760-9d7f-55ef57100aaa"},"vehicle_type_id":"4","last_reported":1691175922,"current_range_meters":13200,"station_id":"ce4bhr92rcd13ifvqhsg","pricing_plan_id":"free"},{"bike_id":"df82d2f9-f688-4670-ac84-3e543122cedb","system_id":"levelo_inurba_marseille","lat":43.3372,"lon":5.39183,"is_reserved":false,"is_disabled":false,"rental_uris":{"android":"levelo://app?vid=df82d2f9-f688-4670-ac84-3e543122cedb","ios":"levelo://app?vid=df82d2f9-f688-4670-ac84-3e543122cedb"},"vehicle_type_id":"4","last_reported":1691175922,"current_range_meters":12800,"station_id":"ce4bhr92rcd13ifvqhsg","pricing_plan_id":"free"},{"bike_id":"9be39f6c-974f-4a4e-90c3-357a4d8fdcc8","system_id":"levelo_inurba_marseille","lat":43.323464,"lon":5.406297,"is_reserved":false,"is_disabled":false,"rental_uris":{"android":"levelo://app?vid=9be39f6c-974f-4a4e-90c3-357a4d8fdcc8","ios":"levelo://app?vid=9be39f6c-974f-4a4e-90c3-357a4d8fdcc8"},"vehicle_type_id":"4","last_reported":1691175922,"current_range_meters":30400,"station_id":"ce4bhq92rcd13ifvqhjg","pricing_plan_id":"free"},{"bike_id":"9ed5c8cd-5716-467d-9a0b-e5002dcb5a2c","system_id":"levelo_inurba_marseille","lat":43.33722,"lon":5.39185,"is_reserved":false,"is_disabled":false,"rental_uris":{"android":"levelo://app?vid=9ed5c8cd-5716-467d-9a0b-e5002dcb5a2c","ios":"levelo://app?vid=9ed5c8cd-5716-467d-9a0b-e5002dcb5a2c"},"vehicle_type_id":"4","last_reported":1691175922,"current_range_meters":29200,"station_id":"ce4bhr92rcd13ifvqhsg","pricing_plan_id":"free"},{"bike_id":"a3cf389b-f19c-4e75-9e92-40c9195ed245","system_id":"levelo_inurba_marseille","lat":43.33725,"lon":5.3918,"is_reserved":false,"is_disabled":false,"rental_uris":{"android":"levelo://app?vid=a3cf389b-f19c-4e75-9e92-40c9195ed245","ios":"levelo://app?vid=a3cf389b-f19c-4e75-9e92-40c9195ed245"},"vehicle_type_id":"4","last_reported":1691175922,"current_range_meters":0,"station_id":"ce4bhr92rcd13ifvqhsg","pricing_plan_id":"free"},{"bike_id":"5fd6a347-0a02-4efa-ab4a-06802493ed56","system_id":"levelo_inurba_marseille","lat":43.33721,"lon":5.39189,"is_reserved":false,"is_disabled":false,"rental_uris":{"android":"levelo://app?vid=5fd6a347-0a02-4efa-ab4a-06802493ed56","ios":"levelo://app?vid=5fd6a347-0a02-4efa-ab4a-06802493ed56"},"vehicle_type_id":"4","last_reported":1691175922,"current_range_meters":14400,"station_id":"ce4bhr92rcd13ifvqhsg","pricing_plan_id":"free"},{"bike_id":"a9671d69-2a62-4abb-9d98-78ee12b6b2d8","system_id":"levelo_inurba_marseille","lat":43.33724,"lon":5.39184,"is_reserved":false,"is_disabled":false,"rental_uris":{"android":"levelo://app?vid=a9671d69-2a62-4abb-9d98-78ee12b6b2d8","ios":"levelo://app?vid=a9671d69-2a62-4abb-9d98-78ee12b6b2d8"},"vehicle_type_id":"4","last_reported":1691175922,"current_range_meters":11200,"station_id":"ce4bhr92rcd13ifvqhsg","pricing_plan_id":"free"},{"bike_id":"939edbe6-adcc-4f97-ad69-99748df4073d","system_id":"levelo_inurba_marseille","lat":43.33726,"lon":5.39181,"is_reserved":false,"is_disabled":false,"rental_uris":{"android":"levelo://app?vid=939edbe6-adcc-4f97-ad69-99748df4073d","ios":"levelo://app?vid=939edbe6-adcc-4f97-ad69-99748df4073d"},"vehicle_type_id":"4","last_reported":1691175922,"current_range_meters":24400,"station_id":"ce4bhr92rcd13ifvqhsg","pricing_plan_id":"free"},{"bike_id":"1f5722b0-5667-43f6-9dad-3a3b818c5a69","system_id":"levelo_inurba_marseille","lat":43.33725,"lon":5.39184,"is_reserved":false,"is_disabled":false,"rental_uris":{"android":"levelo://app?vid=1f5722b0-5667-43f6-9dad-3a3b818c5a69","ios":"levelo://app?vid=1f5722b0-5667-43f6-9dad-3a3b818c5a69"},"vehicle_type_id":"4","last_reported":1691175922,"current_range_meters":30000,"station_id":"ce4bhr92rcd13ifvqhsg","pricing_plan_id":"free"},{"bike_id":"23dafe58-bc58-41ce-843c-2b5e651c84c2","system_id":"levelo_inurba_marseille","lat":43.32336,"lon":5.4062,"is_reserved":false,"is_disabled":false,"rental_uris":{"android":"levelo://app?vid=23dafe58-bc58-41ce-843c-2b5e651c84c2","ios":"levelo://app?vid=23dafe58-bc58-41ce-843c-2b5e651c84c2"},"vehicle_type_id":"4","last_reported":1691175922,"current_range_meters":30000,"station_id":"ce4bhq92rcd13ifvqhjg","pricing_plan_id":"free"},{"bike_id":"9d8dc018-8295-487e-aae9-79ce0f469cdf","system_id":"levelo_inurba_marseille","lat":43.33723,"lon":5.39188,"is_reserved":false,"is_disabled":false,"rental_uris":{"android":"levelo://app?vid=9d8dc018-8295-487e-aae9-79ce0f469cdf","ios":"levelo://app?vid=9d8dc018-8295-487e-aae9-79ce0f469cdf"},"vehicle_type_id":"4","last_reported":1691175922,"current_range_meters":24400,"station_id":"ce4bhr92rcd13ifvqhsg","pricing_plan_id":"free"},{"bike_id":"c59f30af-b7c9-4762-b544-56156d6a8a97","system_id":"levelo_inurba_marseille","lat":43.33727,"lon":5.39181,"is_reserved":false,"is_disabled":false,"rental_uris":{"android":"levelo://app?vid=c59f30af-b7c9-4762-b544-56156d6a8a97","ios":"levelo://app?vid=c59f30af-b7c9-4762-b544-56156d6a8a97"},"vehicle_type_id":"4","last_reported":1691175922,"current_range_meters":21200,"station_id":"ce4bhr92rcd13ifvqhsg","pricing_plan_id":"free"},{"bike_id":"ed9797b8-d925-4a28-9a9e-5f5639c20314","system_id":"levelo_inurba_marseille","lat":43.33725,"lon":5.39186,"is_reserved":false,"is_disabled":false,"rental_uris":{"android":"levelo://app?vid=ed9797b8-d925-4a28-9a9e-5f5639c20314","ios":"levelo://app?vid=ed9797b8-d925-4a28-9a9e-5f5639c20314"},"vehicle_type_id":"4","last_reported":1691175922,"current_range_meters":13200,"station_id":"ce4bhr92rcd13ifvqhsg","pricing_plan_id":"free"},{"bike_id":"3e2b1177-2c86-434f-b952-b4cf179b745c","system_id":"levelo_inurba_marseille","lat":43.32336,"lon":5.40622,"is_reserved":false,"is_disabled":false,"rental_uris":{"android":"levelo://app?vid=3e2b1177-2c86-434f-b952-b4cf179b745c","ios":"levelo://app?vid=3e2b1177-2c86-434f-b952-b4cf179b745c"},"vehicle_type_id":"4","last_reported":1691175922,"current_range_meters":21600,"station_id":"ce4bhq92rcd13ifvqhjg","pricing_plan_id":"free"},{"bike_id":"8e4ab4c7-b2dc-4e74-b07d-1ff49a416721","system_id":"levelo_inurba_marseille","lat":43.33726,"lon":5.39186,"is_reserved":false,"is_disabled":false,"rental_uris":{"android":"levelo://app?vid=8e4ab4c7-b2dc-4e74-b07d-1ff49a416721","ios":"levelo://app?vid=8e4ab4c7-b2dc-4e74-b07d-1ff49a416721"},"vehicle_type_id":"4","last_reported":1691175922,"current_range_meters":18000,"station_id":"ce4bhr92rcd13ifvqhsg","pricing_plan_id":"free"},{"bike_id":"601b87a2-cdf3-4ec5-b80d-49e652d89975","system_id":"levelo_inurba_marseille","lat":43.284793,"lon":5.384119,"is_reserved":false,"is_disabled":false,"rental_uris":{"android":"levelo://app?vid=601b87a2-cdf3-4ec5-b80d-49e652d89975","ios":"levelo://app?vid=601b87a2-cdf3-4ec5-b80d-49e652d89975"},"vehicle_type_id":"4","last_reported":1691175922,"current_range_meters":20800,"station_id":"ce4bh512rcd13ifvqe3g","pricing_plan_id":"free"},{"bike_id":"dbada9f9-e33c-4a7d-ab43-1cac4e571e70","system_id":"levelo_inurba_marseille","lat":43.284793,"lon":5.384119,"is_reserved":false,"is_disabled":false,"rental_uris":{"android":"levelo://app?vid=dbada9f9-e33c-4a7d-ab43-1cac4e571e70","ios":"levelo://app?vid=dbada9f9-e33c-4a7d-ab43-1cac4e571e70"},"vehicle_type_id":"4","last_reported":1691175922,"current_range_meters":30000,"station_id":"ce4bh512rcd13ifvqe3g","pricing_plan_id":"free"},{"bike_id":"7d1cf36d-6b3e-409c-adb4-4b9c9f6fc956","system_id":"levelo_inurba_marseille","lat":43.283498,"lon":5.380948,"is_reserved":false,"is_disabled":false,"rental_uris":{"android":"levelo://app?vid=7d1cf36d-6b3e-409c-adb4-4b9c9f6fc956","ios":"levelo://app?vid=7d1cf36d-6b3e-409c-adb4-4b9c9f6fc956"},"vehicle_type_id":"4","last_reported":1691175922,"current_range_meters":30800,"station_id":"ce4bh412rcd13ifvqdr0","pricing_plan_id":"free"},{"bike_id":"3e55310b-119d-4d9f-b6e3-37fe08c99c7e","system_id":"levelo_inurba_marseille","lat":43.28348,"lon":5.38099,"is_reserved":false,"is_disabled":false,"rental_uris":{"android":"levelo://app?vid=3e55310b-119d-4d9f-b6e3-37fe08c99c7e","ios":"levelo://app?vid=3e55310b-119d-4d9f-b6e3-37fe08c99c7e"},"vehicle_type_id":"4","last_reported":1691175922,"current_range_meters":0,"station_id":"ce4bh412rcd13ifvqdr0","pricing_plan_id":"free"},