{"last_updated":1774020769,"ttl":60,"version":"2.2","data":{"bikes":[{"bike_id":"2632fdb5-2d0e-4a4a-895b-267872d8c037","system_id":"levelo_inurba_marseille","lat":43.240729,"lon":5.377613,"is_reserved":false,"is_disabled":false,"rental_uris":{"android":"levelo://app?vid=2632fdb5-2d0e-4a4a-895b-267872d8c037","ios":"levelo://app?vid=2632fdb5-2d0e-4a4a-895b-267872d8c037"},"vehicle_type_id":"4","last_reported":1774020770,"current_range_meters":2800,"station_id":"ce4bhnp2rcd13ifvqgvg","pricing_plan_id":"cebpf4jnsgd1na2vs0mg"},{"bike_id":"ce257e0b-6b5b-4f64-a290-5d9c397635fa","system_id":"levelo_inurba_marseille","lat":43.26559,"lon":5.39016,"is_reserved":false,"is_disabled":false,"rental_uris":{"android":"levelo://app?vid=ce257e0b-6b5b-4f64-a290-5d9c397635fa","ios":"levelo://app?vid=ce257e0b-6b5b-4f64-a290-5d9c397635fa"},"vehicle_type_id":"4","last_reported":1774020770,"current_range_meters":2800,"station_id":"ce4bhe12rcd13ifvqf30","pricing_plan_id":"cebpf4jnsgd1na2vs0mg"},{"bike_id":"8a854e0a-3b9f-471d-80f2-bfadb0595e6b","system_id":"levelo_inurba_marseille","lat":43.3138,"lon":5.3835,"is_reserved":false,"is_disabled":false,"rental_uris":{"android":"levelo://app?vid=8a854e0a-3b9f-471d-80f2-bfadb0595e6b","ios":"levelo://app?vid=8a854e0a-3b9f-471d-80f2-bfadb0595e6b"},"vehicle_type_id":"4","last_reported":1774020770,"current_range_meters":2800,"station_id":"","pricing_plan_id":"cebpf4jnsgd1na2vs0mg"},{"bike_id":"93aecb9c-8272-45d9-a7d8-b0eb18e695d5","system_id":"levelo_inurba_marseille","lat":43.28701,"lon":5.3794,"is_reserved":false,"is_disabled":false,"rental_uris":{"android":"levelo://app?vid=93aecb9c-8272-45d9-a7d8-b0eb18e695d5","ios":"levelo://app?vid=93aecb9c-8272-45d9-a7d8-b0eb18e695d5"},"vehicle_type_id":"4","last_reported":1774020770,"current_range_meters":2800,"station_id":"ce4bh9p2rcd13ifvqec0","pricing_plan_id":"cebpf4jnsgd1na2vs0mg"},{"bike_id":"7b14d427-b8ef-40fd-9356-9deaec4d0d10","system_id":"levelo_inurba_marseille","lat":43.30307,"lon":5.39202,"is_reserved":false,"is_disabled":false,"rental_uris":{"android":"levelo://app?vid=7b14d427-b8ef-40fd-9356-9deaec4d0d10","ios":"levelo://app?vid=7b14d427-b8ef-40fd-9356-9deaec4d0d10"},"vehicle_type_id":"4","last_reported":1774020770,"current_range_meters":2800,"station_id":"ce4bgkh2rcd13ifvqbk0","pricing_plan_id":"cebpf4jnsgd1na2vs0mg"},{"bike_id":"1a8dc529-189a-4782-a715-6a9b48c231b5","system_id":"levelo_inurba_marseille","lat":43.3015,"lon":5.38083,"is_reserved":false,"is_disabled":false,"rental_uris":{"android":"levelo://app?vid=1a8dc529-189a-4782-a715-6a9b48c231b5","ios":"levelo://app?vid=1a8dc529-189a-4782-a715-6a9b48c231b5"},"vehicle_type_id":"4","last_reported":1774020770,"current_range_meters":2800,"station_id":"ce4bgjp2rcd13ifvqbh0","pricing_plan_id":"cebpf4jnsgd1na2vs0mg"},{"bike_id":"3032b494-c714-4837-b990-cced6b0b87f1","system_id":"levelo_inurba_marseille","lat":43.291,"lon":5.40029,"is_reserved":false,"is_disabled":false,"rental_uris":{"android":"levelo://app?vid=3032b494-c714-4837-b990-cced6b0b87f1","ios":"levelo://app?vid=3032b494-c714-4837-b990-cced6b0b87f1"},"vehicle_type_id":"4","last_reported":1774020770,"current_range_meters":2800,"station_id":"","pricing_plan_id":"cebpf4jnsgd1na2vs0mg"},{"bike_id":"e57c0539-4b45-4f83-aab8-8c1a2482c748","system_id":"levelo_inurba_marseille","lat":43.25117,"lon":5.4035,"is_reserved":false,"is_disabled":false,"rental_uris":{"android":"levelo://app?vid=e57c0539-4b45-4f83-aab8-8c1a2482c748","ios":"levelo://app?vid=e57c0539-4b45-4f83-aab8-8c1a2482c748"},"vehicle_type_id":"4","last_reported":1774020770,"current_range_meters":2800,"station_id":"ce4bhlh2rcd13ifvqgig","pricing_plan_id":"cebpf4jnsgd1na2vs0mg"},{"bike_id":"4fde627b-8364-46be-9256-05238401007e","system_id":"levelo_inurba_marseille","lat":43.30799,"lon":5.38153,"is_reserved":false,"is_disabled":false,"rental_uris":{"android":"levelo://app?vid=4fde627b-8364-46be-9256-05238401007e","ios":"levelo://app?vid=4fde627b-8364-46be-9256-05238401007e"},"vehicle_type_id":"4","last_reported":1774020770,"current_range_meters":2800,"station_id":"ce4bgt12rcd13ifvqce0","pricing_plan_id":"cebpf4jnsgd1na2vs0mg"},{"bike_id":"0a5cf4f4-c820-445f-8bfa-e60dbfb433d7","system_id":"levelo_inurba_marseille","lat":43.29004,"lon":5.35605,"is_reserved":false,"is_disabled":false,"rental_uris":{"android":"levelo://app?vid=0a5cf4f4-c820-445f-8bfa-e60dbfb433d7","ios":"levelo://app?vid=0a5cf4f4-c820-445f-8bfa-e60dbfb433d7"},"vehicle_type_id":"4","last_reported":1774020770,"current_range_meters":2800,"station_id":"ce4bhb92rcd13ifvqen0","pricing_plan_id":"cebpf4jnsgd1na2vs0mg"},{"bike_id":"cf21a704-d1d6-45ac-b508-b7d48f023c9f","system_id":"levelo_inurba_marseille","lat":43.32113,"lon":5.36774,"is_reserved":false,"is_disabled":false,"rental_uris":{"android":"levelo://app?vid=cf21a704-d1d6-45ac-b508-b7d48f023c9f","ios":"levelo://app?vid=cf21a704-d1d6-45ac-b508-b7d48f023c9f"},"vehicle_type_id":"4","last_reported":1774020770,"current_range_meters":3200,"station_id":"ce4bhrh2rcd13ifvqhug","pricing_plan_id":"cebpf4jnsgd1na2vs0mg"},{"bike_id":"cd3c63e2-4bc2-40eb-9717-fcb5eddc0f75","system_id":"levelo_inurba_marseille","lat":43.29311,"lon":5.37163,"is_reserved":false,"is_disabled":false,"rental_uris":{"android":"levelo://app?vid=cd3c63e2-4bc2-40eb-9717-fcb5eddc0f75","ios":"levelo://app?vid=cd3c63e2-4bc2-40eb-9717-fcb5eddc0f75"},"vehicle_type_id":"4","last_reported":1774020770,"current_range_meters":3200,"station_id":"ce4bgh92rcd13ifvqb40","pricing_plan_id":"cebpf4jnsgd1na2vs0mg"},{"bike_id":"dd10efc5-28b9-436a-be78-8011941e89fc","system_id":"levelo_inurba_marseille","lat":43.28469,"lon":5.48409,"is_reserved":false,"is_disabled":false,"rental_uris":{"android":"levelo://app?vid=dd10efc5-28b9-436a-be78-8011941e89fc","ios":"levelo://app?vid=dd10efc5-28b9-436a-be78-8011941e89fc"},"vehicle_type_id":"4","last_reported":1774020770,"current_range_meters":3200,"station_id":"st_d3svhcjqgbts73a3dn0g","pricing_plan_id":"cebpf4jnsgd1na2vs0mg"},{"bike_id":"299e519b-3b2c-4aa3-9af1-362f343fe8f8","system_id":"levelo_inurba_marseille","lat":43.23774,"lon":5.36628,"is_reserved":false,"is_disabled":false,"rental_uris":{"android":"levelo://app?vid=299e519b-3b2c-4aa3-9af1-362f343fe8f8","ios":"levelo://app?vid=299e519b-3b2c-4aa3-9af1-362f343fe8f8"},"vehicle_type_id":"4","last_reported":1774020770,"current_range_meters":3200,"station_id":"st_d3nk18o9ro0c73en2l3g","pricing_plan_id":"cebpf4jnsgd1na2vs0mg"},{"bike_id":"e193d30c-bc14-428c-aa8b-69aacbc22c20","system_id":"levelo_inurba_marseille","lat":43.32103,"lon":5.36774,"is_reserved":false,"is_disabled":false,"rental_uris":{"android":"levelo://app?vid=e193d30c-bc14-428c-aa8b-69aacbc22c20","ios":"levelo://app?vid=e193d30c-bc14-428c-aa8b-69aacbc22c20"},"vehicle_type_id":"4","last_reported":1774020770,"current_range_meters":3200,"station_id":"ce4bhrh2rcd13ifvqhug","pricing_plan_id":"cebpf4jnsgd1na2vs0mg"},{"bike_id":"4c6a4d6a-2427-4c2c-bc2d-a0973ca4e7b9","system_id":"levelo_inurba_marseille","lat":43.27986,"lon":5.41663,"is_reserved":false,"is_disabled":false,"rental_uris":{"android":"levelo://app?vid=4c6a4d6a-2427-4c2c-bc2d-a0973ca4e7b9","ios":"levelo://app?vid=4c6a4d6a-2427-4c2c-bc2d-a0973ca4e7b9"},"vehicle_type_id":"4","last_reported":1774020770,"current_range_meters":3200,"station_id":"ce4bho12rcd13ifvqh1g","pricing_plan_id":"cebpf4jnsgd1na2vs0mg"},{"bike_id":"c0f2a657-bb37-44cb-9608-1c8e88a6b872","system_id":"levelo_inurba_marseille","lat":43.30948,"lon":5.39022,"is_reserved":false,"is_disabled":false,"rental_uris":{"android":"levelo://app?vid=c0f2a657-bb37-44cb-9608-1c8e88a6b872","ios":"levelo://app?vid=c0f2a657-bb37-44cb-9608-1c8e88a6b872"},"vehicle_type_id":"4","last_reported":1774020770,"current_range_meters":3200,"station_id":"ce4bgup2rcd13ifvqco0","pricing_plan_id":"cebpf4jnsgd1na2vs0mg"},{"bike_id":"ec327ac2-9680-48a1-8584-22f43bc41c50","system_id":"levelo_inurba_marseille","lat":43.29266,"lon":5.3762,"is_reserved":false,"is_disabled":true,"rental_uris":{"android":"levelo://app?vid=ec327ac2-9680-48a1-8584-22f43bc41c50","ios":"levelo://app?vid=ec327ac2-9680-48a1-8584-22f43bc41c50"},"vehicle_type_id":"4","last_reported":1774020770,"current_range_meters":3200,"station_id":"ce4bgi12rcd13ifvqb80","pricing_plan_id":"cebpf4jnsgd1na2vs0mg"},{"bike_id":"90a69217-838c-4068-b7fe-3cca14eb91b4","system_id":"levelo_inurba_marseille","lat":43.24811,"lon":5.37454,"is_reserved":false,"is_disabled":false,"rental_uris":{"android":"levelo://app?vid=90a69217-838c-4068-b7fe-3cca14eb91b4","ios":"levelo://app?vid=90a69217-838c-4068-b7fe-3cca14eb91b4"},"vehicle_type_id":"4","last_reported":1774020770,"current_range_meters":3200,"station_id":"ce4bhgh2rcd13ifvqfb0","pricing_plan_id":"cebpf4jnsgd1na2vs0mg"},{"bike_id":"3f9fb310-6fac-4137-b487-279ff0e33710","system_id":"levelo_inurba_marseille","lat":43.26027,"lon":5.37539,"is_reserved":false,"is_disabled":false,"rental_uris":{"android":"levelo://app?vid=3f9fb310-6fac-4137-b487-279ff0e33710","ios":"levelo://app?vid=3f9fb310-6fac-4137-b487-279ff0e33710"},"vehicle_type_id":"4","last_reported":1774020770,"current_range_meters":3600,"station_id":"ce4bhgh2rcd13ifvqfa0","pricing_plan_id":"cebpf4jnsgd1na2vs0mg"},{"bike_id":"ae3653ee-4b50-4f8a-971b-1802190756aa","system_id":"levelo_inurba_marseille","lat":43.28408,"lon":5.34991,"is_reserved":false,"is_disabled":false,"rental_uris":{"android":"levelo://app?vid=ae3653ee-4b50-4f8a-971b-1802190756aa","ios":"levelo://app?vid=ae3653ee-4b50-4f8a-971b-1802190756aa"},"vehicle_type_id":"4","last_reported":1774020770,"current_range_meters":3600,"station_id":"ce4bhbh2rcd13ifvqepg","pricing_plan_id":"cebpf4jnsgd1na2vs0mg"},{"bike_id":"24e02049-7d35-48ad-9eee-757709960f87","system_id":"levelo_inurba_marseille","lat":43.26041,"lon":5.3754,"is_reserved":false,"is_disabled":false,"rental_uris":{"android":"levelo://app?vid=24e02049-7d35-48ad-9eee-757709960f87","ios":"levelo://app?vid=24e02049-7d35-48ad-9eee-757709960f87"},"vehicle_type_id":"4","last_reported":1774020770,"current_range_meters":3600,"station_id":"ce4bhgh2rcd13ifvqfa0","pricing_plan_id":"cebpf4jnsgd1na2vs0mg"},{"bike_id":"cbc8599d-0f53-4276-b29f-85b323d36cb9","system_id":"levelo_inurba_marseille","lat":43.25487,"lon":5.37645,"is_reserved":false,"is_disabled":false,"rental_uris":{"android":"levelo://app?vid=cbc8599d-0f53-4276-b29f-85b323d36cb9","ios":"levelo://app?vid=cbc8599d-0f53-4276-b29f-85b323d36cb9"},"vehicle_type_id":"4","last_reported":1774020770,"current_range_meters":3600,"station_id":"ce4bhh12rcd13ifvqff0","pricing_plan_id":"cebpf4jnsgd1na2vs0mg"},{"bike_id":"a691c38d-8b4d-4432-8b93-b0f77de99cf3","system_id":"levelo_inurba_marseille","lat":43.29294,"lon":5.37434,"is_reserved":false,"is_disabled":false,"rental_uris":{"android":"levelo://app?vid=a691c38d-8b4d-4432-8b93-b0f77de99cf3","ios":"levelo://app?vid=a691c38d-8b4d-4432-8b93-b0f77de99cf3"},"vehicle_type_id":"4","last_reported":1774020770,"current_range_meters":3600,"station_id":"ce4bgi12rcd13ifvqb70","pricing_plan_id":"cebpf4jnsgd1na2vs0mg"},{"bike_id":"d5f7f0bf-c4f5-45e1-bf7d-f4959ca7505e","system_id":"levelo_inurba_marseille","lat":43.24412,"lon":5.37007,"is_reserved":false,"is_disabled":false,"rental_uris":{"android":"levelo://app?vid=d5f7f0bf-c4f5-45e1-bf7d-f4959ca7505e","ios":"levelo://app?vid=d5f7f0bf-c4f5-45e1-bf7d-f4959ca7505e"},"vehicle_type_id":"4","last_reported":1774020770,"current_range_meters":3600,"station_id":"ce4bhhh2rcd13ifvqfk0","pricing_plan_id":"cebpf4jnsgd1na2vs0mg"},{"bike_id":"2b29c9a8-f15d-4c2d-8470-f1208d2d4433","system_id":"levelo_inurba_marseille","lat":43.23957,"lon":5.36633,"is_reserved":false,"is_disabled":false,"rental_uris":{"android":"levelo://app?vid=2b29c9a8-f15d-4c2d-8470-f1208d2d4433","ios":"levelo://app?vid=2b29c9a8-f15d-4c2d-8470-f1208d2d4433"},"vehicle_type_id":"4","last_reported":1774020770,"current_range_meters":3600,"station_id":"ce4bhi12rcd13ifvqfp0","pricing_plan_id":"cebpf4jnsgd1na2vs0mg"},{"bike_id":"7cfd1071-1592-4b23-be3e-09509832fc0a","system_id":"levelo_inurba_marseille","lat":43.27949,"lon":5.41049,"is_reserved":false,"is_disabled":false,"rental_uris":{"android":"levelo://app?vid=7cfd1071-1592-4b23-be3e-09509832fc0a","ios":"levelo://app?vid=7cfd1071-1592-4b23-be3e-09509832fc0a"},"vehicle_type_id":"4","last_reported":1774020770,"current_range_meters":3600,"station_id":"ce4bhnp2rcd13ifvqh0g","pricing_plan_id":"cebpf4jnsgd1na2vs0mg"},{"bike_id":"3ed4bc13-b22d-44b4-aa6f-19f196c483da","system_id":"levelo_inurba_marseille","lat":43.24177,"lon":5.36399,"is_reserved":false,"is_disabled":false,"rental_uris":{"android":"levelo://app?vid=3ed4bc13-b22d-44b4-aa6f-19f196c483da","ios":"levelo://app?vid=3ed4bc13-b22d-44b4-aa6f-19f196c483da"},"vehicle_type_id":"4","last_reported":1774020770,"current_range_meters":3600,"station_id":"cpo36qri1sfpv3e86is0","pricing_plan_id":"cebpf4jnsgd1na2vs0mg"},{"bike_id":"80fc1a01-6b2b-42d2-a3f3-c5f025420ed6","system_id":"levelo_inurba_marseille","lat":43.24064,"lon":5.37761,"is_reserved":false,"is_disabled":false,"rental_uris":{"android":"levelo://app?vid=80fc1a01-6b2b-42d2-a3f3-c5f025420ed6","ios":"levelo://app?vid=80fc1a01-6b2b-42d2-a3f3-c5f025420ed6"},"vehicle_type_id":"4","last_reported":1774020770,"current_range_meters":3600,"station_id":"ce4bhnp2rcd13ifvqgvg","pricing_plan_id":"cebpf4jnsgd1na2vs0mg"},{"bike_id":"0cbe5d65-8750-47dc-8602-e36aefc95967","system_id":"levelo_inurba_marseille","lat":43.24163,"lon":5.36396,"is_reserved":false,"is_disabled":false,"rental_uris":{"android":"levelo://app?vid=0cbe5d65-8750-47dc-8602-e36aefc95967","ios":"levelo://app?vid=0cbe5d65-8750-47dc-8602-e36aefc95967"},"vehicle_type_id":"4","last_reported":1774020770,"current_range_meters":3600,"station_id":"cpo36qri1sfpv3e86is0","pricing_plan_id":"cebpf4jnsgd1na2vs0mg"},{"bike_id":"866491ff-3b4a-4a42-bfe8-0760f9622b85","system_id":"levelo_inurba_marseille","lat":43.28257,"lon":5.35055,"is_reserved":false,"is_disabled":false,"rental_uris":{"android":"levelo://app?vid=866491ff-3b4a-4a42-bfe8-0760f9622b85","ios":"levelo://app?vid=866491ff-3b4a-4a42-bfe8-0760f9622b85"},"vehicle_type_id":"4","last_reported":1774020770,"current_range_meters":3600,"station_id":"ce4bhbp2rcd13ifvqerg","pricing_plan_id":"cebpf4jnsgd1na2vs0mg"},{"bike_id":"962909d5-4609-4ccd-98c7-5fee65e71837","system_id":"levelo_inurba_marseille","lat":43.28405,"lon":5.37512,"is_reserved":false,"is_disabled":false,"rental_uris":{"android":"levelo://app?vid=962909d5-4609-4ccd-98c7-5fee65e71837","ios":"levelo://app?vid=962909d5-4609-4ccd-98c7-5fee65e71837"},"vehicle_type_id":"4","last_reported":1774020770,"current_range_meters":3600,"station_id":"ce4bh412rcd13ifvqds0","pricing_plan_id":"cebpf4jnsgd1na2vs0mg"},{"bike_id":"b6905bfd-2836-4ae5-94f7-1e1613fac1b7","system_id":"levelo_inurba_marseille","lat":43.30634,"lon":5.40091,"is_reserved":false,"is_disabled":false,"rental_uris":{"android":"levelo://app?vid=b6905bfd-2836-4ae5-94f7-1e1613fac1b7","ios":"levelo://app?vid=b6905bfd-2836-4ae5-94f7-1e1613fac1b7"},"vehicle_type_id":"4","last_reported":1774020770,"current_range_meters":3600,"station_id":"ce4bh112rcd13ifvqda0","pricing_plan_id":"cebpf4jnsgd1na2vs0mg"},{"bike_id":"66be2595-d8a5-40d3-b0b9-334f8fbba844","system_id":"levelo_inurba_marseille","lat":43.24648,"lon":5.4315,"is_reserved":false,"is_disabled":false,"rental_uris":{"android":"levelo://app?vid=66be2595-d8a5-40d3-b0b9-334f8fbba844","ios":"levelo://app?vid=66be2595-d8a5-40d3-b0b9-334f8fbba844"},"vehicle_type_id":"4","last_reported":1774020770,"current_range_meters":4000,"station_id":"","pricing_plan_id":"cebpf4jnsgd1na2vs0mg"},{"bike_id":"27cfd7f2-48c6-4fe4-9d82-e5b76120df75","system_id":"levelo_inurba_marseille","lat":43.29831,"lon":5.44054,"is_reserved":false,"is_disabled":false,"rental_uris":{"android":"levelo://app?vid=27cfd7f2-48c6-4fe4-9d82-e5b76120df75","ios":"levelo://app?vid=27cfd7f2-48c6-4fe4-9d82-e5b76120df75"},"vehicle_type_id":"4","last_reported":1774020770,"current_range_meters":4000,"station_id":"st_d3jp68qikq2c7381ktn0","pricing_plan_id":"cebpf4jnsgd1na2vs0mg"},{"bike_id":"03a0cdbf-a73f-463f-b592-a5e5ebc5abae","system_id":"levelo_inurba_marseille","lat":43.3171,"lon":5.37729,"is_reserved":false,"is_disabled":false,"rental_uris":{"android":"levelo://app?vid=03a0cdbf-a73f-463f-b592-a5e5ebc5abae","ios":"levelo://app?vid=03a0cdbf-a73f-463f-b592-a5e5ebc5abae"},"vehicle_type_id":"4","last_reported":1774020770,"current_range_meters":4000,"station_id":"ce4bgth2rcd13ifvqch0","pricing_plan_id":"cebpf4jnsgd1na2vs0mg"},{"bike_id":"e5e18d51-d281-4feb-b73c-20d80ef4d3b8","system_id":"levelo_inurba_marseille","lat":43.28142,"lon":5.4264,"is_reserved":false,"is_disabled":false,"rental_uris":{"android":"levelo://app?vid=e5e18d51-d281-4feb-b73c-20d80ef4d3b8","ios":"levelo://app?vid=e5e18d51-d281-4feb-b73c-20d80ef4d3b8"},"vehicle_type_id":"4","last_reported":1774020770,"current_range_meters":4000,"station_id":"ce4bhnh2rcd13ifvqgug","pricing_plan_id":"cebpf4jnsgd1na2vs0mg"},{"bike_id":"d870c031-9d59-454d-95d3-c308a0ee650a","system_id":"levelo_inurba_marseille","lat":43.28416,"lon":5.34993,"is_reserved":false,"is_disabled":false,"rental_uris":{"android":"levelo://app?vid=d870c031-9d59-454d-95d3-c308a0ee650a","ios":"levelo://app?vid=d870c031-9d59-454d-95d3-c308a0ee650a"},"vehicle_type_id":"4","last_reported":1774020770,"current_range_meters":4000,"station_id":"ce4bhbh2rcd13ifvqepg","pricing_plan_id":"cebpf4jnsgd1na2vs0mg"},{"bike_id":"41eedc24-0c97-478a-a50d-1206c8f2a7c3","system_id":"levelo_inurba_marseille","lat":43.29685,"lon":5.36607,"is_reserved":false,"is_disabled":false,"rental_uris":{"android":"levelo://app?vid=41eedc24-0c97-478a-a50d-1206c8f2a7c3","ios":"levelo://app?vid=41eedc24-0c97-478a-a50d-1206c8f2a7c3"},"vehicle_type_id":"4","last_reported":1774020770,"current_range_meters":4000,"station_id":"ce4bgn12rcd13ifvqbt0","pricing_plan_id":"cebpf4jnsgd1na2vs0mg"},{"bike_id":"9e998917-7be1-4dfa-84ec-ae9895c9cd2f","system_id":"levelo_inurba_marseille","lat":43.27381,"lon":5.36264,"is_reserved":false,"is_disabled":false,"rental_uris":{"android":"levelo://app?vid=9e998917-7be1-4dfa-84ec-ae9895c9cd2f","ios":"levelo://app?vid=9e998917-7be1-4dfa-84ec-ae9895c9cd2f"},"vehicle_type_id":"4","last_reported":1774020770,"current_range_meters":4000,"station_id":"ce4bhbh2rcd13ifvqeo0","pricing_plan_id":"cebpf4jnsgd1na2vs0mg"},{"bike_id":"9fbfdc7a-8398-40b5-b97f-ba1104c7c96f","system_id":"levelo_inurba_marseille","lat":43.23199,"lon":5.35551,"is_reserved":false,"is_disabled":false,"rental_uris":{"android":"levelo://app?vid=9fbfdc7a-8398-40b5-b97f-ba1104c7c96f","ios":"levelo://app?vid=9fbfdc7a-8398-40b5-b97f-ba1104c7c96f"},"vehicle_type_id":"4","last_reported":1774020770,"current_range_meters":4000,"station_id":"ce4bhu92rcd13ifvqi70","pricing_plan_id":"cebpf4jnsgd1na2vs0mg"},{"bike_id":"06ce4f90-d2c1-4cdf-8e92-af4e6c83cb49","system_id":"levelo_inurba_marseille","lat":43.29003,"lon":5.35625,"is_reserved":false,"is_disabled":true,"rental_uris":{"android":"levelo://app?vid=06ce4f90-d2c1-4cdf-8e92-af4e6c83cb49","ios":"levelo://app?vid=06ce4f90-d2c1-4cdf-8e92-af4e6c83cb49"},"vehicle_type_id":"4","last_reported":1774020770,"current_range_meters":4000,"station_id":"ce4bhb92rcd13ifvqen0","pricing_plan_id":"cebpf4jnsgd1na2vs0mg"},{"bike_id":"59f58ac4-6e88-410c-896a-0caa6d1c703b","system_id":"levelo_inurba_marseille","lat":43.31696,"lon":5.37722,"is_reserved":false,"is_disabled":false,"rental_uris":{"android":"levelo://app?vid=59f58ac4-6e88-410c-896a-0caa6d1c703b","ios":"levelo://app?vid=59f58ac4-6e88-410c-896a-0caa6d1c703b"},"vehicle_type_id":"4","last_reported":1774020770,"current_range_meters":4000,"station_id":"ce4bgth2rcd13ifvqch0","pricing_plan_id":"cebpf4jnsgd1na2vs0mg"},{"bike_id":"40c5f1e1-1af5-43cf-b469-f7535e385bdb","system_id":"levelo_inurba_marseille","lat":43.29043,"lon":5.39957,"is_reserved":false,"is_disabled":false,"rental_uris":{"android":"levelo://app?vid=40c5f1e1-1af5-43cf-b469-f7535e385bdb","ios":"levelo://app?vid=40c5f1e1-1af5-43cf-b469-f7535e385bdb"},"vehicle_type_id":"4","last_reported":1774020770,"current_range_meters":4000,"station_id":"ce4bh392rcd13ifvqdm0","pricing_plan_id":"cebpf4jnsgd1na2vs0mg"},{"bike_id":"1e79f2ff-4081-45ff-b647-90b12c596965","system_id":"levelo_inurba_marseille","lat":43.30737,"lon":5.42448,"is_reserved":false,"is_disabled":false,"rental_uris":{"android":"levelo://app?vid=1e79f2ff-4081-45ff-b647-90b12c596965","ios":"levelo://app?vid=1e79f2ff-4081-45ff-b647-90b12c596965"},"vehicle_type_id":"4","last_reported":1774020770,"current_range_meters":4000,"station_id":"st_cvj6ca6bvosntc0bfgr0","pricing_plan_id":"cebpf4jnsgd1na2vs0mg"},{"bike_id":"edf26694-f667-4494-867d-393318c13c93","system_id":"levelo_inurba_marseille","lat":43.30353,"lon":5.41876,"is_reserved":false,"is_disabled":false,"rental_uris":{"android":"levelo://app?vid=edf26694-f667-4494-867d-393318c13c93","ios":"levelo://app?vid=edf26694-f667-4494-867d-393318c13c93"},"vehicle_type_id":"4","last_reported":1774020770,"current_range_meters":4000,"station_id":"ce4bhop2rcd13ifvqh7g","pricing_plan_id":"cebpf4jnsgd1na2vs0mg"},{"bike_id":"bebae7b0-c2c6-4b1d-8855-8b06d4443a00","system_id":"levelo_inurba_marseille","lat":43.28475,"lon":5.48388,"is_reserved":false,"is_disabled":false,"rental_uris":{"android":"levelo://app?vid=bebae7b0-c2c6-4b1d-8855-8b06d4443a00","ios":"levelo://app?vid=bebae7b0-c2c6-4b1d-8855-8b06d4443a00"},"vehicle_type_id":"4","last_reported":1774020770,"current_range_meters":4000,"station_id":"st_d3svhcjqgbts73a3dn0g","pricing_plan_id":"cebpf4jnsgd1na2vs0mg"},{"bike_id":"15750178-4f9b-426f-bafa-493e04eb7e36","system_id":"levelo_inurba_marseille","lat":43.30807,"lon":5.40672,"is_reserved":false,"is_disabled":false,"rental_uris":{"android":"levelo://app?vid=15750178-4f9b-426f-bafa-493e04eb7e36","ios":"levelo://app?vid=15750178-4f9b-426f-bafa-493e04eb7e36"},"vehicle_type_id":"4","last_reported":1774020770,"current_range_meters":4000,"station_id":"","pricing_plan_id":"cebpf4jnsgd1na2vs0mg"},{"bike_id":"52f6a6b9-7af9-4956-b458-baf5061e66bf","system_id":"levelo_inurba_marseille","lat":43.23328,"lon":5.44465,"is_reserved":false,"is_disabled":false,"rental_uris":{"android":"levelo://app?vid=52f6a6b9-7af9-4956-b458-baf5061e66bf","ios":"levelo://app?vid=52f6a6b9-7af9-4956-b458-baf5061e66bf"},"vehicle_type_id":"4","last_reported":1774020770,"current_range_meters":4400,"station_id":"","pricing_plan_id":"cebpf4jnsgd1na2vs0mg"},{"bike_id":"347a0133-45d3-4213-ae48-606f4453bbf3","system_id":"levelo_inurba_marseille","lat":43.23053,"lon":5.35487,"is_reserved":false,"is_disabled":false,"rental_uris":{"android":"levelo://app?vid=347a0133-45d3-4213-ae48-606f4453bbf3","ios":"levelo://app?vid=347a0133-45d3-4213-ae48-606f4453bbf3"},"vehicle_type_id":"4","last_reported":1774020770,"current_range_meters":4400,"station_id":"cpo3342slgdg3j2ifvpg","pricing_plan_id":"cebpf4jnsgd1na2vs0mg"},{"bike_id":"8d14b4ce-8ecb-4472-9041-66d345cef324","system_id":"levelo_inurba_marseille","lat":43.301684,"lon":5.380567,"is_reserved":false,"is_disabled":false,"rental_uris":{"android":"levelo://app?vid=8d14b4ce-8ecb-4472-9041-66d345cef324","ios":"levelo://app?vid=8d14b4ce-8ecb-4472-9041-66d345cef324"},"vehicle_type_id":"4","last_reported":1774020770,"current_range_meters":4400,"station_id":"ce4bgjp2rcd13ifvqbh0","pricing_plan_id":"cebpf4jnsgd1na2vs0mg"},{"bike_id":"12d65317-a087-42b6-bcda-64c589e208fb","system_id":"levelo_inurba_marseille","lat":43.28267,"lon":5.35051,"is_reserved":false,"is_disabled":false,"rental_uris":{"android":"levelo://app?vid=12d65317-a087-42b6-bcda-64c589e208fb","ios":"levelo://app?vid=12d65317-a087-42b6-bcda-64c589e208fb"},"vehicle_type_id":"4","last_reported":1774020770,"current_range_meters":4400,"station_id":"ce4bhbp2rcd13ifvqerg","pricing_plan_id":"cebpf4jnsgd1na2vs0mg"},{"bike_id":"a171d788-8c27-4726-bdd3-fbb69af8727d","system_id":"levelo_inurba_marseille","lat":43.3009,"lon":5.39085,"is_reserved":false,"is_disabled":false,"rental_uris":{"android":"levelo://app?vid=a171d788-8c27-4726-bdd3-fbb69af8727d","ios":"levelo://app?vid=a171d788-8c27-4726-bdd3-fbb69af8727d"},"vehicle_type_id":"4","last_reported":1774020770,"current_range_meters":4400,"station_id":"ce4bh192rcd13ifvqdb0","pricing_plan_id":"cebpf4jnsgd1na2vs0mg"},{"bike_id":"a79cb7ce-a4a7-4d69-85af-0d08352dd535","system_id":"levelo_inurba_marseille","lat":43.26495,"lon":5.39533,"is_reserved":false,"is_disabled":false,"rental_uris":{"android":"levelo://app?vid=a79cb7ce-a4a7-4d69-85af-0d08352dd535","ios":"levelo://app?vid=a79cb7ce-a4a7-4d69-85af-0d08352dd535"},"vehicle_type_id":"4","last_reported":1774020770,"current_range_meters":4400,"station_id":"ce4bhi12rcd13ifvqfq0","pricing_plan_id":"cebpf4jnsgd1na2vs0mg"},{"bike_id":"5cc8e3ed-b06f-4543-8afd-114d51b9bc0e","system_id":"levelo_inurba_marseille","lat":43.28423,"lon":5.34987,"is_reserved":false,"is_disabled":false,"rental_uris":{"android":"levelo://app?vid=5cc8e3ed-b06f-4543-8afd-114d51b9bc0e","ios":"levelo://app?vid=5cc8e3ed-b06f-4543-8afd-114d51b9bc0e"},"vehicle_type_id":"4","last_reported":1774020770,"current_range_meters":4400,"station_id":"ce4bhbh2rcd13ifvqepg","pricing_plan_id":"cebpf4jnsgd1na2vs0mg"},{"bike_id":"5236fe4d-e250-44b5-8013-3f83419cddd7","system_id":"levelo_inurba_marseille","lat":43.31535,"lon":5.3801,"is_reserved":false,"is_disabled":false,"rental_uris":{"android":"levelo://app?vid=5236fe4d-e250-44b5-8013-3f83419cddd7","ios":"levelo://app?vid=5236fe4d-e250-44b5-8013-3f83419cddd7"},"vehicle_type_id":"4","last_reported":1774020770,"current_range_meters":4400,"station_id":"ce4bhsp2rcd13ifvqi50","pricing_plan_id":"cebpf4jnsgd1na2vs0mg"},{"bike_id":"744826ba-753a-4ecc-8e5c-e31c07526efd","system_id":"levelo_inurba_marseille","lat":43.27982,"lon":5.41661,"is_reserved":false,"is_disabled":false,"rental_uris":{"android":"levelo://app?vid=744826ba-753a-4ecc-8e5c-e31c07526efd","ios":"levelo://app?vid=744826ba-753a-4ecc-8e5c-e31c07526efd"},"vehicle_type_id":"4","last_reported":1774020770,"current_range_meters":4400,"station_id":"ce4bho12rcd13ifvqh1g","pricing_plan_id":"cebpf4jnsgd1na2vs0mg"},{"bike_id":"5519a0aa-8698-47d4-9892-adbb5c1a3bfe","system_id":"levelo_inurba_marseille","lat":43.27582,"lon":5.3843,"is_reserved":false,"is_disabled":false,"rental_uris":{"android":"levelo://app?vid=5519a0aa-8698-47d4-9892-adbb5c1a3bfe","ios":"levelo://app?vid=5519a0aa-8698-47d4-9892-adbb5c1a3bfe"},"vehicle_type_id":"4","last_reported":1774020770,"current_range_meters":4400,"station_id":"ce4bhh92rcd13ifvqfi0","pricing_plan_id":"cebpf4jnsgd1na2vs0mg"},{"bike_id":"0e654315-d6a5-4499-8029-ae7d8c8cbca3","system_id":"levelo_inurba_marseille","lat":43.27384,"lon":5.36261,"is_reserved":false,"is_disabled":false,"rental_uris":{"android":"levelo://app?vid=0e654315-d6a5-4499-8029-ae7d8c8cbca3","ios":"levelo://app?vid=0e654315-d6a5-4499-8029-ae7d8c8cbca3"},"vehicle_type_id":"4","last_reported":1774020770,"current_range_meters":4400,"station_id":"ce4bhbh2rcd13ifvqeo0","pricing_plan_id":"cebpf4jnsgd1na2vs0mg"},{"bike_id":"c3edbeae-d29b-4ae0-ac88-f0ce6eb0db6f","system_id":"levelo_inurba_marseille","lat":43.31334,"lon":5.36709,"is_reserved":false,"is_disabled":false,"rental_uris":{"android":"levelo://app?vid=c3edbeae-d29b-4ae0-ac88-f0ce6eb0db6f","ios":"levelo://app?vid=c3edbeae-d29b-4ae0-ac88-f0ce6eb0db6f"},"vehicle_type_id":"4","last_reported":1774020770,"current_range_meters":4400,"station_id":"ce4bgr92rcd13ifvqc6g","pricing_plan_id":"cebpf4jnsgd1na2vs0mg"},{"bike_id":"6e37492c-edc2-49aa-9858-d2a699845cd2","system_id":"levelo_inurba_marseille","lat":43.24061,"lon":5.37765,"is_reserved":false,"is_disabled":false,"rental_uris":{"android":"levelo://app?vid=6e37492c-edc2-49aa-9858-d2a699845cd2","ios":"levelo://app?vid=6e37492c-edc2-49aa-9858-d2a699845cd2"},"vehicle_type_id":"4","last_reported":1774020770,"current_range_meters":4400,"station_id":"ce4bhnp2rcd13ifvqgvg","pricing_plan_id":"cebpf4jnsgd1na2vs0mg"},{"bike_id":"176d4c34-de68-4787-87ee-10437dc3027d","system_id":"levelo_inurba_marseille","lat":43.23962,"lon":5.36632,"is_reserved":false,"is_disabled":false,"rental_uris":{"android":"levelo://app?vid=176d4c34-de68-4787-87ee-10437dc3027d","ios":"levelo://app?vid=176d4c34-de68-4787-87ee-10437dc3027d"},"vehicle_type_id":"4","last_reported":1774020770,"current_range_meters":4400,"station_id":"ce4bhi12rcd13ifvqfp0","pricing_plan_id":"cebpf4jnsgd1na2vs0mg"},{"bike_id":"d6adb5ec-cf80-4f9f-a8db-25ff5380272f","system_id":"levelo_inurba_marseille","lat":43.2389,"lon":5.37451,"is_reserved":false,"is_disabled":false,"rental_uris":{"android":"levelo://app?vid=d6adb5ec-cf80-4f9f-a8db-25ff5380272f","ios":"levelo://app?vid=d6adb5ec-cf80-4f9f-a8db-25ff5380272f"},"vehicle_type_id":"4","last_reported":1774020770,"current_range_meters":4400,"station_id":"st_d6sm7csbq4hs73f8fpjg","pricing_plan_id":"cebpf4jnsgd1na2vs0mg"},{"bike_id":"21afb19c-42c0-43f3-8492-a7d7208bc4fa","system_id":"levelo_inurba_marseille","lat":43.28605,"lon":5.37061,"is_reserved":false,"is_disabled":false,"rental_uris":{"android":"levelo://app?vid=21afb19c-42c0-43f3-8492-a7d7208bc4fa","ios":"levelo://app?vid=21afb19c-42c0-43f3-8492-a7d7208bc4fa"},"vehicle_type_id":"4","last_reported":1774020770,"current_range_meters":4400,"station_id":"ce4bht12rcd13ifvqi60","pricing_plan_id":"cebpf4jnsgd1na2vs0mg"},{"bike_id":"d0ef437d-c009-4471-b296-9eb6d9a5f476","system_id":"levelo_inurba_marseille","lat":43.23892,"lon":5.37455,"is_reserved":false,"is_disabled":false,"rental_uris":{"android":"levelo://app?vid=d0ef437d-c009-4471-b296-9eb6d9a5f476","ios":"levelo://app?vid=d0ef437d-c009-4471-b296-9eb6d9a5f476"},"vehicle_type_id":"4","last_reported":1774020770,"current_range_meters":4400,"station_id":"st_d6sm7csbq4hs73f8fpjg","pricing_plan_id":"cebpf4jnsgd1na2vs0mg"},{"bike_id":"6443900c-da0c-4905-bee6-0bb1b84d34d9","system_id":"levelo_inurba_marseille","lat":43.24571,"lon":5.39527,"is_reserved":false,"is_disabled":false,"rental_uris":{"android":"levelo://app?vid=6443900c-da0c-4905-bee6-0bb1b84d34d9","ios":"levelo://app?vid=6443900c-da0c-4905-bee6-0bb1b84d34d9"},"vehicle_type_id":"4","last_reported":1774020770,"current_range_meters":4400,"station_id":"ce4bhlp2rcd13ifvqgjg","pricing_plan_id":"cebpf4jnsgd1na2vs0mg"},{"bike_id":"addd9e53-bfde-4c2f-8c89-4a891b6a7add","system_id":"levelo_inurba_marseille","lat":43.31342,"lon":5.3792,"is_reserved":false,"is_disabled":false,"rental_uris":{"android":"levelo://app?vid=addd9e53-bfde-4c2f-8c89-4a891b6a7add","ios":"levelo://app?vid=addd9e53-bfde-4c2f-8c89-4a891b6a7add"},"vehicle_type_id":"4","last_reported":1774020770,"current_range_meters":4800,"station_id":"","pricing_plan_id":"cebpf4jnsgd1na2vs0mg"},{"bike_id":"19538284-0f52-42ca-9d88-9f9592fbbd32","system_id":"levelo_inurba_marseille","lat":43.28935,"lon":5.36631,"is_reserved":false,"is_disabled":false,"rental_uris":{"android":"levelo://app?vid=19538284-0f52-42ca-9d88-9f9592fbbd32","ios":"levelo://app?vid=19538284-0f52-42ca-9d88-9f9592fbbd32"},"vehicle_type_id":"4","last_reported":1774020770,"current_range_meters":4800,"station_id":"ce4bhap2rcd13ifvqek0","pricing_plan_id":"cebpf4jnsgd1na2vs0mg"},{"bike_id":"762fbb7f-bdbf-419c-837c-cfb251d57ef6","system_id":"levelo_inurba_marseille","lat":43.29718,"lon":5.36601,"is_reserved":false,"is_disabled":false,"rental_uris":{"android":"levelo://app?vid=762fbb7f-bdbf-419c-837c-cfb251d57ef6","ios":"levelo://app?vid=762fbb7f-bdbf-419c-837c-cfb251d57ef6"},"vehicle_type_id":"4","last_reported":1774020770,"current_range_meters":4800,"station_id":"ce4bgn12rcd13ifvqbt0","pricing_plan_id":"cebpf4jnsgd1na2vs0mg"},{"bike_id":"c2f01f22-14c1-45c1-a8d8-f0d4bb6c09f2","system_id":"levelo_inurba_marseille","lat":43.28465,"lon":5.38443,"is_reserved":false,"is_disabled":true,"rental_uris":{"android":"levelo://app?vid=c2f01f22-14c1-45c1-a8d8-f0d4bb6c09f2","ios":"levelo://app?vid=c2f01f22-14c1-45c1-a8d8-f0d4bb6c09f2"},"vehicle_type_id":"4","last_reported":1774020770,"current_range_meters":4800,"station_id":"ce4bh512rcd13ifvqe3g","pricing_plan_id":"cebpf4jnsgd1na2vs0mg"},{"bike_id":"cccfdac7-7f97-4127-9b31-7c370a1abbad","system_id":"levelo_inurba_marseille","lat":43.28659,"lon":5.37131,"is_reserved":false,"is_disabled":false,"rental_uris":{"android":"levelo://app?vid=cccfdac7-7f97-4127-9b31-7c370a1abbad","ios":"levelo://app?vid=cccfdac7-7f97-4127-9b31-7c370a1abbad"},"vehicle_type_id":"4","last_reported":1774020770,"current_range_meters":4800,"station_id":"","pricing_plan_id":"cebpf4jnsgd1na2vs0mg"},{"bike_id":"3769d5a9-aefe-4a5a-957b-2a6d8350dc43","system_id":"levelo_inurba_marseille","lat":43.31685,"lon":5.40479,"is_reserved":false,"is_disabled":false,"rental_uris":{"android":"levelo://app?vid=3769d5a9-aefe-4a5a-957b-2a6d8350dc43","ios":"levelo://app?vid=3769d5a9-aefe-4a5a-957b-2a6d8350dc43"},"vehicle_type_id":"4","last_reported":1774020770,"current_range_meters":4800,"station_id":"ce4bh012rcd13ifvqd00","pricing_plan_id":"cebpf4jnsgd1na2vs0mg"},{"bike_id":"6e50a54a-c657-4ef5-9339-4c225154dc0d","system_id":"levelo_inurba_marseille","lat":43.27926,"lon":5.42233,"is_reserved":false,"is_disabled":false,"rental_uris":{"android":"levelo://app?vid=6e50a54a-c657-4ef5-9339-4c225154dc0d","ios":"levelo://app?vid=6e50a54a-c657-4ef5-9339-4c225154dc0d"},"vehicle_type_id":"4","last_reported":1774020770,"current_range_meters":4800,"station_id":"","pricing_plan_id":"cebpf4jnsgd1na2vs0mg"},{"bike_id":"b3c6ee7e-839e-47ca-8bd1-12618e78dd87","system_id":"levelo_inurba_marseille","lat":43.23961,"lon":5.36624,"is_reserved":false,"is_disabled":false,"rental_uris":{"android":"levelo://app?vid=b3c6ee7e-839e-47ca-8bd1-12618e78dd87","ios":"levelo://app?vid=b3c6ee7e-839e-47ca-8bd1-12618e78dd87"},"vehicle_type_id":"4","last_reported":1774020770,"current_range_meters":4800,"station_id":"ce4bhi12rcd13ifvqfp0","pricing_plan_id":"cebpf4jnsgd1na2vs0mg"},{"bike_id":"45135f43-dfab-4fb0-a783-5d04d252fa5a","system_id":"levelo_inurba_marseille","lat":43.26373,"lon":5.41077,"is_reserved":false,"is_disabled":false,"rental_uris":{"android":"levelo://app?vid=45135f43-dfab-4fb0-a783-5d04d252fa5a","ios":"levelo://app?vid=45135f43-dfab-4fb0-a783-5d04d252fa5a"},"vehicle_type_id":"4","last_reported":1774020770,"current_range_meters":5600,"station_id":"st_d4e5ca6na9uc73bfl5fg","pricing_plan_id":"cebpf4jnsgd1na2vs0mg"},{"bike_id":"d4776486-3084-421f-968a-3d6e49dfba03","system_id":"levelo_inurba_marseille","lat":43.28534,"lon":5.44097,"is_reserved":false,"is_disabled":false,"rental_uris":{"android":"levelo://app?vid=d4776486-3084-421f-968a-3d6e49dfba03","ios":"levelo://app?vid=d4776486-3084-421f-968a-3d6e49dfba03"},"vehicle_type_id":"4","last_reported":1774020770,"current_range_meters":5600,"station_id":"st_d3j3df2ikq2c7380ej80","pricing_plan_id":"cebpf4jnsgd1na2vs0mg"},{"bike_id":"19a5f419-3330-402e-8f5d-398075ced36e","system_id":"levelo_inurba_marseille","lat":43.29551,"lon":5.42269,"is_reserved":false,"is_disabled":false,"rental_uris":{"android":"levelo://app?vid=19a5f419-3330-402e-8f5d-398075ced36e","ios":"levelo://app?vid=19a5f419-3330-402e-8f5d-398075ced36e"},"vehicle_type_id":"4","last_reported":1774020770,"current_range_meters":5600,"station_id":"ce4bhph2rcd13ifvqhdg","pricing_plan_id":"cebpf4jnsgd1na2vs0mg"},{"bike_id":"059ba5d9-6729-4514-acc8-2a19cfb6e895","system_id":"levelo_inurba_marseille","lat":43.28277,"lon":5.35085,"is_reserved":false,"is_disabled":false,"rental_uris":{"android":"levelo://app?vid=059ba5d9-6729-4514-acc8-2a19cfb6e895","ios":"levelo://app?vid=059ba5d9-6729-4514-acc8-2a19cfb6e895"},"vehicle_type_id":"4","last_reported":1774020770,"current_range_meters":5600,"station_id":"ce4bhbp2rcd13ifvqerg","pricing_plan_id":"cebpf4jnsgd1na2vs0mg"},{"bike_id":"b343f5f8-c1bb-4ce3-a7a6-a6599510fd8f","system_id":"levelo_inurba_marseille","lat":43.28416,"lon":5.34985,"is_reserved":false,"is_disabled":false,"rental_uris":{"android":"levelo://app?vid=b343f5f8-c1bb-4ce3-a7a6-a6599510fd8f","ios":"levelo://app?vid=b343f5f8-c1bb-4ce3-a7a6-a6599510fd8f"},"vehicle_type_id":"4","last_reported":1774020770,"current_range_meters":5600,"station_id":"ce4bhbh2rcd13ifvqepg","pricing_plan_id":"cebpf4jnsgd1na2vs0mg"},{"bike_id":"bc44c375-7b0b-4a33-9e8e-ab8ace9275f4","system_id":"levelo_inurba_marseille","lat":43.24535,"lon":5.3951,"is_reserved":false,"is_disabled":false,"rental_uris":{"android":"levelo://app?vid=bc44c375-7b0b-4a33-9e8e-ab8ace9275f4","ios":"levelo://app?vid=bc44c375-7b0b-4a33-9e8e-ab8ace9275f4"},"vehicle_type_id":"4","last_reported":1774020770,"current_range_meters":5600,"station_id":"ce4bhlp2rcd13ifvqgjg","pricing_plan_id":"cebpf4jnsgd1na2vs0mg"},{"bike_id":"5ad7343d-621e-4b9b-bef0-cb271b55722b","system_id":"levelo_inurba_marseille","lat":43.29062,"lon":5.37143,"is_reserved":false,"is_disabled":false,"rental_uris":{"android":"levelo://app?vid=5ad7343d-621e-4b9b-bef0-cb271b55722b","ios":"levelo://app?vid=5ad7343d-621e-4b9b-bef0-cb271b55722b"},"vehicle_type_id":"4","last_reported":1774020770,"current_range_meters":5600,"station_id":"ce4bh5p2rcd13ifvqe4g","pricing_plan_id":"cebpf4jnsgd1na2vs0mg"},{"bike_id":"10ced8a1-0004-454c-a343-b116c3880ed6","system_id":"levelo_inurba_marseille","lat":43.32115,"lon":5.36757,"is_reserved":false,"is_disabled":false,"rental_uris":{"android":"levelo://app?vid=10ced8a1-0004-454c-a343-b116c3880ed6","ios":"levelo://app?vid=10ced8a1-0004-454c-a343-b116c3880ed6"},"vehicle_type_id":"4","last_reported":1774020770,"current_range_meters":5600,"station_id":"ce4bhrh2rcd13ifvqhug","pricing_plan_id":"cebpf4jnsgd1na2vs0mg"},{"bike_id":"02637c2c-f3f4-40ca-a9ef-153eb1dc511b","system_id":"levelo_inurba_marseille","lat":43.30135,"lon":5.39859,"is_reserved":false,"is_disabled":false,"rental_uris":{"android":"levelo://app?vid=02637c2c-f3f4-40ca-a9ef-153eb1dc511b","ios":"levelo://app?vid=02637c2c-f3f4-40ca-a9ef-153eb1dc511b"},"vehicle_type_id":"4","last_reported":1774020770,"current_range_meters":5600,"station_id":"ce4bh0h2rcd13ifvqd40","pricing_plan_id":"cebpf4jnsgd1na2vs0mg"},{"bike_id":"d297dcc3-ac44-4f0c-adfe-69e606ff427c","system_id":"levelo_inurba_marseille","lat":43.28921,"lon":5.38399,"is_reserved":false,"is_disabled":false,"rental_uris":{"android":"levelo://app?vid=d297dcc3-ac44-4f0c-adfe-69e606ff427c","ios":"levelo://app?vid=d297dcc3-ac44-4f0c-adfe-69e606ff427c"},"vehicle_type_id":"4","last_reported":1774020770,"current_range_meters":5600,"station_id":"ce4bh612rcd13ifvqe6g","pricing_plan_id":"cebpf4jnsgd1na2vs0mg"},{"bike_id":"5290db71-45f5-42e4-b592-312b6a66ffa2","system_id":"levelo_inurba_marseille","lat":43.26559,"lon":5.3729,"is_reserved":false,"is_disabled":false,"rental_uris":{"android":"levelo://app?vid=5290db71-45f5-42e4-b592-312b6a66ffa2","ios":"levelo://app?vid=5290db71-45f5-42e4-b592-312b6a66ffa2"},"vehicle_type_id":"4","last_reported":1774020770,"current_range_meters":5600,"station_id":"ce4bhg12rcd13ifvqf70","pricing_plan_id":"cebpf4jnsgd1na2vs0mg"},{"bike_id":"166e62b4-89c7-42df-8d26-562e5b8d1f69","system_id":"levelo_inurba_marseille","lat":43.27318,"lon":5.39122,"is_reserved":false,"is_disabled":true,"rental_uris":{"android":"levelo://app?vid=166e62b4-89c7-42df-8d26-562e5b8d1f69","ios":"levelo://app?vid=166e62b4-89c7-42df-8d26-562e5b8d1f69"},"vehicle_type_id":"4","last_reported":1774020770,"current_range_meters":5600,"station_id":"ce4bhgp2rcd13ifvqfe0","pricing_plan_id":"cebpf4jnsgd1na2vs0mg"},{"bike_id":"0c420116-1cbc-4d10-aaa9-fa660b7421c6","system_id":"levelo_inurba_marseille","lat":43.28405,"lon":5.37521,"is_reserved":false,"is_disabled":false,"rental_uris":{"android":"levelo://app?vid=0c420116-1cbc-4d10-aaa9-fa660b7421c6","ios":"levelo://app?vid=0c420116-1cbc-4d10-aaa9-fa660b7421c6"},"vehicle_type_id":"4","last_reported":1774020770,"current_range_meters":5600,"station_id":"ce4bh412rcd13ifvqds0","pricing_plan_id":"cebpf4jnsgd1na2vs0mg"},{"bike_id":"84c47e4c-30a4-4797-aec4-07be68ccafcf","system_id":"levelo_inurba_marseille","lat":43.31325,"lon":5.397,"is_reserved":false,"is_disabled":false,"rental_uris":{"android":"levelo://app?vid=84c47e4c-30a4-4797-aec4-07be68ccafcf","ios":"levelo://app?vid=84c47e4c-30a4-4797-aec4-07be68ccafcf"},"vehicle_type_id":"4","last_reported":1774020770,"current_range_meters":5600,"station_id":"ce4bgvp2rcd13ifvqcu0","pricing_plan_id":"cebpf4jnsgd1na2vs0mg"},{"bike_id":"8439d0fb-bacc-4dd2-aab9-bd162f1fc6b9","system_id":"levelo_inurba_marseille","lat":43.27053,"lon":5.40259,"is_reserved":false,"is_disabled":false,"rental_uris":{"android":"levelo://app?vid=8439d0fb-bacc-4dd2-aab9-bd162f1fc6b9","ios":"levelo://app?vid=8439d0fb-bacc-4dd2-aab9-bd162f1fc6b9"},"vehicle_type_id":"4","last_reported":1774020770,"current_range_meters":5600,"station_id":"ce4bhk92rcd13ifvqgc0","pricing_plan_id":"cebpf4jnsgd1na2vs0mg"},{"bike_id":"08d3b0d7-ab81-4398-bd6e-18088b0d6055","system_id":"levelo_inurba_marseille","lat":43.28412,"lon":5.37507,"is_reserved":false,"is_disabled":false,"rental_uris":{"android":"levelo://app?vid=08d3b0d7-ab81-4398-bd6e-18088b0d6055","ios":"levelo://app?vid=08d3b0d7-ab81-4398-bd6e-18088b0d6055"},"vehicle_type_id":"4","last_reported":1774020770,"current_range_meters":5600,"station_id":"ce4bh412rcd13ifvqds0","pricing_plan_id":"cebpf4jnsgd1na2vs0mg"},{"bike_id":"3bcd3f37-7909-4e8a-be03-a9562a2c0e45","system_id":"levelo_inurba_marseille","lat":43.28471,"lon":5.48421,"is_reserved":false,"is_disabled":false,"rental_uris":{"android":"levelo://app?vid=3bcd3f37-7909-4e8a-be03-a9562a2c0e45","ios":"levelo://app?vid=3bcd3f37-7909-4e8a-be03-a9562a2c0e45"},"vehicle_type_id":"4","last_reported":1774020770,"current_range_meters":6000,"station_id":"","pricing_plan_id":"cebpf4jnsgd1na2vs0mg"},{"bike_id":"856fe66d-4acf-4111-b537-8a0bb0fdb356","system_id":"levelo_inurba_marseille","lat":43.29909,"lon":5.38459,"is_reserved":false,"is_disabled":false,"rental_uris":{"android":"levelo://app?vid=856fe66d-4acf-4111-b537-8a0bb0fdb356","ios":"levelo://app?vid=856fe66d-4acf-4111-b537-8a0bb0fdb356"},"vehicle_type_id":"4","last_reported":1774020770,"current_range_meters":6000,"station_id":"","pricing_plan_id":"cebpf4jnsgd1na2vs0mg"},{"bike_id":"e4f2f0b0-a87c-4dc2-80b7-a9fb5703d035","system_id":"levelo_inurba_marseille","lat":43.33704,"lon":5.39224,"is_reserved":false,"is_disabled":false,"rental_uris":{"android":"levelo://app?vid=e4f2f0b0-a87c-4dc2-80b7-a9fb5703d035","ios":"levelo://app?vid=e4f2f0b0-a87c-4dc2-80b7-a9fb5703d035"},"vehicle_type_id":"4","last_reported":1774020770,"current_range_meters":6000,"station_id":"ce4bhr92rcd13ifvqhsg","pricing_plan_id":"cebpf4jnsgd1na2vs0mg"},{"bike_id":"bfe8eb29-ad5d-4879-9923-cd36181d1179","system_id":"levelo_inurba_marseille","lat":43.28723,"lon":5.37938,"is_reserved":false,"is_disabled":false,"rental_uris":{"android":"levelo://app?vid=bfe8eb29-ad5d-4879-9923-cd36181d1179","ios":"levelo://app?vid=bfe8eb29-ad5d-4879-9923-cd36181d1179"},"vehicle_type_id":"4","last_reported":1774020770,"current_range_meters":6000,"station_id":"ce4bh9p2rcd13ifvqec0","pricing_plan_id":"cebpf4jnsgd1na2vs0mg"},{"bike_id":"a58b14be-ade4-498e-ab67-6c2572ad511a","system_id":"levelo_inurba_marseille","lat":43.30896,"lon":5.36856,"is_reserved":false,"is_disabled":false,"rental_uris":{"android":"levelo://app?vid=a58b14be-ade4-498e-ab67-6c2572ad511a","ios":"levelo://app?vid=a58b14be-ade4-498e-ab67-6c2572ad511a"},"vehicle_type_id":"4","last_reported":1774020770,"current_range_meters":6000,"station_id":"ce4bgn92rcd13ifvqbvg","pricing_plan_id":"cebpf4jnsgd1na2vs0mg"},{"bike_id":"59cb0832-6d70-4b88-a129-e73a3330a52f","system_id":"levelo_inurba_marseille","lat":43.23058,"lon":5.3549,"is_reserved":false,"is_disabled":false,"rental_uris":{"android":"levelo://app?vid=59cb0832-6d70-4b88-a129-e73a3330a52f","ios":"levelo://app?vid=59cb0832-6d70-4b88-a129-e73a3330a52f"},"vehicle_type_id":"4","last_reported":1774020770,"current_range_meters":6000,"station_id":"cpo3342slgdg3j2ifvpg","pricing_plan_id":"cebpf4jnsgd1na2vs0mg"},{"bike_id":"bab3fc79-e0c2-432c-9cfa-8df953159e2f","system_id":"levelo_inurba_marseille","lat":43.25109,"lon":5.40349,"is_reserved":false,"is_disabled":false,"rental_uris":{"android":"levelo://app?vid=bab3fc79-e0c2-432c-9cfa-8df953159e2f","ios":"levelo://app?vid=bab3fc79-e0c2-432c-9cfa-8df953159e2f"},"vehicle_type_id":"4","last_reported":1774020770,"current_range_meters":6000,"station_id":"ce4bhlh2rcd13ifvqgig","pricing_plan_id":"cebpf4jnsgd1na2vs0mg"},{"bike_id":"e08d225b-8f4a-4ce0-895d-d9f7f842408c","system_id":"levelo_inurba_marseille","lat":43.24151,"lon":5.36421,"is_reserved":false,"is_disabled":false,"rental_uris":{"android":"levelo://app?vid=e08d225b-8f4a-4ce0-895d-d9f7f842408c","ios":"levelo://app?vid=e08d225b-8f4a-4ce0-895d-d9f7f842408c"},"vehicle_type_id":"4","last_reported":1774020770,"current_range_meters":6000,"station_id":"cpo36qri1sfpv3e86is0","pricing_plan_id":"cebpf4jnsgd1na2vs0mg"},{"bike_id":"938f5b2b-699a-47ff-8381-c70adbd93b65","system_id":"levelo_inurba_marseille","lat":43.29793,"lon":5.37117,"is_reserved":false,"is_disabled":true,"rental_uris":{"android":"levelo://app?vid=938f5b2b-699a-47ff-8381-c70adbd93b65","ios":"levelo://app?vid=938f5b2b-699a-47ff-8381-c70adbd93b65"},"vehicle_type_id":"4","last_reported":1774020770,"current_range_meters":6000,"station_id":"ce4bgop2rcd13ifvqc1g","pricing_plan_id":"cebpf4jnsgd1na2vs0mg"},{"bike_id":"28ab444e-2801-489b-9bbb-648382787752","system_id":"levelo_inurba_marseille","lat":43.30188,"lon":5.39832,"is_reserved":false,"is_disabled":false,"rental_uris":{"android":"levelo://app?vid=28ab444e-2801-489b-9bbb-648382787752","ios":"levelo://app?vid=28ab444e-2801-489b-9bbb-648382787752"},"vehicle_type_id":"4","last_reported":1774020770,"current_range_meters":6000,"station_id":"","pricing_plan_id":"cebpf4jnsgd1na2vs0mg"},{"bike_id":"e989294f-11b6-48cd-941a-d2abc1573c24","system_id":"levelo_inurba_marseille","lat":43.21186,"lon":5.35073,"is_reserved":false,"is_disabled":false,"rental_uris":{"android":"levelo://app?vid=e989294f-11b6-48cd-941a-d2abc1573c24","ios":"levelo://app?vid=e989294f-11b6-48cd-941a-d2abc1573c24"},"vehicle_type_id":"4","last_reported":1774020770,"current_range_meters":6000,"station_id":"st_cvj6sg6p6f1abm77japg","pricing_plan_id":"cebpf4jnsgd1na2vs0mg"},{"bike_id":"5d093622-4e87-4d50-9da4-eab65f5eb92c","system_id":"levelo_inurba_marseille","lat":43.26368,"lon":5.41095,"is_reserved":false,"is_disabled":false,"rental_uris":{"android":"levelo://app?vid=5d093622-4e87-4d50-9da4-eab65f5eb92c","ios":"levelo://app?vid=5d093622-4e87-4d50-9da4-eab65f5eb92c"},"vehicle_type_id":"4","last_reported":1774020770,"current_range_meters":6000,"station_id":"st_d4e5ca6na9uc73bfl5fg","pricing_plan_id":"cebpf4jnsgd1na2vs0mg"},{"bike_id":"ceafc427-9d5d-4563-b05e-03c34d6dbd6d","system_id":"levelo_inurba_marseille","lat":43.30544,"lon":5.36545,"is_reserved":false,"is_disabled":false,"rental_uris":{"android":"levelo://app?vid=ceafc427-9d5d-4563-b05e-03c34d6dbd6d","ios":"levelo://app?vid=ceafc427-9d5d-4563-b05e-03c34d6dbd6d"},"vehicle_type_id":"4","last_reported":1774020770,"current_range_meters":6000,"station_id":"ce4bgs12rcd13ifvqcag","pricing_plan_id":"cebpf4jnsgd1na2vs0mg"},{"bike_id":"f5eea55f-72d0-4f68-9b5a-0048db1e192e","system_id":"levelo_inurba_marseille","lat":43.29935,"lon":5.36526,"is_reserved":false,"is_disabled":false,"rental_uris":{"android":"levelo://app?vid=f5eea55f-72d0-4f68-9b5a-0048db1e192e","ios":"levelo://app?vid=f5eea55f-72d0-4f68-9b5a-0048db1e192e"},"vehicle_type_id":"4","last_reported":1774020770,"current_range_meters":6400,"station_id":"ce4bgm92rcd13ifvqbr0","pricing_plan_id":"cebpf4jnsgd1na2vs0mg"},{"bike_id":"ba5d832c-7e1a-4640-977c-cf0d5a0f74fb","system_id":"levelo_inurba_marseille","lat":43.2842,"lon":5.34985,"is_reserved":false,"is_disabled":false,"rental_uris":{"android":"levelo://app?vid=ba5d832c-7e1a-4640-977c-cf0d5a0f74fb","ios":"levelo://app?vid=ba5d832c-7e1a-4640-977c-cf0d5a0f74fb"},"vehicle_type_id":"4","last_reported":1774020770,"current_range_meters":6400,"station_id":"ce4bhbh2rcd13ifvqepg","pricing_plan_id":"cebpf4jnsgd1na2vs0mg"},{"bike_id":"69067704-4b9d-4067-8ddd-5b71f4ef1a8a","system_id":"levelo_inurba_marseille","lat":43.25903,"lon":5.40833,"is_reserved":false,"is_disabled":true,"rental_uris":{"android":"levelo://app?vid=69067704-4b9d-4067-8ddd-5b71f4ef1a8a","ios":"levelo://app?vid=69067704-4b9d-4067-8ddd-5b71f4ef1a8a"},"vehicle_type_id":"4","last_reported":1774020770,"current_range_meters":6400,"station_id":"","pricing_plan_id":"cebpf4jnsgd1na2vs0mg"},{"bike_id":"682f05a7-f9c8-41eb-be7e-fa9299b64211","system_id":"levelo_inurba_marseille","lat":43.28276,"lon":5.35067,"is_reserved":false,"is_disabled":false,"rental_uris":{"android":"levelo://app?vid=682f05a7-f9c8-41eb-be7e-fa9299b64211","ios":"levelo://app?vid=682f05a7-f9c8-41eb-be7e-fa9299b64211"},"vehicle_type_id":"4","last_reported":1774020770,"current_range_meters":6400,"station_id":"ce4bhbp2rcd13ifvqerg","pricing_plan_id":"cebpf4jnsgd1na2vs0mg"},{"bike_id":"97f89870-e3a2-4acc-b807-3b7fdbf7b741","system_id":"levelo_inurba_marseille","lat":43.26543,"lon":5.37284,"is_reserved":false,"is_disabled":false,"rental_uris":{"android":"levelo://app?vid=97f89870-e3a2-4acc-b807-3b7fdbf7b741","ios":"levelo://app?vid=97f89870-e3a2-4acc-b807-3b7fdbf7b741"},"vehicle_type_id":"4","last_reported":1774020770,"current_range_meters":6400,"station_id":"ce4bhg12rcd13ifvqf70","pricing_plan_id":"cebpf4jnsgd1na2vs0mg"},{"bike_id":"76eea626-71fc-4175-ac68-5b6357456e0a","system_id":"levelo_inurba_marseille","lat":43.29002,"lon":5.35607,"is_reserved":false,"is_disabled":false,"rental_uris":{"android":"levelo://app?vid=76eea626-71fc-4175-ac68-5b6357456e0a","ios":"levelo://app?vid=76eea626-71fc-4175-ac68-5b6357456e0a"},"vehicle_type_id":"4","last_reported":1774020770,"current_range_meters":6400,"station_id":"ce4bhb92rcd13ifvqen0","pricing_plan_id":"cebpf4jnsgd1na2vs0mg"},{"bike_id":"393b7bcb-a9bf-43bb-9225-9c75cd9bc57a","system_id":"levelo_inurba_marseille","lat":43.28215,"lon":5.40564,"is_reserved":false,"is_disabled":false,"rental_uris":{"android":"levelo://app?vid=393b7bcb-a9bf-43bb-9225-9c75cd9bc57a","ios":"levelo://app?vid=393b7bcb-a9bf-43bb-9225-9c75cd9bc57a"},"vehicle_type_id":"4","last_reported":1774020770,"current_range_meters":6400,"station_id":"","pricing_plan_id":"cebpf4jnsgd1na2vs0mg"},{"bike_id":"66b8f748-e7c4-4432-9fcf-311125247b9f","system_id":"levelo_inurba_marseille","lat":43.21747,"lon":5.34606,"is_reserved":false,"is_disabled":false,"rental_uris":{"android":"levelo://app?vid=66b8f748-e7c4-4432-9fcf-311125247b9f","ios":"levelo://app?vid=66b8f748-e7c4-4432-9fcf-311125247b9f"},"vehicle_type_id":"4","last_reported":1774020770,"current_range_meters":6400,"station_id":"st_cvj6r9ubvosntc0bgbag","pricing_plan_id":"cebpf4jnsgd1na2vs0mg"},{"bike_id":"561d955a-738b-4d3b-8aac-f35756134fd7","system_id":"levelo_inurba_marseille","lat":43.27371,"lon":5.36252,"is_reserved":false,"is_disabled":false,"rental_uris":{"android":"levelo://app?vid=561d955a-738b-4d3b-8aac-f35756134fd7","ios":"levelo://app?vid=561d955a-738b-4d3b-8aac-f35756134fd7"},"vehicle_type_id":"4","last_reported":1774020770,"current_range_meters":6400,"station_id":"ce4bhbh2rcd13ifvqeo0","pricing_plan_id":"cebpf4jnsgd1na2vs0mg"},{"bike_id":"d0f6a848-9e28-43f2-97f4-0562c2bdb543","system_id":"levelo_inurba_marseille","lat":43.29057,"lon":5.37155,"is_reserved":false,"is_disabled":false,"rental_uris":{"android":"levelo://app?vid=d0f6a848-9e28-43f2-97f4-0562c2bdb543","ios":"levelo://app?vid=d0f6a848-9e28-43f2-97f4-0562c2bdb543"},"vehicle_type_id":"4","last_reported":1774020770,"current_range_meters":6400,"station_id":"ce4bh5p2rcd13ifvqe4g","pricing_plan_id":"cebpf4jnsgd1na2vs0mg"},{"bike_id":"e3e911cb-3034-41a0-a5b1-9940ccbc9532","system_id":"levelo_inurba_marseille","lat":43.3088,"lon":5.39655,"is_reserved":false,"is_disabled":false,"rental_uris":{"android":"levelo://app?vid=e3e911cb-3034-41a0-a5b1-9940ccbc9532","ios":"levelo://app?vid=e3e911cb-3034-41a0-a5b1-9940ccbc9532"},"vehicle_type_id":"4","last_reported":1774020770,"current_range_meters":6400,"station_id":"ce4bh012rcd13ifvqcv0","pricing_plan_id":"cebpf4jnsgd1na2vs0mg"},{"bike_id":"55095d1f-fa43-4a70-a64e-f3ed1061babc","system_id":"levelo_inurba_marseille","lat":43.29179,"lon":5.39076,"is_reserved":false,"is_disabled":false,"rental_uris":{"android":"levelo://app?vid=55095d1f-fa43-4a70-a64e-f3ed1061babc","ios":"levelo://app?vid=55095d1f-fa43-4a70-a64e-f3ed1061babc"},"vehicle_type_id":"4","last_reported":1774020770,"current_range_meters":6400,"station_id":"","pricing_plan_id":"cebpf4jnsgd1na2vs0mg"},{"bike_id":"4ebc5a1c-fa8c-44d8-a7fc-38229c55eb9d","system_id":"levelo_inurba_marseille","lat":43.24645,"lon":5.38891,"is_reserved":false,"is_disabled":false,"rental_uris":{"android":"levelo://app?vid=4ebc5a1c-fa8c-44d8-a7fc-38229c55eb9d","ios":"levelo://app?vid=4ebc5a1c-fa8c-44d8-a7fc-38229c55eb9d"},"vehicle_type_id":"4","last_reported":1774020770,"current_range_meters":6400,"station_id":"ce4bhg12rcd13ifvqf60","pricing_plan_id":"cebpf4jnsgd1na2vs0mg"},{"bike_id":"ab09d209-60f6-4303-8d09-86dc43261279","system_id":"levelo_inurba_marseille","lat":43.21181,"lon":5.35067,"is_reserved":false,"is_disabled":false,"rental_uris":{"android":"levelo://app?vid=ab09d209-60f6-4303-8d09-86dc43261279","ios":"levelo://app?vid=ab09d209-60f6-4303-8d09-86dc43261279"},"vehicle_type_id":"4","last_reported":1774020770,"current_range_meters":6400,"station_id":"st_cvj6sg6p6f1abm77japg","pricing_plan_id":"cebpf4jnsgd1na2vs0mg"},{"bike_id":"24dc1ce5-2db6-421b-869a-69d6f082b300","system_id":"levelo_inurba_marseille","lat":43.29839,"lon":5.3627,"is_reserved":false,"is_disabled":false,"rental_uris":{"android":"levelo://app?vid=24dc1ce5-2db6-421b-869a-69d6f082b300","ios":"levelo://app?vid=24dc1ce5-2db6-421b-869a-69d6f082b300"},"vehicle_type_id":"4","last_reported":1774020770,"current_range_meters":6800,"station_id":"ce4bgpp2rcd13ifvqc3g","pricing_plan_id":"cebpf4jnsgd1na2vs0mg"},{"bike_id":"12118d88-8157-4d76-ad00-12ce3bc20921","system_id":"levelo_inurba_marseille","lat":43.30854,"lon":5.3713,"is_reserved":false,"is_disabled":false,"rental_uris":{"android":"levelo://app?vid=12118d88-8157-4d76-ad00-12ce3bc20921","ios":"levelo://app?vid=12118d88-8157-4d76-ad00-12ce3bc20921"},"vehicle_type_id":"4","last_reported":1774020770,"current_range_meters":6800,"station_id":"","pricing_plan_id":"cebpf4jnsgd1na2vs0mg"},{"bike_id":"b4703fed-d69d-47d9-aa62-9dec1200e554","system_id":"levelo_inurba_marseille","lat":43.28408,"lon":5.34984,"is_reserved":false,"is_disabled":false,"rental_uris":{"android":"levelo://app?vid=b4703fed-d69d-47d9-aa62-9dec1200e554","ios":"levelo://app?vid=b4703fed-d69d-47d9-aa62-9dec1200e554"},"vehicle_type_id":"4","last_reported":1774020770,"current_range_meters":6800,"station_id":"ce4bhbh2rcd13ifvqepg","pricing_plan_id":"cebpf4jnsgd1na2vs0mg"},{"bike_id":"ac4ca0f2-f5c2-4c9c-81db-9f7b20e89d0c","system_id":"levelo_inurba_marseille","lat":43.28538,"lon":5.44103,"is_reserved":false,"is_disabled":true,"rental_uris":{"android":"levelo://app?vid=ac4ca0f2-f5c2-4c9c-81db-9f7b20e89d0c","ios":"levelo://app?vid=ac4ca0f2-f5c2-4c9c-81db-9f7b20e89d0c"},"vehicle_type_id":"4","last_reported":1774020770,"current_range_meters":6800,"station_id":"st_d3j3df2ikq2c7380ej80","pricing_plan_id":"cebpf4jnsgd1na2vs0mg"},{"bike_id":"b5076d1f-3eaa-4ea2-84a9-828ed3f4695b","system_id":"levelo_inurba_marseille","lat":43.25573,"lon":5.3823,"is_reserved":false,"is_disabled":false,"rental_uris":{"android":"levelo://app?vid=b5076d1f-3eaa-4ea2-84a9-828ed3f4695b","ios":"levelo://app?vid=b5076d1f-3eaa-4ea2-84a9-828ed3f4695b"},"vehicle_type_id":"4","last_reported":1774020770,"current_range_meters":6800,"station_id":"ce4bhih2rcd13ifvqfs0","pricing_plan_id":"cebpf4jnsgd1na2vs0mg"},{"bike_id":"c6b20400-3641-48f3-b609-b110a5527d07","system_id":"levelo_inurba_marseille","lat":43.22565,"lon":5.41628,"is_reserved":false,"is_disabled":false,"rental_uris":{"android":"levelo://app?vid=c6b20400-3641-48f3-b609-b110a5527d07","ios":"levelo://app?vid=c6b20400-3641-48f3-b609-b110a5527d07"},"vehicle_type_id":"4","last_reported":1774020770,"current_range_meters":6800,"station_id":"st_d2o4gvlbi1j2169b742g","pricing_plan_id":"cebpf4jnsgd1na2vs0mg"},{"bike_id":"0264288d-82fa-4432-8751-6c08c0e54bb7","system_id":"levelo_inurba_marseille","lat":43.30282,"lon":5.42489,"is_reserved":false,"is_disabled":false,"rental_uris":{"android":"levelo://app?vid=0264288d-82fa-4432-8751-6c08c0e54bb7","ios":"levelo://app?vid=0264288d-82fa-4432-8751-6c08c0e54bb7"},"vehicle_type_id":"4","last_reported":1774020770,"current_range_meters":6800,"station_id":"","pricing_plan_id":"cebpf4jnsgd1na2vs0mg"},{"bike_id":"be9b4f06-9d1a-41ee-b10b-9de4e628d9db","system_id":"levelo_inurba_marseille","lat":43.25587,"lon":5.38243,"is_reserved":false,"is_disabled":false,"rental_uris":{"android":"levelo://app?vid=be9b4f06-9d1a-41ee-b10b-9de4e628d9db","ios":"levelo://app?vid=be9b4f06-9d1a-41ee-b10b-9de4e628d9db"},"vehicle_type_id":"4","last_reported":1774020770,"current_range_meters":6800,"station_id":"ce4bhih2rcd13ifvqfs0","pricing_plan_id":"cebpf4jnsgd1na2vs0mg"},{"bike_id":"7cc5dd3b-6353-467a-8a3e-fcee0d22f523","system_id":"levelo_inurba_marseille","lat":43.2827,"lon":5.35064,"is_reserved":false,"is_disabled":false,"rental_uris":{"android":"levelo://app?vid=7cc5dd3b-6353-467a-8a3e-fcee0d22f523","ios":"levelo://app?vid=7cc5dd3b-6353-467a-8a3e-fcee0d22f523"},"vehicle_type_id":"4","last_reported":1774020770,"current_range_meters":6800,"station_id":"ce4bhbp2rcd13ifvqerg","pricing_plan_id":"cebpf4jnsgd1na2vs0mg"},{"bike_id":"dd74091b-705a-4531-bc39-afff2195d9a1","system_id":"levelo_inurba_marseille","lat":43.24796,"lon":5.37458,"is_reserved":false,"is_disabled":false,"rental_uris":{"android":"levelo://app?vid=dd74091b-705a-4531-bc39-afff2195d9a1","ios":"levelo://app?vid=dd74091b-705a-4531-bc39-afff2195d9a1"},"vehicle_type_id":"4","last_reported":1774020770,"current_range_meters":6800,"station_id":"ce4bhgh2rcd13ifvqfb0","pricing_plan_id":"cebpf4jnsgd1na2vs0mg"},{"bike_id":"33515e87-d7a2-4c40-a100-7a7786db2385","system_id":"levelo_inurba_marseille","lat":43.2319,"lon":5.35552,"is_reserved":false,"is_disabled":false,"rental_uris":{"android":"levelo://app?vid=33515e87-d7a2-4c40-a100-7a7786db2385","ios":"levelo://app?vid=33515e87-d7a2-4c40-a100-7a7786db2385"},"vehicle_type_id":"4","last_reported":1774020770,"current_range_meters":6800,"station_id":"ce4bhu92rcd13ifvqi70","pricing_plan_id":"cebpf4jnsgd1na2vs0mg"},{"bike_id":"26e25a9f-38dd-4f27-9ac4-ecf9d3d19f85","system_id":"levelo_inurba_marseille","lat":43.2481,"lon":5.37461,"is_reserved":false,"is_disabled":false,"rental_uris":{"android":"levelo://app?vid=26e25a9f-38dd-4f27-9ac4-ecf9d3d19f85","ios":"levelo://app?vid=26e25a9f-38dd-4f27-9ac4-ecf9d3d19f85"},"vehicle_type_id":"4","last_reported":1774020770,"current_range_meters":6800,"station_id":"ce4bhgh2rcd13ifvqfb0","pricing_plan_id":"cebpf4jnsgd1na2vs0mg"},{"bike_id":"7e8d95cf-3163-4ed5-8f3f-e335b460ed44","system_id":"levelo_inurba_marseille","lat":43.28017,"lon":5.36941,"is_reserved":false,"is_disabled":false,"rental_uris":{"android":"levelo://app?vid=7e8d95cf-3163-4ed5-8f3f-e335b460ed44","ios":"levelo://app?vid=7e8d95cf-3163-4ed5-8f3f-e335b460ed44"},"vehicle_type_id":"4","last_reported":1774020770,"current_range_meters":6800,"station_id":"ce4bha12rcd13ifvqef0","pricing_plan_id":"cebpf4jnsgd1na2vs0mg"},{"bike_id":"ac9755d7-07e9-4be9-8294-46361d9fde71","system_id":"levelo_inurba_marseille","lat":43.29001,"lon":5.35607,"is_reserved":false,"is_disabled":false,"rental_uris":{"android":"levelo://app?vid=ac9755d7-07e9-4be9-8294-46361d9fde71","ios":"levelo://app?vid=ac9755d7-07e9-4be9-8294-46361d9fde71"},"vehicle_type_id":"4","last_reported":1774020770,"current_range_meters":6800,"station_id":"ce4bhb92rcd13ifvqen0","pricing_plan_id":"cebpf4jnsgd1na2vs0mg"},{"bike_id":"29ceb06a-4df8-4e2a-9dd9-b070e185b37f","system_id":"levelo_inurba_marseille","lat":43.28471,"lon":5.48397,"is_reserved":false,"is_disabled":false,"rental_uris":{"android":"levelo://app?vid=29ceb06a-4df8-4e2a-9dd9-b070e185b37f","ios":"levelo://app?vid=29ceb06a-4df8-4e2a-9dd9-b070e185b37f"},"vehicle_type_id":"4","last_reported":1774020770,"current_range_meters":6800,"station_id":"st_d3svhcjqgbts73a3dn0g","pricing_plan_id":"cebpf4jnsgd1na2vs0mg"},{"bike_id":"c142af26-b83c-4aa3-ab8b-699576493d34","system_id":"levelo_inurba_marseille","lat":43.21201,"lon":5.35067,"is_reserved":false,"is_disabled":true,"rental_uris":{"android":"levelo://app?vid=c142af26-b83c-4aa3-ab8b-699576493d34","ios":"levelo://app?vid=c142af26-b83c-4aa3-ab8b-699576493d34"},"vehicle_type_id":"4","last_reported":1774020770,"current_range_meters":6800,"station_id":"st_cvj6sg6p6f1abm77japg","pricing_plan_id":"cebpf4jnsgd1na2vs0mg"},{"bike_id":"29705345-7a8e-4bdd-8b65-5ba8856c877f","system_id":"levelo_inurba_marseille","lat":43.30302,"lon":5.44966,"is_reserved":false,"is_disabled":false,"rental_uris":{"android":"levelo://app?vid=29705345-7a8e-4bdd-8b65-5ba8856c877f","ios":"levelo://app?vid=29705345-7a8e-4bdd-8b65-5ba8856c877f"},"vehicle_type_id":"4","last_reported":1774020770,"current_range_meters":6800,"station_id":"","pricing_plan_id":"cebpf4jnsgd1na2vs0mg"},{"bike_id":"c48440d7-f4d5-4be3-a842-7dc1a317748e","system_id":"levelo_inurba_marseille","lat":43.3392,"lon":5.35712,"is_reserved":false,"is_disabled":false,"rental_uris":{"android":"levelo://app?vid=c48440d7-f4d5-4be3-a842-7dc1a317748e","ios":"levelo://app?vid=c48440d7-f4d5-4be3-a842-7dc1a317748e"},"vehicle_type_id":"4","last_reported":1774020770,"current_range_meters":6800,"station_id":"","pricing_plan_id":"cebpf4jnsgd1na2vs0mg"},{"bike_id":"6d4f6e31-4bbc-4d10-9599-3492bff1fdaa","system_id":"levelo_inurba_marseille","lat":43.25115,"lon":5.40321,"is_reserved":false,"is_disabled":false,"rental_uris":{"android":"levelo://app?vid=6d4f6e31-4bbc-4d10-9599-3492bff1fdaa","ios":"levelo://app?vid=6d4f6e31-4bbc-4d10-9599-3492bff1fdaa"},"vehicle_type_id":"4","last_reported":1774020770,"current_range_meters":6800,"station_id":"ce4bhlh2rcd13ifvqgig","pricing_plan_id":"cebpf4jnsgd1na2vs0mg"},{"bike_id":"0c9023de-8137-451b-9298-40f5a0b20516","system_id":"levelo_inurba_marseille","lat":43.29949,"lon":5.36514,"is_reserved":false,"is_disabled":false,"rental_uris":{"android":"levelo://app?vid=0c9023de-8137-451b-9298-40f5a0b20516","ios":"levelo://app?vid=0c9023de-8137-451b-9298-40f5a0b20516"},"vehicle_type_id":"4","last_reported":1774020770,"current_range_meters":6800,"station_id":"ce4bgm92rcd13ifvqbr0","pricing_plan_id":"cebpf4jnsgd1na2vs0mg"},{"bike_id":"a775511c-9985-4a58-8c4c-775aad7f3e36","system_id":"levelo_inurba_marseille","lat":43.29908,"lon":5.43674,"is_reserved":false,"is_disabled":false,"rental_uris":{"android":"levelo://app?vid=a775511c-9985-4a58-8c4c-775aad7f3e36","ios":"levelo://app?vid=a775511c-9985-4a58-8c4c-775aad7f3e36"},"vehicle_type_id":"4","last_reported":1774020770,"current_range_meters":7200,"station_id":"ce4bhpp2rcd13ifvqhfg","pricing_plan_id":"cebpf4jnsgd1na2vs0mg"},{"bike_id":"f16bb6b0-ecee-4425-932a-91338a768035","system_id":"levelo_inurba_marseille","lat":43.29039,"lon":5.37563,"is_reserved":false,"is_disabled":false,"rental_uris":{"android":"levelo://app?vid=f16bb6b0-ecee-4425-932a-91338a768035","ios":"levelo://app?vid=f16bb6b0-ecee-4425-932a-91338a768035"},"vehicle_type_id":"4","last_reported":1774020770,"current_range_meters":7200,"station_id":"ce4bh692rcd13ifvqe90","pricing_plan_id":"cebpf4jnsgd1na2vs0mg"},{"bike_id":"5c37a49c-ab60-4c11-8a61-6592ff444186","system_id":"levelo_inurba_marseille","lat":43.27908,"lon":5.39175,"is_reserved":false,"is_disabled":false,"rental_uris":{"android":"levelo://app?vid=5c37a49c-ab60-4c11-8a61-6592ff444186","ios":"levelo://app?vid=5c37a49c-ab60-4c11-8a61-6592ff444186"},"vehicle_type_id":"4","last_reported":1774020770,"current_range_meters":7200,"station_id":"","pricing_plan_id":"cebpf4jnsgd1na2vs0mg"},{"bike_id":"efaeaac2-37d1-487c-ade3-c1d910c99c2d","system_id":"levelo_inurba_marseille","lat":43.29773,"lon":5.37134,"is_reserved":false,"is_disabled":false,"rental_uris":{"android":"levelo://app?vid=efaeaac2-37d1-487c-ade3-c1d910c99c2d","ios":"levelo://app?vid=efaeaac2-37d1-487c-ade3-c1d910c99c2d"},"vehicle_type_id":"4","last_reported":1774020770,"current_range_meters":7200,"station_id":"ce4bgop2rcd13ifvqc1g","pricing_plan_id":"cebpf4jnsgd1na2vs0mg"},{"bike_id":"a5e4712f-feb9-4041-b460-b0360aeb1645","system_id":"levelo_inurba_marseille","lat":43.29003,"lon":5.35617,"is_reserved":false,"is_disabled":false,"rental_uris":{"android":"levelo://app?vid=a5e4712f-feb9-4041-b460-b0360aeb1645","ios":"levelo://app?vid=a5e4712f-feb9-4041-b460-b0360aeb1645"},"vehicle_type_id":"4","last_reported":1774020770,"current_range_meters":7200,"station_id":"ce4bhb92rcd13ifvqen0","pricing_plan_id":"cebpf4jnsgd1na2vs0mg"},{"bike_id":"a12227ab-e38e-43a7-95f3-bc74a7436c8e","system_id":"levelo_inurba_marseille","lat":43.28997,"lon":5.35616,"is_reserved":false,"is_disabled":false,"rental_uris":{"android":"levelo://app?vid=a12227ab-e38e-43a7-95f3-bc74a7436c8e","ios":"levelo://app?vid=a12227ab-e38e-43a7-95f3-bc74a7436c8e"},"vehicle_type_id":"4","last_reported":1774020770,"current_range_meters":7200,"station_id":"ce4bhb92rcd13ifvqen0","pricing_plan_id":"cebpf4jnsgd1na2vs0mg"},{"bike_id":"13da9044-f8a4-4b16-ba66-c9f17884a376","system_id":"levelo_inurba_marseille","lat":43.2953,"lon":5.3854,"is_reserved":false,"is_disabled":false,"rental_uris":{"android":"levelo://app?vid=13da9044-f8a4-4b16-ba66-c9f17884a376","ios":"levelo://app?vid=13da9044-f8a4-4b16-ba66-c9f17884a376"},"vehicle_type_id":"4","last_reported":1774020770,"current_range_meters":7200,"station_id":"ce4bgih2rcd13ifvqba0","pricing_plan_id":"cebpf4jnsgd1na2vs0mg"},{"bike_id":"39eab5fd-2ecc-45b4-9a7e-632f77c83ae6","system_id":"levelo_inurba_marseille","lat":43.28266,"lon":5.35069,"is_reserved":false,"is_disabled":false,"rental_uris":{"android":"levelo://app?vid=39eab5fd-2ecc-45b4-9a7e-632f77c83ae6","ios":"levelo://app?vid=39eab5fd-2ecc-45b4-9a7e-632f77c83ae6"},"vehicle_type_id":"4","last_reported":1774020770,"current_range_meters":7200,"station_id":"ce4bhbp2rcd13ifvqerg","pricing_plan_id":"cebpf4jnsgd1na2vs0mg"},{"bike_id":"e5eba928-e3a4-441b-9540-937747ee47b9","system_id":"levelo_inurba_marseille","lat":43.22554,"lon":5.41609,"is_reserved":false,"is_disabled":false,"rental_uris":{"android":"levelo://app?vid=e5eba928-e3a4-441b-9540-937747ee47b9","ios":"levelo://app?vid=e5eba928-e3a4-441b-9540-937747ee47b9"},"vehicle_type_id":"4","last_reported":1774020770,"current_range_meters":7200,"station_id":"st_d2o4gvlbi1j2169b742g","pricing_plan_id":"cebpf4jnsgd1na2vs0mg"},{"bike_id":"7e4085b8-d56a-401a-9056-0d97a16df958","system_id":"levelo_inurba_marseille","lat":43.28417,"lon":5.34983,"is_reserved":false,"is_disabled":false,"rental_uris":{"android":"levelo://app?vid=7e4085b8-d56a-401a-9056-0d97a16df958","ios":"levelo://app?vid=7e4085b8-d56a-401a-9056-0d97a16df958"},"vehicle_type_id":"4","last_reported":1774020770,"current_range_meters":7200,"station_id":"ce4bhbh2rcd13ifvqepg","pricing_plan_id":"cebpf4jnsgd1na2vs0mg"},{"bike_id":"12a4cebb-d545-4f3a-9718-f09ba3664a8c","system_id":"levelo_inurba_marseille","lat":43.29896,"lon":5.38893,"is_reserved":false,"is_disabled":false,"rental_uris":{"android":"levelo://app?vid=12a4cebb-d545-4f3a-9718-f09ba3664a8c","ios":"levelo://app?vid=12a4cebb-d545-4f3a-9718-f09ba3664a8c"},"vehicle_type_id":"4","last_reported":1774020770,"current_range_meters":7200,"station_id":"ce4bh392rcd13ifvqdl0","pricing_plan_id":"cebpf4jnsgd1na2vs0mg"},{"bike_id":"7a197e67-33e3-4106-93c0-54aa9be54f18","system_id":"levelo_inurba_marseille","lat":43.26049,"lon":5.39397,"is_reserved":false,"is_disabled":false,"rental_uris":{"android":"levelo://app?vid=7a197e67-33e3-4106-93c0-54aa9be54f18","ios":"levelo://app?vid=7a197e67-33e3-4106-93c0-54aa9be54f18"},"vehicle_type_id":"4","last_reported":1774020770,"current_range_meters":7200,"station_id":"ce4bhh92rcd13ifvqfj0","pricing_plan_id":"cebpf4jnsgd1na2vs0mg"},{"bike_id":"a545c754-e350-45a1-864b-ec76871d3bf7","system_id":"levelo_inurba_marseille","lat":43.2174,"lon":5.34595,"is_reserved":false,"is_disabled":false,"rental_uris":{"android":"levelo://app?vid=a545c754-e350-45a1-864b-ec76871d3bf7","ios":"levelo://app?vid=a545c754-e350-45a1-864b-ec76871d3bf7"},"vehicle_type_id":"4","last_reported":1774020770,"current_range_meters":7200,"station_id":"","pricing_plan_id":"cebpf4jnsgd1na2vs0mg"},{"bike_id":"f328e3b6-a38c-49fe-80e0-c552630893a5","system_id":"levelo_inurba_marseille","lat":43.22914,"lon":5.35367,"is_reserved":false,"is_disabled":false,"rental_uris":{"android":"levelo://app?vid=f328e3b6-a38c-49fe-80e0-c552630893a5","ios":"levelo://app?vid=f328e3b6-a38c-49fe-80e0-c552630893a5"},"vehicle_type_id":"4","last_reported":1774020770,"current_range_meters":8000,"station_id":"cpo3532slgdg3j2ikp40","pricing_plan_id":"cebpf4jnsgd1na2vs0mg"},{"bike_id":"53f48266-4564-420b-96ab-d243233055dc","system_id":"levelo_inurba_marseille","lat":43.28496,"lon":5.48391,"is_reserved":false,"is_disabled":false,"rental_uris":{"android":"levelo://app?vid=53f48266-4564-420b-96ab-d243233055dc","ios":"levelo://app?vid=53f48266-4564-420b-96ab-d243233055dc"},"vehicle_type_id":"4","last_reported":1774020770,"current_range_meters":8000,"station_id":"","pricing_plan_id":"cebpf4jnsgd1na2vs0mg"},{"bike_id":"54c8b55d-2b52-4e40-8ffe-f1d582a4ad8a","system_id":"levelo_inurba_marseille","lat":43.27176,"lon":5.40987,"is_reserved":false,"is_disabled":false,"rental_uris":{"android":"levelo://app?vid=54c8b55d-2b52-4e40-8ffe-f1d582a4ad8a","ios":"levelo://app?vid=54c8b55d-2b52-4e40-8ffe-f1d582a4ad8a"},"vehicle_type_id":"4","last_reported":1774020770,"current_range_meters":8000,"station_id":"ce4bhl12rcd13ifvqgf0","pricing_plan_id":"cebpf4jnsgd1na2vs0mg"},{"bike_id":"56640da4-a6be-4a43-9973-085a6297ede0","system_id":"levelo_inurba_marseille","lat":43.27371,"lon":5.36256,"is_reserved":false,"is_disabled":false,"rental_uris":{"android":"levelo://app?vid=56640da4-a6be-4a43-9973-085a6297ede0","ios":"levelo://app?vid=56640da4-a6be-4a43-9973-085a6297ede0"},"vehicle_type_id":"4","last_reported":1774020770,"current_range_meters":8000,"station_id":"ce4bhbh2rcd13ifvqeo0","pricing_plan_id":"cebpf4jnsgd1na2vs0mg"},{"bike_id":"2fba5f12-7cca-4e38-9d4a-934f71613f5e","system_id":"levelo_inurba_marseille","lat":43.29846,"lon":5.36271,"is_reserved":false,"is_disabled":false,"rental_uris":{"android":"levelo://app?vid=2fba5f12-7cca-4e38-9d4a-934f71613f5e","ios":"levelo://app?vid=2fba5f12-7cca-4e38-9d4a-934f71613f5e"},"vehicle_type_id":"4","last_reported":1774020770,"current_range_meters":8000,"station_id":"ce4bgpp2rcd13ifvqc3g","pricing_plan_id":"cebpf4jnsgd1na2vs0mg"},{"bike_id":"89ad46cf-ad84-4e5e-be57-87ac2cebe69c","system_id":"levelo_inurba_marseille","lat":43.28471,"lon":5.48378,"is_reserved":false,"is_disabled":false,"rental_uris":{"android":"levelo://app?vid=89ad46cf-ad84-4e5e-be57-87ac2cebe69c","ios":"levelo://app?vid=89ad46cf-ad84-4e5e-be57-87ac2cebe69c"},"vehicle_type_id":"4","last_reported":1774020770,"current_range_meters":8000,"station_id":"st_d3svhcjqgbts73a3dn0g","pricing_plan_id":"cebpf4jnsgd1na2vs0mg"},{"bike_id":"8237a802-04a8-4913-b8df-3502e6204ae9","system_id":"levelo_inurba_marseille","lat":43.29799,"lon":5.38075,"is_reserved":false,"is_disabled":false,"rental_uris":{"android":"levelo://app?vid=8237a802-04a8-4913-b8df-3502e6204ae9","ios":"levelo://app?vid=8237a802-04a8-4913-b8df-3502e6204ae9"},"vehicle_type_id":"4","last_reported":1774020770,"current_range_meters":8000,"station_id":"ce4bgip2rcd13ifvqbb0","pricing_plan_id":"cebpf4jnsgd1na2vs0mg"},{"bike_id":"1fd1f44e-fd07-4a01-89eb-ee506ec61536","system_id":"levelo_inurba_marseille","lat":43.28706,"lon":5.37397,"is_reserved":false,"is_disabled":false,"rental_uris":{"android":"levelo://app?vid=1fd1f44e-fd07-4a01-89eb-ee506ec61536","ios":"levelo://app?vid=1fd1f44e-fd07-4a01-89eb-ee506ec61536"},"vehicle_type_id":"4","last_reported":1774020770,"current_range_meters":8000,"station_id":"ce4bh3p2rcd13ifvqdq0","pricing_plan_id":"cebpf4jnsgd1na2vs0mg"},{"bike_id":"648c6e05-e176-4a00-98ad-7a146575aa56","system_id":"levelo_inurba_marseille","lat":43.2656,"lon":5.37295,"is_reserved":false,"is_disabled":false,"rental_uris":{"android":"levelo://app?vid=648c6e05-e176-4a00-98ad-7a146575aa56","ios":"levelo://app?vid=648c6e05-e176-4a00-98ad-7a146575aa56"},"vehicle_type_id":"4","last_reported":1774020770,"current_range_meters":8000,"station_id":"ce4bhg12rcd13ifvqf70","pricing_plan_id":"cebpf4jnsgd1na2vs0mg"},{"bike_id":"9ec1942c-b173-4801-9f27-3e6493805e2b","system_id":"levelo_inurba_marseille","lat":43.24616,"lon":5.38905,"is_reserved":false,"is_disabled":false,"rental_uris":{"android":"levelo://app?vid=9ec1942c-b173-4801-9f27-3e6493805e2b","ios":"levelo://app?vid=9ec1942c-b173-4801-9f27-3e6493805e2b"},"vehicle_type_id":"4","last_reported":1774020770,"current_range_meters":8400,"station_id":"ce4bhg12rcd13ifvqf60","pricing_plan_id":"cebpf4jnsgd1na2vs0mg"},{"bike_id":"4a0e609e-6c21-48e8-8aeb-8e3d0c22ce4c","system_id":"levelo_inurba_marseille","lat":43.26559,"lon":5.3731,"is_reserved":false,"is_disabled":false,"rental_uris":{"android":"levelo://app?vid=4a0e609e-6c21-48e8-8aeb-8e3d0c22ce4c","ios":"levelo://app?vid=4a0e609e-6c21-48e8-8aeb-8e3d0c22ce4c"},"vehicle_type_id":"4","last_reported":1774020770,"current_range_meters":8400,"station_id":"ce4bhg12rcd13ifvqf70","pricing_plan_id":"cebpf4jnsgd1na2vs0mg"},{"bike_id":"bc8ba704-851b-4c32-ab79-17d537792d6b","system_id":"levelo_inurba_marseille","lat":43.29964,"lon":5.38494,"is_reserved":false,"is_disabled":false,"rental_uris":{"android":"levelo://app?vid=bc8ba704-851b-4c32-ab79-17d537792d6b","ios":"levelo://app?vid=bc8ba704-851b-4c32-ab79-17d537792d6b"},"vehicle_type_id":"4","last_reported":1774020770,"current_range_meters":8400,"station_id":"ce4bgj92rcd13ifvqbd0","pricing_plan_id":"cebpf4jnsgd1na2vs0mg"},{"bike_id":"0d02aa34-bb4c-4444-b87a-e10b800b22dc","system_id":"levelo_inurba_marseille","lat":43.28278,"lon":5.3507,"is_reserved":false,"is_disabled":false,"rental_uris":{"android":"levelo://app?vid=0d02aa34-bb4c-4444-b87a-e10b800b22dc","ios":"levelo://app?vid=0d02aa34-bb4c-4444-b87a-e10b800b22dc"},"vehicle_type_id":"4","last_reported":1774020770,"current_range_meters":8400,"station_id":"ce4bhbp2rcd13ifvqerg","pricing_plan_id":"cebpf4jnsgd1na2vs0mg"},{"bike_id":"047ba141-be1a-459b-b4e4-3f69e624e803","system_id":"levelo_inurba_marseille","lat":43.27376,"lon":5.36262,"is_reserved":false,"is_disabled":false,"rental_uris":{"android":"levelo://app?vid=047ba141-be1a-459b-b4e4-3f69e624e803","ios":"levelo://app?vid=047ba141-be1a-459b-b4e4-3f69e624e803"},"vehicle_type_id":"4","last_reported":1774020770,"current_range_meters":8400,"station_id":"ce4bhbh2rcd13ifvqeo0","pricing_plan_id":"cebpf4jnsgd1na2vs0mg"},{"bike_id":"fcf07af9-6922-462c-9ec8-4dbc02eaf158","system_id":"levelo_inurba_marseille","lat":43.25331,"lon":5.42172,"is_reserved":false,"is_disabled":false,"rental_uris":{"android":"levelo://app?vid=fcf07af9-6922-462c-9ec8-4dbc02eaf158","ios":"levelo://app?vid=fcf07af9-6922-462c-9ec8-4dbc02eaf158"},"vehicle_type_id":"4","last_reported":1774020770,"current_range_meters":8400,"station_id":"st_d2m65c5bi1j21697t3ng","pricing_plan_id":"cebpf4jnsgd1na2vs0mg"},{"bike_id":"8648ff3d-a49d-4491-be6c-bab3f9812603","system_id":"levelo_inurba_marseille","lat":43.28272,"lon":5.43834,"is_reserved":false,"is_disabled":false,"rental_uris":{"android":"levelo://app?vid=8648ff3d-a49d-4491-be6c-bab3f9812603","ios":"levelo://app?vid=8648ff3d-a49d-4491-be6c-bab3f9812603"},"vehicle_type_id":"4","last_reported":1774020770,"current_range_meters":8400,"station_id":"","pricing_plan_id":"cebpf4jnsgd1na2vs0mg"},{"bike_id":"32114caa-ea8a-4fd4-b51a-deb7db1d0588","system_id":"levelo_inurba_marseille","lat":43.26554,"lon":5.37286,"is_reserved":false,"is_disabled":false,"rental_uris":{"android":"levelo://app?vid=32114caa-ea8a-4fd4-b51a-deb7db1d0588","ios":"levelo://app?vid=32114caa-ea8a-4fd4-b51a-deb7db1d0588"},"vehicle_type_id":"4","last_reported":1774020770,"current_range_meters":8400,"station_id":"ce4bhg12rcd13ifvqf70","pricing_plan_id":"cebpf4jnsgd1na2vs0mg"},{"bike_id":"1b225086-509c-4fa1-86e3-82a69b408351","system_id":"levelo_inurba_marseille","lat":43.25582,"lon":5.38229,"is_reserved":false,"is_disabled":false,"rental_uris":{"android":"levelo://app?vid=1b225086-509c-4fa1-86e3-82a69b408351","ios":"levelo://app?vid=1b225086-509c-4fa1-86e3-82a69b408351"},"vehicle_type_id":"4","last_reported":1774020770,"current_range_meters":8400,"station_id":"ce4bhih2rcd13ifvqfs0","pricing_plan_id":"cebpf4jnsgd1na2vs0mg"},{"bike_id":"58c3db1c-acf3-4800-883e-12e2db50ff8e","system_id":"levelo_inurba_marseille","lat":43.26233,"lon":5.40454,"is_reserved":false,"is_disabled":false,"rental_uris":{"android":"levelo://app?vid=58c3db1c-acf3-4800-883e-12e2db50ff8e","ios":"levelo://app?vid=58c3db1c-acf3-4800-883e-12e2db50ff8e"},"vehicle_type_id":"4","last_reported":1774020770,"current_range_meters":8400,"station_id":"ce4bhmh2rcd13ifvqgmg","pricing_plan_id":"cebpf4jnsgd1na2vs0mg"},{"bike_id":"2d9e4754-9b17-40b5-bbeb-5b1c9c5bbe64","system_id":"levelo_inurba_marseille","lat":43.30152,"lon":5.38804,"is_reserved":false,"is_disabled":true,"rental_uris":{"android":"levelo://app?vid=2d9e4754-9b17-40b5-bbeb-5b1c9c5bbe64","ios":"levelo://app?vid=2d9e4754-9b17-40b5-bbeb-5b1c9c5bbe64"},"vehicle_type_id":"4","last_reported":1774020770,"current_range_meters":8400,"station_id":"ce4bghh2rcd13ifvqb60","pricing_plan_id":"cebpf4jnsgd1na2vs0mg"},{"bike_id":"56657b3b-0ad4-4d76-92d0-1c208aca9081","system_id":"levelo_inurba_marseille","lat":43.28611,"lon":5.3511,"is_reserved":false,"is_disabled":false,"rental_uris":{"android":"levelo://app?vid=56657b3b-0ad4-4d76-92d0-1c208aca9081","ios":"levelo://app?vid=56657b3b-0ad4-4d76-92d0-1c208aca9081"},"vehicle_type_id":"4","last_reported":1774020770,"current_range_meters":8400,"station_id":"ce4bhch2rcd13ifvqeug","pricing_plan_id":"cebpf4jnsgd1na2vs0mg"},{"bike_id":"b94d9dea-56e0-41e7-94f3-b890fc5f6a72","system_id":"levelo_inurba_marseille","lat":43.28211,"lon":5.39061,"is_reserved":false,"is_disabled":false,"rental_uris":{"android":"levelo://app?vid=b94d9dea-56e0-41e7-94f3-b890fc5f6a72","ios":"levelo://app?vid=b94d9dea-56e0-41e7-94f3-b890fc5f6a72"},"vehicle_type_id":"4","last_reported":1774020770,"current_range_meters":8400,"station_id":"ce4bhn92rcd13ifvqgsg","pricing_plan_id":"cebpf4jnsgd1na2vs0mg"},{"bike_id":"7fa64d84-cd92-4f02-a79d-c348b129b15f","system_id":"levelo_inurba_marseille","lat":43.24145,"lon":5.36427,"is_reserved":false,"is_disabled":false,"rental_uris":{"android":"levelo://app?vid=7fa64d84-cd92-4f02-a79d-c348b129b15f","ios":"levelo://app?vid=7fa64d84-cd92-4f02-a79d-c348b129b15f"},"vehicle_type_id":"4","last_reported":1774020770,"current_range_meters":8400,"station_id":"cpo36qri1sfpv3e86is0","pricing_plan_id":"cebpf4jnsgd1na2vs0mg"},{"bike_id":"cf644b4a-b00b-4198-9a69-695c69bc416b","system_id":"levelo_inurba_marseille","lat":43.23051,"lon":5.35491,"is_reserved":false,"is_disabled":false,"rental_uris":{"android":"levelo://app?vid=cf644b4a-b00b-4198-9a69-695c69bc416b","ios":"levelo://app?vid=cf644b4a-b00b-4198-9a69-695c69bc416b"},"vehicle_type_id":"4","last_reported":1774020770,"current_range_meters":8400,"station_id":"cpo3342slgdg3j2ifvpg","pricing_plan_id":"cebpf4jnsgd1na2vs0mg"},{"bike_id":"954db78d-e834-4561-b99a-2a6735a56016","system_id":"levelo_inurba_marseille","lat":43.27626,"lon":5.36117,"is_reserved":false,"is_disabled":false,"rental_uris":{"android":"levelo://app?vid=954db78d-e834-4561-b99a-2a6735a56016","ios":"levelo://app?vid=954db78d-e834-4561-b99a-2a6735a56016"},"vehicle_type_id":"4","last_reported":1774020770,"current_range_meters":8400,"station_id":"ce4bgj92rcd13ifvqbe0","pricing_plan_id":"cebpf4jnsgd1na2vs0mg"},{"bike_id":"da91cb9e-b838-4c99-a0ec-9b5ab7cb037d","system_id":"levelo_inurba_marseille","lat":43.29,"lon":5.35613,"is_reserved":false,"is_disabled":false,"rental_uris":{"android":"levelo://app?vid=da91cb9e-b838-4c99-a0ec-9b5ab7cb037d","ios":"levelo://app?vid=da91cb9e-b838-4c99-a0ec-9b5ab7cb037d"},"vehicle_type_id":"4","last_reported":1774020770,"current_range_meters":8400,"station_id":"ce4bhb92rcd13ifvqen0","pricing_plan_id":"cebpf4jnsgd1na2vs0mg"},{"bike_id":"908e5820-2dcb-46fe-a4a9-451393752c50","system_id":"levelo_inurba_marseille","lat":43.26219,"lon":5.37446,"is_reserved":false,"is_disabled":false,"rental_uris":{"android":"levelo://app?vid=908e5820-2dcb-46fe-a4a9-451393752c50","ios":"levelo://app?vid=908e5820-2dcb-46fe-a4a9-451393752c50"},"vehicle_type_id":"4","last_reported":1774020770,"current_range_meters":8400,"station_id":"ce4bhgp2rcd13ifvqfc0","pricing_plan_id":"cebpf4jnsgd1na2vs0mg"},{"bike_id":"0c744d67-74b3-4bed-8fa1-274d8c3afbea","system_id":"levelo_inurba_marseille","lat":43.2378,"lon":5.36637,"is_reserved":false,"is_disabled":false,"rental_uris":{"android":"levelo://app?vid=0c744d67-74b3-4bed-8fa1-274d8c3afbea","ios":"levelo://app?vid=0c744d67-74b3-4bed-8fa1-274d8c3afbea"},"vehicle_type_id":"4","last_reported":1774020770,"current_range_meters":8400,"station_id":"st_d3nk18o9ro0c73en2l3g","pricing_plan_id":"cebpf4jnsgd1na2vs0mg"},{"bike_id":"16cb908c-a612-40ca-a199-554ed3743551","system_id":"levelo_inurba_marseille","lat":43.27581,"lon":5.38414,"is_reserved":false,"is_disabled":false,"rental_uris":{"android":"levelo://app?vid=16cb908c-a612-40ca-a199-554ed3743551","ios":"levelo://app?vid=16cb908c-a612-40ca-a199-554ed3743551"},"vehicle_type_id":"4","last_reported":1774020770,"current_range_meters":8400,"station_id":"ce4bhh92rcd13ifvqfi0","pricing_plan_id":"cebpf4jnsgd1na2vs0mg"},{"bike_id":"18978cc4-37ee-4756-96dd-cbb7c9a8d744","system_id":"levelo_inurba_marseille","lat":43.29628,"lon":5.3717,"is_reserved":false,"is_disabled":false,"rental_uris":{"android":"levelo://app?vid=18978cc4-37ee-4756-96dd-cbb7c9a8d744","ios":"levelo://app?vid=18978cc4-37ee-4756-96dd-cbb7c9a8d744"},"vehicle_type_id":"4","last_reported":1774020770,"current_range_meters":8400,"station_id":"ce4bgnh2rcd13ifvqc0g","pricing_plan_id":"cebpf4jnsgd1na2vs0mg"},{"bike_id":"3b61f733-6063-4d34-b132-d6c19b453198","system_id":"levelo_inurba_marseille","lat":43.30544,"lon":5.38417,"is_reserved":false,"is_disabled":false,"rental_uris":{"android":"levelo://app?vid=3b61f733-6063-4d34-b132-d6c19b453198","ios":"levelo://app?vid=3b61f733-6063-4d34-b132-d6c19b453198"},"vehicle_type_id":"4","last_reported":1774020770,"current_range_meters":8400,"station_id":"ce4bgg92rcd13ifvqb30","pricing_plan_id":"cebpf4jnsgd1na2vs0mg"},{"bike_id":"912e5f30-2e0b-48a9-85db-a984611241c9","system_id":"levelo_inurba_marseille","lat":43.29817,"lon":5.44075,"is_reserved":false,"is_disabled":false,"rental_uris":{"android":"levelo://app?vid=912e5f30-2e0b-48a9-85db-a984611241c9","ios":"levelo://app?vid=912e5f30-2e0b-48a9-85db-a984611241c9"},"vehicle_type_id":"4","last_reported":1774020770,"current_range_meters":8800,"station_id":"st_d3jp68qikq2c7381ktn0","pricing_plan_id":"cebpf4jnsgd1na2vs0mg"},{"bike_id":"e2420c11-4646-4145-aa2e-baedb91a43dc","system_id":"levelo_inurba_marseille","lat":43.32353,"lon":5.36744,"is_reserved":false,"is_disabled":false,"rental_uris":{"android":"levelo://app?vid=e2420c11-4646-4145-aa2e-baedb91a43dc","ios":"levelo://app?vid=e2420c11-4646-4145-aa2e-baedb91a43dc"},"vehicle_type_id":"4","last_reported":1774020770,"current_range_meters":8800,"station_id":"ce4bhsh2rcd13ifvqi2g","pricing_plan_id":"cebpf4jnsgd1na2vs0mg"},{"bike_id":"419df5df-fc3a-4954-ac9d-7fe79db73a75","system_id":"levelo_inurba_marseille","lat":43.24056,"lon":5.37763,"is_reserved":false,"is_disabled":false,"rental_uris":{"android":"levelo://app?vid=419df5df-fc3a-4954-ac9d-7fe79db73a75","ios":"levelo://app?vid=419df5df-fc3a-4954-ac9d-7fe79db73a75"},"vehicle_type_id":"4","last_reported":1774020770,"current_range_meters":8800,"station_id":"ce4bhnp2rcd13ifvqgvg","pricing_plan_id":"cebpf4jnsgd1na2vs0mg"},{"bike_id":"d00ce6b1-d263-4644-9ac8-801c3d34ac19","system_id":"levelo_inurba_marseille","lat":43.22562,"lon":5.41627,"is_reserved":false,"is_disabled":false,"rental_uris":{"android":"levelo://app?vid=d00ce6b1-d263-4644-9ac8-801c3d34ac19","ios":"levelo://app?vid=d00ce6b1-d263-4644-9ac8-801c3d34ac19"},"vehicle_type_id":"4","last_reported":1774020770,"current_range_meters":8800,"station_id":"st_d2o4gvlbi1j2169b742g","pricing_plan_id":"cebpf4jnsgd1na2vs0mg"},{"bike_id":"09865ff7-03f1-4df6-a160-a368819999f1","system_id":"levelo_inurba_marseille","lat":43.29306,"lon":5.37458,"is_reserved":false,"is_disabled":false,"rental_uris":{"android":"levelo://app?vid=09865ff7-03f1-4df6-a160-a368819999f1","ios":"levelo://app?vid=09865ff7-03f1-4df6-a160-a368819999f1"},"vehicle_type_id":"4","last_reported":1774020770,"current_range_meters":8800,"station_id":"ce4bgi12rcd13ifvqb70","pricing_plan_id":"cebpf4jnsgd1na2vs0mg"},{"bike_id":"bfa999de-7a32-454a-b31e-f99ace51a3fc","system_id":"levelo_inurba_marseille","lat":43.28481,"lon":5.48411,"is_reserved":false,"is_disabled":false,"rental_uris":{"android":"levelo://app?vid=bfa999de-7a32-454a-b31e-f99ace51a3fc","ios":"levelo://app?vid=bfa999de-7a32-454a-b31e-f99ace51a3fc"},"vehicle_type_id":"4","last_reported":1774020770,"current_range_meters":8800,"station_id":"","pricing_plan_id":"cebpf4jnsgd1na2vs0mg"},{"bike_id":"b3b3bb0b-fb2d-4490-a557-6f80b344e03f","system_id":"levelo_inurba_marseille","lat":43.28942,"lon":5.39635,"is_reserved":false,"is_disabled":true,"rental_uris":{"android":"levelo://app?vid=b3b3bb0b-fb2d-4490-a557-6f80b344e03f","ios":"levelo://app?vid=b3b3bb0b-fb2d-4490-a557-6f80b344e03f"},"vehicle_type_id":"4","last_reported":1774020770,"current_range_meters":8800,"station_id":"ce4bh3h2rcd13ifvqdn0","pricing_plan_id":"cebpf4jnsgd1na2vs0mg"},{"bike_id":"a8c8307b-e1e9-4950-a785-578e1a82f805","system_id":"levelo_inurba_marseille","lat":43.31285,"lon":5.37801,"is_reserved":false,"is_disabled":false,"rental_uris":{"android":"levelo://app?vid=a8c8307b-e1e9-4950-a785-578e1a82f805","ios":"levelo://app?vid=a8c8307b-e1e9-4950-a785-578e1a82f805"},"vehicle_type_id":"4","last_reported":1774020770,"current_range_meters":8800,"station_id":"","pricing_plan_id":"cebpf4jnsgd1na2vs0mg"},{"bike_id":"8e931a80-78ce-4e14-9e1c-d5938b31cf49","system_id":"levelo_inurba_marseille","lat":43.2841,"lon":5.34995,"is_reserved":false,"is_disabled":false,"rental_uris":{"android":"levelo://app?vid=8e931a80-78ce-4e14-9e1c-d5938b31cf49","ios":"levelo://app?vid=8e931a80-78ce-4e14-9e1c-d5938b31cf49"},"vehicle_type_id":"4","last_reported":1774020770,"current_range_meters":8800,"station_id":"ce4bhbh2rcd13ifvqepg","pricing_plan_id":"cebpf4jnsgd1na2vs0mg"},{"bike_id":"962e3e51-db50-4f61-a079-9b1c6a103eb5","system_id":"levelo_inurba_marseille","lat":43.30963,"lon":5.36814,"is_reserved":false,"is_disabled":false,"rental_uris":{"android":"levelo://app?vid=962e3e51-db50-4f61-a079-9b1c6a103eb5","ios":"levelo://app?vid=962e3e51-db50-4f61-a079-9b1c6a103eb5"},"vehicle_type_id":"4","last_reported":1774020770,"current_range_meters":8800,"station_id":"","pricing_plan_id":"cebpf4jnsgd1na2vs0mg"},{"bike_id":"7f166c91-9eb1-4dc8-a940-85d8139ad9d9","system_id":"levelo_inurba_marseille","lat":43.23966,"lon":5.3663,"is_reserved":false,"is_disabled":false,"rental_uris":{"android":"levelo://app?vid=7f166c91-9eb1-4dc8-a940-85d8139ad9d9","ios":"levelo://app?vid=7f166c91-9eb1-4dc8-a940-85d8139ad9d9"},"vehicle_type_id":"4","last_reported":1774020770,"current_range_meters":8800,"station_id":"ce4bhi12rcd13ifvqfp0","pricing_plan_id":"cebpf4jnsgd1na2vs0mg"},{"bike_id":"f80242bd-cda9-4de1-a643-4d63093f953c","system_id":"levelo_inurba_marseille","lat":43.29756,"lon":5.42772,"is_reserved":false,"is_disabled":false,"rental_uris":{"android":"levelo://app?vid=f80242bd-cda9-4de1-a643-4d63093f953c","ios":"levelo://app?vid=f80242bd-cda9-4de1-a643-4d63093f953c"},"vehicle_type_id":"4","last_reported":1774020770,"current_range_meters":8800,"station_id":"st_d3md5207bmas73dh9klg","pricing_plan_id":"cebpf4jnsgd1na2vs0mg"},{"bike_id":"ffee91b4-e1f4-4cfe-bfbf-9ca7434cffe2","system_id":"levelo_inurba_marseille","lat":43.27423,"lon":5.39403,"is_reserved":false,"is_disabled":true,"rental_uris":{"android":"levelo://app?vid=ffee91b4-e1f4-4cfe-bfbf-9ca7434cffe2","ios":"levelo://app?vid=ffee91b4-e1f4-4cfe-bfbf-9ca7434cffe2"},"vehicle_type_id":"4","last_reported":1774020770,"current_range_meters":8800,"station_id":"ce4bhdp2rcd13ifvqf20","pricing_plan_id":"cebpf4jnsgd1na2vs0mg"},{"bike_id":"1376a9e6-82f2-4044-9646-2a6072ea4527","system_id":"levelo_inurba_marseille","lat":43.23772,"lon":5.3663,"is_reserved":false,"is_disabled":false,"rental_uris":{"android":"levelo://app?vid=1376a9e6-82f2-4044-9646-2a6072ea4527","ios":"levelo://app?vid=1376a9e6-82f2-4044-9646-2a6072ea4527"},"vehicle_type_id":"4","last_reported":1774020770,"current_range_meters":8800,"station_id":"st_d3nk18o9ro0c73en2l3g","pricing_plan_id":"cebpf4jnsgd1na2vs0mg"},{"bike_id":"0d700ad2-8689-42d2-8ad7-006eda0d1511","system_id":"levelo_inurba_marseille","lat":43.28913,"lon":5.38395,"is_reserved":false,"is_disabled":false,"rental_uris":{"android":"levelo://app?vid=0d700ad2-8689-42d2-8ad7-006eda0d1511","ios":"levelo://app?vid=0d700ad2-8689-42d2-8ad7-006eda0d1511"},"vehicle_type_id":"4","last_reported":1774020770,"current_range_meters":8800,"station_id":"ce4bh612rcd13ifvqe6g","pricing_plan_id":"cebpf4jnsgd1na2vs0mg"},{"bike_id":"c7ca3395-61a6-424a-8b4e-14bb7ddfa33a","system_id":"levelo_inurba_marseille","lat":43.30119,"lon":5.38784,"is_reserved":false,"is_disabled":true,"rental_uris":{"android":"levelo://app?vid=c7ca3395-61a6-424a-8b4e-14bb7ddfa33a","ios":"levelo://app?vid=c7ca3395-61a6-424a-8b4e-14bb7ddfa33a"},"vehicle_type_id":"4","last_reported":1774020770,"current_range_meters":8800,"station_id":"ce4bghh2rcd13ifvqb60","pricing_plan_id":"cebpf4jnsgd1na2vs0mg"},{"bike_id":"210cc07e-72bb-46a6-a946-050071ee72c2","system_id":"levelo_inurba_marseille","lat":43.27212,"lon":5.39182,"is_reserved":false,"is_disabled":false,"rental_uris":{"android":"levelo://app?vid=210cc07e-72bb-46a6-a946-050071ee72c2","ios":"levelo://app?vid=210cc07e-72bb-46a6-a946-050071ee72c2"},"vehicle_type_id":"4","last_reported":1774020770,"current_range_meters":9200,"station_id":"ce4bhhp2rcd13ifvqfm0","pricing_plan_id":"cebpf4jnsgd1na2vs0mg"},{"bike_id":"7f69ea73-8aff-462b-a819-a0809de4b8a2","system_id":"levelo_inurba_marseille","lat":43.30554,"lon":5.36555,"is_reserved":false,"is_disabled":false,"rental_uris":{"android":"levelo://app?vid=7f69ea73-8aff-462b-a819-a0809de4b8a2","ios":"levelo://app?vid=7f69ea73-8aff-462b-a819-a0809de4b8a2"},"vehicle_type_id":"4","last_reported":1774020770,"current_range_meters":9200,"station_id":"ce4bgs12rcd13ifvqcag","pricing_plan_id":"cebpf4jnsgd1na2vs0mg"},{"bike_id":"8b1ca434-1bac-40e0-a905-303e63e0c8f3","system_id":"levelo_inurba_marseille","lat":43.23198,"lon":5.3998,"is_reserved":false,"is_disabled":false,"rental_uris":{"android":"levelo://app?vid=8b1ca434-1bac-40e0-a905-303e63e0c8f3","ios":"levelo://app?vid=8b1ca434-1bac-40e0-a905-303e63e0c8f3"},"vehicle_type_id":"4","last_reported":1774020770,"current_range_meters":9200,"station_id":"ce4bhn12rcd13ifvqgqg","pricing_plan_id":"cebpf4jnsgd1na2vs0mg"},{"bike_id":"92f32112-8a58-4a2d-8380-c50aa46da344","system_id":"levelo_inurba_marseille","lat":43.24047,"lon":5.36366,"is_reserved":false,"is_disabled":false,"rental_uris":{"android":"levelo://app?vid=92f32112-8a58-4a2d-8380-c50aa46da344","ios":"levelo://app?vid=92f32112-8a58-4a2d-8380-c50aa46da344"},"vehicle_type_id":"4","last_reported":1774020770,"current_range_meters":9200,"station_id":"","pricing_plan_id":"cebpf4jnsgd1na2vs0mg"},{"bike_id":"f3414e99-2d7c-4b03-96db-df8c1c6d3f2b","system_id":"levelo_inurba_marseille","lat":43.28471,"lon":5.48413,"is_reserved":false,"is_disabled":false,"rental_uris":{"android":"levelo://app?vid=f3414e99-2d7c-4b03-96db-df8c1c6d3f2b","ios":"levelo://app?vid=f3414e99-2d7c-4b03-96db-df8c1c6d3f2b"},"vehicle_type_id":"4","last_reported":1774020770,"current_range_meters":9200,"station_id":"","pricing_plan_id":"cebpf4jnsgd1na2vs0mg"},{"bike_id":"ab77a418-345e-453b-bca3-3815a5ee3842","system_id":"levelo_inurba_marseille","lat":43.232,"lon":5.35548,"is_reserved":false,"is_disabled":false,"rental_uris":{"android":"levelo://app?vid=ab77a418-345e-453b-bca3-3815a5ee3842","ios":"levelo://app?vid=ab77a418-345e-453b-bca3-3815a5ee3842"},"vehicle_type_id":"4","last_reported":1774020770,"current_range_meters":9200,"station_id":"ce4bhu92rcd13ifvqi70","pricing_plan_id":"cebpf4jnsgd1na2vs0mg"},{"bike_id":"b89e648d-ab33-4eae-9146-be8617479ac1","system_id":"levelo_inurba_marseille","lat":43.23051,"lon":5.35486,"is_reserved":false,"is_disabled":false,"rental_uris":{"android":"levelo://app?vid=b89e648d-ab33-4eae-9146-be8617479ac1","ios":"levelo://app?vid=b89e648d-ab33-4eae-9146-be8617479ac1"},"vehicle_type_id":"4","last_reported":1774020770,"current_range_meters":9200,"station_id":"cpo3342slgdg3j2ifvpg","pricing_plan_id":"cebpf4jnsgd1na2vs0mg"},{"bike_id":"b2f0793b-6713-4b91-84b6-7727c3341354","system_id":"levelo_inurba_marseille","lat":43.22928,"lon":5.35378,"is_reserved":false,"is_disabled":false,"rental_uris":{"android":"levelo://app?vid=b2f0793b-6713-4b91-84b6-7727c3341354","ios":"levelo://app?vid=b2f0793b-6713-4b91-84b6-7727c3341354"},"vehicle_type_id":"4","last_reported":1774020770,"current_range_meters":9200,"station_id":"cpo3532slgdg3j2ikp40","pricing_plan_id":"cebpf4jnsgd1na2vs0mg"},{"bike_id":"2bd866a4-756a-4153-9fac-e38bc2a48ece","system_id":"levelo_inurba_marseille","lat":43.29963,"lon":5.38501,"is_reserved":false,"is_disabled":false,"rental_uris":{"android":"levelo://app?vid=2bd866a4-756a-4153-9fac-e38bc2a48ece","ios":"levelo://app?vid=2bd866a4-756a-4153-9fac-e38bc2a48ece"},"vehicle_type_id":"4","last_reported":1774020770,"current_range_meters":9200,"station_id":"ce4bgj92rcd13ifvqbd0","pricing_plan_id":"cebpf4jnsgd1na2vs0mg"},{"bike_id":"49434c03-74ef-4aba-96b3-caa64ce4e212","system_id":"levelo_inurba_marseille","lat":43.27622,"lon":5.3611,"is_reserved":false,"is_disabled":false,"rental_uris":{"android":"levelo://app?vid=49434c03-74ef-4aba-96b3-caa64ce4e212","ios":"levelo://app?vid=49434c03-74ef-4aba-96b3-caa64ce4e212"},"vehicle_type_id":"4","last_reported":1774020770,"current_range_meters":9200,"station_id":"ce4bgj92rcd13ifvqbe0","pricing_plan_id":"cebpf4jnsgd1na2vs0mg"},{"bike_id":"a9c55401-ec21-4bac-9d6a-208c987c2cc4","system_id":"levelo_inurba_marseille","lat":43.25712,"lon":5.4187,"is_reserved":false,"is_disabled":false,"rental_uris":{"android":"levelo://app?vid=a9c55401-ec21-4bac-9d6a-208c987c2cc4","ios":"levelo://app?vid=a9c55401-ec21-4bac-9d6a-208c987c2cc4"},"vehicle_type_id":"4","last_reported":1774020770,"current_range_meters":9200,"station_id":"","pricing_plan_id":"cebpf4jnsgd1na2vs0mg"},{"bike_id":"fa225d4c-b481-4eae-a4d6-4234063591e0","system_id":"levelo_inurba_marseille","lat":43.21163,"lon":5.351,"is_reserved":false,"is_disabled":false,"rental_uris":{"android":"levelo://app?vid=fa225d4c-b481-4eae-a4d6-4234063591e0","ios":"levelo://app?vid=fa225d4c-b481-4eae-a4d6-4234063591e0"},"vehicle_type_id":"4","last_reported":1774020770,"current_range_meters":9200,"station_id":"st_cvj6sg6p6f1abm77japg","pricing_plan_id":"cebpf4jnsgd1na2vs0mg"},{"bike_id":"aef78bd0-ea9a-490e-b29e-79fe1986976a","system_id":"levelo_inurba_marseille","lat":43.24665,"lon":5.38906,"is_reserved":false,"is_disabled":false,"rental_uris":{"android":"levelo://app?vid=aef78bd0-ea9a-490e-b29e-79fe1986976a","ios":"levelo://app?vid=aef78bd0-ea9a-490e-b29e-79fe1986976a"},"vehicle_type_id":"4","last_reported":1774020770,"current_range_meters":9200,"station_id":"ce4bhg12rcd13ifvqf60","pricing_plan_id":"cebpf4jnsgd1na2vs0mg"},{"bike_id":"a4659d68-246f-4ec4-9eda-fd8e8645e205","system_id":"levelo_inurba_marseille","lat":43.27373,"lon":5.36262,"is_reserved":false,"is_disabled":false,"rental_uris":{"android":"levelo://app?vid=a4659d68-246f-4ec4-9eda-fd8e8645e205","ios":"levelo://app?vid=a4659d68-246f-4ec4-9eda-fd8e8645e205"},"vehicle_type_id":"4","last_reported":1774020770,"current_range_meters":9200,"station_id":"ce4bhbh2rcd13ifvqeo0","pricing_plan_id":"cebpf4jnsgd1na2vs0mg"},{"bike_id":"f627f0e1-0059-446c-8293-509785084896","system_id":"levelo_inurba_marseille","lat":43.26232,"lon":5.40459,"is_reserved":false,"is_disabled":false,"rental_uris":{"android":"levelo://app?vid=f627f0e1-0059-446c-8293-509785084896","ios":"levelo://app?vid=f627f0e1-0059-446c-8293-509785084896"},"vehicle_type_id":"4","last_reported":1774020770,"current_range_meters":9200,"station_id":"ce4bhmh2rcd13ifvqgmg","pricing_plan_id":"cebpf4jnsgd1na2vs0mg"},{"bike_id":"b87d7938-28e4-46e7-994e-fdebd5392225","system_id":"levelo_inurba_marseille","lat":43.32106,"lon":5.36763,"is_reserved":false,"is_disabled":false,"rental_uris":{"android":"levelo://app?vid=b87d7938-28e4-46e7-994e-fdebd5392225","ios":"levelo://app?vid=b87d7938-28e4-46e7-994e-fdebd5392225"},"vehicle_type_id":"4","last_reported":1774020770,"current_range_meters":9200,"station_id":"ce4bhrh2rcd13ifvqhug","pricing_plan_id":"cebpf4jnsgd1na2vs0mg"},{"bike_id":"79676942-3051-4c8d-9ec5-fa7181a0eac0","system_id":"levelo_inurba_marseille","lat":43.25125,"lon":5.40317,"is_reserved":false,"is_disabled":false,"rental_uris":{"android":"levelo://app?vid=79676942-3051-4c8d-9ec5-fa7181a0eac0","ios":"levelo://app?vid=79676942-3051-4c8d-9ec5-fa7181a0eac0"},"vehicle_type_id":"4","last_reported":1774020770,"current_range_meters":9600,"station_id":"ce4bhlh2rcd13ifvqgig","pricing_plan_id":"cebpf4jnsgd1na2vs0mg"},{"bike_id":"69e5862b-f343-4b27-ba3d-ee22ee84f251","system_id":"levelo_inurba_marseille","lat":43.29941,"lon":5.36552,"is_reserved":false,"is_disabled":false,"rental_uris":{"android":"levelo://app?vid=69e5862b-f343-4b27-ba3d-ee22ee84f251","ios":"levelo://app?vid=69e5862b-f343-4b27-ba3d-ee22ee84f251"},"vehicle_type_id":"4","last_reported":1774020770,"current_range_meters":9600,"station_id":"ce4bgm92rcd13ifvqbr0","pricing_plan_id":"cebpf4jnsgd1na2vs0mg"},{"bike_id":"cc777a7e-f3d4-4026-819d-66c6f1a5d2b6","system_id":"levelo_inurba_marseille","lat":43.29215,"lon":5.42582,"is_reserved":false,"is_disabled":false,"rental_uris":{"android":"levelo://app?vid=cc777a7e-f3d4-4026-819d-66c6f1a5d2b6","ios":"levelo://app?vid=cc777a7e-f3d4-4026-819d-66c6f1a5d2b6"},"vehicle_type_id":"4","last_reported":1774020770,"current_range_meters":9600,"station_id":"","pricing_plan_id":"cebpf4jnsgd1na2vs0mg"},{"bike_id":"a6d1e350-a322-4afd-8246-17e3f0570a5a","system_id":"levelo_inurba_marseille","lat":43.2533,"lon":5.42165,"is_reserved":false,"is_disabled":false,"rental_uris":{"android":"levelo://app?vid=a6d1e350-a322-4afd-8246-17e3f0570a5a","ios":"levelo://app?vid=a6d1e350-a322-4afd-8246-17e3f0570a5a"},"vehicle_type_id":"4","last_reported":1774020770,"current_range_meters":9600,"station_id":"st_d2m65c5bi1j21697t3ng","pricing_plan_id":"cebpf4jnsgd1na2vs0mg"},{"bike_id":"3676a395-9d4a-4d07-81c5-7b1d4a0acb38","system_id":"levelo_inurba_marseille","lat":43.31567,"lon":5.37329,"is_reserved":false,"is_disabled":false,"rental_uris":{"android":"levelo://app?vid=3676a395-9d4a-4d07-81c5-7b1d4a0acb38","ios":"levelo://app?vid=3676a395-9d4a-4d07-81c5-7b1d4a0acb38"},"vehicle_type_id":"4","last_reported":1774020770,"current_range_meters":9600,"station_id":"","pricing_plan_id":"cebpf4jnsgd1na2vs0mg"},{"bike_id":"360fd481-1b79-4851-bf35-4750a475ff1d","system_id":"levelo_inurba_marseille","lat":43.28622,"lon":5.35085,"is_reserved":false,"is_disabled":false,"rental_uris":{"android":"levelo://app?vid=360fd481-1b79-4851-bf35-4750a475ff1d","ios":"levelo://app?vid=360fd481-1b79-4851-bf35-4750a475ff1d"},"vehicle_type_id":"4","last_reported":1774020770,"current_range_meters":9600,"station_id":"ce4bhch2rcd13ifvqeug","pricing_plan_id":"cebpf4jnsgd1na2vs0mg"},{"bike_id":"5823234a-ebe5-4f73-a6ca-e22e8e37fb65","system_id":"levelo_inurba_marseille","lat":43.30797,"lon":5.37667,"is_reserved":false,"is_disabled":true,"rental_uris":{"android":"levelo://app?vid=5823234a-ebe5-4f73-a6ca-e22e8e37fb65","ios":"levelo://app?vid=5823234a-ebe5-4f73-a6ca-e22e8e37fb65"},"vehicle_type_id":"4","last_reported":1774020770,"current_range_meters":9600,"station_id":"ce4bgv92rcd13ifvqcq0","pricing_plan_id":"cebpf4jnsgd1na2vs0mg"},