{"last_updated":1758301715,"ttl":60,"version":"2.2","data":{"bikes":[{"bike_id":"d408dbbe-e637-474f-8312-0e09c7b41bc7","system_id":"levelo_inurba_marseille","lat":43.2737,"lon":5.36257,"is_reserved":false,"is_disabled":false,"rental_uris":{"android":"levelo://app?vid=d408dbbe-e637-474f-8312-0e09c7b41bc7","ios":"levelo://app?vid=d408dbbe-e637-474f-8312-0e09c7b41bc7"},"vehicle_type_id":"4","last_reported":1758301715,"current_range_meters":2800,"station_id":"ce4bhbh2rcd13ifvqeo0","pricing_plan_id":"cebpf4jnsgd1na2vs0mg"},{"bike_id":"5eeedf65-2c79-4156-a9d2-8cbbb4f02729","system_id":"levelo_inurba_marseille","lat":43.286131,"lon":5.350996,"is_reserved":false,"is_disabled":false,"rental_uris":{"android":"levelo://app?vid=5eeedf65-2c79-4156-a9d2-8cbbb4f02729","ios":"levelo://app?vid=5eeedf65-2c79-4156-a9d2-8cbbb4f02729"},"vehicle_type_id":"4","last_reported":1758301715,"current_range_meters":2800,"station_id":"ce4bhch2rcd13ifvqeug","pricing_plan_id":"cebpf4jnsgd1na2vs0mg"},{"bike_id":"01e0d633-826f-4196-9d98-0385d8481b64","system_id":"levelo_inurba_marseille","lat":43.27999,"lon":5.40014,"is_reserved":false,"is_disabled":false,"rental_uris":{"android":"levelo://app?vid=01e0d633-826f-4196-9d98-0385d8481b64","ios":"levelo://app?vid=01e0d633-826f-4196-9d98-0385d8481b64"},"vehicle_type_id":"4","last_reported":1758301715,"current_range_meters":2800,"station_id":"ce4bho92rcd13ifvqh4g","pricing_plan_id":"cebpf4jnsgd1na2vs0mg"},{"bike_id":"693e01a2-c228-455f-b8f3-500665ee83f5","system_id":"levelo_inurba_marseille","lat":43.29787,"lon":5.39344,"is_reserved":false,"is_disabled":false,"rental_uris":{"android":"levelo://app?vid=693e01a2-c228-455f-b8f3-500665ee83f5","ios":"levelo://app?vid=693e01a2-c228-455f-b8f3-500665ee83f5"},"vehicle_type_id":"4","last_reported":1758301715,"current_range_meters":2800,"station_id":"chh1huq6cuj3fo74tm60","pricing_plan_id":"cebpf4jnsgd1na2vs0mg"},{"bike_id":"e363e504-0e44-4eed-a7cd-f59186336042","system_id":"levelo_inurba_marseille","lat":43.29253,"lon":5.38442,"is_reserved":false,"is_disabled":false,"rental_uris":{"android":"levelo://app?vid=e363e504-0e44-4eed-a7cd-f59186336042","ios":"levelo://app?vid=e363e504-0e44-4eed-a7cd-f59186336042"},"vehicle_type_id":"4","last_reported":1758301715,"current_range_meters":2800,"station_id":"ce4bh692rcd13ifvqea0","pricing_plan_id":"cebpf4jnsgd1na2vs0mg"},{"bike_id":"4d78263b-a180-4930-933e-6ea592d7864e","system_id":"levelo_inurba_marseille","lat":43.30141,"lon":5.38773,"is_reserved":false,"is_disabled":false,"rental_uris":{"android":"levelo://app?vid=4d78263b-a180-4930-933e-6ea592d7864e","ios":"levelo://app?vid=4d78263b-a180-4930-933e-6ea592d7864e"},"vehicle_type_id":"4","last_reported":1758301715,"current_range_meters":2000,"station_id":"ce4bghh2rcd13ifvqb60","pricing_plan_id":"cebpf4jnsgd1na2vs0mg"},{"bike_id":"ee2ac6dd-f5fe-4712-bee0-86202aefee19","system_id":"levelo_inurba_marseille","lat":43.29922,"lon":5.37478,"is_reserved":false,"is_disabled":false,"rental_uris":{"android":"levelo://app?vid=ee2ac6dd-f5fe-4712-bee0-86202aefee19","ios":"levelo://app?vid=ee2ac6dd-f5fe-4712-bee0-86202aefee19"},"vehicle_type_id":"4","last_reported":1758301715,"current_range_meters":2000,"station_id":"ce4bgjh2rcd13ifvqbg0","pricing_plan_id":"cebpf4jnsgd1na2vs0mg"},{"bike_id":"d966f6fe-c69c-42eb-aa2f-6c188db8a109","system_id":"levelo_inurba_marseille","lat":43.27576,"lon":5.38409,"is_reserved":false,"is_disabled":false,"rental_uris":{"android":"levelo://app?vid=d966f6fe-c69c-42eb-aa2f-6c188db8a109","ios":"levelo://app?vid=d966f6fe-c69c-42eb-aa2f-6c188db8a109"},"vehicle_type_id":"4","last_reported":1758301715,"current_range_meters":3200,"station_id":"ce4bhh92rcd13ifvqfi0","pricing_plan_id":"cebpf4jnsgd1na2vs0mg"},{"bike_id":"f499260b-98d6-48be-905c-1abab773f0ea","system_id":"levelo_inurba_marseille","lat":43.292621,"lon":5.384498,"is_reserved":false,"is_disabled":false,"rental_uris":{"android":"levelo://app?vid=f499260b-98d6-48be-905c-1abab773f0ea","ios":"levelo://app?vid=f499260b-98d6-48be-905c-1abab773f0ea"},"vehicle_type_id":"4","last_reported":1758301715,"current_range_meters":3200,"station_id":"ce4bh692rcd13ifvqea0","pricing_plan_id":"cebpf4jnsgd1na2vs0mg"},{"bike_id":"46297d49-0502-4d2d-947a-14d4ee2e7343","system_id":"levelo_inurba_marseille","lat":43.28146,"lon":5.42642,"is_reserved":false,"is_disabled":false,"rental_uris":{"android":"levelo://app?vid=46297d49-0502-4d2d-947a-14d4ee2e7343","ios":"levelo://app?vid=46297d49-0502-4d2d-947a-14d4ee2e7343"},"vehicle_type_id":"4","last_reported":1758301715,"current_range_meters":3200,"station_id":"ce4bhnh2rcd13ifvqgug","pricing_plan_id":"cebpf4jnsgd1na2vs0mg"},{"bike_id":"6570e05a-cf4f-4ce6-8ecc-e7b4b2edce8d","system_id":"levelo_inurba_marseille","lat":43.290833,"lon":5.383245,"is_reserved":false,"is_disabled":false,"rental_uris":{"android":"levelo://app?vid=6570e05a-cf4f-4ce6-8ecc-e7b4b2edce8d","ios":"levelo://app?vid=6570e05a-cf4f-4ce6-8ecc-e7b4b2edce8d"},"vehicle_type_id":"4","last_reported":1758301715,"current_range_meters":3200,"station_id":"ce4bgvh2rcd13ifvqcs0","pricing_plan_id":"cebpf4jnsgd1na2vs0mg"},{"bike_id":"89c6c8d7-7a3b-437b-8e84-a340d65824ab","system_id":"levelo_inurba_marseille","lat":43.29844,"lon":5.36268,"is_reserved":false,"is_disabled":false,"rental_uris":{"android":"levelo://app?vid=89c6c8d7-7a3b-437b-8e84-a340d65824ab","ios":"levelo://app?vid=89c6c8d7-7a3b-437b-8e84-a340d65824ab"},"vehicle_type_id":"4","last_reported":1758301715,"current_range_meters":3200,"station_id":"ce4bgpp2rcd13ifvqc3g","pricing_plan_id":"cebpf4jnsgd1na2vs0mg"},{"bike_id":"6a8b12d1-6fce-43b9-9abf-29648b2dfb32","system_id":"levelo_inurba_marseille","lat":43.26551,"lon":5.37296,"is_reserved":false,"is_disabled":true,"rental_uris":{"android":"levelo://app?vid=6a8b12d1-6fce-43b9-9abf-29648b2dfb32","ios":"levelo://app?vid=6a8b12d1-6fce-43b9-9abf-29648b2dfb32"},"vehicle_type_id":"4","last_reported":1758301715,"current_range_meters":3200,"station_id":"ce4bhg12rcd13ifvqf70","pricing_plan_id":"cebpf4jnsgd1na2vs0mg"},{"bike_id":"fcf69e6c-8e37-4d3b-8f32-8996bf6122c9","system_id":"levelo_inurba_marseille","lat":43.30425,"lon":5.413111,"is_reserved":false,"is_disabled":false,"rental_uris":{"android":"levelo://app?vid=fcf69e6c-8e37-4d3b-8f32-8996bf6122c9","ios":"levelo://app?vid=fcf69e6c-8e37-4d3b-8f32-8996bf6122c9"},"vehicle_type_id":"4","last_reported":1758301715,"current_range_meters":5600,"station_id":"ce4bhop2rcd13ifvqh8g","pricing_plan_id":"cebpf4jnsgd1na2vs0mg"},{"bike_id":"6aa1b3ce-f1f6-4653-9390-138f7f1ec191","system_id":"levelo_inurba_marseille","lat":43.288239,"lon":5.392289,"is_reserved":false,"is_disabled":false,"rental_uris":{"android":"levelo://app?vid=6aa1b3ce-f1f6-4653-9390-138f7f1ec191","ios":"levelo://app?vid=6aa1b3ce-f1f6-4653-9390-138f7f1ec191"},"vehicle_type_id":"4","last_reported":1758301715,"current_range_meters":3200,"station_id":"ce4bh2p2rcd13ifvqdi0","pricing_plan_id":"cebpf4jnsgd1na2vs0mg"},{"bike_id":"91813328-dbaa-4804-a244-0a2041c8adcb","system_id":"levelo_inurba_marseille","lat":43.337444,"lon":5.374475,"is_reserved":false,"is_disabled":false,"rental_uris":{"android":"levelo://app?vid=91813328-dbaa-4804-a244-0a2041c8adcb","ios":"levelo://app?vid=91813328-dbaa-4804-a244-0a2041c8adcb"},"vehicle_type_id":"4","last_reported":1758301715,"current_range_meters":3600,"station_id":"ce4bh392rcd13ifvqdm0","pricing_plan_id":"cebpf4jnsgd1na2vs0mg"},{"bike_id":"f3a5a618-0360-4461-86e4-2df1afe295c9","system_id":"levelo_inurba_marseille","lat":43.240785,"lon":5.377587,"is_reserved":false,"is_disabled":false,"rental_uris":{"android":"levelo://app?vid=f3a5a618-0360-4461-86e4-2df1afe295c9","ios":"levelo://app?vid=f3a5a618-0360-4461-86e4-2df1afe295c9"},"vehicle_type_id":"4","last_reported":1758301715,"current_range_meters":4000,"station_id":"ce4bhnp2rcd13ifvqgvg","pricing_plan_id":"cebpf4jnsgd1na2vs0mg"},{"bike_id":"c8ab78ec-363c-4375-833f-01d53743f15c","system_id":"levelo_inurba_marseille","lat":43.27364,"lon":5.36253,"is_reserved":false,"is_disabled":false,"rental_uris":{"android":"levelo://app?vid=c8ab78ec-363c-4375-833f-01d53743f15c","ios":"levelo://app?vid=c8ab78ec-363c-4375-833f-01d53743f15c"},"vehicle_type_id":"4","last_reported":1758301715,"current_range_meters":4000,"station_id":"ce4bhbh2rcd13ifvqeo0","pricing_plan_id":"cebpf4jnsgd1na2vs0mg"},{"bike_id":"d4e42fed-b7d1-4743-b033-42e94790e119","system_id":"levelo_inurba_marseille","lat":43.24038,"lon":5.37691,"is_reserved":false,"is_disabled":false,"rental_uris":{"android":"levelo://app?vid=d4e42fed-b7d1-4743-b033-42e94790e119","ios":"levelo://app?vid=d4e42fed-b7d1-4743-b033-42e94790e119"},"vehicle_type_id":"4","last_reported":1758301715,"current_range_meters":4400,"station_id":"","pricing_plan_id":"cebpf4jnsgd1na2vs0mg"},{"bike_id":"a35d6fc4-3264-440b-964b-4e69471aaf56","system_id":"levelo_inurba_marseille","lat":43.292206,"lon":5.360724,"is_reserved":false,"is_disabled":false,"rental_uris":{"android":"levelo://app?vid=a35d6fc4-3264-440b-964b-4e69471aaf56","ios":"levelo://app?vid=a35d6fc4-3264-440b-964b-4e69471aaf56"},"vehicle_type_id":"4","last_reported":1758301715,"current_range_meters":4400,"station_id":"ce4bhbh2rcd13ifvqeqg","pricing_plan_id":"cebpf4jnsgd1na2vs0mg"},{"bike_id":"cd871fa9-992b-4eca-9916-412c7d7bd0c9","system_id":"levelo_inurba_marseille","lat":43.2572,"lon":5.41114,"is_reserved":false,"is_disabled":false,"rental_uris":{"android":"levelo://app?vid=cd871fa9-992b-4eca-9916-412c7d7bd0c9","ios":"levelo://app?vid=cd871fa9-992b-4eca-9916-412c7d7bd0c9"},"vehicle_type_id":"4","last_reported":1758301715,"current_range_meters":4400,"station_id":"ce4bhkp2rcd13ifvqgd0","pricing_plan_id":"cebpf4jnsgd1na2vs0mg"},{"bike_id":"4de01553-cef0-46d1-a411-9b9f0f84adc9","system_id":"levelo_inurba_marseille","lat":43.30271,"lon":5.40033,"is_reserved":false,"is_disabled":false,"rental_uris":{"android":"levelo://app?vid=4de01553-cef0-46d1-a411-9b9f0f84adc9","ios":"levelo://app?vid=4de01553-cef0-46d1-a411-9b9f0f84adc9"},"vehicle_type_id":"4","last_reported":1758301715,"current_range_meters":4400,"station_id":"ce4bgvh2rcd13ifvqcs0","pricing_plan_id":"cebpf4jnsgd1na2vs0mg"},{"bike_id":"7b51a36e-d3c1-400a-a130-b00f35dc0b10","system_id":"levelo_inurba_marseille","lat":43.225343,"lon":5.348357,"is_reserved":false,"is_disabled":false,"rental_uris":{"android":"levelo://app?vid=7b51a36e-d3c1-400a-a130-b00f35dc0b10","ios":"levelo://app?vid=7b51a36e-d3c1-400a-a130-b00f35dc0b10"},"vehicle_type_id":"4","last_reported":1758301715,"current_range_meters":4400,"station_id":"","pricing_plan_id":"cebpf4jnsgd1na2vs0mg"},{"bike_id":"3b0c606d-4464-4ef6-9de6-a3d757f7268e","system_id":"levelo_inurba_marseille","lat":43.26213,"lon":5.37442,"is_reserved":false,"is_disabled":false,"rental_uris":{"android":"levelo://app?vid=3b0c606d-4464-4ef6-9de6-a3d757f7268e","ios":"levelo://app?vid=3b0c606d-4464-4ef6-9de6-a3d757f7268e"},"vehicle_type_id":"4","last_reported":1758301715,"current_range_meters":4400,"station_id":"ce4bhgp2rcd13ifvqfc0","pricing_plan_id":"cebpf4jnsgd1na2vs0mg"},{"bike_id":"45afe5f4-5cbe-49c2-a913-33c967100178","system_id":"levelo_inurba_marseille","lat":43.29776,"lon":5.380931,"is_reserved":false,"is_disabled":false,"rental_uris":{"android":"levelo://app?vid=45afe5f4-5cbe-49c2-a913-33c967100178","ios":"levelo://app?vid=45afe5f4-5cbe-49c2-a913-33c967100178"},"vehicle_type_id":"4","last_reported":1758301715,"current_range_meters":4400,"station_id":"","pricing_plan_id":"cebpf4jnsgd1na2vs0mg"},{"bike_id":"059c0ba7-1dcb-4f29-8d05-6060640937cc","system_id":"levelo_inurba_marseille","lat":43.31828,"lon":5.36816,"is_reserved":false,"is_disabled":true,"rental_uris":{"android":"levelo://app?vid=059c0ba7-1dcb-4f29-8d05-6060640937cc","ios":"levelo://app?vid=059c0ba7-1dcb-4f29-8d05-6060640937cc"},"vehicle_type_id":"4","last_reported":1758301715,"current_range_meters":4800,"station_id":"","pricing_plan_id":"cebpf4jnsgd1na2vs0mg"},{"bike_id":"8b04729d-f61e-45ce-b274-a84c70be68ec","system_id":"levelo_inurba_marseille","lat":43.26029,"lon":5.3755,"is_reserved":false,"is_disabled":false,"rental_uris":{"android":"levelo://app?vid=8b04729d-f61e-45ce-b274-a84c70be68ec","ios":"levelo://app?vid=8b04729d-f61e-45ce-b274-a84c70be68ec"},"vehicle_type_id":"4","last_reported":1758301715,"current_range_meters":4800,"station_id":"ce4bhgh2rcd13ifvqfa0","pricing_plan_id":"cebpf4jnsgd1na2vs0mg"},{"bike_id":"7918c8ea-f7f4-4157-b837-0cbefe2a77c9","system_id":"levelo_inurba_marseille","lat":43.27483,"lon":5.42453,"is_reserved":false,"is_disabled":true,"rental_uris":{"android":"levelo://app?vid=7918c8ea-f7f4-4157-b837-0cbefe2a77c9","ios":"levelo://app?vid=7918c8ea-f7f4-4157-b837-0cbefe2a77c9"},"vehicle_type_id":"4","last_reported":1758301715,"current_range_meters":4800,"station_id":"ce4bhn92rcd13ifvqgrg","pricing_plan_id":"cebpf4jnsgd1na2vs0mg"},{"bike_id":"8699fdc3-3a51-4a1c-b86a-8987df1a1c0e","system_id":"levelo_inurba_marseille","lat":43.2952,"lon":5.3904,"is_reserved":false,"is_disabled":false,"rental_uris":{"android":"levelo://app?vid=8699fdc3-3a51-4a1c-b86a-8987df1a1c0e","ios":"levelo://app?vid=8699fdc3-3a51-4a1c-b86a-8987df1a1c0e"},"vehicle_type_id":"4","last_reported":1758301715,"current_range_meters":4400,"station_id":"ce4bh3p2rcd13ifvqdp0","pricing_plan_id":"cebpf4jnsgd1na2vs0mg"},{"bike_id":"4bd349b0-a9c9-4342-a92b-646d074f6126","system_id":"levelo_inurba_marseille","lat":43.31684,"lon":5.40475,"is_reserved":false,"is_disabled":false,"rental_uris":{"android":"levelo://app?vid=4bd349b0-a9c9-4342-a92b-646d074f6126","ios":"levelo://app?vid=4bd349b0-a9c9-4342-a92b-646d074f6126"},"vehicle_type_id":"4","last_reported":1758301715,"current_range_meters":4800,"station_id":"ce4bh012rcd13ifvqd00","pricing_plan_id":"cebpf4jnsgd1na2vs0mg"},{"bike_id":"6e89d1ff-c084-48fc-a2d3-90498832234e","system_id":"levelo_inurba_marseille","lat":43.30726,"lon":5.38039,"is_reserved":false,"is_disabled":false,"rental_uris":{"android":"levelo://app?vid=6e89d1ff-c084-48fc-a2d3-90498832234e","ios":"levelo://app?vid=6e89d1ff-c084-48fc-a2d3-90498832234e"},"vehicle_type_id":"4","last_reported":1758301715,"current_range_meters":5600,"station_id":"","pricing_plan_id":"cebpf4jnsgd1na2vs0mg"},{"bike_id":"ec753155-ece3-46e9-a454-41b891d4be01","system_id":"levelo_inurba_marseille","lat":43.29914,"lon":5.43637,"is_reserved":false,"is_disabled":false,"rental_uris":{"android":"levelo://app?vid=ec753155-ece3-46e9-a454-41b891d4be01","ios":"levelo://app?vid=ec753155-ece3-46e9-a454-41b891d4be01"},"vehicle_type_id":"4","last_reported":1758301715,"current_range_meters":5600,"station_id":"ce4bhpp2rcd13ifvqhfg","pricing_plan_id":"cebpf4jnsgd1na2vs0mg"},{"bike_id":"8ad0ba3c-2b3f-4080-97c7-276e239460be","system_id":"levelo_inurba_marseille","lat":43.289081,"lon":5.395091,"is_reserved":false,"is_disabled":false,"rental_uris":{"android":"levelo://app?vid=8ad0ba3c-2b3f-4080-97c7-276e239460be","ios":"levelo://app?vid=8ad0ba3c-2b3f-4080-97c7-276e239460be"},"vehicle_type_id":"4","last_reported":1758301715,"current_range_meters":5600,"station_id":"ce4bh3h2rcd13ifvqdn0","pricing_plan_id":"cebpf4jnsgd1na2vs0mg"},{"bike_id":"535cee52-d0e8-4e2b-bfd9-2b9bfc319034","system_id":"levelo_inurba_marseille","lat":43.25931,"lon":5.40909,"is_reserved":false,"is_disabled":false,"rental_uris":{"android":"levelo://app?vid=535cee52-d0e8-4e2b-bfd9-2b9bfc319034","ios":"levelo://app?vid=535cee52-d0e8-4e2b-bfd9-2b9bfc319034"},"vehicle_type_id":"4","last_reported":1758301715,"current_range_meters":5600,"station_id":"ce4bhm92rcd13ifvqglg","pricing_plan_id":"cebpf4jnsgd1na2vs0mg"},{"bike_id":"8a41af08-c25c-495d-aee9-901af21d813d","system_id":"levelo_inurba_marseille","lat":43.2861,"lon":5.35103,"is_reserved":false,"is_disabled":false,"rental_uris":{"android":"levelo://app?vid=8a41af08-c25c-495d-aee9-901af21d813d","ios":"levelo://app?vid=8a41af08-c25c-495d-aee9-901af21d813d"},"vehicle_type_id":"4","last_reported":1758301715,"current_range_meters":5600,"station_id":"ce4bhch2rcd13ifvqeug","pricing_plan_id":"cebpf4jnsgd1na2vs0mg"},{"bike_id":"d30993a2-31a7-4099-b40f-d5c0347297b4","system_id":"levelo_inurba_marseille","lat":43.29309,"lon":5.37168,"is_reserved":false,"is_disabled":false,"rental_uris":{"android":"levelo://app?vid=d30993a2-31a7-4099-b40f-d5c0347297b4","ios":"levelo://app?vid=d30993a2-31a7-4099-b40f-d5c0347297b4"},"vehicle_type_id":"4","last_reported":1758301715,"current_range_meters":5600,"station_id":"ce4bgh92rcd13ifvqb40","pricing_plan_id":"cebpf4jnsgd1na2vs0mg"},{"bike_id":"9963a081-3d47-45c3-9a5f-f912abc0ffc5","system_id":"levelo_inurba_marseille","lat":43.24998,"lon":5.38961,"is_reserved":false,"is_disabled":true,"rental_uris":{"android":"levelo://app?vid=9963a081-3d47-45c3-9a5f-f912abc0ffc5","ios":"levelo://app?vid=9963a081-3d47-45c3-9a5f-f912abc0ffc5"},"vehicle_type_id":"4","last_reported":1758301715,"current_range_meters":6000,"station_id":"ce4bhgp2rcd13ifvqfd0","pricing_plan_id":"cebpf4jnsgd1na2vs0mg"},{"bike_id":"954034cd-4cef-4b90-940b-56e028ad2b9e","system_id":"levelo_inurba_marseille","lat":43.281505,"lon":5.426685,"is_reserved":false,"is_disabled":false,"rental_uris":{"android":"levelo://app?vid=954034cd-4cef-4b90-940b-56e028ad2b9e","ios":"levelo://app?vid=954034cd-4cef-4b90-940b-56e028ad2b9e"},"vehicle_type_id":"4","last_reported":1758301715,"current_range_meters":6000,"station_id":"ce4bhnh2rcd13ifvqgug","pricing_plan_id":"cebpf4jnsgd1na2vs0mg"},{"bike_id":"7745eab8-3d48-4349-b863-861b7cc7cbd1","system_id":"levelo_inurba_marseille","lat":43.290054,"lon":5.381405,"is_reserved":false,"is_disabled":false,"rental_uris":{"android":"levelo://app?vid=7745eab8-3d48-4349-b863-861b7cc7cbd1","ios":"levelo://app?vid=7745eab8-3d48-4349-b863-861b7cc7cbd1"},"vehicle_type_id":"4","last_reported":1758301715,"current_range_meters":6000,"station_id":"","pricing_plan_id":"cebpf4jnsgd1na2vs0mg"},{"bike_id":"fb645514-11ca-4fa8-b347-7ca37b013040","system_id":"levelo_inurba_marseille","lat":43.295235,"lon":5.374864,"is_reserved":false,"is_disabled":false,"rental_uris":{"android":"levelo://app?vid=fb645514-11ca-4fa8-b347-7ca37b013040","ios":"levelo://app?vid=fb645514-11ca-4fa8-b347-7ca37b013040"},"vehicle_type_id":"4","last_reported":1758301715,"current_range_meters":6000,"station_id":"ce4bgkp2rcd13ifvqbmg","pricing_plan_id":"cebpf4jnsgd1na2vs0mg"},{"bike_id":"f7c00165-7be5-4d72-8149-00f82745d715","system_id":"levelo_inurba_marseille","lat":43.3237,"lon":5.38902,"is_reserved":false,"is_disabled":false,"rental_uris":{"android":"levelo://app?vid=f7c00165-7be5-4d72-8149-00f82745d715","ios":"levelo://app?vid=f7c00165-7be5-4d72-8149-00f82745d715"},"vehicle_type_id":"4","last_reported":1758301715,"current_range_meters":6000,"station_id":"ce4bhqp2rcd13ifvqhog","pricing_plan_id":"cebpf4jnsgd1na2vs0mg"},{"bike_id":"42e5795d-b5e1-4a79-8bce-3ac179f8d6f9","system_id":"levelo_inurba_marseille","lat":43.22933,"lon":5.35378,"is_reserved":false,"is_disabled":false,"rental_uris":{"android":"levelo://app?vid=42e5795d-b5e1-4a79-8bce-3ac179f8d6f9","ios":"levelo://app?vid=42e5795d-b5e1-4a79-8bce-3ac179f8d6f9"},"vehicle_type_id":"4","last_reported":1758301715,"current_range_meters":6000,"station_id":"cpo3532slgdg3j2ikp40","pricing_plan_id":"cebpf4jnsgd1na2vs0mg"},{"bike_id":"c383a25a-46d3-4686-afad-e874823b853e","system_id":"levelo_inurba_marseille","lat":43.27443,"lon":5.40736,"is_reserved":false,"is_disabled":false,"rental_uris":{"android":"levelo://app?vid=c383a25a-46d3-4686-afad-e874823b853e","ios":"levelo://app?vid=c383a25a-46d3-4686-afad-e874823b853e"},"vehicle_type_id":"4","last_reported":1758301715,"current_range_meters":6000,"station_id":"","pricing_plan_id":"cebpf4jnsgd1na2vs0mg"},{"bike_id":"11d60f6e-f505-474f-a6c2-5b8f76486b7b","system_id":"levelo_inurba_marseille","lat":43.28267,"lon":5.35058,"is_reserved":false,"is_disabled":true,"rental_uris":{"android":"levelo://app?vid=11d60f6e-f505-474f-a6c2-5b8f76486b7b","ios":"levelo://app?vid=11d60f6e-f505-474f-a6c2-5b8f76486b7b"},"vehicle_type_id":"4","last_reported":1758301715,"current_range_meters":6400,"station_id":"ce4bhbp2rcd13ifvqerg","pricing_plan_id":"cebpf4jnsgd1na2vs0mg"},{"bike_id":"13df94a4-a471-44ad-955e-fcdeb4032ed9","system_id":"levelo_inurba_marseille","lat":43.31338,"lon":5.36718,"is_reserved":false,"is_disabled":false,"rental_uris":{"android":"levelo://app?vid=13df94a4-a471-44ad-955e-fcdeb4032ed9","ios":"levelo://app?vid=13df94a4-a471-44ad-955e-fcdeb4032ed9"},"vehicle_type_id":"4","last_reported":1758301715,"current_range_meters":6400,"station_id":"ce4bgr92rcd13ifvqc6g","pricing_plan_id":"cebpf4jnsgd1na2vs0mg"},{"bike_id":"dcc3d5f7-d18a-4120-a8e0-882d4b597d26","system_id":"levelo_inurba_marseille","lat":43.282623,"lon":5.35054,"is_reserved":false,"is_disabled":false,"rental_uris":{"android":"levelo://app?vid=dcc3d5f7-d18a-4120-a8e0-882d4b597d26","ios":"levelo://app?vid=dcc3d5f7-d18a-4120-a8e0-882d4b597d26"},"vehicle_type_id":"4","last_reported":1758301715,"current_range_meters":6400,"station_id":"ce4bhbp2rcd13ifvqerg","pricing_plan_id":"cebpf4jnsgd1na2vs0mg"},{"bike_id":"91d75646-396b-4e35-8c7f-b572fede9fd4","system_id":"levelo_inurba_marseille","lat":43.30795,"lon":5.43513,"is_reserved":false,"is_disabled":false,"rental_uris":{"android":"levelo://app?vid=91d75646-396b-4e35-8c7f-b572fede9fd4","ios":"levelo://app?vid=91d75646-396b-4e35-8c7f-b572fede9fd4"},"vehicle_type_id":"4","last_reported":1758301715,"current_range_meters":6400,"station_id":"ce4bhph2rcd13ifvqheg","pricing_plan_id":"cebpf4jnsgd1na2vs0mg"},{"bike_id":"b66d5982-aaed-4204-9239-30703007479a","system_id":"levelo_inurba_marseille","lat":43.28408,"lon":5.34975,"is_reserved":false,"is_disabled":false,"rental_uris":{"android":"levelo://app?vid=b66d5982-aaed-4204-9239-30703007479a","ios":"levelo://app?vid=b66d5982-aaed-4204-9239-30703007479a"},"vehicle_type_id":"4","last_reported":1758301715,"current_range_meters":6400,"station_id":"ce4bhbh2rcd13ifvqepg","pricing_plan_id":"cebpf4jnsgd1na2vs0mg"},{"bike_id":"ccd44948-7c00-492e-b618-36105a29ab8f","system_id":"levelo_inurba_marseille","lat":43.32653,"lon":5.40987,"is_reserved":false,"is_disabled":true,"rental_uris":{"android":"levelo://app?vid=ccd44948-7c00-492e-b618-36105a29ab8f","ios":"levelo://app?vid=ccd44948-7c00-492e-b618-36105a29ab8f"},"vehicle_type_id":"4","last_reported":1758301715,"current_range_meters":6400,"station_id":"ce4bhpp2rcd13ifvqhgg","pricing_plan_id":"cebpf4jnsgd1na2vs0mg"},{"bike_id":"69595d9c-9b98-424d-8310-b750db0aac07","system_id":"levelo_inurba_marseille","lat":43.29092,"lon":5.38152,"is_reserved":false,"is_disabled":false,"rental_uris":{"android":"levelo://app?vid=69595d9c-9b98-424d-8310-b750db0aac07","ios":"levelo://app?vid=69595d9c-9b98-424d-8310-b750db0aac07"},"vehicle_type_id":"4","last_reported":1758301715,"current_range_meters":6800,"station_id":"ce4bh512rcd13ifvqe2g","pricing_plan_id":"cebpf4jnsgd1na2vs0mg"},{"bike_id":"cf66592a-d8fa-4c6c-9927-5d7a9fef5026","system_id":"levelo_inurba_marseille","lat":43.26217,"lon":5.3973,"is_reserved":false,"is_disabled":false,"rental_uris":{"android":"levelo://app?vid=cf66592a-d8fa-4c6c-9927-5d7a9fef5026","ios":"levelo://app?vid=cf66592a-d8fa-4c6c-9927-5d7a9fef5026"},"vehicle_type_id":"4","last_reported":1758301715,"current_range_meters":6800,"station_id":"","pricing_plan_id":"cebpf4jnsgd1na2vs0mg"},{"bike_id":"d3a0c678-277c-4515-9cb1-b0c440f03a02","system_id":"levelo_inurba_marseille","lat":43.28277,"lon":5.3506,"is_reserved":false,"is_disabled":false,"rental_uris":{"android":"levelo://app?vid=d3a0c678-277c-4515-9cb1-b0c440f03a02","ios":"levelo://app?vid=d3a0c678-277c-4515-9cb1-b0c440f03a02"},"vehicle_type_id":"4","last_reported":1758301715,"current_range_meters":6800,"station_id":"ce4bhbp2rcd13ifvqerg","pricing_plan_id":"cebpf4jnsgd1na2vs0mg"},{"bike_id":"09d57958-5c2c-49fc-a7e8-03afd2d531b8","system_id":"levelo_inurba_marseille","lat":43.30248,"lon":5.40069,"is_reserved":false,"is_disabled":false,"rental_uris":{"android":"levelo://app?vid=09d57958-5c2c-49fc-a7e8-03afd2d531b8","ios":"levelo://app?vid=09d57958-5c2c-49fc-a7e8-03afd2d531b8"},"vehicle_type_id":"4","last_reported":1758301715,"current_range_meters":6400,"station_id":"ce4bgvh2rcd13ifvqcs0","pricing_plan_id":"cebpf4jnsgd1na2vs0mg"},{"bike_id":"b03963e7-f165-473d-a43d-a68e09ff2d96","system_id":"levelo_inurba_marseille","lat":43.2567,"lon":5.41934,"is_reserved":false,"is_disabled":false,"rental_uris":{"android":"levelo://app?vid=b03963e7-f165-473d-a43d-a68e09ff2d96","ios":"levelo://app?vid=b03963e7-f165-473d-a43d-a68e09ff2d96"},"vehicle_type_id":"4","last_reported":1758301715,"current_range_meters":6800,"station_id":"","pricing_plan_id":"cebpf4jnsgd1na2vs0mg"},{"bike_id":"d356b432-4a54-45aa-ba9c-6b75f20757e4","system_id":"levelo_inurba_marseille","lat":43.31991,"lon":5.38155,"is_reserved":false,"is_disabled":false,"rental_uris":{"android":"levelo://app?vid=d356b432-4a54-45aa-ba9c-6b75f20757e4","ios":"levelo://app?vid=d356b432-4a54-45aa-ba9c-6b75f20757e4"},"vehicle_type_id":"4","last_reported":1758301715,"current_range_meters":7200,"station_id":"ce4bhr12rcd13ifvqhpg","pricing_plan_id":"cebpf4jnsgd1na2vs0mg"},{"bike_id":"a090eb8d-a295-44bd-8d1d-534565a786d7","system_id":"levelo_inurba_marseille","lat":43.31687,"lon":5.40472,"is_reserved":false,"is_disabled":false,"rental_uris":{"android":"levelo://app?vid=a090eb8d-a295-44bd-8d1d-534565a786d7","ios":"levelo://app?vid=a090eb8d-a295-44bd-8d1d-534565a786d7"},"vehicle_type_id":"4","last_reported":1758301715,"current_range_meters":7200,"station_id":"ce4bh012rcd13ifvqd00","pricing_plan_id":"cebpf4jnsgd1na2vs0mg"},{"bike_id":"48b62854-17ed-4680-ae82-99785d2d2874","system_id":"levelo_inurba_marseille","lat":43.29972,"lon":5.38483,"is_reserved":false,"is_disabled":false,"rental_uris":{"android":"levelo://app?vid=48b62854-17ed-4680-ae82-99785d2d2874","ios":"levelo://app?vid=48b62854-17ed-4680-ae82-99785d2d2874"},"vehicle_type_id":"4","last_reported":1758301715,"current_range_meters":7200,"station_id":"ce4bgj92rcd13ifvqbd0","pricing_plan_id":"cebpf4jnsgd1na2vs0mg"},{"bike_id":"6bfacb6c-06b3-4db2-83ae-0352de70329a","system_id":"levelo_inurba_marseille","lat":43.26692,"lon":5.38271,"is_reserved":false,"is_disabled":false,"rental_uris":{"android":"levelo://app?vid=6bfacb6c-06b3-4db2-83ae-0352de70329a","ios":"levelo://app?vid=6bfacb6c-06b3-4db2-83ae-0352de70329a"},"vehicle_type_id":"4","last_reported":1758301715,"current_range_meters":7200,"station_id":"ce4bhg92rcd13ifvqf90","pricing_plan_id":"cebpf4jnsgd1na2vs0mg"},{"bike_id":"b71208d4-951f-474f-9e77-3845b6eb1465","system_id":"levelo_inurba_marseille","lat":43.28277,"lon":5.35068,"is_reserved":false,"is_disabled":false,"rental_uris":{"android":"levelo://app?vid=b71208d4-951f-474f-9e77-3845b6eb1465","ios":"levelo://app?vid=b71208d4-951f-474f-9e77-3845b6eb1465"},"vehicle_type_id":"4","last_reported":1758301715,"current_range_meters":8000,"station_id":"ce4bhbp2rcd13ifvqerg","pricing_plan_id":"cebpf4jnsgd1na2vs0mg"},{"bike_id":"118246b6-fbe1-45d4-90a1-c5cc403cf8aa","system_id":"levelo_inurba_marseille","lat":43.28254,"lon":5.35075,"is_reserved":false,"is_disabled":false,"rental_uris":{"android":"levelo://app?vid=118246b6-fbe1-45d4-90a1-c5cc403cf8aa","ios":"levelo://app?vid=118246b6-fbe1-45d4-90a1-c5cc403cf8aa"},"vehicle_type_id":"4","last_reported":1758301715,"current_range_meters":8000,"station_id":"ce4bhbp2rcd13ifvqerg","pricing_plan_id":"cebpf4jnsgd1na2vs0mg"},{"bike_id":"f5c39b58-7e2a-48d3-8643-617966de012b","system_id":"levelo_inurba_marseille","lat":43.24783,"lon":5.37444,"is_reserved":false,"is_disabled":false,"rental_uris":{"android":"levelo://app?vid=f5c39b58-7e2a-48d3-8643-617966de012b","ios":"levelo://app?vid=f5c39b58-7e2a-48d3-8643-617966de012b"},"vehicle_type_id":"4","last_reported":1758301715,"current_range_meters":8000,"station_id":"ce4bhgh2rcd13ifvqfb0","pricing_plan_id":"cebpf4jnsgd1na2vs0mg"},{"bike_id":"e5ae5275-d5d5-49e3-ad86-0b94643e3552","system_id":"levelo_inurba_marseille","lat":43.28267,"lon":5.35068,"is_reserved":false,"is_disabled":false,"rental_uris":{"android":"levelo://app?vid=e5ae5275-d5d5-49e3-ad86-0b94643e3552","ios":"levelo://app?vid=e5ae5275-d5d5-49e3-ad86-0b94643e3552"},"vehicle_type_id":"4","last_reported":1758301715,"current_range_meters":8000,"station_id":"ce4bhbp2rcd13ifvqerg","pricing_plan_id":"cebpf4jnsgd1na2vs0mg"},{"bike_id":"e9463a75-99f7-4f3e-9b70-81900a30f932","system_id":"levelo_inurba_marseille","lat":43.291,"lon":5.3811,"is_reserved":false,"is_disabled":false,"rental_uris":{"android":"levelo://app?vid=e9463a75-99f7-4f3e-9b70-81900a30f932","ios":"levelo://app?vid=e9463a75-99f7-4f3e-9b70-81900a30f932"},"vehicle_type_id":"4","last_reported":1758301715,"current_range_meters":7200,"station_id":"ce4bh512rcd13ifvqe2g","pricing_plan_id":"cebpf4jnsgd1na2vs0mg"},{"bike_id":"c13d8000-87b6-419a-a1ce-6f7f8094537d","system_id":"levelo_inurba_marseille","lat":43.27169,"lon":5.40994,"is_reserved":false,"is_disabled":false,"rental_uris":{"android":"levelo://app?vid=c13d8000-87b6-419a-a1ce-6f7f8094537d","ios":"levelo://app?vid=c13d8000-87b6-419a-a1ce-6f7f8094537d"},"vehicle_type_id":"4","last_reported":1758301715,"current_range_meters":8400,"station_id":"ce4bhl12rcd13ifvqgf0","pricing_plan_id":"cebpf4jnsgd1na2vs0mg"},{"bike_id":"56a4f75d-eaf2-44b4-aa02-4a439b19699b","system_id":"levelo_inurba_marseille","lat":43.3379,"lon":5.37421,"is_reserved":false,"is_disabled":false,"rental_uris":{"android":"levelo://app?vid=56a4f75d-eaf2-44b4-aa02-4a439b19699b","ios":"levelo://app?vid=56a4f75d-eaf2-44b4-aa02-4a439b19699b"},"vehicle_type_id":"4","last_reported":1758301715,"current_range_meters":8400,"station_id":"","pricing_plan_id":"cebpf4jnsgd1na2vs0mg"},{"bike_id":"243047f3-7fdc-46c5-85d6-6da891dc8b3e","system_id":"levelo_inurba_marseille","lat":43.282667,"lon":5.350709,"is_reserved":false,"is_disabled":false,"rental_uris":{"android":"levelo://app?vid=243047f3-7fdc-46c5-85d6-6da891dc8b3e","ios":"levelo://app?vid=243047f3-7fdc-46c5-85d6-6da891dc8b3e"},"vehicle_type_id":"4","last_reported":1758301715,"current_range_meters":8400,"station_id":"","pricing_plan_id":"cebpf4jnsgd1na2vs0mg"},{"bike_id":"74910d78-3b91-4ae7-b31e-1f0c1d3bd885","system_id":"levelo_inurba_marseille","lat":43.29191,"lon":5.358,"is_reserved":false,"is_disabled":false,"rental_uris":{"android":"levelo://app?vid=74910d78-3b91-4ae7-b31e-1f0c1d3bd885","ios":"levelo://app?vid=74910d78-3b91-4ae7-b31e-1f0c1d3bd885"},"vehicle_type_id":"4","last_reported":1758301715,"current_range_meters":8400,"station_id":"ce4bhb12rcd13ifvqel0","pricing_plan_id":"cebpf4jnsgd1na2vs0mg"},{"bike_id":"91b99eb7-08b7-41b1-a174-1dfb4de4983e","system_id":"levelo_inurba_marseille","lat":43.28414,"lon":5.34987,"is_reserved":false,"is_disabled":false,"rental_uris":{"android":"levelo://app?vid=91b99eb7-08b7-41b1-a174-1dfb4de4983e","ios":"levelo://app?vid=91b99eb7-08b7-41b1-a174-1dfb4de4983e"},"vehicle_type_id":"4","last_reported":1758301715,"current_range_meters":8400,"station_id":"ce4bhbh2rcd13ifvqepg","pricing_plan_id":"cebpf4jnsgd1na2vs0mg"},{"bike_id":"42323a1a-489c-43cb-90ae-c675b27444d5","system_id":"levelo_inurba_marseille","lat":43.21644,"lon":5.3438,"is_reserved":false,"is_disabled":false,"rental_uris":{"android":"levelo://app?vid=42323a1a-489c-43cb-90ae-c675b27444d5","ios":"levelo://app?vid=42323a1a-489c-43cb-90ae-c675b27444d5"},"vehicle_type_id":"4","last_reported":1758301715,"current_range_meters":8400,"station_id":"","pricing_plan_id":"cebpf4jnsgd1na2vs0mg"},{"bike_id":"f9636a44-11a8-49d6-9b1c-12db7ad64ee3","system_id":"levelo_inurba_marseille","lat":43.2418,"lon":5.39718,"is_reserved":false,"is_disabled":true,"rental_uris":{"android":"levelo://app?vid=f9636a44-11a8-49d6-9b1c-12db7ad64ee3","ios":"levelo://app?vid=f9636a44-11a8-49d6-9b1c-12db7ad64ee3"},"vehicle_type_id":"4","last_reported":1758301715,"current_range_meters":8400,"station_id":"ce4bhn12rcd13ifvqgpg","pricing_plan_id":"cebpf4jnsgd1na2vs0mg"},{"bike_id":"828b8f94-4293-4c49-9424-42c8f759ef6d","system_id":"levelo_inurba_marseille","lat":43.30924,"lon":5.36857,"is_reserved":false,"is_disabled":false,"rental_uris":{"android":"levelo://app?vid=828b8f94-4293-4c49-9424-42c8f759ef6d","ios":"levelo://app?vid=828b8f94-4293-4c49-9424-42c8f759ef6d"},"vehicle_type_id":"4","last_reported":1758301715,"current_range_meters":8800,"station_id":"","pricing_plan_id":"cebpf4jnsgd1na2vs0mg"},{"bike_id":"6a504d8a-9494-4d91-89e9-ea2c48216cf5","system_id":"levelo_inurba_marseille","lat":43.29578,"lon":5.37525,"is_reserved":false,"is_disabled":false,"rental_uris":{"android":"levelo://app?vid=6a504d8a-9494-4d91-89e9-ea2c48216cf5","ios":"levelo://app?vid=6a504d8a-9494-4d91-89e9-ea2c48216cf5"},"vehicle_type_id":"4","last_reported":1758301715,"current_range_meters":8800,"station_id":"ce4bgh92rcd13ifvqb50","pricing_plan_id":"cebpf4jnsgd1na2vs0mg"},{"bike_id":"e6f8489d-fe42-4015-a82c-b604c2c8b33e","system_id":"levelo_inurba_marseille","lat":43.29795,"lon":5.36682,"is_reserved":false,"is_disabled":false,"rental_uris":{"android":"levelo://app?vid=e6f8489d-fe42-4015-a82c-b604c2c8b33e","ios":"levelo://app?vid=e6f8489d-fe42-4015-a82c-b604c2c8b33e"},"vehicle_type_id":"4","last_reported":1758301715,"current_range_meters":8800,"station_id":"","pricing_plan_id":"cebpf4jnsgd1na2vs0mg"},{"bike_id":"b4b57e18-5bec-4432-8a85-8e56900775c1","system_id":"levelo_inurba_marseille","lat":43.2905,"lon":5.35909,"is_reserved":false,"is_disabled":false,"rental_uris":{"android":"levelo://app?vid=b4b57e18-5bec-4432-8a85-8e56900775c1","ios":"levelo://app?vid=b4b57e18-5bec-4432-8a85-8e56900775c1"},"vehicle_type_id":"4","last_reported":1758301715,"current_range_meters":9200,"station_id":"ce4bha92rcd13ifvqeg0","pricing_plan_id":"cebpf4jnsgd1na2vs0mg"},{"bike_id":"cad97885-b582-49b2-8b83-0a6c3d079fc6","system_id":"levelo_inurba_marseille","lat":43.297018,"lon":5.365873,"is_reserved":false,"is_disabled":false,"rental_uris":{"android":"levelo://app?vid=cad97885-b582-49b2-8b83-0a6c3d079fc6","ios":"levelo://app?vid=cad97885-b582-49b2-8b83-0a6c3d079fc6"},"vehicle_type_id":"4","last_reported":1758301715,"current_range_meters":9200,"station_id":"ce4bgn12rcd13ifvqbt0","pricing_plan_id":"cebpf4jnsgd1na2vs0mg"},{"bike_id":"2d2d2477-7953-4da3-b9fb-20822d9a9b63","system_id":"levelo_inurba_marseille","lat":43.29261,"lon":5.3845,"is_reserved":false,"is_disabled":false,"rental_uris":{"android":"levelo://app?vid=2d2d2477-7953-4da3-b9fb-20822d9a9b63","ios":"levelo://app?vid=2d2d2477-7953-4da3-b9fb-20822d9a9b63"},"vehicle_type_id":"4","last_reported":1758301715,"current_range_meters":9200,"station_id":"ce4bh692rcd13ifvqea0","pricing_plan_id":"cebpf4jnsgd1na2vs0mg"},{"bike_id":"33099b0f-e079-4deb-b136-30f647c7a310","system_id":"levelo_inurba_marseille","lat":43.30321,"lon":5.40445,"is_reserved":false,"is_disabled":false,"rental_uris":{"android":"levelo://app?vid=33099b0f-e079-4deb-b136-30f647c7a310","ios":"levelo://app?vid=33099b0f-e079-4deb-b136-30f647c7a310"},"vehicle_type_id":"4","last_reported":1758301715,"current_range_meters":9200,"station_id":"ce4bh012rcd13ifvqd10","pricing_plan_id":"cebpf4jnsgd1na2vs0mg"},{"bike_id":"485a2000-be7c-4c31-80ea-909e4ca699d3","system_id":"levelo_inurba_marseille","lat":43.28243,"lon":5.35076,"is_reserved":false,"is_disabled":false,"rental_uris":{"android":"levelo://app?vid=485a2000-be7c-4c31-80ea-909e4ca699d3","ios":"levelo://app?vid=485a2000-be7c-4c31-80ea-909e4ca699d3"},"vehicle_type_id":"4","last_reported":1758301715,"current_range_meters":9200,"station_id":"ce4bhbp2rcd13ifvqerg","pricing_plan_id":"cebpf4jnsgd1na2vs0mg"},{"bike_id":"873f3615-5da3-4035-9561-9e0d9b1ad00d","system_id":"levelo_inurba_marseille","lat":43.26682,"lon":5.38316,"is_reserved":false,"is_disabled":false,"rental_uris":{"android":"levelo://app?vid=873f3615-5da3-4035-9561-9e0d9b1ad00d","ios":"levelo://app?vid=873f3615-5da3-4035-9561-9e0d9b1ad00d"},"vehicle_type_id":"4","last_reported":1758301715,"current_range_meters":9600,"station_id":"ce4bhg92rcd13ifvqf90","pricing_plan_id":"cebpf4jnsgd1na2vs0mg"},{"bike_id":"7b72d3bd-c2d8-427f-be02-dc4df2ead604","system_id":"levelo_inurba_marseille","lat":43.25507,"lon":5.37647,"is_reserved":false,"is_disabled":false,"rental_uris":{"android":"levelo://app?vid=7b72d3bd-c2d8-427f-be02-dc4df2ead604","ios":"levelo://app?vid=7b72d3bd-c2d8-427f-be02-dc4df2ead604"},"vehicle_type_id":"4","last_reported":1758301715,"current_range_meters":9600,"station_id":"ce4bhh12rcd13ifvqff0","pricing_plan_id":"cebpf4jnsgd1na2vs0mg"},{"bike_id":"22515e71-bbd8-4385-a47d-5b162cda357d","system_id":"levelo_inurba_marseille","lat":43.284149,"lon":5.349785,"is_reserved":false,"is_disabled":false,"rental_uris":{"android":"levelo://app?vid=22515e71-bbd8-4385-a47d-5b162cda357d","ios":"levelo://app?vid=22515e71-bbd8-4385-a47d-5b162cda357d"},"vehicle_type_id":"4","last_reported":1758301715,"current_range_meters":9600,"station_id":"ce4bhbh2rcd13ifvqepg","pricing_plan_id":"cebpf4jnsgd1na2vs0mg"},{"bike_id":"a4faa1fd-62ee-404a-aff8-b79ea6b6b5d2","system_id":"levelo_inurba_marseille","lat":43.32986,"lon":5.39245,"is_reserved":false,"is_disabled":false,"rental_uris":{"android":"levelo://app?vid=a4faa1fd-62ee-404a-aff8-b79ea6b6b5d2","ios":"levelo://app?vid=a4faa1fd-62ee-404a-aff8-b79ea6b6b5d2"},"vehicle_type_id":"4","last_reported":1758301715,"current_range_meters":9600,"station_id":"","pricing_plan_id":"cebpf4jnsgd1na2vs0mg"},{"bike_id":"e942f984-8fe7-48d1-8f04-3806656b9996","system_id":"levelo_inurba_marseille","lat":43.3364,"lon":5.37932,"is_reserved":false,"is_disabled":false,"rental_uris":{"android":"levelo://app?vid=e942f984-8fe7-48d1-8f04-3806656b9996","ios":"levelo://app?vid=e942f984-8fe7-48d1-8f04-3806656b9996"},"vehicle_type_id":"4","last_reported":1758301715,"current_range_meters":9600,"station_id":"","pricing_plan_id":"cebpf4jnsgd1na2vs0mg"},{"bike_id":"c03db5d6-931c-41e0-bfa5-6550a106fb99","system_id":"levelo_inurba_marseille","lat":43.23295,"lon":5.36023,"is_reserved":false,"is_disabled":false,"rental_uris":{"android":"levelo://app?vid=c03db5d6-931c-41e0-bfa5-6550a106fb99","ios":"levelo://app?vid=c03db5d6-931c-41e0-bfa5-6550a106fb99"},"vehicle_type_id":"4","last_reported":1758301715,"current_range_meters":9600,"station_id":"","pricing_plan_id":"cebpf4jnsgd1na2vs0mg"},{"bike_id":"09e89ba2-8f72-4ffd-8b15-faf186168c2d","system_id":"levelo_inurba_marseille","lat":43.31221,"lon":5.3685,"is_reserved":false,"is_disabled":false,"rental_uris":{"android":"levelo://app?vid=09e89ba2-8f72-4ffd-8b15-faf186168c2d","ios":"levelo://app?vid=09e89ba2-8f72-4ffd-8b15-faf186168c2d"},"vehicle_type_id":"4","last_reported":1758301715,"current_range_meters":9200,"station_id":"ce4bgl92rcd13ifvqbq0","pricing_plan_id":"cebpf4jnsgd1na2vs0mg"},{"bike_id":"f95f8932-de18-4727-9413-311c187a5a2a","system_id":"levelo_inurba_marseille","lat":43.29593,"lon":5.38108,"is_reserved":false,"is_disabled":false,"rental_uris":{"android":"levelo://app?vid=f95f8932-de18-4727-9413-311c187a5a2a","ios":"levelo://app?vid=f95f8932-de18-4727-9413-311c187a5a2a"},"vehicle_type_id":"4","last_reported":1758301715,"current_range_meters":9600,"station_id":"ce4bgl12rcd13ifvqbo0","pricing_plan_id":"cebpf4jnsgd1na2vs0mg"},{"bike_id":"22f0687d-25d3-4094-9c4a-293a61e189a6","system_id":"levelo_inurba_marseille","lat":43.2463,"lon":5.39626,"is_reserved":false,"is_disabled":false,"rental_uris":{"android":"levelo://app?vid=22f0687d-25d3-4094-9c4a-293a61e189a6","ios":"levelo://app?vid=22f0687d-25d3-4094-9c4a-293a61e189a6"},"vehicle_type_id":"4","last_reported":1758301715,"current_range_meters":9600,"station_id":"","pricing_plan_id":"cebpf4jnsgd1na2vs0mg"},{"bike_id":"c59eda23-a3b2-45e0-9a9a-ade83c715077","system_id":"levelo_inurba_marseille","lat":43.29574,"lon":5.37518,"is_reserved":false,"is_disabled":false,"rental_uris":{"android":"levelo://app?vid=c59eda23-a3b2-45e0-9a9a-ade83c715077","ios":"levelo://app?vid=c59eda23-a3b2-45e0-9a9a-ade83c715077"},"vehicle_type_id":"4","last_reported":1758301715,"current_range_meters":9600,"station_id":"ce4bgh92rcd13ifvqb50","pricing_plan_id":"cebpf4jnsgd1na2vs0mg"},{"bike_id":"0b92f33b-0219-4741-a0be-42b5b357c765","system_id":"levelo_inurba_marseille","lat":43.24661,"lon":5.38882,"is_reserved":false,"is_disabled":false,"rental_uris":{"android":"levelo://app?vid=0b92f33b-0219-4741-a0be-42b5b357c765","ios":"levelo://app?vid=0b92f33b-0219-4741-a0be-42b5b357c765"},"vehicle_type_id":"4","last_reported":1758301715,"current_range_meters":9600,"station_id":"ce4bhg12rcd13ifvqf60","pricing_plan_id":"cebpf4jnsgd1na2vs0mg"},{"bike_id":"57ac828e-bbfe-4c1d-99da-f4aa98255780","system_id":"levelo_inurba_marseille","lat":43.298127,"lon":5.417095,"is_reserved":false,"is_disabled":false,"rental_uris":{"android":"levelo://app?vid=57ac828e-bbfe-4c1d-99da-f4aa98255780","ios":"levelo://app?vid=57ac828e-bbfe-4c1d-99da-f4aa98255780"},"vehicle_type_id":"4","last_reported":1758301715,"current_range_meters":10000,"station_id":"","pricing_plan_id":"cebpf4jnsgd1na2vs0mg"},{"bike_id":"29d0b2b1-6689-4ee2-95d3-35071fd778f9","system_id":"levelo_inurba_marseille","lat":43.22933,"lon":5.35382,"is_reserved":false,"is_disabled":false,"rental_uris":{"android":"levelo://app?vid=29d0b2b1-6689-4ee2-95d3-35071fd778f9","ios":"levelo://app?vid=29d0b2b1-6689-4ee2-95d3-35071fd778f9"},"vehicle_type_id":"4","last_reported":1758301715,"current_range_meters":10000,"station_id":"cpo3532slgdg3j2ikp40","pricing_plan_id":"cebpf4jnsgd1na2vs0mg"},{"bike_id":"c3897c00-e950-4044-8f08-e0b1f3ccd977","system_id":"levelo_inurba_marseille","lat":43.22925,"lon":5.35377,"is_reserved":false,"is_disabled":true,"rental_uris":{"android":"levelo://app?vid=c3897c00-e950-4044-8f08-e0b1f3ccd977","ios":"levelo://app?vid=c3897c00-e950-4044-8f08-e0b1f3ccd977"},"vehicle_type_id":"4","last_reported":1758301715,"current_range_meters":10000,"station_id":"cpo3532slgdg3j2ikp40","pricing_plan_id":"cebpf4jnsgd1na2vs0mg"},{"bike_id":"0e9dc9a9-951d-4a56-b642-792acabba139","system_id":"levelo_inurba_marseille","lat":43.27988,"lon":5.40018,"is_reserved":false,"is_disabled":false,"rental_uris":{"android":"levelo://app?vid=0e9dc9a9-951d-4a56-b642-792acabba139","ios":"levelo://app?vid=0e9dc9a9-951d-4a56-b642-792acabba139"},"vehicle_type_id":"4","last_reported":1758301715,"current_range_meters":10800,"station_id":"ce4bho92rcd13ifvqh4g","pricing_plan_id":"cebpf4jnsgd1na2vs0mg"},{"bike_id":"f9418cc9-c64d-43d9-9060-3aeedd69cdee","system_id":"levelo_inurba_marseille","lat":43.33071,"lon":5.37839,"is_reserved":false,"is_disabled":false,"rental_uris":{"android":"levelo://app?vid=f9418cc9-c64d-43d9-9060-3aeedd69cdee","ios":"levelo://app?vid=f9418cc9-c64d-43d9-9060-3aeedd69cdee"},"vehicle_type_id":"4","last_reported":1758301715,"current_range_meters":10800,"station_id":"","pricing_plan_id":"cebpf4jnsgd1na2vs0mg"},{"bike_id":"3e682cf4-5ea7-4563-9004-71435c031ec4","system_id":"levelo_inurba_marseille","lat":43.21191,"lon":5.35071,"is_reserved":false,"is_disabled":true,"rental_uris":{"android":"levelo://app?vid=3e682cf4-5ea7-4563-9004-71435c031ec4","ios":"levelo://app?vid=3e682cf4-5ea7-4563-9004-71435c031ec4"},"vehicle_type_id":"4","last_reported":1758301715,"current_range_meters":11200,"station_id":"st_cvj6sg6p6f1abm77japg","pricing_plan_id":"cebpf4jnsgd1na2vs0mg"},{"bike_id":"d5928ddf-0267-4868-95a5-2257412c56f7","system_id":"levelo_inurba_marseille","lat":43.28619,"lon":5.35114,"is_reserved":false,"is_disabled":false,"rental_uris":{"android":"levelo://app?vid=d5928ddf-0267-4868-95a5-2257412c56f7","ios":"levelo://app?vid=d5928ddf-0267-4868-95a5-2257412c56f7"},"vehicle_type_id":"4","last_reported":1758301715,"current_range_meters":11200,"station_id":"ce4bhch2rcd13ifvqeug","pricing_plan_id":"cebpf4jnsgd1na2vs0mg"},{"bike_id":"95a62c10-7ca9-4348-809a-c3089ad076d3","system_id":"levelo_inurba_marseille","lat":43.29888,"lon":5.39755,"is_reserved":false,"is_disabled":true,"rental_uris":{"android":"levelo://app?vid=95a62c10-7ca9-4348-809a-c3089ad076d3","ios":"levelo://app?vid=95a62c10-7ca9-4348-809a-c3089ad076d3"},"vehicle_type_id":"4","last_reported":1758301715,"current_range_meters":11200,"station_id":"ce4bh0h2rcd13ifvqd50","pricing_plan_id":"cebpf4jnsgd1na2vs0mg"},{"bike_id":"90794084-226a-4ed7-8f01-741200cd87ec","system_id":"levelo_inurba_marseille","lat":43.31325,"lon":5.39686,"is_reserved":false,"is_disabled":false,"rental_uris":{"android":"levelo://app?vid=90794084-226a-4ed7-8f01-741200cd87ec","ios":"levelo://app?vid=90794084-226a-4ed7-8f01-741200cd87ec"},"vehicle_type_id":"4","last_reported":1758301715,"current_range_meters":11200,"station_id":"ce4bgvp2rcd13ifvqcu0","pricing_plan_id":"cebpf4jnsgd1na2vs0mg"},{"bike_id":"a9307188-08e6-41c4-9234-a03a3fc1ea6b","system_id":"levelo_inurba_marseille","lat":43.31757,"lon":5.39014,"is_reserved":false,"is_disabled":false,"rental_uris":{"android":"levelo://app?vid=a9307188-08e6-41c4-9234-a03a3fc1ea6b","ios":"levelo://app?vid=a9307188-08e6-41c4-9234-a03a3fc1ea6b"},"vehicle_type_id":"4","last_reported":1758301715,"current_range_meters":11200,"station_id":"ce4bhqp2rcd13ifvqhng","pricing_plan_id":"cebpf4jnsgd1na2vs0mg"},{"bike_id":"a57abb0c-b7e7-4658-a27b-06a7024b9845","system_id":"levelo_inurba_marseille","lat":43.29571,"lon":5.37525,"is_reserved":false,"is_disabled":false,"rental_uris":{"android":"levelo://app?vid=a57abb0c-b7e7-4658-a27b-06a7024b9845","ios":"levelo://app?vid=a57abb0c-b7e7-4658-a27b-06a7024b9845"},"vehicle_type_id":"4","last_reported":1758301715,"current_range_meters":11200,"station_id":"ce4bgh92rcd13ifvqb50","pricing_plan_id":"cebpf4jnsgd1na2vs0mg"},{"bike_id":"cc48539f-3363-44f7-9041-3eea5291a9db","system_id":"levelo_inurba_marseille","lat":43.21195,"lon":5.35087,"is_reserved":false,"is_disabled":true,"rental_uris":{"android":"levelo://app?vid=cc48539f-3363-44f7-9041-3eea5291a9db","ios":"levelo://app?vid=cc48539f-3363-44f7-9041-3eea5291a9db"},"vehicle_type_id":"4","last_reported":1758301715,"current_range_meters":11200,"station_id":"st_cvj6sg6p6f1abm77japg","pricing_plan_id":"cebpf4jnsgd1na2vs0mg"},{"bike_id":"fb78ea42-e26f-45b3-a617-d3474b811b72","system_id":"levelo_inurba_marseille","lat":43.29865,"lon":5.37936,"is_reserved":false,"is_disabled":false,"rental_uris":{"android":"levelo://app?vid=fb78ea42-e26f-45b3-a617-d3474b811b72","ios":"levelo://app?vid=fb78ea42-e26f-45b3-a617-d3474b811b72"},"vehicle_type_id":"4","last_reported":1758301715,"current_range_meters":11600,"station_id":"","pricing_plan_id":"cebpf4jnsgd1na2vs0mg"},{"bike_id":"bb0131bb-8e30-427c-b453-ac2ef32d82ca","system_id":"levelo_inurba_marseille","lat":43.31985,"lon":5.38148,"is_reserved":false,"is_disabled":false,"rental_uris":{"android":"levelo://app?vid=bb0131bb-8e30-427c-b453-ac2ef32d82ca","ios":"levelo://app?vid=bb0131bb-8e30-427c-b453-ac2ef32d82ca"},"vehicle_type_id":"4","last_reported":1758301715,"current_range_meters":11600,"station_id":"ce4bhr12rcd13ifvqhpg","pricing_plan_id":"cebpf4jnsgd1na2vs0mg"},{"bike_id":"129693f1-bec1-405c-a566-241911c46a01","system_id":"levelo_inurba_marseille","lat":43.28011,"lon":5.36504,"is_reserved":false,"is_disabled":false,"rental_uris":{"android":"levelo://app?vid=129693f1-bec1-405c-a566-241911c46a01","ios":"levelo://app?vid=129693f1-bec1-405c-a566-241911c46a01"},"vehicle_type_id":"4","last_reported":1758301715,"current_range_meters":11600,"station_id":"","pricing_plan_id":"cebpf4jnsgd1na2vs0mg"},{"bike_id":"a22f8a5a-c9f6-4b73-8b01-88ec1f187c5f","system_id":"levelo_inurba_marseille","lat":43.26911,"lon":5.40283,"is_reserved":false,"is_disabled":false,"rental_uris":{"android":"levelo://app?vid=a22f8a5a-c9f6-4b73-8b01-88ec1f187c5f","ios":"levelo://app?vid=a22f8a5a-c9f6-4b73-8b01-88ec1f187c5f"},"vehicle_type_id":"4","last_reported":1758301715,"current_range_meters":11600,"station_id":"cjm6bp8fraef2m0cb0m0","pricing_plan_id":"cebpf4jnsgd1na2vs0mg"},{"bike_id":"ac6c1af7-c18f-4988-a62b-9f06ef764766","system_id":"levelo_inurba_marseille","lat":43.29581,"lon":5.3674,"is_reserved":false,"is_disabled":false,"rental_uris":{"android":"levelo://app?vid=ac6c1af7-c18f-4988-a62b-9f06ef764766","ios":"levelo://app?vid=ac6c1af7-c18f-4988-a62b-9f06ef764766"},"vehicle_type_id":"4","last_reported":1758301715,"current_range_meters":11600,"station_id":"ce4bgph2rcd13ifvqc2g","pricing_plan_id":"cebpf4jnsgd1na2vs0mg"},{"bike_id":"8f8a4eb0-74e6-41da-be12-b713c52fe6b7","system_id":"levelo_inurba_marseille","lat":43.33612,"lon":5.41057,"is_reserved":false,"is_disabled":false,"rental_uris":{"android":"levelo://app?vid=8f8a4eb0-74e6-41da-be12-b713c52fe6b7","ios":"levelo://app?vid=8f8a4eb0-74e6-41da-be12-b713c52fe6b7"},"vehicle_type_id":"4","last_reported":1758301715,"current_range_meters":11200,"station_id":"ce4bhqh2rcd13ifvqhmg","pricing_plan_id":"cebpf4jnsgd1na2vs0mg"},{"bike_id":"c627b34a-8e81-4438-af3b-4fd0aab1c160","system_id":"levelo_inurba_marseille","lat":43.29607,"lon":5.36052,"is_reserved":false,"is_disabled":false,"rental_uris":{"android":"levelo://app?vid=c627b34a-8e81-4438-af3b-4fd0aab1c160","ios":"levelo://app?vid=c627b34a-8e81-4438-af3b-4fd0aab1c160"},"vehicle_type_id":"4","last_reported":1758301715,"current_range_meters":11600,"station_id":"","pricing_plan_id":"cebpf4jnsgd1na2vs0mg"},{"bike_id":"12c5d186-6f7f-4423-8b85-4cb78407f67f","system_id":"levelo_inurba_marseille","lat":43.28617,"lon":5.35108,"is_reserved":false,"is_disabled":false,"rental_uris":{"android":"levelo://app?vid=12c5d186-6f7f-4423-8b85-4cb78407f67f","ios":"levelo://app?vid=12c5d186-6f7f-4423-8b85-4cb78407f67f"},"vehicle_type_id":"4","last_reported":1758301715,"current_range_meters":11600,"station_id":"ce4bhch2rcd13ifvqeug","pricing_plan_id":"cebpf4jnsgd1na2vs0mg"},{"bike_id":"7ee7ef92-e17d-447f-942d-64e9cb04013c","system_id":"levelo_inurba_marseille","lat":43.30333,"lon":5.40439,"is_reserved":false,"is_disabled":false,"rental_uris":{"android":"levelo://app?vid=7ee7ef92-e17d-447f-942d-64e9cb04013c","ios":"levelo://app?vid=7ee7ef92-e17d-447f-942d-64e9cb04013c"},"vehicle_type_id":"4","last_reported":1758301715,"current_range_meters":11600,"station_id":"ce4bh012rcd13ifvqd10","pricing_plan_id":"cebpf4jnsgd1na2vs0mg"},{"bike_id":"9b9f6315-958e-4e43-8771-5ee5f050185e","system_id":"levelo_inurba_marseille","lat":43.2481,"lon":5.37467,"is_reserved":false,"is_disabled":true,"rental_uris":{"android":"levelo://app?vid=9b9f6315-958e-4e43-8771-5ee5f050185e","ios":"levelo://app?vid=9b9f6315-958e-4e43-8771-5ee5f050185e"},"vehicle_type_id":"4","last_reported":1758301715,"current_range_meters":12000,"station_id":"ce4bhgh2rcd13ifvqfb0","pricing_plan_id":"cebpf4jnsgd1na2vs0mg"},{"bike_id":"571e6442-18e6-4e8b-a036-772cf4d0e6c9","system_id":"levelo_inurba_marseille","lat":43.28157,"lon":5.42636,"is_reserved":false,"is_disabled":false,"rental_uris":{"android":"levelo://app?vid=571e6442-18e6-4e8b-a036-772cf4d0e6c9","ios":"levelo://app?vid=571e6442-18e6-4e8b-a036-772cf4d0e6c9"},"vehicle_type_id":"4","last_reported":1758301715,"current_range_meters":12000,"station_id":"ce4bhnh2rcd13ifvqgug","pricing_plan_id":"cebpf4jnsgd1na2vs0mg"},{"bike_id":"74af45e8-68ad-402d-9309-9c11252e3c46","system_id":"levelo_inurba_marseille","lat":43.2549,"lon":5.37666,"is_reserved":false,"is_disabled":false,"rental_uris":{"android":"levelo://app?vid=74af45e8-68ad-402d-9309-9c11252e3c46","ios":"levelo://app?vid=74af45e8-68ad-402d-9309-9c11252e3c46"},"vehicle_type_id":"4","last_reported":1758301715,"current_range_meters":12000,"station_id":"ce4bhh12rcd13ifvqff0","pricing_plan_id":"cebpf4jnsgd1na2vs0mg"},{"bike_id":"01c7fbb3-8451-4d02-bd30-b662ff500263","system_id":"levelo_inurba_marseille","lat":43.29269,"lon":5.38441,"is_reserved":false,"is_disabled":false,"rental_uris":{"android":"levelo://app?vid=01c7fbb3-8451-4d02-bd30-b662ff500263","ios":"levelo://app?vid=01c7fbb3-8451-4d02-bd30-b662ff500263"},"vehicle_type_id":"4","last_reported":1758301715,"current_range_meters":12000,"station_id":"ce4bh692rcd13ifvqea0","pricing_plan_id":"cebpf4jnsgd1na2vs0mg"},{"bike_id":"0960e3dd-c358-4474-bd10-8223758e1f6b","system_id":"levelo_inurba_marseille","lat":43.296996,"lon":5.376855,"is_reserved":false,"is_disabled":false,"rental_uris":{"android":"levelo://app?vid=0960e3dd-c358-4474-bd10-8223758e1f6b","ios":"levelo://app?vid=0960e3dd-c358-4474-bd10-8223758e1f6b"},"vehicle_type_id":"4","last_reported":1758301715,"current_range_meters":12000,"station_id":"","pricing_plan_id":"cebpf4jnsgd1na2vs0mg"},{"bike_id":"53d8aeb7-c154-485b-b780-264724c0d8bd","system_id":"levelo_inurba_marseille","lat":43.31222,"lon":5.36852,"is_reserved":false,"is_disabled":false,"rental_uris":{"android":"levelo://app?vid=53d8aeb7-c154-485b-b780-264724c0d8bd","ios":"levelo://app?vid=53d8aeb7-c154-485b-b780-264724c0d8bd"},"vehicle_type_id":"4","last_reported":1758301715,"current_range_meters":12000,"station_id":"ce4bgl92rcd13ifvqbq0","pricing_plan_id":"cebpf4jnsgd1na2vs0mg"},{"bike_id":"1f977bff-d1b4-4bf8-9052-7ce7d6469f2f","system_id":"levelo_inurba_marseille","lat":43.29895,"lon":5.43659,"is_reserved":false,"is_disabled":false,"rental_uris":{"android":"levelo://app?vid=1f977bff-d1b4-4bf8-9052-7ce7d6469f2f","ios":"levelo://app?vid=1f977bff-d1b4-4bf8-9052-7ce7d6469f2f"},"vehicle_type_id":"4","last_reported":1758301715,"current_range_meters":12000,"station_id":"ce4bhpp2rcd13ifvqhfg","pricing_plan_id":"cebpf4jnsgd1na2vs0mg"},{"bike_id":"bf6e6d27-c09e-4725-9fbc-20073fd5a515","system_id":"levelo_inurba_marseille","lat":43.289376,"lon":5.396214,"is_reserved":false,"is_disabled":false,"rental_uris":{"android":"levelo://app?vid=bf6e6d27-c09e-4725-9fbc-20073fd5a515","ios":"levelo://app?vid=bf6e6d27-c09e-4725-9fbc-20073fd5a515"},"vehicle_type_id":"4","last_reported":1758301715,"current_range_meters":12400,"station_id":"","pricing_plan_id":"cebpf4jnsgd1na2vs0mg"},{"bike_id":"e029a10d-796e-4cec-a5bd-95bc497bbe3d","system_id":"levelo_inurba_marseille","lat":43.29195,"lon":5.35806,"is_reserved":false,"is_disabled":false,"rental_uris":{"android":"levelo://app?vid=e029a10d-796e-4cec-a5bd-95bc497bbe3d","ios":"levelo://app?vid=e029a10d-796e-4cec-a5bd-95bc497bbe3d"},"vehicle_type_id":"4","last_reported":1758301715,"current_range_meters":12400,"station_id":"ce4bhb12rcd13ifvqel0","pricing_plan_id":"cebpf4jnsgd1na2vs0mg"},{"bike_id":"f74ca075-8096-4dbd-9e83-2a1eeab82d26","system_id":"levelo_inurba_marseille","lat":43.28116,"lon":5.35038,"is_reserved":false,"is_disabled":false,"rental_uris":{"android":"levelo://app?vid=f74ca075-8096-4dbd-9e83-2a1eeab82d26","ios":"levelo://app?vid=f74ca075-8096-4dbd-9e83-2a1eeab82d26"},"vehicle_type_id":"4","last_reported":1758301715,"current_range_meters":12400,"station_id":"","pricing_plan_id":"cebpf4jnsgd1na2vs0mg"},{"bike_id":"6dc49f8f-31b8-485c-b489-e3fd253e6676","system_id":"levelo_inurba_marseille","lat":43.333009,"lon":5.410255,"is_reserved":false,"is_disabled":true,"rental_uris":{"android":"levelo://app?vid=6dc49f8f-31b8-485c-b489-e3fd253e6676","ios":"levelo://app?vid=6dc49f8f-31b8-485c-b489-e3fd253e6676"},"vehicle_type_id":"4","last_reported":1758301715,"current_range_meters":12800,"station_id":"","pricing_plan_id":"cebpf4jnsgd1na2vs0mg"},{"bike_id":"7112c73b-b947-4f86-8adf-6af093747751","system_id":"levelo_inurba_marseille","lat":43.25815,"lon":5.3943,"is_reserved":false,"is_disabled":false,"rental_uris":{"android":"levelo://app?vid=7112c73b-b947-4f86-8adf-6af093747751","ios":"levelo://app?vid=7112c73b-b947-4f86-8adf-6af093747751"},"vehicle_type_id":"4","last_reported":1758301715,"current_range_meters":12400,"station_id":"ce4bhip2rcd13ifvqft0","pricing_plan_id":"cebpf4jnsgd1na2vs0mg"},{"bike_id":"2d451c7b-cc83-474c-b2f4-9e5abfc44532","system_id":"levelo_inurba_marseille","lat":43.28276,"lon":5.35082,"is_reserved":false,"is_disabled":false,"rental_uris":{"android":"levelo://app?vid=2d451c7b-cc83-474c-b2f4-9e5abfc44532","ios":"levelo://app?vid=2d451c7b-cc83-474c-b2f4-9e5abfc44532"},"vehicle_type_id":"4","last_reported":1758301715,"current_range_meters":12800,"station_id":"ce4bhbp2rcd13ifvqerg","pricing_plan_id":"cebpf4jnsgd1na2vs0mg"},{"bike_id":"28cd6176-5fce-489e-a8d4-781d0b69f5d8","system_id":"levelo_inurba_marseille","lat":43.28402,"lon":5.35002,"is_reserved":false,"is_disabled":false,"rental_uris":{"android":"levelo://app?vid=28cd6176-5fce-489e-a8d4-781d0b69f5d8","ios":"levelo://app?vid=28cd6176-5fce-489e-a8d4-781d0b69f5d8"},"vehicle_type_id":"4","last_reported":1758301715,"current_range_meters":12800,"station_id":"ce4bhbh2rcd13ifvqepg","pricing_plan_id":"cebpf4jnsgd1na2vs0mg"},{"bike_id":"4e5c2e97-6c61-4332-9672-f5a53881b0d1","system_id":"levelo_inurba_marseille","lat":43.28469,"lon":5.35901,"is_reserved":false,"is_disabled":false,"rental_uris":{"android":"levelo://app?vid=4e5c2e97-6c61-4332-9672-f5a53881b0d1","ios":"levelo://app?vid=4e5c2e97-6c61-4332-9672-f5a53881b0d1"},"vehicle_type_id":"4","last_reported":1758301715,"current_range_meters":13600,"station_id":"ce4bhah2rcd13ifvqei0","pricing_plan_id":"cebpf4jnsgd1na2vs0mg"},{"bike_id":"931664d9-a1f9-4b23-9426-5b3082bf7d09","system_id":"levelo_inurba_marseille","lat":43.30943,"lon":5.40125,"is_reserved":false,"is_disabled":true,"rental_uris":{"android":"levelo://app?vid=931664d9-a1f9-4b23-9426-5b3082bf7d09","ios":"levelo://app?vid=931664d9-a1f9-4b23-9426-5b3082bf7d09"},"vehicle_type_id":"4","last_reported":1758301715,"current_range_meters":13600,"station_id":"ce4bgvp2rcd13ifvqct0","pricing_plan_id":"cebpf4jnsgd1na2vs0mg"},{"bike_id":"f650b0a3-b3f6-43de-942b-37eeeb269151","system_id":"levelo_inurba_marseille","lat":43.28253,"lon":5.35082,"is_reserved":false,"is_disabled":false,"rental_uris":{"android":"levelo://app?vid=f650b0a3-b3f6-43de-942b-37eeeb269151","ios":"levelo://app?vid=f650b0a3-b3f6-43de-942b-37eeeb269151"},"vehicle_type_id":"4","last_reported":1758301715,"current_range_meters":13600,"station_id":"ce4bhbp2rcd13ifvqerg","pricing_plan_id":"cebpf4jnsgd1na2vs0mg"},{"bike_id":"cf1dedb7-c648-4c8e-b691-317950ec753f","system_id":"levelo_inurba_marseille","lat":43.28681,"lon":5.37939,"is_reserved":false,"is_disabled":false,"rental_uris":{"android":"levelo://app?vid=cf1dedb7-c648-4c8e-b691-317950ec753f","ios":"levelo://app?vid=cf1dedb7-c648-4c8e-b691-317950ec753f"},"vehicle_type_id":"4","last_reported":1758301715,"current_range_meters":13600,"station_id":"ce4bhf92rcd13ifvqf50","pricing_plan_id":"cebpf4jnsgd1na2vs0mg"},{"bike_id":"e0fa618d-316c-40f0-84a4-361066b627a3","system_id":"levelo_inurba_marseille","lat":43.21753,"lon":5.34622,"is_reserved":false,"is_disabled":true,"rental_uris":{"android":"levelo://app?vid=e0fa618d-316c-40f0-84a4-361066b627a3","ios":"levelo://app?vid=e0fa618d-316c-40f0-84a4-361066b627a3"},"vehicle_type_id":"4","last_reported":1758301715,"current_range_meters":13600,"station_id":"st_cvj6r9ubvosntc0bgbag","pricing_plan_id":"cebpf4jnsgd1na2vs0mg"},{"bike_id":"62c315b2-4495-42d9-b7c0-94324f1e3fe9","system_id":"levelo_inurba_marseille","lat":43.28609,"lon":5.35114,"is_reserved":false,"is_disabled":false,"rental_uris":{"android":"levelo://app?vid=62c315b2-4495-42d9-b7c0-94324f1e3fe9","ios":"levelo://app?vid=62c315b2-4495-42d9-b7c0-94324f1e3fe9"},"vehicle_type_id":"4","last_reported":1758301715,"current_range_meters":13600,"station_id":"ce4bhch2rcd13ifvqeug","pricing_plan_id":"cebpf4jnsgd1na2vs0mg"},{"bike_id":"821e29b1-06e2-419f-b08e-f655df701401","system_id":"levelo_inurba_marseille","lat":43.22926,"lon":5.35388,"is_reserved":false,"is_disabled":false,"rental_uris":{"android":"levelo://app?vid=821e29b1-06e2-419f-b08e-f655df701401","ios":"levelo://app?vid=821e29b1-06e2-419f-b08e-f655df701401"},"vehicle_type_id":"4","last_reported":1758301715,"current_range_meters":13600,"station_id":"cpo3532slgdg3j2ikp40","pricing_plan_id":"cebpf4jnsgd1na2vs0mg"},{"bike_id":"67eb8721-b3b8-4086-9ffc-60ca7e1b0555","system_id":"levelo_inurba_marseille","lat":43.284,"lon":5.35011,"is_reserved":false,"is_disabled":false,"rental_uris":{"android":"levelo://app?vid=67eb8721-b3b8-4086-9ffc-60ca7e1b0555","ios":"levelo://app?vid=67eb8721-b3b8-4086-9ffc-60ca7e1b0555"},"vehicle_type_id":"4","last_reported":1758301715,"current_range_meters":13600,"station_id":"ce4bhbh2rcd13ifvqepg","pricing_plan_id":"cebpf4jnsgd1na2vs0mg"},{"bike_id":"13888cd8-8a68-45a1-b300-a9fba833db7a","system_id":"levelo_inurba_marseille","lat":43.32109,"lon":5.36768,"is_reserved":false,"is_disabled":false,"rental_uris":{"android":"levelo://app?vid=13888cd8-8a68-45a1-b300-a9fba833db7a","ios":"levelo://app?vid=13888cd8-8a68-45a1-b300-a9fba833db7a"},"vehicle_type_id":"4","last_reported":1758301715,"current_range_meters":14000,"station_id":"ce4bhrh2rcd13ifvqhug","pricing_plan_id":"cebpf4jnsgd1na2vs0mg"},{"bike_id":"fbf8b3ef-fab4-496b-9171-97052b3bc0bd","system_id":"levelo_inurba_marseille","lat":43.30609,"lon":5.37239,"is_reserved":false,"is_disabled":true,"rental_uris":{"android":"levelo://app?vid=fbf8b3ef-fab4-496b-9171-97052b3bc0bd","ios":"levelo://app?vid=fbf8b3ef-fab4-496b-9171-97052b3bc0bd"},"vehicle_type_id":"4","last_reported":1758301715,"current_range_meters":14000,"station_id":"ce4bgqh2rcd13ifvqc4g","pricing_plan_id":"cebpf4jnsgd1na2vs0mg"},{"bike_id":"dacf9b09-b532-4fb4-96c9-a4098d8c0a27","system_id":"levelo_inurba_marseille","lat":43.28608,"lon":5.35095,"is_reserved":false,"is_disabled":false,"rental_uris":{"android":"levelo://app?vid=dacf9b09-b532-4fb4-96c9-a4098d8c0a27","ios":"levelo://app?vid=dacf9b09-b532-4fb4-96c9-a4098d8c0a27"},"vehicle_type_id":"4","last_reported":1758301715,"current_range_meters":14000,"station_id":"ce4bhch2rcd13ifvqeug","pricing_plan_id":"cebpf4jnsgd1na2vs0mg"},{"bike_id":"66d9527c-7ee1-4ee2-b172-a3410fc70a07","system_id":"levelo_inurba_marseille","lat":43.32366,"lon":5.38888,"is_reserved":false,"is_disabled":false,"rental_uris":{"android":"levelo://app?vid=66d9527c-7ee1-4ee2-b172-a3410fc70a07","ios":"levelo://app?vid=66d9527c-7ee1-4ee2-b172-a3410fc70a07"},"vehicle_type_id":"4","last_reported":1758301715,"current_range_meters":14000,"station_id":"ce4bhqp2rcd13ifvqhog","pricing_plan_id":"cebpf4jnsgd1na2vs0mg"},{"bike_id":"0bf058cc-75c4-4ca5-bc4b-2ad3044cf689","system_id":"levelo_inurba_marseille","lat":43.31325,"lon":5.39704,"is_reserved":false,"is_disabled":false,"rental_uris":{"android":"levelo://app?vid=0bf058cc-75c4-4ca5-bc4b-2ad3044cf689","ios":"levelo://app?vid=0bf058cc-75c4-4ca5-bc4b-2ad3044cf689"},"vehicle_type_id":"4","last_reported":1758301715,"current_range_meters":13600,"station_id":"ce4bgvp2rcd13ifvqcu0","pricing_plan_id":"cebpf4jnsgd1na2vs0mg"},{"bike_id":"b198ff57-a870-4a86-81aa-3be5df89d55a","system_id":"levelo_inurba_marseille","lat":43.292573,"lon":5.384451,"is_reserved":false,"is_disabled":false,"rental_uris":{"android":"levelo://app?vid=b198ff57-a870-4a86-81aa-3be5df89d55a","ios":"levelo://app?vid=b198ff57-a870-4a86-81aa-3be5df89d55a"},"vehicle_type_id":"4","last_reported":1758301715,"current_range_meters":14000,"station_id":"ce4bh692rcd13ifvqea0","pricing_plan_id":"cebpf4jnsgd1na2vs0mg"},{"bike_id":"3f5e9678-cbd7-42e0-a9d9-d6426f396cb1","system_id":"levelo_inurba_marseille","lat":43.28461,"lon":5.35881,"is_reserved":false,"is_disabled":false,"rental_uris":{"android":"levelo://app?vid=3f5e9678-cbd7-42e0-a9d9-d6426f396cb1","ios":"levelo://app?vid=3f5e9678-cbd7-42e0-a9d9-d6426f396cb1"},"vehicle_type_id":"4","last_reported":1758301715,"current_range_meters":14000,"station_id":"ce4bhah2rcd13ifvqei0","pricing_plan_id":"cebpf4jnsgd1na2vs0mg"},{"bike_id":"dcb79984-726f-4706-b875-630e7b9b5b93","system_id":"levelo_inurba_marseille","lat":43.29844,"lon":5.36275,"is_reserved":false,"is_disabled":false,"rental_uris":{"android":"levelo://app?vid=dcb79984-726f-4706-b875-630e7b9b5b93","ios":"levelo://app?vid=dcb79984-726f-4706-b875-630e7b9b5b93"},"vehicle_type_id":"4","last_reported":1758301715,"current_range_meters":14000,"station_id":"ce4bgpp2rcd13ifvqc3g","pricing_plan_id":"cebpf4jnsgd1na2vs0mg"},{"bike_id":"ae82ef14-958e-42fb-9056-adf28084632d","system_id":"levelo_inurba_marseille","lat":43.28408,"lon":5.34981,"is_reserved":false,"is_disabled":false,"rental_uris":{"android":"levelo://app?vid=ae82ef14-958e-42fb-9056-adf28084632d","ios":"levelo://app?vid=ae82ef14-958e-42fb-9056-adf28084632d"},"vehicle_type_id":"4","last_reported":1758301715,"current_range_meters":14000,"station_id":"ce4bhbh2rcd13ifvqepg","pricing_plan_id":"cebpf4jnsgd1na2vs0mg"},{"bike_id":"518eef5b-9e3c-4b06-94a9-56e70af9d262","system_id":"levelo_inurba_marseille","lat":43.30802,"lon":5.38171,"is_reserved":false,"is_disabled":true,"rental_uris":{"android":"levelo://app?vid=518eef5b-9e3c-4b06-94a9-56e70af9d262","ios":"levelo://app?vid=518eef5b-9e3c-4b06-94a9-56e70af9d262"},"vehicle_type_id":"4","last_reported":1758301715,"current_range_meters":14000,"station_id":"ce4bgt12rcd13ifvqce0","pricing_plan_id":"cebpf4jnsgd1na2vs0mg"},{"bike_id":"623e776a-5abc-408b-b6fe-13fb1109bddd","system_id":"levelo_inurba_marseille","lat":43.31883,"lon":5.40737,"is_reserved":false,"is_disabled":false,"rental_uris":{"android":"levelo://app?vid=623e776a-5abc-408b-b6fe-13fb1109bddd","ios":"levelo://app?vid=623e776a-5abc-408b-b6fe-13fb1109bddd"},"vehicle_type_id":"4","last_reported":1758301715,"current_range_meters":14000,"station_id":"ce4bhq12rcd13ifvqhig","pricing_plan_id":"cebpf4jnsgd1na2vs0mg"},{"bike_id":"9c0693b2-33f4-40d9-85fa-754a770a9d54","system_id":"levelo_inurba_marseille","lat":43.295188,"lon":5.390328,"is_reserved":false,"is_disabled":false,"rental_uris":{"android":"levelo://app?vid=9c0693b2-33f4-40d9-85fa-754a770a9d54","ios":"levelo://app?vid=9c0693b2-33f4-40d9-85fa-754a770a9d54"},"vehicle_type_id":"4","last_reported":1758301715,"current_range_meters":14000,"station_id":"ce4bh312rcd13ifvqdj0","pricing_plan_id":"cebpf4jnsgd1na2vs0mg"},{"bike_id":"6f4abdd1-ed87-465b-8cb1-a376621dd617","system_id":"levelo_inurba_marseille","lat":43.28616,"lon":5.35109,"is_reserved":false,"is_disabled":false,"rental_uris":{"android":"levelo://app?vid=6f4abdd1-ed87-465b-8cb1-a376621dd617","ios":"levelo://app?vid=6f4abdd1-ed87-465b-8cb1-a376621dd617"},"vehicle_type_id":"4","last_reported":1758301715,"current_range_meters":14400,"station_id":"ce4bhch2rcd13ifvqeug","pricing_plan_id":"cebpf4jnsgd1na2vs0mg"},{"bike_id":"8567d325-283f-47be-9365-0684ef6b2f04","system_id":"levelo_inurba_marseille","lat":43.24802,"lon":5.37457,"is_reserved":false,"is_disabled":false,"rental_uris":{"android":"levelo://app?vid=8567d325-283f-47be-9365-0684ef6b2f04","ios":"levelo://app?vid=8567d325-283f-47be-9365-0684ef6b2f04"},"vehicle_type_id":"4","last_reported":1758301715,"current_range_meters":14400,"station_id":"ce4bhgh2rcd13ifvqfb0","pricing_plan_id":"cebpf4jnsgd1na2vs0mg"},{"bike_id":"3680e76a-67c3-4e6a-b3f3-0a33dc4c2605","system_id":"levelo_inurba_marseille","lat":43.31219,"lon":5.36857,"is_reserved":false,"is_disabled":false,"rental_uris":{"android":"levelo://app?vid=3680e76a-67c3-4e6a-b3f3-0a33dc4c2605","ios":"levelo://app?vid=3680e76a-67c3-4e6a-b3f3-0a33dc4c2605"},"vehicle_type_id":"4","last_reported":1758301715,"current_range_meters":14000,"station_id":"ce4bgl92rcd13ifvqbq0","pricing_plan_id":"cebpf4jnsgd1na2vs0mg"},{"bike_id":"6325daed-6900-4691-b6f2-13ee37d0fc88","system_id":"levelo_inurba_marseille","lat":43.281062,"lon":5.378389,"is_reserved":false,"is_disabled":false,"rental_uris":{"android":"levelo://app?vid=6325daed-6900-4691-b6f2-13ee37d0fc88","ios":"levelo://app?vid=6325daed-6900-4691-b6f2-13ee37d0fc88"},"vehicle_type_id":"4","last_reported":1758301715,"current_range_meters":14800,"station_id":"ce4bha12rcd13ifvqee0","pricing_plan_id":"cebpf4jnsgd1na2vs0mg"},{"bike_id":"56b408ee-6069-44b0-bef4-8e64a52ce87d","system_id":"levelo_inurba_marseille","lat":43.290078,"lon":5.356247,"is_reserved":false,"is_disabled":false,"rental_uris":{"android":"levelo://app?vid=56b408ee-6069-44b0-bef4-8e64a52ce87d","ios":"levelo://app?vid=56b408ee-6069-44b0-bef4-8e64a52ce87d"},"vehicle_type_id":"4","last_reported":1758301715,"current_range_meters":14800,"station_id":"","pricing_plan_id":"cebpf4jnsgd1na2vs0mg"},{"bike_id":"f85a8c4d-f9d0-4136-9b57-8bfb28db950c","system_id":"levelo_inurba_marseille","lat":43.31894,"lon":5.37427,"is_reserved":false,"is_disabled":false,"rental_uris":{"android":"levelo://app?vid=f85a8c4d-f9d0-4136-9b57-8bfb28db950c","ios":"levelo://app?vid=f85a8c4d-f9d0-4136-9b57-8bfb28db950c"},"vehicle_type_id":"4","last_reported":1758301715,"current_range_meters":14800,"station_id":"","pricing_plan_id":"cebpf4jnsgd1na2vs0mg"},{"bike_id":"438ead59-de14-4fa0-a61d-03a70a4122ae","system_id":"levelo_inurba_marseille","lat":43.97278,"lon":4.89152,"is_reserved":false,"is_disabled":true,"rental_uris":{"android":"levelo://app?vid=438ead59-de14-4fa0-a61d-03a70a4122ae","ios":"levelo://app?vid=438ead59-de14-4fa0-a61d-03a70a4122ae"},"vehicle_type_id":"4","last_reported":1758301715,"current_range_meters":14800,"station_id":"","pricing_plan_id":"cebpf4jnsgd1na2vs0mg"},{"bike_id":"c15809a9-4fc5-4149-93af-d3b9d1877adc","system_id":"levelo_inurba_marseille","lat":43.30645,"lon":5.40101,"is_reserved":false,"is_disabled":false,"rental_uris":{"android":"levelo://app?vid=c15809a9-4fc5-4149-93af-d3b9d1877adc","ios":"levelo://app?vid=c15809a9-4fc5-4149-93af-d3b9d1877adc"},"vehicle_type_id":"4","last_reported":1758301715,"current_range_meters":14800,"station_id":"ce4bh112rcd13ifvqda0","pricing_plan_id":"cebpf4jnsgd1na2vs0mg"},{"bike_id":"95caf8da-ee6e-4225-8a63-0861c2aa3d38","system_id":"levelo_inurba_marseille","lat":43.29271,"lon":5.38442,"is_reserved":false,"is_disabled":false,"rental_uris":{"android":"levelo://app?vid=95caf8da-ee6e-4225-8a63-0861c2aa3d38","ios":"levelo://app?vid=95caf8da-ee6e-4225-8a63-0861c2aa3d38"},"vehicle_type_id":"4","last_reported":1758301715,"current_range_meters":14800,"station_id":"ce4bh692rcd13ifvqea0","pricing_plan_id":"cebpf4jnsgd1na2vs0mg"},{"bike_id":"0e84bab3-811d-41d9-a3ac-b1d35251d7b6","system_id":"levelo_inurba_marseille","lat":43.28401,"lon":5.34993,"is_reserved":false,"is_disabled":false,"rental_uris":{"android":"levelo://app?vid=0e84bab3-811d-41d9-a3ac-b1d35251d7b6","ios":"levelo://app?vid=0e84bab3-811d-41d9-a3ac-b1d35251d7b6"},"vehicle_type_id":"4","last_reported":1758301715,"current_range_meters":15200,"station_id":"ce4bhbh2rcd13ifvqepg","pricing_plan_id":"cebpf4jnsgd1na2vs0mg"},{"bike_id":"48486532-b502-4529-b9ed-c6a3ca9c7feb","system_id":"levelo_inurba_marseille","lat":43.25084,"lon":5.39523,"is_reserved":false,"is_disabled":false,"rental_uris":{"android":"levelo://app?vid=48486532-b502-4529-b9ed-c6a3ca9c7feb","ios":"levelo://app?vid=48486532-b502-4529-b9ed-c6a3ca9c7feb"},"vehicle_type_id":"4","last_reported":1758301715,"current_range_meters":15200,"station_id":"ce4bhm12rcd13ifvqgkg","pricing_plan_id":"cebpf4jnsgd1na2vs0mg"},{"bike_id":"3c70ac7d-f6f1-4b32-a730-a5dfc2e234bf","system_id":"levelo_inurba_marseille","lat":43.29257,"lon":5.37631,"is_reserved":false,"is_disabled":true,"rental_uris":{"android":"levelo://app?vid=3c70ac7d-f6f1-4b32-a730-a5dfc2e234bf","ios":"levelo://app?vid=3c70ac7d-f6f1-4b32-a730-a5dfc2e234bf"},"vehicle_type_id":"4","last_reported":1758301715,"current_range_meters":15200,"station_id":"ce4bgi12rcd13ifvqb80","pricing_plan_id":"cebpf4jnsgd1na2vs0mg"},{"bike_id":"7129e14f-6a98-42e7-ae78-4918cc37b1fd","system_id":"levelo_inurba_marseille","lat":43.24806,"lon":5.37452,"is_reserved":false,"is_disabled":false,"rental_uris":{"android":"levelo://app?vid=7129e14f-6a98-42e7-ae78-4918cc37b1fd","ios":"levelo://app?vid=7129e14f-6a98-42e7-ae78-4918cc37b1fd"},"vehicle_type_id":"4","last_reported":1758301715,"current_range_meters":15200,"station_id":"ce4bhgh2rcd13ifvqfb0","pricing_plan_id":"cebpf4jnsgd1na2vs0mg"},{"bike_id":"5ee5ed8e-e382-49b5-a1cd-4debf6217c67","system_id":"levelo_inurba_marseille","lat":43.28588,"lon":5.35107,"is_reserved":false,"is_disabled":false,"rental_uris":{"android":"levelo://app?vid=5ee5ed8e-e382-49b5-a1cd-4debf6217c67","ios":"levelo://app?vid=5ee5ed8e-e382-49b5-a1cd-4debf6217c67"},"vehicle_type_id":"4","last_reported":1758301715,"current_range_meters":15200,"station_id":"ce4bhch2rcd13ifvqeug","pricing_plan_id":"cebpf4jnsgd1na2vs0mg"},{"bike_id":"dccefeab-758e-4850-a415-f18571ed0a71","system_id":"levelo_inurba_marseille","lat":43.29533,"lon":5.38544,"is_reserved":false,"is_disabled":true,"rental_uris":{"android":"levelo://app?vid=dccefeab-758e-4850-a415-f18571ed0a71","ios":"levelo://app?vid=dccefeab-758e-4850-a415-f18571ed0a71"},"vehicle_type_id":"4","last_reported":1758301715,"current_range_meters":15200,"station_id":"ce4bgih2rcd13ifvqba0","pricing_plan_id":"cebpf4jnsgd1na2vs0mg"},{"bike_id":"c4706891-6ce1-4440-91ff-a3ecf2ff007e","system_id":"levelo_inurba_marseille","lat":43.26374,"lon":5.40075,"is_reserved":false,"is_disabled":false,"rental_uris":{"android":"levelo://app?vid=c4706891-6ce1-4440-91ff-a3ecf2ff007e","ios":"levelo://app?vid=c4706891-6ce1-4440-91ff-a3ecf2ff007e"},"vehicle_type_id":"4","last_reported":1758301715,"current_range_meters":16000,"station_id":"","pricing_plan_id":"cebpf4jnsgd1na2vs0mg"},{"bike_id":"5f036599-0ea6-4cfc-8c8d-c2299ee6f2d8","system_id":"levelo_inurba_marseille","lat":43.29225,"lon":5.36066,"is_reserved":false,"is_disabled":false,"rental_uris":{"android":"levelo://app?vid=5f036599-0ea6-4cfc-8c8d-c2299ee6f2d8","ios":"levelo://app?vid=5f036599-0ea6-4cfc-8c8d-c2299ee6f2d8"},"vehicle_type_id":"4","last_reported":1758301715,"current_range_meters":16000,"station_id":"ce4bhbh2rcd13ifvqeqg","pricing_plan_id":"cebpf4jnsgd1na2vs0mg"},{"bike_id":"4860b39c-6e37-45bf-8b08-aa578ef992ac","system_id":"levelo_inurba_marseille","lat":43.24547,"lon":5.39519,"is_reserved":false,"is_disabled":false,"rental_uris":{"android":"levelo://app?vid=4860b39c-6e37-45bf-8b08-aa578ef992ac","ios":"levelo://app?vid=4860b39c-6e37-45bf-8b08-aa578ef992ac"},"vehicle_type_id":"4","last_reported":1758301715,"current_range_meters":16000,"station_id":"ce4bhlp2rcd13ifvqgjg","pricing_plan_id":"cebpf4jnsgd1na2vs0mg"},{"bike_id":"df0199ee-ab4f-48ab-bbe9-404b970e49dc","system_id":"levelo_inurba_marseille","lat":43.29054,"lon":5.3716,"is_reserved":false,"is_disabled":true,"rental_uris":{"android":"levelo://app?vid=df0199ee-ab4f-48ab-bbe9-404b970e49dc","ios":"levelo://app?vid=df0199ee-ab4f-48ab-bbe9-404b970e49dc"},"vehicle_type_id":"4","last_reported":1758301715,"current_range_meters":16000,"station_id":"ce4bh5p2rcd13ifvqe4g","pricing_plan_id":"cebpf4jnsgd1na2vs0mg"},{"bike_id":"23fac069-01cc-45b6-b24d-e676fd2da16a","system_id":"levelo_inurba_marseille","lat":43.29268,"lon":5.36844,"is_reserved":false,"is_disabled":true,"rental_uris":{"android":"levelo://app?vid=23fac069-01cc-45b6-b24d-e676fd2da16a","ios":"levelo://app?vid=23fac069-01cc-45b6-b24d-e676fd2da16a"},"vehicle_type_id":"4","last_reported":1758301715,"current_range_meters":16000,"station_id":"ce4bhbp2rcd13ifvqesg","pricing_plan_id":"cebpf4jnsgd1na2vs0mg"},{"bike_id":"2499a65f-106c-4cee-823e-c9d939ffbc5f","system_id":"levelo_inurba_marseille","lat":43.311,"lon":5.38591,"is_reserved":false,"is_disabled":false,"rental_uris":{"android":"levelo://app?vid=2499a65f-106c-4cee-823e-c9d939ffbc5f","ios":"levelo://app?vid=2499a65f-106c-4cee-823e-c9d939ffbc5f"},"vehicle_type_id":"4","last_reported":1758301715,"current_range_meters":16000,"station_id":"","pricing_plan_id":"cebpf4jnsgd1na2vs0mg"},{"bike_id":"fa2c03b9-846e-496e-9f57-7843a2d62d38","system_id":"levelo_inurba_marseille","lat":43.292213,"lon":5.360589,"is_reserved":false,"is_disabled":false,"rental_uris":{"android":"levelo://app?vid=fa2c03b9-846e-496e-9f57-7843a2d62d38","ios":"levelo://app?vid=fa2c03b9-846e-496e-9f57-7843a2d62d38"},"vehicle_type_id":"4","last_reported":1758301715,"current_range_meters":16000,"station_id":"ce4bhbh2rcd13ifvqeqg","pricing_plan_id":"cebpf4jnsgd1na2vs0mg"},{"bike_id":"c174ba74-518a-485d-a205-eeb049425957","system_id":"levelo_inurba_marseille","lat":43.28406,"lon":5.34993,"is_reserved":false,"is_disabled":false,"rental_uris":{"android":"levelo://app?vid=c174ba74-518a-485d-a205-eeb049425957","ios":"levelo://app?vid=c174ba74-518a-485d-a205-eeb049425957"},"vehicle_type_id":"4","last_reported":1758301715,"current_range_meters":16400,"station_id":"ce4bhbh2rcd13ifvqepg","pricing_plan_id":"cebpf4jnsgd1na2vs0mg"},{"bike_id":"835975a0-27c7-47e7-bc1c-b8ba0b505127","system_id":"levelo_inurba_marseille","lat":43.32581,"lon":5.378,"is_reserved":false,"is_disabled":false,"rental_uris":{"android":"levelo://app?vid=835975a0-27c7-47e7-bc1c-b8ba0b505127","ios":"levelo://app?vid=835975a0-27c7-47e7-bc1c-b8ba0b505127"},"vehicle_type_id":"4","last_reported":1758301715,"current_range_meters":16400,"station_id":"","pricing_plan_id":"cebpf4jnsgd1na2vs0mg"},{"bike_id":"779955d4-baae-445d-99a4-0f656f9cd5ff","system_id":"levelo_inurba_marseille","lat":43.26557,"lon":5.37284,"is_reserved":false,"is_disabled":false,"rental_uris":{"android":"levelo://app?vid=779955d4-baae-445d-99a4-0f656f9cd5ff","ios":"levelo://app?vid=779955d4-baae-445d-99a4-0f656f9cd5ff"},"vehicle_type_id":"4","last_reported":1758301715,"current_range_meters":16400,"station_id":"ce4bhg12rcd13ifvqf70","pricing_plan_id":"cebpf4jnsgd1na2vs0mg"},{"bike_id":"43d57fd4-047e-4ac8-97e5-ec9b96239472","system_id":"levelo_inurba_marseille","lat":43.32944,"lon":5.39031,"is_reserved":false,"is_disabled":false,"rental_uris":{"android":"levelo://app?vid=43d57fd4-047e-4ac8-97e5-ec9b96239472","ios":"levelo://app?vid=43d57fd4-047e-4ac8-97e5-ec9b96239472"},"vehicle_type_id":"4","last_reported":1758301715,"current_range_meters":16400,"station_id":"","pricing_plan_id":"cebpf4jnsgd1na2vs0mg"},{"bike_id":"6d15127c-e53e-455a-813c-343ca728bcb4","system_id":"levelo_inurba_marseille","lat":43.27815,"lon":5.40714,"is_reserved":false,"is_disabled":false,"rental_uris":{"android":"levelo://app?vid=6d15127c-e53e-455a-813c-343ca728bcb4","ios":"levelo://app?vid=6d15127c-e53e-455a-813c-343ca728bcb4"},"vehicle_type_id":"4","last_reported":1758301715,"current_range_meters":16800,"station_id":"ce4bhnh2rcd13ifvqgtg","pricing_plan_id":"cebpf4jnsgd1na2vs0mg"},{"bike_id":"7f1be994-af2d-4c9a-807a-220e9a43367d","system_id":"levelo_inurba_marseille","lat":43.22927,"lon":5.35364,"is_reserved":false,"is_disabled":false,"rental_uris":{"android":"levelo://app?vid=7f1be994-af2d-4c9a-807a-220e9a43367d","ios":"levelo://app?vid=7f1be994-af2d-4c9a-807a-220e9a43367d"},"vehicle_type_id":"4","last_reported":1758301715,"current_range_meters":16800,"station_id":"cpo3532slgdg3j2ikp40","pricing_plan_id":"cebpf4jnsgd1na2vs0mg"},{"bike_id":"8e86fe12-b2d6-4764-9720-31f5ab462b7b","system_id":"levelo_inurba_marseille","lat":43.22566,"lon":5.41612,"is_reserved":false,"is_disabled":false,"rental_uris":{"android":"levelo://app?vid=8e86fe12-b2d6-4764-9720-31f5ab462b7b","ios":"levelo://app?vid=8e86fe12-b2d6-4764-9720-31f5ab462b7b"},"vehicle_type_id":"4","last_reported":1758301715,"current_range_meters":16800,"station_id":"st_d2o4gvlbi1j2169b742g","pricing_plan_id":"cebpf4jnsgd1na2vs0mg"},{"bike_id":"15056272-9948-4fb8-8a3f-0dce85d9f376","system_id":"levelo_inurba_marseille","lat":43.27825,"lon":5.39199,"is_reserved":false,"is_disabled":true,"rental_uris":{"android":"levelo://app?vid=15056272-9948-4fb8-8a3f-0dce85d9f376","ios":"levelo://app?vid=15056272-9948-4fb8-8a3f-0dce85d9f376"},"vehicle_type_id":"4","last_reported":1758301715,"current_range_meters":16800,"station_id":"ce4bhjp2rcd13ifvqga0","pricing_plan_id":"cebpf4jnsgd1na2vs0mg"},{"bike_id":"a1a12c71-6d96-4648-a25f-8df642a6dc66","system_id":"levelo_inurba_marseille","lat":43.2848,"lon":5.38434,"is_reserved":false,"is_disabled":true,"rental_uris":{"android":"levelo://app?vid=a1a12c71-6d96-4648-a25f-8df642a6dc66","ios":"levelo://app?vid=a1a12c71-6d96-4648-a25f-8df642a6dc66"},"vehicle_type_id":"4","last_reported":1758301715,"current_range_meters":16800,"station_id":"ce4bh512rcd13ifvqe3g","pricing_plan_id":"cebpf4jnsgd1na2vs0mg"},{"bike_id":"46bb0d16-d452-4e67-8ebb-7c6f5e89c56e","system_id":"levelo_inurba_marseille","lat":43.28277,"lon":5.35093,"is_reserved":false,"is_disabled":false,"rental_uris":{"android":"levelo://app?vid=46bb0d16-d452-4e67-8ebb-7c6f5e89c56e","ios":"levelo://app?vid=46bb0d16-d452-4e67-8ebb-7c6f5e89c56e"},"vehicle_type_id":"4","last_reported":1758301715,"current_range_meters":16800,"station_id":"ce4bhbp2rcd13ifvqerg","pricing_plan_id":"cebpf4jnsgd1na2vs0mg"},{"bike_id":"30279a9d-e63a-446d-b6bf-61f4c5913911","system_id":"levelo_inurba_marseille","lat":43.28411,"lon":5.34991,"is_reserved":false,"is_disabled":false,"rental_uris":{"android":"levelo://app?vid=30279a9d-e63a-446d-b6bf-61f4c5913911","ios":"levelo://app?vid=30279a9d-e63a-446d-b6bf-61f4c5913911"},"vehicle_type_id":"4","last_reported":1758301715,"current_range_meters":16800,"station_id":"ce4bhbh2rcd13ifvqepg","pricing_plan_id":"cebpf4jnsgd1na2vs0mg"},{"bike_id":"8f9762b1-cc38-49da-ac46-8794714deb2d","system_id":"levelo_inurba_marseille","lat":43.292266,"lon":5.359061,"is_reserved":false,"is_disabled":false,"rental_uris":{"android":"levelo://app?vid=8f9762b1-cc38-49da-ac46-8794714deb2d","ios":"levelo://app?vid=8f9762b1-cc38-49da-ac46-8794714deb2d"},"vehicle_type_id":"4","last_reported":1758301715,"current_range_meters":16800,"station_id":"ce4bhb12rcd13ifvqel0","pricing_plan_id":"cebpf4jnsgd1na2vs0mg"},{"bike_id":"19613896-b63a-44bc-92e8-994deaddf924","system_id":"levelo_inurba_marseille","lat":43.225701,"lon":5.416236,"is_reserved":false,"is_disabled":false,"rental_uris":{"android":"levelo://app?vid=19613896-b63a-44bc-92e8-994deaddf924","ios":"levelo://app?vid=19613896-b63a-44bc-92e8-994deaddf924"},"vehicle_type_id":"4","last_reported":1758301715,"current_range_meters":16800,"station_id":"st_d2o4gvlbi1j2169b742g","pricing_plan_id":"cebpf4jnsgd1na2vs0mg"},{"bike_id":"8294b693-0625-44f5-a6ee-ffe1a8baac85","system_id":"levelo_inurba_marseille","lat":43.28408,"lon":5.34992,"is_reserved":false,"is_disabled":false,"rental_uris":{"android":"levelo://app?vid=8294b693-0625-44f5-a6ee-ffe1a8baac85","ios":"levelo://app?vid=8294b693-0625-44f5-a6ee-ffe1a8baac85"},"vehicle_type_id":"4","last_reported":1758301715,"current_range_meters":17200,"station_id":"ce4bhbh2rcd13ifvqepg","pricing_plan_id":"cebpf4jnsgd1na2vs0mg"},{"bike_id":"4cf188d6-0585-499b-bb80-a7410dfe90e8","system_id":"levelo_inurba_marseille","lat":43.32288,"lon":5.38267,"is_reserved":false,"is_disabled":false,"rental_uris":{"android":"levelo://app?vid=4cf188d6-0585-499b-bb80-a7410dfe90e8","ios":"levelo://app?vid=4cf188d6-0585-499b-bb80-a7410dfe90e8"},"vehicle_type_id":"4","last_reported":1758301715,"current_range_meters":17200,"station_id":"ce4bhr12rcd13ifvqhqg","pricing_plan_id":"cebpf4jnsgd1na2vs0mg"},{"bike_id":"af0490b6-c1c9-4895-8a15-568d23e0a730","system_id":"levelo_inurba_marseille","lat":43.28077,"lon":5.40768,"is_reserved":false,"is_disabled":false,"rental_uris":{"android":"levelo://app?vid=af0490b6-c1c9-4895-8a15-568d23e0a730","ios":"levelo://app?vid=af0490b6-c1c9-4895-8a15-568d23e0a730"},"vehicle_type_id":"4","last_reported":1758301715,"current_range_meters":17200,"station_id":"","pricing_plan_id":"cebpf4jnsgd1na2vs0mg"},{"bike_id":"287c6a61-ec62-4484-8205-963a3ae55804","system_id":"levelo_inurba_marseille","lat":43.27949,"lon":5.41043,"is_reserved":false,"is_disabled":false,"rental_uris":{"android":"levelo://app?vid=287c6a61-ec62-4484-8205-963a3ae55804","ios":"levelo://app?vid=287c6a61-ec62-4484-8205-963a3ae55804"},"vehicle_type_id":"4","last_reported":1758301715,"current_range_meters":17200,"station_id":"ce4bhnp2rcd13ifvqh0g","pricing_plan_id":"cebpf4jnsgd1na2vs0mg"},{"bike_id":"1857824f-03de-48d9-b945-041a6b42c433","system_id":"levelo_inurba_marseille","lat":43.28698,"lon":5.373831,"is_reserved":false,"is_disabled":false,"rental_uris":{"android":"levelo://app?vid=1857824f-03de-48d9-b945-041a6b42c433","ios":"levelo://app?vid=1857824f-03de-48d9-b945-041a6b42c433"},"vehicle_type_id":"4","last_reported":1758301715,"current_range_meters":12800,"station_id":"ce4bh3p2rcd13ifvqdq0","pricing_plan_id":"cebpf4jnsgd1na2vs0mg"},{"bike_id":"de23f2a2-fd73-4652-a94a-28ffed57e47f","system_id":"levelo_inurba_marseille","lat":43.28262,"lon":5.35084,"is_reserved":false,"is_disabled":false,"rental_uris":{"android":"levelo://app?vid=de23f2a2-fd73-4652-a94a-28ffed57e47f","ios":"levelo://app?vid=de23f2a2-fd73-4652-a94a-28ffed57e47f"},"vehicle_type_id":"4","last_reported":1758301715,"current_range_meters":17200,"station_id":"ce4bhbp2rcd13ifvqerg","pricing_plan_id":"cebpf4jnsgd1na2vs0mg"},{"bike_id":"b90b86ea-a3a9-4e90-be97-d17f2f3a9a7c","system_id":"levelo_inurba_marseille","lat":43.26562,"lon":5.37286,"is_reserved":false,"is_disabled":false,"rental_uris":{"android":"levelo://app?vid=b90b86ea-a3a9-4e90-be97-d17f2f3a9a7c","ios":"levelo://app?vid=b90b86ea-a3a9-4e90-be97-d17f2f3a9a7c"},"vehicle_type_id":"4","last_reported":1758301715,"current_range_meters":17200,"station_id":"ce4bhg12rcd13ifvqf70","pricing_plan_id":"cebpf4jnsgd1na2vs0mg"},{"bike_id":"92fcd53f-6854-4cc0-8454-b3a9b71f0daa","system_id":"levelo_inurba_marseille","lat":43.28424,"lon":5.34985,"is_reserved":false,"is_disabled":false,"rental_uris":{"android":"levelo://app?vid=92fcd53f-6854-4cc0-8454-b3a9b71f0daa","ios":"levelo://app?vid=92fcd53f-6854-4cc0-8454-b3a9b71f0daa"},"vehicle_type_id":"4","last_reported":1758301715,"current_range_meters":17200,"station_id":"ce4bhbh2rcd13ifvqepg","pricing_plan_id":"cebpf4jnsgd1na2vs0mg"},{"bike_id":"05ca0aa0-5596-4971-a0c3-94e65df6bd50","system_id":"levelo_inurba_marseille","lat":43.225536,"lon":5.416359,"is_reserved":false,"is_disabled":false,"rental_uris":{"android":"levelo://app?vid=05ca0aa0-5596-4971-a0c3-94e65df6bd50","ios":"levelo://app?vid=05ca0aa0-5596-4971-a0c3-94e65df6bd50"},"vehicle_type_id":"4","last_reported":1758301715,"current_range_meters":17200,"station_id":"st_d2o4gvlbi1j2169b742g","pricing_plan_id":"cebpf4jnsgd1na2vs0mg"},{"bike_id":"ac0467b9-9f22-4187-b484-50de3ac635c3","system_id":"levelo_inurba_marseille","lat":43.2841,"lon":5.34977,"is_reserved":false,"is_disabled":false,"rental_uris":{"android":"levelo://app?vid=ac0467b9-9f22-4187-b484-50de3ac635c3","ios":"levelo://app?vid=ac0467b9-9f22-4187-b484-50de3ac635c3"},"vehicle_type_id":"4","last_reported":1758301715,"current_range_meters":17600,"station_id":"ce4bhbh2rcd13ifvqepg","pricing_plan_id":"cebpf4jnsgd1na2vs0mg"},{"bike_id":"b810ec46-97ab-4356-95f9-0c9d02506d5a","system_id":"levelo_inurba_marseille","lat":43.24458,"lon":5.39039,"is_reserved":false,"is_disabled":false,"rental_uris":{"android":"levelo://app?vid=b810ec46-97ab-4356-95f9-0c9d02506d5a","ios":"levelo://app?vid=b810ec46-97ab-4356-95f9-0c9d02506d5a"},"vehicle_type_id":"4","last_reported":1758301715,"current_range_meters":17600,"station_id":"","pricing_plan_id":"cebpf4jnsgd1na2vs0mg"},{"bike_id":"03e91732-4aa3-409c-921d-e4f1f3b21b97","system_id":"levelo_inurba_marseille","lat":43.26214,"lon":5.37435,"is_reserved":false,"is_disabled":false,"rental_uris":{"android":"levelo://app?vid=03e91732-4aa3-409c-921d-e4f1f3b21b97","ios":"levelo://app?vid=03e91732-4aa3-409c-921d-e4f1f3b21b97"},"vehicle_type_id":"4","last_reported":1758301715,"current_range_meters":17600,"station_id":"ce4bhgp2rcd13ifvqfc0","pricing_plan_id":"cebpf4jnsgd1na2vs0mg"},{"bike_id":"ff011ae3-40bf-49bf-bb58-0c107948f725","system_id":"levelo_inurba_marseille","lat":43.30538,"lon":5.38432,"is_reserved":false,"is_disabled":false,"rental_uris":{"android":"levelo://app?vid=ff011ae3-40bf-49bf-bb58-0c107948f725","ios":"levelo://app?vid=ff011ae3-40bf-49bf-bb58-0c107948f725"},"vehicle_type_id":"4","last_reported":1758301715,"current_range_meters":17200,"station_id":"ce4bgg92rcd13ifvqb30","pricing_plan_id":"cebpf4jnsgd1na2vs0mg"},{"bike_id":"13eb3edd-9f60-4741-ac45-2e7c3cc7d73c","system_id":"levelo_inurba_marseille","lat":43.28412,"lon":5.34976,"is_reserved":false,"is_disabled":false,"rental_uris":{"android":"levelo://app?vid=13eb3edd-9f60-4741-ac45-2e7c3cc7d73c","ios":"levelo://app?vid=13eb3edd-9f60-4741-ac45-2e7c3cc7d73c"},"vehicle_type_id":"4","last_reported":1758301715,"current_range_meters":17600,"station_id":"ce4bhbh2rcd13ifvqepg","pricing_plan_id":"cebpf4jnsgd1na2vs0mg"},{"bike_id":"55d1bc08-fd54-4a82-afc7-2adcaa7b1c4e","system_id":"levelo_inurba_marseille","lat":43.30046,"lon":5.37679,"is_reserved":false,"is_disabled":false,"rental_uris":{"android":"levelo://app?vid=55d1bc08-fd54-4a82-afc7-2adcaa7b1c4e","ios":"levelo://app?vid=55d1bc08-fd54-4a82-afc7-2adcaa7b1c4e"},"vehicle_type_id":"4","last_reported":1758301715,"current_range_meters":17600,"station_id":"","pricing_plan_id":"cebpf4jnsgd1na2vs0mg"},{"bike_id":"d7945e70-ece6-4fe0-a8e1-548401d1cd70","system_id":"levelo_inurba_marseille","lat":43.29003,"lon":5.35614,"is_reserved":false,"is_disabled":false,"rental_uris":{"android":"levelo://app?vid=d7945e70-ece6-4fe0-a8e1-548401d1cd70","ios":"levelo://app?vid=d7945e70-ece6-4fe0-a8e1-548401d1cd70"},"vehicle_type_id":"4","last_reported":1758301715,"current_range_meters":17600,"station_id":"ce4bhb92rcd13ifvqen0","pricing_plan_id":"cebpf4jnsgd1na2vs0mg"},{"bike_id":"cddee078-3b31-4c10-a6ed-97ab38be1d2f","system_id":"levelo_inurba_marseille","lat":43.31268,"lon":5.40169,"is_reserved":false,"is_disabled":false,"rental_uris":{"android":"levelo://app?vid=cddee078-3b31-4c10-a6ed-97ab38be1d2f","ios":"levelo://app?vid=cddee078-3b31-4c10-a6ed-97ab38be1d2f"},"vehicle_type_id":"4","last_reported":1758301715,"current_range_meters":17600,"station_id":"ce4bh092rcd13ifvqd30","pricing_plan_id":"cebpf4jnsgd1na2vs0mg"},{"bike_id":"94896ce6-a8f3-4f60-94bf-937685822da7","system_id":"levelo_inurba_marseille","lat":43.30799,"lon":5.38161,"is_reserved":false,"is_disabled":false,"rental_uris":{"android":"levelo://app?vid=94896ce6-a8f3-4f60-94bf-937685822da7","ios":"levelo://app?vid=94896ce6-a8f3-4f60-94bf-937685822da7"},"vehicle_type_id":"4","last_reported":1758301715,"current_range_meters":17600,"station_id":"ce4bgt12rcd13ifvqce0","pricing_plan_id":"cebpf4jnsgd1na2vs0mg"},{"bike_id":"0f7caa9f-1d1a-40d7-9b4a-2f8720e63681","system_id":"levelo_inurba_marseille","lat":43.30862,"lon":5.37468,"is_reserved":false,"is_disabled":false,"rental_uris":{"android":"levelo://app?vid=0f7caa9f-1d1a-40d7-9b4a-2f8720e63681","ios":"levelo://app?vid=0f7caa9f-1d1a-40d7-9b4a-2f8720e63681"},"vehicle_type_id":"4","last_reported":1758301715,"current_range_meters":18000,"station_id":"","pricing_plan_id":"cebpf4jnsgd1na2vs0mg"},{"bike_id":"2c734c36-442f-468e-ab47-e34ad5183e32","system_id":"levelo_inurba_marseille","lat":43.25772,"lon":5.41047,"is_reserved":false,"is_disabled":false,"rental_uris":{"android":"levelo://app?vid=2c734c36-442f-468e-ab47-e34ad5183e32","ios":"levelo://app?vid=2c734c36-442f-468e-ab47-e34ad5183e32"},"vehicle_type_id":"4","last_reported":1758301715,"current_range_meters":18000,"station_id":"","pricing_plan_id":"cebpf4jnsgd1na2vs0mg"},{"bike_id":"26f83013-c327-47de-8bd6-85c8e5d98e4b","system_id":"levelo_inurba_marseille","lat":43.24176,"lon":5.36367,"is_reserved":false,"is_disabled":false,"rental_uris":{"android":"levelo://app?vid=26f83013-c327-47de-8bd6-85c8e5d98e4b","ios":"levelo://app?vid=26f83013-c327-47de-8bd6-85c8e5d98e4b"},"vehicle_type_id":"4","last_reported":1758301715,"current_range_meters":18000,"station_id":"cpo36qri1sfpv3e86is0","pricing_plan_id":"cebpf4jnsgd1na2vs0mg"},{"bike_id":"b69bbe84-777a-467d-b4a4-986b2749a519","system_id":"levelo_inurba_marseille","lat":43.255,"lon":5.37655,"is_reserved":false,"is_disabled":false,"rental_uris":{"android":"levelo://app?vid=b69bbe84-777a-467d-b4a4-986b2749a519","ios":"levelo://app?vid=b69bbe84-777a-467d-b4a4-986b2749a519"},"vehicle_type_id":"4","last_reported":1758301715,"current_range_meters":17600,"station_id":"ce4bhh12rcd13ifvqff0","pricing_plan_id":"cebpf4jnsgd1na2vs0mg"},{"bike_id":"74be8966-8d9f-4462-a6ee-04df0145586d","system_id":"levelo_inurba_marseille","lat":43.292575,"lon":5.409165,"is_reserved":false,"is_disabled":true,"rental_uris":{"android":"levelo://app?vid=74be8966-8d9f-4462-a6ee-04df0145586d","ios":"levelo://app?vid=74be8966-8d9f-4462-a6ee-04df0145586d"},"vehicle_type_id":"4","last_reported":1758301715,"current_range_meters":18000,"station_id":"ce4bh192rcd13ifvqdc0","pricing_plan_id":"cebpf4jnsgd1na2vs0mg"},{"bike_id":"a07a513e-e5a9-4481-8592-d991379bc662","system_id":"levelo_inurba_marseille","lat":43.337536,"lon":5.374536,"is_reserved":false,"is_disabled":false,"rental_uris":{"android":"levelo://app?vid=a07a513e-e5a9-4481-8592-d991379bc662","ios":"levelo://app?vid=a07a513e-e5a9-4481-8592-d991379bc662"},"vehicle_type_id":"4","last_reported":1758301715,"current_range_meters":18000,"station_id":"","pricing_plan_id":"cebpf4jnsgd1na2vs0mg"},{"bike_id":"2a00cb84-e9e6-4781-804d-0494d7480777","system_id":"levelo_inurba_marseille","lat":43.22564,"lon":5.4166,"is_reserved":false,"is_disabled":false,"rental_uris":{"android":"levelo://app?vid=2a00cb84-e9e6-4781-804d-0494d7480777","ios":"levelo://app?vid=2a00cb84-e9e6-4781-804d-0494d7480777"},"vehicle_type_id":"4","last_reported":1758301715,"current_range_meters":18800,"station_id":"st_d2o4gvlbi1j2169b742g","pricing_plan_id":"cebpf4jnsgd1na2vs0mg"},{"bike_id":"66c4d5ed-337d-4f95-8a7e-c666c66c4e48","system_id":"levelo_inurba_marseille","lat":43.28466,"lon":5.35894,"is_reserved":false,"is_disabled":false,"rental_uris":{"android":"levelo://app?vid=66c4d5ed-337d-4f95-8a7e-c666c66c4e48","ios":"levelo://app?vid=66c4d5ed-337d-4f95-8a7e-c666c66c4e48"},"vehicle_type_id":"4","last_reported":1758301715,"current_range_meters":18800,"station_id":"ce4bhah2rcd13ifvqei0","pricing_plan_id":"cebpf4jnsgd1na2vs0mg"},{"bike_id":"5e7fcc58-5f11-432b-a9fc-8e5c78954dff","system_id":"levelo_inurba_marseille","lat":43.28611,"lon":5.37051,"is_reserved":false,"is_disabled":false,"rental_uris":{"android":"levelo://app?vid=5e7fcc58-5f11-432b-a9fc-8e5c78954dff","ios":"levelo://app?vid=5e7fcc58-5f11-432b-a9fc-8e5c78954dff"},"vehicle_type_id":"4","last_reported":1758301715,"current_range_meters":18800,"station_id":"ce4bht12rcd13ifvqi60","pricing_plan_id":"cebpf4jnsgd1na2vs0mg"},{"bike_id":"68adab37-f5ad-4072-b58a-fe6c68285ca6","system_id":"levelo_inurba_marseille","lat":43.30611,"lon":5.37619,"is_reserved":false,"is_disabled":false,"rental_uris":{"android":"levelo://app?vid=68adab37-f5ad-4072-b58a-fe6c68285ca6","ios":"levelo://app?vid=68adab37-f5ad-4072-b58a-fe6c68285ca6"},"vehicle_type_id":"4","last_reported":1758301715,"current_range_meters":18800,"station_id":"","pricing_plan_id":"cebpf4jnsgd1na2vs0mg"},{"bike_id":"d24242de-80a2-483e-b5e3-41c0b92867d5","system_id":"levelo_inurba_marseille","lat":43.31282,"lon":5.40174,"is_reserved":false,"is_disabled":false,"rental_uris":{"android":"levelo://app?vid=d24242de-80a2-483e-b5e3-41c0b92867d5","ios":"levelo://app?vid=d24242de-80a2-483e-b5e3-41c0b92867d5"},"vehicle_type_id":"4","last_reported":1758301715,"current_range_meters":18800,"station_id":"ce4bh092rcd13ifvqd30","pricing_plan_id":"cebpf4jnsgd1na2vs0mg"},{"bike_id":"265cc709-b5d8-43c4-8b80-c8875a797910","system_id":"levelo_inurba_marseille","lat":43.28605,"lon":5.37063,"is_reserved":false,"is_disabled":false,"rental_uris":{"android":"levelo://app?vid=265cc709-b5d8-43c4-8b80-c8875a797910","ios":"levelo://app?vid=265cc709-b5d8-43c4-8b80-c8875a797910"},"vehicle_type_id":"4","last_reported":1758301715,"current_range_meters":18800,"station_id":"ce4bht12rcd13ifvqi60","pricing_plan_id":"cebpf4jnsgd1na2vs0mg"},{"bike_id":"53866ee8-821f-4847-bc01-487362d4f374","system_id":"levelo_inurba_marseille","lat":43.3172,"lon":5.424044,"is_reserved":false,"is_disabled":false,"rental_uris":{"android":"levelo://app?vid=53866ee8-821f-4847-bc01-487362d4f374","ios":"levelo://app?vid=53866ee8-821f-4847-bc01-487362d4f374"},"vehicle_type_id":"4","last_reported":1758301715,"current_range_meters":18800,"station_id":"ce4bhp92rcd13ifvqhbg","pricing_plan_id":"cebpf4jnsgd1na2vs0mg"},{"bike_id":"8e047761-4cb2-4fa7-920f-ce3feb6390f9","system_id":"levelo_inurba_marseille","lat":43.33755,"lon":5.37459,"is_reserved":false,"is_disabled":false,"rental_uris":{"android":"levelo://app?vid=8e047761-4cb2-4fa7-920f-ce3feb6390f9","ios":"levelo://app?vid=8e047761-4cb2-4fa7-920f-ce3feb6390f9"},"vehicle_type_id":"4","last_reported":1758301715,"current_range_meters":18800,"station_id":"","pricing_plan_id":"cebpf4jnsgd1na2vs0mg"},{"bike_id":"7a444129-4caf-43b7-a696-0a7339b91cbb","system_id":"levelo_inurba_marseille","lat":43.29516,"lon":5.394,"is_reserved":false,"is_disabled":false,"rental_uris":{"android":"levelo://app?vid=7a444129-4caf-43b7-a696-0a7339b91cbb","ios":"levelo://app?vid=7a444129-4caf-43b7-a696-0a7339b91cbb"},"vehicle_type_id":"4","last_reported":1758301715,"current_range_meters":18000,"station_id":"ce4bh292rcd13ifvqdf0","pricing_plan_id":"cebpf4jnsgd1na2vs0mg"},{"bike_id":"d81cb199-6aa4-4ec5-a734-70d2768727a7","system_id":"levelo_inurba_marseille","lat":43.24682,"lon":5.38143,"is_reserved":false,"is_disabled":false,"rental_uris":{"android":"levelo://app?vid=d81cb199-6aa4-4ec5-a734-70d2768727a7","ios":"levelo://app?vid=d81cb199-6aa4-4ec5-a734-70d2768727a7"},"vehicle_type_id":"4","last_reported":1758301715,"current_range_meters":19200,"station_id":"ce4bhih2rcd13ifvqfr0","pricing_plan_id":"cebpf4jnsgd1na2vs0mg"},{"bike_id":"68f2cf90-3cb9-4184-918a-827fd5f52c0e","system_id":"levelo_inurba_marseille","lat":43.26225,"lon":5.37441,"is_reserved":false,"is_disabled":false,"rental_uris":{"android":"levelo://app?vid=68f2cf90-3cb9-4184-918a-827fd5f52c0e","ios":"levelo://app?vid=68f2cf90-3cb9-4184-918a-827fd5f52c0e"},"vehicle_type_id":"4","last_reported":1758301715,"current_range_meters":19600,"station_id":"","pricing_plan_id":"cebpf4jnsgd1na2vs0mg"},{"bike_id":"709dd35a-dba5-4fac-a553-00ebbadf0305","system_id":"levelo_inurba_marseille","lat":43.2793,"lon":5.41047,"is_reserved":false,"is_disabled":false,"rental_uris":{"android":"levelo://app?vid=709dd35a-dba5-4fac-a553-00ebbadf0305","ios":"levelo://app?vid=709dd35a-dba5-4fac-a553-00ebbadf0305"},"vehicle_type_id":"4","last_reported":1758301715,"current_range_meters":19600,"station_id":"ce4bhnp2rcd13ifvqh0g","pricing_plan_id":"cebpf4jnsgd1na2vs0mg"},{"bike_id":"8789747d-bc1b-4358-ac4e-dd51cff8e447","system_id":"levelo_inurba_marseille","lat":43.28406,"lon":5.3498,"is_reserved":false,"is_disabled":false,"rental_uris":{"android":"levelo://app?vid=8789747d-bc1b-4358-ac4e-dd51cff8e447","ios":"levelo://app?vid=8789747d-bc1b-4358-ac4e-dd51cff8e447"},"vehicle_type_id":"4","last_reported":1758301715,"current_range_meters":19600,"station_id":"ce4bhbh2rcd13ifvqepg","pricing_plan_id":"cebpf4jnsgd1na2vs0mg"},{"bike_id":"ae55f115-8814-48d8-bf18-ccc9b50e2a1b","system_id":"levelo_inurba_marseille","lat":43.2928,"lon":5.37459,"is_reserved":false,"is_disabled":false,"rental_uris":{"android":"levelo://app?vid=ae55f115-8814-48d8-bf18-ccc9b50e2a1b","ios":"levelo://app?vid=ae55f115-8814-48d8-bf18-ccc9b50e2a1b"},"vehicle_type_id":"4","last_reported":1758301715,"current_range_meters":19200,"station_id":"ce4bgi12rcd13ifvqb70","pricing_plan_id":"cebpf4jnsgd1na2vs0mg"},{"bike_id":"cf40cc32-2479-42bc-929b-de58dde51a28","system_id":"levelo_inurba_marseille","lat":43.29303,"lon":5.37451,"is_reserved":false,"is_disabled":false,"rental_uris":{"android":"levelo://app?vid=cf40cc32-2479-42bc-929b-de58dde51a28","ios":"levelo://app?vid=cf40cc32-2479-42bc-929b-de58dde51a28"},"vehicle_type_id":"4","last_reported":1758301715,"current_range_meters":20000,"station_id":"ce4bgi12rcd13ifvqb70","pricing_plan_id":"cebpf4jnsgd1na2vs0mg"},{"bike_id":"97514a44-1f4d-4ae1-a270-04ca7b75c621","system_id":"levelo_inurba_marseille","lat":43.28859,"lon":5.42529,"is_reserved":false,"is_disabled":false,"rental_uris":{"android":"levelo://app?vid=97514a44-1f4d-4ae1-a270-04ca7b75c621","ios":"levelo://app?vid=97514a44-1f4d-4ae1-a270-04ca7b75c621"},"vehicle_type_id":"4","last_reported":1758301715,"current_range_meters":20000,"station_id":"","pricing_plan_id":"cebpf4jnsgd1na2vs0mg"},{"bike_id":"350ecd1e-d3c9-4d77-b370-39417df324b3","system_id":"levelo_inurba_marseille","lat":43.29008,"lon":5.38114,"is_reserved":false,"is_disabled":true,"rental_uris":{"android":"levelo://app?vid=350ecd1e-d3c9-4d77-b370-39417df324b3","ios":"levelo://app?vid=350ecd1e-d3c9-4d77-b370-39417df324b3"},"vehicle_type_id":"4","last_reported":1758301715,"current_range_meters":20000,"station_id":"ce4bh4p2rcd13ifvqe1g","pricing_plan_id":"cebpf4jnsgd1na2vs0mg"},{"bike_id":"b8af4056-fb36-4e39-a4f0-5cd179383459","system_id":"levelo_inurba_marseille","lat":43.32918,"lon":5.38949,"is_reserved":false,"is_disabled":false,"rental_uris":{"android":"levelo://app?vid=b8af4056-fb36-4e39-a4f0-5cd179383459","ios":"levelo://app?vid=b8af4056-fb36-4e39-a4f0-5cd179383459"},