{"last_updated":1743783100,"ttl":60,"version":"2.2","data":{"bikes":[{"bike_id":"4466ce54-2b21-4727-a476-b1a378127f60","system_id":"levelo_inurba_marseille","lat":43.31763,"lon":5.39022,"is_reserved":false,"is_disabled":false,"rental_uris":{"android":"levelo://app?vid=4466ce54-2b21-4727-a476-b1a378127f60","ios":"levelo://app?vid=4466ce54-2b21-4727-a476-b1a378127f60"},"vehicle_type_id":"4","last_reported":1743783101,"current_range_meters":2800,"station_id":"ce4bhqp2rcd13ifvqhng","pricing_plan_id":"cebpf4jnsgd1na2vs0mg"},{"bike_id":"79ba0377-09fc-4797-9496-3d4ce23c15e2","system_id":"levelo_inurba_marseille","lat":43.2807,"lon":5.39647,"is_reserved":false,"is_disabled":false,"rental_uris":{"android":"levelo://app?vid=79ba0377-09fc-4797-9496-3d4ce23c15e2","ios":"levelo://app?vid=79ba0377-09fc-4797-9496-3d4ce23c15e2"},"vehicle_type_id":"4","last_reported":1743783101,"current_range_meters":2800,"station_id":"ce4bho12rcd13ifvqh2g","pricing_plan_id":"cebpf4jnsgd1na2vs0mg"},{"bike_id":"3a3663d8-8053-4564-aabb-b190b7b33df0","system_id":"levelo_inurba_marseille","lat":43.30515,"lon":5.36525,"is_reserved":false,"is_disabled":false,"rental_uris":{"android":"levelo://app?vid=3a3663d8-8053-4564-aabb-b190b7b33df0","ios":"levelo://app?vid=3a3663d8-8053-4564-aabb-b190b7b33df0"},"vehicle_type_id":"4","last_reported":1743783101,"current_range_meters":2800,"station_id":"ce4bgs12rcd13ifvqcag","pricing_plan_id":"cebpf4jnsgd1na2vs0mg"},{"bike_id":"589c3a6f-c653-469b-ab18-36f342baa780","system_id":"levelo_inurba_marseille","lat":43.27061,"lon":5.40257,"is_reserved":false,"is_disabled":false,"rental_uris":{"android":"levelo://app?vid=589c3a6f-c653-469b-ab18-36f342baa780","ios":"levelo://app?vid=589c3a6f-c653-469b-ab18-36f342baa780"},"vehicle_type_id":"4","last_reported":1743783101,"current_range_meters":2800,"station_id":"ce4bhk92rcd13ifvqgc0","pricing_plan_id":"cebpf4jnsgd1na2vs0mg"},{"bike_id":"b21c0ded-b3e3-4439-8f44-7140cbbc6220","system_id":"levelo_inurba_marseille","lat":43.29553,"lon":5.42294,"is_reserved":false,"is_disabled":false,"rental_uris":{"android":"levelo://app?vid=b21c0ded-b3e3-4439-8f44-7140cbbc6220","ios":"levelo://app?vid=b21c0ded-b3e3-4439-8f44-7140cbbc6220"},"vehicle_type_id":"4","last_reported":1743783101,"current_range_meters":2800,"station_id":"ce4bhph2rcd13ifvqhdg","pricing_plan_id":"cebpf4jnsgd1na2vs0mg"},{"bike_id":"999e87b4-15e3-4a10-b986-9503ce0ff5a1","system_id":"levelo_inurba_marseille","lat":43.29098,"lon":5.38133,"is_reserved":false,"is_disabled":false,"rental_uris":{"android":"levelo://app?vid=999e87b4-15e3-4a10-b986-9503ce0ff5a1","ios":"levelo://app?vid=999e87b4-15e3-4a10-b986-9503ce0ff5a1"},"vehicle_type_id":"4","last_reported":1743783101,"current_range_meters":3200,"station_id":"ce4bh512rcd13ifvqe2g","pricing_plan_id":"cebpf4jnsgd1na2vs0mg"},{"bike_id":"65ed4434-20a5-41ea-9e7b-84eaadb4a876","system_id":"levelo_inurba_marseille","lat":43.26555,"lon":5.37285,"is_reserved":false,"is_disabled":false,"rental_uris":{"android":"levelo://app?vid=65ed4434-20a5-41ea-9e7b-84eaadb4a876","ios":"levelo://app?vid=65ed4434-20a5-41ea-9e7b-84eaadb4a876"},"vehicle_type_id":"4","last_reported":1743783101,"current_range_meters":3200,"station_id":"ce4bhg12rcd13ifvqf70","pricing_plan_id":"cebpf4jnsgd1na2vs0mg"},{"bike_id":"b6d532e5-df44-42f5-a5af-41a0235d1f68","system_id":"levelo_inurba_marseille","lat":43.26554,"lon":5.38979,"is_reserved":false,"is_disabled":false,"rental_uris":{"android":"levelo://app?vid=b6d532e5-df44-42f5-a5af-41a0235d1f68","ios":"levelo://app?vid=b6d532e5-df44-42f5-a5af-41a0235d1f68"},"vehicle_type_id":"4","last_reported":1743783101,"current_range_meters":3200,"station_id":"ce4bhe12rcd13ifvqf30","pricing_plan_id":"cebpf4jnsgd1na2vs0mg"},{"bike_id":"9edaad0d-a292-4f35-a22a-5d09f245b026","system_id":"levelo_inurba_marseille","lat":43.28404,"lon":5.37523,"is_reserved":false,"is_disabled":false,"rental_uris":{"android":"levelo://app?vid=9edaad0d-a292-4f35-a22a-5d09f245b026","ios":"levelo://app?vid=9edaad0d-a292-4f35-a22a-5d09f245b026"},"vehicle_type_id":"4","last_reported":1743783101,"current_range_meters":3200,"station_id":"ce4bh412rcd13ifvqds0","pricing_plan_id":"cebpf4jnsgd1na2vs0mg"},{"bike_id":"45dfba8d-16cb-4036-b2f8-ac83e19cc448","system_id":"levelo_inurba_marseille","lat":43.32536,"lon":5.41422,"is_reserved":false,"is_disabled":false,"rental_uris":{"android":"levelo://app?vid=45dfba8d-16cb-4036-b2f8-ac83e19cc448","ios":"levelo://app?vid=45dfba8d-16cb-4036-b2f8-ac83e19cc448"},"vehicle_type_id":"4","last_reported":1743783101,"current_range_meters":3200,"station_id":"ce4bhq12rcd13ifvqhhg","pricing_plan_id":"cebpf4jnsgd1na2vs0mg"},{"bike_id":"188846d1-be4c-45b9-b680-78935dc8106a","system_id":"levelo_inurba_marseille","lat":43.23051,"lon":5.3549,"is_reserved":false,"is_disabled":false,"rental_uris":{"android":"levelo://app?vid=188846d1-be4c-45b9-b680-78935dc8106a","ios":"levelo://app?vid=188846d1-be4c-45b9-b680-78935dc8106a"},"vehicle_type_id":"4","last_reported":1743783101,"current_range_meters":3200,"station_id":"cpo3342slgdg3j2ifvpg","pricing_plan_id":"cebpf4jnsgd1na2vs0mg"},{"bike_id":"eaa030a3-845b-454c-9056-dedcb4034fdb","system_id":"levelo_inurba_marseille","lat":43.28412,"lon":5.37508,"is_reserved":false,"is_disabled":false,"rental_uris":{"android":"levelo://app?vid=eaa030a3-845b-454c-9056-dedcb4034fdb","ios":"levelo://app?vid=eaa030a3-845b-454c-9056-dedcb4034fdb"},"vehicle_type_id":"4","last_reported":1743783101,"current_range_meters":3200,"station_id":"ce4bh412rcd13ifvqds0","pricing_plan_id":"cebpf4jnsgd1na2vs0mg"},{"bike_id":"f07b320c-d050-4a9c-8d66-fffc12b18ec6","system_id":"levelo_inurba_marseille","lat":43.24804,"lon":5.37454,"is_reserved":false,"is_disabled":false,"rental_uris":{"android":"levelo://app?vid=f07b320c-d050-4a9c-8d66-fffc12b18ec6","ios":"levelo://app?vid=f07b320c-d050-4a9c-8d66-fffc12b18ec6"},"vehicle_type_id":"4","last_reported":1743783101,"current_range_meters":3200,"station_id":"ce4bhgh2rcd13ifvqfb0","pricing_plan_id":"cebpf4jnsgd1na2vs0mg"},{"bike_id":"252ffbdb-bada-4855-9162-beac274165be","system_id":"levelo_inurba_marseille","lat":43.27376,"lon":5.36248,"is_reserved":false,"is_disabled":false,"rental_uris":{"android":"levelo://app?vid=252ffbdb-bada-4855-9162-beac274165be","ios":"levelo://app?vid=252ffbdb-bada-4855-9162-beac274165be"},"vehicle_type_id":"4","last_reported":1743783101,"current_range_meters":3600,"station_id":"ce4bhbh2rcd13ifvqeo0","pricing_plan_id":"cebpf4jnsgd1na2vs0mg"},{"bike_id":"9ffb34b2-afc3-4ec5-bfe5-e6022f59d6f8","system_id":"levelo_inurba_marseille","lat":43.29442,"lon":5.39759,"is_reserved":false,"is_disabled":false,"rental_uris":{"android":"levelo://app?vid=9ffb34b2-afc3-4ec5-bfe5-e6022f59d6f8","ios":"levelo://app?vid=9ffb34b2-afc3-4ec5-bfe5-e6022f59d6f8"},"vehicle_type_id":"4","last_reported":1743783101,"current_range_meters":3600,"station_id":"ce4bh3h2rcd13ifvqdo0","pricing_plan_id":"cebpf4jnsgd1na2vs0mg"},{"bike_id":"63b98a49-020a-48d4-ba4a-7da728643834","system_id":"levelo_inurba_marseille","lat":43.26226,"lon":5.4045,"is_reserved":false,"is_disabled":false,"rental_uris":{"android":"levelo://app?vid=63b98a49-020a-48d4-ba4a-7da728643834","ios":"levelo://app?vid=63b98a49-020a-48d4-ba4a-7da728643834"},"vehicle_type_id":"4","last_reported":1743783101,"current_range_meters":3600,"station_id":"ce4bhmh2rcd13ifvqgmg","pricing_plan_id":"cebpf4jnsgd1na2vs0mg"},{"bike_id":"7d488041-ffa6-4575-9b1f-724ee269f9aa","system_id":"levelo_inurba_marseille","lat":43.27848,"lon":5.39214,"is_reserved":false,"is_disabled":false,"rental_uris":{"android":"levelo://app?vid=7d488041-ffa6-4575-9b1f-724ee269f9aa","ios":"levelo://app?vid=7d488041-ffa6-4575-9b1f-724ee269f9aa"},"vehicle_type_id":"4","last_reported":1743783101,"current_range_meters":3600,"station_id":"ce4bhjp2rcd13ifvqga0","pricing_plan_id":"cebpf4jnsgd1na2vs0mg"},{"bike_id":"d03c57f9-d360-4773-80f6-508aae887196","system_id":"levelo_inurba_marseille","lat":43.27503,"lon":5.42466,"is_reserved":false,"is_disabled":false,"rental_uris":{"android":"levelo://app?vid=d03c57f9-d360-4773-80f6-508aae887196","ios":"levelo://app?vid=d03c57f9-d360-4773-80f6-508aae887196"},"vehicle_type_id":"4","last_reported":1743783101,"current_range_meters":3600,"station_id":"ce4bhn92rcd13ifvqgrg","pricing_plan_id":"cebpf4jnsgd1na2vs0mg"},{"bike_id":"f1c66f71-36b3-4b2b-9df0-7f6d9aa69790","system_id":"levelo_inurba_marseille","lat":43.29899,"lon":5.43671,"is_reserved":false,"is_disabled":false,"rental_uris":{"android":"levelo://app?vid=f1c66f71-36b3-4b2b-9df0-7f6d9aa69790","ios":"levelo://app?vid=f1c66f71-36b3-4b2b-9df0-7f6d9aa69790"},"vehicle_type_id":"4","last_reported":1743783101,"current_range_meters":4000,"station_id":"ce4bhpp2rcd13ifvqhfg","pricing_plan_id":"cebpf4jnsgd1na2vs0mg"},{"bike_id":"b25cbb3f-e9b5-48f0-b7ec-5d8149d20f28","system_id":"levelo_inurba_marseille","lat":43.28722,"lon":5.36074,"is_reserved":false,"is_disabled":false,"rental_uris":{"android":"levelo://app?vid=b25cbb3f-e9b5-48f0-b7ec-5d8149d20f28","ios":"levelo://app?vid=b25cbb3f-e9b5-48f0-b7ec-5d8149d20f28"},"vehicle_type_id":"4","last_reported":1743783101,"current_range_meters":4400,"station_id":"cki0cbj6b192h4jlfktg","pricing_plan_id":"cebpf4jnsgd1na2vs0mg"},{"bike_id":"cd83c8ac-ed09-4369-9279-b6f36f2bbd3c","system_id":"levelo_inurba_marseille","lat":43.3081,"lon":5.38183,"is_reserved":false,"is_disabled":false,"rental_uris":{"android":"levelo://app?vid=cd83c8ac-ed09-4369-9279-b6f36f2bbd3c","ios":"levelo://app?vid=cd83c8ac-ed09-4369-9279-b6f36f2bbd3c"},"vehicle_type_id":"4","last_reported":1743783101,"current_range_meters":4400,"station_id":"ce4bgt12rcd13ifvqce0","pricing_plan_id":"cebpf4jnsgd1na2vs0mg"},{"bike_id":"8b5a92be-802d-4ad0-b149-37ee846631fe","system_id":"levelo_inurba_marseille","lat":43.27362,"lon":5.36246,"is_reserved":false,"is_disabled":false,"rental_uris":{"android":"levelo://app?vid=8b5a92be-802d-4ad0-b149-37ee846631fe","ios":"levelo://app?vid=8b5a92be-802d-4ad0-b149-37ee846631fe"},"vehicle_type_id":"4","last_reported":1743783101,"current_range_meters":4400,"station_id":"ce4bhbh2rcd13ifvqeo0","pricing_plan_id":"cebpf4jnsgd1na2vs0mg"},{"bike_id":"8d75e2ab-ff5e-45f3-bd39-e9cf50a12421","system_id":"levelo_inurba_marseille","lat":43.31681,"lon":5.40471,"is_reserved":false,"is_disabled":false,"rental_uris":{"android":"levelo://app?vid=8d75e2ab-ff5e-45f3-bd39-e9cf50a12421","ios":"levelo://app?vid=8d75e2ab-ff5e-45f3-bd39-e9cf50a12421"},"vehicle_type_id":"4","last_reported":1743783101,"current_range_meters":4800,"station_id":"ce4bh012rcd13ifvqd00","pricing_plan_id":"cebpf4jnsgd1na2vs0mg"},{"bike_id":"d91bdabb-adf4-4b7e-bc85-05a3bfda990c","system_id":"levelo_inurba_marseille","lat":43.28083,"lon":5.39661,"is_reserved":false,"is_disabled":false,"rental_uris":{"android":"levelo://app?vid=d91bdabb-adf4-4b7e-bc85-05a3bfda990c","ios":"levelo://app?vid=d91bdabb-adf4-4b7e-bc85-05a3bfda990c"},"vehicle_type_id":"4","last_reported":1743783101,"current_range_meters":4800,"station_id":"ce4bho12rcd13ifvqh2g","pricing_plan_id":"cebpf4jnsgd1na2vs0mg"},{"bike_id":"7ffcf52e-7d12-4a0a-80ad-9790e7b6d0cd","system_id":"levelo_inurba_marseille","lat":43.25493,"lon":5.37648,"is_reserved":false,"is_disabled":false,"rental_uris":{"android":"levelo://app?vid=7ffcf52e-7d12-4a0a-80ad-9790e7b6d0cd","ios":"levelo://app?vid=7ffcf52e-7d12-4a0a-80ad-9790e7b6d0cd"},"vehicle_type_id":"4","last_reported":1743783101,"current_range_meters":4800,"station_id":"ce4bhh12rcd13ifvqff0","pricing_plan_id":"cebpf4jnsgd1na2vs0mg"},{"bike_id":"cb4495fc-ff01-4de3-b2e6-b94be66e2f9d","system_id":"levelo_inurba_marseille","lat":43.31166,"lon":5.38717,"is_reserved":false,"is_disabled":false,"rental_uris":{"android":"levelo://app?vid=cb4495fc-ff01-4de3-b2e6-b94be66e2f9d","ios":"levelo://app?vid=cb4495fc-ff01-4de3-b2e6-b94be66e2f9d"},"vehicle_type_id":"4","last_reported":1743783101,"current_range_meters":4800,"station_id":"ce4bgv12rcd13ifvqcp0","pricing_plan_id":"cebpf4jnsgd1na2vs0mg"},{"bike_id":"8a10fca2-82f1-42f5-af65-4cfe92118937","system_id":"levelo_inurba_marseille","lat":43.31129,"lon":5.37794,"is_reserved":false,"is_disabled":false,"rental_uris":{"android":"levelo://app?vid=8a10fca2-82f1-42f5-af65-4cfe92118937","ios":"levelo://app?vid=8a10fca2-82f1-42f5-af65-4cfe92118937"},"vehicle_type_id":"4","last_reported":1743783101,"current_range_meters":4800,"station_id":"ce4bgt92rcd13ifvqcg0","pricing_plan_id":"cebpf4jnsgd1na2vs0mg"},{"bike_id":"26d0b639-975d-49a1-930d-72bf04fece16","system_id":"levelo_inurba_marseille","lat":43.28696,"lon":5.37384,"is_reserved":false,"is_disabled":false,"rental_uris":{"android":"levelo://app?vid=26d0b639-975d-49a1-930d-72bf04fece16","ios":"levelo://app?vid=26d0b639-975d-49a1-930d-72bf04fece16"},"vehicle_type_id":"4","last_reported":1743783101,"current_range_meters":5600,"station_id":"ce4bh3p2rcd13ifvqdq0","pricing_plan_id":"cebpf4jnsgd1na2vs0mg"},{"bike_id":"a939c5df-88b8-4357-aa68-b8285b385ba8","system_id":"levelo_inurba_marseille","lat":43.25492,"lon":5.37646,"is_reserved":false,"is_disabled":false,"rental_uris":{"android":"levelo://app?vid=a939c5df-88b8-4357-aa68-b8285b385ba8","ios":"levelo://app?vid=a939c5df-88b8-4357-aa68-b8285b385ba8"},"vehicle_type_id":"4","last_reported":1743783101,"current_range_meters":5600,"station_id":"ce4bhh12rcd13ifvqff0","pricing_plan_id":"cebpf4jnsgd1na2vs0mg"},{"bike_id":"71e55f99-90e5-4133-8167-5af8b2b35d7e","system_id":"levelo_inurba_marseille","lat":43.23061,"lon":5.35503,"is_reserved":false,"is_disabled":false,"rental_uris":{"android":"levelo://app?vid=71e55f99-90e5-4133-8167-5af8b2b35d7e","ios":"levelo://app?vid=71e55f99-90e5-4133-8167-5af8b2b35d7e"},"vehicle_type_id":"4","last_reported":1743783101,"current_range_meters":5600,"station_id":"cpo3342slgdg3j2ifvpg","pricing_plan_id":"cebpf4jnsgd1na2vs0mg"},{"bike_id":"5ca65d9b-2bea-4f4b-904f-5dadb339ee77","system_id":"levelo_inurba_marseille","lat":43.29075,"lon":5.37165,"is_reserved":false,"is_disabled":false,"rental_uris":{"android":"levelo://app?vid=5ca65d9b-2bea-4f4b-904f-5dadb339ee77","ios":"levelo://app?vid=5ca65d9b-2bea-4f4b-904f-5dadb339ee77"},"vehicle_type_id":"4","last_reported":1743783101,"current_range_meters":4800,"station_id":"ce4bh5p2rcd13ifvqe4g","pricing_plan_id":"cebpf4jnsgd1na2vs0mg"},{"bike_id":"40f639c4-76f3-4d5b-8d70-ea93ab964017","system_id":"levelo_inurba_marseille","lat":43.30151,"lon":5.38083,"is_reserved":false,"is_disabled":false,"rental_uris":{"android":"levelo://app?vid=40f639c4-76f3-4d5b-8d70-ea93ab964017","ios":"levelo://app?vid=40f639c4-76f3-4d5b-8d70-ea93ab964017"},"vehicle_type_id":"4","last_reported":1743783101,"current_range_meters":5600,"station_id":"ce4bgjp2rcd13ifvqbh0","pricing_plan_id":"cebpf4jnsgd1na2vs0mg"},{"bike_id":"aec7620d-7b4d-45ae-9307-348c991636c5","system_id":"levelo_inurba_marseille","lat":43.27184,"lon":5.40998,"is_reserved":false,"is_disabled":false,"rental_uris":{"android":"levelo://app?vid=aec7620d-7b4d-45ae-9307-348c991636c5","ios":"levelo://app?vid=aec7620d-7b4d-45ae-9307-348c991636c5"},"vehicle_type_id":"4","last_reported":1743783101,"current_range_meters":6000,"station_id":"ce4bhl12rcd13ifvqgf0","pricing_plan_id":"cebpf4jnsgd1na2vs0mg"},{"bike_id":"1128bff8-4766-4733-931d-1e3e54b4dd59","system_id":"levelo_inurba_marseille","lat":43.304195,"lon":5.412876,"is_reserved":false,"is_disabled":false,"rental_uris":{"android":"levelo://app?vid=1128bff8-4766-4733-931d-1e3e54b4dd59","ios":"levelo://app?vid=1128bff8-4766-4733-931d-1e3e54b4dd59"},"vehicle_type_id":"4","last_reported":1743783101,"current_range_meters":6000,"station_id":"ce4bh412rcd13ifvqdr0","pricing_plan_id":"cebpf4jnsgd1na2vs0mg"},{"bike_id":"7bce97f8-ef6f-4191-88b4-0a87ac86ee0d","system_id":"levelo_inurba_marseille","lat":43.2894,"lon":5.39627,"is_reserved":false,"is_disabled":false,"rental_uris":{"android":"levelo://app?vid=7bce97f8-ef6f-4191-88b4-0a87ac86ee0d","ios":"levelo://app?vid=7bce97f8-ef6f-4191-88b4-0a87ac86ee0d"},"vehicle_type_id":"4","last_reported":1743783101,"current_range_meters":6000,"station_id":"ce4bh3h2rcd13ifvqdn0","pricing_plan_id":"cebpf4jnsgd1na2vs0mg"},{"bike_id":"3c9a94d4-cdae-4dba-9f6a-faa152fd4b9b","system_id":"levelo_inurba_marseille","lat":43.27053,"lon":5.4026,"is_reserved":false,"is_disabled":false,"rental_uris":{"android":"levelo://app?vid=3c9a94d4-cdae-4dba-9f6a-faa152fd4b9b","ios":"levelo://app?vid=3c9a94d4-cdae-4dba-9f6a-faa152fd4b9b"},"vehicle_type_id":"4","last_reported":1743783101,"current_range_meters":6000,"station_id":"ce4bhk92rcd13ifvqgc0","pricing_plan_id":"cebpf4jnsgd1na2vs0mg"},{"bike_id":"c13336a2-47ce-488c-b5b6-77c01a3ac1d1","system_id":"levelo_inurba_marseille","lat":43.31895,"lon":5.40748,"is_reserved":false,"is_disabled":true,"rental_uris":{"android":"levelo://app?vid=c13336a2-47ce-488c-b5b6-77c01a3ac1d1","ios":"levelo://app?vid=c13336a2-47ce-488c-b5b6-77c01a3ac1d1"},"vehicle_type_id":"4","last_reported":1743783101,"current_range_meters":6000,"station_id":"ce4bhq12rcd13ifvqhig","pricing_plan_id":"cebpf4jnsgd1na2vs0mg"},{"bike_id":"b434761b-0ced-4600-b120-98fbb65410d6","system_id":"levelo_inurba_marseille","lat":43.24654,"lon":5.38898,"is_reserved":false,"is_disabled":false,"rental_uris":{"android":"levelo://app?vid=b434761b-0ced-4600-b120-98fbb65410d6","ios":"levelo://app?vid=b434761b-0ced-4600-b120-98fbb65410d6"},"vehicle_type_id":"4","last_reported":1743783101,"current_range_meters":6000,"station_id":"ce4bhg12rcd13ifvqf60","pricing_plan_id":"cebpf4jnsgd1na2vs0mg"},{"bike_id":"4349bf00-1705-436c-b124-d6587365d42a","system_id":"levelo_inurba_marseille","lat":43.30318,"lon":5.40423,"is_reserved":false,"is_disabled":false,"rental_uris":{"android":"levelo://app?vid=4349bf00-1705-436c-b124-d6587365d42a","ios":"levelo://app?vid=4349bf00-1705-436c-b124-d6587365d42a"},"vehicle_type_id":"4","last_reported":1743783101,"current_range_meters":5600,"station_id":"ce4bh012rcd13ifvqd10","pricing_plan_id":"cebpf4jnsgd1na2vs0mg"},{"bike_id":"73d854ad-9eb6-4d68-8878-e9b2295ae65a","system_id":"levelo_inurba_marseille","lat":43.23063,"lon":5.35492,"is_reserved":false,"is_disabled":false,"rental_uris":{"android":"levelo://app?vid=73d854ad-9eb6-4d68-8878-e9b2295ae65a","ios":"levelo://app?vid=73d854ad-9eb6-4d68-8878-e9b2295ae65a"},"vehicle_type_id":"4","last_reported":1743783101,"current_range_meters":6400,"station_id":"cpo3342slgdg3j2ifvpg","pricing_plan_id":"cebpf4jnsgd1na2vs0mg"},{"bike_id":"a8ab803b-15df-402b-965d-8b5efd7bad7e","system_id":"levelo_inurba_marseille","lat":43.29635,"lon":5.40602,"is_reserved":false,"is_disabled":false,"rental_uris":{"android":"levelo://app?vid=a8ab803b-15df-402b-965d-8b5efd7bad7e","ios":"levelo://app?vid=a8ab803b-15df-402b-965d-8b5efd7bad7e"},"vehicle_type_id":"4","last_reported":1743783101,"current_range_meters":6400,"station_id":"ce4bh0h2rcd13ifvqd60","pricing_plan_id":"cebpf4jnsgd1na2vs0mg"},{"bike_id":"548fe3dd-1a78-42f7-b055-6a94491c65cd","system_id":"levelo_inurba_marseille","lat":43.29978,"lon":5.37172,"is_reserved":false,"is_disabled":false,"rental_uris":{"android":"levelo://app?vid=548fe3dd-1a78-42f7-b055-6a94491c65cd","ios":"levelo://app?vid=548fe3dd-1a78-42f7-b055-6a94491c65cd"},"vehicle_type_id":"4","last_reported":1743783101,"current_range_meters":6400,"station_id":"ce4bgr92rcd13ifvqc7g","pricing_plan_id":"cebpf4jnsgd1na2vs0mg"},{"bike_id":"33d000d3-31fe-4430-9fe9-c2ea66dabf55","system_id":"levelo_inurba_marseille","lat":43.28943,"lon":5.36403,"is_reserved":false,"is_disabled":false,"rental_uris":{"android":"levelo://app?vid=33d000d3-31fe-4430-9fe9-c2ea66dabf55","ios":"levelo://app?vid=33d000d3-31fe-4430-9fe9-c2ea66dabf55"},"vehicle_type_id":"4","last_reported":1743783101,"current_range_meters":6400,"station_id":"ce4bhc92rcd13ifvqetg","pricing_plan_id":"cebpf4jnsgd1na2vs0mg"},{"bike_id":"4127c6ff-f2c7-4563-ba8d-da426ef7ea30","system_id":"levelo_inurba_marseille","lat":43.29267,"lon":5.40899,"is_reserved":false,"is_disabled":false,"rental_uris":{"android":"levelo://app?vid=4127c6ff-f2c7-4563-ba8d-da426ef7ea30","ios":"levelo://app?vid=4127c6ff-f2c7-4563-ba8d-da426ef7ea30"},"vehicle_type_id":"4","last_reported":1743783101,"current_range_meters":6400,"station_id":"ce4bh192rcd13ifvqdc0","pricing_plan_id":"cebpf4jnsgd1na2vs0mg"},{"bike_id":"4f905070-a3f5-4acf-b9c3-4a521c67f8da","system_id":"levelo_inurba_marseille","lat":43.308058,"lon":5.381464,"is_reserved":false,"is_disabled":false,"rental_uris":{"android":"levelo://app?vid=4f905070-a3f5-4acf-b9c3-4a521c67f8da","ios":"levelo://app?vid=4f905070-a3f5-4acf-b9c3-4a521c67f8da"},"vehicle_type_id":"4","last_reported":1743783101,"current_range_meters":6400,"station_id":"ce4bgjh2rcd13ifvqbg0","pricing_plan_id":"cebpf4jnsgd1na2vs0mg"},{"bike_id":"8d7eab5b-bc43-48f5-9c97-0948b42ca6cf","system_id":"levelo_inurba_marseille","lat":43.22925,"lon":5.35377,"is_reserved":false,"is_disabled":false,"rental_uris":{"android":"levelo://app?vid=8d7eab5b-bc43-48f5-9c97-0948b42ca6cf","ios":"levelo://app?vid=8d7eab5b-bc43-48f5-9c97-0948b42ca6cf"},"vehicle_type_id":"4","last_reported":1743783101,"current_range_meters":6400,"station_id":"cpo3532slgdg3j2ikp40","pricing_plan_id":"cebpf4jnsgd1na2vs0mg"},{"bike_id":"03cfeefc-315e-4e77-b65a-2f989a9a8fdd","system_id":"levelo_inurba_marseille","lat":43.29012,"lon":5.38124,"is_reserved":false,"is_disabled":false,"rental_uris":{"android":"levelo://app?vid=03cfeefc-315e-4e77-b65a-2f989a9a8fdd","ios":"levelo://app?vid=03cfeefc-315e-4e77-b65a-2f989a9a8fdd"},"vehicle_type_id":"4","last_reported":1743783101,"current_range_meters":6800,"station_id":"ce4bh4p2rcd13ifvqe1g","pricing_plan_id":"cebpf4jnsgd1na2vs0mg"},{"bike_id":"0e88f134-2423-4b08-bc3c-5f7a38937552","system_id":"levelo_inurba_marseille","lat":43.23458,"lon":5.399128,"is_reserved":false,"is_disabled":false,"rental_uris":{"android":"levelo://app?vid=0e88f134-2423-4b08-bc3c-5f7a38937552","ios":"levelo://app?vid=0e88f134-2423-4b08-bc3c-5f7a38937552"},"vehicle_type_id":"4","last_reported":1743783101,"current_range_meters":6800,"station_id":"","pricing_plan_id":"cebpf4jnsgd1na2vs0mg"},{"bike_id":"db71de17-4f07-405f-bfbf-bc4a48435b71","system_id":"levelo_inurba_marseille","lat":43.296197,"lon":5.371498,"is_reserved":false,"is_disabled":false,"rental_uris":{"android":"levelo://app?vid=db71de17-4f07-405f-bfbf-bc4a48435b71","ios":"levelo://app?vid=db71de17-4f07-405f-bfbf-bc4a48435b71"},"vehicle_type_id":"4","last_reported":1743783101,"current_range_meters":6800,"station_id":"ce4bgnh2rcd13ifvqc0g","pricing_plan_id":"cebpf4jnsgd1na2vs0mg"},{"bike_id":"9440b5a9-5e16-4ad9-a330-5bcc1cd033b3","system_id":"levelo_inurba_marseille","lat":43.25515,"lon":5.37648,"is_reserved":false,"is_disabled":false,"rental_uris":{"android":"levelo://app?vid=9440b5a9-5e16-4ad9-a330-5bcc1cd033b3","ios":"levelo://app?vid=9440b5a9-5e16-4ad9-a330-5bcc1cd033b3"},"vehicle_type_id":"4","last_reported":1743783101,"current_range_meters":6800,"station_id":"ce4bhh12rcd13ifvqff0","pricing_plan_id":"cebpf4jnsgd1na2vs0mg"},{"bike_id":"e3a29d38-a611-4b12-87ef-2fb8a21c41d5","system_id":"levelo_inurba_marseille","lat":43.22927,"lon":5.35377,"is_reserved":false,"is_disabled":false,"rental_uris":{"android":"levelo://app?vid=e3a29d38-a611-4b12-87ef-2fb8a21c41d5","ios":"levelo://app?vid=e3a29d38-a611-4b12-87ef-2fb8a21c41d5"},"vehicle_type_id":"4","last_reported":1743783101,"current_range_meters":6800,"station_id":"cpo3532slgdg3j2ikp40","pricing_plan_id":"cebpf4jnsgd1na2vs0mg"},{"bike_id":"efddeda7-6eb2-4c14-868d-fa0ce0b35ef3","system_id":"levelo_inurba_marseille","lat":43.31281,"lon":5.38275,"is_reserved":false,"is_disabled":false,"rental_uris":{"android":"levelo://app?vid=efddeda7-6eb2-4c14-868d-fa0ce0b35ef3","ios":"levelo://app?vid=efddeda7-6eb2-4c14-868d-fa0ce0b35ef3"},"vehicle_type_id":"4","last_reported":1743783101,"current_range_meters":6800,"station_id":"","pricing_plan_id":"cebpf4jnsgd1na2vs0mg"},{"bike_id":"848473bf-ccca-48d5-af52-a096827498c4","system_id":"levelo_inurba_marseille","lat":43.26936,"lon":5.40266,"is_reserved":false,"is_disabled":false,"rental_uris":{"android":"levelo://app?vid=848473bf-ccca-48d5-af52-a096827498c4","ios":"levelo://app?vid=848473bf-ccca-48d5-af52-a096827498c4"},"vehicle_type_id":"4","last_reported":1743783101,"current_range_meters":6800,"station_id":"cjm6bp8fraef2m0cb0m0","pricing_plan_id":"cebpf4jnsgd1na2vs0mg"},{"bike_id":"715eff50-001a-413a-8e2d-3344911b1ca7","system_id":"levelo_inurba_marseille","lat":43.33336,"lon":5.39866,"is_reserved":false,"is_disabled":false,"rental_uris":{"android":"levelo://app?vid=715eff50-001a-413a-8e2d-3344911b1ca7","ios":"levelo://app?vid=715eff50-001a-413a-8e2d-3344911b1ca7"},"vehicle_type_id":"4","last_reported":1743783101,"current_range_meters":6800,"station_id":"","pricing_plan_id":"cebpf4jnsgd1na2vs0mg"},{"bike_id":"43be5df0-7c23-4568-b99e-84ea1238fe2c","system_id":"levelo_inurba_marseille","lat":43.28363,"lon":5.38096,"is_reserved":false,"is_disabled":false,"rental_uris":{"android":"levelo://app?vid=43be5df0-7c23-4568-b99e-84ea1238fe2c","ios":"levelo://app?vid=43be5df0-7c23-4568-b99e-84ea1238fe2c"},"vehicle_type_id":"4","last_reported":1743783101,"current_range_meters":7200,"station_id":"ce4bh412rcd13ifvqdr0","pricing_plan_id":"cebpf4jnsgd1na2vs0mg"},{"bike_id":"caa3c700-7074-4397-8911-5e1822110508","system_id":"levelo_inurba_marseille","lat":43.29264,"lon":5.38439,"is_reserved":false,"is_disabled":false,"rental_uris":{"android":"levelo://app?vid=caa3c700-7074-4397-8911-5e1822110508","ios":"levelo://app?vid=caa3c700-7074-4397-8911-5e1822110508"},"vehicle_type_id":"4","last_reported":1743783101,"current_range_meters":8000,"station_id":"ce4bh692rcd13ifvqea0","pricing_plan_id":"cebpf4jnsgd1na2vs0mg"},{"bike_id":"a45e183e-88d5-4476-aa3d-ae87caf025d1","system_id":"levelo_inurba_marseille","lat":43.25868,"lon":5.39894,"is_reserved":false,"is_disabled":false,"rental_uris":{"android":"levelo://app?vid=a45e183e-88d5-4476-aa3d-ae87caf025d1","ios":"levelo://app?vid=a45e183e-88d5-4476-aa3d-ae87caf025d1"},"vehicle_type_id":"4","last_reported":1743783101,"current_range_meters":7200,"station_id":"ce4bhl92rcd13ifvqghg","pricing_plan_id":"cebpf4jnsgd1na2vs0mg"},{"bike_id":"fb71d82b-6fbc-4828-8f60-5864afe30153","system_id":"levelo_inurba_marseille","lat":43.30789,"lon":5.37645,"is_reserved":false,"is_disabled":false,"rental_uris":{"android":"levelo://app?vid=fb71d82b-6fbc-4828-8f60-5864afe30153","ios":"levelo://app?vid=fb71d82b-6fbc-4828-8f60-5864afe30153"},"vehicle_type_id":"4","last_reported":1743783101,"current_range_meters":7200,"station_id":"ce4bgv92rcd13ifvqcq0","pricing_plan_id":"cebpf4jnsgd1na2vs0mg"},{"bike_id":"d76832c4-3604-4de9-b7a5-182f7c6e995c","system_id":"levelo_inurba_marseille","lat":43.31361,"lon":5.38497,"is_reserved":false,"is_disabled":true,"rental_uris":{"android":"levelo://app?vid=d76832c4-3604-4de9-b7a5-182f7c6e995c","ios":"levelo://app?vid=d76832c4-3604-4de9-b7a5-182f7c6e995c"},"vehicle_type_id":"4","last_reported":1743783101,"current_range_meters":7200,"station_id":"ce4bgt92rcd13ifvqcf0","pricing_plan_id":"cebpf4jnsgd1na2vs0mg"},{"bike_id":"defe925b-0814-4c2c-977d-76b18d627e05","system_id":"levelo_inurba_marseille","lat":43.31122,"lon":5.37777,"is_reserved":false,"is_disabled":false,"rental_uris":{"android":"levelo://app?vid=defe925b-0814-4c2c-977d-76b18d627e05","ios":"levelo://app?vid=defe925b-0814-4c2c-977d-76b18d627e05"},"vehicle_type_id":"4","last_reported":1743783101,"current_range_meters":7200,"station_id":"ce4bgt92rcd13ifvqcg0","pricing_plan_id":"cebpf4jnsgd1na2vs0mg"},{"bike_id":"ecabd22b-19b0-4365-8927-e8d776bc92b5","system_id":"levelo_inurba_marseille","lat":43.26804,"lon":5.40262,"is_reserved":false,"is_disabled":false,"rental_uris":{"android":"levelo://app?vid=ecabd22b-19b0-4365-8927-e8d776bc92b5","ios":"levelo://app?vid=ecabd22b-19b0-4365-8927-e8d776bc92b5"},"vehicle_type_id":"4","last_reported":1743783101,"current_range_meters":7200,"station_id":"ce501612rcd8frsf0b60","pricing_plan_id":"cebpf4jnsgd1na2vs0mg"},{"bike_id":"49808180-20ef-43bf-bfc5-724174360d6b","system_id":"levelo_inurba_marseille","lat":43.29602,"lon":5.3809,"is_reserved":false,"is_disabled":false,"rental_uris":{"android":"levelo://app?vid=49808180-20ef-43bf-bfc5-724174360d6b","ios":"levelo://app?vid=49808180-20ef-43bf-bfc5-724174360d6b"},"vehicle_type_id":"4","last_reported":1743783101,"current_range_meters":7200,"station_id":"ce4bgl12rcd13ifvqbo0","pricing_plan_id":"cebpf4jnsgd1na2vs0mg"},{"bike_id":"c0c397dd-0342-46d2-bfd6-1a50410dcff3","system_id":"levelo_inurba_marseille","lat":43.25719,"lon":5.411203,"is_reserved":false,"is_disabled":false,"rental_uris":{"android":"levelo://app?vid=c0c397dd-0342-46d2-bfd6-1a50410dcff3","ios":"levelo://app?vid=c0c397dd-0342-46d2-bfd6-1a50410dcff3"},"vehicle_type_id":"4","last_reported":1743783101,"current_range_meters":7200,"station_id":"ce4bhkp2rcd13ifvqgd0","pricing_plan_id":"cebpf4jnsgd1na2vs0mg"},{"bike_id":"2ff3068f-074f-4569-bb32-aaa56c528ef2","system_id":"levelo_inurba_marseille","lat":43.27915,"lon":5.3958,"is_reserved":false,"is_disabled":false,"rental_uris":{"android":"levelo://app?vid=2ff3068f-074f-4569-bb32-aaa56c528ef2","ios":"levelo://app?vid=2ff3068f-074f-4569-bb32-aaa56c528ef2"},"vehicle_type_id":"4","last_reported":1743783101,"current_range_meters":7200,"station_id":"ce4bhf92rcd13ifvqf40","pricing_plan_id":"cebpf4jnsgd1na2vs0mg"},{"bike_id":"4a0cb5ec-891f-471c-8860-9d6c3a83a3a9","system_id":"levelo_inurba_marseille","lat":43.303739,"lon":5.424842,"is_reserved":false,"is_disabled":false,"rental_uris":{"android":"levelo://app?vid=4a0cb5ec-891f-471c-8860-9d6c3a83a3a9","ios":"levelo://app?vid=4a0cb5ec-891f-471c-8860-9d6c3a83a3a9"},"vehicle_type_id":"4","last_reported":1743783101,"current_range_meters":7200,"station_id":"ce4bhoh2rcd13ifvqh6g","pricing_plan_id":"cebpf4jnsgd1na2vs0mg"},{"bike_id":"cdad4552-8eb8-4c04-9309-21bb36dbb4d1","system_id":"levelo_inurba_marseille","lat":43.29443,"lon":5.39746,"is_reserved":false,"is_disabled":false,"rental_uris":{"android":"levelo://app?vid=cdad4552-8eb8-4c04-9309-21bb36dbb4d1","ios":"levelo://app?vid=cdad4552-8eb8-4c04-9309-21bb36dbb4d1"},"vehicle_type_id":"4","last_reported":1743783101,"current_range_meters":8000,"station_id":"ce4bh3h2rcd13ifvqdo0","pricing_plan_id":"cebpf4jnsgd1na2vs0mg"},{"bike_id":"9766abdd-b2fe-4988-884a-15c098b73ea4","system_id":"levelo_inurba_marseille","lat":43.24187,"lon":5.39728,"is_reserved":false,"is_disabled":false,"rental_uris":{"android":"levelo://app?vid=9766abdd-b2fe-4988-884a-15c098b73ea4","ios":"levelo://app?vid=9766abdd-b2fe-4988-884a-15c098b73ea4"},"vehicle_type_id":"4","last_reported":1743783101,"current_range_meters":8000,"station_id":"ce4bhn12rcd13ifvqgpg","pricing_plan_id":"cebpf4jnsgd1na2vs0mg"},{"bike_id":"6e4d7b8a-86e1-4e91-9198-d53e5770578e","system_id":"levelo_inurba_marseille","lat":43.29057,"lon":5.370632,"is_reserved":false,"is_disabled":false,"rental_uris":{"android":"levelo://app?vid=6e4d7b8a-86e1-4e91-9198-d53e5770578e","ios":"levelo://app?vid=6e4d7b8a-86e1-4e91-9198-d53e5770578e"},"vehicle_type_id":"4","last_reported":1743783101,"current_range_meters":8000,"station_id":"ce4bhap2rcd13ifvqek0","pricing_plan_id":"cebpf4jnsgd1na2vs0mg"},{"bike_id":"c84859d5-2e9e-461a-a525-dd30f3f186bb","system_id":"levelo_inurba_marseille","lat":43.28467,"lon":5.35892,"is_reserved":false,"is_disabled":false,"rental_uris":{"android":"levelo://app?vid=c84859d5-2e9e-461a-a525-dd30f3f186bb","ios":"levelo://app?vid=c84859d5-2e9e-461a-a525-dd30f3f186bb"},"vehicle_type_id":"4","last_reported":1743783101,"current_range_meters":8000,"station_id":"ce4bhah2rcd13ifvqei0","pricing_plan_id":"cebpf4jnsgd1na2vs0mg"},{"bike_id":"360b225f-6050-4c34-8f25-2234edeef8bc","system_id":"levelo_inurba_marseille","lat":43.28278,"lon":5.35072,"is_reserved":false,"is_disabled":false,"rental_uris":{"android":"levelo://app?vid=360b225f-6050-4c34-8f25-2234edeef8bc","ios":"levelo://app?vid=360b225f-6050-4c34-8f25-2234edeef8bc"},"vehicle_type_id":"4","last_reported":1743783101,"current_range_meters":8000,"station_id":"ce4bhbp2rcd13ifvqerg","pricing_plan_id":"cebpf4jnsgd1na2vs0mg"},{"bike_id":"c55a0c46-58c0-4499-b21b-ecc280024e5d","system_id":"levelo_inurba_marseille","lat":43.2417,"lon":5.364005,"is_reserved":false,"is_disabled":false,"rental_uris":{"android":"levelo://app?vid=c55a0c46-58c0-4499-b21b-ecc280024e5d","ios":"levelo://app?vid=c55a0c46-58c0-4499-b21b-ecc280024e5d"},"vehicle_type_id":"4","last_reported":1743783101,"current_range_meters":8000,"station_id":"cpo36qri1sfpv3e86is0","pricing_plan_id":"cebpf4jnsgd1na2vs0mg"},{"bike_id":"d2a9331f-a471-496f-9667-c861d3ce451c","system_id":"levelo_inurba_marseille","lat":43.26498,"lon":5.39539,"is_reserved":false,"is_disabled":false,"rental_uris":{"android":"levelo://app?vid=d2a9331f-a471-496f-9667-c861d3ce451c","ios":"levelo://app?vid=d2a9331f-a471-496f-9667-c861d3ce451c"},"vehicle_type_id":"4","last_reported":1743783101,"current_range_meters":8000,"station_id":"ce4bhi12rcd13ifvqfq0","pricing_plan_id":"cebpf4jnsgd1na2vs0mg"},{"bike_id":"2d35eb40-8492-406e-85f1-23a3cd77006c","system_id":"levelo_inurba_marseille","lat":43.31326,"lon":5.39694,"is_reserved":false,"is_disabled":false,"rental_uris":{"android":"levelo://app?vid=2d35eb40-8492-406e-85f1-23a3cd77006c","ios":"levelo://app?vid=2d35eb40-8492-406e-85f1-23a3cd77006c"},"vehicle_type_id":"4","last_reported":1743783101,"current_range_meters":8000,"station_id":"ce4bgvp2rcd13ifvqcu0","pricing_plan_id":"cebpf4jnsgd1na2vs0mg"},{"bike_id":"262e576e-da04-46be-9e2a-32cec671af15","system_id":"levelo_inurba_marseille","lat":43.30308,"lon":5.36896,"is_reserved":false,"is_disabled":false,"rental_uris":{"android":"levelo://app?vid=262e576e-da04-46be-9e2a-32cec671af15","ios":"levelo://app?vid=262e576e-da04-46be-9e2a-32cec671af15"},"vehicle_type_id":"4","last_reported":1743783101,"current_range_meters":8000,"station_id":"ce4bgqh2rcd13ifvqc5g","pricing_plan_id":"cebpf4jnsgd1na2vs0mg"},{"bike_id":"b88f7b88-9ec8-4bb6-ab77-228259cbd460","system_id":"levelo_inurba_marseille","lat":43.29414,"lon":5.38623,"is_reserved":false,"is_disabled":false,"rental_uris":{"android":"levelo://app?vid=b88f7b88-9ec8-4bb6-ab77-228259cbd460","ios":"levelo://app?vid=b88f7b88-9ec8-4bb6-ab77-228259cbd460"},"vehicle_type_id":"4","last_reported":1743783101,"current_range_meters":8000,"station_id":"ce4bh2h2rcd13ifvqdh0","pricing_plan_id":"cebpf4jnsgd1na2vs0mg"},{"bike_id":"6e7e8bd0-971a-4bf5-a521-0d1053f36753","system_id":"levelo_inurba_marseille","lat":43.31078,"lon":5.42441,"is_reserved":false,"is_disabled":true,"rental_uris":{"android":"levelo://app?vid=6e7e8bd0-971a-4bf5-a521-0d1053f36753","ios":"levelo://app?vid=6e7e8bd0-971a-4bf5-a521-0d1053f36753"},"vehicle_type_id":"4","last_reported":1743783101,"current_range_meters":8000,"station_id":"ce4bhp92rcd13ifvqhag","pricing_plan_id":"cebpf4jnsgd1na2vs0mg"},{"bike_id":"d046b439-98e0-4e6e-8fe0-7c0053028340","system_id":"levelo_inurba_marseille","lat":43.26801,"lon":5.40267,"is_reserved":false,"is_disabled":false,"rental_uris":{"android":"levelo://app?vid=d046b439-98e0-4e6e-8fe0-7c0053028340","ios":"levelo://app?vid=d046b439-98e0-4e6e-8fe0-7c0053028340"},"vehicle_type_id":"4","last_reported":1743783101,"current_range_meters":8400,"station_id":"ce501612rcd8frsf0b60","pricing_plan_id":"cebpf4jnsgd1na2vs0mg"},{"bike_id":"193a4e00-9e23-40f9-a937-630e4146d315","system_id":"levelo_inurba_marseille","lat":43.28461,"lon":5.35896,"is_reserved":false,"is_disabled":false,"rental_uris":{"android":"levelo://app?vid=193a4e00-9e23-40f9-a937-630e4146d315","ios":"levelo://app?vid=193a4e00-9e23-40f9-a937-630e4146d315"},"vehicle_type_id":"4","last_reported":1743783101,"current_range_meters":8400,"station_id":"ce4bhah2rcd13ifvqei0","pricing_plan_id":"cebpf4jnsgd1na2vs0mg"},{"bike_id":"24819b7a-bc67-42ac-8479-dc68a89369e0","system_id":"levelo_inurba_marseille","lat":43.2963,"lon":5.40593,"is_reserved":false,"is_disabled":false,"rental_uris":{"android":"levelo://app?vid=24819b7a-bc67-42ac-8479-dc68a89369e0","ios":"levelo://app?vid=24819b7a-bc67-42ac-8479-dc68a89369e0"},"vehicle_type_id":"4","last_reported":1743783101,"current_range_meters":8400,"station_id":"ce4bh0h2rcd13ifvqd60","pricing_plan_id":"cebpf4jnsgd1na2vs0mg"},{"bike_id":"6c5067e8-236c-4e57-bbe8-6ca7d07b3fbf","system_id":"levelo_inurba_marseille","lat":43.29419,"lon":5.38622,"is_reserved":false,"is_disabled":false,"rental_uris":{"android":"levelo://app?vid=6c5067e8-236c-4e57-bbe8-6ca7d07b3fbf","ios":"levelo://app?vid=6c5067e8-236c-4e57-bbe8-6ca7d07b3fbf"},"vehicle_type_id":"4","last_reported":1743783101,"current_range_meters":8400,"station_id":"ce4bh2h2rcd13ifvqdh0","pricing_plan_id":"cebpf4jnsgd1na2vs0mg"},{"bike_id":"1049ba71-fb41-4dc5-8c5a-67fbc6fe8421","system_id":"levelo_inurba_marseille","lat":43.25504,"lon":5.37655,"is_reserved":false,"is_disabled":true,"rental_uris":{"android":"levelo://app?vid=1049ba71-fb41-4dc5-8c5a-67fbc6fe8421","ios":"levelo://app?vid=1049ba71-fb41-4dc5-8c5a-67fbc6fe8421"},"vehicle_type_id":"4","last_reported":1743783101,"current_range_meters":8400,"station_id":"ce4bhh12rcd13ifvqff0","pricing_plan_id":"cebpf4jnsgd1na2vs0mg"},{"bike_id":"77e1cca1-9afa-4062-8d36-bac30c3b0ae7","system_id":"levelo_inurba_marseille","lat":43.323609,"lon":5.367487,"is_reserved":false,"is_disabled":false,"rental_uris":{"android":"levelo://app?vid=77e1cca1-9afa-4062-8d36-bac30c3b0ae7","ios":"levelo://app?vid=77e1cca1-9afa-4062-8d36-bac30c3b0ae7"},"vehicle_type_id":"4","last_reported":1743783101,"current_range_meters":8400,"station_id":"ce4bhsh2rcd13ifvqi2g","pricing_plan_id":"cebpf4jnsgd1na2vs0mg"},{"bike_id":"fe19a3f9-b9c3-4773-8d06-67452011fc53","system_id":"levelo_inurba_marseille","lat":43.28464,"lon":5.35894,"is_reserved":false,"is_disabled":false,"rental_uris":{"android":"levelo://app?vid=fe19a3f9-b9c3-4773-8d06-67452011fc53","ios":"levelo://app?vid=fe19a3f9-b9c3-4773-8d06-67452011fc53"},"vehicle_type_id":"4","last_reported":1743783101,"current_range_meters":8400,"station_id":"ce4bhah2rcd13ifvqei0","pricing_plan_id":"cebpf4jnsgd1na2vs0mg"},{"bike_id":"008c1d4f-35ab-49e4-96b3-5c90c39aaa64","system_id":"levelo_inurba_marseille","lat":43.26028,"lon":5.3755,"is_reserved":false,"is_disabled":false,"rental_uris":{"android":"levelo://app?vid=008c1d4f-35ab-49e4-96b3-5c90c39aaa64","ios":"levelo://app?vid=008c1d4f-35ab-49e4-96b3-5c90c39aaa64"},"vehicle_type_id":"4","last_reported":1743783101,"current_range_meters":8400,"station_id":"ce4bhgh2rcd13ifvqfa0","pricing_plan_id":"cebpf4jnsgd1na2vs0mg"},{"bike_id":"5f46717b-05d1-4f34-a220-8087932d755b","system_id":"levelo_inurba_marseille","lat":43.30108,"lon":5.36896,"is_reserved":false,"is_disabled":false,"rental_uris":{"android":"levelo://app?vid=5f46717b-05d1-4f34-a220-8087932d755b","ios":"levelo://app?vid=5f46717b-05d1-4f34-a220-8087932d755b"},"vehicle_type_id":"4","last_reported":1743783101,"current_range_meters":8400,"station_id":"","pricing_plan_id":"cebpf4jnsgd1na2vs0mg"},{"bike_id":"545f055a-c1d6-4569-9d47-90cf4a26f1f1","system_id":"levelo_inurba_marseille","lat":43.306197,"lon":5.400619,"is_reserved":false,"is_disabled":false,"rental_uris":{"android":"levelo://app?vid=545f055a-c1d6-4569-9d47-90cf4a26f1f1","ios":"levelo://app?vid=545f055a-c1d6-4569-9d47-90cf4a26f1f1"},"vehicle_type_id":"4","last_reported":1743783101,"current_range_meters":8400,"station_id":"ce4bh312rcd13ifvqdj0","pricing_plan_id":"cebpf4jnsgd1na2vs0mg"},{"bike_id":"75718454-6f81-4e6b-89a3-d01df9afe6b6","system_id":"levelo_inurba_marseille","lat":43.27056,"lon":5.40266,"is_reserved":false,"is_disabled":false,"rental_uris":{"android":"levelo://app?vid=75718454-6f81-4e6b-89a3-d01df9afe6b6","ios":"levelo://app?vid=75718454-6f81-4e6b-89a3-d01df9afe6b6"},"vehicle_type_id":"4","last_reported":1743783101,"current_range_meters":8800,"station_id":"ce4bhk92rcd13ifvqgc0","pricing_plan_id":"cebpf4jnsgd1na2vs0mg"},{"bike_id":"36d996d1-147d-4367-84e7-9ff54765b37a","system_id":"levelo_inurba_marseille","lat":43.231924,"lon":5.355586,"is_reserved":false,"is_disabled":false,"rental_uris":{"android":"levelo://app?vid=36d996d1-147d-4367-84e7-9ff54765b37a","ios":"levelo://app?vid=36d996d1-147d-4367-84e7-9ff54765b37a"},"vehicle_type_id":"4","last_reported":1743783101,"current_range_meters":8800,"station_id":"ce4bhu92rcd13ifvqi70","pricing_plan_id":"cebpf4jnsgd1na2vs0mg"},{"bike_id":"b46ad743-59d7-46e8-a611-fabdc9993b88","system_id":"levelo_inurba_marseille","lat":43.286699,"lon":5.373544,"is_reserved":false,"is_disabled":false,"rental_uris":{"android":"levelo://app?vid=b46ad743-59d7-46e8-a611-fabdc9993b88","ios":"levelo://app?vid=b46ad743-59d7-46e8-a611-fabdc9993b88"},"vehicle_type_id":"4","last_reported":1743783101,"current_range_meters":8800,"station_id":"ce4bh3p2rcd13ifvqdq0","pricing_plan_id":"cebpf4jnsgd1na2vs0mg"},{"bike_id":"f186f414-e613-44b3-aedb-43f4915cfe55","system_id":"levelo_inurba_marseille","lat":43.282684,"lon":5.350621,"is_reserved":false,"is_disabled":false,"rental_uris":{"android":"levelo://app?vid=f186f414-e613-44b3-aedb-43f4915cfe55","ios":"levelo://app?vid=f186f414-e613-44b3-aedb-43f4915cfe55"},"vehicle_type_id":"4","last_reported":1743783101,"current_range_meters":8800,"station_id":"","pricing_plan_id":"cebpf4jnsgd1na2vs0mg"},{"bike_id":"6d5855fa-2ac2-455f-911b-74f204e335cf","system_id":"levelo_inurba_marseille","lat":43.29256,"lon":5.38439,"is_reserved":false,"is_disabled":false,"rental_uris":{"android":"levelo://app?vid=6d5855fa-2ac2-455f-911b-74f204e335cf","ios":"levelo://app?vid=6d5855fa-2ac2-455f-911b-74f204e335cf"},"vehicle_type_id":"4","last_reported":1743783101,"current_range_meters":8800,"station_id":"ce4bh692rcd13ifvqea0","pricing_plan_id":"cebpf4jnsgd1na2vs0mg"},{"bike_id":"572cf75b-1792-413a-86cc-37e4e556acad","system_id":"levelo_inurba_marseille","lat":43.29172,"lon":5.37166,"is_reserved":false,"is_disabled":false,"rental_uris":{"android":"levelo://app?vid=572cf75b-1792-413a-86cc-37e4e556acad","ios":"levelo://app?vid=572cf75b-1792-413a-86cc-37e4e556acad"},"vehicle_type_id":"4","last_reported":1743783101,"current_range_meters":8800,"station_id":"ce4bha92rcd13ifvqeh0","pricing_plan_id":"cebpf4jnsgd1na2vs0mg"},{"bike_id":"04f7c010-d3a6-4f0e-bb9b-8f648613fda9","system_id":"levelo_inurba_marseille","lat":43.29787,"lon":5.38112,"is_reserved":false,"is_disabled":false,"rental_uris":{"android":"levelo://app?vid=04f7c010-d3a6-4f0e-bb9b-8f648613fda9","ios":"levelo://app?vid=04f7c010-d3a6-4f0e-bb9b-8f648613fda9"},"vehicle_type_id":"4","last_reported":1743783101,"current_range_meters":8800,"station_id":"ce4bgip2rcd13ifvqbb0","pricing_plan_id":"cebpf4jnsgd1na2vs0mg"},{"bike_id":"9d028db2-17b0-443c-9362-5fa8d0beafad","system_id":"levelo_inurba_marseille","lat":43.28264,"lon":5.35061,"is_reserved":false,"is_disabled":false,"rental_uris":{"android":"levelo://app?vid=9d028db2-17b0-443c-9362-5fa8d0beafad","ios":"levelo://app?vid=9d028db2-17b0-443c-9362-5fa8d0beafad"},"vehicle_type_id":"4","last_reported":1743783101,"current_range_meters":8800,"station_id":"ce4bhbp2rcd13ifvqerg","pricing_plan_id":"cebpf4jnsgd1na2vs0mg"},{"bike_id":"69c0db05-6ded-4dc6-9720-2452c83c1020","system_id":"levelo_inurba_marseille","lat":43.22954,"lon":5.35403,"is_reserved":false,"is_disabled":false,"rental_uris":{"android":"levelo://app?vid=69c0db05-6ded-4dc6-9720-2452c83c1020","ios":"levelo://app?vid=69c0db05-6ded-4dc6-9720-2452c83c1020"},"vehicle_type_id":"4","last_reported":1743783101,"current_range_meters":8800,"station_id":"cpo3532slgdg3j2ikp40","pricing_plan_id":"cebpf4jnsgd1na2vs0mg"},{"bike_id":"c6ba043f-6c70-4689-98df-36a8573b10ea","system_id":"levelo_inurba_marseille","lat":43.312355,"lon":5.369015,"is_reserved":false,"is_disabled":false,"rental_uris":{"android":"levelo://app?vid=c6ba043f-6c70-4689-98df-36a8573b10ea","ios":"levelo://app?vid=c6ba043f-6c70-4689-98df-36a8573b10ea"},"vehicle_type_id":"4","last_reported":1743783101,"current_range_meters":8800,"station_id":"ce4bgl92rcd13ifvqbq0","pricing_plan_id":"cebpf4jnsgd1na2vs0mg"},{"bike_id":"c034dece-7796-4f62-b0b4-e1c2f7b615a7","system_id":"levelo_inurba_marseille","lat":43.2707,"lon":5.42277,"is_reserved":false,"is_disabled":false,"rental_uris":{"android":"levelo://app?vid=c034dece-7796-4f62-b0b4-e1c2f7b615a7","ios":"levelo://app?vid=c034dece-7796-4f62-b0b4-e1c2f7b615a7"},"vehicle_type_id":"4","last_reported":1743783101,"current_range_meters":8800,"station_id":"ce4bhk92rcd13ifvqgb0","pricing_plan_id":"cebpf4jnsgd1na2vs0mg"},{"bike_id":"d0aae37b-8c71-4ebe-bb22-7bc9174bb75d","system_id":"levelo_inurba_marseille","lat":43.28932,"lon":5.36642,"is_reserved":false,"is_disabled":false,"rental_uris":{"android":"levelo://app?vid=d0aae37b-8c71-4ebe-bb22-7bc9174bb75d","ios":"levelo://app?vid=d0aae37b-8c71-4ebe-bb22-7bc9174bb75d"},"vehicle_type_id":"4","last_reported":1743783101,"current_range_meters":8800,"station_id":"ce4bhap2rcd13ifvqek0","pricing_plan_id":"cebpf4jnsgd1na2vs0mg"},{"bike_id":"cb123b58-c049-4606-b358-40021066bdc5","system_id":"levelo_inurba_marseille","lat":43.27825,"lon":5.39211,"is_reserved":false,"is_disabled":false,"rental_uris":{"android":"levelo://app?vid=cb123b58-c049-4606-b358-40021066bdc5","ios":"levelo://app?vid=cb123b58-c049-4606-b358-40021066bdc5"},"vehicle_type_id":"4","last_reported":1743783101,"current_range_meters":8800,"station_id":"ce4bhjp2rcd13ifvqga0","pricing_plan_id":"cebpf4jnsgd1na2vs0mg"},{"bike_id":"cdb7e4b1-8ea1-4a1d-91f3-73a8b3b493a5","system_id":"levelo_inurba_marseille","lat":43.310775,"lon":5.424326,"is_reserved":false,"is_disabled":false,"rental_uris":{"android":"levelo://app?vid=cdb7e4b1-8ea1-4a1d-91f3-73a8b3b493a5","ios":"levelo://app?vid=cdb7e4b1-8ea1-4a1d-91f3-73a8b3b493a5"},"vehicle_type_id":"4","last_reported":1743783101,"current_range_meters":8800,"station_id":"","pricing_plan_id":"cebpf4jnsgd1na2vs0mg"},{"bike_id":"77b353cf-767b-4065-ae2b-a96c6a2e9988","system_id":"levelo_inurba_marseille","lat":43.30459,"lon":5.37903,"is_reserved":false,"is_disabled":false,"rental_uris":{"android":"levelo://app?vid=77b353cf-767b-4065-ae2b-a96c6a2e9988","ios":"levelo://app?vid=77b353cf-767b-4065-ae2b-a96c6a2e9988"},"vehicle_type_id":"4","last_reported":1743783101,"current_range_meters":8800,"station_id":"ce4bgup2rcd13ifvqcn0","pricing_plan_id":"cebpf4jnsgd1na2vs0mg"},{"bike_id":"256a1b14-c56a-400a-afd0-f7b882224610","system_id":"levelo_inurba_marseille","lat":43.27995,"lon":5.41664,"is_reserved":false,"is_disabled":false,"rental_uris":{"android":"levelo://app?vid=256a1b14-c56a-400a-afd0-f7b882224610","ios":"levelo://app?vid=256a1b14-c56a-400a-afd0-f7b882224610"},"vehicle_type_id":"4","last_reported":1743783101,"current_range_meters":8800,"station_id":"ce4bho12rcd13ifvqh1g","pricing_plan_id":"cebpf4jnsgd1na2vs0mg"},{"bike_id":"c0ce41d4-dfc2-4187-8bdb-d04103ac0dd2","system_id":"levelo_inurba_marseille","lat":43.307324,"lon":5.424415,"is_reserved":false,"is_disabled":false,"rental_uris":{"android":"levelo://app?vid=c0ce41d4-dfc2-4187-8bdb-d04103ac0dd2","ios":"levelo://app?vid=c0ce41d4-dfc2-4187-8bdb-d04103ac0dd2"},"vehicle_type_id":"4","last_reported":1743783101,"current_range_meters":9200,"station_id":"st_cvj6ca6bvosntc0bfgr0","pricing_plan_id":"cebpf4jnsgd1na2vs0mg"},{"bike_id":"89889e76-fbb1-41e9-8cd3-9aa0cf339aff","system_id":"levelo_inurba_marseille","lat":43.26569,"lon":5.39013,"is_reserved":false,"is_disabled":false,"rental_uris":{"android":"levelo://app?vid=89889e76-fbb1-41e9-8cd3-9aa0cf339aff","ios":"levelo://app?vid=89889e76-fbb1-41e9-8cd3-9aa0cf339aff"},"vehicle_type_id":"4","last_reported":1743783101,"current_range_meters":9200,"station_id":"ce4bhe12rcd13ifvqf30","pricing_plan_id":"cebpf4jnsgd1na2vs0mg"},{"bike_id":"477bc420-4333-4079-b188-d07e7d7acdbe","system_id":"levelo_inurba_marseille","lat":43.292462,"lon":5.375186,"is_reserved":false,"is_disabled":false,"rental_uris":{"android":"levelo://app?vid=477bc420-4333-4079-b188-d07e7d7acdbe","ios":"levelo://app?vid=477bc420-4333-4079-b188-d07e7d7acdbe"},"vehicle_type_id":"4","last_reported":1743783101,"current_range_meters":9200,"station_id":"ce4bhah2rcd13ifvqei0","pricing_plan_id":"cebpf4jnsgd1na2vs0mg"},{"bike_id":"758c2355-846a-4f3d-bcd8-eac4b3145cd6","system_id":"levelo_inurba_marseille","lat":43.23195,"lon":5.35562,"is_reserved":false,"is_disabled":false,"rental_uris":{"android":"levelo://app?vid=758c2355-846a-4f3d-bcd8-eac4b3145cd6","ios":"levelo://app?vid=758c2355-846a-4f3d-bcd8-eac4b3145cd6"},"vehicle_type_id":"4","last_reported":1743783101,"current_range_meters":9200,"station_id":"ce4bhu92rcd13ifvqi70","pricing_plan_id":"cebpf4jnsgd1na2vs0mg"},{"bike_id":"ed034283-1492-4da7-9409-35bdead80f30","system_id":"levelo_inurba_marseille","lat":43.30135,"lon":5.38791,"is_reserved":false,"is_disabled":true,"rental_uris":{"android":"levelo://app?vid=ed034283-1492-4da7-9409-35bdead80f30","ios":"levelo://app?vid=ed034283-1492-4da7-9409-35bdead80f30"},"vehicle_type_id":"4","last_reported":1743783101,"current_range_meters":9200,"station_id":"ce4bghh2rcd13ifvqb60","pricing_plan_id":"cebpf4jnsgd1na2vs0mg"},{"bike_id":"9b5f0620-edab-4df6-ac60-67c85259ad65","system_id":"levelo_inurba_marseille","lat":43.2657,"lon":5.39023,"is_reserved":false,"is_disabled":false,"rental_uris":{"android":"levelo://app?vid=9b5f0620-edab-4df6-ac60-67c85259ad65","ios":"levelo://app?vid=9b5f0620-edab-4df6-ac60-67c85259ad65"},"vehicle_type_id":"4","last_reported":1743783101,"current_range_meters":9200,"station_id":"ce4bhe12rcd13ifvqf30","pricing_plan_id":"cebpf4jnsgd1na2vs0mg"},{"bike_id":"50297066-959d-45c5-a71e-b062cc3724ec","system_id":"levelo_inurba_marseille","lat":43.3081,"lon":5.37341,"is_reserved":false,"is_disabled":false,"rental_uris":{"android":"levelo://app?vid=50297066-959d-45c5-a71e-b062cc3724ec","ios":"levelo://app?vid=50297066-959d-45c5-a71e-b062cc3724ec"},"vehicle_type_id":"4","last_reported":1743783101,"current_range_meters":9200,"station_id":"","pricing_plan_id":"cebpf4jnsgd1na2vs0mg"},{"bike_id":"00c37ec6-2e92-45d3-86f1-cfcc4d23d4b9","system_id":"levelo_inurba_marseille","lat":43.33036,"lon":5.39031,"is_reserved":false,"is_disabled":false,"rental_uris":{"android":"levelo://app?vid=00c37ec6-2e92-45d3-86f1-cfcc4d23d4b9","ios":"levelo://app?vid=00c37ec6-2e92-45d3-86f1-cfcc4d23d4b9"},"vehicle_type_id":"4","last_reported":1743783101,"current_range_meters":9600,"station_id":"ce4bhr92rcd13ifvqhrg","pricing_plan_id":"cebpf4jnsgd1na2vs0mg"},{"bike_id":"0ecc1342-944b-4da0-90d9-f35d0a006bc9","system_id":"levelo_inurba_marseille","lat":43.23183,"lon":5.39982,"is_reserved":false,"is_disabled":false,"rental_uris":{"android":"levelo://app?vid=0ecc1342-944b-4da0-90d9-f35d0a006bc9","ios":"levelo://app?vid=0ecc1342-944b-4da0-90d9-f35d0a006bc9"},"vehicle_type_id":"4","last_reported":1743783101,"current_range_meters":9600,"station_id":"ce4bhn12rcd13ifvqgqg","pricing_plan_id":"cebpf4jnsgd1na2vs0mg"},{"bike_id":"0902f7a3-0b48-4f59-a901-19afcdb8a435","system_id":"levelo_inurba_marseille","lat":43.273775,"lon":5.362568,"is_reserved":false,"is_disabled":false,"rental_uris":{"android":"levelo://app?vid=0902f7a3-0b48-4f59-a901-19afcdb8a435","ios":"levelo://app?vid=0902f7a3-0b48-4f59-a901-19afcdb8a435"},"vehicle_type_id":"4","last_reported":1743783101,"current_range_meters":9600,"station_id":"ce4bhbh2rcd13ifvqeo0","pricing_plan_id":"cebpf4jnsgd1na2vs0mg"},{"bike_id":"466cf3f7-88f5-4d7e-a3c6-ad2ab18fe9f7","system_id":"levelo_inurba_marseille","lat":43.29005,"lon":5.35603,"is_reserved":false,"is_disabled":false,"rental_uris":{"android":"levelo://app?vid=466cf3f7-88f5-4d7e-a3c6-ad2ab18fe9f7","ios":"levelo://app?vid=466cf3f7-88f5-4d7e-a3c6-ad2ab18fe9f7"},"vehicle_type_id":"4","last_reported":1743783101,"current_range_meters":9600,"station_id":"ce4bhb92rcd13ifvqen0","pricing_plan_id":"cebpf4jnsgd1na2vs0mg"},{"bike_id":"f1e5f20d-e5bb-4349-9a72-f7ab8a004414","system_id":"levelo_inurba_marseille","lat":43.30354,"lon":5.40457,"is_reserved":false,"is_disabled":true,"rental_uris":{"android":"levelo://app?vid=f1e5f20d-e5bb-4349-9a72-f7ab8a004414","ios":"levelo://app?vid=f1e5f20d-e5bb-4349-9a72-f7ab8a004414"},"vehicle_type_id":"4","last_reported":1743783101,"current_range_meters":9600,"station_id":"ce4bh012rcd13ifvqd10","pricing_plan_id":"cebpf4jnsgd1na2vs0mg"},{"bike_id":"3a673a01-13fc-4ed6-b9b1-08a0faf2fd75","system_id":"levelo_inurba_marseille","lat":43.23189,"lon":5.39985,"is_reserved":false,"is_disabled":false,"rental_uris":{"android":"levelo://app?vid=3a673a01-13fc-4ed6-b9b1-08a0faf2fd75","ios":"levelo://app?vid=3a673a01-13fc-4ed6-b9b1-08a0faf2fd75"},"vehicle_type_id":"4","last_reported":1743783101,"current_range_meters":9600,"station_id":"ce4bhn12rcd13ifvqgqg","pricing_plan_id":"cebpf4jnsgd1na2vs0mg"},{"bike_id":"74a13a18-430a-4f50-ba26-e7dfbad23482","system_id":"levelo_inurba_marseille","lat":43.23061,"lon":5.35491,"is_reserved":false,"is_disabled":false,"rental_uris":{"android":"levelo://app?vid=74a13a18-430a-4f50-ba26-e7dfbad23482","ios":"levelo://app?vid=74a13a18-430a-4f50-ba26-e7dfbad23482"},"vehicle_type_id":"4","last_reported":1743783101,"current_range_meters":9600,"station_id":"cpo3342slgdg3j2ifvpg","pricing_plan_id":"cebpf4jnsgd1na2vs0mg"},{"bike_id":"bc9151ba-104c-407b-bea7-88cfc8535563","system_id":"levelo_inurba_marseille","lat":43.29537,"lon":5.38539,"is_reserved":false,"is_disabled":false,"rental_uris":{"android":"levelo://app?vid=bc9151ba-104c-407b-bea7-88cfc8535563","ios":"levelo://app?vid=bc9151ba-104c-407b-bea7-88cfc8535563"},"vehicle_type_id":"4","last_reported":1743783101,"current_range_meters":10000,"station_id":"ce4bgih2rcd13ifvqba0","pricing_plan_id":"cebpf4jnsgd1na2vs0mg"},{"bike_id":"fb348b09-6abb-47a4-a266-91f2eeaee291","system_id":"levelo_inurba_marseille","lat":43.32111,"lon":5.36764,"is_reserved":false,"is_disabled":false,"rental_uris":{"android":"levelo://app?vid=fb348b09-6abb-47a4-a266-91f2eeaee291","ios":"levelo://app?vid=fb348b09-6abb-47a4-a266-91f2eeaee291"},"vehicle_type_id":"4","last_reported":1743783101,"current_range_meters":10000,"station_id":"ce4bhrh2rcd13ifvqhug","pricing_plan_id":"cebpf4jnsgd1na2vs0mg"},{"bike_id":"d1ec518c-cd7d-470e-99e0-1ad7bd66e7c5","system_id":"levelo_inurba_marseille","lat":43.29,"lon":5.35605,"is_reserved":false,"is_disabled":false,"rental_uris":{"android":"levelo://app?vid=d1ec518c-cd7d-470e-99e0-1ad7bd66e7c5","ios":"levelo://app?vid=d1ec518c-cd7d-470e-99e0-1ad7bd66e7c5"},"vehicle_type_id":"4","last_reported":1743783101,"current_range_meters":10000,"station_id":"ce4bhb92rcd13ifvqen0","pricing_plan_id":"cebpf4jnsgd1na2vs0mg"},{"bike_id":"3ca56104-6bdb-45ec-8efd-00919f7052ea","system_id":"levelo_inurba_marseille","lat":43.28338,"lon":5.38099,"is_reserved":false,"is_disabled":false,"rental_uris":{"android":"levelo://app?vid=3ca56104-6bdb-45ec-8efd-00919f7052ea","ios":"levelo://app?vid=3ca56104-6bdb-45ec-8efd-00919f7052ea"},"vehicle_type_id":"4","last_reported":1743783101,"current_range_meters":10000,"station_id":"ce4bh412rcd13ifvqdr0","pricing_plan_id":"cebpf4jnsgd1na2vs0mg"},{"bike_id":"bf4d1d8c-2a63-4c53-9d11-529e53fc4962","system_id":"levelo_inurba_marseille","lat":43.3266,"lon":5.40979,"is_reserved":false,"is_disabled":false,"rental_uris":{"android":"levelo://app?vid=bf4d1d8c-2a63-4c53-9d11-529e53fc4962","ios":"levelo://app?vid=bf4d1d8c-2a63-4c53-9d11-529e53fc4962"},"vehicle_type_id":"4","last_reported":1743783101,"current_range_meters":10000,"station_id":"ce4bhpp2rcd13ifvqhgg","pricing_plan_id":"cebpf4jnsgd1na2vs0mg"},{"bike_id":"b8971f05-9cd1-48fb-8f45-bf5c99483af8","system_id":"levelo_inurba_marseille","lat":43.28472,"lon":5.38548,"is_reserved":false,"is_disabled":false,"rental_uris":{"android":"levelo://app?vid=b8971f05-9cd1-48fb-8f45-bf5c99483af8","ios":"levelo://app?vid=b8971f05-9cd1-48fb-8f45-bf5c99483af8"},"vehicle_type_id":"4","last_reported":1743783101,"current_range_meters":10000,"station_id":"ce4bh8p2rcd13ifvqeb0","pricing_plan_id":"cebpf4jnsgd1na2vs0mg"},{"bike_id":"6b972eb1-f02d-45e4-8813-e0e58c788e08","system_id":"levelo_inurba_marseille","lat":43.29257,"lon":5.40917,"is_reserved":false,"is_disabled":false,"rental_uris":{"android":"levelo://app?vid=6b972eb1-f02d-45e4-8813-e0e58c788e08","ios":"levelo://app?vid=6b972eb1-f02d-45e4-8813-e0e58c788e08"},"vehicle_type_id":"4","last_reported":1743783101,"current_range_meters":10000,"station_id":"ce4bh192rcd13ifvqdc0","pricing_plan_id":"cebpf4jnsgd1na2vs0mg"},{"bike_id":"858ef0c7-12da-4308-bffa-458cee318685","system_id":"levelo_inurba_marseille","lat":43.27058,"lon":5.40264,"is_reserved":false,"is_disabled":false,"rental_uris":{"android":"levelo://app?vid=858ef0c7-12da-4308-bffa-458cee318685","ios":"levelo://app?vid=858ef0c7-12da-4308-bffa-458cee318685"},"vehicle_type_id":"4","last_reported":1743783101,"current_range_meters":10000,"station_id":"ce4bhk92rcd13ifvqgc0","pricing_plan_id":"cebpf4jnsgd1na2vs0mg"},{"bike_id":"db526bca-5447-4ac0-922d-45ecb017eb78","system_id":"levelo_inurba_marseille","lat":43.30802,"lon":5.43522,"is_reserved":false,"is_disabled":false,"rental_uris":{"android":"levelo://app?vid=db526bca-5447-4ac0-922d-45ecb017eb78","ios":"levelo://app?vid=db526bca-5447-4ac0-922d-45ecb017eb78"},"vehicle_type_id":"4","last_reported":1743783101,"current_range_meters":10000,"station_id":"ce4bhph2rcd13ifvqheg","pricing_plan_id":"cebpf4jnsgd1na2vs0mg"},{"bike_id":"fbd9005b-88d1-45c4-bd36-f2876bf0b10b","system_id":"levelo_inurba_marseille","lat":43.2757,"lon":5.38431,"is_reserved":false,"is_disabled":false,"rental_uris":{"android":"levelo://app?vid=fbd9005b-88d1-45c4-bd36-f2876bf0b10b","ios":"levelo://app?vid=fbd9005b-88d1-45c4-bd36-f2876bf0b10b"},"vehicle_type_id":"4","last_reported":1743783101,"current_range_meters":10800,"station_id":"ce4bhh92rcd13ifvqfi0","pricing_plan_id":"cebpf4jnsgd1na2vs0mg"},{"bike_id":"51181abe-5090-4bfe-a8f3-7b3e9fd33483","system_id":"levelo_inurba_marseille","lat":43.29369,"lon":5.37831,"is_reserved":false,"is_disabled":false,"rental_uris":{"android":"levelo://app?vid=51181abe-5090-4bfe-a8f3-7b3e9fd33483","ios":"levelo://app?vid=51181abe-5090-4bfe-a8f3-7b3e9fd33483"},"vehicle_type_id":"4","last_reported":1743783101,"current_range_meters":10800,"station_id":"ce4bgjh2rcd13ifvqbf0","pricing_plan_id":"cebpf4jnsgd1na2vs0mg"},{"bike_id":"6994b6ba-226c-4ffc-ac81-5c0539de829a","system_id":"levelo_inurba_marseille","lat":43.2649,"lon":5.39551,"is_reserved":false,"is_disabled":false,"rental_uris":{"android":"levelo://app?vid=6994b6ba-226c-4ffc-ac81-5c0539de829a","ios":"levelo://app?vid=6994b6ba-226c-4ffc-ac81-5c0539de829a"},"vehicle_type_id":"4","last_reported":1743783101,"current_range_meters":10800,"station_id":"ce4bhi12rcd13ifvqfq0","pricing_plan_id":"cebpf4jnsgd1na2vs0mg"},{"bike_id":"5ffbc8f2-3573-4204-aaba-ba242b8b1586","system_id":"levelo_inurba_marseille","lat":43.28903,"lon":5.3662,"is_reserved":false,"is_disabled":false,"rental_uris":{"android":"levelo://app?vid=5ffbc8f2-3573-4204-aaba-ba242b8b1586","ios":"levelo://app?vid=5ffbc8f2-3573-4204-aaba-ba242b8b1586"},"vehicle_type_id":"4","last_reported":1743783101,"current_range_meters":10800,"station_id":"ce4bhap2rcd13ifvqek0","pricing_plan_id":"cebpf4jnsgd1na2vs0mg"},{"bike_id":"b90a9d02-caf8-4b98-b149-1184383f3cb1","system_id":"levelo_inurba_marseille","lat":43.29888,"lon":5.38899,"is_reserved":false,"is_disabled":false,"rental_uris":{"android":"levelo://app?vid=b90a9d02-caf8-4b98-b149-1184383f3cb1","ios":"levelo://app?vid=b90a9d02-caf8-4b98-b149-1184383f3cb1"},"vehicle_type_id":"4","last_reported":1743783101,"current_range_meters":10800,"station_id":"ce4bh412rcd13ifvqdr0","pricing_plan_id":"cebpf4jnsgd1na2vs0mg"},{"bike_id":"eb50e635-f6be-4e65-b60c-c3c3c6f64354","system_id":"levelo_inurba_marseille","lat":43.28729,"lon":5.36088,"is_reserved":false,"is_disabled":false,"rental_uris":{"android":"levelo://app?vid=eb50e635-f6be-4e65-b60c-c3c3c6f64354","ios":"levelo://app?vid=eb50e635-f6be-4e65-b60c-c3c3c6f64354"},"vehicle_type_id":"4","last_reported":1743783101,"current_range_meters":10800,"station_id":"cki0cbj6b192h4jlfktg","pricing_plan_id":"cebpf4jnsgd1na2vs0mg"},{"bike_id":"d03e965e-1dfb-4891-92fc-37be59828007","system_id":"levelo_inurba_marseille","lat":43.28421,"lon":5.34982,"is_reserved":false,"is_disabled":false,"rental_uris":{"android":"levelo://app?vid=d03e965e-1dfb-4891-92fc-37be59828007","ios":"levelo://app?vid=d03e965e-1dfb-4891-92fc-37be59828007"},"vehicle_type_id":"4","last_reported":1743783101,"current_range_meters":10800,"station_id":"ce4bhbh2rcd13ifvqepg","pricing_plan_id":"cebpf4jnsgd1na2vs0mg"},{"bike_id":"d970d888-91e9-4be1-8fcb-0a18bb33a406","system_id":"levelo_inurba_marseille","lat":43.27816,"lon":5.40719,"is_reserved":false,"is_disabled":false,"rental_uris":{"android":"levelo://app?vid=d970d888-91e9-4be1-8fcb-0a18bb33a406","ios":"levelo://app?vid=d970d888-91e9-4be1-8fcb-0a18bb33a406"},"vehicle_type_id":"4","last_reported":1743783101,"current_range_meters":10800,"station_id":"ce4bhnh2rcd13ifvqgtg","pricing_plan_id":"cebpf4jnsgd1na2vs0mg"},{"bike_id":"5fe2916f-d6ce-459b-976b-8aa6a49d9880","system_id":"levelo_inurba_marseille","lat":43.29849,"lon":5.38115,"is_reserved":false,"is_disabled":false,"rental_uris":{"android":"levelo://app?vid=5fe2916f-d6ce-459b-976b-8aa6a49d9880","ios":"levelo://app?vid=5fe2916f-d6ce-459b-976b-8aa6a49d9880"},"vehicle_type_id":"4","last_reported":1743783101,"current_range_meters":10000,"station_id":"ce4bgip2rcd13ifvqbb0","pricing_plan_id":"cebpf4jnsgd1na2vs0mg"},{"bike_id":"35f29f39-44d0-4ada-954e-c676eaf7c64a","system_id":"levelo_inurba_marseille","lat":43.32051,"lon":5.41569,"is_reserved":false,"is_disabled":false,"rental_uris":{"android":"levelo://app?vid=35f29f39-44d0-4ada-954e-c676eaf7c64a","ios":"levelo://app?vid=35f29f39-44d0-4ada-954e-c676eaf7c64a"},"vehicle_type_id":"4","last_reported":1743783101,"current_range_meters":10000,"station_id":"ce4bhq92rcd13ifvqhkg","pricing_plan_id":"cebpf4jnsgd1na2vs0mg"},{"bike_id":"c71699ff-14ec-4829-9bae-d9d765b1bf37","system_id":"levelo_inurba_marseille","lat":43.27627,"lon":5.36129,"is_reserved":false,"is_disabled":false,"rental_uris":{"android":"levelo://app?vid=c71699ff-14ec-4829-9bae-d9d765b1bf37","ios":"levelo://app?vid=c71699ff-14ec-4829-9bae-d9d765b1bf37"},"vehicle_type_id":"4","last_reported":1743783101,"current_range_meters":10800,"station_id":"ce4bgj92rcd13ifvqbe0","pricing_plan_id":"cebpf4jnsgd1na2vs0mg"},{"bike_id":"b53018f6-8f1c-41f3-b81a-ce1bc4729d30","system_id":"levelo_inurba_marseille","lat":43.3116,"lon":5.38732,"is_reserved":false,"is_disabled":false,"rental_uris":{"android":"levelo://app?vid=b53018f6-8f1c-41f3-b81a-ce1bc4729d30","ios":"levelo://app?vid=b53018f6-8f1c-41f3-b81a-ce1bc4729d30"},"vehicle_type_id":"4","last_reported":1743783101,"current_range_meters":10000,"station_id":"ce4bgv12rcd13ifvqcp0","pricing_plan_id":"cebpf4jnsgd1na2vs0mg"},{"bike_id":"7c47b219-bce7-419c-bb60-1dd4d7a0eefa","system_id":"levelo_inurba_marseille","lat":43.265285,"lon":5.394847,"is_reserved":false,"is_disabled":false,"rental_uris":{"android":"levelo://app?vid=7c47b219-bce7-419c-bb60-1dd4d7a0eefa","ios":"levelo://app?vid=7c47b219-bce7-419c-bb60-1dd4d7a0eefa"},"vehicle_type_id":"4","last_reported":1743783101,"current_range_meters":10000,"station_id":"ce4bhi12rcd13ifvqfq0","pricing_plan_id":"cebpf4jnsgd1na2vs0mg"},{"bike_id":"d8dcf352-c323-46c7-98b3-ac8539ff46e1","system_id":"levelo_inurba_marseille","lat":43.246281,"lon":5.389162,"is_reserved":false,"is_disabled":false,"rental_uris":{"android":"levelo://app?vid=d8dcf352-c323-46c7-98b3-ac8539ff46e1","ios":"levelo://app?vid=d8dcf352-c323-46c7-98b3-ac8539ff46e1"},"vehicle_type_id":"4","last_reported":1743783101,"current_range_meters":11200,"station_id":"ce4bhg12rcd13ifvqf60","pricing_plan_id":"cebpf4jnsgd1na2vs0mg"},{"bike_id":"19dae76f-db06-482c-ba85-1d4e3fd90bae","system_id":"levelo_inurba_marseille","lat":43.26556,"lon":5.37285,"is_reserved":false,"is_disabled":false,"rental_uris":{"android":"levelo://app?vid=19dae76f-db06-482c-ba85-1d4e3fd90bae","ios":"levelo://app?vid=19dae76f-db06-482c-ba85-1d4e3fd90bae"},"vehicle_type_id":"4","last_reported":1743783101,"current_range_meters":11200,"station_id":"ce4bhg12rcd13ifvqf70","pricing_plan_id":"cebpf4jnsgd1na2vs0mg"},{"bike_id":"b683cafd-677d-42fd-b3e2-e1124d7fb1ab","system_id":"levelo_inurba_marseille","lat":43.29417,"lon":5.38622,"is_reserved":false,"is_disabled":false,"rental_uris":{"android":"levelo://app?vid=b683cafd-677d-42fd-b3e2-e1124d7fb1ab","ios":"levelo://app?vid=b683cafd-677d-42fd-b3e2-e1124d7fb1ab"},"vehicle_type_id":"4","last_reported":1743783101,"current_range_meters":11200,"station_id":"ce4bh2h2rcd13ifvqdh0","pricing_plan_id":"cebpf4jnsgd1na2vs0mg"},{"bike_id":"1659a981-2c30-4ef3-9434-a821a8231bda","system_id":"levelo_inurba_marseille","lat":43.29417,"lon":5.38618,"is_reserved":false,"is_disabled":false,"rental_uris":{"android":"levelo://app?vid=1659a981-2c30-4ef3-9434-a821a8231bda","ios":"levelo://app?vid=1659a981-2c30-4ef3-9434-a821a8231bda"},"vehicle_type_id":"4","last_reported":1743783101,"current_range_meters":11200,"station_id":"ce4bh2h2rcd13ifvqdh0","pricing_plan_id":"cebpf4jnsgd1na2vs0mg"},{"bike_id":"0c9cc9b8-9560-4a25-87cb-03379baf9839","system_id":"levelo_inurba_marseille","lat":43.30358,"lon":5.41877,"is_reserved":false,"is_disabled":false,"rental_uris":{"android":"levelo://app?vid=0c9cc9b8-9560-4a25-87cb-03379baf9839","ios":"levelo://app?vid=0c9cc9b8-9560-4a25-87cb-03379baf9839"},"vehicle_type_id":"4","last_reported":1743783101,"current_range_meters":11200,"station_id":"ce4bhop2rcd13ifvqh7g","pricing_plan_id":"cebpf4jnsgd1na2vs0mg"},{"bike_id":"c227cc8e-eb3e-445f-89e8-c56778fa7367","system_id":"levelo_inurba_marseille","lat":43.28937,"lon":5.38386,"is_reserved":false,"is_disabled":false,"rental_uris":{"android":"levelo://app?vid=c227cc8e-eb3e-445f-89e8-c56778fa7367","ios":"levelo://app?vid=c227cc8e-eb3e-445f-89e8-c56778fa7367"},"vehicle_type_id":"4","last_reported":1743783101,"current_range_meters":11600,"station_id":"ce4bh612rcd13ifvqe6g","pricing_plan_id":"cebpf4jnsgd1na2vs0mg"},{"bike_id":"c9ab5bfd-fa91-4b45-8fa2-52813c43fa45","system_id":"levelo_inurba_marseille","lat":43.23063,"lon":5.35502,"is_reserved":false,"is_disabled":false,"rental_uris":{"android":"levelo://app?vid=c9ab5bfd-fa91-4b45-8fa2-52813c43fa45","ios":"levelo://app?vid=c9ab5bfd-fa91-4b45-8fa2-52813c43fa45"},"vehicle_type_id":"4","last_reported":1743783101,"current_range_meters":11600,"station_id":"cpo3342slgdg3j2ifvpg","pricing_plan_id":"cebpf4jnsgd1na2vs0mg"},{"bike_id":"bad8d18d-e73b-4d50-9607-fc7f75ef9b09","system_id":"levelo_inurba_marseille","lat":43.24388,"lon":5.37056,"is_reserved":false,"is_disabled":false,"rental_uris":{"android":"levelo://app?vid=bad8d18d-e73b-4d50-9607-fc7f75ef9b09","ios":"levelo://app?vid=bad8d18d-e73b-4d50-9607-fc7f75ef9b09"},"vehicle_type_id":"4","last_reported":1743783101,"current_range_meters":11600,"station_id":"ce4bhhh2rcd13ifvqfk0","pricing_plan_id":"cebpf4jnsgd1na2vs0mg"},{"bike_id":"45d80b58-c07f-44e4-8e07-7e3f99b7686c","system_id":"levelo_inurba_marseille","lat":43.26563,"lon":5.39014,"is_reserved":false,"is_disabled":false,"rental_uris":{"android":"levelo://app?vid=45d80b58-c07f-44e4-8e07-7e3f99b7686c","ios":"levelo://app?vid=45d80b58-c07f-44e4-8e07-7e3f99b7686c"},"vehicle_type_id":"4","last_reported":1743783101,"current_range_meters":11600,"station_id":"ce4bhe12rcd13ifvqf30","pricing_plan_id":"cebpf4jnsgd1na2vs0mg"},{"bike_id":"1d9e4ce1-df66-4a2d-a748-b7a921253ec4","system_id":"levelo_inurba_marseille","lat":43.30809,"lon":5.38143,"is_reserved":false,"is_disabled":false,"rental_uris":{"android":"levelo://app?vid=1d9e4ce1-df66-4a2d-a748-b7a921253ec4","ios":"levelo://app?vid=1d9e4ce1-df66-4a2d-a748-b7a921253ec4"},"vehicle_type_id":"4","last_reported":1743783101,"current_range_meters":11600,"station_id":"ce4bgt12rcd13ifvqce0","pricing_plan_id":"cebpf4jnsgd1na2vs0mg"},{"bike_id":"f40fc4e8-cfdd-40aa-8507-3bd8857476a8","system_id":"levelo_inurba_marseille","lat":43.30254,"lon":5.40106,"is_reserved":false,"is_disabled":true,"rental_uris":{"android":"levelo://app?vid=f40fc4e8-cfdd-40aa-8507-3bd8857476a8","ios":"levelo://app?vid=f40fc4e8-cfdd-40aa-8507-3bd8857476a8"},"vehicle_type_id":"4","last_reported":1743783101,"current_range_meters":12000,"station_id":"ce4bgvh2rcd13ifvqcs0","pricing_plan_id":"cebpf4jnsgd1na2vs0mg"},{"bike_id":"6b8df6c6-e69f-416d-869f-6c58b572d426","system_id":"levelo_inurba_marseille","lat":43.23177,"lon":5.39985,"is_reserved":false,"is_disabled":false,"rental_uris":{"android":"levelo://app?vid=6b8df6c6-e69f-416d-869f-6c58b572d426","ios":"levelo://app?vid=6b8df6c6-e69f-416d-869f-6c58b572d426"},"vehicle_type_id":"4","last_reported":1743783101,"current_range_meters":12000,"station_id":"ce4bhn12rcd13ifvqgqg","pricing_plan_id":"cebpf4jnsgd1na2vs0mg"},{"bike_id":"829acafc-221e-41d2-b87e-1eaa511b3313","system_id":"levelo_inurba_marseille","lat":43.29044,"lon":5.39967,"is_reserved":false,"is_disabled":true,"rental_uris":{"android":"levelo://app?vid=829acafc-221e-41d2-b87e-1eaa511b3313","ios":"levelo://app?vid=829acafc-221e-41d2-b87e-1eaa511b3313"},"vehicle_type_id":"4","last_reported":1743783101,"current_range_meters":12000,"station_id":"ce4bh392rcd13ifvqdm0","pricing_plan_id":"cebpf4jnsgd1na2vs0mg"},{"bike_id":"05e3fdcd-63b9-4723-b8e7-049a0d001966","system_id":"levelo_inurba_marseille","lat":43.29416,"lon":5.38627,"is_reserved":false,"is_disabled":false,"rental_uris":{"android":"levelo://app?vid=05e3fdcd-63b9-4723-b8e7-049a0d001966","ios":"levelo://app?vid=05e3fdcd-63b9-4723-b8e7-049a0d001966"},"vehicle_type_id":"4","last_reported":1743783101,"current_range_meters":11600,"station_id":"ce4bh2h2rcd13ifvqdh0","pricing_plan_id":"cebpf4jnsgd1na2vs0mg"},{"bike_id":"706fc506-2aa0-4db5-833c-3cdac573bb9a","system_id":"levelo_inurba_marseille","lat":43.2904,"lon":5.38678,"is_reserved":false,"is_disabled":true,"rental_uris":{"android":"levelo://app?vid=706fc506-2aa0-4db5-833c-3cdac573bb9a","ios":"levelo://app?vid=706fc506-2aa0-4db5-833c-3cdac573bb9a"},"vehicle_type_id":"4","last_reported":1743783101,"current_range_meters":12000,"station_id":"ce4bh4p2rcd13ifvqe0g","pricing_plan_id":"cebpf4jnsgd1na2vs0mg"},{"bike_id":"69765911-a657-4873-ab71-1b6674378393","system_id":"levelo_inurba_marseille","lat":43.29303,"lon":5.37458,"is_reserved":false,"is_disabled":true,"rental_uris":{"android":"levelo://app?vid=69765911-a657-4873-ab71-1b6674378393","ios":"levelo://app?vid=69765911-a657-4873-ab71-1b6674378393"},"vehicle_type_id":"4","last_reported":1743783101,"current_range_meters":12400,"station_id":"ce4bgi12rcd13ifvqb70","pricing_plan_id":"cebpf4jnsgd1na2vs0mg"},{"bike_id":"c91a6301-d46d-458e-a0a6-5762e813d6dd","system_id":"levelo_inurba_marseille","lat":43.29543,"lon":5.38561,"is_reserved":false,"is_disabled":true,"rental_uris":{"android":"levelo://app?vid=c91a6301-d46d-458e-a0a6-5762e813d6dd","ios":"levelo://app?vid=c91a6301-d46d-458e-a0a6-5762e813d6dd"},"vehicle_type_id":"4","last_reported":1743783101,"current_range_meters":12400,"station_id":"ce4bgih2rcd13ifvqba0","pricing_plan_id":"cebpf4jnsgd1na2vs0mg"},{"bike_id":"3b4ad8c6-6244-4378-90d7-dac703d1508d","system_id":"levelo_inurba_marseille","lat":43.23191,"lon":5.3556,"is_reserved":false,"is_disabled":false,"rental_uris":{"android":"levelo://app?vid=3b4ad8c6-6244-4378-90d7-dac703d1508d","ios":"levelo://app?vid=3b4ad8c6-6244-4378-90d7-dac703d1508d"},"vehicle_type_id":"4","last_reported":1743783101,"current_range_meters":12400,"station_id":"ce4bhu92rcd13ifvqi70","pricing_plan_id":"cebpf4jnsgd1na2vs0mg"},{"bike_id":"de4e2025-e944-4e4f-9a52-bbeecbf80e03","system_id":"levelo_inurba_marseille","lat":43.298849,"lon":5.38911,"is_reserved":false,"is_disabled":false,"rental_uris":{"android":"levelo://app?vid=de4e2025-e944-4e4f-9a52-bbeecbf80e03","ios":"levelo://app?vid=de4e2025-e944-4e4f-9a52-bbeecbf80e03"},"vehicle_type_id":"4","last_reported":1743783101,"current_range_meters":12400,"station_id":"ce4bh392rcd13ifvqdl0","pricing_plan_id":"cebpf4jnsgd1na2vs0mg"},{"bike_id":"14e6d7cf-9e98-457d-8b40-37ad2eac0b45","system_id":"levelo_inurba_marseille","lat":43.29542,"lon":5.38542,"is_reserved":false,"is_disabled":false,"rental_uris":{"android":"levelo://app?vid=14e6d7cf-9e98-457d-8b40-37ad2eac0b45","ios":"levelo://app?vid=14e6d7cf-9e98-457d-8b40-37ad2eac0b45"},"vehicle_type_id":"4","last_reported":1743783101,"current_range_meters":12400,"station_id":"ce4bgih2rcd13ifvqba0","pricing_plan_id":"cebpf4jnsgd1na2vs0mg"},{"bike_id":"ccbaad60-ee1e-4837-a1f8-1af8e79dfa40","system_id":"levelo_inurba_marseille","lat":43.30619,"lon":5.39358,"is_reserved":false,"is_disabled":true,"rental_uris":{"android":"levelo://app?vid=ccbaad60-ee1e-4837-a1f8-1af8e79dfa40","ios":"levelo://app?vid=ccbaad60-ee1e-4837-a1f8-1af8e79dfa40"},"vehicle_type_id":"4","last_reported":1743783101,"current_range_meters":12400,"station_id":"ce4bh0p2rcd13ifvqd80","pricing_plan_id":"cebpf4jnsgd1na2vs0mg"},{"bike_id":"4f52b75d-280c-46b2-856d-c17c1673612e","system_id":"levelo_inurba_marseille","lat":43.286942,"lon":5.373752,"is_reserved":false,"is_disabled":false,"rental_uris":{"android":"levelo://app?vid=4f52b75d-280c-46b2-856d-c17c1673612e","ios":"levelo://app?vid=4f52b75d-280c-46b2-856d-c17c1673612e"},"vehicle_type_id":"4","last_reported":1743783101,"current_range_meters":12400,"station_id":"ce4bh3p2rcd13ifvqdq0","pricing_plan_id":"cebpf4jnsgd1na2vs0mg"},{"bike_id":"0eb30f16-826e-404e-9494-cbd59d704ab7","system_id":"levelo_inurba_marseille","lat":43.29021,"lon":5.38638,"is_reserved":false,"is_disabled":true,"rental_uris":{"android":"levelo://app?vid=0eb30f16-826e-404e-9494-cbd59d704ab7","ios":"levelo://app?vid=0eb30f16-826e-404e-9494-cbd59d704ab7"},"vehicle_type_id":"4","last_reported":1743783101,"current_range_meters":12400,"station_id":"ce4bh4p2rcd13ifvqe0g","pricing_plan_id":"cebpf4jnsgd1na2vs0mg"},{"bike_id":"ae85a7a4-7c38-4e25-9e50-a9a925b58789","system_id":"levelo_inurba_marseille","lat":43.31081,"lon":5.42436,"is_reserved":false,"is_disabled":false,"rental_uris":{"android":"levelo://app?vid=ae85a7a4-7c38-4e25-9e50-a9a925b58789","ios":"levelo://app?vid=ae85a7a4-7c38-4e25-9e50-a9a925b58789"},"vehicle_type_id":"4","last_reported":1743783101,"current_range_meters":12400,"station_id":"ce4bhp92rcd13ifvqhag","pricing_plan_id":"cebpf4jnsgd1na2vs0mg"},{"bike_id":"c2055a2a-1cff-4f19-a52d-9b52baeaa63f","system_id":"levelo_inurba_marseille","lat":43.3203,"lon":5.38122,"is_reserved":false,"is_disabled":true,"rental_uris":{"android":"levelo://app?vid=c2055a2a-1cff-4f19-a52d-9b52baeaa63f","ios":"levelo://app?vid=c2055a2a-1cff-4f19-a52d-9b52baeaa63f"},"vehicle_type_id":"4","last_reported":1743783101,"current_range_meters":12400,"station_id":"","pricing_plan_id":"cebpf4jnsgd1na2vs0mg"},{"bike_id":"a07480da-f5a9-4597-b3e6-cc405effeae7","system_id":"levelo_inurba_marseille","lat":43.2895,"lon":5.39635,"is_reserved":false,"is_disabled":true,"rental_uris":{"android":"levelo://app?vid=a07480da-f5a9-4597-b3e6-cc405effeae7","ios":"levelo://app?vid=a07480da-f5a9-4597-b3e6-cc405effeae7"},"vehicle_type_id":"4","last_reported":1743783101,"current_range_meters":12800,"station_id":"ce4bh3h2rcd13ifvqdn0","pricing_plan_id":"cebpf4jnsgd1na2vs0mg"},{"bike_id":"ef4dd79a-6a9c-4725-9395-683a23c245a7","system_id":"levelo_inurba_marseille","lat":43.31894,"lon":5.40742,"is_reserved":false,"is_disabled":false,"rental_uris":{"android":"levelo://app?vid=ef4dd79a-6a9c-4725-9395-683a23c245a7","ios":"levelo://app?vid=ef4dd79a-6a9c-4725-9395-683a23c245a7"},"vehicle_type_id":"4","last_reported":1743783101,"current_range_meters":12800,"station_id":"ce4bhq12rcd13ifvqhig","pricing_plan_id":"cebpf4jnsgd1na2vs0mg"},{"bike_id":"bc5f9e09-d88a-431a-baed-9a17da9ad3ad","system_id":"levelo_inurba_marseille","lat":43.317555,"lon":5.39012,"is_reserved":false,"is_disabled":false,"rental_uris":{"android":"levelo://app?vid=bc5f9e09-d88a-431a-baed-9a17da9ad3ad","ios":"levelo://app?vid=bc5f9e09-d88a-431a-baed-9a17da9ad3ad"},"vehicle_type_id":"4","last_reported":1743783101,"current_range_meters":12800,"station_id":"ce4bhah2rcd13ifvqei0","pricing_plan_id":"cebpf4jnsgd1na2vs0mg"},{"bike_id":"a6303451-5b45-435c-bf0e-748f94cc010d","system_id":"levelo_inurba_marseille","lat":43.23192,"lon":5.35559,"is_reserved":false,"is_disabled":false,"rental_uris":{"android":"levelo://app?vid=a6303451-5b45-435c-bf0e-748f94cc010d","ios":"levelo://app?vid=a6303451-5b45-435c-bf0e-748f94cc010d"},"vehicle_type_id":"4","last_reported":1743783101,"current_range_meters":12800,"station_id":"ce4bhu92rcd13ifvqi70","pricing_plan_id":"cebpf4jnsgd1na2vs0mg"},{"bike_id":"98db33d9-9eac-44b3-a656-4abc1b64a847","system_id":"levelo_inurba_marseille","lat":43.279541,"lon":5.410608,"is_reserved":false,"is_disabled":false,"rental_uris":{"android":"levelo://app?vid=98db33d9-9eac-44b3-a656-4abc1b64a847","ios":"levelo://app?vid=98db33d9-9eac-44b3-a656-4abc1b64a847"},"vehicle_type_id":"4","last_reported":1743783101,"current_range_meters":12800,"station_id":"ce4bh2p2rcd13ifvqdi0","pricing_plan_id":"cebpf4jnsgd1na2vs0mg"},{"bike_id":"82094fca-82b5-45b4-81a5-df2e6ffd6728","system_id":"levelo_inurba_marseille","lat":43.323417,"lon":5.406643,"is_reserved":false,"is_disabled":false,"rental_uris":{"android":"levelo://app?vid=82094fca-82b5-45b4-81a5-df2e6ffd6728","ios":"levelo://app?vid=82094fca-82b5-45b4-81a5-df2e6ffd6728"},"vehicle_type_id":"4","last_reported":1743783101,"current_range_meters":12800,"station_id":"ce4bhq92rcd13ifvqhjg","pricing_plan_id":"cebpf4jnsgd1na2vs0mg"},{"bike_id":"b970ff2b-280f-4168-96ac-bf68b1985992","system_id":"levelo_inurba_marseille","lat":43.28468,"lon":5.358883,"is_reserved":false,"is_disabled":false,"rental_uris":{"android":"levelo://app?vid=b970ff2b-280f-4168-96ac-bf68b1985992","ios":"levelo://app?vid=b970ff2b-280f-4168-96ac-bf68b1985992"},"vehicle_type_id":"4","last_reported":1743783101,"current_range_meters":12800,"station_id":"ce4bhah2rcd13ifvqei0","pricing_plan_id":"cebpf4jnsgd1na2vs0mg"},{"bike_id":"d3669347-4cf5-4089-9cd2-0c8bed3e4bd2","system_id":"levelo_inurba_marseille","lat":43.29006,"lon":5.35616,"is_reserved":false,"is_disabled":false,"rental_uris":{"android":"levelo://app?vid=d3669347-4cf5-4089-9cd2-0c8bed3e4bd2","ios":"levelo://app?vid=d3669347-4cf5-4089-9cd2-0c8bed3e4bd2"},"vehicle_type_id":"4","last_reported":1743783101,"current_range_meters":13600,"station_id":"ce4bhb92rcd13ifvqen0","pricing_plan_id":"cebpf4jnsgd1na2vs0mg"},{"bike_id":"b2006cab-05eb-4439-b852-925dca35587c","system_id":"levelo_inurba_marseille","lat":43.3266,"lon":5.40989,"is_reserved":false,"is_disabled":false,"rental_uris":{"android":"levelo://app?vid=b2006cab-05eb-4439-b852-925dca35587c","ios":"levelo://app?vid=b2006cab-05eb-4439-b852-925dca35587c"},"vehicle_type_id":"4","last_reported":1743783101,"current_range_meters":12800,"station_id":"ce4bhpp2rcd13ifvqhgg","pricing_plan_id":"cebpf4jnsgd1na2vs0mg"},{"bike_id":"f0c99699-977a-4de5-8bfb-e4ec39e54e1b","system_id":"levelo_inurba_marseille","lat":43.2955,"lon":5.42276,"is_reserved":false,"is_disabled":false,"rental_uris":{"android":"levelo://app?vid=f0c99699-977a-4de5-8bfb-e4ec39e54e1b","ios":"levelo://app?vid=f0c99699-977a-4de5-8bfb-e4ec39e54e1b"},"vehicle_type_id":"4","last_reported":1743783101,"current_range_meters":12800,"station_id":"ce4bhph2rcd13ifvqhdg","pricing_plan_id":"cebpf4jnsgd1na2vs0mg"},{"bike_id":"340e3872-d18f-48cb-9e03-1ba163ec6337","system_id":"levelo_inurba_marseille","lat":43.28682,"lon":5.36345,"is_reserved":false,"is_disabled":false,"rental_uris":{"android":"levelo://app?vid=340e3872-d18f-48cb-9e03-1ba163ec6337","ios":"levelo://app?vid=340e3872-d18f-48cb-9e03-1ba163ec6337"},"vehicle_type_id":"4","last_reported":1743783101,"current_range_meters":12800,"station_id":"ce4bhah2rcd13ifvqej0","pricing_plan_id":"cebpf4jnsgd1na2vs0mg"},{"bike_id":"9df2e517-b618-4d6d-ae3a-3b20dba81f15","system_id":"levelo_inurba_marseille","lat":43.28929,"lon":5.3665,"is_reserved":false,"is_disabled":false,"rental_uris":{"android":"levelo://app?vid=9df2e517-b618-4d6d-ae3a-3b20dba81f15","ios":"levelo://app?vid=9df2e517-b618-4d6d-ae3a-3b20dba81f15"},"vehicle_type_id":"4","last_reported":1743783101,"current_range_meters":13600,"station_id":"ce4bhap2rcd13ifvqek0","pricing_plan_id":"cebpf4jnsgd1na2vs0mg"},{"bike_id":"0e6fc216-6ad4-4222-b3b9-3ad5179669d6","system_id":"levelo_inurba_marseille","lat":43.28445,"lon":5.3589,"is_reserved":false,"is_disabled":false,"rental_uris":{"android":"levelo://app?vid=0e6fc216-6ad4-4222-b3b9-3ad5179669d6","ios":"levelo://app?vid=0e6fc216-6ad4-4222-b3b9-3ad5179669d6"},"vehicle_type_id":"4","last_reported":1743783101,"current_range_meters":13600,"station_id":"ce4bhah2rcd13ifvqei0","pricing_plan_id":"cebpf4jnsgd1na2vs0mg"},{"bike_id":"27ebc7eb-5de4-43f0-933c-44535f627bc9","system_id":"levelo_inurba_marseille","lat":43.25391,"lon":5.4187,"is_reserved":false,"is_disabled":false,"rental_uris":{"android":"levelo://app?vid=27ebc7eb-5de4-43f0-933c-44535f627bc9","ios":"levelo://app?vid=27ebc7eb-5de4-43f0-933c-44535f627bc9"},"vehicle_type_id":"4","last_reported":1743783101,"current_range_meters":13600,"station_id":"","pricing_plan_id":"cebpf4jnsgd1na2vs0mg"},{"bike_id":"ff0a0b1f-297e-44b8-abf0-a5df2f6475c0","system_id":"levelo_inurba_marseille","lat":43.2606,"lon":5.39395,"is_reserved":false,"is_disabled":false,"rental_uris":{"android":"levelo://app?vid=ff0a0b1f-297e-44b8-abf0-a5df2f6475c0","ios":"levelo://app?vid=ff0a0b1f-297e-44b8-abf0-a5df2f6475c0"},"vehicle_type_id":"4","last_reported":1743783101,"current_range_meters":13600,"station_id":"ce4bhh92rcd13ifvqfj0","pricing_plan_id":"cebpf4jnsgd1na2vs0mg"},{"bike_id":"fb0d4993-67fa-4314-9525-ef2ba9197c72","system_id":"levelo_inurba_marseille","lat":43.30283,"lon":5.40586,"is_reserved":false,"is_disabled":false,"rental_uris":{"android":"levelo://app?vid=fb0d4993-67fa-4314-9525-ef2ba9197c72","ios":"levelo://app?vid=fb0d4993-67fa-4314-9525-ef2ba9197c72"},"vehicle_type_id":"4","last_reported":1743783101,"current_range_meters":13600,"station_id":"","pricing_plan_id":"cebpf4jnsgd1na2vs0mg"},{"bike_id":"cccce150-77a7-4565-8ca1-36858ce9e6b0","system_id":"levelo_inurba_marseille","lat":43.32106,"lon":5.36798,"is_reserved":false,"is_disabled":false,"rental_uris":{"android":"levelo://app?vid=cccce150-77a7-4565-8ca1-36858ce9e6b0","ios":"levelo://app?vid=cccce150-77a7-4565-8ca1-36858ce9e6b0"},"vehicle_type_id":"4","last_reported":1743783101,"current_range_meters":13600,"station_id":"ce4bhrh2rcd13ifvqhug","pricing_plan_id":"cebpf4jnsgd1na2vs0mg"},{"bike_id":"9cf2d1c3-36b0-4795-8aad-cc7e6d4db670","system_id":"levelo_inurba_marseille","lat":43.29429,"lon":5.39757,"is_reserved":false,"is_disabled":false,"rental_uris":{"android":"levelo://app?vid=9cf2d1c3-36b0-4795-8aad-cc7e6d4db670","ios":"levelo://app?vid=9cf2d1c3-36b0-4795-8aad-cc7e6d4db670"},"vehicle_type_id":"4","last_reported":1743783101,"current_range_meters":13600,"station_id":"ce4bh3h2rcd13ifvqdo0","pricing_plan_id":"cebpf4jnsgd1na2vs0mg"},{"bike_id":"1e6c5157-c1c0-4c04-a37c-afb5c8fa7e06","system_id":"levelo_inurba_marseille","lat":43.28107,"lon":5.37839,"is_reserved":false,"is_disabled":false,"rental_uris":{"android":"levelo://app?vid=1e6c5157-c1c0-4c04-a37c-afb5c8fa7e06","ios":"levelo://app?vid=1e6c5157-c1c0-4c04-a37c-afb5c8fa7e06"},"vehicle_type_id":"4","last_reported":1743783101,"current_range_meters":13600,"station_id":"ce4bha12rcd13ifvqee0","pricing_plan_id":"cebpf4jnsgd1na2vs0mg"},{"bike_id":"1d5ef6d0-a413-45b3-8100-7222d11689f2","system_id":"levelo_inurba_marseille","lat":43.28926,"lon":5.38409,"is_reserved":false,"is_disabled":true,"rental_uris":{"android":"levelo://app?vid=1d5ef6d0-a413-45b3-8100-7222d11689f2","ios":"levelo://app?vid=1d5ef6d0-a413-45b3-8100-7222d11689f2"},"vehicle_type_id":"4","last_reported":1743783101,"current_range_meters":13600,"station_id":"ce4bh612rcd13ifvqe6g","pricing_plan_id":"cebpf4jnsgd1na2vs0mg"},{"bike_id":"5f8a2570-32aa-444b-b6f6-4804db20a610","system_id":"levelo_inurba_marseille","lat":43.31136,"lon":5.3777,"is_reserved":false,"is_disabled":false,"rental_uris":{"android":"levelo://app?vid=5f8a2570-32aa-444b-b6f6-4804db20a610","ios":"levelo://app?vid=5f8a2570-32aa-444b-b6f6-4804db20a610"},"vehicle_type_id":"4","last_reported":1743783101,"current_range_meters":14000,"station_id":"ce4bgt92rcd13ifvqcg0","pricing_plan_id":"cebpf4jnsgd1na2vs0mg"},{"bike_id":"663f95a2-2f5d-4e99-be49-8d8d12195466","system_id":"levelo_inurba_marseille","lat":43.30531,"lon":5.36712,"is_reserved":false,"is_disabled":false,"rental_uris":{"android":"levelo://app?vid=663f95a2-2f5d-4e99-be49-8d8d12195466","ios":"levelo://app?vid=663f95a2-2f5d-4e99-be49-8d8d12195466"},"vehicle_type_id":"4","last_reported":1743783101,"current_range_meters":14000,"station_id":"ce4bgrp2rcd13ifvqc9g","pricing_plan_id":"cebpf4jnsgd1na2vs0mg"},{"bike_id":"047a1c67-ba9d-4c55-95da-ff9b334e857f","system_id":"levelo_inurba_marseille","lat":43.29423,"lon":5.38628,"is_reserved":false,"is_disabled":false,"rental_uris":{"android":"levelo://app?vid=047a1c67-ba9d-4c55-95da-ff9b334e857f","ios":"levelo://app?vid=047a1c67-ba9d-4c55-95da-ff9b334e857f"},"vehicle_type_id":"4","last_reported":1743783101,"current_range_meters":14000,"station_id":"ce4bh2h2rcd13ifvqdh0","pricing_plan_id":"cebpf4jnsgd1na2vs0mg"},{"bike_id":"48ec1fe3-fdf4-49a5-977a-526829b4e2e3","system_id":"levelo_inurba_marseille","lat":43.23062,"lon":5.35532,"is_reserved":false,"is_disabled":false,"rental_uris":{"android":"levelo://app?vid=48ec1fe3-fdf4-49a5-977a-526829b4e2e3","ios":"levelo://app?vid=48ec1fe3-fdf4-49a5-977a-526829b4e2e3"},"vehicle_type_id":"4","last_reported":1743783101,"current_range_meters":14000,"station_id":"cpo3342slgdg3j2ifvpg","pricing_plan_id":"cebpf4jnsgd1na2vs0mg"},{"bike_id":"f055a8b9-4f10-40e2-a5a3-558ef1685846","system_id":"levelo_inurba_marseille","lat":43.23191,"lon":5.35563,"is_reserved":false,"is_disabled":false,"rental_uris":{"android":"levelo://app?vid=f055a8b9-4f10-40e2-a5a3-558ef1685846","ios":"levelo://app?vid=f055a8b9-4f10-40e2-a5a3-558ef1685846"},"vehicle_type_id":"4","last_reported":1743783101,"current_range_meters":14000,"station_id":"ce4bhu92rcd13ifvqi70","pricing_plan_id":"cebpf4jnsgd1na2vs0mg"},{"bike_id":"63b60864-2340-4bf5-bb93-f83980dff536","system_id":"levelo_inurba_marseille","lat":43.25506,"lon":5.37666,"is_reserved":false,"is_disabled":true,"rental_uris":{"android":"levelo://app?vid=63b60864-2340-4bf5-bb93-f83980dff536","ios":"levelo://app?vid=63b60864-2340-4bf5-bb93-f83980dff536"},"vehicle_type_id":"4","last_reported":1743783101,"current_range_meters":13600,"station_id":"ce4bhh12rcd13ifvqff0","pricing_plan_id":"cebpf4jnsgd1na2vs0mg"},{"bike_id":"6d9715e6-045f-417b-844a-144b6e5c1132","system_id":"levelo_inurba_marseille","lat":43.2921,"lon":5.35718,"is_reserved":false,"is_disabled":false,"rental_uris":{"android":"levelo://app?vid=6d9715e6-045f-417b-844a-144b6e5c1132","ios":"levelo://app?vid=6d9715e6-045f-417b-844a-144b6e5c1132"},"vehicle_type_id":"4","last_reported":1743783101,"current_range_meters":14000,"station_id":"","pricing_plan_id":"cebpf4jnsgd1na2vs0mg"},{"bike_id":"af661a25-c7e0-490b-8ca5-b637cc5e13c9","system_id":"levelo_inurba_marseille","lat":43.28975,"lon":5.37832,"is_reserved":false,"is_disabled":false,"rental_uris":{"android":"levelo://app?vid=af661a25-c7e0-490b-8ca5-b637cc5e13c9","ios":"levelo://app?vid=af661a25-c7e0-490b-8ca5-b637cc5e13c9"},"vehicle_type_id":"4","last_reported":1743783101,"current_range_meters":14400,"station_id":"ce4bh9p2rcd13ifvqed0","pricing_plan_id":"cebpf4jnsgd1na2vs0mg"},{"bike_id":"10c43330-380d-431f-9036-622b33e0ff46","system_id":"levelo_inurba_marseille","lat":43.25866,"lon":5.39898,"is_reserved":false,"is_disabled":false,"rental_uris":{"android":"levelo://app?vid=10c43330-380d-431f-9036-622b33e0ff46","ios":"levelo://app?vid=10c43330-380d-431f-9036-622b33e0ff46"},"vehicle_type_id":"4","last_reported":1743783101,"current_range_meters":14400,"station_id":"ce4bhl92rcd13ifvqghg","pricing_plan_id":"cebpf4jnsgd1na2vs0mg"},{"bike_id":"eb79d1f9-7c91-4ea2-b5f8-796189743e1a","system_id":"levelo_inurba_marseille","lat":43.337291,"lon":5.391792,"is_reserved":false,"is_disabled":false,"rental_uris":{"android":"levelo://app?vid=eb79d1f9-7c91-4ea2-b5f8-796189743e1a","ios":"levelo://app?vid=eb79d1f9-7c91-4ea2-b5f8-796189743e1a"},"vehicle_type_id":"4","last_reported":1743783101,"current_range_meters":14400,"station_id":"ce4bhr92rcd13ifvqhsg","pricing_plan_id":"cebpf4jnsgd1na2vs0mg"},{"bike_id":"44ac6bc0-66a4-4501-af28-17e8526c476f","system_id":"levelo_inurba_marseille","lat":43.24167,"lon":5.36398,"is_reserved":false,"is_disabled":false,"rental_uris":{"android":"levelo://app?vid=44ac6bc0-66a4-4501-af28-17e8526c476f","ios":"levelo://app?vid=44ac6bc0-66a4-4501-af28-17e8526c476f"},"vehicle_type_id":"4","last_reported":1743783101,"current_range_meters":14400,"station_id":"cpo36qri1sfpv3e86is0","pricing_plan_id":"cebpf4jnsgd1na2vs0mg"},{"bike_id":"a3027c9c-170e-47c3-8a85-7bfb4147b64c","system_id":"levelo_inurba_marseille","lat":43.26807,"lon":5.40276,"is_reserved":false,"is_disabled":false,"rental_uris":{"android":"levelo://app?vid=a3027c9c-170e-47c3-8a85-7bfb4147b64c","ios":"levelo://app?vid=a3027c9c-170e-47c3-8a85-7bfb4147b64c"},"vehicle_type_id":"4","last_reported":1743783101,"current_range_meters":14400,"station_id":"ce501612rcd8frsf0b60","pricing_plan_id":"cebpf4jnsgd1na2vs0mg"},{"bike_id":"af09e5b7-f5a8-4563-a892-ae4e67e86709","system_id":"levelo_inurba_marseille","lat":43.28354,"lon":5.38622,"is_reserved":false,"is_disabled":false,"rental_uris":{"android":"levelo://app?vid=af09e5b7-f5a8-4563-a892-ae4e67e86709","ios":"levelo://app?vid=af09e5b7-f5a8-4563-a892-ae4e67e86709"},"vehicle_type_id":"4","last_reported":1743783101,"current_range_meters":14400,"station_id":"ce4bh492rcd13ifvqdvg","pricing_plan_id":"cebpf4jnsgd1na2vs0mg"},{"bike_id":"3719d63c-6535-40a3-9206-8644906174c4","system_id":"levelo_inurba_marseille","lat":43.299012,"lon":5.436686,"is_reserved":false,"is_disabled":false,"rental_uris":{"android":"levelo://app?vid=3719d63c-6535-40a3-9206-8644906174c4","ios":"levelo://app?vid=3719d63c-6535-40a3-9206-8644906174c4"},"vehicle_type_id":"4","last_reported":1743783101,"current_range_meters":14800,"station_id":"ce4bhpp2rcd13ifvqhfg","pricing_plan_id":"cebpf4jnsgd1na2vs0mg"},{"bike_id":"24e6012b-7010-402c-b6c4-a64f3bb93359","system_id":"levelo_inurba_marseille","lat":43.296123,"lon":5.381505,"is_reserved":false,"is_disabled":false,"rental_uris":{"android":"levelo://app?vid=24e6012b-7010-402c-b6c4-a64f3bb93359","ios":"levelo://app?vid=24e6012b-7010-402c-b6c4-a64f3bb93359"},"vehicle_type_id":"4","last_reported":1743783101,"current_range_meters":14800,"station_id":"ce4bh4p2rcd13ifvqe0g","pricing_plan_id":"cebpf4jnsgd1na2vs0mg"},{"bike_id":"a67cc3ed-bd3c-422e-8760-9a5f5aa3d70a","system_id":"levelo_inurba_marseille","lat":43.2892,"lon":5.383883,"is_reserved":false,"is_disabled":false,"rental_uris":{"android":"levelo://app?vid=a67cc3ed-bd3c-422e-8760-9a5f5aa3d70a","ios":"levelo://app?vid=a67cc3ed-bd3c-422e-8760-9a5f5aa3d70a"},"vehicle_type_id":"4","last_reported":1743783101,"current_range_meters":14800,"station_id":"ce4bh612rcd13ifvqe6g","pricing_plan_id":"cebpf4jnsgd1na2vs0mg"},{"bike_id":"f5998d47-b69f-4b68-b5ea-8a500c49d80e","system_id":"levelo_inurba_marseille","lat":43.23191,"lon":5.35569,"is_reserved":false,"is_disabled":false,"rental_uris":{"android":"levelo://app?vid=f5998d47-b69f-4b68-b5ea-8a500c49d80e","ios":"levelo://app?vid=f5998d47-b69f-4b68-b5ea-8a500c49d80e"},"vehicle_type_id":"4","last_reported":1743783101,"current_range_meters":14800,"station_id":"ce4bhu92rcd13ifvqi70","pricing_plan_id":"cebpf4jnsgd1na2vs0mg"},{"bike_id":"68add34e-450a-4233-9d80-7429a5f9c760","system_id":"levelo_inurba_marseille","lat":43.26804,"lon":5.40268,"is_reserved":false,"is_disabled":false,"rental_uris":{"android":"levelo://app?vid=68add34e-450a-4233-9d80-7429a5f9c760","ios":"levelo://app?vid=68add34e-450a-4233-9d80-7429a5f9c760"},"vehicle_type_id":"4","last_reported":1743783101,"current_range_meters":14800,"station_id":"ce501612rcd8frsf0b60","pricing_plan_id":"cebpf4jnsgd1na2vs0mg"},{"bike_id":"3bb117bf-b02a-46f8-964d-80f760618f2d","system_id":"levelo_inurba_marseille","lat":43.31749,"lon":5.40425,"is_reserved":false,"is_disabled":false,"rental_uris":{"android":"levelo://app?vid=3bb117bf-b02a-46f8-964d-80f760618f2d","ios":"levelo://app?vid=3bb117bf-b02a-46f8-964d-80f760618f2d"},"vehicle_type_id":"4","last_reported":1743783101,"current_range_meters":14800,"station_id":"ce4bh012rcd13ifvqd00","pricing_plan_id":"cebpf4jnsgd1na2vs0mg"},{"bike_id":"586701e8-aaee-4694-ab98-ea9e57cd6ba6","system_id":"levelo_inurba_marseille","lat":43.248651,"lon":5.397158,"is_reserved":false,"is_disabled":false,"rental_uris":{"android":"levelo://app?vid=586701e8-aaee-4694-ab98-ea9e57cd6ba6","ios":"levelo://app?vid=586701e8-aaee-4694-ab98-ea9e57cd6ba6"},"vehicle_type_id":"4","last_reported":1743783101,"current_range_meters":14800,"station_id":"ce4bhn12rcd13ifvqgqg","pricing_plan_id":"cebpf4jnsgd1na2vs0mg"},{"bike_id":"dafb0e47-46be-4d27-baed-b7490a64e9e2","system_id":"levelo_inurba_marseille","lat":43.32336,"lon":5.40622,"is_reserved":false,"is_disabled":false,"rental_uris":{"android":"levelo://app?vid=dafb0e47-46be-4d27-baed-b7490a64e9e2","ios":"levelo://app?vid=dafb0e47-46be-4d27-baed-b7490a64e9e2"},"vehicle_type_id":"4","last_reported":1743783101,"current_range_meters":15200,"station_id":"ce4bhq92rcd13ifvqhjg","pricing_plan_id":"cebpf4jnsgd1na2vs0mg"},{"bike_id":"f501aae8-662a-4283-876e-a2375eb634ff","system_id":"levelo_inurba_marseille","lat":43.29417,"lon":5.38621,"is_reserved":false,"is_disabled":false,"rental_uris":{"android":"levelo://app?vid=f501aae8-662a-4283-876e-a2375eb634ff","ios":"levelo://app?vid=f501aae8-662a-4283-876e-a2375eb634ff"},"vehicle_type_id":"4","last_reported":1743783101,"current_range_meters":15200,"station_id":"ce4bh2h2rcd13ifvqdh0","pricing_plan_id":"cebpf4jnsgd1na2vs0mg"},{"bike_id":"ad64b8d9-4d70-4657-987b-a96f80e66bca","system_id":"levelo_inurba_marseille","lat":43.279093,"lon":5.395728,"is_reserved":false,"is_disabled":false,"rental_uris":{"android":"levelo://app?vid=ad64b8d9-4d70-4657-987b-a96f80e66bca","ios":"levelo://app?vid=ad64b8d9-4d70-4657-987b-a96f80e66bca"},"vehicle_type_id":"4","last_reported":1743783101,"current_range_meters":15200,"station_id":"","pricing_plan_id":"cebpf4jnsgd1na2vs0mg"},{"bike_id":"57ab7f45-a5cd-466b-8b11-11cb11587816","system_id":"levelo_inurba_marseille","lat":43.29259,"lon":5.38441,"is_reserved":false,"is_disabled":false,"rental_uris":{"android":"levelo://app?vid=57ab7f45-a5cd-466b-8b11-11cb11587816","ios":"levelo://app?vid=57ab7f45-a5cd-466b-8b11-11cb11587816"},"vehicle_type_id":"4","last_reported":1743783101,"current_range_meters":15200,"station_id":"ce4bh692rcd13ifvqea0","pricing_plan_id":"cebpf4jnsgd1na2vs0mg"},{"bike_id":"7190c62f-8273-4b4c-8dbe-2b3aeebd3163","system_id":"levelo_inurba_marseille","lat":43.30544,"lon":5.36557,"is_reserved":false,"is_disabled":false,"rental_uris":{"android":"levelo://app?vid=7190c62f-8273-4b4c-8dbe-2b3aeebd3163","ios":"levelo://app?vid=7190c62f-8273-4b4c-8dbe-2b3aeebd3163"},"vehicle_type_id":"4","last_reported":1743783101,"current_range_meters":15200,"station_id":"ce4bgs12rcd13ifvqcag","pricing_plan_id":"cebpf4jnsgd1na2vs0mg"},{"bike_id":"e0025ce5-fe29-4293-8000-c88ee2bac657","system_id":"levelo_inurba_marseille","lat":43.31329,"lon":5.39703,"is_reserved":false,"is_disabled":false,"rental_uris":{"android":"levelo://app?vid=e0025ce5-fe29-4293-8000-c88ee2bac657","ios":"levelo://app?vid=e0025ce5-fe29-4293-8000-c88ee2bac657"},"vehicle_type_id":"4","last_reported":1743783101,"current_range_meters":15200,"station_id":"ce4bgvp2rcd13ifvqcu0","pricing_plan_id":"cebpf4jnsgd1na2vs0mg"},{"bike_id":"eaf859a6-ff3d-4281-be3e-7de787fa533a","system_id":"levelo_inurba_marseille","lat":43.302979,"lon":5.39212,"is_reserved":false,"is_disabled":true,"rental_uris":{"android":"levelo://app?vid=eaf859a6-ff3d-4281-be3e-7de787fa533a","ios":"levelo://app?vid=eaf859a6-ff3d-4281-be3e-7de787fa533a"},"vehicle_type_id":"4","last_reported":1743783101,"current_range_meters":16000,"station_id":"ce4bgkh2rcd13ifvqbk0","pricing_plan_id":"cebpf4jnsgd1na2vs0mg"},{"bike_id":"90be0a03-a90f-4418-93c8-68dcf6552c6c","system_id":"levelo_inurba_marseille","lat":43.30127,"lon":5.398623,"is_reserved":false,"is_disabled":false,"rental_uris":{"android":"levelo://app?vid=90be0a03-a90f-4418-93c8-68dcf6552c6c","ios":"levelo://app?vid=90be0a03-a90f-4418-93c8-68dcf6552c6c"},"vehicle_type_id":"4","last_reported":1743783101,"current_range_meters":16000,"station_id":"ce4bh0h2rcd13ifvqd40","pricing_plan_id":"cebpf4jnsgd1na2vs0mg"},{"bike_id":"ad81a0ea-b42d-4cbb-86d5-632157072762","system_id":"levelo_inurba_marseille","lat":43.24169,"lon":5.36394,"is_reserved":false,"is_disabled":false,"rental_uris":{"android":"levelo://app?vid=ad81a0ea-b42d-4cbb-86d5-632157072762","ios":"levelo://app?vid=ad81a0ea-b42d-4cbb-86d5-632157072762"},"vehicle_type_id":"4","last_reported":1743783101,"current_range_meters":16000,"station_id":"cpo36qri1sfpv3e86is0","pricing_plan_id":"cebpf4jnsgd1na2vs0mg"},{"bike_id":"30b57730-cb66-4122-bd93-7dabcaba84e7","system_id":"levelo_inurba_marseille","lat":43.24909,"lon":5.406801,"is_reserved":false,"is_disabled":false,"rental_uris":{"android":"levelo://app?vid=30b57730-cb66-4122-bd93-7dabcaba84e7","ios":"levelo://app?vid=30b57730-cb66-4122-bd93-7dabcaba84e7"},"vehicle_type_id":"4","last_reported":1743783101,"current_range_meters":16000,"station_id":"","pricing_plan_id":"cebpf4jnsgd1na2vs0mg"},{"bike_id":"4a03dfb7-59c1-4916-8aeb-73a8d0973227","system_id":"levelo_inurba_marseille","lat":43.28271,"lon":5.35063,"is_reserved":false,"is_disabled":false,"rental_uris":{"android":"levelo://app?vid=4a03dfb7-59c1-4916-8aeb-73a8d0973227","ios":"levelo://app?vid=4a03dfb7-59c1-4916-8aeb-73a8d0973227"},"vehicle_type_id":"4","last_reported":1743783101,"current_range_meters":15200,"station_id":"ce4bhbp2rcd13ifvqerg","pricing_plan_id":"cebpf4jnsgd1na2vs0mg"},{"bike_id":"22f946f4-5590-40bb-8197-3472e29a4e38","system_id":"levelo_inurba_marseille","lat":43.30541,"lon":5.3656,"is_reserved":false,"is_disabled":false,"rental_uris":{"android":"levelo://app?vid=22f946f4-5590-40bb-8197-3472e29a4e38","ios":"levelo://app?vid=22f946f4-5590-40bb-8197-3472e29a4e38"},"vehicle_type_id":"4","last_reported":1743783101,"current_range_meters":16000,"station_id":"ce4bgs12rcd13ifvqcag","pricing_plan_id":"cebpf4jnsgd1na2vs0mg"},{"bike_id":"07190945-dbbc-4d35-b9f0-20f0f274cd4d","system_id":"levelo_inurba_marseille","lat":43.2718,"lon":5.40995,"is_reserved":false,"is_disabled":false,"rental_uris":{"android":"levelo://app?vid=07190945-dbbc-4d35-b9f0-20f0f274cd4d","ios":"levelo://app?vid=07190945-dbbc-4d35-b9f0-20f0f274cd4d"},"vehicle_type_id":"4","last_reported":1743783101,"current_range_meters":16000,"station_id":"ce4bhl12rcd13ifvqgf0","pricing_plan_id":"cebpf4jnsgd1na2vs0mg"},{"bike_id":"1d0fee01-0ed5-490d-8aa7-b7ca4b0438fa","system_id":"levelo_inurba_marseille","lat":43.292816,"lon":5.40125,"is_reserved":false,"is_disabled":false,"rental_uris":{"android":"levelo://app?vid=1d0fee01-0ed5-490d-8aa7-b7ca4b0438fa","ios":"levelo://app?vid=1d0fee01-0ed5-490d-8aa7-b7ca4b0438fa"},"vehicle_type_id":"4","last_reported":1743783101,"current_range_meters":16000,"station_id":"ce4bh312rcd13ifvqdk0","pricing_plan_id":"cebpf4jnsgd1na2vs0mg"},{"bike_id":"10475066-1bb9-496d-a533-b55a5d6fb982","system_id":"levelo_inurba_marseille","lat":43.29919,"lon":5.37469,"is_reserved":false,"is_disabled":false,"rental_uris":{"android":"levelo://app?vid=10475066-1bb9-496d-a533-b55a5d6fb982","ios":"levelo://app?vid=10475066-1bb9-496d-a533-b55a5d6fb982"},"vehicle_type_id":"4","last_reported":1743783101,"current_range_meters":16000,"station_id":"ce4bgjh2rcd13ifvqbg0","pricing_plan_id":"cebpf4jnsgd1na2vs0mg"},{"bike_id":"d0af8e3a-06bf-4cee-bae3-44fd7d6ae859","system_id":"levelo_inurba_marseille","lat":43.23066,"lon":5.35495,"is_reserved":false,"is_disabled":false,"rental_uris":{"android":"levelo://app?vid=d0af8e3a-06bf-4cee-bae3-44fd7d6ae859","ios":"levelo://app?vid=d0af8e3a-06bf-4cee-bae3-44fd7d6ae859"},"vehicle_type_id":"4","last_reported":1743783101,"current_range_meters":16400,"station_id":"cpo3342slgdg3j2ifvpg","pricing_plan_id":"cebpf4jnsgd1na2vs0mg"},