{"last_updated":1726924358,"ttl":30,"version":"2.2","data":{"bikes":[{"bike_id":"9b521226-1222-420c-85eb-7da1ff3a9204","system_id":"levelo_inurba_marseille","lat":43.22934,"lon":5.35377,"is_reserved":false,"is_disabled":false,"rental_uris":{"android":"levelo://app?vid=9b521226-1222-420c-85eb-7da1ff3a9204","ios":"levelo://app?vid=9b521226-1222-420c-85eb-7da1ff3a9204"},"vehicle_type_id":"4","last_reported":1726924358,"current_range_meters":28000,"station_id":"cpo3532slgdg3j2ikp40","pricing_plan_id":"cebpf4jnsgd1na2vs0mg"},{"bike_id":"0666eec1-38d6-48e3-b0ff-2bad1538ddbd","system_id":"levelo_inurba_marseille","lat":43.337444,"lon":5.374475,"is_reserved":false,"is_disabled":false,"rental_uris":{"android":"levelo://app?vid=0666eec1-38d6-48e3-b0ff-2bad1538ddbd","ios":"levelo://app?vid=0666eec1-38d6-48e3-b0ff-2bad1538ddbd"},"vehicle_type_id":"4","last_reported":1726924358,"current_range_meters":36800,"station_id":"","pricing_plan_id":"cebpf4jnsgd1na2vs0mg"},{"bike_id":"844fa1b0-215f-4611-b15f-75a163c4e65f","system_id":"levelo_inurba_marseille","lat":43.30298,"lon":5.36877,"is_reserved":false,"is_disabled":false,"rental_uris":{"android":"levelo://app?vid=844fa1b0-215f-4611-b15f-75a163c4e65f","ios":"levelo://app?vid=844fa1b0-215f-4611-b15f-75a163c4e65f"},"vehicle_type_id":"4","last_reported":1726924358,"current_range_meters":38400,"station_id":"ce4bgqh2rcd13ifvqc5g","pricing_plan_id":"cebpf4jnsgd1na2vs0mg"},{"bike_id":"16e2decf-cde2-4e62-92a2-ad315ceee068","system_id":"levelo_inurba_marseille","lat":43.30534,"lon":5.38438,"is_reserved":false,"is_disabled":false,"rental_uris":{"android":"levelo://app?vid=16e2decf-cde2-4e62-92a2-ad315ceee068","ios":"levelo://app?vid=16e2decf-cde2-4e62-92a2-ad315ceee068"},"vehicle_type_id":"4","last_reported":1726924358,"current_range_meters":37600,"station_id":"ce4bgg92rcd13ifvqb30","pricing_plan_id":"cebpf4jnsgd1na2vs0mg"},{"bike_id":"71651ac6-0b76-4019-b34f-072820ef1ca3","system_id":"levelo_inurba_marseille","lat":43.25972,"lon":5.37544,"is_reserved":false,"is_disabled":false,"rental_uris":{"android":"levelo://app?vid=71651ac6-0b76-4019-b34f-072820ef1ca3","ios":"levelo://app?vid=71651ac6-0b76-4019-b34f-072820ef1ca3"},"vehicle_type_id":"4","last_reported":1726924358,"current_range_meters":27200,"station_id":"ce4bhgh2rcd13ifvqfa0","pricing_plan_id":"cebpf4jnsgd1na2vs0mg"},{"bike_id":"b4a3cb57-97d4-4563-aba5-8106ce884bf8","system_id":"levelo_inurba_marseille","lat":43.30957,"lon":5.39047,"is_reserved":false,"is_disabled":false,"rental_uris":{"android":"levelo://app?vid=b4a3cb57-97d4-4563-aba5-8106ce884bf8","ios":"levelo://app?vid=b4a3cb57-97d4-4563-aba5-8106ce884bf8"},"vehicle_type_id":"4","last_reported":1726924358,"current_range_meters":6400,"station_id":"ce4bgup2rcd13ifvqco0","pricing_plan_id":"cebpf4jnsgd1na2vs0mg"},{"bike_id":"a102afbc-3ec3-41dd-b50f-9d9de306dc75","system_id":"levelo_inurba_marseille","lat":43.33025,"lon":5.39045,"is_reserved":false,"is_disabled":false,"rental_uris":{"android":"levelo://app?vid=a102afbc-3ec3-41dd-b50f-9d9de306dc75","ios":"levelo://app?vid=a102afbc-3ec3-41dd-b50f-9d9de306dc75"},"vehicle_type_id":"4","last_reported":1726924358,"current_range_meters":29600,"station_id":"ce4bhr92rcd13ifvqhrg","pricing_plan_id":"cebpf4jnsgd1na2vs0mg"},{"bike_id":"67d67eca-17b0-4d37-b0a2-0d3879c9f9e7","system_id":"levelo_inurba_marseille","lat":43.29578,"lon":5.37502,"is_reserved":false,"is_disabled":false,"rental_uris":{"android":"levelo://app?vid=67d67eca-17b0-4d37-b0a2-0d3879c9f9e7","ios":"levelo://app?vid=67d67eca-17b0-4d37-b0a2-0d3879c9f9e7"},"vehicle_type_id":"4","last_reported":1726924358,"current_range_meters":34000,"station_id":"ce4bgh92rcd13ifvqb50","pricing_plan_id":"cebpf4jnsgd1na2vs0mg"},{"bike_id":"1edc5930-c721-4800-bcf0-14ae20c8d38d","system_id":"levelo_inurba_marseille","lat":43.27434,"lon":5.3941,"is_reserved":false,"is_disabled":false,"rental_uris":{"android":"levelo://app?vid=1edc5930-c721-4800-bcf0-14ae20c8d38d","ios":"levelo://app?vid=1edc5930-c721-4800-bcf0-14ae20c8d38d"},"vehicle_type_id":"4","last_reported":1726924358,"current_range_meters":7200,"station_id":"ce4bhdp2rcd13ifvqf20","pricing_plan_id":"cebpf4jnsgd1na2vs0mg"},{"bike_id":"952727d5-10c0-49c8-a6ee-a4efa34b8c23","system_id":"levelo_inurba_marseille","lat":43.23965,"lon":5.36646,"is_reserved":false,"is_disabled":false,"rental_uris":{"android":"levelo://app?vid=952727d5-10c0-49c8-a6ee-a4efa34b8c23","ios":"levelo://app?vid=952727d5-10c0-49c8-a6ee-a4efa34b8c23"},"vehicle_type_id":"4","last_reported":1726924358,"current_range_meters":39200,"station_id":"ce4bhi12rcd13ifvqfp0","pricing_plan_id":"cebpf4jnsgd1na2vs0mg"},{"bike_id":"11b07735-41fe-46db-9b01-e7149e08e197","system_id":"levelo_inurba_marseille","lat":43.28277,"lon":5.3507,"is_reserved":false,"is_disabled":false,"rental_uris":{"android":"levelo://app?vid=11b07735-41fe-46db-9b01-e7149e08e197","ios":"levelo://app?vid=11b07735-41fe-46db-9b01-e7149e08e197"},"vehicle_type_id":"4","last_reported":1726924358,"current_range_meters":24400,"station_id":"ce4bhbp2rcd13ifvqerg","pricing_plan_id":"cebpf4jnsgd1na2vs0mg"},{"bike_id":"a5f98ca6-9bdc-420c-9181-260ed255b4f1","system_id":"levelo_inurba_marseille","lat":43.28618,"lon":5.35107,"is_reserved":false,"is_disabled":false,"rental_uris":{"android":"levelo://app?vid=a5f98ca6-9bdc-420c-9181-260ed255b4f1","ios":"levelo://app?vid=a5f98ca6-9bdc-420c-9181-260ed255b4f1"},"vehicle_type_id":"4","last_reported":1726924358,"current_range_meters":7200,"station_id":"ce4bhch2rcd13ifvqeug","pricing_plan_id":"cebpf4jnsgd1na2vs0mg"},{"bike_id":"e22352b5-e9a0-4afb-bba7-1fffc50d9e43","system_id":"levelo_inurba_marseille","lat":43.23067,"lon":5.35487,"is_reserved":false,"is_disabled":false,"rental_uris":{"android":"levelo://app?vid=e22352b5-e9a0-4afb-bba7-1fffc50d9e43","ios":"levelo://app?vid=e22352b5-e9a0-4afb-bba7-1fffc50d9e43"},"vehicle_type_id":"4","last_reported":1726924358,"current_range_meters":8000,"station_id":"cpo3342slgdg3j2ifvpg","pricing_plan_id":"cebpf4jnsgd1na2vs0mg"},{"bike_id":"0d7cf228-7ef4-44b7-9805-fcaeff1b65d4","system_id":"levelo_inurba_marseille","lat":43.28716,"lon":5.36088,"is_reserved":false,"is_disabled":false,"rental_uris":{"android":"levelo://app?vid=0d7cf228-7ef4-44b7-9805-fcaeff1b65d4","ios":"levelo://app?vid=0d7cf228-7ef4-44b7-9805-fcaeff1b65d4"},"vehicle_type_id":"4","last_reported":1726924358,"current_range_meters":20800,"station_id":"cki0cbj6b192h4jlfktg","pricing_plan_id":"cebpf4jnsgd1na2vs0mg"},{"bike_id":"9ff2b812-eaf4-497d-b38f-d28eed34797e","system_id":"levelo_inurba_marseille","lat":43.24808,"lon":5.37442,"is_reserved":false,"is_disabled":false,"rental_uris":{"android":"levelo://app?vid=9ff2b812-eaf4-497d-b38f-d28eed34797e","ios":"levelo://app?vid=9ff2b812-eaf4-497d-b38f-d28eed34797e"},"vehicle_type_id":"4","last_reported":1726924358,"current_range_meters":21600,"station_id":"ce4bhgh2rcd13ifvqfb0","pricing_plan_id":"cebpf4jnsgd1na2vs0mg"},{"bike_id":"3cea86a1-9a58-478d-b244-957f4139aef0","system_id":"levelo_inurba_marseille","lat":43.33602,"lon":5.41028,"is_reserved":false,"is_disabled":false,"rental_uris":{"android":"levelo://app?vid=3cea86a1-9a58-478d-b244-957f4139aef0","ios":"levelo://app?vid=3cea86a1-9a58-478d-b244-957f4139aef0"},"vehicle_type_id":"4","last_reported":1726924358,"current_range_meters":39200,"station_id":"ce4bhqh2rcd13ifvqhmg","pricing_plan_id":"cebpf4jnsgd1na2vs0mg"},{"bike_id":"b30db46c-a7f7-4c1e-b3e2-a8cb6d374c17","system_id":"levelo_inurba_marseille","lat":43.23182,"lon":5.39989,"is_reserved":false,"is_disabled":false,"rental_uris":{"android":"levelo://app?vid=b30db46c-a7f7-4c1e-b3e2-a8cb6d374c17","ios":"levelo://app?vid=b30db46c-a7f7-4c1e-b3e2-a8cb6d374c17"},"vehicle_type_id":"4","last_reported":1726924358,"current_range_meters":36400,"station_id":"ce4bhn12rcd13ifvqgqg","pricing_plan_id":"cebpf4jnsgd1na2vs0mg"},{"bike_id":"1457cd33-d188-4386-afb7-8fd83a806367","system_id":"levelo_inurba_marseille","lat":43.262177,"lon":5.375084,"is_reserved":false,"is_disabled":false,"rental_uris":{"android":"levelo://app?vid=1457cd33-d188-4386-afb7-8fd83a806367","ios":"levelo://app?vid=1457cd33-d188-4386-afb7-8fd83a806367"},"vehicle_type_id":"4","last_reported":1726924358,"current_range_meters":8800,"station_id":"ce4bhgp2rcd13ifvqfc0","pricing_plan_id":"cebpf4jnsgd1na2vs0mg"},{"bike_id":"7305e097-fa56-4e8c-b7c3-772deb6569c0","system_id":"levelo_inurba_marseille","lat":43.25578,"lon":5.38228,"is_reserved":false,"is_disabled":false,"rental_uris":{"android":"levelo://app?vid=7305e097-fa56-4e8c-b7c3-772deb6569c0","ios":"levelo://app?vid=7305e097-fa56-4e8c-b7c3-772deb6569c0"},"vehicle_type_id":"4","last_reported":1726924358,"current_range_meters":30000,"station_id":"ce4bhih2rcd13ifvqfs0","pricing_plan_id":"cebpf4jnsgd1na2vs0mg"},{"bike_id":"7bfac8ce-02f1-4824-b46e-5a67f0ad7394","system_id":"levelo_inurba_marseille","lat":43.29067,"lon":5.35917,"is_reserved":false,"is_disabled":false,"rental_uris":{"android":"levelo://app?vid=7bfac8ce-02f1-4824-b46e-5a67f0ad7394","ios":"levelo://app?vid=7bfac8ce-02f1-4824-b46e-5a67f0ad7394"},"vehicle_type_id":"4","last_reported":1726924358,"current_range_meters":34000,"station_id":"ce4bha92rcd13ifvqeg0","pricing_plan_id":"cebpf4jnsgd1na2vs0mg"},{"bike_id":"df5e345c-aef2-4b41-8daa-8091bfc5bdd8","system_id":"levelo_inurba_marseille","lat":43.26055,"lon":5.39394,"is_reserved":false,"is_disabled":false,"rental_uris":{"android":"levelo://app?vid=df5e345c-aef2-4b41-8daa-8091bfc5bdd8","ios":"levelo://app?vid=df5e345c-aef2-4b41-8daa-8091bfc5bdd8"},"vehicle_type_id":"4","last_reported":1726924358,"current_range_meters":11200,"station_id":"ce4bhh92rcd13ifvqfj0","pricing_plan_id":"cebpf4jnsgd1na2vs0mg"},{"bike_id":"df63e28f-cd57-48d1-89d0-dbc144c9c1f9","system_id":"levelo_inurba_marseille","lat":43.23187,"lon":5.39985,"is_reserved":false,"is_disabled":false,"rental_uris":{"android":"levelo://app?vid=df63e28f-cd57-48d1-89d0-dbc144c9c1f9","ios":"levelo://app?vid=df63e28f-cd57-48d1-89d0-dbc144c9c1f9"},"vehicle_type_id":"4","last_reported":1726924358,"current_range_meters":17600,"station_id":"ce4bhn12rcd13ifvqgqg","pricing_plan_id":"cebpf4jnsgd1na2vs0mg"},{"bike_id":"27f41fdd-9b65-495a-83cb-6765305799e4","system_id":"levelo_inurba_marseille","lat":43.28278,"lon":5.35066,"is_reserved":false,"is_disabled":false,"rental_uris":{"android":"levelo://app?vid=27f41fdd-9b65-495a-83cb-6765305799e4","ios":"levelo://app?vid=27f41fdd-9b65-495a-83cb-6765305799e4"},"vehicle_type_id":"4","last_reported":1726924358,"current_range_meters":24000,"station_id":"ce4bhbp2rcd13ifvqerg","pricing_plan_id":"cebpf4jnsgd1na2vs0mg"},{"bike_id":"84fcc003-c441-4d3a-825a-d0ee3b7ef4dd","system_id":"levelo_inurba_marseille","lat":43.337444,"lon":5.374475,"is_reserved":false,"is_disabled":false,"rental_uris":{"android":"levelo://app?vid=84fcc003-c441-4d3a-825a-d0ee3b7ef4dd","ios":"levelo://app?vid=84fcc003-c441-4d3a-825a-d0ee3b7ef4dd"},"vehicle_type_id":"4","last_reported":1726924358,"current_range_meters":33200,"station_id":"ce4bh2p2rcd13ifvqdi0","pricing_plan_id":"cebpf4jnsgd1na2vs0mg"},{"bike_id":"64c66dfc-b579-4cc6-b414-22d17033611e","system_id":"levelo_inurba_marseille","lat":43.33022,"lon":5.39047,"is_reserved":false,"is_disabled":false,"rental_uris":{"android":"levelo://app?vid=64c66dfc-b579-4cc6-b414-22d17033611e","ios":"levelo://app?vid=64c66dfc-b579-4cc6-b414-22d17033611e"},"vehicle_type_id":"4","last_reported":1726924358,"current_range_meters":36800,"station_id":"ce4bhr92rcd13ifvqhrg","pricing_plan_id":"cebpf4jnsgd1na2vs0mg"},{"bike_id":"889e28e2-6f1c-4ea5-b22c-b546f4c54f82","system_id":"levelo_inurba_marseille","lat":43.28617,"lon":5.35109,"is_reserved":false,"is_disabled":false,"rental_uris":{"android":"levelo://app?vid=889e28e2-6f1c-4ea5-b22c-b546f4c54f82","ios":"levelo://app?vid=889e28e2-6f1c-4ea5-b22c-b546f4c54f82"},"vehicle_type_id":"4","last_reported":1726924358,"current_range_meters":25600,"station_id":"ce4bhch2rcd13ifvqeug","pricing_plan_id":"cebpf4jnsgd1na2vs0mg"},{"bike_id":"43883d61-0423-4ca6-8718-0e52558ea228","system_id":"levelo_inurba_marseille","lat":43.25819,"lon":5.39432,"is_reserved":false,"is_disabled":false,"rental_uris":{"android":"levelo://app?vid=43883d61-0423-4ca6-8718-0e52558ea228","ios":"levelo://app?vid=43883d61-0423-4ca6-8718-0e52558ea228"},"vehicle_type_id":"4","last_reported":1726924358,"current_range_meters":28800,"station_id":"ce4bhip2rcd13ifvqft0","pricing_plan_id":"cebpf4jnsgd1na2vs0mg"},{"bike_id":"14cba0ea-4932-4120-ba2f-1e13201aa231","system_id":"levelo_inurba_marseille","lat":43.33768,"lon":5.3744,"is_reserved":false,"is_disabled":false,"rental_uris":{"android":"levelo://app?vid=14cba0ea-4932-4120-ba2f-1e13201aa231","ios":"levelo://app?vid=14cba0ea-4932-4120-ba2f-1e13201aa231"},"vehicle_type_id":"4","last_reported":1726924358,"current_range_meters":35600,"station_id":"","pricing_plan_id":"cebpf4jnsgd1na2vs0mg"},{"bike_id":"978d14f3-f583-4bbe-8db9-ce887ad5d209","system_id":"levelo_inurba_marseille","lat":43.2439,"lon":5.37062,"is_reserved":false,"is_disabled":false,"rental_uris":{"android":"levelo://app?vid=978d14f3-f583-4bbe-8db9-ce887ad5d209","ios":"levelo://app?vid=978d14f3-f583-4bbe-8db9-ce887ad5d209"},"vehicle_type_id":"4","last_reported":1726924358,"current_range_meters":18000,"station_id":"ce4bhhh2rcd13ifvqfk0","pricing_plan_id":"cebpf4jnsgd1na2vs0mg"},{"bike_id":"632b4d5c-2cfb-46bf-a0f5-fc63d213e57c","system_id":"levelo_inurba_marseille","lat":43.28272,"lon":5.35067,"is_reserved":false,"is_disabled":false,"rental_uris":{"android":"levelo://app?vid=632b4d5c-2cfb-46bf-a0f5-fc63d213e57c","ios":"levelo://app?vid=632b4d5c-2cfb-46bf-a0f5-fc63d213e57c"},"vehicle_type_id":"4","last_reported":1726924358,"current_range_meters":3600,"station_id":"ce4bhbp2rcd13ifvqerg","pricing_plan_id":"cebpf4jnsgd1na2vs0mg"},{"bike_id":"2a7db943-6265-4479-9604-043d344eb7a6","system_id":"levelo_inurba_marseille","lat":43.30285,"lon":5.38391,"is_reserved":false,"is_disabled":false,"rental_uris":{"android":"levelo://app?vid=2a7db943-6265-4479-9604-043d344eb7a6","ios":"levelo://app?vid=2a7db943-6265-4479-9604-043d344eb7a6"},"vehicle_type_id":"4","last_reported":1726924358,"current_range_meters":22800,"station_id":"","pricing_plan_id":"cebpf4jnsgd1na2vs0mg"},{"bike_id":"feef65fd-70ed-4c2a-ab1c-62060f564852","system_id":"levelo_inurba_marseille","lat":43.26688,"lon":5.3827,"is_reserved":false,"is_disabled":false,"rental_uris":{"android":"levelo://app?vid=feef65fd-70ed-4c2a-ab1c-62060f564852","ios":"levelo://app?vid=feef65fd-70ed-4c2a-ab1c-62060f564852"},"vehicle_type_id":"4","last_reported":1726924358,"current_range_meters":25600,"station_id":"ce4bhg92rcd13ifvqf90","pricing_plan_id":"cebpf4jnsgd1na2vs0mg"},{"bike_id":"57ce7790-158c-4727-83ba-38c97f651219","system_id":"levelo_inurba_marseille","lat":43.23966,"lon":5.3663,"is_reserved":false,"is_disabled":false,"rental_uris":{"android":"levelo://app?vid=57ce7790-158c-4727-83ba-38c97f651219","ios":"levelo://app?vid=57ce7790-158c-4727-83ba-38c97f651219"},"vehicle_type_id":"4","last_reported":1726924358,"current_range_meters":35600,"station_id":"ce4bhi12rcd13ifvqfp0","pricing_plan_id":"cebpf4jnsgd1na2vs0mg"},{"bike_id":"fb2a0c84-4bc6-4869-8ec5-274d36598bb3","system_id":"levelo_inurba_marseille","lat":43.281525,"lon":5.426436,"is_reserved":false,"is_disabled":false,"rental_uris":{"android":"levelo://app?vid=fb2a0c84-4bc6-4869-8ec5-274d36598bb3","ios":"levelo://app?vid=fb2a0c84-4bc6-4869-8ec5-274d36598bb3"},"vehicle_type_id":"4","last_reported":1726924358,"current_range_meters":23200,"station_id":"ce4bhnh2rcd13ifvqgug","pricing_plan_id":"cebpf4jnsgd1na2vs0mg"},{"bike_id":"b63dc5e1-9787-4e25-9152-1ed6f066d838","system_id":"levelo_inurba_marseille","lat":43.29701,"lon":5.36614,"is_reserved":false,"is_disabled":false,"rental_uris":{"android":"levelo://app?vid=b63dc5e1-9787-4e25-9152-1ed6f066d838","ios":"levelo://app?vid=b63dc5e1-9787-4e25-9152-1ed6f066d838"},"vehicle_type_id":"4","last_reported":1726924358,"current_range_meters":2000,"station_id":"ce4bgn12rcd13ifvqbt0","pricing_plan_id":"cebpf4jnsgd1na2vs0mg"},{"bike_id":"edfb1ff5-b81b-4225-8da9-100a9115b1e3","system_id":"levelo_inurba_marseille","lat":43.29735,"lon":5.36561,"is_reserved":false,"is_disabled":false,"rental_uris":{"android":"levelo://app?vid=edfb1ff5-b81b-4225-8da9-100a9115b1e3","ios":"levelo://app?vid=edfb1ff5-b81b-4225-8da9-100a9115b1e3"},"vehicle_type_id":"4","last_reported":1726924358,"current_range_meters":8400,"station_id":"","pricing_plan_id":"cebpf4jnsgd1na2vs0mg"},{"bike_id":"fa1b13ae-438e-4aa4-bfb7-748ed28cb45a","system_id":"levelo_inurba_marseille","lat":43.337444,"lon":5.374475,"is_reserved":false,"is_disabled":false,"rental_uris":{"android":"levelo://app?vid=fa1b13ae-438e-4aa4-bfb7-748ed28cb45a","ios":"levelo://app?vid=fa1b13ae-438e-4aa4-bfb7-748ed28cb45a"},"vehicle_type_id":"4","last_reported":1726924358,"current_range_meters":25600,"station_id":"","pricing_plan_id":"cebpf4jnsgd1na2vs0mg"},{"bike_id":"c8162a9e-e95f-47b4-b285-c14754ade4d4","system_id":"levelo_inurba_marseille","lat":43.30311,"lon":5.39199,"is_reserved":false,"is_disabled":false,"rental_uris":{"android":"levelo://app?vid=c8162a9e-e95f-47b4-b285-c14754ade4d4","ios":"levelo://app?vid=c8162a9e-e95f-47b4-b285-c14754ade4d4"},"vehicle_type_id":"4","last_reported":1726924358,"current_range_meters":17600,"station_id":"ce4bgkh2rcd13ifvqbk0","pricing_plan_id":"cebpf4jnsgd1na2vs0mg"},{"bike_id":"525e8b36-a64b-4ebf-9e86-d09c978befc0","system_id":"levelo_inurba_marseille","lat":43.29942,"lon":5.36543,"is_reserved":false,"is_disabled":false,"rental_uris":{"android":"levelo://app?vid=525e8b36-a64b-4ebf-9e86-d09c978befc0","ios":"levelo://app?vid=525e8b36-a64b-4ebf-9e86-d09c978befc0"},"vehicle_type_id":"4","last_reported":1726924358,"current_range_meters":36800,"station_id":"ce4bgm92rcd13ifvqbr0","pricing_plan_id":"cebpf4jnsgd1na2vs0mg"},{"bike_id":"88ec8563-d8ba-49d9-93ac-59b3946f4f5a","system_id":"levelo_inurba_marseille","lat":43.289391,"lon":5.366471,"is_reserved":false,"is_disabled":false,"rental_uris":{"android":"levelo://app?vid=88ec8563-d8ba-49d9-93ac-59b3946f4f5a","ios":"levelo://app?vid=88ec8563-d8ba-49d9-93ac-59b3946f4f5a"},"vehicle_type_id":"4","last_reported":1726924358,"current_range_meters":4400,"station_id":"ce4bhap2rcd13ifvqek0","pricing_plan_id":"cebpf4jnsgd1na2vs0mg"},{"bike_id":"ba9ed35d-2f93-40e8-8c09-cdc9c8539831","system_id":"levelo_inurba_marseille","lat":43.31888,"lon":5.40728,"is_reserved":false,"is_disabled":false,"rental_uris":{"android":"levelo://app?vid=ba9ed35d-2f93-40e8-8c09-cdc9c8539831","ios":"levelo://app?vid=ba9ed35d-2f93-40e8-8c09-cdc9c8539831"},"vehicle_type_id":"4","last_reported":1726924358,"current_range_meters":38800,"station_id":"ce4bhq12rcd13ifvqhig","pricing_plan_id":"cebpf4jnsgd1na2vs0mg"},{"bike_id":"5eb9dac7-32e3-456b-b155-2457bd953ccf","system_id":"levelo_inurba_marseille","lat":43.2842,"lon":5.34992,"is_reserved":false,"is_disabled":false,"rental_uris":{"android":"levelo://app?vid=5eb9dac7-32e3-456b-b155-2457bd953ccf","ios":"levelo://app?vid=5eb9dac7-32e3-456b-b155-2457bd953ccf"},"vehicle_type_id":"4","last_reported":1726924358,"current_range_meters":38800,"station_id":"ce4bhbh2rcd13ifvqepg","pricing_plan_id":"cebpf4jnsgd1na2vs0mg"},{"bike_id":"b4d8cc2f-08fa-447c-98aa-3fb508700768","system_id":"levelo_inurba_marseille","lat":43.28956,"lon":5.35785,"is_reserved":false,"is_disabled":false,"rental_uris":{"android":"levelo://app?vid=b4d8cc2f-08fa-447c-98aa-3fb508700768","ios":"levelo://app?vid=b4d8cc2f-08fa-447c-98aa-3fb508700768"},"vehicle_type_id":"4","last_reported":1726924358,"current_range_meters":2800,"station_id":"","pricing_plan_id":"cebpf4jnsgd1na2vs0mg"},{"bike_id":"301061c6-99f8-4e1a-ab8b-7c12f36d390b","system_id":"levelo_inurba_marseille","lat":43.30325,"lon":5.40439,"is_reserved":false,"is_disabled":false,"rental_uris":{"android":"levelo://app?vid=301061c6-99f8-4e1a-ab8b-7c12f36d390b","ios":"levelo://app?vid=301061c6-99f8-4e1a-ab8b-7c12f36d390b"},"vehicle_type_id":"4","last_reported":1726924358,"current_range_meters":3200,"station_id":"ce4bh012rcd13ifvqd10","pricing_plan_id":"cebpf4jnsgd1na2vs0mg"},{"bike_id":"56c0c92c-70cd-467e-8678-c2bd8ca4a422","system_id":"levelo_inurba_marseille","lat":43.284149,"lon":5.349902,"is_reserved":false,"is_disabled":false,"rental_uris":{"android":"levelo://app?vid=56c0c92c-70cd-467e-8678-c2bd8ca4a422","ios":"levelo://app?vid=56c0c92c-70cd-467e-8678-c2bd8ca4a422"},"vehicle_type_id":"4","last_reported":1726924358,"current_range_meters":22000,"station_id":"ce4bhbh2rcd13ifvqepg","pricing_plan_id":"cebpf4jnsgd1na2vs0mg"},{"bike_id":"bd6456aa-7882-4ecb-b6d6-c1e08b9e8174","system_id":"levelo_inurba_marseille","lat":43.25577,"lon":5.38235,"is_reserved":false,"is_disabled":false,"rental_uris":{"android":"levelo://app?vid=bd6456aa-7882-4ecb-b6d6-c1e08b9e8174","ios":"levelo://app?vid=bd6456aa-7882-4ecb-b6d6-c1e08b9e8174"},"vehicle_type_id":"4","last_reported":1726924358,"current_range_meters":26000,"station_id":"ce4bhih2rcd13ifvqfs0","pricing_plan_id":"cebpf4jnsgd1na2vs0mg"},{"bike_id":"8fd70697-883c-4670-8851-8ec60548abbc","system_id":"levelo_inurba_marseille","lat":43.2293,"lon":5.35376,"is_reserved":false,"is_disabled":false,"rental_uris":{"android":"levelo://app?vid=8fd70697-883c-4670-8851-8ec60548abbc","ios":"levelo://app?vid=8fd70697-883c-4670-8851-8ec60548abbc"},"vehicle_type_id":"4","last_reported":1726924358,"current_range_meters":15200,"station_id":"cpo3532slgdg3j2ikp40","pricing_plan_id":"cebpf4jnsgd1na2vs0mg"},{"bike_id":"bf03865e-9944-4f40-bf02-6028a7d0a9c4","system_id":"levelo_inurba_marseille","lat":43.28274,"lon":5.35078,"is_reserved":false,"is_disabled":false,"rental_uris":{"android":"levelo://app?vid=bf03865e-9944-4f40-bf02-6028a7d0a9c4","ios":"levelo://app?vid=bf03865e-9944-4f40-bf02-6028a7d0a9c4"},"vehicle_type_id":"4","last_reported":1726924358,"current_range_meters":27200,"station_id":"ce4bhbp2rcd13ifvqerg","pricing_plan_id":"cebpf4jnsgd1na2vs0mg"},{"bike_id":"f7ad2e7a-a575-4361-994a-0ff95a85d018","system_id":"levelo_inurba_marseille","lat":43.3065,"lon":5.37192,"is_reserved":false,"is_disabled":false,"rental_uris":{"android":"levelo://app?vid=f7ad2e7a-a575-4361-994a-0ff95a85d018","ios":"levelo://app?vid=f7ad2e7a-a575-4361-994a-0ff95a85d018"},"vehicle_type_id":"4","last_reported":1726924358,"current_range_meters":38800,"station_id":"","pricing_plan_id":"cebpf4jnsgd1na2vs0mg"},{"bike_id":"ca09086f-5c87-42d3-9455-d34250191c05","system_id":"levelo_inurba_marseille","lat":43.2705,"lon":5.40263,"is_reserved":false,"is_disabled":false,"rental_uris":{"android":"levelo://app?vid=ca09086f-5c87-42d3-9455-d34250191c05","ios":"levelo://app?vid=ca09086f-5c87-42d3-9455-d34250191c05"},"vehicle_type_id":"4","last_reported":1726924358,"current_range_meters":26000,"station_id":"ce4bhk92rcd13ifvqgc0","pricing_plan_id":"cebpf4jnsgd1na2vs0mg"},{"bike_id":"b3a8c7f7-badb-48bc-af6d-f19b0bac6f65","system_id":"levelo_inurba_marseille","lat":43.337444,"lon":5.374475,"is_reserved":false,"is_disabled":false,"rental_uris":{"android":"levelo://app?vid=b3a8c7f7-badb-48bc-af6d-f19b0bac6f65","ios":"levelo://app?vid=b3a8c7f7-badb-48bc-af6d-f19b0bac6f65"},"vehicle_type_id":"4","last_reported":1726924358,"current_range_meters":12400,"station_id":"ce4bgvp2rcd13ifvqcu0","pricing_plan_id":"cebpf4jnsgd1na2vs0mg"},{"bike_id":"c839c5b6-c700-4148-9427-6f6c3691baa7","system_id":"levelo_inurba_marseille","lat":43.23971,"lon":5.36627,"is_reserved":false,"is_disabled":false,"rental_uris":{"android":"levelo://app?vid=c839c5b6-c700-4148-9427-6f6c3691baa7","ios":"levelo://app?vid=c839c5b6-c700-4148-9427-6f6c3691baa7"},"vehicle_type_id":"4","last_reported":1726924358,"current_range_meters":26000,"station_id":"ce4bhi12rcd13ifvqfp0","pricing_plan_id":"cebpf4jnsgd1na2vs0mg"},{"bike_id":"7b515502-de4d-43a6-9062-5488c6ec5c29","system_id":"levelo_inurba_marseille","lat":43.299011,"lon":5.385146,"is_reserved":false,"is_disabled":false,"rental_uris":{"android":"levelo://app?vid=7b515502-de4d-43a6-9062-5488c6ec5c29","ios":"levelo://app?vid=7b515502-de4d-43a6-9062-5488c6ec5c29"},"vehicle_type_id":"4","last_reported":1726924358,"current_range_meters":32000,"station_id":"ce4bgj92rcd13ifvqbd0","pricing_plan_id":"cebpf4jnsgd1na2vs0mg"},{"bike_id":"5840a821-7b4a-4179-8856-92a74917e83c","system_id":"levelo_inurba_marseille","lat":43.24998,"lon":5.38929,"is_reserved":false,"is_disabled":false,"rental_uris":{"android":"levelo://app?vid=5840a821-7b4a-4179-8856-92a74917e83c","ios":"levelo://app?vid=5840a821-7b4a-4179-8856-92a74917e83c"},"vehicle_type_id":"4","last_reported":1726924358,"current_range_meters":38800,"station_id":"ce4bhgp2rcd13ifvqfd0","pricing_plan_id":"cebpf4jnsgd1na2vs0mg"},{"bike_id":"386d7d39-d9a0-4f2f-9dfa-7b382234f940","system_id":"levelo_inurba_marseille","lat":43.23197,"lon":5.35559,"is_reserved":false,"is_disabled":false,"rental_uris":{"android":"levelo://app?vid=386d7d39-d9a0-4f2f-9dfa-7b382234f940","ios":"levelo://app?vid=386d7d39-d9a0-4f2f-9dfa-7b382234f940"},"vehicle_type_id":"4","last_reported":1726924358,"current_range_meters":20000,"station_id":"ce4bhu92rcd13ifvqi70","pricing_plan_id":"cebpf4jnsgd1na2vs0mg"},{"bike_id":"5419b1bf-d37c-4076-a34c-52ede101758e","system_id":"levelo_inurba_marseille","lat":43.337444,"lon":5.374475,"is_reserved":false,"is_disabled":false,"rental_uris":{"android":"levelo://app?vid=5419b1bf-d37c-4076-a34c-52ede101758e","ios":"levelo://app?vid=5419b1bf-d37c-4076-a34c-52ede101758e"},"vehicle_type_id":"4","last_reported":1726924358,"current_range_meters":32800,"station_id":"","pricing_plan_id":"cebpf4jnsgd1na2vs0mg"},{"bike_id":"da9dd67c-abc2-4859-b89e-c27139de6bb9","system_id":"levelo_inurba_marseille","lat":43.27376,"lon":5.36256,"is_reserved":false,"is_disabled":false,"rental_uris":{"android":"levelo://app?vid=da9dd67c-abc2-4859-b89e-c27139de6bb9","ios":"levelo://app?vid=da9dd67c-abc2-4859-b89e-c27139de6bb9"},"vehicle_type_id":"4","last_reported":1726924358,"current_range_meters":24000,"station_id":"ce4bhbh2rcd13ifvqeo0","pricing_plan_id":"cebpf4jnsgd1na2vs0mg"},{"bike_id":"a6aa2727-9bcb-4982-ad44-4d30f03a69e2","system_id":"levelo_inurba_marseille","lat":43.297,"lon":5.36612,"is_reserved":false,"is_disabled":false,"rental_uris":{"android":"levelo://app?vid=a6aa2727-9bcb-4982-ad44-4d30f03a69e2","ios":"levelo://app?vid=a6aa2727-9bcb-4982-ad44-4d30f03a69e2"},"vehicle_type_id":"4","last_reported":1726924358,"current_range_meters":18800,"station_id":"ce4bgn12rcd13ifvqbt0","pricing_plan_id":"cebpf4jnsgd1na2vs0mg"},{"bike_id":"4eef0d21-d850-40fa-a5d8-1d28e2cbd99e","system_id":"levelo_inurba_marseille","lat":43.23965,"lon":5.36635,"is_reserved":false,"is_disabled":false,"rental_uris":{"android":"levelo://app?vid=4eef0d21-d850-40fa-a5d8-1d28e2cbd99e","ios":"levelo://app?vid=4eef0d21-d850-40fa-a5d8-1d28e2cbd99e"},"vehicle_type_id":"4","last_reported":1726924358,"current_range_meters":32400,"station_id":"ce4bhi12rcd13ifvqfp0","pricing_plan_id":"cebpf4jnsgd1na2vs0mg"},{"bike_id":"a020a923-89fb-4175-829b-bdb01d885f9c","system_id":"levelo_inurba_marseille","lat":43.23063,"lon":5.35491,"is_reserved":false,"is_disabled":false,"rental_uris":{"android":"levelo://app?vid=a020a923-89fb-4175-829b-bdb01d885f9c","ios":"levelo://app?vid=a020a923-89fb-4175-829b-bdb01d885f9c"},"vehicle_type_id":"4","last_reported":1726924358,"current_range_meters":29600,"station_id":"cpo3342slgdg3j2ifvpg","pricing_plan_id":"cebpf4jnsgd1na2vs0mg"},{"bike_id":"1cc88c76-77be-4c89-a374-5c5490181003","system_id":"levelo_inurba_marseille","lat":43.28614,"lon":5.35102,"is_reserved":false,"is_disabled":false,"rental_uris":{"android":"levelo://app?vid=1cc88c76-77be-4c89-a374-5c5490181003","ios":"levelo://app?vid=1cc88c76-77be-4c89-a374-5c5490181003"},"vehicle_type_id":"4","last_reported":1726924358,"current_range_meters":30000,"station_id":"ce4bhch2rcd13ifvqeug","pricing_plan_id":"cebpf4jnsgd1na2vs0mg"},{"bike_id":"c45588ba-d620-4246-b609-48fbbaec0786","system_id":"levelo_inurba_marseille","lat":43.27378,"lon":5.36269,"is_reserved":false,"is_disabled":false,"rental_uris":{"android":"levelo://app?vid=c45588ba-d620-4246-b609-48fbbaec0786","ios":"levelo://app?vid=c45588ba-d620-4246-b609-48fbbaec0786"},"vehicle_type_id":"4","last_reported":1726924358,"current_range_meters":19600,"station_id":"ce4bhbh2rcd13ifvqeo0","pricing_plan_id":"cebpf4jnsgd1na2vs0mg"},{"bike_id":"c9224f54-77d9-4079-8934-710dab710c58","system_id":"levelo_inurba_marseille","lat":43.284485,"lon":5.358898,"is_reserved":false,"is_disabled":false,"rental_uris":{"android":"levelo://app?vid=c9224f54-77d9-4079-8934-710dab710c58","ios":"levelo://app?vid=c9224f54-77d9-4079-8934-710dab710c58"},"vehicle_type_id":"4","last_reported":1726924358,"current_range_meters":22400,"station_id":"ce4bhah2rcd13ifvqei0","pricing_plan_id":"cebpf4jnsgd1na2vs0mg"},{"bike_id":"f9e7812f-ec40-4854-9fa3-d5694bfe03ee","system_id":"levelo_inurba_marseille","lat":43.29004,"lon":5.35618,"is_reserved":false,"is_disabled":false,"rental_uris":{"android":"levelo://app?vid=f9e7812f-ec40-4854-9fa3-d5694bfe03ee","ios":"levelo://app?vid=f9e7812f-ec40-4854-9fa3-d5694bfe03ee"},"vehicle_type_id":"4","last_reported":1726924358,"current_range_meters":16000,"station_id":"ce4bhb92rcd13ifvqen0","pricing_plan_id":"cebpf4jnsgd1na2vs0mg"},{"bike_id":"9b8550a5-ba3c-452e-98fa-864d659b5d88","system_id":"levelo_inurba_marseille","lat":43.26213,"lon":5.37443,"is_reserved":false,"is_disabled":false,"rental_uris":{"android":"levelo://app?vid=9b8550a5-ba3c-452e-98fa-864d659b5d88","ios":"levelo://app?vid=9b8550a5-ba3c-452e-98fa-864d659b5d88"},"vehicle_type_id":"4","last_reported":1726924358,"current_range_meters":32800,"station_id":"ce4bhgp2rcd13ifvqfc0","pricing_plan_id":"cebpf4jnsgd1na2vs0mg"},{"bike_id":"6e2fd8fb-799c-468d-a60b-38d2bf81aa37","system_id":"levelo_inurba_marseille","lat":43.2396,"lon":5.36618,"is_reserved":false,"is_disabled":false,"rental_uris":{"android":"levelo://app?vid=6e2fd8fb-799c-468d-a60b-38d2bf81aa37","ios":"levelo://app?vid=6e2fd8fb-799c-468d-a60b-38d2bf81aa37"},"vehicle_type_id":"4","last_reported":1726924358,"current_range_meters":38800,"station_id":"ce4bhi12rcd13ifvqfp0","pricing_plan_id":"cebpf4jnsgd1na2vs0mg"},{"bike_id":"f379a85a-a0f4-4147-9ef1-34a89f012069","system_id":"levelo_inurba_marseille","lat":43.24174,"lon":5.364,"is_reserved":false,"is_disabled":false,"rental_uris":{"android":"levelo://app?vid=f379a85a-a0f4-4147-9ef1-34a89f012069","ios":"levelo://app?vid=f379a85a-a0f4-4147-9ef1-34a89f012069"},"vehicle_type_id":"4","last_reported":1726924358,"current_range_meters":12400,"station_id":"cpo36qri1sfpv3e86is0","pricing_plan_id":"cebpf4jnsgd1na2vs0mg"},{"bike_id":"7ccc499f-63f1-4a72-b7c8-4b3b2437d268","system_id":"levelo_inurba_marseille","lat":43.25014,"lon":5.38915,"is_reserved":false,"is_disabled":false,"rental_uris":{"android":"levelo://app?vid=7ccc499f-63f1-4a72-b7c8-4b3b2437d268","ios":"levelo://app?vid=7ccc499f-63f1-4a72-b7c8-4b3b2437d268"},"vehicle_type_id":"4","last_reported":1726924358,"current_range_meters":28000,"station_id":"ce4bhgp2rcd13ifvqfd0","pricing_plan_id":"cebpf4jnsgd1na2vs0mg"},{"bike_id":"6eab36cd-7ad7-4c91-8e77-39e3a849e7a3","system_id":"levelo_inurba_marseille","lat":43.29842,"lon":5.36269,"is_reserved":false,"is_disabled":false,"rental_uris":{"android":"levelo://app?vid=6eab36cd-7ad7-4c91-8e77-39e3a849e7a3","ios":"levelo://app?vid=6eab36cd-7ad7-4c91-8e77-39e3a849e7a3"},"vehicle_type_id":"4","last_reported":1726924358,"current_range_meters":37600,"station_id":"ce4bgpp2rcd13ifvqc3g","pricing_plan_id":"cebpf4jnsgd1na2vs0mg"},{"bike_id":"70a8ade6-ee98-48bb-9780-169ec31bc544","system_id":"levelo_inurba_marseille","lat":43.28939,"lon":5.36637,"is_reserved":false,"is_disabled":false,"rental_uris":{"android":"levelo://app?vid=70a8ade6-ee98-48bb-9780-169ec31bc544","ios":"levelo://app?vid=70a8ade6-ee98-48bb-9780-169ec31bc544"},"vehicle_type_id":"4","last_reported":1726924358,"current_range_meters":9600,"station_id":"ce4bhap2rcd13ifvqek0","pricing_plan_id":"cebpf4jnsgd1na2vs0mg"},{"bike_id":"e2bd525d-549a-4783-baf3-c29d6b2d67d0","system_id":"levelo_inurba_marseille","lat":43.28,"lon":5.40014,"is_reserved":false,"is_disabled":false,"rental_uris":{"android":"levelo://app?vid=e2bd525d-549a-4783-baf3-c29d6b2d67d0","ios":"levelo://app?vid=e2bd525d-549a-4783-baf3-c29d6b2d67d0"},"vehicle_type_id":"4","last_reported":1726924358,"current_range_meters":31200,"station_id":"ce4bho92rcd13ifvqh4g","pricing_plan_id":"cebpf4jnsgd1na2vs0mg"},{"bike_id":"46935de8-58e9-4115-8a45-e490632b3175","system_id":"levelo_inurba_marseille","lat":43.305321,"lon":5.38421,"is_reserved":false,"is_disabled":false,"rental_uris":{"android":"levelo://app?vid=46935de8-58e9-4115-8a45-e490632b3175","ios":"levelo://app?vid=46935de8-58e9-4115-8a45-e490632b3175"},"vehicle_type_id":"4","last_reported":1726924358,"current_range_meters":7200,"station_id":"ce4bgg92rcd13ifvqb30","pricing_plan_id":"cebpf4jnsgd1na2vs0mg"},{"bike_id":"47382161-6549-4529-a84d-42d3bdfc17bc","system_id":"levelo_inurba_marseille","lat":43.24172,"lon":5.36401,"is_reserved":false,"is_disabled":false,"rental_uris":{"android":"levelo://app?vid=47382161-6549-4529-a84d-42d3bdfc17bc","ios":"levelo://app?vid=47382161-6549-4529-a84d-42d3bdfc17bc"},"vehicle_type_id":"4","last_reported":1726924358,"current_range_meters":18000,"station_id":"cpo36qri1sfpv3e86is0","pricing_plan_id":"cebpf4jnsgd1na2vs0mg"},{"bike_id":"7162337d-11d3-4c8f-9642-72227c300401","system_id":"levelo_inurba_marseille","lat":43.30551,"lon":5.36536,"is_reserved":false,"is_disabled":false,"rental_uris":{"android":"levelo://app?vid=7162337d-11d3-4c8f-9642-72227c300401","ios":"levelo://app?vid=7162337d-11d3-4c8f-9642-72227c300401"},"vehicle_type_id":"4","last_reported":1726924358,"current_range_meters":38800,"station_id":"ce4bgs12rcd13ifvqcag","pricing_plan_id":"cebpf4jnsgd1na2vs0mg"},{"bike_id":"149779fc-bc45-458a-857f-33707eedaf6a","system_id":"levelo_inurba_marseille","lat":43.23193,"lon":5.3555,"is_reserved":false,"is_disabled":false,"rental_uris":{"android":"levelo://app?vid=149779fc-bc45-458a-857f-33707eedaf6a","ios":"levelo://app?vid=149779fc-bc45-458a-857f-33707eedaf6a"},"vehicle_type_id":"4","last_reported":1726924358,"current_range_meters":20800,"station_id":"ce4bhu92rcd13ifvqi70","pricing_plan_id":"cebpf4jnsgd1na2vs0mg"},{"bike_id":"5c360384-0a70-4290-a35d-e592090e1deb","system_id":"levelo_inurba_marseille","lat":43.25723,"lon":5.41111,"is_reserved":false,"is_disabled":false,"rental_uris":{"android":"levelo://app?vid=5c360384-0a70-4290-a35d-e592090e1deb","ios":"levelo://app?vid=5c360384-0a70-4290-a35d-e592090e1deb"},"vehicle_type_id":"4","last_reported":1726924358,"current_range_meters":38800,"station_id":"ce4bhkp2rcd13ifvqgd0","pricing_plan_id":"cebpf4jnsgd1na2vs0mg"},{"bike_id":"1ed4e0c7-d3f8-4751-a217-b53cf45cffb8","system_id":"levelo_inurba_marseille","lat":43.28285,"lon":5.35079,"is_reserved":false,"is_disabled":false,"rental_uris":{"android":"levelo://app?vid=1ed4e0c7-d3f8-4751-a217-b53cf45cffb8","ios":"levelo://app?vid=1ed4e0c7-d3f8-4751-a217-b53cf45cffb8"},"vehicle_type_id":"4","last_reported":1726924358,"current_range_meters":3600,"station_id":"ce4bhbp2rcd13ifvqerg","pricing_plan_id":"cebpf4jnsgd1na2vs0mg"},{"bike_id":"9f099c8c-c330-4866-b05d-f6737ab4b880","system_id":"levelo_inurba_marseille","lat":43.282715,"lon":5.350733,"is_reserved":false,"is_disabled":false,"rental_uris":{"android":"levelo://app?vid=9f099c8c-c330-4866-b05d-f6737ab4b880","ios":"levelo://app?vid=9f099c8c-c330-4866-b05d-f6737ab4b880"},"vehicle_type_id":"4","last_reported":1726924358,"current_range_meters":8400,"station_id":"ce4bhbp2rcd13ifvqerg","pricing_plan_id":"cebpf4jnsgd1na2vs0mg"},{"bike_id":"d18abe8f-df36-44df-a20f-9bc93b122f4a","system_id":"levelo_inurba_marseille","lat":43.30949,"lon":5.39039,"is_reserved":false,"is_disabled":false,"rental_uris":{"android":"levelo://app?vid=d18abe8f-df36-44df-a20f-9bc93b122f4a","ios":"levelo://app?vid=d18abe8f-df36-44df-a20f-9bc93b122f4a"},"vehicle_type_id":"4","last_reported":1726924358,"current_range_meters":8400,"station_id":"ce4bgup2rcd13ifvqco0","pricing_plan_id":"cebpf4jnsgd1na2vs0mg"},{"bike_id":"f9d6ebef-08e6-4ee3-af18-856bff18afeb","system_id":"levelo_inurba_marseille","lat":43.30535,"lon":5.36705,"is_reserved":false,"is_disabled":false,"rental_uris":{"android":"levelo://app?vid=f9d6ebef-08e6-4ee3-af18-856bff18afeb","ios":"levelo://app?vid=f9d6ebef-08e6-4ee3-af18-856bff18afeb"},"vehicle_type_id":"4","last_reported":1726924358,"current_range_meters":30800,"station_id":"ce4bgrp2rcd13ifvqc9g","pricing_plan_id":"cebpf4jnsgd1na2vs0mg"},{"bike_id":"29d111e6-84f5-4545-b24b-4b7889ecc919","system_id":"levelo_inurba_marseille","lat":43.28422,"lon":5.34985,"is_reserved":false,"is_disabled":false,"rental_uris":{"android":"levelo://app?vid=29d111e6-84f5-4545-b24b-4b7889ecc919","ios":"levelo://app?vid=29d111e6-84f5-4545-b24b-4b7889ecc919"},"vehicle_type_id":"4","last_reported":1726924358,"current_range_meters":8800,"station_id":"ce4bhbh2rcd13ifvqepg","pricing_plan_id":"cebpf4jnsgd1na2vs0mg"},{"bike_id":"604c9531-be4f-4974-bfe2-bd7828d7386f","system_id":"levelo_inurba_marseille","lat":43.29897,"lon":5.43673,"is_reserved":false,"is_disabled":false,"rental_uris":{"android":"levelo://app?vid=604c9531-be4f-4974-bfe2-bd7828d7386f","ios":"levelo://app?vid=604c9531-be4f-4974-bfe2-bd7828d7386f"},"vehicle_type_id":"4","last_reported":1726924358,"current_range_meters":24000,"station_id":"ce4bhpp2rcd13ifvqhfg","pricing_plan_id":"cebpf4jnsgd1na2vs0mg"},{"bike_id":"217ef1e6-255c-4998-83d2-821ac1a80098","system_id":"levelo_inurba_marseille","lat":43.27206,"lon":5.39182,"is_reserved":false,"is_disabled":false,"rental_uris":{"android":"levelo://app?vid=217ef1e6-255c-4998-83d2-821ac1a80098","ios":"levelo://app?vid=217ef1e6-255c-4998-83d2-821ac1a80098"},"vehicle_type_id":"4","last_reported":1726924358,"current_range_meters":4400,"station_id":"ce4bhhp2rcd13ifvqfm0","pricing_plan_id":"cebpf4jnsgd1na2vs0mg"},{"bike_id":"b85cf56b-2d38-43e6-ac4b-c320a3c42fd9","system_id":"levelo_inurba_marseille","lat":43.309401,"lon":5.390304,"is_reserved":false,"is_disabled":false,"rental_uris":{"android":"levelo://app?vid=b85cf56b-2d38-43e6-ac4b-c320a3c42fd9","ios":"levelo://app?vid=b85cf56b-2d38-43e6-ac4b-c320a3c42fd9"},"vehicle_type_id":"4","last_reported":1726924358,"current_range_meters":3200,"station_id":"ce4bgup2rcd13ifvqco0","pricing_plan_id":"cebpf4jnsgd1na2vs0mg"},{"bike_id":"36f63589-5127-46bc-9f94-5ec2d39a6789","system_id":"levelo_inurba_marseille","lat":43.31229,"lon":5.36858,"is_reserved":false,"is_disabled":false,"rental_uris":{"android":"levelo://app?vid=36f63589-5127-46bc-9f94-5ec2d39a6789","ios":"levelo://app?vid=36f63589-5127-46bc-9f94-5ec2d39a6789"},"vehicle_type_id":"4","last_reported":1726924358,"current_range_meters":30000,"station_id":"ce4bgl92rcd13ifvqbq0","pricing_plan_id":"cebpf4jnsgd1na2vs0mg"},{"bike_id":"e9f714fa-1d05-42df-9ecd-4171744ee136","system_id":"levelo_inurba_marseille","lat":43.28416,"lon":5.34996,"is_reserved":false,"is_disabled":false,"rental_uris":{"android":"levelo://app?vid=e9f714fa-1d05-42df-9ecd-4171744ee136","ios":"levelo://app?vid=e9f714fa-1d05-42df-9ecd-4171744ee136"},"vehicle_type_id":"4","last_reported":1726924358,"current_range_meters":32000,"station_id":"ce4bhbh2rcd13ifvqepg","pricing_plan_id":"cebpf4jnsgd1na2vs0mg"},{"bike_id":"d414398a-c2f5-4147-98fd-421b864558c6","system_id":"levelo_inurba_marseille","lat":43.23964,"lon":5.36624,"is_reserved":false,"is_disabled":false,"rental_uris":{"android":"levelo://app?vid=d414398a-c2f5-4147-98fd-421b864558c6","ios":"levelo://app?vid=d414398a-c2f5-4147-98fd-421b864558c6"},"vehicle_type_id":"4","last_reported":1726924358,"current_range_meters":22000,"station_id":"ce4bhi12rcd13ifvqfp0","pricing_plan_id":"cebpf4jnsgd1na2vs0mg"},{"bike_id":"0c0ab2b8-e035-40a8-831e-15a1d0d65b68","system_id":"levelo_inurba_marseille","lat":43.29711,"lon":5.36607,"is_reserved":false,"is_disabled":false,"rental_uris":{"android":"levelo://app?vid=0c0ab2b8-e035-40a8-831e-15a1d0d65b68","ios":"levelo://app?vid=0c0ab2b8-e035-40a8-831e-15a1d0d65b68"},"vehicle_type_id":"4","last_reported":1726924358,"current_range_meters":17600,"station_id":"ce4bgn12rcd13ifvqbt0","pricing_plan_id":"cebpf4jnsgd1na2vs0mg"},{"bike_id":"542e2c69-6cd2-413d-9cfd-2c5f9a60a140","system_id":"levelo_inurba_marseille","lat":43.24076,"lon":5.37756,"is_reserved":false,"is_disabled":false,"rental_uris":{"android":"levelo://app?vid=542e2c69-6cd2-413d-9cfd-2c5f9a60a140","ios":"levelo://app?vid=542e2c69-6cd2-413d-9cfd-2c5f9a60a140"},"vehicle_type_id":"4","last_reported":1726924358,"current_range_meters":9200,"station_id":"ce4bhnp2rcd13ifvqgvg","pricing_plan_id":"cebpf4jnsgd1na2vs0mg"},{"bike_id":"b7ff0e8b-4fe5-463a-936d-31cfb5c62a13","system_id":"levelo_inurba_marseille","lat":43.29977,"lon":5.41309,"is_reserved":false,"is_disabled":false,"rental_uris":{"android":"levelo://app?vid=b7ff0e8b-4fe5-463a-936d-31cfb5c62a13","ios":"levelo://app?vid=b7ff0e8b-4fe5-463a-936d-31cfb5c62a13"},"vehicle_type_id":"4","last_reported":1726924358,"current_range_meters":39200,"station_id":"ce4bhp12rcd13ifvqh9g","pricing_plan_id":"cebpf4jnsgd1na2vs0mg"},{"bike_id":"201d7071-9ccf-4a9a-9f0b-bbaa4304419f","system_id":"levelo_inurba_marseille","lat":43.298553,"lon":5.362844,"is_reserved":false,"is_disabled":false,"rental_uris":{"android":"levelo://app?vid=201d7071-9ccf-4a9a-9f0b-bbaa4304419f","ios":"levelo://app?vid=201d7071-9ccf-4a9a-9f0b-bbaa4304419f"},"vehicle_type_id":"4","last_reported":1726924358,"current_range_meters":28000,"station_id":"ce4bgpp2rcd13ifvqc3g","pricing_plan_id":"cebpf4jnsgd1na2vs0mg"},{"bike_id":"fe61791c-21d9-4b25-a0b8-c74c8e3b9350","system_id":"levelo_inurba_marseille","lat":43.22933,"lon":5.35377,"is_reserved":false,"is_disabled":false,"rental_uris":{"android":"levelo://app?vid=fe61791c-21d9-4b25-a0b8-c74c8e3b9350","ios":"levelo://app?vid=fe61791c-21d9-4b25-a0b8-c74c8e3b9350"},"vehicle_type_id":"4","last_reported":1726924358,"current_range_meters":29600,"station_id":"cpo3532slgdg3j2ikp40","pricing_plan_id":"cebpf4jnsgd1na2vs0mg"},{"bike_id":"ad061bb3-df26-4cac-9141-09b7f163d372","system_id":"levelo_inurba_marseille","lat":43.30951,"lon":5.39036,"is_reserved":false,"is_disabled":false,"rental_uris":{"android":"levelo://app?vid=ad061bb3-df26-4cac-9141-09b7f163d372","ios":"levelo://app?vid=ad061bb3-df26-4cac-9141-09b7f163d372"},"vehicle_type_id":"4","last_reported":1726924358,"current_range_meters":8800,"station_id":"ce4bgup2rcd13ifvqco0","pricing_plan_id":"cebpf4jnsgd1na2vs0mg"},{"bike_id":"0f095951-83e2-4482-bea5-76ef753c85e4","system_id":"levelo_inurba_marseille","lat":43.29856,"lon":5.36284,"is_reserved":false,"is_disabled":false,"rental_uris":{"android":"levelo://app?vid=0f095951-83e2-4482-bea5-76ef753c85e4","ios":"levelo://app?vid=0f095951-83e2-4482-bea5-76ef753c85e4"},"vehicle_type_id":"4","last_reported":1726924358,"current_range_meters":24800,"station_id":"ce4bgpp2rcd13ifvqc3g","pricing_plan_id":"cebpf4jnsgd1na2vs0mg"},{"bike_id":"7db34aab-bb83-4943-a5a0-93955f52a4ec","system_id":"levelo_inurba_marseille","lat":43.33724,"lon":5.39177,"is_reserved":false,"is_disabled":false,"rental_uris":{"android":"levelo://app?vid=7db34aab-bb83-4943-a5a0-93955f52a4ec","ios":"levelo://app?vid=7db34aab-bb83-4943-a5a0-93955f52a4ec"},"vehicle_type_id":"4","last_reported":1726924358,"current_range_meters":37600,"station_id":"ce4bhr92rcd13ifvqhsg","pricing_plan_id":"cebpf4jnsgd1na2vs0mg"},{"bike_id":"6afdc0cd-b86f-4658-88e7-98f51799f293","system_id":"levelo_inurba_marseille","lat":43.30324,"lon":5.40444,"is_reserved":false,"is_disabled":false,"rental_uris":{"android":"levelo://app?vid=6afdc0cd-b86f-4658-88e7-98f51799f293","ios":"levelo://app?vid=6afdc0cd-b86f-4658-88e7-98f51799f293"},"vehicle_type_id":"4","last_reported":1726924358,"current_range_meters":8800,"station_id":"ce4bh012rcd13ifvqd10","pricing_plan_id":"cebpf4jnsgd1na2vs0mg"},{"bike_id":"3562367e-ea7c-4df2-8d11-85f32152a5ba","system_id":"levelo_inurba_marseille","lat":43.337444,"lon":5.374475,"is_reserved":false,"is_disabled":false,"rental_uris":{"android":"levelo://app?vid=3562367e-ea7c-4df2-8d11-85f32152a5ba","ios":"levelo://app?vid=3562367e-ea7c-4df2-8d11-85f32152a5ba"},"vehicle_type_id":"4","last_reported":1726924358,"current_range_meters":19200,"station_id":"ce4bha12rcd13ifvqee0","pricing_plan_id":"cebpf4jnsgd1na2vs0mg"},{"bike_id":"cb440389-3e3c-429d-9eb6-6ae666985d85","system_id":"levelo_inurba_marseille","lat":43.25496,"lon":5.37648,"is_reserved":false,"is_disabled":false,"rental_uris":{"android":"levelo://app?vid=cb440389-3e3c-429d-9eb6-6ae666985d85","ios":"levelo://app?vid=cb440389-3e3c-429d-9eb6-6ae666985d85"},"vehicle_type_id":"4","last_reported":1726924358,"current_range_meters":20400,"station_id":"ce4bhh12rcd13ifvqff0","pricing_plan_id":"cebpf4jnsgd1na2vs0mg"},{"bike_id":"e23da34f-4d84-42d6-ad66-74a1d13a6bdf","system_id":"levelo_inurba_marseille","lat":43.337444,"lon":5.374475,"is_reserved":false,"is_disabled":false,"rental_uris":{"android":"levelo://app?vid=e23da34f-4d84-42d6-ad66-74a1d13a6bdf","ios":"levelo://app?vid=e23da34f-4d84-42d6-ad66-74a1d13a6bdf"},"vehicle_type_id":"4","last_reported":1726924358,"current_range_meters":32400,"station_id":"ce4bh012rcd13ifvqcv0","pricing_plan_id":"cebpf4jnsgd1na2vs0mg"},{"bike_id":"7b7cf89d-5325-4d4a-8061-5cf0c5bab16f","system_id":"levelo_inurba_marseille","lat":43.26194,"lon":5.3745,"is_reserved":false,"is_disabled":false,"rental_uris":{"android":"levelo://app?vid=7b7cf89d-5325-4d4a-8061-5cf0c5bab16f","ios":"levelo://app?vid=7b7cf89d-5325-4d4a-8061-5cf0c5bab16f"},"vehicle_type_id":"4","last_reported":1726924358,"current_range_meters":30800,"station_id":"","pricing_plan_id":"cebpf4jnsgd1na2vs0mg"},{"bike_id":"c89f2ec8-f079-4090-a948-a93079f4b8b0","system_id":"levelo_inurba_marseille","lat":43.26057,"lon":5.39398,"is_reserved":false,"is_disabled":false,"rental_uris":{"android":"levelo://app?vid=c89f2ec8-f079-4090-a948-a93079f4b8b0","ios":"levelo://app?vid=c89f2ec8-f079-4090-a948-a93079f4b8b0"},"vehicle_type_id":"4","last_reported":1726924358,"current_range_meters":28400,"station_id":"ce4bhh92rcd13ifvqfj0","pricing_plan_id":"cebpf4jnsgd1na2vs0mg"},{"bike_id":"fe02eabb-a2b4-4ea9-918d-8498504a82a3","system_id":"levelo_inurba_marseille","lat":43.26193,"lon":5.37445,"is_reserved":false,"is_disabled":false,"rental_uris":{"android":"levelo://app?vid=fe02eabb-a2b4-4ea9-918d-8498504a82a3","ios":"levelo://app?vid=fe02eabb-a2b4-4ea9-918d-8498504a82a3"},"vehicle_type_id":"4","last_reported":1726924358,"current_range_meters":13600,"station_id":"ce4bhgp2rcd13ifvqfc0","pricing_plan_id":"cebpf4jnsgd1na2vs0mg"},{"bike_id":"afaab830-46a4-4c2c-9890-6708827d00b5","system_id":"levelo_inurba_marseille","lat":43.28425,"lon":5.34992,"is_reserved":false,"is_disabled":false,"rental_uris":{"android":"levelo://app?vid=afaab830-46a4-4c2c-9890-6708827d00b5","ios":"levelo://app?vid=afaab830-46a4-4c2c-9890-6708827d00b5"},"vehicle_type_id":"4","last_reported":1726924358,"current_range_meters":24800,"station_id":"ce4bhbh2rcd13ifvqepg","pricing_plan_id":"cebpf4jnsgd1na2vs0mg"},{"bike_id":"bdefe4e8-a662-4af9-a25f-453f4349f930","system_id":"levelo_inurba_marseille","lat":43.24663,"lon":5.38165,"is_reserved":false,"is_disabled":false,"rental_uris":{"android":"levelo://app?vid=bdefe4e8-a662-4af9-a25f-453f4349f930","ios":"levelo://app?vid=bdefe4e8-a662-4af9-a25f-453f4349f930"},"vehicle_type_id":"4","last_reported":1726924358,"current_range_meters":7200,"station_id":"ce4bhih2rcd13ifvqfr0","pricing_plan_id":"cebpf4jnsgd1na2vs0mg"},{"bike_id":"146ac5f2-7c1e-46d5-9347-54e9005d3585","system_id":"levelo_inurba_marseille","lat":43.26947,"lon":5.40248,"is_reserved":false,"is_disabled":false,"rental_uris":{"android":"levelo://app?vid=146ac5f2-7c1e-46d5-9347-54e9005d3585","ios":"levelo://app?vid=146ac5f2-7c1e-46d5-9347-54e9005d3585"},"vehicle_type_id":"4","last_reported":1726924358,"current_range_meters":39200,"station_id":"cjm6bp8fraef2m0cb0m0","pricing_plan_id":"cebpf4jnsgd1na2vs0mg"},{"bike_id":"7b9dd459-340b-4978-bfb0-6c163a5263e8","system_id":"levelo_inurba_marseille","lat":43.23192,"lon":5.35549,"is_reserved":false,"is_disabled":false,"rental_uris":{"android":"levelo://app?vid=7b9dd459-340b-4978-bfb0-6c163a5263e8","ios":"levelo://app?vid=7b9dd459-340b-4978-bfb0-6c163a5263e8"},"vehicle_type_id":"4","last_reported":1726924358,"current_range_meters":38800,"station_id":"ce4bhu92rcd13ifvqi70","pricing_plan_id":"cebpf4jnsgd1na2vs0mg"},{"bike_id":"e0044408-9be7-4613-bb9f-046e35e723d5","system_id":"levelo_inurba_marseille","lat":43.30945,"lon":5.39045,"is_reserved":false,"is_disabled":false,"rental_uris":{"android":"levelo://app?vid=e0044408-9be7-4613-bb9f-046e35e723d5","ios":"levelo://app?vid=e0044408-9be7-4613-bb9f-046e35e723d5"},"vehicle_type_id":"4","last_reported":1726924358,"current_range_meters":35200,"station_id":"ce4bgup2rcd13ifvqco0","pricing_plan_id":"cebpf4jnsgd1na2vs0mg"},{"bike_id":"cbee5b47-3529-4297-bf7e-7abd88e69aa3","system_id":"levelo_inurba_marseille","lat":43.24392,"lon":5.37062,"is_reserved":false,"is_disabled":false,"rental_uris":{"android":"levelo://app?vid=cbee5b47-3529-4297-bf7e-7abd88e69aa3","ios":"levelo://app?vid=cbee5b47-3529-4297-bf7e-7abd88e69aa3"},"vehicle_type_id":"4","last_reported":1726924358,"current_range_meters":35200,"station_id":"ce4bhhh2rcd13ifvqfk0","pricing_plan_id":"cebpf4jnsgd1na2vs0mg"},{"bike_id":"71aa8592-ddf7-4343-aed4-c00d3433340f","system_id":"levelo_inurba_marseille","lat":43.337444,"lon":5.374475,"is_reserved":false,"is_disabled":false,"rental_uris":{"android":"levelo://app?vid=71aa8592-ddf7-4343-aed4-c00d3433340f","ios":"levelo://app?vid=71aa8592-ddf7-4343-aed4-c00d3433340f"},"vehicle_type_id":"4","last_reported":1726924358,"current_range_meters":36000,"station_id":"","pricing_plan_id":"cebpf4jnsgd1na2vs0mg"},{"bike_id":"3740c6df-06cd-419b-9ae6-b8d9e5eff548","system_id":"levelo_inurba_marseille","lat":43.2753,"lon":5.40935,"is_reserved":false,"is_disabled":false,"rental_uris":{"android":"levelo://app?vid=3740c6df-06cd-419b-9ae6-b8d9e5eff548","ios":"levelo://app?vid=3740c6df-06cd-419b-9ae6-b8d9e5eff548"},"vehicle_type_id":"4","last_reported":1726924358,"current_range_meters":17600,"station_id":"","pricing_plan_id":"cebpf4jnsgd1na2vs0mg"},{"bike_id":"c1cd1c1f-3380-4bc8-a3ca-2d109cbec65b","system_id":"levelo_inurba_marseille","lat":43.33609,"lon":5.41032,"is_reserved":false,"is_disabled":false,"rental_uris":{"android":"levelo://app?vid=c1cd1c1f-3380-4bc8-a3ca-2d109cbec65b","ios":"levelo://app?vid=c1cd1c1f-3380-4bc8-a3ca-2d109cbec65b"},"vehicle_type_id":"4","last_reported":1726924358,"current_range_meters":37600,"station_id":"ce4bhqh2rcd13ifvqhmg","pricing_plan_id":"cebpf4jnsgd1na2vs0mg"},{"bike_id":"56afc466-4e2b-4282-8cb5-97c2b1d8a91e","system_id":"levelo_inurba_marseille","lat":43.26215,"lon":5.37441,"is_reserved":false,"is_disabled":false,"rental_uris":{"android":"levelo://app?vid=56afc466-4e2b-4282-8cb5-97c2b1d8a91e","ios":"levelo://app?vid=56afc466-4e2b-4282-8cb5-97c2b1d8a91e"},"vehicle_type_id":"4","last_reported":1726924358,"current_range_meters":38800,"station_id":"ce4bhgp2rcd13ifvqfc0","pricing_plan_id":"cebpf4jnsgd1na2vs0mg"},{"bike_id":"0b8c603b-dd7e-41e3-a2f3-46d73db38756","system_id":"levelo_inurba_marseille","lat":43.289429,"lon":5.366361,"is_reserved":false,"is_disabled":false,"rental_uris":{"android":"levelo://app?vid=0b8c603b-dd7e-41e3-a2f3-46d73db38756","ios":"levelo://app?vid=0b8c603b-dd7e-41e3-a2f3-46d73db38756"},"vehicle_type_id":"4","last_reported":1726924358,"current_range_meters":25200,"station_id":"ce4bhap2rcd13ifvqek0","pricing_plan_id":"cebpf4jnsgd1na2vs0mg"},{"bike_id":"9f1fcc9a-cf94-4d34-a3ba-311ccd14d26a","system_id":"levelo_inurba_marseille","lat":43.28486,"lon":5.38553,"is_reserved":false,"is_disabled":false,"rental_uris":{"android":"levelo://app?vid=9f1fcc9a-cf94-4d34-a3ba-311ccd14d26a","ios":"levelo://app?vid=9f1fcc9a-cf94-4d34-a3ba-311ccd14d26a"},"vehicle_type_id":"4","last_reported":1726924358,"current_range_meters":4800,"station_id":"ce4bh8p2rcd13ifvqeb0","pricing_plan_id":"cebpf4jnsgd1na2vs0mg"},{"bike_id":"99d38074-9230-4114-a511-8caae5aa3211","system_id":"levelo_inurba_marseille","lat":43.28153,"lon":5.42646,"is_reserved":false,"is_disabled":false,"rental_uris":{"android":"levelo://app?vid=99d38074-9230-4114-a511-8caae5aa3211","ios":"levelo://app?vid=99d38074-9230-4114-a511-8caae5aa3211"},"vehicle_type_id":"4","last_reported":1726924358,"current_range_meters":8400,"station_id":"ce4bhnh2rcd13ifvqgug","pricing_plan_id":"cebpf4jnsgd1na2vs0mg"},{"bike_id":"88e87b5a-9c94-4bc0-915f-141b1196949b","system_id":"levelo_inurba_marseille","lat":43.26684,"lon":5.38269,"is_reserved":false,"is_disabled":false,"rental_uris":{"android":"levelo://app?vid=88e87b5a-9c94-4bc0-915f-141b1196949b","ios":"levelo://app?vid=88e87b5a-9c94-4bc0-915f-141b1196949b"},"vehicle_type_id":"4","last_reported":1726924358,"current_range_meters":9200,"station_id":"ce4bhg92rcd13ifvqf90","pricing_plan_id":"cebpf4jnsgd1na2vs0mg"},{"bike_id":"566004ed-fd59-430f-89f2-1aa59950dc17","system_id":"levelo_inurba_marseille","lat":43.24396,"lon":5.37059,"is_reserved":false,"is_disabled":false,"rental_uris":{"android":"levelo://app?vid=566004ed-fd59-430f-89f2-1aa59950dc17","ios":"levelo://app?vid=566004ed-fd59-430f-89f2-1aa59950dc17"},"vehicle_type_id":"4","last_reported":1726924358,"current_range_meters":30800,"station_id":"ce4bhhh2rcd13ifvqfk0","pricing_plan_id":"cebpf4jnsgd1na2vs0mg"},{"bike_id":"e81e61b5-9b22-45be-af1f-8007de55fd95","system_id":"levelo_inurba_marseille","lat":43.29011,"lon":5.35615,"is_reserved":false,"is_disabled":false,"rental_uris":{"android":"levelo://app?vid=e81e61b5-9b22-45be-af1f-8007de55fd95","ios":"levelo://app?vid=e81e61b5-9b22-45be-af1f-8007de55fd95"},"vehicle_type_id":"4","last_reported":1726924358,"current_range_meters":17600,"station_id":"ce4bhb92rcd13ifvqen0","pricing_plan_id":"cebpf4jnsgd1na2vs0mg"},{"bike_id":"bb77777d-90bb-42a8-bb53-86e3a00001ad","system_id":"levelo_inurba_marseille","lat":43.23152,"lon":5.43707,"is_reserved":false,"is_disabled":false,"rental_uris":{"android":"levelo://app?vid=bb77777d-90bb-42a8-bb53-86e3a00001ad","ios":"levelo://app?vid=bb77777d-90bb-42a8-bb53-86e3a00001ad"},"vehicle_type_id":"4","last_reported":1726924358,"current_range_meters":38800,"station_id":"ce4bhmp2rcd13ifvqgog","pricing_plan_id":"cebpf4jnsgd1na2vs0mg"},{"bike_id":"681b23de-ffdd-45aa-9a3a-af77373afa48","system_id":"levelo_inurba_marseille","lat":43.28419,"lon":5.34994,"is_reserved":false,"is_disabled":false,"rental_uris":{"android":"levelo://app?vid=681b23de-ffdd-45aa-9a3a-af77373afa48","ios":"levelo://app?vid=681b23de-ffdd-45aa-9a3a-af77373afa48"},"vehicle_type_id":"4","last_reported":1726924358,"current_range_meters":10800,"station_id":"ce4bhbh2rcd13ifvqepg","pricing_plan_id":"cebpf4jnsgd1na2vs0mg"},{"bike_id":"ec9a9ebd-d5cf-4df7-9e1e-e1adaef75c93","system_id":"levelo_inurba_marseille","lat":43.31231,"lon":5.36868,"is_reserved":false,"is_disabled":false,"rental_uris":{"android":"levelo://app?vid=ec9a9ebd-d5cf-4df7-9e1e-e1adaef75c93","ios":"levelo://app?vid=ec9a9ebd-d5cf-4df7-9e1e-e1adaef75c93"},"vehicle_type_id":"4","last_reported":1726924358,"current_range_meters":27600,"station_id":"ce4bgl92rcd13ifvqbq0","pricing_plan_id":"cebpf4jnsgd1na2vs0mg"},{"bike_id":"5a88836a-ba71-45a0-ba02-96b0e7d4b85b","system_id":"levelo_inurba_marseille","lat":43.291976,"lon":5.393276,"is_reserved":false,"is_disabled":false,"rental_uris":{"android":"levelo://app?vid=5a88836a-ba71-45a0-ba02-96b0e7d4b85b","ios":"levelo://app?vid=5a88836a-ba71-45a0-ba02-96b0e7d4b85b"},"vehicle_type_id":"4","last_reported":1726924358,"current_range_meters":6000,"station_id":"ce4bh192rcd13ifvqdd0","pricing_plan_id":"cebpf4jnsgd1na2vs0mg"},{"bike_id":"81c48ae1-4961-455c-8fa8-7c07c935e2c6","system_id":"levelo_inurba_marseille","lat":43.30901,"lon":5.39621,"is_reserved":false,"is_disabled":false,"rental_uris":{"android":"levelo://app?vid=81c48ae1-4961-455c-8fa8-7c07c935e2c6","ios":"levelo://app?vid=81c48ae1-4961-455c-8fa8-7c07c935e2c6"},"vehicle_type_id":"4","last_reported":1726924358,"current_range_meters":18000,"station_id":"ce4bh012rcd13ifvqcv0","pricing_plan_id":"cebpf4jnsgd1na2vs0mg"},{"bike_id":"ad623618-5771-4254-816f-843856aafd1b","system_id":"levelo_inurba_marseille","lat":43.28271,"lon":5.35069,"is_reserved":false,"is_disabled":false,"rental_uris":{"android":"levelo://app?vid=ad623618-5771-4254-816f-843856aafd1b","ios":"levelo://app?vid=ad623618-5771-4254-816f-843856aafd1b"},"vehicle_type_id":"4","last_reported":1726924358,"current_range_meters":22400,"station_id":"ce4bhbp2rcd13ifvqerg","pricing_plan_id":"cebpf4jnsgd1na2vs0mg"},{"bike_id":"dcc0dab8-ff9b-426f-9e3b-79ca738202f9","system_id":"levelo_inurba_marseille","lat":43.27321,"lon":5.3911,"is_reserved":false,"is_disabled":false,"rental_uris":{"android":"levelo://app?vid=dcc0dab8-ff9b-426f-9e3b-79ca738202f9","ios":"levelo://app?vid=dcc0dab8-ff9b-426f-9e3b-79ca738202f9"},"vehicle_type_id":"4","last_reported":1726924358,"current_range_meters":30800,"station_id":"ce4bhgp2rcd13ifvqfe0","pricing_plan_id":"cebpf4jnsgd1na2vs0mg"},{"bike_id":"f3c16881-dc5c-4c89-a1ae-7a7d69155467","system_id":"levelo_inurba_marseille","lat":43.2396,"lon":5.36636,"is_reserved":false,"is_disabled":false,"rental_uris":{"android":"levelo://app?vid=f3c16881-dc5c-4c89-a1ae-7a7d69155467","ios":"levelo://app?vid=f3c16881-dc5c-4c89-a1ae-7a7d69155467"},"vehicle_type_id":"4","last_reported":1726924358,"current_range_meters":36000,"station_id":"ce4bhi12rcd13ifvqfp0","pricing_plan_id":"cebpf4jnsgd1na2vs0mg"},{"bike_id":"59d9b6b8-cd3e-4dbb-a706-44f7cd8085fb","system_id":"levelo_inurba_marseille","lat":43.30888,"lon":5.39653,"is_reserved":false,"is_disabled":false,"rental_uris":{"android":"levelo://app?vid=59d9b6b8-cd3e-4dbb-a706-44f7cd8085fb","ios":"levelo://app?vid=59d9b6b8-cd3e-4dbb-a706-44f7cd8085fb"},"vehicle_type_id":"4","last_reported":1726924358,"current_range_meters":22800,"station_id":"ce4bh012rcd13ifvqcv0","pricing_plan_id":"cebpf4jnsgd1na2vs0mg"},{"bike_id":"b8d2beb5-bd9f-4290-bec2-2c0e2dba154e","system_id":"levelo_inurba_marseille","lat":43.32491,"lon":5.36566,"is_reserved":false,"is_disabled":false,"rental_uris":{"android":"levelo://app?vid=b8d2beb5-bd9f-4290-bec2-2c0e2dba154e","ios":"levelo://app?vid=b8d2beb5-bd9f-4290-bec2-2c0e2dba154e"},"vehicle_type_id":"4","last_reported":1726924358,"current_range_meters":15200,"station_id":"ce4bhs12rcd13ifvqhvg","pricing_plan_id":"cebpf4jnsgd1na2vs0mg"},{"bike_id":"4f6cd953-65f5-4d4f-a052-70118d864e1d","system_id":"levelo_inurba_marseille","lat":43.29897,"lon":5.43671,"is_reserved":false,"is_disabled":false,"rental_uris":{"android":"levelo://app?vid=4f6cd953-65f5-4d4f-a052-70118d864e1d","ios":"levelo://app?vid=4f6cd953-65f5-4d4f-a052-70118d864e1d"},"vehicle_type_id":"4","last_reported":1726924358,"current_range_meters":8400,"station_id":"ce4bhpp2rcd13ifvqhfg","pricing_plan_id":"cebpf4jnsgd1na2vs0mg"},{"bike_id":"559fbaf9-3144-4b9a-af53-ba8c83483c4e","system_id":"levelo_inurba_marseille","lat":43.29,"lon":5.35613,"is_reserved":false,"is_disabled":false,"rental_uris":{"android":"levelo://app?vid=559fbaf9-3144-4b9a-af53-ba8c83483c4e","ios":"levelo://app?vid=559fbaf9-3144-4b9a-af53-ba8c83483c4e"},"vehicle_type_id":"4","last_reported":1726924358,"current_range_meters":25200,"station_id":"ce4bhb92rcd13ifvqen0","pricing_plan_id":"cebpf4jnsgd1na2vs0mg"},{"bike_id":"53b01630-1a92-4342-83e1-ead5a714e38e","system_id":"levelo_inurba_marseille","lat":43.30641,"lon":5.40087,"is_reserved":false,"is_disabled":false,"rental_uris":{"android":"levelo://app?vid=53b01630-1a92-4342-83e1-ead5a714e38e","ios":"levelo://app?vid=53b01630-1a92-4342-83e1-ead5a714e38e"},"vehicle_type_id":"4","last_reported":1726924358,"current_range_meters":7200,"station_id":"ce4bh112rcd13ifvqda0","pricing_plan_id":"cebpf4jnsgd1na2vs0mg"},{"bike_id":"78beca1b-c8a3-40b4-8c4f-b01a1acf30b5","system_id":"levelo_inurba_marseille","lat":43.325673,"lon":5.412352,"is_reserved":false,"is_disabled":false,"rental_uris":{"android":"levelo://app?vid=78beca1b-c8a3-40b4-8c4f-b01a1acf30b5","ios":"levelo://app?vid=78beca1b-c8a3-40b4-8c4f-b01a1acf30b5"},"vehicle_type_id":"4","last_reported":1726924358,"current_range_meters":11600,"station_id":"","pricing_plan_id":"cebpf4jnsgd1na2vs0mg"},{"bike_id":"99313b58-0872-410d-ac57-0d9c960421b2","system_id":"levelo_inurba_marseille","lat":43.270784,"lon":5.389084,"is_reserved":false,"is_disabled":false,"rental_uris":{"android":"levelo://app?vid=99313b58-0872-410d-ac57-0d9c960421b2","ios":"levelo://app?vid=99313b58-0872-410d-ac57-0d9c960421b2"},"vehicle_type_id":"4","last_reported":1726924358,"current_range_meters":16400,"station_id":"ce4bhih2rcd13ifvqfs0","pricing_plan_id":"cebpf4jnsgd1na2vs0mg"},{"bike_id":"2b91532e-805e-4b04-b01e-c8ce9999bbb0","system_id":"levelo_inurba_marseille","lat":43.283065,"lon":5.351924,"is_reserved":false,"is_disabled":false,"rental_uris":{"android":"levelo://app?vid=2b91532e-805e-4b04-b01e-c8ce9999bbb0","ios":"levelo://app?vid=2b91532e-805e-4b04-b01e-c8ce9999bbb0"},"vehicle_type_id":"4","last_reported":1726924358,"current_range_meters":5600,"station_id":"ce4bhbh2rcd13ifvqepg","pricing_plan_id":"cebpf4jnsgd1na2vs0mg"},{"bike_id":"ad0886eb-184e-4d97-9465-14e7701990ad","system_id":"levelo_inurba_marseille","lat":43.287109,"lon":5.399944,"is_reserved":false,"is_disabled":false,"rental_uris":{"android":"levelo://app?vid=ad0886eb-184e-4d97-9465-14e7701990ad","ios":"levelo://app?vid=ad0886eb-184e-4d97-9465-14e7701990ad"},"vehicle_type_id":"4","last_reported":1726924358,"current_range_meters":2800,"station_id":"ce4bho92rcd13ifvqh3g","pricing_plan_id":"cebpf4jnsgd1na2vs0mg"},{"bike_id":"c919cd9a-c9fb-4572-ac0c-97f80a66c128","system_id":"levelo_inurba_marseille","lat":43.22928,"lon":5.35376,"is_reserved":false,"is_disabled":false,"rental_uris":{"android":"levelo://app?vid=c919cd9a-c9fb-4572-ac0c-97f80a66c128","ios":"levelo://app?vid=c919cd9a-c9fb-4572-ac0c-97f80a66c128"},"vehicle_type_id":"4","last_reported":1726924358,"current_range_meters":6000,"station_id":"cpo3532slgdg3j2ikp40","pricing_plan_id":"cebpf4jnsgd1na2vs0mg"},{"bike_id":"55b707fe-b3bf-4131-b222-a8f01fdabae9","system_id":"levelo_inurba_marseille","lat":43.29553,"lon":5.42286,"is_reserved":false,"is_disabled":false,"rental_uris":{"android":"levelo://app?vid=55b707fe-b3bf-4131-b222-a8f01fdabae9","ios":"levelo://app?vid=55b707fe-b3bf-4131-b222-a8f01fdabae9"},"vehicle_type_id":"4","last_reported":1726924358,"current_range_meters":7200,"station_id":"ce4bhph2rcd13ifvqhdg","pricing_plan_id":"cebpf4jnsgd1na2vs0mg"},{"bike_id":"aa32be62-27f5-4718-888a-feb83d4d3bce","system_id":"levelo_inurba_marseille","lat":43.24389,"lon":5.37066,"is_reserved":false,"is_disabled":false,"rental_uris":{"android":"levelo://app?vid=aa32be62-27f5-4718-888a-feb83d4d3bce","ios":"levelo://app?vid=aa32be62-27f5-4718-888a-feb83d4d3bce"},"vehicle_type_id":"4","last_reported":1726924358,"current_range_meters":20400,"station_id":"ce4bhhh2rcd13ifvqfk0","pricing_plan_id":"cebpf4jnsgd1na2vs0mg"},{"bike_id":"0ac4be92-d700-4bff-aa7a-8bfcd7e6c34c","system_id":"levelo_inurba_marseille","lat":43.2606,"lon":5.39397,"is_reserved":false,"is_disabled":false,"rental_uris":{"android":"levelo://app?vid=0ac4be92-d700-4bff-aa7a-8bfcd7e6c34c","ios":"levelo://app?vid=0ac4be92-d700-4bff-aa7a-8bfcd7e6c34c"},"vehicle_type_id":"4","last_reported":1726924358,"current_range_meters":11600,"station_id":"ce4bhh92rcd13ifvqfj0","pricing_plan_id":"cebpf4jnsgd1na2vs0mg"},{"bike_id":"2b3f8bf3-aa3a-4539-8e52-b8bcc407a5de","system_id":"levelo_inurba_marseille","lat":43.301452,"lon":5.380777,"is_reserved":false,"is_disabled":false,"rental_uris":{"android":"levelo://app?vid=2b3f8bf3-aa3a-4539-8e52-b8bcc407a5de","ios":"levelo://app?vid=2b3f8bf3-aa3a-4539-8e52-b8bcc407a5de"},"vehicle_type_id":"4","last_reported":1726924358,"current_range_meters":20000,"station_id":"ce4bgjp2rcd13ifvqbh0","pricing_plan_id":"cebpf4jnsgd1na2vs0mg"},{"bike_id":"612f8825-af75-4595-a617-6107af8196ae","system_id":"levelo_inurba_marseille","lat":43.23154,"lon":5.43712,"is_reserved":false,"is_disabled":false,"rental_uris":{"android":"levelo://app?vid=612f8825-af75-4595-a617-6107af8196ae","ios":"levelo://app?vid=612f8825-af75-4595-a617-6107af8196ae"},"vehicle_type_id":"4","last_reported":1726924358,"current_range_meters":21600,"station_id":"ce4bhmp2rcd13ifvqgog","pricing_plan_id":"cebpf4jnsgd1na2vs0mg"},{"bike_id":"99eeafe6-366f-429a-b8f8-8a504a89203b","system_id":"levelo_inurba_marseille","lat":43.28497,"lon":5.35595,"is_reserved":false,"is_disabled":false,"rental_uris":{"android":"levelo://app?vid=99eeafe6-366f-429a-b8f8-8a504a89203b","ios":"levelo://app?vid=99eeafe6-366f-429a-b8f8-8a504a89203b"},"vehicle_type_id":"4","last_reported":1726924358,"current_range_meters":32400,"station_id":"","pricing_plan_id":"cebpf4jnsgd1na2vs0mg"},{"bike_id":"d33947f1-f932-44f2-b587-5b9d877a68ad","system_id":"levelo_inurba_marseille","lat":43.28426,"lon":5.34995,"is_reserved":false,"is_disabled":false,"rental_uris":{"android":"levelo://app?vid=d33947f1-f932-44f2-b587-5b9d877a68ad","ios":"levelo://app?vid=d33947f1-f932-44f2-b587-5b9d877a68ad"},"vehicle_type_id":"4","last_reported":1726924358,"current_range_meters":9600,"station_id":"ce4bhbh2rcd13ifvqepg","pricing_plan_id":"cebpf4jnsgd1na2vs0mg"},{"bike_id":"29058ff5-4d24-4c57-9c80-3c616b905bac","system_id":"levelo_inurba_marseille","lat":43.29556,"lon":5.42285,"is_reserved":false,"is_disabled":false,"rental_uris":{"android":"levelo://app?vid=29058ff5-4d24-4c57-9c80-3c616b905bac","ios":"levelo://app?vid=29058ff5-4d24-4c57-9c80-3c616b905bac"},"vehicle_type_id":"4","last_reported":1726924358,"current_range_meters":37600,"station_id":"ce4bhph2rcd13ifvqhdg","pricing_plan_id":"cebpf4jnsgd1na2vs0mg"},{"bike_id":"ebbfb9e4-e3da-4b77-abdf-c23580edaeba","system_id":"levelo_inurba_marseille","lat":43.26194,"lon":5.37448,"is_reserved":false,"is_disabled":false,"rental_uris":{"android":"levelo://app?vid=ebbfb9e4-e3da-4b77-abdf-c23580edaeba","ios":"levelo://app?vid=ebbfb9e4-e3da-4b77-abdf-c23580edaeba"},"vehicle_type_id":"4","last_reported":1726924358,"current_range_meters":26000,"station_id":"ce4bhgp2rcd13ifvqfc0","pricing_plan_id":"cebpf4jnsgd1na2vs0mg"},{"bike_id":"9f151680-52d2-4bae-aed6-b1b7d51cad57","system_id":"levelo_inurba_marseille","lat":43.30952,"lon":5.39044,"is_reserved":false,"is_disabled":false,"rental_uris":{"android":"levelo://app?vid=9f151680-52d2-4bae-aed6-b1b7d51cad57","ios":"levelo://app?vid=9f151680-52d2-4bae-aed6-b1b7d51cad57"},"vehicle_type_id":"4","last_reported":1726924358,"current_range_meters":12400,"station_id":"ce4bgup2rcd13ifvqco0","pricing_plan_id":"cebpf4jnsgd1na2vs0mg"},{"bike_id":"bce83964-771d-421d-a795-c2b376c5b9dc","system_id":"levelo_inurba_marseille","lat":43.23197,"lon":5.35549,"is_reserved":false,"is_disabled":false,"rental_uris":{"android":"levelo://app?vid=bce83964-771d-421d-a795-c2b376c5b9dc","ios":"levelo://app?vid=bce83964-771d-421d-a795-c2b376c5b9dc"},"vehicle_type_id":"4","last_reported":1726924358,"current_range_meters":18000,"station_id":"ce4bhu92rcd13ifvqi70","pricing_plan_id":"cebpf4jnsgd1na2vs0mg"},{"bike_id":"dfccefac-1e9f-45e0-851b-4eccb5216b1b","system_id":"levelo_inurba_marseille","lat":43.30421,"lon":5.41286,"is_reserved":false,"is_disabled":false,"rental_uris":{"android":"levelo://app?vid=dfccefac-1e9f-45e0-851b-4eccb5216b1b","ios":"levelo://app?vid=dfccefac-1e9f-45e0-851b-4eccb5216b1b"},"vehicle_type_id":"4","last_reported":1726924358,"current_range_meters":38800,"station_id":"ce4bhop2rcd13ifvqh8g","pricing_plan_id":"cebpf4jnsgd1na2vs0mg"},{"bike_id":"f22c4413-a948-4396-9c39-d47f741aaf78","system_id":"levelo_inurba_marseille","lat":43.24813,"lon":5.37459,"is_reserved":false,"is_disabled":false,"rental_uris":{"android":"levelo://app?vid=f22c4413-a948-4396-9c39-d47f741aaf78","ios":"levelo://app?vid=f22c4413-a948-4396-9c39-d47f741aaf78"},"vehicle_type_id":"4","last_reported":1726924358,"current_range_meters":38800,"station_id":"ce4bhgh2rcd13ifvqfb0","pricing_plan_id":"cebpf4jnsgd1na2vs0mg"},{"bike_id":"c6193385-61c9-4f7e-91d9-2050d2fdbe74","system_id":"levelo_inurba_marseille","lat":43.29844,"lon":5.36269,"is_reserved":false,"is_disabled":false,"rental_uris":{"android":"levelo://app?vid=c6193385-61c9-4f7e-91d9-2050d2fdbe74","ios":"levelo://app?vid=c6193385-61c9-4f7e-91d9-2050d2fdbe74"},"vehicle_type_id":"4","last_reported":1726924358,"current_range_meters":19200,"station_id":"ce4bgpp2rcd13ifvqc3g","pricing_plan_id":"cebpf4jnsgd1na2vs0mg"},{"bike_id":"f90a267b-7bda-4dfc-a104-d10e13a82276","system_id":"levelo_inurba_marseille","lat":43.24078,"lon":5.37759,"is_reserved":false,"is_disabled":false,"rental_uris":{"android":"levelo://app?vid=f90a267b-7bda-4dfc-a104-d10e13a82276","ios":"levelo://app?vid=f90a267b-7bda-4dfc-a104-d10e13a82276"},"vehicle_type_id":"4","last_reported":1726924358,"current_range_meters":38400,"station_id":"ce4bhnp2rcd13ifvqgvg","pricing_plan_id":"cebpf4jnsgd1na2vs0mg"},{"bike_id":"9ad1871c-6ed3-4243-9f14-125727136405","system_id":"levelo_inurba_marseille","lat":43.28271,"lon":5.35081,"is_reserved":false,"is_disabled":false,"rental_uris":{"android":"levelo://app?vid=9ad1871c-6ed3-4243-9f14-125727136405","ios":"levelo://app?vid=9ad1871c-6ed3-4243-9f14-125727136405"},"vehicle_type_id":"4","last_reported":1726924358,"current_range_meters":29600,"station_id":"ce4bhbp2rcd13ifvqerg","pricing_plan_id":"cebpf4jnsgd1na2vs0mg"},{"bike_id":"c41a5342-784c-45ad-a56b-fb769ca6951e","system_id":"levelo_inurba_marseille","lat":43.24389,"lon":5.37068,"is_reserved":false,"is_disabled":false,"rental_uris":{"android":"levelo://app?vid=c41a5342-784c-45ad-a56b-fb769ca6951e","ios":"levelo://app?vid=c41a5342-784c-45ad-a56b-fb769ca6951e"},"vehicle_type_id":"4","last_reported":1726924358,"current_range_meters":38800,"station_id":"ce4bhhh2rcd13ifvqfk0","pricing_plan_id":"cebpf4jnsgd1na2vs0mg"},{"bike_id":"771c5a67-ca39-4843-9508-a9536353ca66","system_id":"levelo_inurba_marseille","lat":43.29851,"lon":5.36273,"is_reserved":false,"is_disabled":false,"rental_uris":{"android":"levelo://app?vid=771c5a67-ca39-4843-9508-a9536353ca66","ios":"levelo://app?vid=771c5a67-ca39-4843-9508-a9536353ca66"},"vehicle_type_id":"4","last_reported":1726924358,"current_range_meters":27200,"station_id":"ce4bgpp2rcd13ifvqc3g","pricing_plan_id":"cebpf4jnsgd1na2vs0mg"},{"bike_id":"3a9d8f5c-ab39-4b52-8224-2c6abf13dac2","system_id":"levelo_inurba_marseille","lat":43.2927,"lon":5.3684,"is_reserved":false,"is_disabled":false,"rental_uris":{"android":"levelo://app?vid=3a9d8f5c-ab39-4b52-8224-2c6abf13dac2","ios":"levelo://app?vid=3a9d8f5c-ab39-4b52-8224-2c6abf13dac2"},"vehicle_type_id":"4","last_reported":1726924358,"current_range_meters":30800,"station_id":"ce4bhbp2rcd13ifvqesg","pricing_plan_id":"cebpf4jnsgd1na2vs0mg"},{"bike_id":"abf4fccb-4a12-45df-9476-0c32343036ad","system_id":"levelo_inurba_marseille","lat":43.26683,"lon":5.38274,"is_reserved":false,"is_disabled":false,"rental_uris":{"android":"levelo://app?vid=abf4fccb-4a12-45df-9476-0c32343036ad","ios":"levelo://app?vid=abf4fccb-4a12-45df-9476-0c32343036ad"},"vehicle_type_id":"4","last_reported":1726924358,"current_range_meters":38000,"station_id":"ce4bhg92rcd13ifvqf90","pricing_plan_id":"cebpf4jnsgd1na2vs0mg"},{"bike_id":"da4508dc-41c0-4202-9324-2a4c11586e5c","system_id":"levelo_inurba_marseille","lat":43.23194,"lon":5.35556,"is_reserved":false,"is_disabled":false,"rental_uris":{"android":"levelo://app?vid=da4508dc-41c0-4202-9324-2a4c11586e5c","ios":"levelo://app?vid=da4508dc-41c0-4202-9324-2a4c11586e5c"},"vehicle_type_id":"4","last_reported":1726924358,"current_range_meters":30400,"station_id":"ce4bhu92rcd13ifvqi70","pricing_plan_id":"cebpf4jnsgd1na2vs0mg"},{"bike_id":"71c10b0a-fc7f-4c88-819c-99fd17c34c42","system_id":"levelo_inurba_marseille","lat":43.288549,"lon":5.393224,"is_reserved":false,"is_disabled":false,"rental_uris":{"android":"levelo://app?vid=71c10b0a-fc7f-4c88-819c-99fd17c34c42","ios":"levelo://app?vid=71c10b0a-fc7f-4c88-819c-99fd17c34c42"},"vehicle_type_id":"4","last_reported":1726924358,"current_range_meters":22400,"station_id":"ce4bh2p2rcd13ifvqdi0","pricing_plan_id":"cebpf4jnsgd1na2vs0mg"},{"bike_id":"57c61f8c-633b-4326-a545-184ec4592023","system_id":"levelo_inurba_marseille","lat":43.32487,"lon":5.36568,"is_reserved":false,"is_disabled":false,"rental_uris":{"android":"levelo://app?vid=57c61f8c-633b-4326-a545-184ec4592023","ios":"levelo://app?vid=57c61f8c-633b-4326-a545-184ec4592023"},"vehicle_type_id":"4","last_reported":1726924358,"current_range_meters":14400,"station_id":"ce4bhs12rcd13ifvqhvg","pricing_plan_id":"cebpf4jnsgd1na2vs0mg"},{"bike_id":"33b9583c-c0cc-40d0-be53-96631268c631","system_id":"levelo_inurba_marseille","lat":43.25722,"lon":5.4111,"is_reserved":false,"is_disabled":false,"rental_uris":{"android":"levelo://app?vid=33b9583c-c0cc-40d0-be53-96631268c631","ios":"levelo://app?vid=33b9583c-c0cc-40d0-be53-96631268c631"},"vehicle_type_id":"4","last_reported":1726924358,"current_range_meters":36000,"station_id":"ce4bhkp2rcd13ifvqgd0","pricing_plan_id":"cebpf4jnsgd1na2vs0mg"},{"bike_id":"ba233987-719f-4473-a9aa-0f87ad56d31f","system_id":"levelo_inurba_marseille","lat":43.25579,"lon":5.38224,"is_reserved":false,"is_disabled":false,"rental_uris":{"android":"levelo://app?vid=ba233987-719f-4473-a9aa-0f87ad56d31f","ios":"levelo://app?vid=ba233987-719f-4473-a9aa-0f87ad56d31f"},"vehicle_type_id":"4","last_reported":1726924358,"current_range_meters":3200,"station_id":"ce4bhih2rcd13ifvqfs0","pricing_plan_id":"cebpf4jnsgd1na2vs0mg"},{"bike_id":"fb2b63d9-4a26-4602-9a57-d2caab531ee7","system_id":"levelo_inurba_marseille","lat":43.33729,"lon":5.39184,"is_reserved":false,"is_disabled":false,"rental_uris":{"android":"levelo://app?vid=fb2b63d9-4a26-4602-9a57-d2caab531ee7","ios":"levelo://app?vid=fb2b63d9-4a26-4602-9a57-d2caab531ee7"},"vehicle_type_id":"4","last_reported":1726924358,"current_range_meters":38400,"station_id":"ce4bhr92rcd13ifvqhsg","pricing_plan_id":"cebpf4jnsgd1na2vs0mg"},{"bike_id":"2e31119d-c49b-4c6f-8d35-fe5f19d3606b","system_id":"levelo_inurba_marseille","lat":43.26208,"lon":5.37441,"is_reserved":false,"is_disabled":false,"rental_uris":{"android":"levelo://app?vid=2e31119d-c49b-4c6f-8d35-fe5f19d3606b","ios":"levelo://app?vid=2e31119d-c49b-4c6f-8d35-fe5f19d3606b"},"vehicle_type_id":"4","last_reported":1726924358,"current_range_meters":20800,"station_id":"ce4bhgp2rcd13ifvqfc0","pricing_plan_id":"cebpf4jnsgd1na2vs0mg"},{"bike_id":"2025d2da-fabe-4c2a-b2a7-5a035257bc17","system_id":"levelo_inurba_marseille","lat":43.24801,"lon":5.37456,"is_reserved":false,"is_disabled":false,"rental_uris":{"android":"levelo://app?vid=2025d2da-fabe-4c2a-b2a7-5a035257bc17","ios":"levelo://app?vid=2025d2da-fabe-4c2a-b2a7-5a035257bc17"},"vehicle_type_id":"4","last_reported":1726924358,"current_range_meters":38800,"station_id":"ce4bhgh2rcd13ifvqfb0","pricing_plan_id":"cebpf4jnsgd1na2vs0mg"},{"bike_id":"a47955d5-46bb-409d-8c53-05b3ecdc1cc2","system_id":"levelo_inurba_marseille","lat":43.298144,"lon":5.381056,"is_reserved":false,"is_disabled":false,"rental_uris":{"android":"levelo://app?vid=a47955d5-46bb-409d-8c53-05b3ecdc1cc2","ios":"levelo://app?vid=a47955d5-46bb-409d-8c53-05b3ecdc1cc2"},"vehicle_type_id":"4","last_reported":1726924358,"current_range_meters":17600,"station_id":"ce4bgip2rcd13ifvqbb0","pricing_plan_id":"cebpf4jnsgd1na2vs0mg"},{"bike_id":"9ca25e2e-b6b7-4f94-a4b7-7cdec5fbd52f","system_id":"levelo_inurba_marseille","lat":43.28292,"lon":5.3509,"is_reserved":false,"is_disabled":false,"rental_uris":{"android":"levelo://app?vid=9ca25e2e-b6b7-4f94-a4b7-7cdec5fbd52f","ios":"levelo://app?vid=9ca25e2e-b6b7-4f94-a4b7-7cdec5fbd52f"},"vehicle_type_id":"4","last_reported":1726924358,"current_range_meters":16000,"station_id":"ce4bhbp2rcd13ifvqerg","pricing_plan_id":"cebpf4jnsgd1na2vs0mg"},{"bike_id":"d6211f18-7c21-4de8-a1e1-c209b130b3c8","system_id":"levelo_inurba_marseille","lat":43.30674,"lon":5.39957,"is_reserved":false,"is_disabled":false,"rental_uris":{"android":"levelo://app?vid=d6211f18-7c21-4de8-a1e1-c209b130b3c8","ios":"levelo://app?vid=d6211f18-7c21-4de8-a1e1-c209b130b3c8"},"vehicle_type_id":"4","last_reported":1726924358,"current_range_meters":12000,"station_id":"ce4bhop2rcd13ifvqh8g","pricing_plan_id":"cebpf4jnsgd1na2vs0mg"},{"bike_id":"b869f1ae-f37d-464a-8d18-0fd8cd3f314c","system_id":"levelo_inurba_marseille","lat":43.29167,"lon":5.40622,"is_reserved":false,"is_disabled":false,"rental_uris":{"android":"levelo://app?vid=b869f1ae-f37d-464a-8d18-0fd8cd3f314c","ios":"levelo://app?vid=b869f1ae-f37d-464a-8d18-0fd8cd3f314c"},"vehicle_type_id":"4","last_reported":1726924358,"current_range_meters":3600,"station_id":"","pricing_plan_id":"cebpf4jnsgd1na2vs0mg"},{"bike_id":"7c1bb7bd-82ab-4f98-a5b3-7fe446bde41f","system_id":"levelo_inurba_marseille","lat":43.22929,"lon":5.35381,"is_reserved":false,"is_disabled":false,"rental_uris":{"android":"levelo://app?vid=7c1bb7bd-82ab-4f98-a5b3-7fe446bde41f","ios":"levelo://app?vid=7c1bb7bd-82ab-4f98-a5b3-7fe446bde41f"},"vehicle_type_id":"4","last_reported":1726924358,"current_range_meters":8400,"station_id":"cpo3532slgdg3j2ikp40","pricing_plan_id":"cebpf4jnsgd1na2vs0mg"},{"bike_id":"fa690805-233a-4a70-a9f3-33f1b67cdb1f","system_id":"levelo_inurba_marseille","lat":43.32292,"lon":5.38254,"is_reserved":false,"is_disabled":false,"rental_uris":{"android":"levelo://app?vid=fa690805-233a-4a70-a9f3-33f1b67cdb1f","ios":"levelo://app?vid=fa690805-233a-4a70-a9f3-33f1b67cdb1f"},"vehicle_type_id":"4","last_reported":1726924358,"current_range_meters":12000,"station_id":"ce4bhr12rcd13ifvqhqg","pricing_plan_id":"cebpf4jnsgd1na2vs0mg"},{"bike_id":"e6e94b3c-3884-4ce1-aa97-ac67511e53d2","system_id":"levelo_inurba_marseille","lat":43.28278,"lon":5.35078,"is_reserved":false,"is_disabled":false,"rental_uris":{"android":"levelo://app?vid=e6e94b3c-3884-4ce1-aa97-ac67511e53d2","ios":"levelo://app?vid=e6e94b3c-3884-4ce1-aa97-ac67511e53d2"},"vehicle_type_id":"4","last_reported":1726924358,"current_range_meters":39200,"station_id":"ce4bhbp2rcd13ifvqerg","pricing_plan_id":"cebpf4jnsgd1na2vs0mg"},{"bike_id":"58928c39-f40f-4d14-8df5-fd3d58f85d25","system_id":"levelo_inurba_marseille","lat":43.28151,"lon":5.4264,"is_reserved":false,"is_disabled":false,"rental_uris":{"android":"levelo://app?vid=58928c39-f40f-4d14-8df5-fd3d58f85d25","ios":"levelo://app?vid=58928c39-f40f-4d14-8df5-fd3d58f85d25"},"vehicle_type_id":"4","last_reported":1726924358,"current_range_meters":34000,"station_id":"ce4bhnh2rcd13ifvqgug","pricing_plan_id":"cebpf4jnsgd1na2vs0mg"},{"bike_id":"7e3571e7-d499-4677-ad33-f5d3d01a2a81","system_id":"levelo_inurba_marseille","lat":43.25006,"lon":5.3893,"is_reserved":false,"is_disabled":false,"rental_uris":{"android":"levelo://app?vid=7e3571e7-d499-4677-ad33-f5d3d01a2a81","ios":"levelo://app?vid=7e3571e7-d499-4677-ad33-f5d3d01a2a81"},"vehicle_type_id":"4","last_reported":1726924358,"current_range_meters":38800,"station_id":"ce4bhgp2rcd13ifvqfd0","pricing_plan_id":"cebpf4jnsgd1na2vs0mg"},{"bike_id":"bb272090-b0df-4a21-8668-3621ceb5ee4b","system_id":"levelo_inurba_marseille","lat":43.298856,"lon":5.365427,"is_reserved":false,"is_disabled":false,"rental_uris":{"android":"levelo://app?vid=bb272090-b0df-4a21-8668-3621ceb5ee4b","ios":"levelo://app?vid=bb272090-b0df-4a21-8668-3621ceb5ee4b"},"vehicle_type_id":"4","last_reported":1726924358,"current_range_meters":35200,"station_id":"ce4bgm92rcd13ifvqbr0","pricing_plan_id":"cebpf4jnsgd1na2vs0mg"},{"bike_id":"7a69a206-59d7-4338-b1fb-7a4c9f69082f","system_id":"levelo_inurba_marseille","lat":43.23967,"lon":5.3663,"is_reserved":false,"is_disabled":false,"rental_uris":{"android":"levelo://app?vid=7a69a206-59d7-4338-b1fb-7a4c9f69082f","ios":"levelo://app?vid=7a69a206-59d7-4338-b1fb-7a4c9f69082f"},"vehicle_type_id":"4","last_reported":1726924358,"current_range_meters":12400,"station_id":"ce4bhi12rcd13ifvqfp0","pricing_plan_id":"cebpf4jnsgd1na2vs0mg"},{"bike_id":"5538791c-46ef-4dd6-bb61-9569d67885c3","system_id":"levelo_inurba_marseille","lat":43.28428,"lon":5.34985,"is_reserved":false,"is_disabled":false,"rental_uris":{"android":"levelo://app?vid=5538791c-46ef-4dd6-bb61-9569d67885c3","ios":"levelo://app?vid=5538791c-46ef-4dd6-bb61-9569d67885c3"},"vehicle_type_id":"4","last_reported":1726924358,"current_range_meters":19200,"station_id":"ce4bhbh2rcd13ifvqepg","pricing_plan_id":"cebpf4jnsgd1na2vs0mg"},{"bike_id":"b2763354-ec6c-4733-8de6-6c4493759ae9","system_id":"levelo_inurba_marseille","lat":43.2907,"lon":5.40172,"is_reserved":false,"is_disabled":false,"rental_uris":{"android":"levelo://app?vid=b2763354-ec6c-4733-8de6-6c4493759ae9","ios":"levelo://app?vid=b2763354-ec6c-4733-8de6-6c4493759ae9"},"vehicle_type_id":"4","last_reported":1726924358,"current_range_meters":14400,"station_id":"","pricing_plan_id":"cebpf4jnsgd1na2vs0mg"},{"bike_id":"87628ba6-1772-4ac7-91c6-5a38b204fcd2","system_id":"levelo_inurba_marseille","lat":43.28845,"lon":5.39309,"is_reserved":false,"is_disabled":false,"rental_uris":{"android":"levelo://app?vid=87628ba6-1772-4ac7-91c6-5a38b204fcd2","ios":"levelo://app?vid=87628ba6-1772-4ac7-91c6-5a38b204fcd2"},"vehicle_type_id":"4","last_reported":1726924358,"current_range_meters":12400,"station_id":"ce4bh2p2rcd13ifvqdi0","pricing_plan_id":"cebpf4jnsgd1na2vs0mg"},{"bike_id":"68138f84-0b3c-4ab2-a43a-bf940dc06daa","system_id":"levelo_inurba_marseille","lat":43.24394,"lon":5.37059,"is_reserved":false,"is_disabled":false,"rental_uris":{"android":"levelo://app?vid=68138f84-0b3c-4ab2-a43a-bf940dc06daa","ios":"levelo://app?vid=68138f84-0b3c-4ab2-a43a-bf940dc06daa"},"vehicle_type_id":"4","last_reported":1726924358,"current_range_meters":27600,"station_id":"ce4bhhh2rcd13ifvqfk0","pricing_plan_id":"cebpf4jnsgd1na2vs0mg"},{"bike_id":"d163dda3-dee5-495e-aa84-cc0a33d080a0","system_id":"levelo_inurba_marseille","lat":43.24996,"lon":5.38931,"is_reserved":false,"is_disabled":false,"rental_uris":{"android":"levelo://app?vid=d163dda3-dee5-495e-aa84-cc0a33d080a0","ios":"levelo://app?vid=d163dda3-dee5-495e-aa84-cc0a33d080a0"},"vehicle_type_id":"4","last_reported":1726924358,"current_range_meters":30400,"station_id":"ce4bhgp2rcd13ifvqfd0","pricing_plan_id":"cebpf4jnsgd1na2vs0mg"},{"bike_id":"e3b1cfca-d534-4fd8-b916-7dc088117262","system_id":"levelo_inurba_marseille","lat":43.22932,"lon":5.3538,"is_reserved":false,"is_disabled":false,"rental_uris":{"android":"levelo://app?vid=e3b1cfca-d534-4fd8-b916-7dc088117262","ios":"levelo://app?vid=e3b1cfca-d534-4fd8-b916-7dc088117262"},"vehicle_type_id":"4","last_reported":1726924358,"current_range_meters":28000,"station_id":"cpo3532slgdg3j2ikp40","pricing_plan_id":"cebpf4jnsgd1na2vs0mg"},{"bike_id":"64e640da-ebd0-429a-a9e6-b897800ba367","system_id":"levelo_inurba_marseille","lat":43.32293,"lon":5.38265,"is_reserved":false,"is_disabled":false,"rental_uris":{"android":"levelo://app?vid=64e640da-ebd0-429a-a9e6-b897800ba367","ios":"levelo://app?vid=64e640da-ebd0-429a-a9e6-b897800ba367"},"vehicle_type_id":"4","last_reported":1726924358,"current_range_meters":36400,"station_id":"ce4bhr12rcd13ifvqhqg","pricing_plan_id":"cebpf4jnsgd1na2vs0mg"},{"bike_id":"c2c9a555-6ec8-4b92-b33e-073571605c93","system_id":"levelo_inurba_marseille","lat":43.23194,"lon":5.35547,"is_reserved":false,"is_disabled":false,"rental_uris":{"android":"levelo://app?vid=c2c9a555-6ec8-4b92-b33e-073571605c93","ios":"levelo://app?vid=c2c9a555-6ec8-4b92-b33e-073571605c93"},"vehicle_type_id":"4","last_reported":1726924358,"current_range_meters":20800,"station_id":"ce4bhu92rcd13ifvqi70","pricing_plan_id":"cebpf4jnsgd1na2vs0mg"},{"bike_id":"a5c097a5-5d06-4782-831b-4d44e5c33a45","system_id":"levelo_inurba_marseille","lat":43.28367,"lon":5.38107,"is_reserved":false,"is_disabled":false,"rental_uris":{"android":"levelo://app?vid=a5c097a5-5d06-4782-831b-4d44e5c33a45","ios":"levelo://app?vid=a5c097a5-5d06-4782-831b-4d44e5c33a45"},"vehicle_type_id":"4","last_reported":1726924358,"current_range_meters":8800,"station_id":"ce4bh412rcd13ifvqdr0","pricing_plan_id":"cebpf4jnsgd1na2vs0mg"},{"bike_id":"f544a55d-261a-4944-a6fc-d5128f6557e6","system_id":"levelo_inurba_marseille","lat":43.23182,"lon":5.39986,"is_reserved":false,"is_disabled":false,"rental_uris":{"android":"levelo://app?vid=f544a55d-261a-4944-a6fc-d5128f6557e6","ios":"levelo://app?vid=f544a55d-261a-4944-a6fc-d5128f6557e6"},"vehicle_type_id":"4","last_reported":1726924358,"current_range_meters":6400,"station_id":"ce4bhn12rcd13ifvqgqg","pricing_plan_id":"cebpf4jnsgd1na2vs0mg"},{"bike_id":"abe5ee8f-6fdd-4614-b20b-a1f3372884fe","system_id":"levelo_inurba_marseille","lat":43.27211,"lon":5.39186,"is_reserved":false,"is_disabled":false,"rental_uris":{"android":"levelo://app?vid=abe5ee8f-6fdd-4614-b20b-a1f3372884fe","ios":"levelo://app?vid=abe5ee8f-6fdd-4614-b20b-a1f3372884fe"},"vehicle_type_id":"4","last_reported":1726924358,"current_range_meters":8400,"station_id":"ce4bhhp2rcd13ifvqfm0","pricing_plan_id":"cebpf4jnsgd1na2vs0mg"},{"bike_id":"55825df2-7169-40c3-b34a-148fef6ebe50","system_id":"levelo_inurba_marseille","lat":43.23182,"lon":5.35562,"is_reserved":false,"is_disabled":false,"rental_uris":{"android":"levelo://app?vid=55825df2-7169-40c3-b34a-148fef6ebe50","ios":"levelo://app?vid=55825df2-7169-40c3-b34a-148fef6ebe50"},"vehicle_type_id":"4","last_reported":1726924358,"current_range_meters":10800,"station_id":"ce4bhu92rcd13ifvqi70","pricing_plan_id":"cebpf4jnsgd1na2vs0mg"},{"bike_id":"aaa5c187-dedb-40a2-a249-8f2117fe26cf","system_id":"levelo_inurba_marseille","lat":43.23204,"lon":5.35556,"is_reserved":false,"is_disabled":false,"rental_uris":{"android":"levelo://app?vid=aaa5c187-dedb-40a2-a249-8f2117fe26cf","ios":"levelo://app?vid=aaa5c187-dedb-40a2-a249-8f2117fe26cf"},"vehicle_type_id":"4","last_reported":1726924358,"current_range_meters":38400,"station_id":"ce4bhu92rcd13ifvqi70","pricing_plan_id":"cebpf4jnsgd1na2vs0mg"},{"bike_id":"3e77fb10-d89d-4cc5-be2d-dd205380507c","system_id":"levelo_inurba_marseille","lat":43.29673,"lon":5.37287,"is_reserved":false,"is_disabled":false,"rental_uris":{"android":"levelo://app?vid=3e77fb10-d89d-4cc5-be2d-dd205380507c","ios":"levelo://app?vid=3e77fb10-d89d-4cc5-be2d-dd205380507c"},"vehicle_type_id":"4","last_reported":1726924358,"current_range_meters":11600,"station_id":"ce4bgk12rcd13ifvqbj0","pricing_plan_id":"cebpf4jnsgd1na2vs0mg"},{"bike_id":"6f2e532d-cdfe-4c80-b2a6-f9053ad02cd3","system_id":"levelo_inurba_marseille","lat":43.296197,"lon":5.377221,"is_reserved":false,"is_disabled":false,"rental_uris":{"android":"levelo://app?vid=6f2e532d-cdfe-4c80-b2a6-f9053ad02cd3","ios":"levelo://app?vid=6f2e532d-cdfe-4c80-b2a6-f9053ad02cd3"},"vehicle_type_id":"4","last_reported":1726924358,"current_range_meters":18000,"station_id":"ce4bgi92rcd13ifvqb90","pricing_plan_id":"cebpf4jnsgd1na2vs0mg"},{"bike_id":"15a5832a-e15c-4b74-9aa7-56d93ddd60bb","system_id":"levelo_inurba_marseille","lat":43.26194,"lon":5.37455,"is_reserved":false,"is_disabled":false,"rental_uris":{"android":"levelo://app?vid=15a5832a-e15c-4b74-9aa7-56d93ddd60bb","ios":"levelo://app?vid=15a5832a-e15c-4b74-9aa7-56d93ddd60bb"},"vehicle_type_id":"4","last_reported":1726924358,"current_range_meters":2000,"station_id":"ce4bhgp2rcd13ifvqfc0","pricing_plan_id":"cebpf4jnsgd1na2vs0mg"},{"bike_id":"2e3232dc-5c7a-4fa2-935c-65ca25423497","system_id":"levelo_inurba_marseille","lat":43.337444,"lon":5.374475,"is_reserved":false,"is_disabled":false,"rental_uris":{"android":"levelo://app?vid=2e3232dc-5c7a-4fa2-935c-65ca25423497","ios":"levelo://app?vid=2e3232dc-5c7a-4fa2-935c-65ca25423497"},"vehicle_type_id":"4","last_reported":1726924358,"current_range_meters":38800,"station_id":"","pricing_plan_id":"cebpf4jnsgd1na2vs0mg"},{"bike_id":"2cd37cba-39f5-4a5d-bc5f-c2dd6589090b","system_id":"levelo_inurba_marseille","lat":43.33605,"lon":5.41027,"is_reserved":false,"is_disabled":false,"rental_uris":{"android":"levelo://app?vid=2cd37cba-39f5-4a5d-bc5f-c2dd6589090b","ios":"levelo://app?vid=2cd37cba-39f5-4a5d-bc5f-c2dd6589090b"},"vehicle_type_id":"4","last_reported":1726924358,"current_range_meters":39200,"station_id":"ce4bhqh2rcd13ifvqhmg","pricing_plan_id":"cebpf4jnsgd1na2vs0mg"},{"bike_id":"7ec45004-9c88-4683-8c1c-aaefc4151076","system_id":"levelo_inurba_marseille","lat":43.30887,"lon":5.39644,"is_reserved":false,"is_disabled":false,"rental_uris":{"android":"levelo://app?vid=7ec45004-9c88-4683-8c1c-aaefc4151076","ios":"levelo://app?vid=7ec45004-9c88-4683-8c1c-aaefc4151076"},"vehicle_type_id":"4","last_reported":1726924358,"current_range_meters":23200,"station_id":"ce4bh012rcd13ifvqcv0","pricing_plan_id":"cebpf4jnsgd1na2vs0mg"},{"bike_id":"cf91f62c-3f3e-4545-b7a1-5b69b26e07ef","system_id":"levelo_inurba_marseille","lat":43.290375,"lon":5.375547,"is_reserved":false,"is_disabled":false,"rental_uris":{"android":"levelo://app?vid=cf91f62c-3f3e-4545-b7a1-5b69b26e07ef","ios":"levelo://app?vid=cf91f62c-3f3e-4545-b7a1-5b69b26e07ef"},"vehicle_type_id":"4","last_reported":1726924358,"current_range_meters":39200,"station_id":"ce4bh692rcd13ifvqe90","pricing_plan_id":"cebpf4jnsgd1na2vs0mg"},{"bike_id":"8e880ea8-0279-4858-8c4e-e343478562cf","system_id":"levelo_inurba_marseille","lat":43.23196,"lon":5.39989,"is_reserved":false,"is_disabled":false,"rental_uris":{"android":"levelo://app?vid=8e880ea8-0279-4858-8c4e-e343478562cf","ios":"levelo://app?vid=8e880ea8-0279-4858-8c4e-e343478562cf"},"vehicle_type_id":"4","last_reported":1726924358,"current_range_meters":20000,"station_id":"ce4bhn12rcd13ifvqgqg","pricing_plan_id":"cebpf4jnsgd1na2vs0mg"},{"bike_id":"cd32022c-99a0-49ce-ae0f-d49d7e6239f1","system_id":"levelo_inurba_marseille","lat":43.27202,"lon":5.39192,"is_reserved":false,"is_disabled":false,"rental_uris":{"android":"levelo://app?vid=cd32022c-99a0-49ce-ae0f-d49d7e6239f1","ios":"levelo://app?vid=cd32022c-99a0-49ce-ae0f-d49d7e6239f1"},"vehicle_type_id":"4","last_reported":1726924358,"current_range_meters":24400,"station_id":"ce4bhhp2rcd13ifvqfm0","pricing_plan_id":"cebpf4jnsgd1na2vs0mg"},{"bike_id":"598539f9-f8b2-4ce4-bc29-852a23adc8f1","system_id":"levelo_inurba_marseille","lat":43.23195,"lon":5.35559,"is_reserved":false,"is_disabled":false,"rental_uris":{"android":"levelo://app?vid=598539f9-f8b2-4ce4-bc29-852a23adc8f1","ios":"levelo://app?vid=598539f9-f8b2-4ce4-bc29-852a23adc8f1"},"vehicle_type_id":"4","last_reported":1726924358,"current_range_meters":21600,"station_id":"ce4bhu92rcd13ifvqi70","pricing_plan_id":"cebpf4jnsgd1na2vs0mg"},{"bike_id":"93a8a1f2-1dcf-4433-acb7-43017603b044","system_id":"levelo_inurba_marseille","lat":43.29902,"lon":5.43671,"is_reserved":false,"is_disabled":false,"rental_uris":{"android":"levelo://app?vid=93a8a1f2-1dcf-4433-acb7-43017603b044","ios":"levelo://app?vid=93a8a1f2-1dcf-4433-acb7-43017603b044"},"vehicle_type_id":"4","last_reported":1726924358,"current_range_meters":35600,"station_id":"ce4bhpp2rcd13ifvqhfg","pricing_plan_id":"cebpf4jnsgd1na2vs0mg"},{"bike_id":"2b35edc0-f969-4162-8d5c-3d9b3e70e5c1","system_id":"levelo_inurba_marseille","lat":43.26212,"lon":5.37444,"is_reserved":false,"is_disabled":false,"rental_uris":{"android":"levelo://app?vid=2b35edc0-f969-4162-8d5c-3d9b3e70e5c1","ios":"levelo://app?vid=2b35edc0-f969-4162-8d5c-3d9b3e70e5c1"},"vehicle_type_id":"4","last_reported":1726924358,"current_range_meters":12000,"station_id":"ce4bhgp2rcd13ifvqfc0","pricing_plan_id":"cebpf4jnsgd1na2vs0mg"},{"bike_id":"a9118c11-c64c-4b12-b684-d1e3d4e26c40","system_id":"levelo_inurba_marseille","lat":43.30935,"lon":5.37905,"is_reserved":false,"is_disabled":false,"rental_uris":{"android":"levelo://app?vid=a9118c11-c64c-4b12-b684-d1e3d4e26c40","ios":"levelo://app?vid=a9118c11-c64c-4b12-b684-d1e3d4e26c40"},"vehicle_type_id":"4","last_reported":1726924358,"current_range_meters":8800,"station_id":"ce4bgv92rcd13ifvqcq0","pricing_plan_id":"cebpf4jnsgd1na2vs0mg"},{"bike_id":"31444d97-ada7-4c14-9ccc-e8d8f546def7","system_id":"levelo_inurba_marseille","lat":43.2693,"lon":5.36654,"is_reserved":false,"is_disabled":false,"rental_uris":{"android":"levelo://app?vid=31444d97-ada7-4c14-9ccc-e8d8f546def7","ios":"levelo://app?vid=31444d97-ada7-4c14-9ccc-e8d8f546def7"},"vehicle_type_id":"4","last_reported":1726924358,"current_range_meters":9200,"station_id":"","pricing_plan_id":"cebpf4jnsgd1na2vs0mg"},{"bike_id":"f52f8d59-062e-4196-b574-09febdfff3cf","system_id":"levelo_inurba_marseille","lat":43.23966,"lon":5.36623,"is_reserved":false,"is_disabled":false,"rental_uris":{"android":"levelo://app?vid=f52f8d59-062e-4196-b574-09febdfff3cf","ios":"levelo://app?vid=f52f8d59-062e-4196-b574-09febdfff3cf"},"vehicle_type_id":"4","last_reported":1726924358,"current_range_meters":19600,"station_id":"ce4bhi12rcd13ifvqfp0","pricing_plan_id":"cebpf4jnsgd1na2vs0mg"},{"bike_id":"c493c6c9-e963-4afd-b9f7-c43efd534103","system_id":"levelo_inurba_marseille","lat":43.25587,"lon":5.38229,"is_reserved":false,"is_disabled":false,"rental_uris":{"android":"levelo://app?vid=c493c6c9-e963-4afd-b9f7-c43efd534103","ios":"levelo://app?vid=c493c6c9-e963-4afd-b9f7-c43efd534103"},"vehicle_type_id":"4","last_reported":1726924358,"current_range_meters":6400,"station_id":"ce4bhih2rcd13ifvqfs0","pricing_plan_id":"cebpf4jnsgd1na2vs0mg"},{"bike_id":"fc310a25-dc2d-4c56-a987-6d115e7de426","system_id":"levelo_inurba_marseille","lat":43.26551,"lon":5.37282,"is_reserved":false,"is_disabled":false,"rental_uris":{"android":"levelo://app?vid=fc310a25-dc2d-4c56-a987-6d115e7de426","ios":"levelo://app?vid=fc310a25-dc2d-4c56-a987-6d115e7de426"},"vehicle_type_id":"4","last_reported":1726924358,"current_range_meters":37600,"station_id":"ce4bhg12rcd13ifvqf70","pricing_plan_id":"cebpf4jnsgd1na2vs0mg"},{"bike_id":"64b473ae-0204-4c46-a9b6-444470825cb7","system_id":"levelo_inurba_marseille","lat":43.28282,"lon":5.35076,"is_reserved":false,"is_disabled":false,"rental_uris":{"android":"levelo://app?vid=64b473ae-0204-4c46-a9b6-444470825cb7","ios":"levelo://app?vid=64b473ae-0204-4c46-a9b6-444470825cb7"},"vehicle_type_id":"4","last_reported":1726924358,"current_range_meters":8800,"station_id":"ce4bhbp2rcd13ifvqerg","pricing_plan_id":"cebpf4jnsgd1na2vs0mg"},{"bike_id":"8f876ec6-887b-4455-bcf6-e8f9ca7da070","system_id":"levelo_inurba_marseille","lat":43.28606,"lon":5.35103,"is_reserved":false,"is_disabled":false,"rental_uris":{"android":"levelo://app?vid=8f876ec6-887b-4455-bcf6-e8f9ca7da070","ios":"levelo://app?vid=8f876ec6-887b-4455-bcf6-e8f9ca7da070"},"vehicle_type_id":"4","last_reported":1726924358,"current_range_meters":32000,"station_id":"ce4bhch2rcd13ifvqeug","pricing_plan_id":"cebpf4jnsgd1na2vs0mg"},{"bike_id":"aaf6141a-2d95-486c-8f76-f095d45cde70","system_id":"levelo_inurba_marseille","lat":43.295376,"lon":5.385698,"is_reserved":false,"is_disabled":false,"rental_uris":{"android":"levelo://app?vid=aaf6141a-2d95-486c-8f76-f095d45cde70","ios":"levelo://app?vid=aaf6141a-2d95-486c-8f76-f095d45cde70"},"vehicle_type_id":"4","last_reported":1726924358,"current_range_meters":18000,"station_id":"ce4bgih2rcd13ifvqba0","pricing_plan_id":"cebpf4jnsgd1na2vs0mg"},{"bike_id":"d323bc23-4105-4d98-87ab-fb3899c88f8a","system_id":"levelo_inurba_marseille","lat":43.23201,"lon":5.35548,"is_reserved":false,"is_disabled":false,"rental_uris":{"android":"levelo://app?vid=d323bc23-4105-4d98-87ab-fb3899c88f8a","ios":"levelo://app?vid=d323bc23-4105-4d98-87ab-fb3899c88f8a"},"vehicle_type_id":"4","last_reported":1726924358,"current_range_meters":37600,"station_id":"ce4bhu92rcd13ifvqi70","pricing_plan_id":"cebpf4jnsgd1na2vs0mg"},{"bike_id":"7ce389fc-44a5-40c5-a768-878d4f4b4600","system_id":"levelo_inurba_marseille","lat":43.28619,"lon":5.35101,"is_reserved":false,"is_disabled":false,"rental_uris":{"android":"levelo://app?vid=7ce389fc-44a5-40c5-a768-878d4f4b4600","ios":"levelo://app?vid=7ce389fc-44a5-40c5-a768-878d4f4b4600"},"vehicle_type_id":"4","last_reported":1726924358,"current_range_meters":38800,"station_id":"ce4bhch2rcd13ifvqeug","pricing_plan_id":"cebpf4jnsgd1na2vs0mg"},{"bike_id":"08ef62b0-668a-4d2c-ab69-64dccdae6cdb","system_id":"levelo_inurba_marseille","lat":43.32492,"lon":5.36559,"is_reserved":false,"is_disabled":false,"rental_uris":{"android":"levelo://app?vid=08ef62b0-668a-4d2c-ab69-64dccdae6cdb","ios":"levelo://app?vid=08ef62b0-668a-4d2c-ab69-64dccdae6cdb"},"vehicle_type_id":"4","last_reported":1726924358,"current_range_meters":38400,"station_id":"ce4bhs12rcd13ifvqhvg","pricing_plan_id":"cebpf4jnsgd1na2vs0mg"},{"bike_id":"d868928e-8e51-401b-aef6-b4bc636f61f3","system_id":"levelo_inurba_marseille","lat":43.28416,"lon":5.34991,"is_reserved":false,"is_disabled":false,"rental_uris":{"android":"levelo://app?vid=d868928e-8e51-401b-aef6-b4bc636f61f3","ios":"levelo://app?vid=d868928e-8e51-401b-aef6-b4bc636f61f3"},"vehicle_type_id":"4","last_reported":1726924358,"current_range_meters":34800,"station_id":"ce4bhbh2rcd13ifvqepg","pricing_plan_id":"cebpf4jnsgd1na2vs0mg"},{"bike_id":"e9aaeca6-2bf3-4a90-a6e6-c66f4bc7065a","system_id":"levelo_inurba_marseille","lat":43.27966,"lon":5.38727,"is_reserved":false,"is_disabled":false,"rental_uris":{"android":"levelo://app?vid=e9aaeca6-2bf3-4a90-a6e6-c66f4bc7065a","ios":"levelo://app?vid=e9aaeca6-2bf3-4a90-a6e6-c66f4bc7065a"},"vehicle_type_id":"4","last_reported":1726924358,"current_range_meters":2800,"station_id":"ce4bhg12rcd13ifvqf80","pricing_plan_id":"cebpf4jnsgd1na2vs0mg"},{"bike_id":"afacbfd2-85bb-440d-a877-5bbfe6f2dea5","system_id":"levelo_inurba_marseille","lat":43.30147,"lon":5.37427,"is_reserved":false,"is_disabled":false,"rental_uris":{"android":"levelo://app?vid=afacbfd2-85bb-440d-a877-5bbfe6f2dea5","ios":"levelo://app?vid=afacbfd2-85bb-440d-a877-5bbfe6f2dea5"},"vehicle_type_id":"4","last_reported":1726924358,"current_range_meters":36800,"station_id":"ce4bgs92rcd13ifvqcc0","pricing_plan_id":"cebpf4jnsgd1na2vs0mg"},{"bike_id":"7af306d6-babb-4f29-9589-626cf44ed9dd","system_id":"levelo_inurba_marseille","lat":43.22933,"lon":5.35376,"is_reserved":false,"is_disabled":false,"rental_uris":{"android":"levelo://app?vid=7af306d6-babb-4f29-9589-626cf44ed9dd","ios":"levelo://app?vid=7af306d6-babb-4f29-9589-626cf44ed9dd"},"vehicle_type_id":"4","last_reported":1726924358,"current_range_meters":19200,"station_id":"cpo3532slgdg3j2ikp40","pricing_plan_id":"cebpf4jnsgd1na2vs0mg"},{"bike_id":"38fdd4ac-30a4-47cc-a345-1f0ad4ee7534","system_id":"levelo_inurba_marseille","lat":43.26196,"lon":5.3745,"is_reserved":false,"is_disabled":false,"rental_uris":{"android":"levelo://app?vid=38fdd4ac-30a4-47cc-a345-1f0ad4ee7534","ios":"levelo://app?vid=38fdd4ac-30a4-47cc-a345-1f0ad4ee7534"},"vehicle_type_id":"4","last_reported":1726924358,"current_range_meters":18000,"station_id":"ce4bhgp2rcd13ifvqfc0","pricing_plan_id":"cebpf4jnsgd1na2vs0mg"},{"bike_id":"174742ce-8c2e-4c3f-b919-2ef4eff4f20d","system_id":"levelo_inurba_marseille","lat":43.29061,"lon":5.37167,"is_reserved":false,"is_disabled":false,"rental_uris":{"android":"levelo://app?vid=174742ce-8c2e-4c3f-b919-2ef4eff4f20d","ios":"levelo://app?vid=174742ce-8c2e-4c3f-b919-2ef4eff4f20d"},"vehicle_type_id":"4","last_reported":1726924358,"current_range_meters":32000,"station_id":"ce4bh5p2rcd13ifvqe4g","pricing_plan_id":"cebpf4jnsgd1na2vs0mg"},{"bike_id":"5db6b119-ff30-46bc-a7f8-b1a2f1b6661f","system_id":"levelo_inurba_marseille","lat":43.28619,"lon":5.35106,"is_reserved":false,"is_disabled":false,"rental_uris":{"android":"levelo://app?vid=5db6b119-ff30-46bc-a7f8-b1a2f1b6661f","ios":"levelo://app?vid=5db6b119-ff30-46bc-a7f8-b1a2f1b6661f"},"vehicle_type_id":"4","last_reported":1726924358,"current_range_meters":10000,"station_id":"ce4bhch2rcd13ifvqeug","pricing_plan_id":"cebpf4jnsgd1na2vs0mg"},{"bike_id":"9255421b-abb2-45c8-bc95-e2ba7ed1f063","system_id":"levelo_inurba_marseille","lat":43.307,"lon":5.41825,"is_reserved":false,"is_disabled":false,"rental_uris":{"android":"levelo://app?vid=9255421b-abb2-45c8-bc95-e2ba7ed1f063","ios":"levelo://app?vid=9255421b-abb2-45c8-bc95-e2ba7ed1f063"},"vehicle_type_id":"4","last_reported":1726924358,"current_range_meters":20800,"station_id":"ce4bgi92rcd13ifvqb90","pricing_plan_id":"cebpf4jnsgd1na2vs0mg"},