{"last_updated":1731154483,"ttl":60,"version":"2.2","data":{"bikes":[{"bike_id":"7d4b1cd1-80a3-43c2-9122-e99cfedaa7c6","system_id":"levelo_inurba_marseille","lat":43.27493,"lon":5.42449,"is_reserved":false,"is_disabled":false,"rental_uris":{"android":"levelo://app?vid=7d4b1cd1-80a3-43c2-9122-e99cfedaa7c6","ios":"levelo://app?vid=7d4b1cd1-80a3-43c2-9122-e99cfedaa7c6"},"vehicle_type_id":"4","last_reported":1731154484,"current_range_meters":32800,"station_id":"ce4bhn92rcd13ifvqgrg","pricing_plan_id":"cebpf4jnsgd1na2vs0mg"},{"bike_id":"e94e2327-9eaf-4d26-bd7f-903afa708be6","system_id":"levelo_inurba_marseille","lat":43.33726,"lon":5.39213,"is_reserved":false,"is_disabled":false,"rental_uris":{"android":"levelo://app?vid=e94e2327-9eaf-4d26-bd7f-903afa708be6","ios":"levelo://app?vid=e94e2327-9eaf-4d26-bd7f-903afa708be6"},"vehicle_type_id":"4","last_reported":1731154484,"current_range_meters":19200,"station_id":"ce4bhr92rcd13ifvqhsg","pricing_plan_id":"cebpf4jnsgd1na2vs0mg"},{"bike_id":"37b18ebd-4aa0-4ca2-bfbb-ac9479701cc7","system_id":"levelo_inurba_marseille","lat":43.2807,"lon":5.39635,"is_reserved":false,"is_disabled":false,"rental_uris":{"android":"levelo://app?vid=37b18ebd-4aa0-4ca2-bfbb-ac9479701cc7","ios":"levelo://app?vid=37b18ebd-4aa0-4ca2-bfbb-ac9479701cc7"},"vehicle_type_id":"4","last_reported":1731154484,"current_range_meters":38800,"station_id":"ce4bho12rcd13ifvqh2g","pricing_plan_id":"cebpf4jnsgd1na2vs0mg"},{"bike_id":"bbe8a5c3-fd62-4249-9b6c-edbdc0b8418d","system_id":"levelo_inurba_marseille","lat":43.29265,"lon":5.38437,"is_reserved":false,"is_disabled":false,"rental_uris":{"android":"levelo://app?vid=bbe8a5c3-fd62-4249-9b6c-edbdc0b8418d","ios":"levelo://app?vid=bbe8a5c3-fd62-4249-9b6c-edbdc0b8418d"},"vehicle_type_id":"4","last_reported":1731154484,"current_range_meters":11600,"station_id":"ce4bh692rcd13ifvqea0","pricing_plan_id":"cebpf4jnsgd1na2vs0mg"},{"bike_id":"68bb9078-c705-4e4c-81de-7ae7c7d86c43","system_id":"levelo_inurba_marseille","lat":43.31699,"lon":5.37767,"is_reserved":false,"is_disabled":false,"rental_uris":{"android":"levelo://app?vid=68bb9078-c705-4e4c-81de-7ae7c7d86c43","ios":"levelo://app?vid=68bb9078-c705-4e4c-81de-7ae7c7d86c43"},"vehicle_type_id":"4","last_reported":1731154484,"current_range_meters":28800,"station_id":"ce4bgth2rcd13ifvqch0","pricing_plan_id":"cebpf4jnsgd1na2vs0mg"},{"bike_id":"18102e7a-e3fe-41d8-a668-6d364c73f3e8","system_id":"levelo_inurba_marseille","lat":43.29272,"lon":5.36841,"is_reserved":false,"is_disabled":false,"rental_uris":{"android":"levelo://app?vid=18102e7a-e3fe-41d8-a668-6d364c73f3e8","ios":"levelo://app?vid=18102e7a-e3fe-41d8-a668-6d364c73f3e8"},"vehicle_type_id":"4","last_reported":1731154484,"current_range_meters":36400,"station_id":"ce4bhbp2rcd13ifvqesg","pricing_plan_id":"cebpf4jnsgd1na2vs0mg"},{"bike_id":"df2e79d1-efe6-4a83-b831-8409f5b4006e","system_id":"levelo_inurba_marseille","lat":43.26202,"lon":5.37936,"is_reserved":false,"is_disabled":false,"rental_uris":{"android":"levelo://app?vid=df2e79d1-efe6-4a83-b831-8409f5b4006e","ios":"levelo://app?vid=df2e79d1-efe6-4a83-b831-8409f5b4006e"},"vehicle_type_id":"4","last_reported":1731154484,"current_range_meters":39200,"station_id":"ce4bhjp2rcd13ifvqg90","pricing_plan_id":"cebpf4jnsgd1na2vs0mg"},{"bike_id":"023a736f-59f8-4fd5-8b07-e29c66fc70c7","system_id":"levelo_inurba_marseille","lat":43.26545,"lon":5.37291,"is_reserved":false,"is_disabled":false,"rental_uris":{"android":"levelo://app?vid=023a736f-59f8-4fd5-8b07-e29c66fc70c7","ios":"levelo://app?vid=023a736f-59f8-4fd5-8b07-e29c66fc70c7"},"vehicle_type_id":"4","last_reported":1731154484,"current_range_meters":16000,"station_id":"ce4bhg12rcd13ifvqf70","pricing_plan_id":"cebpf4jnsgd1na2vs0mg"},{"bike_id":"6b0b4edf-4d70-4acc-8223-6f89e0486255","system_id":"levelo_inurba_marseille","lat":43.29971,"lon":5.37173,"is_reserved":false,"is_disabled":false,"rental_uris":{"android":"levelo://app?vid=6b0b4edf-4d70-4acc-8223-6f89e0486255","ios":"levelo://app?vid=6b0b4edf-4d70-4acc-8223-6f89e0486255"},"vehicle_type_id":"4","last_reported":1731154484,"current_range_meters":36000,"station_id":"ce4bgr92rcd13ifvqc7g","pricing_plan_id":"cebpf4jnsgd1na2vs0mg"},{"bike_id":"d59b4dff-78bb-4dc9-bf7f-be04fc754b06","system_id":"levelo_inurba_marseille","lat":43.284099,"lon":5.384945,"is_reserved":false,"is_disabled":false,"rental_uris":{"android":"levelo://app?vid=d59b4dff-78bb-4dc9-bf7f-be04fc754b06","ios":"levelo://app?vid=d59b4dff-78bb-4dc9-bf7f-be04fc754b06"},"vehicle_type_id":"4","last_reported":1731154484,"current_range_meters":37600,"station_id":"ce4bh512rcd13ifvqe3g","pricing_plan_id":"cebpf4jnsgd1na2vs0mg"},{"bike_id":"3e284429-cbca-4663-9bea-1e1b1becb6b0","system_id":"levelo_inurba_marseille","lat":43.29611,"lon":5.37711,"is_reserved":false,"is_disabled":false,"rental_uris":{"android":"levelo://app?vid=3e284429-cbca-4663-9bea-1e1b1becb6b0","ios":"levelo://app?vid=3e284429-cbca-4663-9bea-1e1b1becb6b0"},"vehicle_type_id":"4","last_reported":1731154484,"current_range_meters":10800,"station_id":"ce4bh0p2rcd13ifvqd80","pricing_plan_id":"cebpf4jnsgd1na2vs0mg"},{"bike_id":"6e65b696-85b8-4128-b24f-217ee3a17be3","system_id":"levelo_inurba_marseille","lat":43.28273,"lon":5.3507,"is_reserved":false,"is_disabled":false,"rental_uris":{"android":"levelo://app?vid=6e65b696-85b8-4128-b24f-217ee3a17be3","ios":"levelo://app?vid=6e65b696-85b8-4128-b24f-217ee3a17be3"},"vehicle_type_id":"4","last_reported":1731154484,"current_range_meters":27200,"station_id":"ce4bhbp2rcd13ifvqerg","pricing_plan_id":"cebpf4jnsgd1na2vs0mg"},{"bike_id":"4e43ca38-c416-43ad-94c9-3030308746d9","system_id":"levelo_inurba_marseille","lat":43.24387,"lon":5.37061,"is_reserved":false,"is_disabled":false,"rental_uris":{"android":"levelo://app?vid=4e43ca38-c416-43ad-94c9-3030308746d9","ios":"levelo://app?vid=4e43ca38-c416-43ad-94c9-3030308746d9"},"vehicle_type_id":"4","last_reported":1731154484,"current_range_meters":30000,"station_id":"ce4bhhh2rcd13ifvqfk0","pricing_plan_id":"cebpf4jnsgd1na2vs0mg"},{"bike_id":"240c1814-e8bb-42e2-8d51-5583fb1ee90c","system_id":"levelo_inurba_marseille","lat":43.30167,"lon":5.38083,"is_reserved":false,"is_disabled":false,"rental_uris":{"android":"levelo://app?vid=240c1814-e8bb-42e2-8d51-5583fb1ee90c","ios":"levelo://app?vid=240c1814-e8bb-42e2-8d51-5583fb1ee90c"},"vehicle_type_id":"4","last_reported":1731154484,"current_range_meters":38000,"station_id":"ce4bgjp2rcd13ifvqbh0","pricing_plan_id":"cebpf4jnsgd1na2vs0mg"},{"bike_id":"2fd6dc22-dc4f-436f-8f09-ea747d8c2aa2","system_id":"levelo_inurba_marseille","lat":43.23957,"lon":5.36638,"is_reserved":false,"is_disabled":false,"rental_uris":{"android":"levelo://app?vid=2fd6dc22-dc4f-436f-8f09-ea747d8c2aa2","ios":"levelo://app?vid=2fd6dc22-dc4f-436f-8f09-ea747d8c2aa2"},"vehicle_type_id":"4","last_reported":1731154484,"current_range_meters":38800,"station_id":"ce4bhi12rcd13ifvqfp0","pricing_plan_id":"cebpf4jnsgd1na2vs0mg"},{"bike_id":"96df1ccc-d4ef-486d-810e-b3fe5a15a4be","system_id":"levelo_inurba_marseille","lat":43.28149,"lon":5.42637,"is_reserved":false,"is_disabled":false,"rental_uris":{"android":"levelo://app?vid=96df1ccc-d4ef-486d-810e-b3fe5a15a4be","ios":"levelo://app?vid=96df1ccc-d4ef-486d-810e-b3fe5a15a4be"},"vehicle_type_id":"4","last_reported":1731154484,"current_range_meters":20000,"station_id":"ce4bhnh2rcd13ifvqgug","pricing_plan_id":"cebpf4jnsgd1na2vs0mg"},{"bike_id":"db4a6e58-d99f-4284-b6b0-3a18072eec6b","system_id":"levelo_inurba_marseille","lat":43.2904,"lon":5.39961,"is_reserved":false,"is_disabled":false,"rental_uris":{"android":"levelo://app?vid=db4a6e58-d99f-4284-b6b0-3a18072eec6b","ios":"levelo://app?vid=db4a6e58-d99f-4284-b6b0-3a18072eec6b"},"vehicle_type_id":"4","last_reported":1731154484,"current_range_meters":30800,"station_id":"ce4bh392rcd13ifvqdm0","pricing_plan_id":"cebpf4jnsgd1na2vs0mg"},{"bike_id":"b9059161-bc2a-4853-8231-de961bd5f1e7","system_id":"levelo_inurba_marseille","lat":43.33722,"lon":5.39179,"is_reserved":false,"is_disabled":false,"rental_uris":{"android":"levelo://app?vid=b9059161-bc2a-4853-8231-de961bd5f1e7","ios":"levelo://app?vid=b9059161-bc2a-4853-8231-de961bd5f1e7"},"vehicle_type_id":"4","last_reported":1731154484,"current_range_meters":23200,"station_id":"ce4bhr92rcd13ifvqhsg","pricing_plan_id":"cebpf4jnsgd1na2vs0mg"},{"bike_id":"3f58d95e-a7bb-43d9-9f97-02fe58ff2bc8","system_id":"levelo_inurba_marseille","lat":43.2721,"lon":5.39183,"is_reserved":false,"is_disabled":false,"rental_uris":{"android":"levelo://app?vid=3f58d95e-a7bb-43d9-9f97-02fe58ff2bc8","ios":"levelo://app?vid=3f58d95e-a7bb-43d9-9f97-02fe58ff2bc8"},"vehicle_type_id":"4","last_reported":1731154484,"current_range_meters":24800,"station_id":"ce4bhhp2rcd13ifvqfm0","pricing_plan_id":"cebpf4jnsgd1na2vs0mg"},{"bike_id":"4fd3b6aa-0ab1-4f31-bb21-142b6a420bc2","system_id":"levelo_inurba_marseille","lat":43.29298,"lon":5.37455,"is_reserved":false,"is_disabled":false,"rental_uris":{"android":"levelo://app?vid=4fd3b6aa-0ab1-4f31-bb21-142b6a420bc2","ios":"levelo://app?vid=4fd3b6aa-0ab1-4f31-bb21-142b6a420bc2"},"vehicle_type_id":"4","last_reported":1731154484,"current_range_meters":27600,"station_id":"ce4bgi12rcd13ifvqb70","pricing_plan_id":"cebpf4jnsgd1na2vs0mg"},{"bike_id":"72ca4dec-40aa-425c-8065-f49b359385a1","system_id":"levelo_inurba_marseille","lat":43.29969,"lon":5.37166,"is_reserved":false,"is_disabled":false,"rental_uris":{"android":"levelo://app?vid=72ca4dec-40aa-425c-8065-f49b359385a1","ios":"levelo://app?vid=72ca4dec-40aa-425c-8065-f49b359385a1"},"vehicle_type_id":"4","last_reported":1731154484,"current_range_meters":36400,"station_id":"ce4bgr92rcd13ifvqc7g","pricing_plan_id":"cebpf4jnsgd1na2vs0mg"},{"bike_id":"643d999c-7200-44f2-a201-724d3b4e2bf3","system_id":"levelo_inurba_marseille","lat":43.28477,"lon":5.38416,"is_reserved":false,"is_disabled":false,"rental_uris":{"android":"levelo://app?vid=643d999c-7200-44f2-a201-724d3b4e2bf3","ios":"levelo://app?vid=643d999c-7200-44f2-a201-724d3b4e2bf3"},"vehicle_type_id":"4","last_reported":1731154484,"current_range_meters":20800,"station_id":"ce4bh512rcd13ifvqe3g","pricing_plan_id":"cebpf4jnsgd1na2vs0mg"},{"bike_id":"602a9852-144e-47ea-8bb6-c1fa4b305e08","system_id":"levelo_inurba_marseille","lat":43.30777,"lon":5.37648,"is_reserved":false,"is_disabled":false,"rental_uris":{"android":"levelo://app?vid=602a9852-144e-47ea-8bb6-c1fa4b305e08","ios":"levelo://app?vid=602a9852-144e-47ea-8bb6-c1fa4b305e08"},"vehicle_type_id":"4","last_reported":1731154484,"current_range_meters":18800,"station_id":"ce4bgv92rcd13ifvqcq0","pricing_plan_id":"cebpf4jnsgd1na2vs0mg"},{"bike_id":"f4ef053d-e709-4411-bdd9-de1d0f41e46f","system_id":"levelo_inurba_marseille","lat":43.22931,"lon":5.35374,"is_reserved":false,"is_disabled":false,"rental_uris":{"android":"levelo://app?vid=f4ef053d-e709-4411-bdd9-de1d0f41e46f","ios":"levelo://app?vid=f4ef053d-e709-4411-bdd9-de1d0f41e46f"},"vehicle_type_id":"4","last_reported":1731154484,"current_range_meters":38800,"station_id":"cpo3532slgdg3j2ikp40","pricing_plan_id":"cebpf4jnsgd1na2vs0mg"},{"bike_id":"8f9addbd-de2f-4f7c-9599-e984728ff8a5","system_id":"levelo_inurba_marseille","lat":43.30796,"lon":5.37651,"is_reserved":false,"is_disabled":false,"rental_uris":{"android":"levelo://app?vid=8f9addbd-de2f-4f7c-9599-e984728ff8a5","ios":"levelo://app?vid=8f9addbd-de2f-4f7c-9599-e984728ff8a5"},"vehicle_type_id":"4","last_reported":1731154484,"current_range_meters":38000,"station_id":"ce4bgv92rcd13ifvqcq0","pricing_plan_id":"cebpf4jnsgd1na2vs0mg"},{"bike_id":"13c2362a-ffc6-423c-b425-0a054039927d","system_id":"levelo_inurba_marseille","lat":43.297035,"lon":5.365949,"is_reserved":false,"is_disabled":false,"rental_uris":{"android":"levelo://app?vid=13c2362a-ffc6-423c-b425-0a054039927d","ios":"levelo://app?vid=13c2362a-ffc6-423c-b425-0a054039927d"},"vehicle_type_id":"4","last_reported":1731154484,"current_range_meters":38400,"station_id":"ce4bgn12rcd13ifvqbt0","pricing_plan_id":"cebpf4jnsgd1na2vs0mg"},{"bike_id":"94c1a05b-4b06-46ae-a5e4-c6962d31b703","system_id":"levelo_inurba_marseille","lat":43.29277,"lon":5.36854,"is_reserved":false,"is_disabled":false,"rental_uris":{"android":"levelo://app?vid=94c1a05b-4b06-46ae-a5e4-c6962d31b703","ios":"levelo://app?vid=94c1a05b-4b06-46ae-a5e4-c6962d31b703"},"vehicle_type_id":"4","last_reported":1731154484,"current_range_meters":29600,"station_id":"ce4bhbp2rcd13ifvqesg","pricing_plan_id":"cebpf4jnsgd1na2vs0mg"},{"bike_id":"f7148f72-3d1b-4627-a1f5-855546ac88b1","system_id":"levelo_inurba_marseille","lat":43.25501,"lon":5.37651,"is_reserved":false,"is_disabled":false,"rental_uris":{"android":"levelo://app?vid=f7148f72-3d1b-4627-a1f5-855546ac88b1","ios":"levelo://app?vid=f7148f72-3d1b-4627-a1f5-855546ac88b1"},"vehicle_type_id":"4","last_reported":1731154484,"current_range_meters":38000,"station_id":"ce4bhh12rcd13ifvqff0","pricing_plan_id":"cebpf4jnsgd1na2vs0mg"},{"bike_id":"82f750ef-4c11-46df-bf3f-eb1ee954f51e","system_id":"levelo_inurba_marseille","lat":43.30884,"lon":5.39636,"is_reserved":false,"is_disabled":false,"rental_uris":{"android":"levelo://app?vid=82f750ef-4c11-46df-bf3f-eb1ee954f51e","ios":"levelo://app?vid=82f750ef-4c11-46df-bf3f-eb1ee954f51e"},"vehicle_type_id":"4","last_reported":1731154484,"current_range_meters":25600,"station_id":"ce4bh012rcd13ifvqcv0","pricing_plan_id":"cebpf4jnsgd1na2vs0mg"},{"bike_id":"fb2ba5fc-38b8-4ef8-b396-18efcbc7f65f","system_id":"levelo_inurba_marseille","lat":43.29617,"lon":5.37729,"is_reserved":false,"is_disabled":false,"rental_uris":{"android":"levelo://app?vid=fb2ba5fc-38b8-4ef8-b396-18efcbc7f65f","ios":"levelo://app?vid=fb2ba5fc-38b8-4ef8-b396-18efcbc7f65f"},"vehicle_type_id":"4","last_reported":1731154484,"current_range_meters":39200,"station_id":"ce4bgi92rcd13ifvqb90","pricing_plan_id":"cebpf4jnsgd1na2vs0mg"},{"bike_id":"ac59b398-a03f-4409-8d13-c4e12f526cfa","system_id":"levelo_inurba_marseille","lat":43.28423,"lon":5.34994,"is_reserved":false,"is_disabled":false,"rental_uris":{"android":"levelo://app?vid=ac59b398-a03f-4409-8d13-c4e12f526cfa","ios":"levelo://app?vid=ac59b398-a03f-4409-8d13-c4e12f526cfa"},"vehicle_type_id":"4","last_reported":1731154484,"current_range_meters":18000,"station_id":"ce4bhbh2rcd13ifvqepg","pricing_plan_id":"cebpf4jnsgd1na2vs0mg"},{"bike_id":"828a5fed-bfbb-4fb7-ac2d-ffaed39a8507","system_id":"levelo_inurba_marseille","lat":43.3048,"lon":5.37905,"is_reserved":false,"is_disabled":false,"rental_uris":{"android":"levelo://app?vid=828a5fed-bfbb-4fb7-ac2d-ffaed39a8507","ios":"levelo://app?vid=828a5fed-bfbb-4fb7-ac2d-ffaed39a8507"},"vehicle_type_id":"4","last_reported":1731154484,"current_range_meters":38800,"station_id":"ce4bgup2rcd13ifvqcn0","pricing_plan_id":"cebpf4jnsgd1na2vs0mg"},{"bike_id":"b50b2ca5-101a-4d81-9174-37b32994ea6f","system_id":"levelo_inurba_marseille","lat":43.29956,"lon":5.41316,"is_reserved":false,"is_disabled":false,"rental_uris":{"android":"levelo://app?vid=b50b2ca5-101a-4d81-9174-37b32994ea6f","ios":"levelo://app?vid=b50b2ca5-101a-4d81-9174-37b32994ea6f"},"vehicle_type_id":"4","last_reported":1731154484,"current_range_meters":36000,"station_id":"ce4bhp12rcd13ifvqh9g","pricing_plan_id":"cebpf4jnsgd1na2vs0mg"},{"bike_id":"cefde652-a002-4726-8878-00a885797048","system_id":"levelo_inurba_marseille","lat":43.31118,"lon":5.3778,"is_reserved":false,"is_disabled":false,"rental_uris":{"android":"levelo://app?vid=cefde652-a002-4726-8878-00a885797048","ios":"levelo://app?vid=cefde652-a002-4726-8878-00a885797048"},"vehicle_type_id":"4","last_reported":1731154484,"current_range_meters":2000,"station_id":"ce4bgt92rcd13ifvqcg0","pricing_plan_id":"cebpf4jnsgd1na2vs0mg"},{"bike_id":"7243fcc8-e91d-49aa-a78b-3d82c9cf3c65","system_id":"levelo_inurba_marseille","lat":43.28616,"lon":5.35084,"is_reserved":false,"is_disabled":false,"rental_uris":{"android":"levelo://app?vid=7243fcc8-e91d-49aa-a78b-3d82c9cf3c65","ios":"levelo://app?vid=7243fcc8-e91d-49aa-a78b-3d82c9cf3c65"},"vehicle_type_id":"4","last_reported":1731154484,"current_range_meters":35600,"station_id":"ce4bhch2rcd13ifvqeug","pricing_plan_id":"cebpf4jnsgd1na2vs0mg"},{"bike_id":"e6db309d-c8fb-4b14-9fce-49afd4b084da","system_id":"levelo_inurba_marseille","lat":43.26193,"lon":5.37444,"is_reserved":false,"is_disabled":false,"rental_uris":{"android":"levelo://app?vid=e6db309d-c8fb-4b14-9fce-49afd4b084da","ios":"levelo://app?vid=e6db309d-c8fb-4b14-9fce-49afd4b084da"},"vehicle_type_id":"4","last_reported":1731154484,"current_range_meters":36800,"station_id":"ce4bhgp2rcd13ifvqfc0","pricing_plan_id":"cebpf4jnsgd1na2vs0mg"},{"bike_id":"b4d6962c-48f0-4bf0-8d16-4194c14b4356","system_id":"levelo_inurba_marseille","lat":43.26223,"lon":5.37441,"is_reserved":false,"is_disabled":false,"rental_uris":{"android":"levelo://app?vid=b4d6962c-48f0-4bf0-8d16-4194c14b4356","ios":"levelo://app?vid=b4d6962c-48f0-4bf0-8d16-4194c14b4356"},"vehicle_type_id":"4","last_reported":1731154484,"current_range_meters":17600,"station_id":"ce4bhgp2rcd13ifvqfc0","pricing_plan_id":"cebpf4jnsgd1na2vs0mg"},{"bike_id":"71bb50a1-6cdb-4a6f-b24c-1cbd7c603ad3","system_id":"levelo_inurba_marseille","lat":43.31428,"lon":5.373982,"is_reserved":false,"is_disabled":false,"rental_uris":{"android":"levelo://app?vid=71bb50a1-6cdb-4a6f-b24c-1cbd7c603ad3","ios":"levelo://app?vid=71bb50a1-6cdb-4a6f-b24c-1cbd7c603ad3"},"vehicle_type_id":"4","last_reported":1731154484,"current_range_meters":28000,"station_id":"","pricing_plan_id":"cebpf4jnsgd1na2vs0mg"},{"bike_id":"4c75d424-1f36-4138-8aa9-1e6a110537f4","system_id":"levelo_inurba_marseille","lat":43.29006,"lon":5.35612,"is_reserved":false,"is_disabled":false,"rental_uris":{"android":"levelo://app?vid=4c75d424-1f36-4138-8aa9-1e6a110537f4","ios":"levelo://app?vid=4c75d424-1f36-4138-8aa9-1e6a110537f4"},"vehicle_type_id":"4","last_reported":1731154484,"current_range_meters":24800,"station_id":"ce4bhb92rcd13ifvqen0","pricing_plan_id":"cebpf4jnsgd1na2vs0mg"},{"bike_id":"f8dc3cf6-0751-4777-91cf-c32ee3c2009d","system_id":"levelo_inurba_marseille","lat":43.27453,"lon":5.38904,"is_reserved":false,"is_disabled":false,"rental_uris":{"android":"levelo://app?vid=f8dc3cf6-0751-4777-91cf-c32ee3c2009d","ios":"levelo://app?vid=f8dc3cf6-0751-4777-91cf-c32ee3c2009d"},"vehicle_type_id":"4","last_reported":1731154484,"current_range_meters":36800,"station_id":"","pricing_plan_id":"cebpf4jnsgd1na2vs0mg"},{"bike_id":"b8fdd341-0697-41ca-82c9-e4253415f4e6","system_id":"levelo_inurba_marseille","lat":43.23058,"lon":5.35491,"is_reserved":false,"is_disabled":false,"rental_uris":{"android":"levelo://app?vid=b8fdd341-0697-41ca-82c9-e4253415f4e6","ios":"levelo://app?vid=b8fdd341-0697-41ca-82c9-e4253415f4e6"},"vehicle_type_id":"4","last_reported":1731154484,"current_range_meters":32400,"station_id":"cpo3342slgdg3j2ifvpg","pricing_plan_id":"cebpf4jnsgd1na2vs0mg"},{"bike_id":"fe65b111-a778-435f-85ae-5414dad6596b","system_id":"levelo_inurba_marseille","lat":43.29907,"lon":5.38126,"is_reserved":false,"is_disabled":false,"rental_uris":{"android":"levelo://app?vid=fe65b111-a778-435f-85ae-5414dad6596b","ios":"levelo://app?vid=fe65b111-a778-435f-85ae-5414dad6596b"},"vehicle_type_id":"4","last_reported":1731154484,"current_range_meters":38800,"station_id":"ce4bgj12rcd13ifvqbc0","pricing_plan_id":"cebpf4jnsgd1na2vs0mg"},{"bike_id":"7a4cb1a4-2ec9-4d51-90b8-58def754a70b","system_id":"levelo_inurba_marseille","lat":43.2827,"lon":5.35063,"is_reserved":false,"is_disabled":false,"rental_uris":{"android":"levelo://app?vid=7a4cb1a4-2ec9-4d51-90b8-58def754a70b","ios":"levelo://app?vid=7a4cb1a4-2ec9-4d51-90b8-58def754a70b"},"vehicle_type_id":"4","last_reported":1731154484,"current_range_meters":38800,"station_id":"ce4bhbp2rcd13ifvqerg","pricing_plan_id":"cebpf4jnsgd1na2vs0mg"},{"bike_id":"6e2d14fd-eb01-49b5-bd29-aaa82bfcdea8","system_id":"levelo_inurba_marseille","lat":43.30353,"lon":5.41874,"is_reserved":false,"is_disabled":false,"rental_uris":{"android":"levelo://app?vid=6e2d14fd-eb01-49b5-bd29-aaa82bfcdea8","ios":"levelo://app?vid=6e2d14fd-eb01-49b5-bd29-aaa82bfcdea8"},"vehicle_type_id":"4","last_reported":1731154484,"current_range_meters":24800,"station_id":"ce4bhop2rcd13ifvqh7g","pricing_plan_id":"cebpf4jnsgd1na2vs0mg"},{"bike_id":"52b9e4f1-f078-4114-aa60-3a3facd08793","system_id":"levelo_inurba_marseille","lat":43.29571,"lon":5.37509,"is_reserved":false,"is_disabled":false,"rental_uris":{"android":"levelo://app?vid=52b9e4f1-f078-4114-aa60-3a3facd08793","ios":"levelo://app?vid=52b9e4f1-f078-4114-aa60-3a3facd08793"},"vehicle_type_id":"4","last_reported":1731154484,"current_range_meters":39200,"station_id":"ce4bgh92rcd13ifvqb50","pricing_plan_id":"cebpf4jnsgd1na2vs0mg"},{"bike_id":"65ae6d49-6b92-40c5-bec5-2e88db390e71","system_id":"levelo_inurba_marseille","lat":43.29925,"lon":5.36535,"is_reserved":false,"is_disabled":false,"rental_uris":{"android":"levelo://app?vid=65ae6d49-6b92-40c5-bec5-2e88db390e71","ios":"levelo://app?vid=65ae6d49-6b92-40c5-bec5-2e88db390e71"},"vehicle_type_id":"4","last_reported":1731154484,"current_range_meters":38000,"station_id":"ce4bgm92rcd13ifvqbr0","pricing_plan_id":"cebpf4jnsgd1na2vs0mg"},{"bike_id":"07debc06-8ce2-4667-8bc0-55b348d978bd","system_id":"levelo_inurba_marseille","lat":43.23962,"lon":5.36627,"is_reserved":false,"is_disabled":false,"rental_uris":{"android":"levelo://app?vid=07debc06-8ce2-4667-8bc0-55b348d978bd","ios":"levelo://app?vid=07debc06-8ce2-4667-8bc0-55b348d978bd"},"vehicle_type_id":"4","last_reported":1731154484,"current_range_meters":33200,"station_id":"ce4bhi12rcd13ifvqfp0","pricing_plan_id":"cebpf4jnsgd1na2vs0mg"},{"bike_id":"cc5d9a39-285d-43c9-845d-e46196db0907","system_id":"levelo_inurba_marseille","lat":43.26206,"lon":5.37926,"is_reserved":false,"is_disabled":false,"rental_uris":{"android":"levelo://app?vid=cc5d9a39-285d-43c9-845d-e46196db0907","ios":"levelo://app?vid=cc5d9a39-285d-43c9-845d-e46196db0907"},"vehicle_type_id":"4","last_reported":1731154484,"current_range_meters":24000,"station_id":"ce4bhjp2rcd13ifvqg90","pricing_plan_id":"cebpf4jnsgd1na2vs0mg"},{"bike_id":"b9d0bc02-8b8d-46ee-bb6e-da3b365f1431","system_id":"levelo_inurba_marseille","lat":43.30162,"lon":5.38086,"is_reserved":false,"is_disabled":false,"rental_uris":{"android":"levelo://app?vid=b9d0bc02-8b8d-46ee-bb6e-da3b365f1431","ios":"levelo://app?vid=b9d0bc02-8b8d-46ee-bb6e-da3b365f1431"},"vehicle_type_id":"4","last_reported":1731154484,"current_range_meters":9200,"station_id":"ce4bgjp2rcd13ifvqbh0","pricing_plan_id":"cebpf4jnsgd1na2vs0mg"},{"bike_id":"e291e3c2-7fca-4dfa-8863-fcc24bae6682","system_id":"levelo_inurba_marseille","lat":43.28719,"lon":5.37927,"is_reserved":false,"is_disabled":false,"rental_uris":{"android":"levelo://app?vid=e291e3c2-7fca-4dfa-8863-fcc24bae6682","ios":"levelo://app?vid=e291e3c2-7fca-4dfa-8863-fcc24bae6682"},"vehicle_type_id":"4","last_reported":1731154484,"current_range_meters":32800,"station_id":"ce4bh9p2rcd13ifvqec0","pricing_plan_id":"cebpf4jnsgd1na2vs0mg"},{"bike_id":"8137f581-2393-41d8-a932-f12bb5e1d13d","system_id":"levelo_inurba_marseille","lat":43.29223,"lon":5.36071,"is_reserved":false,"is_disabled":false,"rental_uris":{"android":"levelo://app?vid=8137f581-2393-41d8-a932-f12bb5e1d13d","ios":"levelo://app?vid=8137f581-2393-41d8-a932-f12bb5e1d13d"},"vehicle_type_id":"4","last_reported":1731154484,"current_range_meters":34000,"station_id":"ce4bhbh2rcd13ifvqeqg","pricing_plan_id":"cebpf4jnsgd1na2vs0mg"},{"bike_id":"8b42fcec-a64e-400a-bba2-2764c9a6d354","system_id":"levelo_inurba_marseille","lat":43.29907,"lon":5.38126,"is_reserved":false,"is_disabled":false,"rental_uris":{"android":"levelo://app?vid=8b42fcec-a64e-400a-bba2-2764c9a6d354","ios":"levelo://app?vid=8b42fcec-a64e-400a-bba2-2764c9a6d354"},"vehicle_type_id":"4","last_reported":1731154484,"current_range_meters":25200,"station_id":"ce4bgj12rcd13ifvqbc0","pricing_plan_id":"cebpf4jnsgd1na2vs0mg"},{"bike_id":"bc9e5d4d-ed87-459e-9d6b-75e21cc6343f","system_id":"levelo_inurba_marseille","lat":43.30414,"lon":5.41278,"is_reserved":false,"is_disabled":false,"rental_uris":{"android":"levelo://app?vid=bc9e5d4d-ed87-459e-9d6b-75e21cc6343f","ios":"levelo://app?vid=bc9e5d4d-ed87-459e-9d6b-75e21cc6343f"},"vehicle_type_id":"4","last_reported":1731154484,"current_range_meters":38800,"station_id":"ce4bhop2rcd13ifvqh8g","pricing_plan_id":"cebpf4jnsgd1na2vs0mg"},{"bike_id":"08698d2c-39ce-4e4e-867c-c994494fa936","system_id":"levelo_inurba_marseille","lat":43.2621,"lon":5.37442,"is_reserved":false,"is_disabled":false,"rental_uris":{"android":"levelo://app?vid=08698d2c-39ce-4e4e-867c-c994494fa936","ios":"levelo://app?vid=08698d2c-39ce-4e4e-867c-c994494fa936"},"vehicle_type_id":"4","last_reported":1731154484,"current_range_meters":6800,"station_id":"ce4bhgp2rcd13ifvqfc0","pricing_plan_id":"cebpf4jnsgd1na2vs0mg"},{"bike_id":"818293fa-7bab-4548-8e6d-ceefdd2acfe4","system_id":"levelo_inurba_marseille","lat":43.30651,"lon":5.4007,"is_reserved":false,"is_disabled":false,"rental_uris":{"android":"levelo://app?vid=818293fa-7bab-4548-8e6d-ceefdd2acfe4","ios":"levelo://app?vid=818293fa-7bab-4548-8e6d-ceefdd2acfe4"},"vehicle_type_id":"4","last_reported":1731154484,"current_range_meters":17200,"station_id":"ce4bh112rcd13ifvqda0","pricing_plan_id":"cebpf4jnsgd1na2vs0mg"},{"bike_id":"d32c660d-6afc-40b6-85c6-821dfbcddf02","system_id":"levelo_inurba_marseille","lat":43.30415,"lon":5.41289,"is_reserved":false,"is_disabled":false,"rental_uris":{"android":"levelo://app?vid=d32c660d-6afc-40b6-85c6-821dfbcddf02","ios":"levelo://app?vid=d32c660d-6afc-40b6-85c6-821dfbcddf02"},"vehicle_type_id":"4","last_reported":1731154484,"current_range_meters":27600,"station_id":"ce4bhop2rcd13ifvqh8g","pricing_plan_id":"cebpf4jnsgd1na2vs0mg"},{"bike_id":"b46ef96e-d2a2-4c07-a8e9-661445b1de2c","system_id":"levelo_inurba_marseille","lat":43.29917,"lon":5.38167,"is_reserved":false,"is_disabled":false,"rental_uris":{"android":"levelo://app?vid=b46ef96e-d2a2-4c07-a8e9-661445b1de2c","ios":"levelo://app?vid=b46ef96e-d2a2-4c07-a8e9-661445b1de2c"},"vehicle_type_id":"4","last_reported":1731154484,"current_range_meters":8000,"station_id":"ce4bgj12rcd13ifvqbc0","pricing_plan_id":"cebpf4jnsgd1na2vs0mg"},{"bike_id":"3164e0e4-9c24-48e4-a179-3cac940f2c32","system_id":"levelo_inurba_marseille","lat":43.28151,"lon":5.42649,"is_reserved":false,"is_disabled":false,"rental_uris":{"android":"levelo://app?vid=3164e0e4-9c24-48e4-a179-3cac940f2c32","ios":"levelo://app?vid=3164e0e4-9c24-48e4-a179-3cac940f2c32"},"vehicle_type_id":"4","last_reported":1731154484,"current_range_meters":16000,"station_id":"ce4bhnh2rcd13ifvqgug","pricing_plan_id":"cebpf4jnsgd1na2vs0mg"},{"bike_id":"46eef23f-12d9-472d-bbc8-38bbf585ff1a","system_id":"levelo_inurba_marseille","lat":43.29271,"lon":5.36853,"is_reserved":false,"is_disabled":false,"rental_uris":{"android":"levelo://app?vid=46eef23f-12d9-472d-bbc8-38bbf585ff1a","ios":"levelo://app?vid=46eef23f-12d9-472d-bbc8-38bbf585ff1a"},"vehicle_type_id":"4","last_reported":1731154484,"current_range_meters":18800,"station_id":"ce4bhbp2rcd13ifvqesg","pricing_plan_id":"cebpf4jnsgd1na2vs0mg"},{"bike_id":"20d25e90-2337-4427-97ea-6af872a329d8","system_id":"levelo_inurba_marseille","lat":43.28689,"lon":5.38672,"is_reserved":false,"is_disabled":false,"rental_uris":{"android":"levelo://app?vid=20d25e90-2337-4427-97ea-6af872a329d8","ios":"levelo://app?vid=20d25e90-2337-4427-97ea-6af872a329d8"},"vehicle_type_id":"4","last_reported":1731154484,"current_range_meters":18800,"station_id":"ce4bh492rcd13ifvqdug","pricing_plan_id":"cebpf4jnsgd1na2vs0mg"},{"bike_id":"b04721b2-bb72-4877-b800-27e1ccf6e803","system_id":"levelo_inurba_marseille","lat":43.28423,"lon":5.34992,"is_reserved":false,"is_disabled":false,"rental_uris":{"android":"levelo://app?vid=b04721b2-bb72-4877-b800-27e1ccf6e803","ios":"levelo://app?vid=b04721b2-bb72-4877-b800-27e1ccf6e803"},"vehicle_type_id":"4","last_reported":1731154484,"current_range_meters":27200,"station_id":"ce4bhbh2rcd13ifvqepg","pricing_plan_id":"cebpf4jnsgd1na2vs0mg"},{"bike_id":"0dc18e88-cb7f-46f4-acb2-33f024b5e8a2","system_id":"levelo_inurba_marseille","lat":43.28844,"lon":5.35849,"is_reserved":false,"is_disabled":false,"rental_uris":{"android":"levelo://app?vid=0dc18e88-cb7f-46f4-acb2-33f024b5e8a2","ios":"levelo://app?vid=0dc18e88-cb7f-46f4-acb2-33f024b5e8a2"},"vehicle_type_id":"4","last_reported":1731154484,"current_range_meters":14000,"station_id":"ce4bhb12rcd13ifvqem0","pricing_plan_id":"cebpf4jnsgd1na2vs0mg"},{"bike_id":"29e7eea2-318e-4349-bb6c-695542e730c7","system_id":"levelo_inurba_marseille","lat":43.3089,"lon":5.37195,"is_reserved":false,"is_disabled":false,"rental_uris":{"android":"levelo://app?vid=29e7eea2-318e-4349-bb6c-695542e730c7","ios":"levelo://app?vid=29e7eea2-318e-4349-bb6c-695542e730c7"},"vehicle_type_id":"4","last_reported":1731154484,"current_range_meters":38400,"station_id":"ce4bguh2rcd13ifvqckg","pricing_plan_id":"cebpf4jnsgd1na2vs0mg"},{"bike_id":"99fffb60-3d94-4807-81f0-2765402c893d","system_id":"levelo_inurba_marseille","lat":43.29031,"lon":5.38652,"is_reserved":false,"is_disabled":false,"rental_uris":{"android":"levelo://app?vid=99fffb60-3d94-4807-81f0-2765402c893d","ios":"levelo://app?vid=99fffb60-3d94-4807-81f0-2765402c893d"},"vehicle_type_id":"4","last_reported":1731154484,"current_range_meters":25200,"station_id":"ce4bh4p2rcd13ifvqe0g","pricing_plan_id":"cebpf4jnsgd1na2vs0mg"},{"bike_id":"8ae42063-413b-4c62-b6e0-317a3937a2ec","system_id":"levelo_inurba_marseille","lat":43.2439,"lon":5.37065,"is_reserved":false,"is_disabled":false,"rental_uris":{"android":"levelo://app?vid=8ae42063-413b-4c62-b6e0-317a3937a2ec","ios":"levelo://app?vid=8ae42063-413b-4c62-b6e0-317a3937a2ec"},"vehicle_type_id":"4","last_reported":1731154484,"current_range_meters":27200,"station_id":"ce4bhhh2rcd13ifvqfk0","pricing_plan_id":"cebpf4jnsgd1na2vs0mg"},{"bike_id":"c786f0d8-9ec3-4a95-86e5-57b6010e0ee8","system_id":"levelo_inurba_marseille","lat":43.29614,"lon":5.37733,"is_reserved":false,"is_disabled":false,"rental_uris":{"android":"levelo://app?vid=c786f0d8-9ec3-4a95-86e5-57b6010e0ee8","ios":"levelo://app?vid=c786f0d8-9ec3-4a95-86e5-57b6010e0ee8"},"vehicle_type_id":"4","last_reported":1731154484,"current_range_meters":34000,"station_id":"ce4bgi92rcd13ifvqb90","pricing_plan_id":"cebpf4jnsgd1na2vs0mg"},{"bike_id":"39f17349-ada4-4402-b2d4-f4683db56d2d","system_id":"levelo_inurba_marseille","lat":43.27494,"lon":5.42446,"is_reserved":false,"is_disabled":false,"rental_uris":{"android":"levelo://app?vid=39f17349-ada4-4402-b2d4-f4683db56d2d","ios":"levelo://app?vid=39f17349-ada4-4402-b2d4-f4683db56d2d"},"vehicle_type_id":"4","last_reported":1731154484,"current_range_meters":38800,"station_id":"ce4bhn92rcd13ifvqgrg","pricing_plan_id":"cebpf4jnsgd1na2vs0mg"},{"bike_id":"b9478b1d-79e3-44c9-ae60-496dd5151f62","system_id":"levelo_inurba_marseille","lat":43.29167,"lon":5.37143,"is_reserved":false,"is_disabled":false,"rental_uris":{"android":"levelo://app?vid=b9478b1d-79e3-44c9-ae60-496dd5151f62","ios":"levelo://app?vid=b9478b1d-79e3-44c9-ae60-496dd5151f62"},"vehicle_type_id":"4","last_reported":1731154484,"current_range_meters":36800,"station_id":"ce4bha92rcd13ifvqeh0","pricing_plan_id":"cebpf4jnsgd1na2vs0mg"},{"bike_id":"259ac6b3-c948-4c62-b167-931ed2a7069d","system_id":"levelo_inurba_marseille","lat":43.29271,"lon":5.36848,"is_reserved":false,"is_disabled":false,"rental_uris":{"android":"levelo://app?vid=259ac6b3-c948-4c62-b167-931ed2a7069d","ios":"levelo://app?vid=259ac6b3-c948-4c62-b167-931ed2a7069d"},"vehicle_type_id":"4","last_reported":1731154484,"current_range_meters":30800,"station_id":"ce4bhbp2rcd13ifvqesg","pricing_plan_id":"cebpf4jnsgd1na2vs0mg"},{"bike_id":"4204c697-9142-4d6f-a64b-20f319f8c9a7","system_id":"levelo_inurba_marseille","lat":43.2707,"lon":5.42274,"is_reserved":false,"is_disabled":false,"rental_uris":{"android":"levelo://app?vid=4204c697-9142-4d6f-a64b-20f319f8c9a7","ios":"levelo://app?vid=4204c697-9142-4d6f-a64b-20f319f8c9a7"},"vehicle_type_id":"4","last_reported":1731154484,"current_range_meters":16000,"station_id":"ce4bhk92rcd13ifvqgb0","pricing_plan_id":"cebpf4jnsgd1na2vs0mg"},{"bike_id":"53729da4-2427-408f-ad3c-5218b7d10aa6","system_id":"levelo_inurba_marseille","lat":43.27321,"lon":5.3907,"is_reserved":false,"is_disabled":false,"rental_uris":{"android":"levelo://app?vid=53729da4-2427-408f-ad3c-5218b7d10aa6","ios":"levelo://app?vid=53729da4-2427-408f-ad3c-5218b7d10aa6"},"vehicle_type_id":"4","last_reported":1731154484,"current_range_meters":12400,"station_id":"ce4bhgp2rcd13ifvqfe0","pricing_plan_id":"cebpf4jnsgd1na2vs0mg"},{"bike_id":"de15f00a-25b1-4b9b-a102-3b4e4c3a83ba","system_id":"levelo_inurba_marseille","lat":43.30162,"lon":5.38085,"is_reserved":false,"is_disabled":false,"rental_uris":{"android":"levelo://app?vid=de15f00a-25b1-4b9b-a102-3b4e4c3a83ba","ios":"levelo://app?vid=de15f00a-25b1-4b9b-a102-3b4e4c3a83ba"},"vehicle_type_id":"4","last_reported":1731154484,"current_range_meters":30400,"station_id":"ce4bgjp2rcd13ifvqbh0","pricing_plan_id":"cebpf4jnsgd1na2vs0mg"},{"bike_id":"60a6902d-66a8-4d3b-a1b6-df606a352494","system_id":"levelo_inurba_marseille","lat":43.27907,"lon":5.380123,"is_reserved":false,"is_disabled":false,"rental_uris":{"android":"levelo://app?vid=60a6902d-66a8-4d3b-a1b6-df606a352494","ios":"levelo://app?vid=60a6902d-66a8-4d3b-a1b6-df606a352494"},"vehicle_type_id":"4","last_reported":1731154484,"current_range_meters":30400,"station_id":"ce4bhf92rcd13ifvqf50","pricing_plan_id":"cebpf4jnsgd1na2vs0mg"},{"bike_id":"c7dcb551-80df-41d7-8e69-7ce59421a2d4","system_id":"levelo_inurba_marseille","lat":43.25824,"lon":5.39435,"is_reserved":false,"is_disabled":false,"rental_uris":{"android":"levelo://app?vid=c7dcb551-80df-41d7-8e69-7ce59421a2d4","ios":"levelo://app?vid=c7dcb551-80df-41d7-8e69-7ce59421a2d4"},"vehicle_type_id":"4","last_reported":1731154484,"current_range_meters":38800,"station_id":"ce4bhip2rcd13ifvqft0","pricing_plan_id":"cebpf4jnsgd1na2vs0mg"},{"bike_id":"bf86df54-7741-410f-bbb4-982b226f9f8a","system_id":"levelo_inurba_marseille","lat":43.29804,"lon":5.38095,"is_reserved":false,"is_disabled":false,"rental_uris":{"android":"levelo://app?vid=bf86df54-7741-410f-bbb4-982b226f9f8a","ios":"levelo://app?vid=bf86df54-7741-410f-bbb4-982b226f9f8a"},"vehicle_type_id":"4","last_reported":1731154484,"current_range_meters":38800,"station_id":"ce4bgip2rcd13ifvqbb0","pricing_plan_id":"cebpf4jnsgd1na2vs0mg"},{"bike_id":"272e57d3-8f1e-4ec1-95ff-46e1ee6063fb","system_id":"levelo_inurba_marseille","lat":43.29978,"lon":5.38492,"is_reserved":false,"is_disabled":false,"rental_uris":{"android":"levelo://app?vid=272e57d3-8f1e-4ec1-95ff-46e1ee6063fb","ios":"levelo://app?vid=272e57d3-8f1e-4ec1-95ff-46e1ee6063fb"},"vehicle_type_id":"4","last_reported":1731154484,"current_range_meters":38800,"station_id":"ce4bgj92rcd13ifvqbd0","pricing_plan_id":"cebpf4jnsgd1na2vs0mg"},{"bike_id":"45a1fbb3-290e-40f3-b004-23b9fa2fcfcd","system_id":"levelo_inurba_marseille","lat":43.33733,"lon":5.37442,"is_reserved":false,"is_disabled":false,"rental_uris":{"android":"levelo://app?vid=45a1fbb3-290e-40f3-b004-23b9fa2fcfcd","ios":"levelo://app?vid=45a1fbb3-290e-40f3-b004-23b9fa2fcfcd"},"vehicle_type_id":"4","last_reported":1731154484,"current_range_meters":38800,"station_id":"","pricing_plan_id":"cebpf4jnsgd1na2vs0mg"},{"bike_id":"b4de7b9a-6515-49e3-b4f0-3d8149400129","system_id":"levelo_inurba_marseille","lat":43.30153,"lon":5.38088,"is_reserved":false,"is_disabled":false,"rental_uris":{"android":"levelo://app?vid=b4de7b9a-6515-49e3-b4f0-3d8149400129","ios":"levelo://app?vid=b4de7b9a-6515-49e3-b4f0-3d8149400129"},"vehicle_type_id":"4","last_reported":1731154484,"current_range_meters":36800,"station_id":"ce4bgjp2rcd13ifvqbh0","pricing_plan_id":"cebpf4jnsgd1na2vs0mg"},{"bike_id":"59d879dd-0163-48d4-8f0d-0b770ab91e67","system_id":"levelo_inurba_marseille","lat":43.2757,"lon":5.38427,"is_reserved":false,"is_disabled":false,"rental_uris":{"android":"levelo://app?vid=59d879dd-0163-48d4-8f0d-0b770ab91e67","ios":"levelo://app?vid=59d879dd-0163-48d4-8f0d-0b770ab91e67"},"vehicle_type_id":"4","last_reported":1731154484,"current_range_meters":38800,"station_id":"ce4bhh92rcd13ifvqfi0","pricing_plan_id":"cebpf4jnsgd1na2vs0mg"},{"bike_id":"eccb9bf1-4a0c-4df5-8229-bf46f21c4329","system_id":"levelo_inurba_marseille","lat":43.31714,"lon":5.42404,"is_reserved":false,"is_disabled":false,"rental_uris":{"android":"levelo://app?vid=eccb9bf1-4a0c-4df5-8229-bf46f21c4329","ios":"levelo://app?vid=eccb9bf1-4a0c-4df5-8229-bf46f21c4329"},"vehicle_type_id":"4","last_reported":1731154484,"current_range_meters":33600,"station_id":"ce4bhp92rcd13ifvqhbg","pricing_plan_id":"cebpf4jnsgd1na2vs0mg"},{"bike_id":"ef288286-229d-4b9a-a189-8d61840dcffb","system_id":"levelo_inurba_marseille","lat":43.23192,"lon":5.35557,"is_reserved":false,"is_disabled":false,"rental_uris":{"android":"levelo://app?vid=ef288286-229d-4b9a-a189-8d61840dcffb","ios":"levelo://app?vid=ef288286-229d-4b9a-a189-8d61840dcffb"},"vehicle_type_id":"4","last_reported":1731154484,"current_range_meters":34000,"station_id":"ce4bhu92rcd13ifvqi70","pricing_plan_id":"cebpf4jnsgd1na2vs0mg"},{"bike_id":"ada2b11f-bf8f-4d91-9762-9ad2280ea5d6","system_id":"levelo_inurba_marseille","lat":43.25492,"lon":5.37646,"is_reserved":false,"is_disabled":false,"rental_uris":{"android":"levelo://app?vid=ada2b11f-bf8f-4d91-9762-9ad2280ea5d6","ios":"levelo://app?vid=ada2b11f-bf8f-4d91-9762-9ad2280ea5d6"},"vehicle_type_id":"4","last_reported":1731154484,"current_range_meters":22000,"station_id":"ce4bhh12rcd13ifvqff0","pricing_plan_id":"cebpf4jnsgd1na2vs0mg"},{"bike_id":"8f3a383d-1867-430a-9620-3b30dfa52b72","system_id":"levelo_inurba_marseille","lat":43.33602,"lon":5.41022,"is_reserved":false,"is_disabled":false,"rental_uris":{"android":"levelo://app?vid=8f3a383d-1867-430a-9620-3b30dfa52b72","ios":"levelo://app?vid=8f3a383d-1867-430a-9620-3b30dfa52b72"},"vehicle_type_id":"4","last_reported":1731154484,"current_range_meters":28000,"station_id":"ce4bhqh2rcd13ifvqhmg","pricing_plan_id":"cebpf4jnsgd1na2vs0mg"},{"bike_id":"9ff3a2bc-2d09-4f82-92c7-15589532de81","system_id":"levelo_inurba_marseille","lat":43.33605,"lon":5.41025,"is_reserved":false,"is_disabled":false,"rental_uris":{"android":"levelo://app?vid=9ff3a2bc-2d09-4f82-92c7-15589532de81","ios":"levelo://app?vid=9ff3a2bc-2d09-4f82-92c7-15589532de81"},"vehicle_type_id":"4","last_reported":1731154484,"current_range_meters":16400,"station_id":"ce4bhqh2rcd13ifvqhmg","pricing_plan_id":"cebpf4jnsgd1na2vs0mg"},{"bike_id":"43dbcf2e-3b20-4e0f-ac09-64b0f1ef49b7","system_id":"levelo_inurba_marseille","lat":43.25734,"lon":5.41108,"is_reserved":false,"is_disabled":false,"rental_uris":{"android":"levelo://app?vid=43dbcf2e-3b20-4e0f-ac09-64b0f1ef49b7","ios":"levelo://app?vid=43dbcf2e-3b20-4e0f-ac09-64b0f1ef49b7"},"vehicle_type_id":"4","last_reported":1731154484,"current_range_meters":39200,"station_id":"ce4bhkp2rcd13ifvqgd0","pricing_plan_id":"cebpf4jnsgd1na2vs0mg"},{"bike_id":"60f6c847-0536-449a-a5b7-741e61397652","system_id":"levelo_inurba_marseille","lat":43.29957,"lon":5.41321,"is_reserved":false,"is_disabled":false,"rental_uris":{"android":"levelo://app?vid=60f6c847-0536-449a-a5b7-741e61397652","ios":"levelo://app?vid=60f6c847-0536-449a-a5b7-741e61397652"},"vehicle_type_id":"4","last_reported":1731154484,"current_range_meters":36000,"station_id":"ce4bhp12rcd13ifvqh9g","pricing_plan_id":"cebpf4jnsgd1na2vs0mg"},{"bike_id":"3ed67fa7-7588-4d15-a08c-0c6e59a87c16","system_id":"levelo_inurba_marseille","lat":43.27316,"lon":5.39081,"is_reserved":false,"is_disabled":false,"rental_uris":{"android":"levelo://app?vid=3ed67fa7-7588-4d15-a08c-0c6e59a87c16","ios":"levelo://app?vid=3ed67fa7-7588-4d15-a08c-0c6e59a87c16"},"vehicle_type_id":"4","last_reported":1731154484,"current_range_meters":27200,"station_id":"ce4bhgp2rcd13ifvqfe0","pricing_plan_id":"cebpf4jnsgd1na2vs0mg"},{"bike_id":"10ee6f64-d75c-4e2f-8ed0-6ee62c2a4643","system_id":"levelo_inurba_marseille","lat":43.24648,"lon":5.38881,"is_reserved":false,"is_disabled":false,"rental_uris":{"android":"levelo://app?vid=10ee6f64-d75c-4e2f-8ed0-6ee62c2a4643","ios":"levelo://app?vid=10ee6f64-d75c-4e2f-8ed0-6ee62c2a4643"},"vehicle_type_id":"4","last_reported":1731154484,"current_range_meters":16000,"station_id":"ce4bhg12rcd13ifvqf60","pricing_plan_id":"cebpf4jnsgd1na2vs0mg"},{"bike_id":"babab113-9900-4e46-ae9c-1662a85f700c","system_id":"levelo_inurba_marseille","lat":43.3025,"lon":5.40053,"is_reserved":false,"is_disabled":false,"rental_uris":{"android":"levelo://app?vid=babab113-9900-4e46-ae9c-1662a85f700c","ios":"levelo://app?vid=babab113-9900-4e46-ae9c-1662a85f700c"},"vehicle_type_id":"4","last_reported":1731154484,"current_range_meters":25200,"station_id":"ce4bgvh2rcd13ifvqcs0","pricing_plan_id":"cebpf4jnsgd1na2vs0mg"},{"bike_id":"2fcc5e1a-933e-4794-969d-323eca2ba9cd","system_id":"levelo_inurba_marseille","lat":43.29273,"lon":5.36838,"is_reserved":false,"is_disabled":false,"rental_uris":{"android":"levelo://app?vid=2fcc5e1a-933e-4794-969d-323eca2ba9cd","ios":"levelo://app?vid=2fcc5e1a-933e-4794-969d-323eca2ba9cd"},"vehicle_type_id":"4","last_reported":1731154484,"current_range_meters":29600,"station_id":"ce4bhbp2rcd13ifvqesg","pricing_plan_id":"cebpf4jnsgd1na2vs0mg"},{"bike_id":"f8e7993e-8534-4d6f-b4ba-6d5d4371e823","system_id":"levelo_inurba_marseille","lat":43.28725,"lon":5.37943,"is_reserved":false,"is_disabled":false,"rental_uris":{"android":"levelo://app?vid=f8e7993e-8534-4d6f-b4ba-6d5d4371e823","ios":"levelo://app?vid=f8e7993e-8534-4d6f-b4ba-6d5d4371e823"},"vehicle_type_id":"4","last_reported":1731154484,"current_range_meters":37600,"station_id":"ce4bh9p2rcd13ifvqec0","pricing_plan_id":"cebpf4jnsgd1na2vs0mg"},{"bike_id":"9ae20148-7f84-4ca9-881f-f3cdc365c4d8","system_id":"levelo_inurba_marseille","lat":43.28122,"lon":5.37853,"is_reserved":false,"is_disabled":false,"rental_uris":{"android":"levelo://app?vid=9ae20148-7f84-4ca9-881f-f3cdc365c4d8","ios":"levelo://app?vid=9ae20148-7f84-4ca9-881f-f3cdc365c4d8"},"vehicle_type_id":"4","last_reported":1731154484,"current_range_meters":30000,"station_id":"ce4bha12rcd13ifvqee0","pricing_plan_id":"cebpf4jnsgd1na2vs0mg"},{"bike_id":"2eda9325-c428-46b8-b8bd-82dbadfa811b","system_id":"levelo_inurba_marseille","lat":43.29968,"lon":5.38491,"is_reserved":false,"is_disabled":false,"rental_uris":{"android":"levelo://app?vid=2eda9325-c428-46b8-b8bd-82dbadfa811b","ios":"levelo://app?vid=2eda9325-c428-46b8-b8bd-82dbadfa811b"},"vehicle_type_id":"4","last_reported":1731154484,"current_range_meters":33600,"station_id":"ce4bgj92rcd13ifvqbd0","pricing_plan_id":"cebpf4jnsgd1na2vs0mg"},{"bike_id":"7dea2a02-2426-4d47-8b85-2b224882242e","system_id":"levelo_inurba_marseille","lat":43.28081,"lon":5.39663,"is_reserved":false,"is_disabled":false,"rental_uris":{"android":"levelo://app?vid=7dea2a02-2426-4d47-8b85-2b224882242e","ios":"levelo://app?vid=7dea2a02-2426-4d47-8b85-2b224882242e"},"vehicle_type_id":"4","last_reported":1731154484,"current_range_meters":35200,"station_id":"ce4bho12rcd13ifvqh2g","pricing_plan_id":"cebpf4jnsgd1na2vs0mg"},{"bike_id":"983b2b81-daed-45d3-b857-e8ee7dfe6c54","system_id":"levelo_inurba_marseille","lat":43.30246,"lon":5.40064,"is_reserved":false,"is_disabled":false,"rental_uris":{"android":"levelo://app?vid=983b2b81-daed-45d3-b857-e8ee7dfe6c54","ios":"levelo://app?vid=983b2b81-daed-45d3-b857-e8ee7dfe6c54"},"vehicle_type_id":"4","last_reported":1731154484,"current_range_meters":22400,"station_id":"ce4bgvh2rcd13ifvqcs0","pricing_plan_id":"cebpf4jnsgd1na2vs0mg"},{"bike_id":"fbc7a334-fc86-43a8-a024-022606ee5d03","system_id":"levelo_inurba_marseille","lat":43.28036,"lon":5.36952,"is_reserved":false,"is_disabled":false,"rental_uris":{"android":"levelo://app?vid=fbc7a334-fc86-43a8-a024-022606ee5d03","ios":"levelo://app?vid=fbc7a334-fc86-43a8-a024-022606ee5d03"},"vehicle_type_id":"4","last_reported":1731154484,"current_range_meters":35200,"station_id":"ce4bha12rcd13ifvqef0","pricing_plan_id":"cebpf4jnsgd1na2vs0mg"},{"bike_id":"f4ce63c6-7fab-4b8c-827d-56c1860fdcd9","system_id":"levelo_inurba_marseille","lat":43.30145,"lon":5.38071,"is_reserved":false,"is_disabled":false,"rental_uris":{"android":"levelo://app?vid=f4ce63c6-7fab-4b8c-827d-56c1860fdcd9","ios":"levelo://app?vid=f4ce63c6-7fab-4b8c-827d-56c1860fdcd9"},"vehicle_type_id":"4","last_reported":1731154484,"current_range_meters":22400,"station_id":"ce4bgjp2rcd13ifvqbh0","pricing_plan_id":"cebpf4jnsgd1na2vs0mg"},{"bike_id":"0b14bee4-7578-4f58-b62a-fb5a9ff9218a","system_id":"levelo_inurba_marseille","lat":43.26211,"lon":5.3744,"is_reserved":false,"is_disabled":false,"rental_uris":{"android":"levelo://app?vid=0b14bee4-7578-4f58-b62a-fb5a9ff9218a","ios":"levelo://app?vid=0b14bee4-7578-4f58-b62a-fb5a9ff9218a"},"vehicle_type_id":"4","last_reported":1731154484,"current_range_meters":15200,"station_id":"ce4bhgp2rcd13ifvqfc0","pricing_plan_id":"cebpf4jnsgd1na2vs0mg"},{"bike_id":"2287456b-3bda-4e56-b211-9a70d4437e24","system_id":"levelo_inurba_marseille","lat":43.30601,"lon":5.37236,"is_reserved":false,"is_disabled":false,"rental_uris":{"android":"levelo://app?vid=2287456b-3bda-4e56-b211-9a70d4437e24","ios":"levelo://app?vid=2287456b-3bda-4e56-b211-9a70d4437e24"},"vehicle_type_id":"4","last_reported":1731154484,"current_range_meters":26000,"station_id":"ce4bgqh2rcd13ifvqc4g","pricing_plan_id":"cebpf4jnsgd1na2vs0mg"},{"bike_id":"fbbe362b-7b29-4c8f-b506-484f07761f02","system_id":"levelo_inurba_marseille","lat":43.29915,"lon":5.37461,"is_reserved":false,"is_disabled":false,"rental_uris":{"android":"levelo://app?vid=fbbe362b-7b29-4c8f-b506-484f07761f02","ios":"levelo://app?vid=fbbe362b-7b29-4c8f-b506-484f07761f02"},"vehicle_type_id":"4","last_reported":1731154484,"current_range_meters":38000,"station_id":"ce4bgjh2rcd13ifvqbg0","pricing_plan_id":"cebpf4jnsgd1na2vs0mg"},{"bike_id":"253d4972-885a-4089-ba18-720027ab1cd8","system_id":"levelo_inurba_marseille","lat":43.25723,"lon":5.41104,"is_reserved":false,"is_disabled":false,"rental_uris":{"android":"levelo://app?vid=253d4972-885a-4089-ba18-720027ab1cd8","ios":"levelo://app?vid=253d4972-885a-4089-ba18-720027ab1cd8"},"vehicle_type_id":"4","last_reported":1731154484,"current_range_meters":10800,"station_id":"ce4bhkp2rcd13ifvqgd0","pricing_plan_id":"cebpf4jnsgd1na2vs0mg"},{"bike_id":"b13a67bf-1650-474c-9d0a-cfb94640b8dc","system_id":"levelo_inurba_marseille","lat":43.30311,"lon":5.36895,"is_reserved":false,"is_disabled":false,"rental_uris":{"android":"levelo://app?vid=b13a67bf-1650-474c-9d0a-cfb94640b8dc","ios":"levelo://app?vid=b13a67bf-1650-474c-9d0a-cfb94640b8dc"},"vehicle_type_id":"4","last_reported":1731154484,"current_range_meters":26800,"station_id":"ce4bgqh2rcd13ifvqc5g","pricing_plan_id":"cebpf4jnsgd1na2vs0mg"},{"bike_id":"cd87b973-318e-4d77-bb59-125d39101cbb","system_id":"levelo_inurba_marseille","lat":43.32049,"lon":5.41541,"is_reserved":false,"is_disabled":false,"rental_uris":{"android":"levelo://app?vid=cd87b973-318e-4d77-bb59-125d39101cbb","ios":"levelo://app?vid=cd87b973-318e-4d77-bb59-125d39101cbb"},"vehicle_type_id":"4","last_reported":1731154484,"current_range_meters":7200,"station_id":"ce4bhq92rcd13ifvqhkg","pricing_plan_id":"cebpf4jnsgd1na2vs0mg"},{"bike_id":"219f0ebc-ae04-44b4-9f81-81fcff2c0f34","system_id":"levelo_inurba_marseille","lat":43.31124,"lon":5.37746,"is_reserved":false,"is_disabled":false,"rental_uris":{"android":"levelo://app?vid=219f0ebc-ae04-44b4-9f81-81fcff2c0f34","ios":"levelo://app?vid=219f0ebc-ae04-44b4-9f81-81fcff2c0f34"},"vehicle_type_id":"4","last_reported":1731154484,"current_range_meters":33200,"station_id":"ce4bgt92rcd13ifvqcg0","pricing_plan_id":"cebpf4jnsgd1na2vs0mg"},{"bike_id":"6463664d-8d71-4282-8618-f2c0c195f781","system_id":"levelo_inurba_marseille","lat":43.30152,"lon":5.38078,"is_reserved":false,"is_disabled":false,"rental_uris":{"android":"levelo://app?vid=6463664d-8d71-4282-8618-f2c0c195f781","ios":"levelo://app?vid=6463664d-8d71-4282-8618-f2c0c195f781"},"vehicle_type_id":"4","last_reported":1731154484,"current_range_meters":28400,"station_id":"ce4bgjp2rcd13ifvqbh0","pricing_plan_id":"cebpf4jnsgd1na2vs0mg"},{"bike_id":"3424df2c-a0ae-4e23-b518-86ea552de7c2","system_id":"levelo_inurba_marseille","lat":43.29218,"lon":5.36053,"is_reserved":false,"is_disabled":false,"rental_uris":{"android":"levelo://app?vid=3424df2c-a0ae-4e23-b518-86ea552de7c2","ios":"levelo://app?vid=3424df2c-a0ae-4e23-b518-86ea552de7c2"},"vehicle_type_id":"4","last_reported":1731154484,"current_range_meters":35600,"station_id":"ce4bhbh2rcd13ifvqeqg","pricing_plan_id":"cebpf4jnsgd1na2vs0mg"},{"bike_id":"5f4e5b24-5d4f-4699-b0d9-a87363bbd1b5","system_id":"levelo_inurba_marseille","lat":43.29261,"lon":5.38443,"is_reserved":false,"is_disabled":false,"rental_uris":{"android":"levelo://app?vid=5f4e5b24-5d4f-4699-b0d9-a87363bbd1b5","ios":"levelo://app?vid=5f4e5b24-5d4f-4699-b0d9-a87363bbd1b5"},"vehicle_type_id":"4","last_reported":1731154484,"current_range_meters":36800,"station_id":"ce4bh692rcd13ifvqea0","pricing_plan_id":"cebpf4jnsgd1na2vs0mg"},{"bike_id":"ba4e9b3f-2a8e-4431-b57f-f6a1ee8edd37","system_id":"levelo_inurba_marseille","lat":43.30156,"lon":5.38089,"is_reserved":false,"is_disabled":false,"rental_uris":{"android":"levelo://app?vid=ba4e9b3f-2a8e-4431-b57f-f6a1ee8edd37","ios":"levelo://app?vid=ba4e9b3f-2a8e-4431-b57f-f6a1ee8edd37"},"vehicle_type_id":"4","last_reported":1731154484,"current_range_meters":20400,"station_id":"ce4bgjp2rcd13ifvqbh0","pricing_plan_id":"cebpf4jnsgd1na2vs0mg"},{"bike_id":"eb8ae82e-b5af-4e43-8b69-b135e11d1ed6","system_id":"levelo_inurba_marseille","lat":43.298948,"lon":5.436631,"is_reserved":false,"is_disabled":false,"rental_uris":{"android":"levelo://app?vid=eb8ae82e-b5af-4e43-8b69-b135e11d1ed6","ios":"levelo://app?vid=eb8ae82e-b5af-4e43-8b69-b135e11d1ed6"},"vehicle_type_id":"4","last_reported":1731154484,"current_range_meters":8000,"station_id":"ce4bhpp2rcd13ifvqhfg","pricing_plan_id":"cebpf4jnsgd1na2vs0mg"},{"bike_id":"6a33dce0-73c3-415c-8e7f-3e4dead523b5","system_id":"levelo_inurba_marseille","lat":43.32112,"lon":5.36771,"is_reserved":false,"is_disabled":false,"rental_uris":{"android":"levelo://app?vid=6a33dce0-73c3-415c-8e7f-3e4dead523b5","ios":"levelo://app?vid=6a33dce0-73c3-415c-8e7f-3e4dead523b5"},"vehicle_type_id":"4","last_reported":1731154484,"current_range_meters":32800,"station_id":"ce4bhrh2rcd13ifvqhug","pricing_plan_id":"cebpf4jnsgd1na2vs0mg"},{"bike_id":"2b95e317-ccbb-4f3e-9797-56e0e9e7cbba","system_id":"levelo_inurba_marseille","lat":43.27432,"lon":5.39403,"is_reserved":false,"is_disabled":false,"rental_uris":{"android":"levelo://app?vid=2b95e317-ccbb-4f3e-9797-56e0e9e7cbba","ios":"levelo://app?vid=2b95e317-ccbb-4f3e-9797-56e0e9e7cbba"},"vehicle_type_id":"4","last_reported":1731154484,"current_range_meters":21600,"station_id":"ce4bhdp2rcd13ifvqf20","pricing_plan_id":"cebpf4jnsgd1na2vs0mg"},{"bike_id":"35cad7ca-d168-4b9f-bd08-49f4e9fd6858","system_id":"levelo_inurba_marseille","lat":43.3374,"lon":5.37454,"is_reserved":false,"is_disabled":false,"rental_uris":{"android":"levelo://app?vid=35cad7ca-d168-4b9f-bd08-49f4e9fd6858","ios":"levelo://app?vid=35cad7ca-d168-4b9f-bd08-49f4e9fd6858"},"vehicle_type_id":"4","last_reported":1731154484,"current_range_meters":38800,"station_id":"","pricing_plan_id":"cebpf4jnsgd1na2vs0mg"},{"bike_id":"d6fdae69-642e-4d84-a8fd-edeb75ed0ef4","system_id":"levelo_inurba_marseille","lat":43.22932,"lon":5.35376,"is_reserved":false,"is_disabled":false,"rental_uris":{"android":"levelo://app?vid=d6fdae69-642e-4d84-a8fd-edeb75ed0ef4","ios":"levelo://app?vid=d6fdae69-642e-4d84-a8fd-edeb75ed0ef4"},"vehicle_type_id":"4","last_reported":1731154484,"current_range_meters":38800,"station_id":"cpo3532slgdg3j2ikp40","pricing_plan_id":"cebpf4jnsgd1na2vs0mg"},{"bike_id":"a79a3074-af69-4b3f-b288-bb8e1d4bef95","system_id":"levelo_inurba_marseille","lat":43.299293,"lon":5.374802,"is_reserved":false,"is_disabled":false,"rental_uris":{"android":"levelo://app?vid=a79a3074-af69-4b3f-b288-bb8e1d4bef95","ios":"levelo://app?vid=a79a3074-af69-4b3f-b288-bb8e1d4bef95"},"vehicle_type_id":"4","last_reported":1731154484,"current_range_meters":34800,"station_id":"ce4bgjh2rcd13ifvqbg0","pricing_plan_id":"cebpf4jnsgd1na2vs0mg"},{"bike_id":"fa6a0987-224a-4bc2-940a-f29ee1722da6","system_id":"levelo_inurba_marseille","lat":43.28613,"lon":5.35102,"is_reserved":false,"is_disabled":false,"rental_uris":{"android":"levelo://app?vid=fa6a0987-224a-4bc2-940a-f29ee1722da6","ios":"levelo://app?vid=fa6a0987-224a-4bc2-940a-f29ee1722da6"},"vehicle_type_id":"4","last_reported":1731154484,"current_range_meters":38800,"station_id":"ce4bhch2rcd13ifvqeug","pricing_plan_id":"cebpf4jnsgd1na2vs0mg"},{"bike_id":"aa418b37-204b-4e1f-bfbf-b6def751fa8f","system_id":"levelo_inurba_marseille","lat":43.29197,"lon":5.35802,"is_reserved":false,"is_disabled":false,"rental_uris":{"android":"levelo://app?vid=aa418b37-204b-4e1f-bfbf-b6def751fa8f","ios":"levelo://app?vid=aa418b37-204b-4e1f-bfbf-b6def751fa8f"},"vehicle_type_id":"4","last_reported":1731154484,"current_range_meters":38800,"station_id":"ce4bhb12rcd13ifvqel0","pricing_plan_id":"cebpf4jnsgd1na2vs0mg"},{"bike_id":"9f285834-2950-40f2-97f5-d02e66aec9bd","system_id":"levelo_inurba_marseille","lat":43.24386,"lon":5.3706,"is_reserved":false,"is_disabled":false,"rental_uris":{"android":"levelo://app?vid=9f285834-2950-40f2-97f5-d02e66aec9bd","ios":"levelo://app?vid=9f285834-2950-40f2-97f5-d02e66aec9bd"},"vehicle_type_id":"4","last_reported":1731154484,"current_range_meters":38400,"station_id":"ce4bhhh2rcd13ifvqfk0","pricing_plan_id":"cebpf4jnsgd1na2vs0mg"},{"bike_id":"403bf40c-294b-4d43-8e54-c6844de094d9","system_id":"levelo_inurba_marseille","lat":43.30539,"lon":5.38424,"is_reserved":false,"is_disabled":false,"rental_uris":{"android":"levelo://app?vid=403bf40c-294b-4d43-8e54-c6844de094d9","ios":"levelo://app?vid=403bf40c-294b-4d43-8e54-c6844de094d9"},"vehicle_type_id":"4","last_reported":1731154484,"current_range_meters":12000,"station_id":"ce4bgg92rcd13ifvqb30","pricing_plan_id":"cebpf4jnsgd1na2vs0mg"},{"bike_id":"e99d247a-1ce0-4c71-944b-d68cc3c2ab92","system_id":"levelo_inurba_marseille","lat":43.30661,"lon":5.40069,"is_reserved":false,"is_disabled":false,"rental_uris":{"android":"levelo://app?vid=e99d247a-1ce0-4c71-944b-d68cc3c2ab92","ios":"levelo://app?vid=e99d247a-1ce0-4c71-944b-d68cc3c2ab92"},"vehicle_type_id":"4","last_reported":1731154484,"current_range_meters":38800,"station_id":"ce4bh112rcd13ifvqda0","pricing_plan_id":"cebpf4jnsgd1na2vs0mg"},{"bike_id":"372178e9-f959-4487-b717-aeca2cbc18d1","system_id":"levelo_inurba_marseille","lat":43.29264,"lon":5.38449,"is_reserved":false,"is_disabled":false,"rental_uris":{"android":"levelo://app?vid=372178e9-f959-4487-b717-aeca2cbc18d1","ios":"levelo://app?vid=372178e9-f959-4487-b717-aeca2cbc18d1"},"vehicle_type_id":"4","last_reported":1731154484,"current_range_meters":22400,"station_id":"ce4bh692rcd13ifvqea0","pricing_plan_id":"cebpf4jnsgd1na2vs0mg"},{"bike_id":"448d3bf9-78cb-439a-a23b-0e48f1b89013","system_id":"levelo_inurba_marseille","lat":43.32356,"lon":5.38909,"is_reserved":false,"is_disabled":false,"rental_uris":{"android":"levelo://app?vid=448d3bf9-78cb-439a-a23b-0e48f1b89013","ios":"levelo://app?vid=448d3bf9-78cb-439a-a23b-0e48f1b89013"},"vehicle_type_id":"4","last_reported":1731154484,"current_range_meters":12000,"station_id":"ce4bhqp2rcd13ifvqhog","pricing_plan_id":"cebpf4jnsgd1na2vs0mg"},{"bike_id":"08c87c74-8ce5-4912-ab68-fb06a199a47b","system_id":"levelo_inurba_marseille","lat":43.231811,"lon":5.39987,"is_reserved":false,"is_disabled":false,"rental_uris":{"android":"levelo://app?vid=08c87c74-8ce5-4912-ab68-fb06a199a47b","ios":"levelo://app?vid=08c87c74-8ce5-4912-ab68-fb06a199a47b"},"vehicle_type_id":"4","last_reported":1731154484,"current_range_meters":38800,"station_id":"ce4bhn12rcd13ifvqgqg","pricing_plan_id":"cebpf4jnsgd1na2vs0mg"},{"bike_id":"25ff17b9-d1a2-46dc-a808-608bb0a791ce","system_id":"levelo_inurba_marseille","lat":43.29971,"lon":5.3849,"is_reserved":false,"is_disabled":false,"rental_uris":{"android":"levelo://app?vid=25ff17b9-d1a2-46dc-a808-608bb0a791ce","ios":"levelo://app?vid=25ff17b9-d1a2-46dc-a808-608bb0a791ce"},"vehicle_type_id":"4","last_reported":1731154484,"current_range_meters":27200,"station_id":"ce4bgj92rcd13ifvqbd0","pricing_plan_id":"cebpf4jnsgd1na2vs0mg"},{"bike_id":"ed041fb6-af35-4b06-8c0a-964d1a6674b3","system_id":"levelo_inurba_marseille","lat":43.306517,"lon":5.400927,"is_reserved":false,"is_disabled":false,"rental_uris":{"android":"levelo://app?vid=ed041fb6-af35-4b06-8c0a-964d1a6674b3","ios":"levelo://app?vid=ed041fb6-af35-4b06-8c0a-964d1a6674b3"},"vehicle_type_id":"4","last_reported":1731154484,"current_range_meters":36000,"station_id":"ce4bh112rcd13ifvqda0","pricing_plan_id":"cebpf4jnsgd1na2vs0mg"},{"bike_id":"c7539b92-505f-49fa-b484-3155eaa0dec2","system_id":"levelo_inurba_marseille","lat":43.30412,"lon":5.41278,"is_reserved":false,"is_disabled":false,"rental_uris":{"android":"levelo://app?vid=c7539b92-505f-49fa-b484-3155eaa0dec2","ios":"levelo://app?vid=c7539b92-505f-49fa-b484-3155eaa0dec2"},"vehicle_type_id":"4","last_reported":1731154484,"current_range_meters":35200,"station_id":"ce4bhop2rcd13ifvqh8g","pricing_plan_id":"cebpf4jnsgd1na2vs0mg"},{"bike_id":"d4e2615a-83f7-44f4-94b2-ee4cf6b17fb3","system_id":"levelo_inurba_marseille","lat":43.25088,"lon":5.39511,"is_reserved":false,"is_disabled":false,"rental_uris":{"android":"levelo://app?vid=d4e2615a-83f7-44f4-94b2-ee4cf6b17fb3","ios":"levelo://app?vid=d4e2615a-83f7-44f4-94b2-ee4cf6b17fb3"},"vehicle_type_id":"4","last_reported":1731154484,"current_range_meters":18000,"station_id":"ce4bhm12rcd13ifvqgkg","pricing_plan_id":"cebpf4jnsgd1na2vs0mg"},{"bike_id":"ae066ecb-164c-4487-9e42-b0ee2cebe73b","system_id":"levelo_inurba_marseille","lat":43.33755,"lon":5.37468,"is_reserved":false,"is_disabled":false,"rental_uris":{"android":"levelo://app?vid=ae066ecb-164c-4487-9e42-b0ee2cebe73b","ios":"levelo://app?vid=ae066ecb-164c-4487-9e42-b0ee2cebe73b"},"vehicle_type_id":"4","last_reported":1731154484,"current_range_meters":37600,"station_id":"","pricing_plan_id":"cebpf4jnsgd1na2vs0mg"},{"bike_id":"6fe0b6ea-fed3-4e1b-92d0-a5f3f71ac920","system_id":"levelo_inurba_marseille","lat":43.29521,"lon":5.37506,"is_reserved":false,"is_disabled":false,"rental_uris":{"android":"levelo://app?vid=6fe0b6ea-fed3-4e1b-92d0-a5f3f71ac920","ios":"levelo://app?vid=6fe0b6ea-fed3-4e1b-92d0-a5f3f71ac920"},"vehicle_type_id":"4","last_reported":1731154484,"current_range_meters":38000,"station_id":"ce4bgkp2rcd13ifvqbmg","pricing_plan_id":"cebpf4jnsgd1na2vs0mg"},{"bike_id":"6f33f8da-82fb-4233-8445-c05207f5575f","system_id":"levelo_inurba_marseille","lat":43.29586,"lon":5.36734,"is_reserved":false,"is_disabled":false,"rental_uris":{"android":"levelo://app?vid=6f33f8da-82fb-4233-8445-c05207f5575f","ios":"levelo://app?vid=6f33f8da-82fb-4233-8445-c05207f5575f"},"vehicle_type_id":"4","last_reported":1731154484,"current_range_meters":36800,"station_id":"ce4bgph2rcd13ifvqc2g","pricing_plan_id":"cebpf4jnsgd1na2vs0mg"},{"bike_id":"31029f1f-6cfc-419d-a9af-b9ef9f8935bf","system_id":"levelo_inurba_marseille","lat":43.29908,"lon":5.37475,"is_reserved":false,"is_disabled":false,"rental_uris":{"android":"levelo://app?vid=31029f1f-6cfc-419d-a9af-b9ef9f8935bf","ios":"levelo://app?vid=31029f1f-6cfc-419d-a9af-b9ef9f8935bf"},"vehicle_type_id":"4","last_reported":1731154484,"current_range_meters":39200,"station_id":"ce4bgjh2rcd13ifvqbg0","pricing_plan_id":"cebpf4jnsgd1na2vs0mg"},{"bike_id":"a8a9c9f6-1408-4579-b906-78406c426720","system_id":"levelo_inurba_marseille","lat":43.26951,"lon":5.38629,"is_reserved":false,"is_disabled":false,"rental_uris":{"android":"levelo://app?vid=a8a9c9f6-1408-4579-b906-78406c426720","ios":"levelo://app?vid=a8a9c9f6-1408-4579-b906-78406c426720"},"vehicle_type_id":"4","last_reported":1731154484,"current_range_meters":34000,"station_id":"ce4bhh92rcd13ifvqfh0","pricing_plan_id":"cebpf4jnsgd1na2vs0mg"},{"bike_id":"c0c9032a-c622-49cb-9162-7980a317fbc6","system_id":"levelo_inurba_marseille","lat":43.29278,"lon":5.36843,"is_reserved":false,"is_disabled":false,"rental_uris":{"android":"levelo://app?vid=c0c9032a-c622-49cb-9162-7980a317fbc6","ios":"levelo://app?vid=c0c9032a-c622-49cb-9162-7980a317fbc6"},"vehicle_type_id":"4","last_reported":1731154484,"current_range_meters":20000,"station_id":"ce4bhbp2rcd13ifvqesg","pricing_plan_id":"cebpf4jnsgd1na2vs0mg"},{"bike_id":"181fa628-fd06-4339-88f4-5d411c857699","system_id":"levelo_inurba_marseille","lat":43.2707,"lon":5.42278,"is_reserved":false,"is_disabled":false,"rental_uris":{"android":"levelo://app?vid=181fa628-fd06-4339-88f4-5d411c857699","ios":"levelo://app?vid=181fa628-fd06-4339-88f4-5d411c857699"},"vehicle_type_id":"4","last_reported":1731154484,"current_range_meters":16000,"station_id":"ce4bhk92rcd13ifvqgb0","pricing_plan_id":"cebpf4jnsgd1na2vs0mg"},{"bike_id":"5c288d69-bb8b-42a4-9e82-338525b33ce7","system_id":"levelo_inurba_marseille","lat":43.29617,"lon":5.37732,"is_reserved":false,"is_disabled":false,"rental_uris":{"android":"levelo://app?vid=5c288d69-bb8b-42a4-9e82-338525b33ce7","ios":"levelo://app?vid=5c288d69-bb8b-42a4-9e82-338525b33ce7"},"vehicle_type_id":"4","last_reported":1731154484,"current_range_meters":28400,"station_id":"ce4bgi92rcd13ifvqb90","pricing_plan_id":"cebpf4jnsgd1na2vs0mg"},{"bike_id":"b65dfbeb-c9b8-49fc-a289-688707d5ba25","system_id":"levelo_inurba_marseille","lat":43.30151,"lon":5.37734,"is_reserved":false,"is_disabled":false,"rental_uris":{"android":"levelo://app?vid=b65dfbeb-c9b8-49fc-a289-688707d5ba25","ios":"levelo://app?vid=b65dfbeb-c9b8-49fc-a289-688707d5ba25"},"vehicle_type_id":"4","last_reported":1731154484,"current_range_meters":34000,"station_id":"","pricing_plan_id":"cebpf4jnsgd1na2vs0mg"},{"bike_id":"764ab749-70ca-4b73-a35f-c0abe15547f3","system_id":"levelo_inurba_marseille","lat":43.30152,"lon":5.38088,"is_reserved":false,"is_disabled":false,"rental_uris":{"android":"levelo://app?vid=764ab749-70ca-4b73-a35f-c0abe15547f3","ios":"levelo://app?vid=764ab749-70ca-4b73-a35f-c0abe15547f3"},"vehicle_type_id":"4","last_reported":1731154484,"current_range_meters":35200,"station_id":"ce4bgjp2rcd13ifvqbh0","pricing_plan_id":"cebpf4jnsgd1na2vs0mg"},{"bike_id":"dd02dda1-0cf5-4e23-8f9a-88ca5953c398","system_id":"levelo_inurba_marseille","lat":43.25002,"lon":5.38934,"is_reserved":false,"is_disabled":false,"rental_uris":{"android":"levelo://app?vid=dd02dda1-0cf5-4e23-8f9a-88ca5953c398","ios":"levelo://app?vid=dd02dda1-0cf5-4e23-8f9a-88ca5953c398"},"vehicle_type_id":"4","last_reported":1731154484,"current_range_meters":12800,"station_id":"ce4bhgp2rcd13ifvqfd0","pricing_plan_id":"cebpf4jnsgd1na2vs0mg"},{"bike_id":"b31453d8-c8db-4ba3-a055-a388617b526e","system_id":"levelo_inurba_marseille","lat":43.28148,"lon":5.42641,"is_reserved":false,"is_disabled":false,"rental_uris":{"android":"levelo://app?vid=b31453d8-c8db-4ba3-a055-a388617b526e","ios":"levelo://app?vid=b31453d8-c8db-4ba3-a055-a388617b526e"},"vehicle_type_id":"4","last_reported":1731154484,"current_range_meters":36000,"station_id":"ce4bhnh2rcd13ifvqgug","pricing_plan_id":"cebpf4jnsgd1na2vs0mg"},{"bike_id":"e0352fab-c635-4c7a-87d9-f615c078509d","system_id":"levelo_inurba_marseille","lat":43.32479,"lon":5.36568,"is_reserved":false,"is_disabled":false,"rental_uris":{"android":"levelo://app?vid=e0352fab-c635-4c7a-87d9-f615c078509d","ios":"levelo://app?vid=e0352fab-c635-4c7a-87d9-f615c078509d"},"vehicle_type_id":"4","last_reported":1731154484,"current_range_meters":38800,"station_id":"ce4bhs12rcd13ifvqhvg","pricing_plan_id":"cebpf4jnsgd1na2vs0mg"},{"bike_id":"c11f357c-d79a-45d0-936f-94a77be858bd","system_id":"levelo_inurba_marseille","lat":43.30471,"lon":5.37894,"is_reserved":false,"is_disabled":false,"rental_uris":{"android":"levelo://app?vid=c11f357c-d79a-45d0-936f-94a77be858bd","ios":"levelo://app?vid=c11f357c-d79a-45d0-936f-94a77be858bd"},"vehicle_type_id":"4","last_reported":1731154484,"current_range_meters":28000,"station_id":"ce4bgup2rcd13ifvqcn0","pricing_plan_id":"cebpf4jnsgd1na2vs0mg"},{"bike_id":"5b3a1308-398b-44c7-8cd1-71eb7b9dbcc6","system_id":"levelo_inurba_marseille","lat":43.29556,"lon":5.4229,"is_reserved":false,"is_disabled":false,"rental_uris":{"android":"levelo://app?vid=5b3a1308-398b-44c7-8cd1-71eb7b9dbcc6","ios":"levelo://app?vid=5b3a1308-398b-44c7-8cd1-71eb7b9dbcc6"},"vehicle_type_id":"4","last_reported":1731154484,"current_range_meters":4400,"station_id":"ce4bhph2rcd13ifvqhdg","pricing_plan_id":"cebpf4jnsgd1na2vs0mg"},{"bike_id":"524682e2-9d16-466a-b764-2be516daceb3","system_id":"levelo_inurba_marseille","lat":43.29028,"lon":5.38635,"is_reserved":false,"is_disabled":false,"rental_uris":{"android":"levelo://app?vid=524682e2-9d16-466a-b764-2be516daceb3","ios":"levelo://app?vid=524682e2-9d16-466a-b764-2be516daceb3"},"vehicle_type_id":"4","last_reported":1731154484,"current_range_meters":16800,"station_id":"ce4bh4p2rcd13ifvqe0g","pricing_plan_id":"cebpf4jnsgd1na2vs0mg"},{"bike_id":"2ca61654-9c49-4664-a59c-2f161d44cbb0","system_id":"levelo_inurba_marseille","lat":43.25085,"lon":5.39519,"is_reserved":false,"is_disabled":false,"rental_uris":{"android":"levelo://app?vid=2ca61654-9c49-4664-a59c-2f161d44cbb0","ios":"levelo://app?vid=2ca61654-9c49-4664-a59c-2f161d44cbb0"},"vehicle_type_id":"4","last_reported":1731154484,"current_range_meters":27600,"station_id":"ce4bhm12rcd13ifvqgkg","pricing_plan_id":"cebpf4jnsgd1na2vs0mg"},{"bike_id":"774649b8-3eb5-4e5a-bdc0-8cf43dfb86a6","system_id":"levelo_inurba_marseille","lat":43.24652,"lon":5.38893,"is_reserved":false,"is_disabled":false,"rental_uris":{"android":"levelo://app?vid=774649b8-3eb5-4e5a-bdc0-8cf43dfb86a6","ios":"levelo://app?vid=774649b8-3eb5-4e5a-bdc0-8cf43dfb86a6"},"vehicle_type_id":"4","last_reported":1731154484,"current_range_meters":28400,"station_id":"ce4bhg12rcd13ifvqf60","pricing_plan_id":"cebpf4jnsgd1na2vs0mg"},{"bike_id":"9d291c5d-07c9-471b-b1f2-df5c113ecdb3","system_id":"levelo_inurba_marseille","lat":43.3066,"lon":5.40072,"is_reserved":false,"is_disabled":false,"rental_uris":{"android":"levelo://app?vid=9d291c5d-07c9-471b-b1f2-df5c113ecdb3","ios":"levelo://app?vid=9d291c5d-07c9-471b-b1f2-df5c113ecdb3"},"vehicle_type_id":"4","last_reported":1731154484,"current_range_meters":38800,"station_id":"ce4bh112rcd13ifvqda0","pricing_plan_id":"cebpf4jnsgd1na2vs0mg"},{"bike_id":"65a1b030-cedd-4ff2-8f58-0dd8d4aa1c01","system_id":"levelo_inurba_marseille","lat":43.27995,"lon":5.40019,"is_reserved":false,"is_disabled":false,"rental_uris":{"android":"levelo://app?vid=65a1b030-cedd-4ff2-8f58-0dd8d4aa1c01","ios":"levelo://app?vid=65a1b030-cedd-4ff2-8f58-0dd8d4aa1c01"},"vehicle_type_id":"4","last_reported":1731154484,"current_range_meters":39200,"station_id":"ce4bho92rcd13ifvqh4g","pricing_plan_id":"cebpf4jnsgd1na2vs0mg"},{"bike_id":"16f0f65c-0669-48c2-8b88-c14a9f2b1043","system_id":"levelo_inurba_marseille","lat":43.292856,"lon":5.374668,"is_reserved":false,"is_disabled":false,"rental_uris":{"android":"levelo://app?vid=16f0f65c-0669-48c2-8b88-c14a9f2b1043","ios":"levelo://app?vid=16f0f65c-0669-48c2-8b88-c14a9f2b1043"},"vehicle_type_id":"4","last_reported":1731154484,"current_range_meters":35600,"station_id":"ce4bgi12rcd13ifvqb70","pricing_plan_id":"cebpf4jnsgd1na2vs0mg"},{"bike_id":"384cb49b-2903-4060-ba45-053ad32bcb68","system_id":"levelo_inurba_marseille","lat":43.29574,"lon":5.37512,"is_reserved":false,"is_disabled":false,"rental_uris":{"android":"levelo://app?vid=384cb49b-2903-4060-ba45-053ad32bcb68","ios":"levelo://app?vid=384cb49b-2903-4060-ba45-053ad32bcb68"},"vehicle_type_id":"4","last_reported":1731154484,"current_range_meters":22400,"station_id":"ce4bgh92rcd13ifvqb50","pricing_plan_id":"cebpf4jnsgd1na2vs0mg"},{"bike_id":"b2cbe124-e9e9-4203-8080-c24b9a55d574","system_id":"levelo_inurba_marseille","lat":43.24076,"lon":5.37759,"is_reserved":false,"is_disabled":false,"rental_uris":{"android":"levelo://app?vid=b2cbe124-e9e9-4203-8080-c24b9a55d574","ios":"levelo://app?vid=b2cbe124-e9e9-4203-8080-c24b9a55d574"},"vehicle_type_id":"4","last_reported":1731154484,"current_range_meters":35600,"station_id":"ce4bhnp2rcd13ifvqgvg","pricing_plan_id":"cebpf4jnsgd1na2vs0mg"},{"bike_id":"4adc051b-cab2-444f-a4c6-933d4708baf0","system_id":"levelo_inurba_marseille","lat":43.31719,"lon":5.42401,"is_reserved":false,"is_disabled":false,"rental_uris":{"android":"levelo://app?vid=4adc051b-cab2-444f-a4c6-933d4708baf0","ios":"levelo://app?vid=4adc051b-cab2-444f-a4c6-933d4708baf0"},"vehicle_type_id":"4","last_reported":1731154484,"current_range_meters":8800,"station_id":"ce4bhp92rcd13ifvqhbg","pricing_plan_id":"cebpf4jnsgd1na2vs0mg"},{"bike_id":"bc14f84f-871d-4faa-a3e8-565342d8fc32","system_id":"levelo_inurba_marseille","lat":43.336073,"lon":5.410287,"is_reserved":false,"is_disabled":false,"rental_uris":{"android":"levelo://app?vid=bc14f84f-871d-4faa-a3e8-565342d8fc32","ios":"levelo://app?vid=bc14f84f-871d-4faa-a3e8-565342d8fc32"},"vehicle_type_id":"4","last_reported":1731154484,"current_range_meters":18000,"station_id":"ce4bhqh2rcd13ifvqhmg","pricing_plan_id":"cebpf4jnsgd1na2vs0mg"},{"bike_id":"54f46eca-231b-4d4c-b044-5bfe4abbbaba","system_id":"levelo_inurba_marseille","lat":43.30476,"lon":5.37911,"is_reserved":false,"is_disabled":false,"rental_uris":{"android":"levelo://app?vid=54f46eca-231b-4d4c-b044-5bfe4abbbaba","ios":"levelo://app?vid=54f46eca-231b-4d4c-b044-5bfe4abbbaba"},"vehicle_type_id":"4","last_reported":1731154484,"current_range_meters":38800,"station_id":"ce4bgup2rcd13ifvqcn0","pricing_plan_id":"cebpf4jnsgd1na2vs0mg"},{"bike_id":"a61dfdc8-8032-4e2b-8bea-d0f6a2b05b1f","system_id":"levelo_inurba_marseille","lat":43.2396,"lon":5.3663,"is_reserved":false,"is_disabled":false,"rental_uris":{"android":"levelo://app?vid=a61dfdc8-8032-4e2b-8bea-d0f6a2b05b1f","ios":"levelo://app?vid=a61dfdc8-8032-4e2b-8bea-d0f6a2b05b1f"},"vehicle_type_id":"4","last_reported":1731154484,"current_range_meters":36800,"station_id":"ce4bhi12rcd13ifvqfp0","pricing_plan_id":"cebpf4jnsgd1na2vs0mg"},{"bike_id":"e8e399f8-8ecc-4e1b-9208-a7a553b9826a","system_id":"levelo_inurba_marseille","lat":43.23184,"lon":5.39991,"is_reserved":false,"is_disabled":false,"rental_uris":{"android":"levelo://app?vid=e8e399f8-8ecc-4e1b-9208-a7a553b9826a","ios":"levelo://app?vid=e8e399f8-8ecc-4e1b-9208-a7a553b9826a"},"vehicle_type_id":"4","last_reported":1731154484,"current_range_meters":14800,"station_id":"ce4bhn12rcd13ifvqgqg","pricing_plan_id":"cebpf4jnsgd1na2vs0mg"},{"bike_id":"4b1cbe99-16d7-42e0-9484-bf40436e4d60","system_id":"levelo_inurba_marseille","lat":43.29274,"lon":5.36839,"is_reserved":false,"is_disabled":false,"rental_uris":{"android":"levelo://app?vid=4b1cbe99-16d7-42e0-9484-bf40436e4d60","ios":"levelo://app?vid=4b1cbe99-16d7-42e0-9484-bf40436e4d60"},"vehicle_type_id":"4","last_reported":1731154484,"current_range_meters":21600,"station_id":"ce4bhbp2rcd13ifvqesg","pricing_plan_id":"cebpf4jnsgd1na2vs0mg"},{"bike_id":"6bf91cee-36bc-4259-a139-82597856edff","system_id":"levelo_inurba_marseille","lat":43.3171,"lon":5.37745,"is_reserved":false,"is_disabled":false,"rental_uris":{"android":"levelo://app?vid=6bf91cee-36bc-4259-a139-82597856edff","ios":"levelo://app?vid=6bf91cee-36bc-4259-a139-82597856edff"},"vehicle_type_id":"4","last_reported":1731154484,"current_range_meters":38000,"station_id":"ce4bgth2rcd13ifvqch0","pricing_plan_id":"cebpf4jnsgd1na2vs0mg"},{"bike_id":"f52e1dc5-9e0a-4918-a85e-0347dc29de69","system_id":"levelo_inurba_marseille","lat":43.23965,"lon":5.36632,"is_reserved":false,"is_disabled":false,"rental_uris":{"android":"levelo://app?vid=f52e1dc5-9e0a-4918-a85e-0347dc29de69","ios":"levelo://app?vid=f52e1dc5-9e0a-4918-a85e-0347dc29de69"},"vehicle_type_id":"4","last_reported":1731154484,"current_range_meters":8000,"station_id":"ce4bhi12rcd13ifvqfp0","pricing_plan_id":"cebpf4jnsgd1na2vs0mg"},{"bike_id":"79b39923-b687-4420-a58b-1f85feafef16","system_id":"levelo_inurba_marseille","lat":43.29909,"lon":5.37475,"is_reserved":false,"is_disabled":false,"rental_uris":{"android":"levelo://app?vid=79b39923-b687-4420-a58b-1f85feafef16","ios":"levelo://app?vid=79b39923-b687-4420-a58b-1f85feafef16"},"vehicle_type_id":"4","last_reported":1731154484,"current_range_meters":38800,"station_id":"ce4bgjh2rcd13ifvqbg0","pricing_plan_id":"cebpf4jnsgd1na2vs0mg"},{"bike_id":"f17fb204-5529-4b65-acf9-98fe27fc52eb","system_id":"levelo_inurba_marseille","lat":43.28668,"lon":5.36354,"is_reserved":false,"is_disabled":false,"rental_uris":{"android":"levelo://app?vid=f17fb204-5529-4b65-acf9-98fe27fc52eb","ios":"levelo://app?vid=f17fb204-5529-4b65-acf9-98fe27fc52eb"},"vehicle_type_id":"4","last_reported":1731154484,"current_range_meters":37600,"station_id":"ce4bhah2rcd13ifvqej0","pricing_plan_id":"cebpf4jnsgd1na2vs0mg"},{"bike_id":"a3cc3458-b498-4eb7-8c2b-cf0b3c762eb9","system_id":"levelo_inurba_marseille","lat":43.27489,"lon":5.42447,"is_reserved":false,"is_disabled":false,"rental_uris":{"android":"levelo://app?vid=a3cc3458-b498-4eb7-8c2b-cf0b3c762eb9","ios":"levelo://app?vid=a3cc3458-b498-4eb7-8c2b-cf0b3c762eb9"},"vehicle_type_id":"4","last_reported":1731154484,"current_range_meters":18800,"station_id":"ce4bhn92rcd13ifvqgrg","pricing_plan_id":"cebpf4jnsgd1na2vs0mg"},{"bike_id":"0b74ce83-e6b1-4485-8ca6-3897f29a426e","system_id":"levelo_inurba_marseille","lat":43.23952,"lon":5.36624,"is_reserved":false,"is_disabled":false,"rental_uris":{"android":"levelo://app?vid=0b74ce83-e6b1-4485-8ca6-3897f29a426e","ios":"levelo://app?vid=0b74ce83-e6b1-4485-8ca6-3897f29a426e"},"vehicle_type_id":"4","last_reported":1731154484,"current_range_meters":16400,"station_id":"ce4bhi12rcd13ifvqfp0","pricing_plan_id":"cebpf4jnsgd1na2vs0mg"},{"bike_id":"d786ca1c-e1f8-45b8-bd4f-895655a6fd05","system_id":"levelo_inurba_marseille","lat":43.27945,"lon":5.41054,"is_reserved":false,"is_disabled":false,"rental_uris":{"android":"levelo://app?vid=d786ca1c-e1f8-45b8-bd4f-895655a6fd05","ios":"levelo://app?vid=d786ca1c-e1f8-45b8-bd4f-895655a6fd05"},"vehicle_type_id":"4","last_reported":1731154484,"current_range_meters":38800,"station_id":"ce4bhnp2rcd13ifvqh0g","pricing_plan_id":"cebpf4jnsgd1na2vs0mg"},{"bike_id":"02a51c0b-e706-49e8-9cb9-56d1f275d72d","system_id":"levelo_inurba_marseille","lat":43.31222,"lon":5.36858,"is_reserved":false,"is_disabled":false,"rental_uris":{"android":"levelo://app?vid=02a51c0b-e706-49e8-9cb9-56d1f275d72d","ios":"levelo://app?vid=02a51c0b-e706-49e8-9cb9-56d1f275d72d"},"vehicle_type_id":"4","last_reported":1731154484,"current_range_meters":24800,"station_id":"ce4bgl92rcd13ifvqbq0","pricing_plan_id":"cebpf4jnsgd1na2vs0mg"},{"bike_id":"17add567-4ec3-49a7-ad71-1771273b13b8","system_id":"levelo_inurba_marseille","lat":43.25001,"lon":5.38922,"is_reserved":false,"is_disabled":false,"rental_uris":{"android":"levelo://app?vid=17add567-4ec3-49a7-ad71-1771273b13b8","ios":"levelo://app?vid=17add567-4ec3-49a7-ad71-1771273b13b8"},"vehicle_type_id":"4","last_reported":1731154484,"current_range_meters":13600,"station_id":"ce4bhgp2rcd13ifvqfd0","pricing_plan_id":"cebpf4jnsgd1na2vs0mg"},{"bike_id":"f94bdcbe-9a46-4c5f-879c-d5fc8c43084c","system_id":"levelo_inurba_marseille","lat":43.33019,"lon":5.39032,"is_reserved":false,"is_disabled":false,"rental_uris":{"android":"levelo://app?vid=f94bdcbe-9a46-4c5f-879c-d5fc8c43084c","ios":"levelo://app?vid=f94bdcbe-9a46-4c5f-879c-d5fc8c43084c"},"vehicle_type_id":"4","last_reported":1731154484,"current_range_meters":39200,"station_id":"ce4bhr92rcd13ifvqhrg","pricing_plan_id":"cebpf4jnsgd1na2vs0mg"},{"bike_id":"737e318d-f108-4c95-991e-c706599395c0","system_id":"levelo_inurba_marseille","lat":43.30159,"lon":5.38083,"is_reserved":false,"is_disabled":false,"rental_uris":{"android":"levelo://app?vid=737e318d-f108-4c95-991e-c706599395c0","ios":"levelo://app?vid=737e318d-f108-4c95-991e-c706599395c0"},"vehicle_type_id":"4","last_reported":1731154484,"current_range_meters":34800,"station_id":"ce4bgjp2rcd13ifvqbh0","pricing_plan_id":"cebpf4jnsgd1na2vs0mg"},{"bike_id":"48381820-feac-4dad-b5f8-2a28183cfbb4","system_id":"levelo_inurba_marseille","lat":43.29287,"lon":5.37449,"is_reserved":false,"is_disabled":false,"rental_uris":{"android":"levelo://app?vid=48381820-feac-4dad-b5f8-2a28183cfbb4","ios":"levelo://app?vid=48381820-feac-4dad-b5f8-2a28183cfbb4"},"vehicle_type_id":"4","last_reported":1731154484,"current_range_meters":37600,"station_id":"ce4bgi12rcd13ifvqb70","pricing_plan_id":"cebpf4jnsgd1na2vs0mg"},{"bike_id":"3db43e91-a260-4c6c-ab05-9f642fd605d2","system_id":"levelo_inurba_marseille","lat":43.31495,"lon":5.37311,"is_reserved":false,"is_disabled":false,"rental_uris":{"android":"levelo://app?vid=3db43e91-a260-4c6c-ab05-9f642fd605d2","ios":"levelo://app?vid=3db43e91-a260-4c6c-ab05-9f642fd605d2"},"vehicle_type_id":"4","last_reported":1731154484,"current_range_meters":38400,"station_id":"ce4bgt12rcd13ifvqcd0","pricing_plan_id":"cebpf4jnsgd1na2vs0mg"},{"bike_id":"53efe8b7-2ba7-4422-bff6-917b17988cc1","system_id":"levelo_inurba_marseille","lat":43.30184,"lon":5.36591,"is_reserved":false,"is_disabled":false,"rental_uris":{"android":"levelo://app?vid=53efe8b7-2ba7-4422-bff6-917b17988cc1","ios":"levelo://app?vid=53efe8b7-2ba7-4422-bff6-917b17988cc1"},"vehicle_type_id":"4","last_reported":1731154484,"current_range_meters":36800,"station_id":"ce4bgrh2rcd13ifvqc8g","pricing_plan_id":"cebpf4jnsgd1na2vs0mg"},{"bike_id":"80f62741-7ab8-46ea-9fc3-06999e7bc961","system_id":"levelo_inurba_marseille","lat":43.297495,"lon":5.397391,"is_reserved":false,"is_disabled":false,"rental_uris":{"android":"levelo://app?vid=80f62741-7ab8-46ea-9fc3-06999e7bc961","ios":"levelo://app?vid=80f62741-7ab8-46ea-9fc3-06999e7bc961"},"vehicle_type_id":"4","last_reported":1731154484,"current_range_meters":30000,"station_id":"ce4bh312rcd13ifvqdj0","pricing_plan_id":"cebpf4jnsgd1na2vs0mg"},{"bike_id":"71684031-bf95-4fd4-bc38-0f4a696a2564","system_id":"levelo_inurba_marseille","lat":43.28418,"lon":5.3499,"is_reserved":false,"is_disabled":false,"rental_uris":{"android":"levelo://app?vid=71684031-bf95-4fd4-bc38-0f4a696a2564","ios":"levelo://app?vid=71684031-bf95-4fd4-bc38-0f4a696a2564"},"vehicle_type_id":"4","last_reported":1731154484,"current_range_meters":37600,"station_id":"ce4bhbh2rcd13ifvqepg","pricing_plan_id":"cebpf4jnsgd1na2vs0mg"},{"bike_id":"974c909c-347c-47ad-8077-be0f2fc8aa91","system_id":"levelo_inurba_marseille","lat":43.31123,"lon":5.37768,"is_reserved":false,"is_disabled":false,"rental_uris":{"android":"levelo://app?vid=974c909c-347c-47ad-8077-be0f2fc8aa91","ios":"levelo://app?vid=974c909c-347c-47ad-8077-be0f2fc8aa91"},"vehicle_type_id":"4","last_reported":1731154484,"current_range_meters":31200,"station_id":"ce4bgt92rcd13ifvqcg0","pricing_plan_id":"cebpf4jnsgd1na2vs0mg"},{"bike_id":"54c2dec2-48c7-432d-aa18-2348428c9daf","system_id":"levelo_inurba_marseille","lat":43.28156,"lon":5.42637,"is_reserved":false,"is_disabled":false,"rental_uris":{"android":"levelo://app?vid=54c2dec2-48c7-432d-aa18-2348428c9daf","ios":"levelo://app?vid=54c2dec2-48c7-432d-aa18-2348428c9daf"},"vehicle_type_id":"4","last_reported":1731154484,"current_range_meters":20000,"station_id":"ce4bhnh2rcd13ifvqgug","pricing_plan_id":"cebpf4jnsgd1na2vs0mg"},{"bike_id":"df7bb7f4-26c3-4969-a762-61acd785a504","system_id":"levelo_inurba_marseille","lat":43.2857,"lon":5.39504,"is_reserved":false,"is_disabled":false,"rental_uris":{"android":"levelo://app?vid=df7bb7f4-26c3-4969-a762-61acd785a504","ios":"levelo://app?vid=df7bb7f4-26c3-4969-a762-61acd785a504"},"vehicle_type_id":"4","last_reported":1731154484,"current_range_meters":17600,"station_id":"ce4bh292rcd13ifvqdg0","pricing_plan_id":"cebpf4jnsgd1na2vs0mg"},{"bike_id":"c4ac4c63-a5eb-4aaf-9c56-c345e5d69305","system_id":"levelo_inurba_marseille","lat":43.32481,"lon":5.36573,"is_reserved":false,"is_disabled":false,"rental_uris":{"android":"levelo://app?vid=c4ac4c63-a5eb-4aaf-9c56-c345e5d69305","ios":"levelo://app?vid=c4ac4c63-a5eb-4aaf-9c56-c345e5d69305"},"vehicle_type_id":"4","last_reported":1731154484,"current_range_meters":37600,"station_id":"ce4bhs12rcd13ifvqhvg","pricing_plan_id":"cebpf4jnsgd1na2vs0mg"},{"bike_id":"2e08df3f-3397-4bd5-ae42-584adb0fb0bf","system_id":"levelo_inurba_marseille","lat":43.30794,"lon":5.37649,"is_reserved":false,"is_disabled":false,"rental_uris":{"android":"levelo://app?vid=2e08df3f-3397-4bd5-ae42-584adb0fb0bf","ios":"levelo://app?vid=2e08df3f-3397-4bd5-ae42-584adb0fb0bf"},"vehicle_type_id":"4","last_reported":1731154484,"current_range_meters":17200,"station_id":"ce4bgv92rcd13ifvqcq0","pricing_plan_id":"cebpf4jnsgd1na2vs0mg"},{"bike_id":"e25587c6-877f-4f52-8c15-cc2c600702de","system_id":"levelo_inurba_marseille","lat":43.25085,"lon":5.39523,"is_reserved":false,"is_disabled":false,"rental_uris":{"android":"levelo://app?vid=e25587c6-877f-4f52-8c15-cc2c600702de","ios":"levelo://app?vid=e25587c6-877f-4f52-8c15-cc2c600702de"},"vehicle_type_id":"4","last_reported":1731154484,"current_range_meters":30400,"station_id":"ce4bhm12rcd13ifvqgkg","pricing_plan_id":"cebpf4jnsgd1na2vs0mg"},{"bike_id":"db19f669-243d-496d-acc6-4a686efac5dd","system_id":"levelo_inurba_marseille","lat":43.30473,"lon":5.3791,"is_reserved":false,"is_disabled":false,"rental_uris":{"android":"levelo://app?vid=db19f669-243d-496d-acc6-4a686efac5dd","ios":"levelo://app?vid=db19f669-243d-496d-acc6-4a686efac5dd"},"vehicle_type_id":"4","last_reported":1731154484,"current_range_meters":29600,"station_id":"ce4bgup2rcd13ifvqcn0","pricing_plan_id":"cebpf4jnsgd1na2vs0mg"},{"bike_id":"4c112899-9ae5-4a38-b2c1-3cb363c8b817","system_id":"levelo_inurba_marseille","lat":43.26954,"lon":5.38628,"is_reserved":false,"is_disabled":false,"rental_uris":{"android":"levelo://app?vid=4c112899-9ae5-4a38-b2c1-3cb363c8b817","ios":"levelo://app?vid=4c112899-9ae5-4a38-b2c1-3cb363c8b817"},"vehicle_type_id":"4","last_reported":1731154484,"current_range_meters":38400,"station_id":"ce4bhh92rcd13ifvqfh0","pricing_plan_id":"cebpf4jnsgd1na2vs0mg"},{"bike_id":"d02b68f3-b750-4589-b9b1-f3bc7cf6b1d6","system_id":"levelo_inurba_marseille","lat":43.3248,"lon":5.36559,"is_reserved":false,"is_disabled":false,"rental_uris":{"android":"levelo://app?vid=d02b68f3-b750-4589-b9b1-f3bc7cf6b1d6","ios":"levelo://app?vid=d02b68f3-b750-4589-b9b1-f3bc7cf6b1d6"},"vehicle_type_id":"4","last_reported":1731154484,"current_range_meters":38800,"station_id":"ce4bhs12rcd13ifvqhvg","pricing_plan_id":"cebpf4jnsgd1na2vs0mg"},{"bike_id":"69d38419-f915-4ada-a460-f28c05bf4ad2","system_id":"levelo_inurba_marseille","lat":43.27069,"lon":5.42277,"is_reserved":false,"is_disabled":false,"rental_uris":{"android":"levelo://app?vid=69d38419-f915-4ada-a460-f28c05bf4ad2","ios":"levelo://app?vid=69d38419-f915-4ada-a460-f28c05bf4ad2"},"vehicle_type_id":"4","last_reported":1731154484,"current_range_meters":39200,"station_id":"ce4bhk92rcd13ifvqgb0","pricing_plan_id":"cebpf4jnsgd1na2vs0mg"},{"bike_id":"d115c69c-dc61-4019-86ca-8f3ef1285cfb","system_id":"levelo_inurba_marseille","lat":43.22932,"lon":5.35373,"is_reserved":false,"is_disabled":false,"rental_uris":{"android":"levelo://app?vid=d115c69c-dc61-4019-86ca-8f3ef1285cfb","ios":"levelo://app?vid=d115c69c-dc61-4019-86ca-8f3ef1285cfb"},"vehicle_type_id":"4","last_reported":1731154484,"current_range_meters":32000,"station_id":"cpo3532slgdg3j2ikp40","pricing_plan_id":"cebpf4jnsgd1na2vs0mg"},{"bike_id":"1843914f-a536-46a6-bf98-e168143a7c78","system_id":"levelo_inurba_marseille","lat":43.25584,"lon":5.38243,"is_reserved":false,"is_disabled":false,"rental_uris":{"android":"levelo://app?vid=1843914f-a536-46a6-bf98-e168143a7c78","ios":"levelo://app?vid=1843914f-a536-46a6-bf98-e168143a7c78"},"vehicle_type_id":"4","last_reported":1731154484,"current_range_meters":8000,"station_id":"ce4bhih2rcd13ifvqfs0","pricing_plan_id":"cebpf4jnsgd1na2vs0mg"},{"bike_id":"7643d5f6-1000-4e84-ae3f-2ac4dc6b4fcd","system_id":"levelo_inurba_marseille","lat":43.24071,"lon":5.37754,"is_reserved":false,"is_disabled":false,"rental_uris":{"android":"levelo://app?vid=7643d5f6-1000-4e84-ae3f-2ac4dc6b4fcd","ios":"levelo://app?vid=7643d5f6-1000-4e84-ae3f-2ac4dc6b4fcd"},"vehicle_type_id":"4","last_reported":1731154484,"current_range_meters":20400,"station_id":"ce4bhnp2rcd13ifvqgvg","pricing_plan_id":"cebpf4jnsgd1na2vs0mg"},{"bike_id":"e8f47d6d-6a08-45f1-9b5a-33b21e6c4062","system_id":"levelo_inurba_marseille","lat":43.29031,"lon":5.38645,"is_reserved":false,"is_disabled":false,"rental_uris":{"android":"levelo://app?vid=e8f47d6d-6a08-45f1-9b5a-33b21e6c4062","ios":"levelo://app?vid=e8f47d6d-6a08-45f1-9b5a-33b21e6c4062"},"vehicle_type_id":"4","last_reported":1731154484,"current_range_meters":34800,"station_id":"ce4bh4p2rcd13ifvqe0g","pricing_plan_id":"cebpf4jnsgd1na2vs0mg"},{"bike_id":"92c1c28d-c1db-45c9-9a43-64b04c4125bb","system_id":"levelo_inurba_marseille","lat":43.27574,"lon":5.38416,"is_reserved":false,"is_disabled":false,"rental_uris":{"android":"levelo://app?vid=92c1c28d-c1db-45c9-9a43-64b04c4125bb","ios":"levelo://app?vid=92c1c28d-c1db-45c9-9a43-64b04c4125bb"},"vehicle_type_id":"4","last_reported":1731154484,"current_range_meters":38000,"station_id":"ce4bhh92rcd13ifvqfi0","pricing_plan_id":"cebpf4jnsgd1na2vs0mg"},{"bike_id":"be94c940-c56d-4132-af66-fedb762b3e0f","system_id":"levelo_inurba_marseille","lat":43.23189,"lon":5.35562,"is_reserved":false,"is_disabled":false,"rental_uris":{"android":"levelo://app?vid=be94c940-c56d-4132-af66-fedb762b3e0f","ios":"levelo://app?vid=be94c940-c56d-4132-af66-fedb762b3e0f"},"vehicle_type_id":"4","last_reported":1731154484,"current_range_meters":37600,"station_id":"ce4bhu92rcd13ifvqi70","pricing_plan_id":"cebpf4jnsgd1na2vs0mg"},{"bike_id":"0cea8565-ae31-47df-82c7-9b4610846520","system_id":"levelo_inurba_marseille","lat":43.29973,"lon":5.37172,"is_reserved":false,"is_disabled":false,"rental_uris":{"android":"levelo://app?vid=0cea8565-ae31-47df-82c7-9b4610846520","ios":"levelo://app?vid=0cea8565-ae31-47df-82c7-9b4610846520"},"vehicle_type_id":"4","last_reported":1731154484,"current_range_meters":39200,"station_id":"ce4bgr92rcd13ifvqc7g","pricing_plan_id":"cebpf4jnsgd1na2vs0mg"},{"bike_id":"ffc639e0-ab74-412e-9ba0-dd9807811e48","system_id":"levelo_inurba_marseille","lat":43.29076,"lon":5.3716,"is_reserved":false,"is_disabled":false,"rental_uris":{"android":"levelo://app?vid=ffc639e0-ab74-412e-9ba0-dd9807811e48","ios":"levelo://app?vid=ffc639e0-ab74-412e-9ba0-dd9807811e48"},"vehicle_type_id":"4","last_reported":1731154484,"current_range_meters":14400,"station_id":"ce4bh5p2rcd13ifvqe4g","pricing_plan_id":"cebpf4jnsgd1na2vs0mg"},{"bike_id":"59e81dfc-1429-4ec4-9bb9-0995496a9d68","system_id":"levelo_inurba_marseille","lat":43.29297,"lon":5.37453,"is_reserved":false,"is_disabled":false,"rental_uris":{"android":"levelo://app?vid=59e81dfc-1429-4ec4-9bb9-0995496a9d68","ios":"levelo://app?vid=59e81dfc-1429-4ec4-9bb9-0995496a9d68"},"vehicle_type_id":"4","last_reported":1731154484,"current_range_meters":31200,"station_id":"ce4bgi12rcd13ifvqb70","pricing_plan_id":"cebpf4jnsgd1na2vs0mg"},{"bike_id":"ae255d2b-6bc0-411a-bb67-99424e13ba8e","system_id":"levelo_inurba_marseille","lat":43.24383,"lon":5.37052,"is_reserved":false,"is_disabled":false,"rental_uris":{"android":"levelo://app?vid=ae255d2b-6bc0-411a-bb67-99424e13ba8e","ios":"levelo://app?vid=ae255d2b-6bc0-411a-bb67-99424e13ba8e"},"vehicle_type_id":"4","last_reported":1731154484,"current_range_meters":16400,"station_id":"ce4bhhh2rcd13ifvqfk0","pricing_plan_id":"cebpf4jnsgd1na2vs0mg"},{"bike_id":"2e446222-4ce8-40fc-a3a2-8b448957a322","system_id":"levelo_inurba_marseille","lat":43.304247,"lon":5.365156,"is_reserved":false,"is_disabled":false,"rental_uris":{"android":"levelo://app?vid=2e446222-4ce8-40fc-a3a2-8b448957a322","ios":"levelo://app?vid=2e446222-4ce8-40fc-a3a2-8b448957a322"},"vehicle_type_id":"4","last_reported":1731154484,"current_range_meters":20400,"station_id":"ce4bgs12rcd13ifvqcag","pricing_plan_id":"cebpf4jnsgd1na2vs0mg"},{"bike_id":"75c21ed3-dda8-420c-9792-89cdd70902f7","system_id":"levelo_inurba_marseille","lat":43.300079,"lon":5.380938,"is_reserved":false,"is_disabled":false,"rental_uris":{"android":"levelo://app?vid=75c21ed3-dda8-420c-9792-89cdd70902f7","ios":"levelo://app?vid=75c21ed3-dda8-420c-9792-89cdd70902f7"},"vehicle_type_id":"4","last_reported":1731154484,"current_range_meters":22800,"station_id":"","pricing_plan_id":"cebpf4jnsgd1na2vs0mg"},{"bike_id":"2b40c41f-9dd1-49d3-8b9c-bb05ff010543","system_id":"levelo_inurba_marseille","lat":43.27209,"lon":5.39188,"is_reserved":false,"is_disabled":false,"rental_uris":{"android":"levelo://app?vid=2b40c41f-9dd1-49d3-8b9c-bb05ff010543","ios":"levelo://app?vid=2b40c41f-9dd1-49d3-8b9c-bb05ff010543"},"vehicle_type_id":"4","last_reported":1731154484,"current_range_meters":39200,"station_id":"ce4bhhp2rcd13ifvqfm0","pricing_plan_id":"cebpf4jnsgd1na2vs0mg"},{"bike_id":"2d01ba8e-6644-45f8-b0e5-6827b3769cc8","system_id":"levelo_inurba_marseille","lat":43.28942,"lon":5.36641,"is_reserved":false,"is_disabled":false,"rental_uris":{"android":"levelo://app?vid=2d01ba8e-6644-45f8-b0e5-6827b3769cc8","ios":"levelo://app?vid=2d01ba8e-6644-45f8-b0e5-6827b3769cc8"},"vehicle_type_id":"4","last_reported":1731154484,"current_range_meters":23200,"station_id":"ce4bhap2rcd13ifvqek0","pricing_plan_id":"cebpf4jnsgd1na2vs0mg"},{"bike_id":"b78fdf6a-a499-4b95-b8b1-2036284631f4","system_id":"levelo_inurba_marseille","lat":43.25938,"lon":5.40905,"is_reserved":false,"is_disabled":false,"rental_uris":{"android":"levelo://app?vid=b78fdf6a-a499-4b95-b8b1-2036284631f4","ios":"levelo://app?vid=b78fdf6a-a499-4b95-b8b1-2036284631f4"},"vehicle_type_id":"4","last_reported":1731154484,"current_range_meters":28800,"station_id":"ce4bhm92rcd13ifvqglg","pricing_plan_id":"cebpf4jnsgd1na2vs0mg"},{"bike_id":"cc619aec-33eb-49a4-a110-0b9cf1976b72","system_id":"levelo_inurba_marseille","lat":43.2784,"lon":5.39214,"is_reserved":false,"is_disabled":false,"rental_uris":{"android":"levelo://app?vid=cc619aec-33eb-49a4-a110-0b9cf1976b72","ios":"levelo://app?vid=cc619aec-33eb-49a4-a110-0b9cf1976b72"},"vehicle_type_id":"4","last_reported":1731154484,"current_range_meters":38400,"station_id":"ce4bhjp2rcd13ifvqga0","pricing_plan_id":"cebpf4jnsgd1na2vs0mg"},{"bike_id":"9f90510f-f715-4b1b-b2cb-3af6bbf73389","system_id":"levelo_inurba_marseille","lat":43.269462,"lon":5.386122,"is_reserved":false,"is_disabled":false,"rental_uris":{"android":"levelo://app?vid=9f90510f-f715-4b1b-b2cb-3af6bbf73389","ios":"levelo://app?vid=9f90510f-f715-4b1b-b2cb-3af6bbf73389"},"vehicle_type_id":"4","last_reported":1731154484,"current_range_meters":27200,"station_id":"ce4bhh92rcd13ifvqfh0","pricing_plan_id":"cebpf4jnsgd1na2vs0mg"},{"bike_id":"0e9a4ada-34ed-411c-8043-39471e2fa118","system_id":"levelo_inurba_marseille","lat":43.24394,"lon":5.370545,"is_reserved":false,"is_disabled":false,"rental_uris":{"android":"levelo://app?vid=0e9a4ada-34ed-411c-8043-39471e2fa118","ios":"levelo://app?vid=0e9a4ada-34ed-411c-8043-39471e2fa118"},"vehicle_type_id":"4","last_reported":1731154484,"current_range_meters":24000,"station_id":"ce4bhhh2rcd13ifvqfk0","pricing_plan_id":"cebpf4jnsgd1na2vs0mg"},{"bike_id":"02f3bd69-c440-439f-96d2-1f56246cbb70","system_id":"levelo_inurba_marseille","lat":43.2306,"lon":5.35489,"is_reserved":false,"is_disabled":false,"rental_uris":{"android":"levelo://app?vid=02f3bd69-c440-439f-96d2-1f56246cbb70","ios":"levelo://app?vid=02f3bd69-c440-439f-96d2-1f56246cbb70"},"vehicle_type_id":"4","last_reported":1731154484,"current_range_meters":28000,"station_id":"cpo3342slgdg3j2ifvpg","pricing_plan_id":"cebpf4jnsgd1na2vs0mg"},{"bike_id":"7be60112-f079-4813-8267-7edf586b1d7d","system_id":"levelo_inurba_marseille","lat":43.293789,"lon":5.37854,"is_reserved":false,"is_disabled":false,"rental_uris":{"android":"levelo://app?vid=7be60112-f079-4813-8267-7edf586b1d7d","ios":"levelo://app?vid=7be60112-f079-4813-8267-7edf586b1d7d"},"vehicle_type_id":"4","last_reported":1731154484,"current_range_meters":36800,"station_id":"ce4bgjh2rcd13ifvqbf0","pricing_plan_id":"cebpf4jnsgd1na2vs0mg"},{"bike_id":"220513c4-d996-4578-9922-918b503c9e08","system_id":"levelo_inurba_marseille","lat":43.27808,"lon":5.40718,"is_reserved":false,"is_disabled":false,"rental_uris":{"android":"levelo://app?vid=220513c4-d996-4578-9922-918b503c9e08","ios":"levelo://app?vid=220513c4-d996-4578-9922-918b503c9e08"},"vehicle_type_id":"4","last_reported":1731154484,"current_range_meters":38800,"station_id":"ce4bhnh2rcd13ifvqgtg","pricing_plan_id":"cebpf4jnsgd1na2vs0mg"},{"bike_id":"828ed45f-49db-4fd9-852a-6044df53de40","system_id":"levelo_inurba_marseille","lat":43.28155,"lon":5.4264,"is_reserved":false,"is_disabled":false,"rental_uris":{"android":"levelo://app?vid=828ed45f-49db-4fd9-852a-6044df53de40","ios":"levelo://app?vid=828ed45f-49db-4fd9-852a-6044df53de40"},"vehicle_type_id":"4","last_reported":1731154484,"current_range_meters":21600,"station_id":"ce4bhnh2rcd13ifvqgug","pricing_plan_id":"cebpf4jnsgd1na2vs0mg"},{"bike_id":"bd899a7b-b943-4130-8b32-0c25de2eedeb","system_id":"levelo_inurba_marseille","lat":43.28613,"lon":5.370698,"is_reserved":false,"is_disabled":false,"rental_uris":{"android":"levelo://app?vid=bd899a7b-b943-4130-8b32-0c25de2eedeb","ios":"levelo://app?vid=bd899a7b-b943-4130-8b32-0c25de2eedeb"},"vehicle_type_id":"4","last_reported":1731154484,"current_range_meters":11200,"station_id":"ce4bht12rcd13ifvqi60","pricing_plan_id":"cebpf4jnsgd1na2vs0mg"},{"bike_id":"d9c54a95-e40d-4496-a91d-51fc452faf12","system_id":"levelo_inurba_marseille","lat":43.29612,"lon":5.37721,"is_reserved":false,"is_disabled":false,"rental_uris":{"android":"levelo://app?vid=d9c54a95-e40d-4496-a91d-51fc452faf12","ios":"levelo://app?vid=d9c54a95-e40d-4496-a91d-51fc452faf12"},"vehicle_type_id":"4","last_reported":1731154484,"current_range_meters":26800,"station_id":"ce4bgi92rcd13ifvqb90","pricing_plan_id":"cebpf4jnsgd1na2vs0mg"},{"bike_id":"c3cae747-1840-4e85-b0e3-f2a4aea40a4a","system_id":"levelo_inurba_marseille","lat":43.31354,"lon":5.39152,"is_reserved":false,"is_disabled":false,"rental_uris":{"android":"levelo://app?vid=c3cae747-1840-4e85-b0e3-f2a4aea40a4a","ios":"levelo://app?vid=c3cae747-1840-4e85-b0e3-f2a4aea40a4a"},"vehicle_type_id":"4","last_reported":1731154484,"current_range_meters":4000,"station_id":"","pricing_plan_id":"cebpf4jnsgd1na2vs0mg"},{"bike_id":"f50c8bab-3e03-419d-9103-4fe83cd65859","system_id":"levelo_inurba_marseille","lat":43.29258,"lon":5.40914,"is_reserved":false,"is_disabled":false,"rental_uris":{"android":"levelo://app?vid=f50c8bab-3e03-419d-9103-4fe83cd65859","ios":"levelo://app?vid=f50c8bab-3e03-419d-9103-4fe83cd65859"},"vehicle_type_id":"4","last_reported":1731154484,"current_range_meters":27200,"station_id":"ce4bh192rcd13ifvqdc0","pricing_plan_id":"cebpf4jnsgd1na2vs0mg"},{"bike_id":"a30775bb-33e3-4425-a80c-7fba1d330054","system_id":"levelo_inurba_marseille","lat":43.29851,"lon":5.36285,"is_reserved":false,"is_disabled":false,"rental_uris":{"android":"levelo://app?vid=a30775bb-33e3-4425-a80c-7fba1d330054","ios":"levelo://app?vid=a30775bb-33e3-4425-a80c-7fba1d330054"},"vehicle_type_id":"4","last_reported":1731154484,"current_range_meters":30800,"station_id":"ce4bgpp2rcd13ifvqc3g","pricing_plan_id":"cebpf4jnsgd1na2vs0mg"},{"bike_id":"d2fab2fc-0dfc-4285-8324-8b3977915fe9","system_id":"levelo_inurba_marseille","lat":43.23964,"lon":5.36638,"is_reserved":false,"is_disabled":false,"rental_uris":{"android":"levelo://app?vid=d2fab2fc-0dfc-4285-8324-8b3977915fe9","ios":"levelo://app?vid=d2fab2fc-0dfc-4285-8324-8b3977915fe9"},"vehicle_type_id":"4","last_reported":1731154484,"current_range_meters":20000,"station_id":"ce4bhi12rcd13ifvqfp0","pricing_plan_id":"cebpf4jnsgd1na2vs0mg"},{"bike_id":"aa9c5834-9a5b-484f-afba-7141737a876b","system_id":"levelo_inurba_marseille","lat":43.24392,"lon":5.37063,"is_reserved":false,"is_disabled":false,"rental_uris":{"android":"levelo://app?vid=aa9c5834-9a5b-484f-afba-7141737a876b","ios":"levelo://app?vid=aa9c5834-9a5b-484f-afba-7141737a876b"},"vehicle_type_id":"4","last_reported":1731154484,"current_range_meters":38800,"station_id":"ce4bhhh2rcd13ifvqfk0","pricing_plan_id":"cebpf4jnsgd1na2vs0mg"},{"bike_id":"63bc1315-8e2f-4c8e-be66-9054a5945e47","system_id":"levelo_inurba_marseille","lat":43.32042,"lon":5.41558,"is_reserved":false,"is_disabled":false,"rental_uris":{"android":"levelo://app?vid=63bc1315-8e2f-4c8e-be66-9054a5945e47","ios":"levelo://app?vid=63bc1315-8e2f-4c8e-be66-9054a5945e47"},"vehicle_type_id":"4","last_reported":1731154484,"current_range_meters":6400,"station_id":"ce4bhq92rcd13ifvqhkg","pricing_plan_id":"cebpf4jnsgd1na2vs0mg"},{"bike_id":"8d928d9a-6790-4a7c-8c25-509008d4b44a","system_id":"levelo_inurba_marseille","lat":43.29716,"lon":5.36853,"is_reserved":false,"is_disabled":false,"rental_uris":{"android":"levelo://app?vid=8d928d9a-6790-4a7c-8c25-509008d4b44a","ios":"levelo://app?vid=8d928d9a-6790-4a7c-8c25-509008d4b44a"},"vehicle_type_id":"4","last_reported":1731154484,"current_range_meters":30400,"station_id":"ce4bhh92rcd13ifvqfj0","pricing_plan_id":"cebpf4jnsgd1na2vs0mg"},{"bike_id":"ff88e31e-6c4d-48c0-aadf-0b6b9c81568e","system_id":"levelo_inurba_marseille","lat":43.337444,"lon":5.374475,"is_reserved":false,"is_disabled":false,"rental_uris":{"android":"levelo://app?vid=ff88e31e-6c4d-48c0-aadf-0b6b9c81568e","ios":"levelo://app?vid=ff88e31e-6c4d-48c0-aadf-0b6b9c81568e"},"vehicle_type_id":"4","last_reported":1731154484,"current_range_meters":27600,"station_id":"","pricing_plan_id":"cebpf4jnsgd1na2vs0mg"},{"bike_id":"8f7f8308-6be5-4025-a17f-edaee3f9de86","system_id":"levelo_inurba_marseille","lat":43.26789,"lon":5.394106,"is_reserved":false,"is_disabled":false,"rental_uris":{"android":"levelo://app?vid=8f7f8308-6be5-4025-a17f-edaee3f9de86","ios":"levelo://app?vid=8f7f8308-6be5-4025-a17f-edaee3f9de86"},"vehicle_type_id":"4","last_reported":1731154484,"current_range_meters":2000,"station_id":"ce4bh392rcd13ifvqdl0","pricing_plan_id":"cebpf4jnsgd1na2vs0mg"},{"bike_id":"0ab73116-bf58-40e8-85f3-e0272848b1d7","system_id":"levelo_inurba_marseille","lat":43.28715,"lon":5.37941,"is_reserved":false,"is_disabled":false,"rental_uris":{"android":"levelo://app?vid=0ab73116-bf58-40e8-85f3-e0272848b1d7","ios":"levelo://app?vid=0ab73116-bf58-40e8-85f3-e0272848b1d7"},"vehicle_type_id":"4","last_reported":1731154484,"current_range_meters":18000,"station_id":"ce4bh9p2rcd13ifvqec0","pricing_plan_id":"cebpf4jnsgd1na2vs0mg"},{"bike_id":"b3f7bf53-2770-4f0b-836b-ce2a121fa3f7","system_id":"levelo_inurba_marseille","lat":43.23958,"lon":5.36622,"is_reserved":false,"is_disabled":false,"rental_uris":{"android":"levelo://app?vid=b3f7bf53-2770-4f0b-836b-ce2a121fa3f7","ios":"levelo://app?vid=b3f7bf53-2770-4f0b-836b-ce2a121fa3f7"},"vehicle_type_id":"4","last_reported":1731154484,"current_range_meters":24800,"station_id":"ce4bhi12rcd13ifvqfp0","pricing_plan_id":"cebpf4jnsgd1na2vs0mg"},{"bike_id":"0d07bfa0-3498-4a0e-9428-ea8e98b6db91","system_id":"levelo_inurba_marseille","lat":43.29307,"lon":5.3717,"is_reserved":false,"is_disabled":false,"rental_uris":{"android":"levelo://app?vid=0d07bfa0-3498-4a0e-9428-ea8e98b6db91","ios":"levelo://app?vid=0d07bfa0-3498-4a0e-9428-ea8e98b6db91"},"vehicle_type_id":"4","last_reported":1731154484,"current_range_meters":20400,"station_id":"ce4bgh92rcd13ifvqb40","pricing_plan_id":"cebpf4jnsgd1na2vs0mg"},{"bike_id":"fae23e63-a0dd-4c84-a137-063689159d4e","system_id":"levelo_inurba_marseille","lat":43.29307,"lon":5.37171,"is_reserved":false,"is_disabled":false,"rental_uris":{"android":"levelo://app?vid=fae23e63-a0dd-4c84-a137-063689159d4e","ios":"levelo://app?vid=fae23e63-a0dd-4c84-a137-063689159d4e"},"vehicle_type_id":"4","last_reported":1731154484,"current_range_meters":36400,"station_id":"ce4bgh92rcd13ifvqb40","pricing_plan_id":"cebpf4jnsgd1na2vs0mg"},{"bike_id":"c0a52d17-cbb9-4fc8-81d7-31b6a7874899","system_id":"levelo_inurba_marseille","lat":43.23958,"lon":5.36628,"is_reserved":false,"is_disabled":false,"rental_uris":{"android":"levelo://app?vid=c0a52d17-cbb9-4fc8-81d7-31b6a7874899","ios":"levelo://app?vid=c0a52d17-cbb9-4fc8-81d7-31b6a7874899"},"vehicle_type_id":"4","last_reported":1731154484,"current_range_meters":36400,"station_id":"ce4bhi12rcd13ifvqfp0","pricing_plan_id":"cebpf4jnsgd1na2vs0mg"},