{"last_updated":1770538835,"ttl":60,"version":"2.2","data":{"bikes":[{"bike_id":"eb519fe1-4fc4-456f-8457-82b4c0081435","system_id":"levelo_inurba_marseille","lat":43.26544,"lon":5.37293,"is_reserved":false,"is_disabled":false,"rental_uris":{"android":"levelo://app?vid=eb519fe1-4fc4-456f-8457-82b4c0081435","ios":"levelo://app?vid=eb519fe1-4fc4-456f-8457-82b4c0081435"},"vehicle_type_id":"4","last_reported":1770538835,"current_range_meters":2800,"station_id":"ce4bhg12rcd13ifvqf70","pricing_plan_id":"cebpf4jnsgd1na2vs0mg"},{"bike_id":"cda67a55-cd0b-4996-80a6-9f94ffa5040f","system_id":"levelo_inurba_marseille","lat":43.260636,"lon":5.393938,"is_reserved":false,"is_disabled":false,"rental_uris":{"android":"levelo://app?vid=cda67a55-cd0b-4996-80a6-9f94ffa5040f","ios":"levelo://app?vid=cda67a55-cd0b-4996-80a6-9f94ffa5040f"},"vehicle_type_id":"4","last_reported":1770538835,"current_range_meters":2800,"station_id":"ce4bhh92rcd13ifvqfj0","pricing_plan_id":"cebpf4jnsgd1na2vs0mg"},{"bike_id":"2c12c7cc-4b9d-40cf-9cb0-31d26b85d750","system_id":"levelo_inurba_marseille","lat":43.26192,"lon":5.37934,"is_reserved":false,"is_disabled":false,"rental_uris":{"android":"levelo://app?vid=2c12c7cc-4b9d-40cf-9cb0-31d26b85d750","ios":"levelo://app?vid=2c12c7cc-4b9d-40cf-9cb0-31d26b85d750"},"vehicle_type_id":"4","last_reported":1770538835,"current_range_meters":2800,"station_id":"ce4bhjp2rcd13ifvqg90","pricing_plan_id":"cebpf4jnsgd1na2vs0mg"},{"bike_id":"4553b9ae-95be-4d03-9d86-2a4c79a4ffcc","system_id":"levelo_inurba_marseille","lat":43.28911,"lon":5.39844,"is_reserved":false,"is_disabled":false,"rental_uris":{"android":"levelo://app?vid=4553b9ae-95be-4d03-9d86-2a4c79a4ffcc","ios":"levelo://app?vid=4553b9ae-95be-4d03-9d86-2a4c79a4ffcc"},"vehicle_type_id":"4","last_reported":1770538835,"current_range_meters":2800,"station_id":"","pricing_plan_id":"cebpf4jnsgd1na2vs0mg"},{"bike_id":"6622ecdf-5979-47a5-b9a2-8e881f3db9ee","system_id":"levelo_inurba_marseille","lat":43.28061,"lon":5.39906,"is_reserved":false,"is_disabled":false,"rental_uris":{"android":"levelo://app?vid=6622ecdf-5979-47a5-b9a2-8e881f3db9ee","ios":"levelo://app?vid=6622ecdf-5979-47a5-b9a2-8e881f3db9ee"},"vehicle_type_id":"4","last_reported":1770538835,"current_range_meters":2800,"station_id":"","pricing_plan_id":"cebpf4jnsgd1na2vs0mg"},{"bike_id":"7227446b-610e-4be4-97ad-4ce3c6f17651","system_id":"levelo_inurba_marseille","lat":43.29416,"lon":5.37461,"is_reserved":false,"is_disabled":true,"rental_uris":{"android":"levelo://app?vid=7227446b-610e-4be4-97ad-4ce3c6f17651","ios":"levelo://app?vid=7227446b-610e-4be4-97ad-4ce3c6f17651"},"vehicle_type_id":"4","last_reported":1770538835,"current_range_meters":2800,"station_id":"","pricing_plan_id":"cebpf4jnsgd1na2vs0mg"},{"bike_id":"f4f1e3a6-3fe6-4f67-be28-c3046d66a285","system_id":"levelo_inurba_marseille","lat":43.29409,"lon":5.38034,"is_reserved":false,"is_disabled":false,"rental_uris":{"android":"levelo://app?vid=f4f1e3a6-3fe6-4f67-be28-c3046d66a285","ios":"levelo://app?vid=f4f1e3a6-3fe6-4f67-be28-c3046d66a285"},"vehicle_type_id":"4","last_reported":1770538835,"current_range_meters":2800,"station_id":"","pricing_plan_id":"cebpf4jnsgd1na2vs0mg"},{"bike_id":"ce2a5aae-c595-44c0-87d3-56c0d4480198","system_id":"levelo_inurba_marseille","lat":43.295536,"lon":5.422878,"is_reserved":false,"is_disabled":false,"rental_uris":{"android":"levelo://app?vid=ce2a5aae-c595-44c0-87d3-56c0d4480198","ios":"levelo://app?vid=ce2a5aae-c595-44c0-87d3-56c0d4480198"},"vehicle_type_id":"4","last_reported":1770538835,"current_range_meters":2800,"station_id":"ce4bhph2rcd13ifvqhdg","pricing_plan_id":"cebpf4jnsgd1na2vs0mg"},{"bike_id":"ba1b98b8-d6fd-4ac5-9eda-8035e3140fb6","system_id":"levelo_inurba_marseille","lat":43.21158,"lon":5.35132,"is_reserved":false,"is_disabled":false,"rental_uris":{"android":"levelo://app?vid=ba1b98b8-d6fd-4ac5-9eda-8035e3140fb6","ios":"levelo://app?vid=ba1b98b8-d6fd-4ac5-9eda-8035e3140fb6"},"vehicle_type_id":"4","last_reported":1770538835,"current_range_meters":2800,"station_id":"st_cvj6sg6p6f1abm77japg","pricing_plan_id":"cebpf4jnsgd1na2vs0mg"},{"bike_id":"f5f2a73f-4d38-4f62-a442-06e553c5ee8a","system_id":"levelo_inurba_marseille","lat":43.27808,"lon":5.39221,"is_reserved":false,"is_disabled":false,"rental_uris":{"android":"levelo://app?vid=f5f2a73f-4d38-4f62-a442-06e553c5ee8a","ios":"levelo://app?vid=f5f2a73f-4d38-4f62-a442-06e553c5ee8a"},"vehicle_type_id":"4","last_reported":1770538835,"current_range_meters":3200,"station_id":"ce4bhjp2rcd13ifvqga0","pricing_plan_id":"cebpf4jnsgd1na2vs0mg"},{"bike_id":"63901a78-8de9-460b-bf9b-d42ce0ced4bc","system_id":"levelo_inurba_marseille","lat":43.31374,"lon":5.36706,"is_reserved":false,"is_disabled":true,"rental_uris":{"android":"levelo://app?vid=63901a78-8de9-460b-bf9b-d42ce0ced4bc","ios":"levelo://app?vid=63901a78-8de9-460b-bf9b-d42ce0ced4bc"},"vehicle_type_id":"4","last_reported":1770538835,"current_range_meters":3200,"station_id":"ce4bgr92rcd13ifvqc6g","pricing_plan_id":"cebpf4jnsgd1na2vs0mg"},{"bike_id":"ad59c976-8167-4012-b274-13dabb35f23b","system_id":"levelo_inurba_marseille","lat":43.29061,"lon":5.37153,"is_reserved":false,"is_disabled":true,"rental_uris":{"android":"levelo://app?vid=ad59c976-8167-4012-b274-13dabb35f23b","ios":"levelo://app?vid=ad59c976-8167-4012-b274-13dabb35f23b"},"vehicle_type_id":"4","last_reported":1770538835,"current_range_meters":3200,"station_id":"ce4bh5p2rcd13ifvqe4g","pricing_plan_id":"cebpf4jnsgd1na2vs0mg"},{"bike_id":"c2a8a439-33fe-49c7-8bf3-4333c7082516","system_id":"levelo_inurba_marseille","lat":43.27956,"lon":5.4104,"is_reserved":false,"is_disabled":false,"rental_uris":{"android":"levelo://app?vid=c2a8a439-33fe-49c7-8bf3-4333c7082516","ios":"levelo://app?vid=c2a8a439-33fe-49c7-8bf3-4333c7082516"},"vehicle_type_id":"4","last_reported":1770538835,"current_range_meters":3200,"station_id":"ce4bhnp2rcd13ifvqh0g","pricing_plan_id":"cebpf4jnsgd1na2vs0mg"},{"bike_id":"7251f0b4-a914-4254-84af-57469d277a1f","system_id":"levelo_inurba_marseille","lat":43.29515,"lon":5.42321,"is_reserved":false,"is_disabled":false,"rental_uris":{"android":"levelo://app?vid=7251f0b4-a914-4254-84af-57469d277a1f","ios":"levelo://app?vid=7251f0b4-a914-4254-84af-57469d277a1f"},"vehicle_type_id":"4","last_reported":1770538835,"current_range_meters":3200,"station_id":"ce4bhph2rcd13ifvqhdg","pricing_plan_id":"cebpf4jnsgd1na2vs0mg"},{"bike_id":"31d03209-100c-46c3-a91a-f245689b3991","system_id":"levelo_inurba_marseille","lat":43.29013,"lon":5.3717,"is_reserved":false,"is_disabled":false,"rental_uris":{"android":"levelo://app?vid=31d03209-100c-46c3-a91a-f245689b3991","ios":"levelo://app?vid=31d03209-100c-46c3-a91a-f245689b3991"},"vehicle_type_id":"4","last_reported":1770538835,"current_range_meters":3200,"station_id":"","pricing_plan_id":"cebpf4jnsgd1na2vs0mg"},{"bike_id":"55f2d609-14a9-4339-ae61-6d889e1034d5","system_id":"levelo_inurba_marseille","lat":43.25334,"lon":5.42181,"is_reserved":false,"is_disabled":false,"rental_uris":{"android":"levelo://app?vid=55f2d609-14a9-4339-ae61-6d889e1034d5","ios":"levelo://app?vid=55f2d609-14a9-4339-ae61-6d889e1034d5"},"vehicle_type_id":"4","last_reported":1770538835,"current_range_meters":3200,"station_id":"st_d2m65c5bi1j21697t3ng","pricing_plan_id":"cebpf4jnsgd1na2vs0mg"},{"bike_id":"14896356-208c-4be2-bc8a-135c84da0a0e","system_id":"levelo_inurba_marseille","lat":43.26558,"lon":5.39013,"is_reserved":false,"is_disabled":false,"rental_uris":{"android":"levelo://app?vid=14896356-208c-4be2-bc8a-135c84da0a0e","ios":"levelo://app?vid=14896356-208c-4be2-bc8a-135c84da0a0e"},"vehicle_type_id":"4","last_reported":1770538835,"current_range_meters":3200,"station_id":"ce4bhe12rcd13ifvqf30","pricing_plan_id":"cebpf4jnsgd1na2vs0mg"},{"bike_id":"3879a791-2cb6-4a31-b2ea-7fabd25cc045","system_id":"levelo_inurba_marseille","lat":43.29762,"lon":5.38094,"is_reserved":false,"is_disabled":false,"rental_uris":{"android":"levelo://app?vid=3879a791-2cb6-4a31-b2ea-7fabd25cc045","ios":"levelo://app?vid=3879a791-2cb6-4a31-b2ea-7fabd25cc045"},"vehicle_type_id":"4","last_reported":1770538835,"current_range_meters":3600,"station_id":"","pricing_plan_id":"cebpf4jnsgd1na2vs0mg"},{"bike_id":"c33edfb3-c322-414e-af7a-1c04e5edc478","system_id":"levelo_inurba_marseille","lat":43.28366,"lon":5.38632,"is_reserved":false,"is_disabled":false,"rental_uris":{"android":"levelo://app?vid=c33edfb3-c322-414e-af7a-1c04e5edc478","ios":"levelo://app?vid=c33edfb3-c322-414e-af7a-1c04e5edc478"},"vehicle_type_id":"4","last_reported":1770538835,"current_range_meters":3600,"station_id":"ce4bh492rcd13ifvqdvg","pricing_plan_id":"cebpf4jnsgd1na2vs0mg"},{"bike_id":"34a55f58-a955-4283-bcd6-91c6f2bdcd18","system_id":"levelo_inurba_marseille","lat":43.26523,"lon":5.39383,"is_reserved":false,"is_disabled":false,"rental_uris":{"android":"levelo://app?vid=34a55f58-a955-4283-bcd6-91c6f2bdcd18","ios":"levelo://app?vid=34a55f58-a955-4283-bcd6-91c6f2bdcd18"},"vehicle_type_id":"4","last_reported":1770538835,"current_range_meters":3600,"station_id":"","pricing_plan_id":"cebpf4jnsgd1na2vs0mg"},{"bike_id":"aa72b7fa-921a-4402-9e23-77e5bc4743f2","system_id":"levelo_inurba_marseille","lat":43.24465,"lon":5.42542,"is_reserved":false,"is_disabled":false,"rental_uris":{"android":"levelo://app?vid=aa72b7fa-921a-4402-9e23-77e5bc4743f2","ios":"levelo://app?vid=aa72b7fa-921a-4402-9e23-77e5bc4743f2"},"vehicle_type_id":"4","last_reported":1770538835,"current_range_meters":3600,"station_id":"st_d4a3vfp97mjs738cd8kg","pricing_plan_id":"cebpf4jnsgd1na2vs0mg"},{"bike_id":"8efb4574-340b-4df3-a8c1-1e7cd9ceeacf","system_id":"levelo_inurba_marseille","lat":43.23184,"lon":5.39984,"is_reserved":false,"is_disabled":false,"rental_uris":{"android":"levelo://app?vid=8efb4574-340b-4df3-a8c1-1e7cd9ceeacf","ios":"levelo://app?vid=8efb4574-340b-4df3-a8c1-1e7cd9ceeacf"},"vehicle_type_id":"4","last_reported":1770538835,"current_range_meters":3600,"station_id":"ce4bhn12rcd13ifvqgqg","pricing_plan_id":"cebpf4jnsgd1na2vs0mg"},{"bike_id":"44df0d6d-61a2-46ab-9bf9-ae3cec90cb8f","system_id":"levelo_inurba_marseille","lat":43.25001,"lon":5.38924,"is_reserved":false,"is_disabled":true,"rental_uris":{"android":"levelo://app?vid=44df0d6d-61a2-46ab-9bf9-ae3cec90cb8f","ios":"levelo://app?vid=44df0d6d-61a2-46ab-9bf9-ae3cec90cb8f"},"vehicle_type_id":"4","last_reported":1770538835,"current_range_meters":3600,"station_id":"ce4bhgp2rcd13ifvqfd0","pricing_plan_id":"cebpf4jnsgd1na2vs0mg"},{"bike_id":"8f456931-6682-4563-a722-91f6bad4b5cf","system_id":"levelo_inurba_marseille","lat":43.29022,"lon":5.37555,"is_reserved":false,"is_disabled":false,"rental_uris":{"android":"levelo://app?vid=8f456931-6682-4563-a722-91f6bad4b5cf","ios":"levelo://app?vid=8f456931-6682-4563-a722-91f6bad4b5cf"},"vehicle_type_id":"4","last_reported":1770538835,"current_range_meters":3600,"station_id":"ce4bh692rcd13ifvqe90","pricing_plan_id":"cebpf4jnsgd1na2vs0mg"},{"bike_id":"3926a99e-82ca-4ee7-a161-a486379736ee","system_id":"levelo_inurba_marseille","lat":43.29872,"lon":5.36877,"is_reserved":false,"is_disabled":false,"rental_uris":{"android":"levelo://app?vid=3926a99e-82ca-4ee7-a161-a486379736ee","ios":"levelo://app?vid=3926a99e-82ca-4ee7-a161-a486379736ee"},"vehicle_type_id":"4","last_reported":1770538835,"current_range_meters":4000,"station_id":"","pricing_plan_id":"cebpf4jnsgd1na2vs0mg"},{"bike_id":"62801c7a-0680-4717-9eec-a2fc8f05e27c","system_id":"levelo_inurba_marseille","lat":43.27938,"lon":5.38698,"is_reserved":false,"is_disabled":false,"rental_uris":{"android":"levelo://app?vid=62801c7a-0680-4717-9eec-a2fc8f05e27c","ios":"levelo://app?vid=62801c7a-0680-4717-9eec-a2fc8f05e27c"},"vehicle_type_id":"4","last_reported":1770538835,"current_range_meters":4000,"station_id":"ce4bhg12rcd13ifvqf80","pricing_plan_id":"cebpf4jnsgd1na2vs0mg"},{"bike_id":"70ddbad5-60df-46e3-860c-17e515c61363","system_id":"levelo_inurba_marseille","lat":43.311193,"lon":5.377726,"is_reserved":false,"is_disabled":false,"rental_uris":{"android":"levelo://app?vid=70ddbad5-60df-46e3-860c-17e515c61363","ios":"levelo://app?vid=70ddbad5-60df-46e3-860c-17e515c61363"},"vehicle_type_id":"4","last_reported":1770538835,"current_range_meters":4000,"station_id":"ce4bgt92rcd13ifvqcg0","pricing_plan_id":"cebpf4jnsgd1na2vs0mg"},{"bike_id":"038559a3-6834-4387-a324-51c29d33fdef","system_id":"levelo_inurba_marseille","lat":43.24814,"lon":5.37473,"is_reserved":false,"is_disabled":false,"rental_uris":{"android":"levelo://app?vid=038559a3-6834-4387-a324-51c29d33fdef","ios":"levelo://app?vid=038559a3-6834-4387-a324-51c29d33fdef"},"vehicle_type_id":"4","last_reported":1770538835,"current_range_meters":4000,"station_id":"ce4bhgh2rcd13ifvqfb0","pricing_plan_id":"cebpf4jnsgd1na2vs0mg"},{"bike_id":"3b71a1ad-0888-4e5c-82a0-0dec693b29d4","system_id":"levelo_inurba_marseille","lat":43.31108,"lon":5.38136,"is_reserved":false,"is_disabled":false,"rental_uris":{"android":"levelo://app?vid=3b71a1ad-0888-4e5c-82a0-0dec693b29d4","ios":"levelo://app?vid=3b71a1ad-0888-4e5c-82a0-0dec693b29d4"},"vehicle_type_id":"4","last_reported":1770538835,"current_range_meters":4000,"station_id":"","pricing_plan_id":"cebpf4jnsgd1na2vs0mg"},{"bike_id":"73737e66-a6b3-4b40-a445-3b6074965848","system_id":"levelo_inurba_marseille","lat":43.29565,"lon":5.37518,"is_reserved":false,"is_disabled":false,"rental_uris":{"android":"levelo://app?vid=73737e66-a6b3-4b40-a445-3b6074965848","ios":"levelo://app?vid=73737e66-a6b3-4b40-a445-3b6074965848"},"vehicle_type_id":"4","last_reported":1770538835,"current_range_meters":4000,"station_id":"","pricing_plan_id":"cebpf4jnsgd1na2vs0mg"},{"bike_id":"03414a6d-caa9-4966-8ffd-1cbcbc02f0d6","system_id":"levelo_inurba_marseille","lat":43.24381,"lon":5.37046,"is_reserved":false,"is_disabled":false,"rental_uris":{"android":"levelo://app?vid=03414a6d-caa9-4966-8ffd-1cbcbc02f0d6","ios":"levelo://app?vid=03414a6d-caa9-4966-8ffd-1cbcbc02f0d6"},"vehicle_type_id":"4","last_reported":1770538835,"current_range_meters":4000,"station_id":"ce4bhhh2rcd13ifvqfk0","pricing_plan_id":"cebpf4jnsgd1na2vs0mg"},{"bike_id":"54a9192b-0dd6-49f6-978b-5e71126fb367","system_id":"levelo_inurba_marseille","lat":43.261993,"lon":5.379209,"is_reserved":false,"is_disabled":false,"rental_uris":{"android":"levelo://app?vid=54a9192b-0dd6-49f6-978b-5e71126fb367","ios":"levelo://app?vid=54a9192b-0dd6-49f6-978b-5e71126fb367"},"vehicle_type_id":"4","last_reported":1770538835,"current_range_meters":4400,"station_id":"ce4bhjp2rcd13ifvqg90","pricing_plan_id":"cebpf4jnsgd1na2vs0mg"},{"bike_id":"7bddda00-b4a3-467e-857f-177f6c856946","system_id":"levelo_inurba_marseille","lat":43.28003,"lon":5.39992,"is_reserved":false,"is_disabled":false,"rental_uris":{"android":"levelo://app?vid=7bddda00-b4a3-467e-857f-177f6c856946","ios":"levelo://app?vid=7bddda00-b4a3-467e-857f-177f6c856946"},"vehicle_type_id":"4","last_reported":1770538835,"current_range_meters":4400,"station_id":"ce4bho92rcd13ifvqh4g","pricing_plan_id":"cebpf4jnsgd1na2vs0mg"},{"bike_id":"9dadd4c2-97fc-4ce7-a20f-b7c55300a138","system_id":"levelo_inurba_marseille","lat":43.2982,"lon":5.44062,"is_reserved":false,"is_disabled":false,"rental_uris":{"android":"levelo://app?vid=9dadd4c2-97fc-4ce7-a20f-b7c55300a138","ios":"levelo://app?vid=9dadd4c2-97fc-4ce7-a20f-b7c55300a138"},"vehicle_type_id":"4","last_reported":1770538835,"current_range_meters":4400,"station_id":"st_d3jp68qikq2c7381ktn0","pricing_plan_id":"cebpf4jnsgd1na2vs0mg"},{"bike_id":"c9d2bfb2-7471-46bf-97d6-14603771c306","system_id":"levelo_inurba_marseille","lat":43.24381,"lon":5.37061,"is_reserved":false,"is_disabled":false,"rental_uris":{"android":"levelo://app?vid=c9d2bfb2-7471-46bf-97d6-14603771c306","ios":"levelo://app?vid=c9d2bfb2-7471-46bf-97d6-14603771c306"},"vehicle_type_id":"4","last_reported":1770538835,"current_range_meters":4400,"station_id":"ce4bhhh2rcd13ifvqfk0","pricing_plan_id":"cebpf4jnsgd1na2vs0mg"},{"bike_id":"95ddcd5a-bf89-4af0-8832-e9e870a74381","system_id":"levelo_inurba_marseille","lat":43.26212,"lon":5.3885,"is_reserved":false,"is_disabled":false,"rental_uris":{"android":"levelo://app?vid=95ddcd5a-bf89-4af0-8832-e9e870a74381","ios":"levelo://app?vid=95ddcd5a-bf89-4af0-8832-e9e870a74381"},"vehicle_type_id":"4","last_reported":1770538835,"current_range_meters":4400,"station_id":"","pricing_plan_id":"cebpf4jnsgd1na2vs0mg"},{"bike_id":"d7b7c118-575b-4f69-a01a-1a37afc992ca","system_id":"levelo_inurba_marseille","lat":43.32345,"lon":5.38871,"is_reserved":false,"is_disabled":false,"rental_uris":{"android":"levelo://app?vid=d7b7c118-575b-4f69-a01a-1a37afc992ca","ios":"levelo://app?vid=d7b7c118-575b-4f69-a01a-1a37afc992ca"},"vehicle_type_id":"4","last_reported":1770538835,"current_range_meters":4400,"station_id":"ce4bhqp2rcd13ifvqhog","pricing_plan_id":"cebpf4jnsgd1na2vs0mg"},{"bike_id":"f5b3c0bc-b0db-4532-8e2f-eae93141d573","system_id":"levelo_inurba_marseille","lat":43.33545,"lon":5.37485,"is_reserved":false,"is_disabled":false,"rental_uris":{"android":"levelo://app?vid=f5b3c0bc-b0db-4532-8e2f-eae93141d573","ios":"levelo://app?vid=f5b3c0bc-b0db-4532-8e2f-eae93141d573"},"vehicle_type_id":"4","last_reported":1770538835,"current_range_meters":4400,"station_id":"st_d46tts09ee8s73dlu43g","pricing_plan_id":"cebpf4jnsgd1na2vs0mg"},{"bike_id":"d2010c61-f921-48a2-aa6f-3ea6273bb955","system_id":"levelo_inurba_marseille","lat":43.23191,"lon":5.3556,"is_reserved":false,"is_disabled":false,"rental_uris":{"android":"levelo://app?vid=d2010c61-f921-48a2-aa6f-3ea6273bb955","ios":"levelo://app?vid=d2010c61-f921-48a2-aa6f-3ea6273bb955"},"vehicle_type_id":"4","last_reported":1770538835,"current_range_meters":4400,"station_id":"ce4bhu92rcd13ifvqi70","pricing_plan_id":"cebpf4jnsgd1na2vs0mg"},{"bike_id":"1780f274-efef-4868-ad51-2e25c5373fc0","system_id":"levelo_inurba_marseille","lat":43.27057,"lon":5.4229,"is_reserved":false,"is_disabled":false,"rental_uris":{"android":"levelo://app?vid=1780f274-efef-4868-ad51-2e25c5373fc0","ios":"levelo://app?vid=1780f274-efef-4868-ad51-2e25c5373fc0"},"vehicle_type_id":"4","last_reported":1770538835,"current_range_meters":4400,"station_id":"ce4bhk92rcd13ifvqgb0","pricing_plan_id":"cebpf4jnsgd1na2vs0mg"},{"bike_id":"ce999d11-5f15-4ebd-ba52-a79eb3ae645c","system_id":"levelo_inurba_marseille","lat":43.297845,"lon":5.381027,"is_reserved":false,"is_disabled":false,"rental_uris":{"android":"levelo://app?vid=ce999d11-5f15-4ebd-ba52-a79eb3ae645c","ios":"levelo://app?vid=ce999d11-5f15-4ebd-ba52-a79eb3ae645c"},"vehicle_type_id":"4","last_reported":1770538835,"current_range_meters":4400,"station_id":"ce4bgip2rcd13ifvqbb0","pricing_plan_id":"cebpf4jnsgd1na2vs0mg"},{"bike_id":"37810020-311e-4142-81ed-743738c6fb89","system_id":"levelo_inurba_marseille","lat":43.30722,"lon":5.42456,"is_reserved":false,"is_disabled":false,"rental_uris":{"android":"levelo://app?vid=37810020-311e-4142-81ed-743738c6fb89","ios":"levelo://app?vid=37810020-311e-4142-81ed-743738c6fb89"},"vehicle_type_id":"4","last_reported":1770538835,"current_range_meters":4400,"station_id":"st_cvj6ca6bvosntc0bfgr0","pricing_plan_id":"cebpf4jnsgd1na2vs0mg"},{"bike_id":"695a138c-9117-4798-9030-e462ffee3fe5","system_id":"levelo_inurba_marseille","lat":43.24825,"lon":5.37422,"is_reserved":false,"is_disabled":false,"rental_uris":{"android":"levelo://app?vid=695a138c-9117-4798-9030-e462ffee3fe5","ios":"levelo://app?vid=695a138c-9117-4798-9030-e462ffee3fe5"},"vehicle_type_id":"4","last_reported":1770538835,"current_range_meters":4400,"station_id":"ce4bhgh2rcd13ifvqfb0","pricing_plan_id":"cebpf4jnsgd1na2vs0mg"},{"bike_id":"b834e44c-7a6b-44e2-8b98-4864f68f72bc","system_id":"levelo_inurba_marseille","lat":43.25829,"lon":5.39443,"is_reserved":false,"is_disabled":false,"rental_uris":{"android":"levelo://app?vid=b834e44c-7a6b-44e2-8b98-4864f68f72bc","ios":"levelo://app?vid=b834e44c-7a6b-44e2-8b98-4864f68f72bc"},"vehicle_type_id":"4","last_reported":1770538835,"current_range_meters":4800,"station_id":"ce4bhip2rcd13ifvqft0","pricing_plan_id":"cebpf4jnsgd1na2vs0mg"},{"bike_id":"a0a67bd8-5c45-40bf-b3cf-4bc191cf8630","system_id":"levelo_inurba_marseille","lat":43.23147,"lon":5.437245,"is_reserved":false,"is_disabled":false,"rental_uris":{"android":"levelo://app?vid=a0a67bd8-5c45-40bf-b3cf-4bc191cf8630","ios":"levelo://app?vid=a0a67bd8-5c45-40bf-b3cf-4bc191cf8630"},"vehicle_type_id":"4","last_reported":1770538835,"current_range_meters":4800,"station_id":"ce4bhmp2rcd13ifvqgog","pricing_plan_id":"cebpf4jnsgd1na2vs0mg"},{"bike_id":"fb50550a-664f-432c-81a9-9b6ae7c31a3f","system_id":"levelo_inurba_marseille","lat":43.26958,"lon":5.38635,"is_reserved":false,"is_disabled":false,"rental_uris":{"android":"levelo://app?vid=fb50550a-664f-432c-81a9-9b6ae7c31a3f","ios":"levelo://app?vid=fb50550a-664f-432c-81a9-9b6ae7c31a3f"},"vehicle_type_id":"4","last_reported":1770538835,"current_range_meters":4800,"station_id":"ce4bhh92rcd13ifvqfh0","pricing_plan_id":"cebpf4jnsgd1na2vs0mg"},{"bike_id":"e8b3f3bc-4896-4dbc-afc4-dfc343612c09","system_id":"levelo_inurba_marseille","lat":43.314387,"lon":5.366947,"is_reserved":false,"is_disabled":false,"rental_uris":{"android":"levelo://app?vid=e8b3f3bc-4896-4dbc-afc4-dfc343612c09","ios":"levelo://app?vid=e8b3f3bc-4896-4dbc-afc4-dfc343612c09"},"vehicle_type_id":"4","last_reported":1770538835,"current_range_meters":4800,"station_id":"","pricing_plan_id":"cebpf4jnsgd1na2vs0mg"},{"bike_id":"2ec81cb6-b242-4efc-9239-073e770de218","system_id":"levelo_inurba_marseille","lat":43.26039,"lon":5.37548,"is_reserved":false,"is_disabled":false,"rental_uris":{"android":"levelo://app?vid=2ec81cb6-b242-4efc-9239-073e770de218","ios":"levelo://app?vid=2ec81cb6-b242-4efc-9239-073e770de218"},"vehicle_type_id":"4","last_reported":1770538835,"current_range_meters":4800,"station_id":"ce4bhgh2rcd13ifvqfa0","pricing_plan_id":"cebpf4jnsgd1na2vs0mg"},{"bike_id":"3424fe65-7365-4a3d-b40c-9b25ec3af19d","system_id":"levelo_inurba_marseille","lat":43.31297,"lon":5.38692,"is_reserved":false,"is_disabled":false,"rental_uris":{"android":"levelo://app?vid=3424fe65-7365-4a3d-b40c-9b25ec3af19d","ios":"levelo://app?vid=3424fe65-7365-4a3d-b40c-9b25ec3af19d"},"vehicle_type_id":"4","last_reported":1770538835,"current_range_meters":4800,"station_id":"","pricing_plan_id":"cebpf4jnsgd1na2vs0mg"},{"bike_id":"82f38651-b135-48cf-bb30-2efbdc34233b","system_id":"levelo_inurba_marseille","lat":43.29813,"lon":5.44074,"is_reserved":false,"is_disabled":false,"rental_uris":{"android":"levelo://app?vid=82f38651-b135-48cf-bb30-2efbdc34233b","ios":"levelo://app?vid=82f38651-b135-48cf-bb30-2efbdc34233b"},"vehicle_type_id":"4","last_reported":1770538835,"current_range_meters":4800,"station_id":"st_d3jp68qikq2c7381ktn0","pricing_plan_id":"cebpf4jnsgd1na2vs0mg"},{"bike_id":"07fe9fa6-8ba5-4426-9dc7-81b5cb2cb051","system_id":"levelo_inurba_marseille","lat":43.26554,"lon":5.4036,"is_reserved":false,"is_disabled":false,"rental_uris":{"android":"levelo://app?vid=07fe9fa6-8ba5-4426-9dc7-81b5cb2cb051","ios":"levelo://app?vid=07fe9fa6-8ba5-4426-9dc7-81b5cb2cb051"},"vehicle_type_id":"4","last_reported":1770538835,"current_range_meters":4800,"station_id":"ce4bhmp2rcd13ifvqgng","pricing_plan_id":"cebpf4jnsgd1na2vs0mg"},{"bike_id":"cf390b5c-61cb-46fb-b3b1-927002842a8d","system_id":"levelo_inurba_marseille","lat":43.28865,"lon":5.35831,"is_reserved":false,"is_disabled":false,"rental_uris":{"android":"levelo://app?vid=cf390b5c-61cb-46fb-b3b1-927002842a8d","ios":"levelo://app?vid=cf390b5c-61cb-46fb-b3b1-927002842a8d"},"vehicle_type_id":"4","last_reported":1770538835,"current_range_meters":4800,"station_id":"ce4bhb12rcd13ifvqem0","pricing_plan_id":"cebpf4jnsgd1na2vs0mg"},{"bike_id":"6b6b3044-dd0e-4787-8945-aab93fdd08a2","system_id":"levelo_inurba_marseille","lat":43.298206,"lon":5.374005,"is_reserved":false,"is_disabled":false,"rental_uris":{"android":"levelo://app?vid=6b6b3044-dd0e-4787-8945-aab93fdd08a2","ios":"levelo://app?vid=6b6b3044-dd0e-4787-8945-aab93fdd08a2"},"vehicle_type_id":"4","last_reported":1770538835,"current_range_meters":4800,"station_id":"","pricing_plan_id":"cebpf4jnsgd1na2vs0mg"},{"bike_id":"13a66910-aa65-4559-ba7a-e63b61e82f6f","system_id":"levelo_inurba_marseille","lat":43.29541,"lon":5.42276,"is_reserved":false,"is_disabled":false,"rental_uris":{"android":"levelo://app?vid=13a66910-aa65-4559-ba7a-e63b61e82f6f","ios":"levelo://app?vid=13a66910-aa65-4559-ba7a-e63b61e82f6f"},"vehicle_type_id":"4","last_reported":1770538835,"current_range_meters":4800,"station_id":"ce4bhph2rcd13ifvqhdg","pricing_plan_id":"cebpf4jnsgd1na2vs0mg"},{"bike_id":"4308129b-6751-4273-bbe8-20208f30cb65","system_id":"levelo_inurba_marseille","lat":43.22932,"lon":5.35374,"is_reserved":false,"is_disabled":false,"rental_uris":{"android":"levelo://app?vid=4308129b-6751-4273-bbe8-20208f30cb65","ios":"levelo://app?vid=4308129b-6751-4273-bbe8-20208f30cb65"},"vehicle_type_id":"4","last_reported":1770538835,"current_range_meters":4800,"station_id":"cpo3532slgdg3j2ikp40","pricing_plan_id":"cebpf4jnsgd1na2vs0mg"},{"bike_id":"c64e74b1-32b9-4f69-a265-54b18405fb98","system_id":"levelo_inurba_marseille","lat":43.27826,"lon":5.39203,"is_reserved":false,"is_disabled":false,"rental_uris":{"android":"levelo://app?vid=c64e74b1-32b9-4f69-a265-54b18405fb98","ios":"levelo://app?vid=c64e74b1-32b9-4f69-a265-54b18405fb98"},"vehicle_type_id":"4","last_reported":1770538835,"current_range_meters":5600,"station_id":"ce4bhjp2rcd13ifvqga0","pricing_plan_id":"cebpf4jnsgd1na2vs0mg"},{"bike_id":"bb5cab08-186f-4af0-9cfa-2f009cafe5c6","system_id":"levelo_inurba_marseille","lat":43.22936,"lon":5.35365,"is_reserved":false,"is_disabled":false,"rental_uris":{"android":"levelo://app?vid=bb5cab08-186f-4af0-9cfa-2f009cafe5c6","ios":"levelo://app?vid=bb5cab08-186f-4af0-9cfa-2f009cafe5c6"},"vehicle_type_id":"4","last_reported":1770538835,"current_range_meters":5600,"station_id":"cpo3532slgdg3j2ikp40","pricing_plan_id":"cebpf4jnsgd1na2vs0mg"},{"bike_id":"b92cefea-b054-4668-8b8f-6f3d47fab6c0","system_id":"levelo_inurba_marseille","lat":43.32108,"lon":5.36753,"is_reserved":false,"is_disabled":false,"rental_uris":{"android":"levelo://app?vid=b92cefea-b054-4668-8b8f-6f3d47fab6c0","ios":"levelo://app?vid=b92cefea-b054-4668-8b8f-6f3d47fab6c0"},"vehicle_type_id":"4","last_reported":1770538835,"current_range_meters":5600,"station_id":"ce4bhrh2rcd13ifvqhug","pricing_plan_id":"cebpf4jnsgd1na2vs0mg"},{"bike_id":"55701a05-0afd-44f2-b5ec-65dd45bfe15c","system_id":"levelo_inurba_marseille","lat":43.239615,"lon":5.366182,"is_reserved":false,"is_disabled":false,"rental_uris":{"android":"levelo://app?vid=55701a05-0afd-44f2-b5ec-65dd45bfe15c","ios":"levelo://app?vid=55701a05-0afd-44f2-b5ec-65dd45bfe15c"},"vehicle_type_id":"4","last_reported":1770538835,"current_range_meters":5600,"station_id":"ce4bhi12rcd13ifvqfp0","pricing_plan_id":"cebpf4jnsgd1na2vs0mg"},{"bike_id":"4940192c-cd9e-43b0-a8dd-fd4c04e7805e","system_id":"levelo_inurba_marseille","lat":43.22555,"lon":5.4163,"is_reserved":false,"is_disabled":false,"rental_uris":{"android":"levelo://app?vid=4940192c-cd9e-43b0-a8dd-fd4c04e7805e","ios":"levelo://app?vid=4940192c-cd9e-43b0-a8dd-fd4c04e7805e"},"vehicle_type_id":"4","last_reported":1770538835,"current_range_meters":5600,"station_id":"st_d2o4gvlbi1j2169b742g","pricing_plan_id":"cebpf4jnsgd1na2vs0mg"},{"bike_id":"386b4487-f2a2-455b-8ef5-022f78fae20f","system_id":"levelo_inurba_marseille","lat":43.24819,"lon":5.37486,"is_reserved":false,"is_disabled":false,"rental_uris":{"android":"levelo://app?vid=386b4487-f2a2-455b-8ef5-022f78fae20f","ios":"levelo://app?vid=386b4487-f2a2-455b-8ef5-022f78fae20f"},"vehicle_type_id":"4","last_reported":1770538835,"current_range_meters":5600,"station_id":"ce4bhgh2rcd13ifvqfb0","pricing_plan_id":"cebpf4jnsgd1na2vs0mg"},{"bike_id":"ff981718-737a-46d1-b7ba-67de65affffe","system_id":"levelo_inurba_marseille","lat":43.25809,"lon":5.39931,"is_reserved":false,"is_disabled":false,"rental_uris":{"android":"levelo://app?vid=ff981718-737a-46d1-b7ba-67de65affffe","ios":"levelo://app?vid=ff981718-737a-46d1-b7ba-67de65affffe"},"vehicle_type_id":"4","last_reported":1770538835,"current_range_meters":5600,"station_id":"","pricing_plan_id":"cebpf4jnsgd1na2vs0mg"},{"bike_id":"72ea63b3-1230-4860-ad81-641e0e69dbb6","system_id":"levelo_inurba_marseille","lat":43.2799,"lon":5.40018,"is_reserved":false,"is_disabled":false,"rental_uris":{"android":"levelo://app?vid=72ea63b3-1230-4860-ad81-641e0e69dbb6","ios":"levelo://app?vid=72ea63b3-1230-4860-ad81-641e0e69dbb6"},"vehicle_type_id":"4","last_reported":1770538835,"current_range_meters":5600,"station_id":"ce4bho92rcd13ifvqh4g","pricing_plan_id":"cebpf4jnsgd1na2vs0mg"},{"bike_id":"56eb7c62-938b-4044-8448-c5e5eb275fa6","system_id":"levelo_inurba_marseille","lat":43.2871,"lon":5.3792,"is_reserved":false,"is_disabled":false,"rental_uris":{"android":"levelo://app?vid=56eb7c62-938b-4044-8448-c5e5eb275fa6","ios":"levelo://app?vid=56eb7c62-938b-4044-8448-c5e5eb275fa6"},"vehicle_type_id":"4","last_reported":1770538835,"current_range_meters":5600,"station_id":"ce4bh9p2rcd13ifvqec0","pricing_plan_id":"cebpf4jnsgd1na2vs0mg"},{"bike_id":"a85d500c-1b7e-4b3f-bba8-c0b38aec10c6","system_id":"levelo_inurba_marseille","lat":43.25919,"lon":5.40903,"is_reserved":false,"is_disabled":false,"rental_uris":{"android":"levelo://app?vid=a85d500c-1b7e-4b3f-bba8-c0b38aec10c6","ios":"levelo://app?vid=a85d500c-1b7e-4b3f-bba8-c0b38aec10c6"},"vehicle_type_id":"4","last_reported":1770538835,"current_range_meters":5600,"station_id":"ce4bhm92rcd13ifvqglg","pricing_plan_id":"cebpf4jnsgd1na2vs0mg"},{"bike_id":"83eab603-5a81-40a3-afcb-498eea091594","system_id":"levelo_inurba_marseille","lat":43.28682,"lon":5.38658,"is_reserved":false,"is_disabled":false,"rental_uris":{"android":"levelo://app?vid=83eab603-5a81-40a3-afcb-498eea091594","ios":"levelo://app?vid=83eab603-5a81-40a3-afcb-498eea091594"},"vehicle_type_id":"4","last_reported":1770538835,"current_range_meters":5600,"station_id":"ce4bh492rcd13ifvqdug","pricing_plan_id":"cebpf4jnsgd1na2vs0mg"},{"bike_id":"72bda1ac-8887-4b27-9e63-8abca8128156","system_id":"levelo_inurba_marseille","lat":43.31036,"lon":5.37178,"is_reserved":false,"is_disabled":false,"rental_uris":{"android":"levelo://app?vid=72bda1ac-8887-4b27-9e63-8abca8128156","ios":"levelo://app?vid=72bda1ac-8887-4b27-9e63-8abca8128156"},"vehicle_type_id":"4","last_reported":1770538835,"current_range_meters":5600,"station_id":"st_d4kl2rp97mjs73e7tdfg","pricing_plan_id":"cebpf4jnsgd1na2vs0mg"},{"bike_id":"5ca8c1d9-918c-49a8-94fc-176d97e6e81b","system_id":"levelo_inurba_marseille","lat":43.29221,"lon":5.36068,"is_reserved":false,"is_disabled":false,"rental_uris":{"android":"levelo://app?vid=5ca8c1d9-918c-49a8-94fc-176d97e6e81b","ios":"levelo://app?vid=5ca8c1d9-918c-49a8-94fc-176d97e6e81b"},"vehicle_type_id":"4","last_reported":1770538835,"current_range_meters":5600,"station_id":"ce4bhbh2rcd13ifvqeqg","pricing_plan_id":"cebpf4jnsgd1na2vs0mg"},{"bike_id":"113234b1-2bc1-45b4-ad84-5db7d3558e4a","system_id":"levelo_inurba_marseille","lat":43.3112,"lon":5.37754,"is_reserved":false,"is_disabled":false,"rental_uris":{"android":"levelo://app?vid=113234b1-2bc1-45b4-ad84-5db7d3558e4a","ios":"levelo://app?vid=113234b1-2bc1-45b4-ad84-5db7d3558e4a"},"vehicle_type_id":"4","last_reported":1770538835,"current_range_meters":5600,"station_id":"ce4bgt92rcd13ifvqcg0","pricing_plan_id":"cebpf4jnsgd1na2vs0mg"},{"bike_id":"71f0848e-0da5-42b2-bd09-102003c22f59","system_id":"levelo_inurba_marseille","lat":43.24955,"lon":5.40521,"is_reserved":false,"is_disabled":false,"rental_uris":{"android":"levelo://app?vid=71f0848e-0da5-42b2-bd09-102003c22f59","ios":"levelo://app?vid=71f0848e-0da5-42b2-bd09-102003c22f59"},"vehicle_type_id":"4","last_reported":1770538835,"current_range_meters":5600,"station_id":"st_d2ngiaodas8pm72gd1h0","pricing_plan_id":"cebpf4jnsgd1na2vs0mg"},{"bike_id":"11616263-142c-4dd0-a9e9-585090690c40","system_id":"levelo_inurba_marseille","lat":43.2463,"lon":5.43127,"is_reserved":false,"is_disabled":false,"rental_uris":{"android":"levelo://app?vid=11616263-142c-4dd0-a9e9-585090690c40","ios":"levelo://app?vid=11616263-142c-4dd0-a9e9-585090690c40"},"vehicle_type_id":"4","last_reported":1770538835,"current_range_meters":6000,"station_id":"st_d2m6c4gdas8pm72e190g","pricing_plan_id":"cebpf4jnsgd1na2vs0mg"},{"bike_id":"a8166b5b-d24f-4bfd-bc3a-e719ac9d4b2e","system_id":"levelo_inurba_marseille","lat":43.28031,"lon":5.40886,"is_reserved":false,"is_disabled":false,"rental_uris":{"android":"levelo://app?vid=a8166b5b-d24f-4bfd-bc3a-e719ac9d4b2e","ios":"levelo://app?vid=a8166b5b-d24f-4bfd-bc3a-e719ac9d4b2e"},"vehicle_type_id":"4","last_reported":1770538835,"current_range_meters":6000,"station_id":"","pricing_plan_id":"cebpf4jnsgd1na2vs0mg"},{"bike_id":"03431b60-4c57-4b38-a44e-dd832c690cfa","system_id":"levelo_inurba_marseille","lat":43.28448,"lon":5.38474,"is_reserved":false,"is_disabled":false,"rental_uris":{"android":"levelo://app?vid=03431b60-4c57-4b38-a44e-dd832c690cfa","ios":"levelo://app?vid=03431b60-4c57-4b38-a44e-dd832c690cfa"},"vehicle_type_id":"4","last_reported":1770538835,"current_range_meters":6000,"station_id":"","pricing_plan_id":"cebpf4jnsgd1na2vs0mg"},{"bike_id":"811ecfab-1e6f-4cd1-8960-403c2a502307","system_id":"levelo_inurba_marseille","lat":43.22905,"lon":5.35416,"is_reserved":false,"is_disabled":false,"rental_uris":{"android":"levelo://app?vid=811ecfab-1e6f-4cd1-8960-403c2a502307","ios":"levelo://app?vid=811ecfab-1e6f-4cd1-8960-403c2a502307"},"vehicle_type_id":"4","last_reported":1770538835,"current_range_meters":6000,"station_id":"cpo3532slgdg3j2ikp40","pricing_plan_id":"cebpf4jnsgd1na2vs0mg"},{"bike_id":"574a237c-726e-4c0f-b75b-afd451cb0719","system_id":"levelo_inurba_marseille","lat":43.24182,"lon":5.39732,"is_reserved":false,"is_disabled":false,"rental_uris":{"android":"levelo://app?vid=574a237c-726e-4c0f-b75b-afd451cb0719","ios":"levelo://app?vid=574a237c-726e-4c0f-b75b-afd451cb0719"},"vehicle_type_id":"4","last_reported":1770538835,"current_range_meters":6000,"station_id":"ce4bhn12rcd13ifvqgpg","pricing_plan_id":"cebpf4jnsgd1na2vs0mg"},{"bike_id":"da01ebd3-fc49-4158-857b-11e2862b753c","system_id":"levelo_inurba_marseille","lat":43.30694,"lon":5.40071,"is_reserved":false,"is_disabled":false,"rental_uris":{"android":"levelo://app?vid=da01ebd3-fc49-4158-857b-11e2862b753c","ios":"levelo://app?vid=da01ebd3-fc49-4158-857b-11e2862b753c"},"vehicle_type_id":"4","last_reported":1770538835,"current_range_meters":6000,"station_id":"","pricing_plan_id":"cebpf4jnsgd1na2vs0mg"},{"bike_id":"9c27da16-0b95-483f-acc9-aaafd261f73e","system_id":"levelo_inurba_marseille","lat":43.30903,"lon":5.36865,"is_reserved":false,"is_disabled":false,"rental_uris":{"android":"levelo://app?vid=9c27da16-0b95-483f-acc9-aaafd261f73e","ios":"levelo://app?vid=9c27da16-0b95-483f-acc9-aaafd261f73e"},"vehicle_type_id":"4","last_reported":1770538835,"current_range_meters":6000,"station_id":"ce4bgn92rcd13ifvqbvg","pricing_plan_id":"cebpf4jnsgd1na2vs0mg"},{"bike_id":"3aed5847-38a3-483f-a302-c0e755a4674d","system_id":"levelo_inurba_marseille","lat":43.26376,"lon":5.41051,"is_reserved":false,"is_disabled":false,"rental_uris":{"android":"levelo://app?vid=3aed5847-38a3-483f-a302-c0e755a4674d","ios":"levelo://app?vid=3aed5847-38a3-483f-a302-c0e755a4674d"},"vehicle_type_id":"4","last_reported":1770538835,"current_range_meters":6000,"station_id":"st_d4e5ca6na9uc73bfl5fg","pricing_plan_id":"cebpf4jnsgd1na2vs0mg"},{"bike_id":"ea86ad31-3c48-4762-b09a-aeec51606818","system_id":"levelo_inurba_marseille","lat":43.2848,"lon":5.38551,"is_reserved":false,"is_disabled":false,"rental_uris":{"android":"levelo://app?vid=ea86ad31-3c48-4762-b09a-aeec51606818","ios":"levelo://app?vid=ea86ad31-3c48-4762-b09a-aeec51606818"},"vehicle_type_id":"4","last_reported":1770538835,"current_range_meters":6000,"station_id":"ce4bh8p2rcd13ifvqeb0","pricing_plan_id":"cebpf4jnsgd1na2vs0mg"},{"bike_id":"b0331170-4722-484f-85fa-ff26f59380f0","system_id":"levelo_inurba_marseille","lat":43.29476,"lon":5.43309,"is_reserved":false,"is_disabled":false,"rental_uris":{"android":"levelo://app?vid=b0331170-4722-484f-85fa-ff26f59380f0","ios":"levelo://app?vid=b0331170-4722-484f-85fa-ff26f59380f0"},"vehicle_type_id":"4","last_reported":1770538835,"current_range_meters":6000,"station_id":"st_d3j5ugp08ojc73fj9d10","pricing_plan_id":"cebpf4jnsgd1na2vs0mg"},{"bike_id":"eb8357b7-4f73-4001-947c-ae8ec1adfbd4","system_id":"levelo_inurba_marseille","lat":43.273435,"lon":5.390725,"is_reserved":false,"is_disabled":false,"rental_uris":{"android":"levelo://app?vid=eb8357b7-4f73-4001-947c-ae8ec1adfbd4","ios":"levelo://app?vid=eb8357b7-4f73-4001-947c-ae8ec1adfbd4"},"vehicle_type_id":"4","last_reported":1770538835,"current_range_meters":6400,"station_id":"ce4bhgp2rcd13ifvqfe0","pricing_plan_id":"cebpf4jnsgd1na2vs0mg"},{"bike_id":"e4a0f913-c11d-44fe-9550-8902e8340c94","system_id":"levelo_inurba_marseille","lat":43.24795,"lon":5.3746,"is_reserved":false,"is_disabled":false,"rental_uris":{"android":"levelo://app?vid=e4a0f913-c11d-44fe-9550-8902e8340c94","ios":"levelo://app?vid=e4a0f913-c11d-44fe-9550-8902e8340c94"},"vehicle_type_id":"4","last_reported":1770538835,"current_range_meters":6400,"station_id":"ce4bhgh2rcd13ifvqfb0","pricing_plan_id":"cebpf4jnsgd1na2vs0mg"},{"bike_id":"32641f13-9d93-4f9b-b623-ce0c373ebef8","system_id":"levelo_inurba_marseille","lat":43.28516,"lon":5.38428,"is_reserved":false,"is_disabled":false,"rental_uris":{"android":"levelo://app?vid=32641f13-9d93-4f9b-b623-ce0c373ebef8","ios":"levelo://app?vid=32641f13-9d93-4f9b-b623-ce0c373ebef8"},"vehicle_type_id":"4","last_reported":1770538835,"current_range_meters":6400,"station_id":"ce4bh512rcd13ifvqe3g","pricing_plan_id":"cebpf4jnsgd1na2vs0mg"},{"bike_id":"a73a15e0-62ef-44a0-9edc-ef7889b56e93","system_id":"levelo_inurba_marseille","lat":43.30142,"lon":5.38087,"is_reserved":false,"is_disabled":false,"rental_uris":{"android":"levelo://app?vid=a73a15e0-62ef-44a0-9edc-ef7889b56e93","ios":"levelo://app?vid=a73a15e0-62ef-44a0-9edc-ef7889b56e93"},"vehicle_type_id":"4","last_reported":1770538835,"current_range_meters":6400,"station_id":"ce4bgjp2rcd13ifvqbh0","pricing_plan_id":"cebpf4jnsgd1na2vs0mg"},{"bike_id":"006f45de-433c-4fe3-81a6-3dac1db63eac","system_id":"levelo_inurba_marseille","lat":43.24462,"lon":5.42561,"is_reserved":false,"is_disabled":false,"rental_uris":{"android":"levelo://app?vid=006f45de-433c-4fe3-81a6-3dac1db63eac","ios":"levelo://app?vid=006f45de-433c-4fe3-81a6-3dac1db63eac"},"vehicle_type_id":"4","last_reported":1770538835,"current_range_meters":6400,"station_id":"st_d4a3vfp97mjs738cd8kg","pricing_plan_id":"cebpf4jnsgd1na2vs0mg"},{"bike_id":"6d4d7125-f230-40ff-9866-8a80f2da0b0b","system_id":"levelo_inurba_marseille","lat":43.2293,"lon":5.3538,"is_reserved":false,"is_disabled":false,"rental_uris":{"android":"levelo://app?vid=6d4d7125-f230-40ff-9866-8a80f2da0b0b","ios":"levelo://app?vid=6d4d7125-f230-40ff-9866-8a80f2da0b0b"},"vehicle_type_id":"4","last_reported":1770538835,"current_range_meters":6400,"station_id":"cpo3532slgdg3j2ikp40","pricing_plan_id":"cebpf4jnsgd1na2vs0mg"},{"bike_id":"7d133632-afa7-496a-89cf-31f9337d1c83","system_id":"levelo_inurba_marseille","lat":43.29055,"lon":5.37147,"is_reserved":false,"is_disabled":true,"rental_uris":{"android":"levelo://app?vid=7d133632-afa7-496a-89cf-31f9337d1c83","ios":"levelo://app?vid=7d133632-afa7-496a-89cf-31f9337d1c83"},"vehicle_type_id":"4","last_reported":1770538835,"current_range_meters":6400,"station_id":"ce4bh5p2rcd13ifvqe4g","pricing_plan_id":"cebpf4jnsgd1na2vs0mg"},{"bike_id":"0c0f8a2f-9a4d-41d4-989d-0153bebb1c3c","system_id":"levelo_inurba_marseille","lat":43.24596,"lon":5.38956,"is_reserved":false,"is_disabled":false,"rental_uris":{"android":"levelo://app?vid=0c0f8a2f-9a4d-41d4-989d-0153bebb1c3c","ios":"levelo://app?vid=0c0f8a2f-9a4d-41d4-989d-0153bebb1c3c"},"vehicle_type_id":"4","last_reported":1770538835,"current_range_meters":6400,"station_id":"","pricing_plan_id":"cebpf4jnsgd1na2vs0mg"},{"bike_id":"ea8c0580-dee3-43f3-bf01-1aa8969bd163","system_id":"levelo_inurba_marseille","lat":43.24152,"lon":5.36444,"is_reserved":false,"is_disabled":false,"rental_uris":{"android":"levelo://app?vid=ea8c0580-dee3-43f3-bf01-1aa8969bd163","ios":"levelo://app?vid=ea8c0580-dee3-43f3-bf01-1aa8969bd163"},"vehicle_type_id":"4","last_reported":1770538835,"current_range_meters":6400,"station_id":"cpo36qri1sfpv3e86is0","pricing_plan_id":"cebpf4jnsgd1na2vs0mg"},{"bike_id":"6216461a-536b-4362-ac08-815386365ad7","system_id":"levelo_inurba_marseille","lat":43.30133,"lon":5.4313,"is_reserved":false,"is_disabled":false,"rental_uris":{"android":"levelo://app?vid=6216461a-536b-4362-ac08-815386365ad7","ios":"levelo://app?vid=6216461a-536b-4362-ac08-815386365ad7"},"vehicle_type_id":"4","last_reported":1770538835,"current_range_meters":6400,"station_id":"st_d3js3co5814s73ftftug","pricing_plan_id":"cebpf4jnsgd1na2vs0mg"},{"bike_id":"6a144693-7691-4af0-a94f-86308d14d8c0","system_id":"levelo_inurba_marseille","lat":43.2589,"lon":5.40898,"is_reserved":false,"is_disabled":false,"rental_uris":{"android":"levelo://app?vid=6a144693-7691-4af0-a94f-86308d14d8c0","ios":"levelo://app?vid=6a144693-7691-4af0-a94f-86308d14d8c0"},"vehicle_type_id":"4","last_reported":1770538835,"current_range_meters":6400,"station_id":"ce4bhm92rcd13ifvqglg","pricing_plan_id":"cebpf4jnsgd1na2vs0mg"},{"bike_id":"09986119-327c-45bf-b6a8-e15c339167ea","system_id":"levelo_inurba_marseille","lat":43.28492,"lon":5.4398,"is_reserved":false,"is_disabled":false,"rental_uris":{"android":"levelo://app?vid=09986119-327c-45bf-b6a8-e15c339167ea","ios":"levelo://app?vid=09986119-327c-45bf-b6a8-e15c339167ea"},"vehicle_type_id":"4","last_reported":1770538835,"current_range_meters":6400,"station_id":"","pricing_plan_id":"cebpf4jnsgd1na2vs0mg"},{"bike_id":"c01c1eb5-02d8-4153-9e4a-3fd3df699b4d","system_id":"levelo_inurba_marseille","lat":43.27971,"lon":5.41708,"is_reserved":false,"is_disabled":false,"rental_uris":{"android":"levelo://app?vid=c01c1eb5-02d8-4153-9e4a-3fd3df699b4d","ios":"levelo://app?vid=c01c1eb5-02d8-4153-9e4a-3fd3df699b4d"},"vehicle_type_id":"4","last_reported":1770538835,"current_range_meters":6400,"station_id":"ce4bho12rcd13ifvqh1g","pricing_plan_id":"cebpf4jnsgd1na2vs0mg"},{"bike_id":"d55e8f59-f61e-47e0-acd8-2c1927e67bc8","system_id":"levelo_inurba_marseille","lat":43.30143,"lon":5.38102,"is_reserved":false,"is_disabled":false,"rental_uris":{"android":"levelo://app?vid=d55e8f59-f61e-47e0-acd8-2c1927e67bc8","ios":"levelo://app?vid=d55e8f59-f61e-47e0-acd8-2c1927e67bc8"},"vehicle_type_id":"4","last_reported":1770538835,"current_range_meters":6800,"station_id":"ce4bgjp2rcd13ifvqbh0","pricing_plan_id":"cebpf4jnsgd1na2vs0mg"},{"bike_id":"f5b27743-7338-4c04-b84d-ca79ac5e7ef4","system_id":"levelo_inurba_marseille","lat":43.28723,"lon":5.36085,"is_reserved":false,"is_disabled":false,"rental_uris":{"android":"levelo://app?vid=f5b27743-7338-4c04-b84d-ca79ac5e7ef4","ios":"levelo://app?vid=f5b27743-7338-4c04-b84d-ca79ac5e7ef4"},"vehicle_type_id":"4","last_reported":1770538835,"current_range_meters":6800,"station_id":"cki0cbj6b192h4jlfktg","pricing_plan_id":"cebpf4jnsgd1na2vs0mg"},{"bike_id":"31e52e49-2b8e-4bc3-9815-4a71a716ef19","system_id":"levelo_inurba_marseille","lat":43.29233,"lon":5.37669,"is_reserved":false,"is_disabled":false,"rental_uris":{"android":"levelo://app?vid=31e52e49-2b8e-4bc3-9815-4a71a716ef19","ios":"levelo://app?vid=31e52e49-2b8e-4bc3-9815-4a71a716ef19"},"vehicle_type_id":"4","last_reported":1770538835,"current_range_meters":6800,"station_id":"ce4bgi12rcd13ifvqb80","pricing_plan_id":"cebpf4jnsgd1na2vs0mg"},{"bike_id":"7e707e23-ddd5-4780-8ee7-af32e3a9fde6","system_id":"levelo_inurba_marseille","lat":43.32346,"lon":5.36731,"is_reserved":false,"is_disabled":false,"rental_uris":{"android":"levelo://app?vid=7e707e23-ddd5-4780-8ee7-af32e3a9fde6","ios":"levelo://app?vid=7e707e23-ddd5-4780-8ee7-af32e3a9fde6"},"vehicle_type_id":"4","last_reported":1770538835,"current_range_meters":6800,"station_id":"ce4bhsh2rcd13ifvqi2g","pricing_plan_id":"cebpf4jnsgd1na2vs0mg"},{"bike_id":"e6d03073-11a9-495e-8d13-201bb403d1fc","system_id":"levelo_inurba_marseille","lat":43.21194,"lon":5.35079,"is_reserved":false,"is_disabled":false,"rental_uris":{"android":"levelo://app?vid=e6d03073-11a9-495e-8d13-201bb403d1fc","ios":"levelo://app?vid=e6d03073-11a9-495e-8d13-201bb403d1fc"},"vehicle_type_id":"4","last_reported":1770538835,"current_range_meters":6800,"station_id":"st_cvj6sg6p6f1abm77japg","pricing_plan_id":"cebpf4jnsgd1na2vs0mg"},{"bike_id":"5e1c107b-6624-40f0-998c-ef84f3d71a9b","system_id":"levelo_inurba_marseille","lat":43.27321,"lon":5.3913,"is_reserved":false,"is_disabled":true,"rental_uris":{"android":"levelo://app?vid=5e1c107b-6624-40f0-998c-ef84f3d71a9b","ios":"levelo://app?vid=5e1c107b-6624-40f0-998c-ef84f3d71a9b"},"vehicle_type_id":"4","last_reported":1770538835,"current_range_meters":6800,"station_id":"ce4bhgp2rcd13ifvqfe0","pricing_plan_id":"cebpf4jnsgd1na2vs0mg"},{"bike_id":"508fb8b9-4cee-4799-8b3b-fa3d800ff13e","system_id":"levelo_inurba_marseille","lat":43.33551,"lon":5.37465,"is_reserved":false,"is_disabled":false,"rental_uris":{"android":"levelo://app?vid=508fb8b9-4cee-4799-8b3b-fa3d800ff13e","ios":"levelo://app?vid=508fb8b9-4cee-4799-8b3b-fa3d800ff13e"},"vehicle_type_id":"4","last_reported":1770538835,"current_range_meters":6800,"station_id":"st_d46tts09ee8s73dlu43g","pricing_plan_id":"cebpf4jnsgd1na2vs0mg"},{"bike_id":"62e4c22c-ba08-4e76-83ca-cbbe5a97d8d7","system_id":"levelo_inurba_marseille","lat":43.23189,"lon":5.35566,"is_reserved":false,"is_disabled":false,"rental_uris":{"android":"levelo://app?vid=62e4c22c-ba08-4e76-83ca-cbbe5a97d8d7","ios":"levelo://app?vid=62e4c22c-ba08-4e76-83ca-cbbe5a97d8d7"},"vehicle_type_id":"4","last_reported":1770538835,"current_range_meters":6800,"station_id":"ce4bhu92rcd13ifvqi70","pricing_plan_id":"cebpf4jnsgd1na2vs0mg"},{"bike_id":"f5da9401-db7e-426f-9a0f-2330a30b8658","system_id":"levelo_inurba_marseille","lat":43.243959,"lon":5.37063,"is_reserved":false,"is_disabled":true,"rental_uris":{"android":"levelo://app?vid=f5da9401-db7e-426f-9a0f-2330a30b8658","ios":"levelo://app?vid=f5da9401-db7e-426f-9a0f-2330a30b8658"},"vehicle_type_id":"4","last_reported":1770538835,"current_range_meters":6800,"station_id":"ce4bhhh2rcd13ifvqfk0","pricing_plan_id":"cebpf4jnsgd1na2vs0mg"},{"bike_id":"b1fb2593-722e-4b27-b775-53d60aaf6584","system_id":"levelo_inurba_marseille","lat":43.28918,"lon":5.38397,"is_reserved":false,"is_disabled":false,"rental_uris":{"android":"levelo://app?vid=b1fb2593-722e-4b27-b775-53d60aaf6584","ios":"levelo://app?vid=b1fb2593-722e-4b27-b775-53d60aaf6584"},"vehicle_type_id":"4","last_reported":1770538835,"current_range_meters":6800,"station_id":"ce4bh612rcd13ifvqe6g","pricing_plan_id":"cebpf4jnsgd1na2vs0mg"},{"bike_id":"d9d493c8-2229-4bda-a958-4c19d5464801","system_id":"levelo_inurba_marseille","lat":43.25845,"lon":5.39922,"is_reserved":false,"is_disabled":false,"rental_uris":{"android":"levelo://app?vid=d9d493c8-2229-4bda-a958-4c19d5464801","ios":"levelo://app?vid=d9d493c8-2229-4bda-a958-4c19d5464801"},"vehicle_type_id":"4","last_reported":1770538835,"current_range_meters":6800,"station_id":"ce4bhl92rcd13ifvqghg","pricing_plan_id":"cebpf4jnsgd1na2vs0mg"},{"bike_id":"4c1d817c-2311-4829-b074-c35d06d3a077","system_id":"levelo_inurba_marseille","lat":43.22928,"lon":5.35378,"is_reserved":false,"is_disabled":false,"rental_uris":{"android":"levelo://app?vid=4c1d817c-2311-4829-b074-c35d06d3a077","ios":"levelo://app?vid=4c1d817c-2311-4829-b074-c35d06d3a077"},"vehicle_type_id":"4","last_reported":1770538835,"current_range_meters":6800,"station_id":"cpo3532slgdg3j2ikp40","pricing_plan_id":"cebpf4jnsgd1na2vs0mg"},{"bike_id":"815a6660-37e0-4b25-ab5c-a472e59ba5fe","system_id":"levelo_inurba_marseille","lat":43.30875,"lon":5.39656,"is_reserved":false,"is_disabled":false,"rental_uris":{"android":"levelo://app?vid=815a6660-37e0-4b25-ab5c-a472e59ba5fe","ios":"levelo://app?vid=815a6660-37e0-4b25-ab5c-a472e59ba5fe"},"vehicle_type_id":"4","last_reported":1770538835,"current_range_meters":6800,"station_id":"ce4bh012rcd13ifvqcv0","pricing_plan_id":"cebpf4jnsgd1na2vs0mg"},{"bike_id":"2cb5a43b-e623-4a02-b02d-84a79ff3e02e","system_id":"levelo_inurba_marseille","lat":43.2255,"lon":5.41632,"is_reserved":false,"is_disabled":false,"rental_uris":{"android":"levelo://app?vid=2cb5a43b-e623-4a02-b02d-84a79ff3e02e","ios":"levelo://app?vid=2cb5a43b-e623-4a02-b02d-84a79ff3e02e"},"vehicle_type_id":"4","last_reported":1770538835,"current_range_meters":7200,"station_id":"st_d2o4gvlbi1j2169b742g","pricing_plan_id":"cebpf4jnsgd1na2vs0mg"},{"bike_id":"0f9398e4-1c51-403f-8553-7aa3b9b52ae1","system_id":"levelo_inurba_marseille","lat":43.2849,"lon":5.3842,"is_reserved":false,"is_disabled":false,"rental_uris":{"android":"levelo://app?vid=0f9398e4-1c51-403f-8553-7aa3b9b52ae1","ios":"levelo://app?vid=0f9398e4-1c51-403f-8553-7aa3b9b52ae1"},"vehicle_type_id":"4","last_reported":1770538835,"current_range_meters":7200,"station_id":"ce4bh512rcd13ifvqe3g","pricing_plan_id":"cebpf4jnsgd1na2vs0mg"},{"bike_id":"5cdd27df-1aa5-4830-b5fc-91672ce179d3","system_id":"levelo_inurba_marseille","lat":43.27937,"lon":5.41076,"is_reserved":false,"is_disabled":true,"rental_uris":{"android":"levelo://app?vid=5cdd27df-1aa5-4830-b5fc-91672ce179d3","ios":"levelo://app?vid=5cdd27df-1aa5-4830-b5fc-91672ce179d3"},"vehicle_type_id":"4","last_reported":1770538835,"current_range_meters":7200,"station_id":"ce4bhnp2rcd13ifvqh0g","pricing_plan_id":"cebpf4jnsgd1na2vs0mg"},{"bike_id":"beda68ef-f369-4f32-832a-0322245f271f","system_id":"levelo_inurba_marseille","lat":43.286167,"lon":5.351072,"is_reserved":false,"is_disabled":false,"rental_uris":{"android":"levelo://app?vid=beda68ef-f369-4f32-832a-0322245f271f","ios":"levelo://app?vid=beda68ef-f369-4f32-832a-0322245f271f"},"vehicle_type_id":"4","last_reported":1770538835,"current_range_meters":7200,"station_id":"ce4bhch2rcd13ifvqeug","pricing_plan_id":"cebpf4jnsgd1na2vs0mg"},{"bike_id":"f347f38b-586a-47f7-87b2-e9623efd8a40","system_id":"levelo_inurba_marseille","lat":43.31505,"lon":5.37261,"is_reserved":false,"is_disabled":false,"rental_uris":{"android":"levelo://app?vid=f347f38b-586a-47f7-87b2-e9623efd8a40","ios":"levelo://app?vid=f347f38b-586a-47f7-87b2-e9623efd8a40"},"vehicle_type_id":"4","last_reported":1770538835,"current_range_meters":7200,"station_id":"ce4bgt12rcd13ifvqcd0","pricing_plan_id":"cebpf4jnsgd1na2vs0mg"},{"bike_id":"8c1d327c-0aef-40f2-9c1e-c8f679c30716","system_id":"levelo_inurba_marseille","lat":43.303158,"lon":5.369074,"is_reserved":false,"is_disabled":false,"rental_uris":{"android":"levelo://app?vid=8c1d327c-0aef-40f2-9c1e-c8f679c30716","ios":"levelo://app?vid=8c1d327c-0aef-40f2-9c1e-c8f679c30716"},"vehicle_type_id":"4","last_reported":1770538835,"current_range_meters":7200,"station_id":"ce4bgqh2rcd13ifvqc5g","pricing_plan_id":"cebpf4jnsgd1na2vs0mg"},{"bike_id":"f957ccc7-2bd4-4806-8d87-912204afeaf8","system_id":"levelo_inurba_marseille","lat":43.27916,"lon":5.38261,"is_reserved":false,"is_disabled":false,"rental_uris":{"android":"levelo://app?vid=f957ccc7-2bd4-4806-8d87-912204afeaf8","ios":"levelo://app?vid=f957ccc7-2bd4-4806-8d87-912204afeaf8"},"vehicle_type_id":"4","last_reported":1770538835,"current_range_meters":7200,"station_id":"","pricing_plan_id":"cebpf4jnsgd1na2vs0mg"},{"bike_id":"c8009395-3528-46a2-8006-ca2eedbb04a8","system_id":"levelo_inurba_marseille","lat":43.324789,"lon":5.365711,"is_reserved":false,"is_disabled":false,"rental_uris":{"android":"levelo://app?vid=c8009395-3528-46a2-8006-ca2eedbb04a8","ios":"levelo://app?vid=c8009395-3528-46a2-8006-ca2eedbb04a8"},"vehicle_type_id":"4","last_reported":1770538835,"current_range_meters":7200,"station_id":"ce4bhs12rcd13ifvqhvg","pricing_plan_id":"cebpf4jnsgd1na2vs0mg"},{"bike_id":"e8457bb3-f99d-40e0-aa19-6d3fdf1a5998","system_id":"levelo_inurba_marseille","lat":43.28097,"lon":5.42653,"is_reserved":false,"is_disabled":false,"rental_uris":{"android":"levelo://app?vid=e8457bb3-f99d-40e0-aa19-6d3fdf1a5998","ios":"levelo://app?vid=e8457bb3-f99d-40e0-aa19-6d3fdf1a5998"},"vehicle_type_id":"4","last_reported":1770538835,"current_range_meters":7200,"station_id":"","pricing_plan_id":"cebpf4jnsgd1na2vs0mg"},{"bike_id":"9c9db9d5-0e0c-47a3-a905-8fcf5962983e","system_id":"levelo_inurba_marseille","lat":43.2317,"lon":5.35551,"is_reserved":false,"is_disabled":false,"rental_uris":{"android":"levelo://app?vid=9c9db9d5-0e0c-47a3-a905-8fcf5962983e","ios":"levelo://app?vid=9c9db9d5-0e0c-47a3-a905-8fcf5962983e"},"vehicle_type_id":"4","last_reported":1770538835,"current_range_meters":7200,"station_id":"ce4bhu92rcd13ifvqi70","pricing_plan_id":"cebpf4jnsgd1na2vs0mg"},{"bike_id":"0225a449-4249-4004-84d1-5a647c90cc93","system_id":"levelo_inurba_marseille","lat":43.33588,"lon":5.41009,"is_reserved":false,"is_disabled":false,"rental_uris":{"android":"levelo://app?vid=0225a449-4249-4004-84d1-5a647c90cc93","ios":"levelo://app?vid=0225a449-4249-4004-84d1-5a647c90cc93"},"vehicle_type_id":"4","last_reported":1770538835,"current_range_meters":7200,"station_id":"ce4bhqh2rcd13ifvqhmg","pricing_plan_id":"cebpf4jnsgd1na2vs0mg"},{"bike_id":"26186149-1f7e-4193-b24c-ea17fffbf04e","system_id":"levelo_inurba_marseille","lat":43.28671,"lon":5.40023,"is_reserved":false,"is_disabled":false,"rental_uris":{"android":"levelo://app?vid=26186149-1f7e-4193-b24c-ea17fffbf04e","ios":"levelo://app?vid=26186149-1f7e-4193-b24c-ea17fffbf04e"},"vehicle_type_id":"4","last_reported":1770538835,"current_range_meters":7200,"station_id":"ce4bho92rcd13ifvqh3g","pricing_plan_id":"cebpf4jnsgd1na2vs0mg"},{"bike_id":"8138c7ab-272e-47d5-82e8-142e12d30a9b","system_id":"levelo_inurba_marseille","lat":43.3208,"lon":5.36771,"is_reserved":false,"is_disabled":false,"rental_uris":{"android":"levelo://app?vid=8138c7ab-272e-47d5-82e8-142e12d30a9b","ios":"levelo://app?vid=8138c7ab-272e-47d5-82e8-142e12d30a9b"},"vehicle_type_id":"4","last_reported":1770538835,"current_range_meters":7200,"station_id":"ce4bhrh2rcd13ifvqhug","pricing_plan_id":"cebpf4jnsgd1na2vs0mg"},{"bike_id":"968f210a-55fc-4510-bcd2-d3ede65fbe45","system_id":"levelo_inurba_marseille","lat":43.3248,"lon":5.3657,"is_reserved":false,"is_disabled":false,"rental_uris":{"android":"levelo://app?vid=968f210a-55fc-4510-bcd2-d3ede65fbe45","ios":"levelo://app?vid=968f210a-55fc-4510-bcd2-d3ede65fbe45"},"vehicle_type_id":"4","last_reported":1770538835,"current_range_meters":7200,"station_id":"ce4bhs12rcd13ifvqhvg","pricing_plan_id":"cebpf4jnsgd1na2vs0mg"},{"bike_id":"6b9ad2f0-0d88-40ff-a88f-7ddf87de7fb0","system_id":"levelo_inurba_marseille","lat":43.29897,"lon":5.43676,"is_reserved":false,"is_disabled":false,"rental_uris":{"android":"levelo://app?vid=6b9ad2f0-0d88-40ff-a88f-7ddf87de7fb0","ios":"levelo://app?vid=6b9ad2f0-0d88-40ff-a88f-7ddf87de7fb0"},"vehicle_type_id":"4","last_reported":1770538835,"current_range_meters":8000,"station_id":"ce4bhpp2rcd13ifvqhfg","pricing_plan_id":"cebpf4jnsgd1na2vs0mg"},{"bike_id":"13ce2358-2d78-4000-bbd2-230bee171af5","system_id":"levelo_inurba_marseille","lat":43.28613,"lon":5.39918,"is_reserved":false,"is_disabled":false,"rental_uris":{"android":"levelo://app?vid=13ce2358-2d78-4000-bbd2-230bee171af5","ios":"levelo://app?vid=13ce2358-2d78-4000-bbd2-230bee171af5"},"vehicle_type_id":"4","last_reported":1770538835,"current_range_meters":8000,"station_id":"st_d4a7ka997mjs738ck50g","pricing_plan_id":"cebpf4jnsgd1na2vs0mg"},{"bike_id":"d78dd041-310c-49df-a170-79f2a0d5e471","system_id":"levelo_inurba_marseille","lat":43.28686,"lon":5.36341,"is_reserved":false,"is_disabled":false,"rental_uris":{"android":"levelo://app?vid=d78dd041-310c-49df-a170-79f2a0d5e471","ios":"levelo://app?vid=d78dd041-310c-49df-a170-79f2a0d5e471"},"vehicle_type_id":"4","last_reported":1770538835,"current_range_meters":8000,"station_id":"ce4bhah2rcd13ifvqej0","pricing_plan_id":"cebpf4jnsgd1na2vs0mg"},{"bike_id":"fc7e4b88-1656-4ea3-ac70-db935a568e8d","system_id":"levelo_inurba_marseille","lat":43.33144,"lon":5.37727,"is_reserved":false,"is_disabled":false,"rental_uris":{"android":"levelo://app?vid=fc7e4b88-1656-4ea3-ac70-db935a568e8d","ios":"levelo://app?vid=fc7e4b88-1656-4ea3-ac70-db935a568e8d"},"vehicle_type_id":"4","last_reported":1770538835,"current_range_meters":8000,"station_id":"st_d46cu089ee8s73dldbu0","pricing_plan_id":"cebpf4jnsgd1na2vs0mg"},{"bike_id":"a15bbded-05ca-465f-844e-c505328d58c9","system_id":"levelo_inurba_marseille","lat":43.26559,"lon":5.37298,"is_reserved":false,"is_disabled":false,"rental_uris":{"android":"levelo://app?vid=a15bbded-05ca-465f-844e-c505328d58c9","ios":"levelo://app?vid=a15bbded-05ca-465f-844e-c505328d58c9"},"vehicle_type_id":"4","last_reported":1770538835,"current_range_meters":8000,"station_id":"ce4bhg12rcd13ifvqf70","pricing_plan_id":"cebpf4jnsgd1na2vs0mg"},{"bike_id":"ec530521-2795-4ff9-af45-352d2124398c","system_id":"levelo_inurba_marseille","lat":43.31367,"lon":5.36719,"is_reserved":false,"is_disabled":true,"rental_uris":{"android":"levelo://app?vid=ec530521-2795-4ff9-af45-352d2124398c","ios":"levelo://app?vid=ec530521-2795-4ff9-af45-352d2124398c"},"vehicle_type_id":"4","last_reported":1770538835,"current_range_meters":8000,"station_id":"ce4bgr92rcd13ifvqc6g","pricing_plan_id":"cebpf4jnsgd1na2vs0mg"},{"bike_id":"b0e7feeb-1416-4406-b174-1e7f94d3553f","system_id":"levelo_inurba_marseille","lat":43.33542,"lon":5.37462,"is_reserved":false,"is_disabled":false,"rental_uris":{"android":"levelo://app?vid=b0e7feeb-1416-4406-b174-1e7f94d3553f","ios":"levelo://app?vid=b0e7feeb-1416-4406-b174-1e7f94d3553f"},"vehicle_type_id":"4","last_reported":1770538835,"current_range_meters":8000,"station_id":"","pricing_plan_id":"cebpf4jnsgd1na2vs0mg"},{"bike_id":"c7d4ca8f-b8f1-4b7b-9e36-e7d2725afa41","system_id":"levelo_inurba_marseille","lat":43.279504,"lon":5.387151,"is_reserved":false,"is_disabled":false,"rental_uris":{"android":"levelo://app?vid=c7d4ca8f-b8f1-4b7b-9e36-e7d2725afa41","ios":"levelo://app?vid=c7d4ca8f-b8f1-4b7b-9e36-e7d2725afa41"},"vehicle_type_id":"4","last_reported":1770538835,"current_range_meters":8000,"station_id":"ce4bhg12rcd13ifvqf80","pricing_plan_id":"cebpf4jnsgd1na2vs0mg"},{"bike_id":"a93a3f3a-fc89-4e32-a1fb-c7685626cbdd","system_id":"levelo_inurba_marseille","lat":43.31162,"lon":5.385599,"is_reserved":false,"is_disabled":false,"rental_uris":{"android":"levelo://app?vid=a93a3f3a-fc89-4e32-a1fb-c7685626cbdd","ios":"levelo://app?vid=a93a3f3a-fc89-4e32-a1fb-c7685626cbdd"},"vehicle_type_id":"4","last_reported":1770538835,"current_range_meters":8000,"station_id":"","pricing_plan_id":"cebpf4jnsgd1na2vs0mg"},{"bike_id":"9c7b49e3-2672-465f-9113-79b2777ffeb5","system_id":"levelo_inurba_marseille","lat":43.25057,"lon":5.39524,"is_reserved":false,"is_disabled":false,"rental_uris":{"android":"levelo://app?vid=9c7b49e3-2672-465f-9113-79b2777ffeb5","ios":"levelo://app?vid=9c7b49e3-2672-465f-9113-79b2777ffeb5"},"vehicle_type_id":"4","last_reported":1770538835,"current_range_meters":8000,"station_id":"ce4bhm12rcd13ifvqgkg","pricing_plan_id":"cebpf4jnsgd1na2vs0mg"},{"bike_id":"66f61838-99ce-449f-9957-4eada4297346","system_id":"levelo_inurba_marseille","lat":43.28315,"lon":5.38135,"is_reserved":false,"is_disabled":true,"rental_uris":{"android":"levelo://app?vid=66f61838-99ce-449f-9957-4eada4297346","ios":"levelo://app?vid=66f61838-99ce-449f-9957-4eada4297346"},"vehicle_type_id":"4","last_reported":1770538835,"current_range_meters":8000,"station_id":"ce4bh412rcd13ifvqdr0","pricing_plan_id":"cebpf4jnsgd1na2vs0mg"},{"bike_id":"cc15c3f8-a1dd-42d7-b66a-d239b7f484cf","system_id":"levelo_inurba_marseille","lat":43.24069,"lon":5.37769,"is_reserved":false,"is_disabled":false,"rental_uris":{"android":"levelo://app?vid=cc15c3f8-a1dd-42d7-b66a-d239b7f484cf","ios":"levelo://app?vid=cc15c3f8-a1dd-42d7-b66a-d239b7f484cf"},"vehicle_type_id":"4","last_reported":1770538835,"current_range_meters":8000,"station_id":"ce4bhnp2rcd13ifvqgvg","pricing_plan_id":"cebpf4jnsgd1na2vs0mg"},{"bike_id":"cfb9f90a-8bba-4df6-b769-b6924ddbf8e2","system_id":"levelo_inurba_marseille","lat":43.26163,"lon":5.37961,"is_reserved":false,"is_disabled":false,"rental_uris":{"android":"levelo://app?vid=cfb9f90a-8bba-4df6-b769-b6924ddbf8e2","ios":"levelo://app?vid=cfb9f90a-8bba-4df6-b769-b6924ddbf8e2"},"vehicle_type_id":"4","last_reported":1770538835,"current_range_meters":8000,"station_id":"","pricing_plan_id":"cebpf4jnsgd1na2vs0mg"},{"bike_id":"7e432d56-4167-484a-a6d0-1b8a4f18fe1c","system_id":"levelo_inurba_marseille","lat":43.22928,"lon":5.35383,"is_reserved":false,"is_disabled":false,"rental_uris":{"android":"levelo://app?vid=7e432d56-4167-484a-a6d0-1b8a4f18fe1c","ios":"levelo://app?vid=7e432d56-4167-484a-a6d0-1b8a4f18fe1c"},"vehicle_type_id":"4","last_reported":1770538835,"current_range_meters":8000,"station_id":"cpo3532slgdg3j2ikp40","pricing_plan_id":"cebpf4jnsgd1na2vs0mg"},{"bike_id":"38e17675-7860-40e7-9259-f712c1322146","system_id":"levelo_inurba_marseille","lat":43.2871,"lon":5.37906,"is_reserved":false,"is_disabled":false,"rental_uris":{"android":"levelo://app?vid=38e17675-7860-40e7-9259-f712c1322146","ios":"levelo://app?vid=38e17675-7860-40e7-9259-f712c1322146"},"vehicle_type_id":"4","last_reported":1770538835,"current_range_meters":8000,"station_id":"ce4bh9p2rcd13ifvqec0","pricing_plan_id":"cebpf4jnsgd1na2vs0mg"},{"bike_id":"dd062624-fea3-4d2b-902b-6c4d737892b0","system_id":"levelo_inurba_marseille","lat":43.27912,"lon":5.39595,"is_reserved":false,"is_disabled":false,"rental_uris":{"android":"levelo://app?vid=dd062624-fea3-4d2b-902b-6c4d737892b0","ios":"levelo://app?vid=dd062624-fea3-4d2b-902b-6c4d737892b0"},"vehicle_type_id":"4","last_reported":1770538835,"current_range_meters":8000,"station_id":"ce4bhf92rcd13ifvqf40","pricing_plan_id":"cebpf4jnsgd1na2vs0mg"},{"bike_id":"fbd8c4f9-3856-46a2-b291-e190e6907420","system_id":"levelo_inurba_marseille","lat":43.25003,"lon":5.38928,"is_reserved":false,"is_disabled":false,"rental_uris":{"android":"levelo://app?vid=fbd8c4f9-3856-46a2-b291-e190e6907420","ios":"levelo://app?vid=fbd8c4f9-3856-46a2-b291-e190e6907420"},"vehicle_type_id":"4","last_reported":1770538835,"current_range_meters":8000,"station_id":"ce4bhgp2rcd13ifvqfd0","pricing_plan_id":"cebpf4jnsgd1na2vs0mg"},{"bike_id":"1a1d969f-bada-4aaa-a461-ec3f4a01601c","system_id":"levelo_inurba_marseille","lat":43.335356,"lon":5.374696,"is_reserved":false,"is_disabled":false,"rental_uris":{"android":"levelo://app?vid=1a1d969f-bada-4aaa-a461-ec3f4a01601c","ios":"levelo://app?vid=1a1d969f-bada-4aaa-a461-ec3f4a01601c"},"vehicle_type_id":"4","last_reported":1770538835,"current_range_meters":8000,"station_id":"st_d46tts09ee8s73dlu43g","pricing_plan_id":"cebpf4jnsgd1na2vs0mg"},{"bike_id":"28ea6fbe-b592-43e0-b4f1-22356d5bc8f9","system_id":"levelo_inurba_marseille","lat":43.33557,"lon":5.37457,"is_reserved":false,"is_disabled":false,"rental_uris":{"android":"levelo://app?vid=28ea6fbe-b592-43e0-b4f1-22356d5bc8f9","ios":"levelo://app?vid=28ea6fbe-b592-43e0-b4f1-22356d5bc8f9"},"vehicle_type_id":"4","last_reported":1770538835,"current_range_meters":8000,"station_id":"st_d46tts09ee8s73dlu43g","pricing_plan_id":"cebpf4jnsgd1na2vs0mg"},{"bike_id":"7a2c796a-2c27-403d-a799-411424496833","system_id":"levelo_inurba_marseille","lat":43.26547,"lon":5.40314,"is_reserved":false,"is_disabled":false,"rental_uris":{"android":"levelo://app?vid=7a2c796a-2c27-403d-a799-411424496833","ios":"levelo://app?vid=7a2c796a-2c27-403d-a799-411424496833"},"vehicle_type_id":"4","last_reported":1770538835,"current_range_meters":8400,"station_id":"ce4bhmp2rcd13ifvqgng","pricing_plan_id":"cebpf4jnsgd1na2vs0mg"},{"bike_id":"bc75ac16-8bb6-421e-94c2-94272fb557fb","system_id":"levelo_inurba_marseille","lat":43.30144,"lon":5.38084,"is_reserved":false,"is_disabled":false,"rental_uris":{"android":"levelo://app?vid=bc75ac16-8bb6-421e-94c2-94272fb557fb","ios":"levelo://app?vid=bc75ac16-8bb6-421e-94c2-94272fb557fb"},"vehicle_type_id":"4","last_reported":1770538835,"current_range_meters":8400,"station_id":"ce4bgjp2rcd13ifvqbh0","pricing_plan_id":"cebpf4jnsgd1na2vs0mg"},{"bike_id":"0b84e61d-62ba-4706-80f1-3a72823c8089","system_id":"levelo_inurba_marseille","lat":43.25937,"lon":5.40908,"is_reserved":false,"is_disabled":false,"rental_uris":{"android":"levelo://app?vid=0b84e61d-62ba-4706-80f1-3a72823c8089","ios":"levelo://app?vid=0b84e61d-62ba-4706-80f1-3a72823c8089"},"vehicle_type_id":"4","last_reported":1770538835,"current_range_meters":8400,"station_id":"ce4bhm92rcd13ifvqglg","pricing_plan_id":"cebpf4jnsgd1na2vs0mg"},{"bike_id":"c1c15dd8-d5f4-419a-b7d9-76b9cd0f2968","system_id":"levelo_inurba_marseille","lat":43.28291,"lon":5.35065,"is_reserved":false,"is_disabled":false,"rental_uris":{"android":"levelo://app?vid=c1c15dd8-d5f4-419a-b7d9-76b9cd0f2968","ios":"levelo://app?vid=c1c15dd8-d5f4-419a-b7d9-76b9cd0f2968"},"vehicle_type_id":"4","last_reported":1770538835,"current_range_meters":8400,"station_id":"ce4bhbp2rcd13ifvqerg","pricing_plan_id":"cebpf4jnsgd1na2vs0mg"},{"bike_id":"40106db3-21d3-46c7-a226-276d5c0a6ebe","system_id":"levelo_inurba_marseille","lat":43.29018,"lon":5.38171,"is_reserved":false,"is_disabled":false,"rental_uris":{"android":"levelo://app?vid=40106db3-21d3-46c7-a226-276d5c0a6ebe","ios":"levelo://app?vid=40106db3-21d3-46c7-a226-276d5c0a6ebe"},"vehicle_type_id":"4","last_reported":1770538835,"current_range_meters":8400,"station_id":"ce4bh4p2rcd13ifvqe1g","pricing_plan_id":"cebpf4jnsgd1na2vs0mg"},{"bike_id":"4730dc41-5c85-4a22-864d-cf09224f33fd","system_id":"levelo_inurba_marseille","lat":43.28677,"lon":5.38672,"is_reserved":false,"is_disabled":false,"rental_uris":{"android":"levelo://app?vid=4730dc41-5c85-4a22-864d-cf09224f33fd","ios":"levelo://app?vid=4730dc41-5c85-4a22-864d-cf09224f33fd"},"vehicle_type_id":"4","last_reported":1770538835,"current_range_meters":8400,"station_id":"ce4bh492rcd13ifvqdug","pricing_plan_id":"cebpf4jnsgd1na2vs0mg"},{"bike_id":"cf7abb30-91b4-4fa2-abfb-7d7173b59b2c","system_id":"levelo_inurba_marseille","lat":43.25317,"lon":5.42195,"is_reserved":false,"is_disabled":false,"rental_uris":{"android":"levelo://app?vid=cf7abb30-91b4-4fa2-abfb-7d7173b59b2c","ios":"levelo://app?vid=cf7abb30-91b4-4fa2-abfb-7d7173b59b2c"},"vehicle_type_id":"4","last_reported":1770538835,"current_range_meters":8400,"station_id":"st_d2m65c5bi1j21697t3ng","pricing_plan_id":"cebpf4jnsgd1na2vs0mg"},{"bike_id":"8b60bedc-1714-4364-b8d8-7b9519b958c8","system_id":"levelo_inurba_marseille","lat":43.284534,"lon":5.358894,"is_reserved":false,"is_disabled":false,"rental_uris":{"android":"levelo://app?vid=8b60bedc-1714-4364-b8d8-7b9519b958c8","ios":"levelo://app?vid=8b60bedc-1714-4364-b8d8-7b9519b958c8"},"vehicle_type_id":"4","last_reported":1770538835,"current_range_meters":8400,"station_id":"ce4bhah2rcd13ifvqei0","pricing_plan_id":"cebpf4jnsgd1na2vs0mg"},{"bike_id":"f8d300cb-443d-4b1f-9485-8152ba15ac68","system_id":"levelo_inurba_marseille","lat":43.28467,"lon":5.3845,"is_reserved":false,"is_disabled":false,"rental_uris":{"android":"levelo://app?vid=f8d300cb-443d-4b1f-9485-8152ba15ac68","ios":"levelo://app?vid=f8d300cb-443d-4b1f-9485-8152ba15ac68"},"vehicle_type_id":"4","last_reported":1770538835,"current_range_meters":8400,"station_id":"ce4bh512rcd13ifvqe3g","pricing_plan_id":"cebpf4jnsgd1na2vs0mg"},{"bike_id":"5f9bd2ca-91e3-4fbe-a1bb-af05a97d2ea2","system_id":"levelo_inurba_marseille","lat":43.31452,"lon":5.45403,"is_reserved":false,"is_disabled":false,"rental_uris":{"android":"levelo://app?vid=5f9bd2ca-91e3-4fbe-a1bb-af05a97d2ea2","ios":"levelo://app?vid=5f9bd2ca-91e3-4fbe-a1bb-af05a97d2ea2"},"vehicle_type_id":"4","last_reported":1770538835,"current_range_meters":8400,"station_id":"","pricing_plan_id":"cebpf4jnsgd1na2vs0mg"},{"bike_id":"a03713b9-bb1f-4cd8-9a75-37ef2a7948ba","system_id":"levelo_inurba_marseille","lat":43.26197,"lon":5.37941,"is_reserved":false,"is_disabled":false,"rental_uris":{"android":"levelo://app?vid=a03713b9-bb1f-4cd8-9a75-37ef2a7948ba","ios":"levelo://app?vid=a03713b9-bb1f-4cd8-9a75-37ef2a7948ba"},"vehicle_type_id":"4","last_reported":1770538835,"current_range_meters":8400,"station_id":"ce4bhjp2rcd13ifvqg90","pricing_plan_id":"cebpf4jnsgd1na2vs0mg"},{"bike_id":"ea3df964-ab02-4201-99d8-b203a23ecf8f","system_id":"levelo_inurba_marseille","lat":43.24805,"lon":5.37461,"is_reserved":false,"is_disabled":false,"rental_uris":{"android":"levelo://app?vid=ea3df964-ab02-4201-99d8-b203a23ecf8f","ios":"levelo://app?vid=ea3df964-ab02-4201-99d8-b203a23ecf8f"},"vehicle_type_id":"4","last_reported":1770538835,"current_range_meters":8400,"station_id":"ce4bhgh2rcd13ifvqfb0","pricing_plan_id":"cebpf4jnsgd1na2vs0mg"},{"bike_id":"867458d9-c09f-4165-b1af-e2013b3a197e","system_id":"levelo_inurba_marseille","lat":43.24647,"lon":5.38867,"is_reserved":false,"is_disabled":false,"rental_uris":{"android":"levelo://app?vid=867458d9-c09f-4165-b1af-e2013b3a197e","ios":"levelo://app?vid=867458d9-c09f-4165-b1af-e2013b3a197e"},"vehicle_type_id":"4","last_reported":1770538835,"current_range_meters":8800,"station_id":"ce4bhg12rcd13ifvqf60","pricing_plan_id":"cebpf4jnsgd1na2vs0mg"},{"bike_id":"4b9bbde0-30cc-4c3d-973e-6947c0246c0b","system_id":"levelo_inurba_marseille","lat":43.26554,"lon":5.37302,"is_reserved":false,"is_disabled":false,"rental_uris":{"android":"levelo://app?vid=4b9bbde0-30cc-4c3d-973e-6947c0246c0b","ios":"levelo://app?vid=4b9bbde0-30cc-4c3d-973e-6947c0246c0b"},"vehicle_type_id":"4","last_reported":1770538835,"current_range_meters":8800,"station_id":"ce4bhg12rcd13ifvqf70","pricing_plan_id":"cebpf4jnsgd1na2vs0mg"},{"bike_id":"f8354ddb-017a-4bf2-8668-a39598178e17","system_id":"levelo_inurba_marseille","lat":43.30721,"lon":5.42449,"is_reserved":false,"is_disabled":false,"rental_uris":{"android":"levelo://app?vid=f8354ddb-017a-4bf2-8668-a39598178e17","ios":"levelo://app?vid=f8354ddb-017a-4bf2-8668-a39598178e17"},"vehicle_type_id":"4","last_reported":1770538835,"current_range_meters":8800,"station_id":"st_cvj6ca6bvosntc0bfgr0","pricing_plan_id":"cebpf4jnsgd1na2vs0mg"},{"bike_id":"a5fe7b14-3ced-4d6c-aab3-f34baaf11509","system_id":"levelo_inurba_marseille","lat":43.29856,"lon":5.38924,"is_reserved":false,"is_disabled":true,"rental_uris":{"android":"levelo://app?vid=a5fe7b14-3ced-4d6c-aab3-f34baaf11509","ios":"levelo://app?vid=a5fe7b14-3ced-4d6c-aab3-f34baaf11509"},"vehicle_type_id":"4","last_reported":1770538835,"current_range_meters":8800,"station_id":"ce4bh392rcd13ifvqdl0","pricing_plan_id":"cebpf4jnsgd1na2vs0mg"},{"bike_id":"92ceac05-1fb7-4c05-9f7a-f53104e5d648","system_id":"levelo_inurba_marseille","lat":43.24993,"lon":5.38943,"is_reserved":false,"is_disabled":false,"rental_uris":{"android":"levelo://app?vid=92ceac05-1fb7-4c05-9f7a-f53104e5d648","ios":"levelo://app?vid=92ceac05-1fb7-4c05-9f7a-f53104e5d648"},"vehicle_type_id":"4","last_reported":1770538835,"current_range_meters":8800,"station_id":"ce4bhgp2rcd13ifvqfd0","pricing_plan_id":"cebpf4jnsgd1na2vs0mg"},{"bike_id":"d71fd997-724b-4700-8f71-84b37168fbd9","system_id":"levelo_inurba_marseille","lat":43.2573,"lon":5.41078,"is_reserved":false,"is_disabled":false,"rental_uris":{"android":"levelo://app?vid=d71fd997-724b-4700-8f71-84b37168fbd9","ios":"levelo://app?vid=d71fd997-724b-4700-8f71-84b37168fbd9"},"vehicle_type_id":"4","last_reported":1770538835,"current_range_meters":8800,"station_id":"ce4bhkp2rcd13ifvqgd0","pricing_plan_id":"cebpf4jnsgd1na2vs0mg"},{"bike_id":"98e61b74-3ca5-466f-b460-5e4ff3753470","system_id":"levelo_inurba_marseille","lat":43.28881,"lon":5.35819,"is_reserved":false,"is_disabled":false,"rental_uris":{"android":"levelo://app?vid=98e61b74-3ca5-466f-b460-5e4ff3753470","ios":"levelo://app?vid=98e61b74-3ca5-466f-b460-5e4ff3753470"},"vehicle_type_id":"4","last_reported":1770538835,"current_range_meters":8800,"station_id":"ce4bhb12rcd13ifvqem0","pricing_plan_id":"cebpf4jnsgd1na2vs0mg"},{"bike_id":"76921968-741d-4270-88e0-a01f3724f854","system_id":"levelo_inurba_marseille","lat":43.28694,"lon":5.38707,"is_reserved":false,"is_disabled":false,"rental_uris":{"android":"levelo://app?vid=76921968-741d-4270-88e0-a01f3724f854","ios":"levelo://app?vid=76921968-741d-4270-88e0-a01f3724f854"},"vehicle_type_id":"4","last_reported":1770538835,"current_range_meters":8800,"station_id":"ce4bh492rcd13ifvqdug","pricing_plan_id":"cebpf4jnsgd1na2vs0mg"},{"bike_id":"155a788c-3210-4e6a-b211-01617931334a","system_id":"levelo_inurba_marseille","lat":43.337444,"lon":5.374475,"is_reserved":false,"is_disabled":false,"rental_uris":{"android":"levelo://app?vid=155a788c-3210-4e6a-b211-01617931334a","ios":"levelo://app?vid=155a788c-3210-4e6a-b211-01617931334a"},"vehicle_type_id":"4","last_reported":1770538835,"current_range_meters":8800,"station_id":"","pricing_plan_id":"cebpf4jnsgd1na2vs0mg"},{"bike_id":"f19525fa-23d1-4165-b649-24302d368a38","system_id":"levelo_inurba_marseille","lat":43.28852,"lon":5.38237,"is_reserved":false,"is_disabled":false,"rental_uris":{"android":"levelo://app?vid=f19525fa-23d1-4165-b649-24302d368a38","ios":"levelo://app?vid=f19525fa-23d1-4165-b649-24302d368a38"},"vehicle_type_id":"4","last_reported":1770538835,"current_range_meters":8800,"station_id":"","pricing_plan_id":"cebpf4jnsgd1na2vs0mg"},{"bike_id":"131c8bc6-588e-4f5d-851b-303b7978f745","system_id":"levelo_inurba_marseille","lat":43.25875,"lon":5.40953,"is_reserved":false,"is_disabled":false,"rental_uris":{"android":"levelo://app?vid=131c8bc6-588e-4f5d-851b-303b7978f745","ios":"levelo://app?vid=131c8bc6-588e-4f5d-851b-303b7978f745"},"vehicle_type_id":"4","last_reported":1770538835,"current_range_meters":8800,"station_id":"","pricing_plan_id":"cebpf4jnsgd1na2vs0mg"},{"bike_id":"16ac9c64-e365-4645-8b05-04ee2f4337e9","system_id":"levelo_inurba_marseille","lat":43.23954,"lon":5.36652,"is_reserved":false,"is_disabled":false,"rental_uris":{"android":"levelo://app?vid=16ac9c64-e365-4645-8b05-04ee2f4337e9","ios":"levelo://app?vid=16ac9c64-e365-4645-8b05-04ee2f4337e9"},"vehicle_type_id":"4","last_reported":1770538835,"current_range_meters":8800,"station_id":"ce4bhi12rcd13ifvqfp0","pricing_plan_id":"cebpf4jnsgd1na2vs0mg"},{"bike_id":"9cae2485-0afe-41f4-82ed-b4c440c27f3e","system_id":"levelo_inurba_marseille","lat":43.28544,"lon":5.39568,"is_reserved":false,"is_disabled":true,"rental_uris":{"android":"levelo://app?vid=9cae2485-0afe-41f4-82ed-b4c440c27f3e","ios":"levelo://app?vid=9cae2485-0afe-41f4-82ed-b4c440c27f3e"},"vehicle_type_id":"4","last_reported":1770538835,"current_range_meters":8800,"station_id":"","pricing_plan_id":"cebpf4jnsgd1na2vs0mg"},{"bike_id":"d8ba07be-4909-4867-9013-61baab37ba2e","system_id":"levelo_inurba_marseille","lat":43.22541,"lon":5.41664,"is_reserved":false,"is_disabled":false,"rental_uris":{"android":"levelo://app?vid=d8ba07be-4909-4867-9013-61baab37ba2e","ios":"levelo://app?vid=d8ba07be-4909-4867-9013-61baab37ba2e"},"vehicle_type_id":"4","last_reported":1770538835,"current_range_meters":8800,"station_id":"st_d2o4gvlbi1j2169b742g","pricing_plan_id":"cebpf4jnsgd1na2vs0mg"},{"bike_id":"a8e8aa90-66c9-4830-8a68-7bf50e940df7","system_id":"levelo_inurba_marseille","lat":43.2319,"lon":5.39991,"is_reserved":false,"is_disabled":false,"rental_uris":{"android":"levelo://app?vid=a8e8aa90-66c9-4830-8a68-7bf50e940df7","ios":"levelo://app?vid=a8e8aa90-66c9-4830-8a68-7bf50e940df7"},"vehicle_type_id":"4","last_reported":1770538835,"current_range_meters":8800,"station_id":"ce4bhn12rcd13ifvqgqg","pricing_plan_id":"cebpf4jnsgd1na2vs0mg"},{"bike_id":"edc9c679-e0d1-4084-a3db-3f6b1a28aa12","system_id":"levelo_inurba_marseille","lat":43.28531,"lon":5.44083,"is_reserved":false,"is_disabled":false,"rental_uris":{"android":"levelo://app?vid=edc9c679-e0d1-4084-a3db-3f6b1a28aa12","ios":"levelo://app?vid=edc9c679-e0d1-4084-a3db-3f6b1a28aa12"},"vehicle_type_id":"4","last_reported":1770538835,"current_range_meters":8800,"station_id":"st_d3j3df2ikq2c7380ej80","pricing_plan_id":"cebpf4jnsgd1na2vs0mg"},{"bike_id":"364ea28f-7e20-4ad8-9bf1-69b2e8dad65e","system_id":"levelo_inurba_marseille","lat":43.28623,"lon":5.44316,"is_reserved":false,"is_disabled":false,"rental_uris":{"android":"levelo://app?vid=364ea28f-7e20-4ad8-9bf1-69b2e8dad65e","ios":"levelo://app?vid=364ea28f-7e20-4ad8-9bf1-69b2e8dad65e"},"vehicle_type_id":"4","last_reported":1770538835,"current_range_meters":8800,"station_id":"","pricing_plan_id":"cebpf4jnsgd1na2vs0mg"},{"bike_id":"dd24189e-0ca5-42b2-a25c-59b99b80cd71","system_id":"levelo_inurba_marseille","lat":43.24771,"lon":5.37488,"is_reserved":false,"is_disabled":false,"rental_uris":{"android":"levelo://app?vid=dd24189e-0ca5-42b2-a25c-59b99b80cd71","ios":"levelo://app?vid=dd24189e-0ca5-42b2-a25c-59b99b80cd71"},"vehicle_type_id":"4","last_reported":1770538835,"current_range_meters":8800,"station_id":"ce4bhgh2rcd13ifvqfb0","pricing_plan_id":"cebpf4jnsgd1na2vs0mg"},{"bike_id":"779ab762-12c7-4e4f-a5f9-1cd4487c21c9","system_id":"levelo_inurba_marseille","lat":43.32109,"lon":5.367895,"is_reserved":false,"is_disabled":false,"rental_uris":{"android":"levelo://app?vid=779ab762-12c7-4e4f-a5f9-1cd4487c21c9","ios":"levelo://app?vid=779ab762-12c7-4e4f-a5f9-1cd4487c21c9"},"vehicle_type_id":"4","last_reported":1770538835,"current_range_meters":9200,"station_id":"ce4bhrh2rcd13ifvqhug","pricing_plan_id":"cebpf4jnsgd1na2vs0mg"},{"bike_id":"6bfea7a7-5dd2-4bca-bf41-79ea1773d79c","system_id":"levelo_inurba_marseille","lat":43.29255,"lon":5.40179,"is_reserved":false,"is_disabled":false,"rental_uris":{"android":"levelo://app?vid=6bfea7a7-5dd2-4bca-bf41-79ea1773d79c","ios":"levelo://app?vid=6bfea7a7-5dd2-4bca-bf41-79ea1773d79c"},"vehicle_type_id":"4","last_reported":1770538835,"current_range_meters":9200,"station_id":"","pricing_plan_id":"cebpf4jnsgd1na2vs0mg"},{"bike_id":"947e6bde-76bb-4a1b-a45f-3d4e18b32da9","system_id":"levelo_inurba_marseille","lat":43.27646,"lon":5.3896,"is_reserved":false,"is_disabled":false,"rental_uris":{"android":"levelo://app?vid=947e6bde-76bb-4a1b-a45f-3d4e18b32da9","ios":"levelo://app?vid=947e6bde-76bb-4a1b-a45f-3d4e18b32da9"},"vehicle_type_id":"4","last_reported":1770538835,"current_range_meters":9200,"station_id":"","pricing_plan_id":"cebpf4jnsgd1na2vs0mg"},{"bike_id":"ad20c1d2-258b-4db8-b56a-9ab6132ecf48","system_id":"levelo_inurba_marseille","lat":43.244653,"lon":5.425387,"is_reserved":false,"is_disabled":false,"rental_uris":{"android":"levelo://app?vid=ad20c1d2-258b-4db8-b56a-9ab6132ecf48","ios":"levelo://app?vid=ad20c1d2-258b-4db8-b56a-9ab6132ecf48"},"vehicle_type_id":"4","last_reported":1770538835,"current_range_meters":9200,"station_id":"st_d4a3vfp97mjs738cd8kg","pricing_plan_id":"cebpf4jnsgd1na2vs0mg"},{"bike_id":"cc837a8c-1989-4283-89cf-0ff96c2621a1","system_id":"levelo_inurba_marseille","lat":43.30131,"lon":5.38098,"is_reserved":false,"is_disabled":false,"rental_uris":{"android":"levelo://app?vid=cc837a8c-1989-4283-89cf-0ff96c2621a1","ios":"levelo://app?vid=cc837a8c-1989-4283-89cf-0ff96c2621a1"},"vehicle_type_id":"4","last_reported":1770538835,"current_range_meters":9200,"station_id":"ce4bgjp2rcd13ifvqbh0","pricing_plan_id":"cebpf4jnsgd1na2vs0mg"},{"bike_id":"5458caae-ec74-44ec-a439-08a969898ef7","system_id":"levelo_inurba_marseille","lat":43.231407,"lon":5.437214,"is_reserved":false,"is_disabled":false,"rental_uris":{"android":"levelo://app?vid=5458caae-ec74-44ec-a439-08a969898ef7","ios":"levelo://app?vid=5458caae-ec74-44ec-a439-08a969898ef7"},"vehicle_type_id":"4","last_reported":1770538835,"current_range_meters":9200,"station_id":"ce4bhmp2rcd13ifvqgog","pricing_plan_id":"cebpf4jnsgd1na2vs0mg"},{"bike_id":"18193969-f4a0-4413-8fe1-fadaf0e35a4a","system_id":"levelo_inurba_marseille","lat":43.33523,"lon":5.37469,"is_reserved":false,"is_disabled":false,"rental_uris":{"android":"levelo://app?vid=18193969-f4a0-4413-8fe1-fadaf0e35a4a","ios":"levelo://app?vid=18193969-f4a0-4413-8fe1-fadaf0e35a4a"},"vehicle_type_id":"4","last_reported":1770538835,"current_range_meters":9200,"station_id":"st_d46tts09ee8s73dlu43g","pricing_plan_id":"cebpf4jnsgd1na2vs0mg"},{"bike_id":"b327d0f9-e910-4cd3-a345-f7ea449db020","system_id":"levelo_inurba_marseille","lat":43.24401,"lon":5.37084,"is_reserved":false,"is_disabled":false,"rental_uris":{"android":"levelo://app?vid=b327d0f9-e910-4cd3-a345-f7ea449db020","ios":"levelo://app?vid=b327d0f9-e910-4cd3-a345-f7ea449db020"},"vehicle_type_id":"4","last_reported":1770538835,"current_range_meters":9200,"station_id":"ce4bhhh2rcd13ifvqfk0","pricing_plan_id":"cebpf4jnsgd1na2vs0mg"},{"bike_id":"1ea60dc0-7a32-4323-9458-3ce0044e2a51","system_id":"levelo_inurba_marseille","lat":43.33543,"lon":5.3747,"is_reserved":false,"is_disabled":false,"rental_uris":{"android":"levelo://app?vid=1ea60dc0-7a32-4323-9458-3ce0044e2a51","ios":"levelo://app?vid=1ea60dc0-7a32-4323-9458-3ce0044e2a51"},"vehicle_type_id":"4","last_reported":1770538835,"current_range_meters":9200,"station_id":"st_d46tts09ee8s73dlu43g","pricing_plan_id":"cebpf4jnsgd1na2vs0mg"},{"bike_id":"994a7491-c156-4765-9fb5-897bd238ff94","system_id":"levelo_inurba_marseille","lat":43.29252,"lon":5.37601,"is_reserved":false,"is_disabled":false,"rental_uris":{"android":"levelo://app?vid=994a7491-c156-4765-9fb5-897bd238ff94","ios":"levelo://app?vid=994a7491-c156-4765-9fb5-897bd238ff94"},"vehicle_type_id":"4","last_reported":1770538835,"current_range_meters":9200,"station_id":"ce4bgi12rcd13ifvqb80","pricing_plan_id":"cebpf4jnsgd1na2vs0mg"},{"bike_id":"d96fa321-cc43-4d28-a99e-b49794bf7b3a","system_id":"levelo_inurba_marseille","lat":43.25939,"lon":5.40913,"is_reserved":false,"is_disabled":false,"rental_uris":{"android":"levelo://app?vid=d96fa321-cc43-4d28-a99e-b49794bf7b3a","ios":"levelo://app?vid=d96fa321-cc43-4d28-a99e-b49794bf7b3a"},"vehicle_type_id":"4","last_reported":1770538835,"current_range_meters":9200,"station_id":"ce4bhm92rcd13ifvqglg","pricing_plan_id":"cebpf4jnsgd1na2vs0mg"},{"bike_id":"317dad32-e91b-4bc3-9480-60cfd5be8e82","system_id":"levelo_inurba_marseille","lat":43.24658,"lon":5.38156,"is_reserved":false,"is_disabled":false,"rental_uris":{"android":"levelo://app?vid=317dad32-e91b-4bc3-9480-60cfd5be8e82","ios":"levelo://app?vid=317dad32-e91b-4bc3-9480-60cfd5be8e82"},"vehicle_type_id":"4","last_reported":1770538835,"current_range_meters":9200,"station_id":"ce4bhih2rcd13ifvqfr0","pricing_plan_id":"cebpf4jnsgd1na2vs0mg"},{"bike_id":"0a0ad101-734f-476a-a817-88bc4ca6e49c","system_id":"levelo_inurba_marseille","lat":43.307983,"lon":5.381538,"is_reserved":false,"is_disabled":false,"rental_uris":{"android":"levelo://app?vid=0a0ad101-734f-476a-a817-88bc4ca6e49c","ios":"levelo://app?vid=0a0ad101-734f-476a-a817-88bc4ca6e49c"},"vehicle_type_id":"4","last_reported":1770538835,"current_range_meters":9600,"station_id":"","pricing_plan_id":"cebpf4jnsgd1na2vs0mg"},{"bike_id":"043ad4af-ef67-47b5-8a56-8e398eb4da8e","system_id":"levelo_inurba_marseille","lat":43.29765,"lon":5.38115,"is_reserved":false,"is_disabled":true,"rental_uris":{"android":"levelo://app?vid=043ad4af-ef67-47b5-8a56-8e398eb4da8e","ios":"levelo://app?vid=043ad4af-ef67-47b5-8a56-8e398eb4da8e"},"vehicle_type_id":"4","last_reported":1770538835,"current_range_meters":9600,"station_id":"ce4bgip2rcd13ifvqbb0","pricing_plan_id":"cebpf4jnsgd1na2vs0mg"},{"bike_id":"e02d2b38-58ae-453d-9693-7a6a850a6521","system_id":"levelo_inurba_marseille","lat":43.26169,"lon":5.37458,"is_reserved":false,"is_disabled":false,"rental_uris":{"android":"levelo://app?vid=e02d2b38-58ae-453d-9693-7a6a850a6521","ios":"levelo://app?vid=e02d2b38-58ae-453d-9693-7a6a850a6521"},"vehicle_type_id":"4","last_reported":1770538835,"current_range_meters":9600,"station_id":"ce4bhgp2rcd13ifvqfc0","pricing_plan_id":"cebpf4jnsgd1na2vs0mg"},{"bike_id":"a69c6d46-0f4b-4ef5-9649-768f405cc714","system_id":"levelo_inurba_marseille","lat":43.270634,"lon":5.383034,"is_reserved":false,"is_disabled":false,"rental_uris":{"android":"levelo://app?vid=a69c6d46-0f4b-4ef5-9649-768f405cc714","ios":"levelo://app?vid=a69c6d46-0f4b-4ef5-9649-768f405cc714"},"vehicle_type_id":"4","last_reported":1770538835,"current_range_meters":9600,"station_id":"st_d3n2fo6cfp8s73cte1j0","pricing_plan_id":"cebpf4jnsgd1na2vs0mg"},{"bike_id":"93d2f206-3fcb-4c57-9f72-142295498e9f","system_id":"levelo_inurba_marseille","lat":43.3088,"lon":5.37187,"is_reserved":false,"is_disabled":false,"rental_uris":{"android":"levelo://app?vid=93d2f206-3fcb-4c57-9f72-142295498e9f","ios":"levelo://app?vid=93d2f206-3fcb-4c57-9f72-142295498e9f"},"vehicle_type_id":"4","last_reported":1770538835,"current_range_meters":9600,"station_id":"ce4bguh2rcd13ifvqckg","pricing_plan_id":"cebpf4jnsgd1na2vs0mg"},{"bike_id":"5d1de9d4-2e99-430a-8dcb-f579bf7e4cec","system_id":"levelo_inurba_marseille","lat":43.33533,"lon":5.3747,"is_reserved":false,"is_disabled":false,"rental_uris":{"android":"levelo://app?vid=5d1de9d4-2e99-430a-8dcb-f579bf7e4cec","ios":"levelo://app?vid=5d1de9d4-2e99-430a-8dcb-f579bf7e4cec"},"vehicle_type_id":"4","last_reported":1770538835,"current_range_meters":9600,"station_id":"st_d46tts09ee8s73dlu43g","pricing_plan_id":"cebpf4jnsgd1na2vs0mg"},{"bike_id":"be5ee9c8-83a0-47f1-aa70-8349319881b3","system_id":"levelo_inurba_marseille","lat":43.29814,"lon":5.4407,"is_reserved":false,"is_disabled":false,"rental_uris":{"android":"levelo://app?vid=be5ee9c8-83a0-47f1-aa70-8349319881b3","ios":"levelo://app?vid=be5ee9c8-83a0-47f1-aa70-8349319881b3"},"vehicle_type_id":"4","last_reported":1770538835,"current_range_meters":9600,"station_id":"st_d3jp68qikq2c7381ktn0","pricing_plan_id":"cebpf4jnsgd1na2vs0mg"},{"bike_id":"1494d073-a24e-432f-8548-47b75823e14d","system_id":"levelo_inurba_marseille","lat":43.24891,"lon":5.40496,"is_reserved":false,"is_disabled":false,"rental_uris":{"android":"levelo://app?vid=1494d073-a24e-432f-8548-47b75823e14d","ios":"levelo://app?vid=1494d073-a24e-432f-8548-47b75823e14d"},"vehicle_type_id":"4","last_reported":1770538835,"current_range_meters":9600,"station_id":"st_d2ngiaodas8pm72gd1h0","pricing_plan_id":"cebpf4jnsgd1na2vs0mg"},{"bike_id":"0c2c272e-d223-43a8-9f2f-3e8aef87ad89","system_id":"levelo_inurba_marseille","lat":43.275629,"lon":5.384192,"is_reserved":false,"is_disabled":false,"rental_uris":{"android":"levelo://app?vid=0c2c272e-d223-43a8-9f2f-3e8aef87ad89","ios":"levelo://app?vid=0c2c272e-d223-43a8-9f2f-3e8aef87ad89"},"vehicle_type_id":"4","last_reported":1770538835,"current_range_meters":9600,"station_id":"ce4bh0h2rcd13ifvqd60","pricing_plan_id":"cebpf4jnsgd1na2vs0mg"},{"bike_id":"347347fb-43cf-4034-a598-0f76fe077d02","system_id":"levelo_inurba_marseille","lat":43.313478,"lon":5.367178,"is_reserved":false,"is_disabled":false,"rental_uris":{"android":"levelo://app?vid=347347fb-43cf-4034-a598-0f76fe077d02","ios":"levelo://app?vid=347347fb-43cf-4034-a598-0f76fe077d02"},"vehicle_type_id":"4","last_reported":1770538835,"current_range_meters":9600,"station_id":"ce4bgr92rcd13ifvqc6g","pricing_plan_id":"cebpf4jnsgd1na2vs0mg"},{"bike_id":"76ba7678-8c31-43dd-8287-b301313b15e8","system_id":"levelo_inurba_marseille","lat":43.310795,"lon":5.383507,"is_reserved":false,"is_disabled":false,"rental_uris":{"android":"levelo://app?vid=76ba7678-8c31-43dd-8287-b301313b15e8","ios":"levelo://app?vid=76ba7678-8c31-43dd-8287-b301313b15e8"},"vehicle_type_id":"4","last_reported":1770538835,"current_range_meters":9600,"station_id":"ce4bgv92rcd13ifvqcr0","pricing_plan_id":"cebpf4jnsgd1na2vs0mg"},{"bike_id":"3045fa36-8af2-484c-8446-799c7e150898","system_id":"levelo_inurba_marseille","lat":43.21209,"lon":5.35099,"is_reserved":false,"is_disabled":false,"rental_uris":{"android":"levelo://app?vid=3045fa36-8af2-484c-8446-799c7e150898","ios":"levelo://app?vid=3045fa36-8af2-484c-8446-799c7e150898"},"vehicle_type_id":"4","last_reported":1770538835,"current_range_meters":9600,"station_id":"st_cvj6sg6p6f1abm77japg","pricing_plan_id":"cebpf4jnsgd1na2vs0mg"},{"bike_id":"21c74027-26d0-4521-8bcf-ad285a8653f3","system_id":"levelo_inurba_marseille","lat":43.29775,"lon":5.3776,"is_reserved":false,"is_disabled":false,"rental_uris":{"android":"levelo://app?vid=21c74027-26d0-4521-8bcf-ad285a8653f3","ios":"levelo://app?vid=21c74027-26d0-4521-8bcf-ad285a8653f3"},"vehicle_type_id":"4","last_reported":1770538835,"current_range_meters":10000,"station_id":"","pricing_plan_id":"cebpf4jnsgd1na2vs0mg"},{"bike_id":"150fa605-1342-42d0-b038-c87938e3cafd","system_id":"levelo_inurba_marseille","lat":43.26213,"lon":5.37925,"is_reserved":false,"is_disabled":false,"rental_uris":{"android":"levelo://app?vid=150fa605-1342-42d0-b038-c87938e3cafd","ios":"levelo://app?vid=150fa605-1342-42d0-b038-c87938e3cafd"},"vehicle_type_id":"4","last_reported":1770538835,"current_range_meters":10000,"station_id":"ce4bhjp2rcd13ifvqg90","pricing_plan_id":"cebpf4jnsgd1na2vs0mg"},{"bike_id":"fcd7ffdf-e260-4375-9d23-653f14663ff7","system_id":"levelo_inurba_marseille","lat":43.29199,"lon":5.35793,"is_reserved":false,"is_disabled":false,"rental_uris":{"android":"levelo://app?vid=fcd7ffdf-e260-4375-9d23-653f14663ff7","ios":"levelo://app?vid=fcd7ffdf-e260-4375-9d23-653f14663ff7"},"vehicle_type_id":"4","last_reported":1770538835,"current_range_meters":10000,"station_id":"ce4bhb12rcd13ifvqel0","pricing_plan_id":"cebpf4jnsgd1na2vs0mg"},{"bike_id":"89a401c9-aac6-4f15-b6f7-f1e7fe1bc44c","system_id":"levelo_inurba_marseille","lat":43.30153,"lon":5.3808,"is_reserved":false,"is_disabled":false,"rental_uris":{"android":"levelo://app?vid=89a401c9-aac6-4f15-b6f7-f1e7fe1bc44c","ios":"levelo://app?vid=89a401c9-aac6-4f15-b6f7-f1e7fe1bc44c"},"vehicle_type_id":"4","last_reported":1770538835,"current_range_meters":10000,"station_id":"ce4bgjp2rcd13ifvqbh0","pricing_plan_id":"cebpf4jnsgd1na2vs0mg"},{"bike_id":"5ef6ce00-1da8-4f35-b102-c6f89b410d36","system_id":"levelo_inurba_marseille","lat":43.26796,"lon":5.40282,"is_reserved":false,"is_disabled":false,"rental_uris":{"android":"levelo://app?vid=5ef6ce00-1da8-4f35-b102-c6f89b410d36","ios":"levelo://app?vid=5ef6ce00-1da8-4f35-b102-c6f89b410d36"},"vehicle_type_id":"4","last_reported":1770538835,"current_range_meters":10000,"station_id":"ce501612rcd8frsf0b60","pricing_plan_id":"cebpf4jnsgd1na2vs0mg"},{"bike_id":"8132a45b-6e07-43bd-bcfa-94b9411ef35b","system_id":"levelo_inurba_marseille","lat":43.32353,"lon":5.36735,"is_reserved":false,"is_disabled":false,"rental_uris":{"android":"levelo://app?vid=8132a45b-6e07-43bd-bcfa-94b9411ef35b","ios":"levelo://app?vid=8132a45b-6e07-43bd-bcfa-94b9411ef35b"},"vehicle_type_id":"4","last_reported":1770538835,"current_range_meters":10000,"station_id":"ce4bhsh2rcd13ifvqi2g","pricing_plan_id":"cebpf4jnsgd1na2vs0mg"},{"bike_id":"79271155-1aff-4de8-a753-6006b8197aa8","system_id":"levelo_inurba_marseille","lat":43.24061,"lon":5.37801,"is_reserved":false,"is_disabled":false,"rental_uris":{"android":"levelo://app?vid=79271155-1aff-4de8-a753-6006b8197aa8","ios":"levelo://app?vid=79271155-1aff-4de8-a753-6006b8197aa8"},"vehicle_type_id":"4","last_reported":1770538835,"current_range_meters":10000,"station_id":"ce4bhnp2rcd13ifvqgvg","pricing_plan_id":"cebpf4jnsgd1na2vs0mg"},{"bike_id":"e78275eb-3967-43e3-847b-4f8f52237aae","system_id":"levelo_inurba_marseille","lat":43.30446,"lon":5.38892,"is_reserved":false,"is_disabled":true,"rental_uris":{"android":"levelo://app?vid=e78275eb-3967-43e3-847b-4f8f52237aae","ios":"levelo://app?vid=e78275eb-3967-43e3-847b-4f8f52237aae"},"vehicle_type_id":"4","last_reported":1770538835,"current_range_meters":10000,"station_id":"ce4bgk12rcd13ifvqbi0","pricing_plan_id":"cebpf4jnsgd1na2vs0mg"},{"bike_id":"55afc012-7d9e-494f-8ec6-1fffacfb0da4","system_id":"levelo_inurba_marseille","lat":43.26548,"lon":5.40319,"is_reserved":false,"is_disabled":false,"rental_uris":{"android":"levelo://app?vid=55afc012-7d9e-494f-8ec6-1fffacfb0da4","ios":"levelo://app?vid=55afc012-7d9e-494f-8ec6-1fffacfb0da4"},"vehicle_type_id":"4","last_reported":1770538835,"current_range_meters":10000,"station_id":"ce4bhmp2rcd13ifvqgng","pricing_plan_id":"cebpf4jnsgd1na2vs0mg"},{"bike_id":"7be920c0-d768-425e-b7a0-124285d62ba2","system_id":"levelo_inurba_marseille","lat":43.28,"lon":5.39999,"is_reserved":false,"is_disabled":false,"rental_uris":{"android":"levelo://app?vid=7be920c0-d768-425e-b7a0-124285d62ba2","ios":"levelo://app?vid=7be920c0-d768-425e-b7a0-124285d62ba2"},"vehicle_type_id":"4","last_reported":1770538835,"current_range_meters":10000,"station_id":"ce4bho92rcd13ifvqh4g","pricing_plan_id":"cebpf4jnsgd1na2vs0mg"},{"bike_id":"687066be-84dc-4646-bc3b-be6a8fb47ad7","system_id":"levelo_inurba_marseille","lat":43.24803,"lon":5.37457,"is_reserved":false,"is_disabled":false,"rental_uris":{"android":"levelo://app?vid=687066be-84dc-4646-bc3b-be6a8fb47ad7","ios":"levelo://app?vid=687066be-84dc-4646-bc3b-be6a8fb47ad7"},"vehicle_type_id":"4","last_reported":1770538835,"current_range_meters":10000,"station_id":"ce4bhgh2rcd13ifvqfb0","pricing_plan_id":"cebpf4jnsgd1na2vs0mg"},{"bike_id":"2089e1d9-314f-4676-8364-32b5760ca1a1","system_id":"levelo_inurba_marseille","lat":43.284806,"lon":5.483933,"is_reserved":false,"is_disabled":false,"rental_uris":{"android":"levelo://app?vid=2089e1d9-314f-4676-8364-32b5760ca1a1","ios":"levelo://app?vid=2089e1d9-314f-4676-8364-32b5760ca1a1"},"vehicle_type_id":"4","last_reported":1770538835,"current_range_meters":10000,"station_id":"st_d3svhcjqgbts73a3dn0g","pricing_plan_id":"cebpf4jnsgd1na2vs0mg"},{"bike_id":"1a9850e1-5d2c-4438-9e2f-49d6634f0424","system_id":"levelo_inurba_marseille","lat":43.26555,"lon":5.40335,"is_reserved":false,"is_disabled":false,"rental_uris":{"android":"levelo://app?vid=1a9850e1-5d2c-4438-9e2f-49d6634f0424","ios":"levelo://app?vid=1a9850e1-5d2c-4438-9e2f-49d6634f0424"},"vehicle_type_id":"4","last_reported":1770538835,"current_range_meters":10000,"station_id":"ce4bhmp2rcd13ifvqgng","pricing_plan_id":"cebpf4jnsgd1na2vs0mg"},{"bike_id":"f66f77ca-8e30-4250-91f1-d5277ae6b4a1","system_id":"levelo_inurba_marseille","lat":43.2465,"lon":5.38894,"is_reserved":false,"is_disabled":false,"rental_uris":{"android":"levelo://app?vid=f66f77ca-8e30-4250-91f1-d5277ae6b4a1","ios":"levelo://app?vid=f66f77ca-8e30-4250-91f1-d5277ae6b4a1"},"vehicle_type_id":"4","last_reported":1770538835,"current_range_meters":10000,"station_id":"ce4bhg12rcd13ifvqf60","pricing_plan_id":"cebpf4jnsgd1na2vs0mg"},{"bike_id":"5152e4bb-a733-4da3-8922-84baad210459","system_id":"levelo_inurba_marseille","lat":43.28469,"lon":5.3844,"is_reserved":false,"is_disabled":false,"rental_uris":{"android":"levelo://app?vid=5152e4bb-a733-4da3-8922-84baad210459","ios":"levelo://app?vid=5152e4bb-a733-4da3-8922-84baad210459"},"vehicle_type_id":"4","last_reported":1770538835,"current_range_meters":10000,"station_id":"ce4bh512rcd13ifvqe3g","pricing_plan_id":"cebpf4jnsgd1na2vs0mg"},{"bike_id":"5f0b2116-3b49-4d83-b373-fa4282b8ba05","system_id":"levelo_inurba_marseille","lat":43.28604,"lon":5.35136,"is_reserved":false,"is_disabled":false,"rental_uris":{"android":"levelo://app?vid=5f0b2116-3b49-4d83-b373-fa4282b8ba05","ios":"levelo://app?vid=5f0b2116-3b49-4d83-b373-fa4282b8ba05"},"vehicle_type_id":"4","last_reported":1770538835,"current_range_meters":10800,"station_id":"ce4bhch2rcd13ifvqeug","pricing_plan_id":"cebpf4jnsgd1na2vs0mg"},{"bike_id":"5db8210b-fea5-4e7d-8212-139d2c0358d5","system_id":"levelo_inurba_marseille","lat":43.29832,"lon":5.36323,"is_reserved":false,"is_disabled":true,"rental_uris":{"android":"levelo://app?vid=5db8210b-fea5-4e7d-8212-139d2c0358d5","ios":"levelo://app?vid=5db8210b-fea5-4e7d-8212-139d2c0358d5"},"vehicle_type_id":"4","last_reported":1770538835,"current_range_meters":10800,"station_id":"ce4bgpp2rcd13ifvqc3g","pricing_plan_id":"cebpf4jnsgd1na2vs0mg"},{"bike_id":"801ad909-18b3-4ab0-977b-525cc98af4a6","system_id":"levelo_inurba_marseille","lat":43.25863,"lon":5.39916,"is_reserved":false,"is_disabled":false,"rental_uris":{"android":"levelo://app?vid=801ad909-18b3-4ab0-977b-525cc98af4a6","ios":"levelo://app?vid=801ad909-18b3-4ab0-977b-525cc98af4a6"},"vehicle_type_id":"4","last_reported":1770538835,"current_range_meters":10800,"station_id":"ce4bhl92rcd13ifvqghg","pricing_plan_id":"cebpf4jnsgd1na2vs0mg"},{"bike_id":"d1bd6231-82a7-41df-aa86-7df66ec4525e","system_id":"levelo_inurba_marseille","lat":43.30149,"lon":5.38102,"is_reserved":false,"is_disabled":false,"rental_uris":{"android":"levelo://app?vid=d1bd6231-82a7-41df-aa86-7df66ec4525e","ios":"levelo://app?vid=d1bd6231-82a7-41df-aa86-7df66ec4525e"},"vehicle_type_id":"4","last_reported":1770538835,"current_range_meters":10800,"station_id":"ce4bgjp2rcd13ifvqbh0","pricing_plan_id":"cebpf4jnsgd1na2vs0mg"},{"bike_id":"996a510f-70dd-4518-939f-228af375066f","system_id":"levelo_inurba_marseille","lat":43.29817,"lon":5.44072,"is_reserved":false,"is_disabled":false,"rental_uris":{"android":"levelo://app?vid=996a510f-70dd-4518-939f-228af375066f","ios":"levelo://app?vid=996a510f-70dd-4518-939f-228af375066f"},"vehicle_type_id":"4","last_reported":1770538835,"current_range_meters":10800,"station_id":"st_d3jp68qikq2c7381ktn0","pricing_plan_id":"cebpf4jnsgd1na2vs0mg"},{"bike_id":"b9a70199-2f0a-4e2a-8362-9850cc0801e9","system_id":"levelo_inurba_marseille","lat":43.28892,"lon":5.3995,"is_reserved":false,"is_disabled":false,"rental_uris":{"android":"levelo://app?vid=b9a70199-2f0a-4e2a-8362-9850cc0801e9","ios":"levelo://app?vid=b9a70199-2f0a-4e2a-8362-9850cc0801e9"},"vehicle_type_id":"4","last_reported":1770538835,"current_range_meters":10800,"station_id":"ce4bh312rcd13ifvqdk0","pricing_plan_id":"cebpf4jnsgd1na2vs0mg"},{"bike_id":"15d3ef54-e724-40dc-bb1e-d53e1a785c94","system_id":"levelo_inurba_marseille","lat":43.28616,"lon":5.39904,"is_reserved":false,"is_disabled":false,"rental_uris":{"android":"levelo://app?vid=15d3ef54-e724-40dc-bb1e-d53e1a785c94","ios":"levelo://app?vid=15d3ef54-e724-40dc-bb1e-d53e1a785c94"},"vehicle_type_id":"4","last_reported":1770538835,"current_range_meters":10800,"station_id":"st_d4a7ka997mjs738ck50g","pricing_plan_id":"cebpf4jnsgd1na2vs0mg"},{"bike_id":"d9d882bd-1a28-48fd-b84c-a86e8f84ab0c","system_id":"levelo_inurba_marseille","lat":43.24629,"lon":5.43153,"is_reserved":false,"is_disabled":false,"rental_uris":{"android":"levelo://app?vid=d9d882bd-1a28-48fd-b84c-a86e8f84ab0c","ios":"levelo://app?vid=d9d882bd-1a28-48fd-b84c-a86e8f84ab0c"},"vehicle_type_id":"4","last_reported":1770538835,"current_range_meters":10800,"station_id":"st_d2m6c4gdas8pm72e190g","pricing_plan_id":"cebpf4jnsgd1na2vs0mg"},{"bike_id":"bca86a1c-1fc3-45f1-8c70-0ae6c3920830","system_id":"levelo_inurba_marseille","lat":43.29888,"lon":5.43649,"is_reserved":false,"is_disabled":false,"rental_uris":{"android":"levelo://app?vid=bca86a1c-1fc3-45f1-8c70-0ae6c3920830","ios":"levelo://app?vid=bca86a1c-1fc3-45f1-8c70-0ae6c3920830"},"vehicle_type_id":"4","last_reported":1770538835,"current_range_meters":10800,"station_id":"ce4bhpp2rcd13ifvqhfg","pricing_plan_id":"cebpf4jnsgd1na2vs0mg"},{"bike_id":"a69d3aee-77c1-410d-a5bd-9dbc56f9521b","system_id":"levelo_inurba_marseille","lat":43.323479,"lon":5.367484,"is_reserved":false,"is_disabled":false,"rental_uris":{"android":"levelo://app?vid=a69d3aee-77c1-410d-a5bd-9dbc56f9521b","ios":"levelo://app?vid=a69d3aee-77c1-410d-a5bd-9dbc56f9521b"},"vehicle_type_id":"4","last_reported":1770538835,"current_range_meters":10800,"station_id":"ce4bhsh2rcd13ifvqi2g","pricing_plan_id":"cebpf4jnsgd1na2vs0mg"},{"bike_id":"7b5053b7-4793-4670-96cd-70b376dd5373","system_id":"levelo_inurba_marseille","lat":43.28666,"lon":5.3636,"is_reserved":false,"is_disabled":false,"rental_uris":{"android":"levelo://app?vid=7b5053b7-4793-4670-96cd-70b376dd5373","ios":"levelo://app?vid=7b5053b7-4793-4670-96cd-70b376dd5373"},"vehicle_type_id":"4","last_reported":1770538835,"current_range_meters":10800,"station_id":"ce4bhah2rcd13ifvqej0","pricing_plan_id":"cebpf4jnsgd1na2vs0mg"},{"bike_id":"7fb77262-90b3-4d6c-938e-9eda296ba1ff","system_id":"levelo_inurba_marseille","lat":43.23369,"lon":5.41276,"is_reserved":false,"is_disabled":false,"rental_uris":{"android":"levelo://app?vid=7fb77262-90b3-4d6c-938e-9eda296ba1ff","ios":"levelo://app?vid=7fb77262-90b3-4d6c-938e-9eda296ba1ff"},"vehicle_type_id":"4","last_reported":1770538835,"current_range_meters":10800,"station_id":"","pricing_plan_id":"cebpf4jnsgd1na2vs0mg"},