{"last_updated":1731442202,"ttl":60,"version":"2.2","data":{"bikes":[{"bike_id":"aa05ff5a-02ec-4030-a810-a7356a8b4f94","system_id":"levelo_inurba_marseille","lat":43.240784,"lon":5.377493,"is_reserved":false,"is_disabled":false,"rental_uris":{"android":"levelo://app?vid=aa05ff5a-02ec-4030-a810-a7356a8b4f94","ios":"levelo://app?vid=aa05ff5a-02ec-4030-a810-a7356a8b4f94"},"vehicle_type_id":"4","last_reported":1731442202,"current_range_meters":32000,"station_id":"ce4bhnp2rcd13ifvqgvg","pricing_plan_id":"cebpf4jnsgd1na2vs0mg"},{"bike_id":"4ecf88c0-77a6-4268-b158-1994aec5c096","system_id":"levelo_inurba_marseille","lat":43.31072,"lon":5.40092,"is_reserved":false,"is_disabled":false,"rental_uris":{"android":"levelo://app?vid=4ecf88c0-77a6-4268-b158-1994aec5c096","ios":"levelo://app?vid=4ecf88c0-77a6-4268-b158-1994aec5c096"},"vehicle_type_id":"4","last_reported":1731442202,"current_range_meters":3600,"station_id":"","pricing_plan_id":"cebpf4jnsgd1na2vs0mg"},{"bike_id":"9321cc4c-b7b8-4621-99af-a090505f2af8","system_id":"levelo_inurba_marseille","lat":43.28419,"lon":5.37517,"is_reserved":false,"is_disabled":false,"rental_uris":{"android":"levelo://app?vid=9321cc4c-b7b8-4621-99af-a090505f2af8","ios":"levelo://app?vid=9321cc4c-b7b8-4621-99af-a090505f2af8"},"vehicle_type_id":"4","last_reported":1731442202,"current_range_meters":3200,"station_id":"ce4bh412rcd13ifvqds0","pricing_plan_id":"cebpf4jnsgd1na2vs0mg"},{"bike_id":"e3302601-dafd-4911-99fe-3d1cec184d66","system_id":"levelo_inurba_marseille","lat":43.29517,"lon":5.394,"is_reserved":false,"is_disabled":false,"rental_uris":{"android":"levelo://app?vid=e3302601-dafd-4911-99fe-3d1cec184d66","ios":"levelo://app?vid=e3302601-dafd-4911-99fe-3d1cec184d66"},"vehicle_type_id":"4","last_reported":1731442202,"current_range_meters":36800,"station_id":"ce4bh292rcd13ifvqdf0","pricing_plan_id":"cebpf4jnsgd1na2vs0mg"},{"bike_id":"32b9fb5c-72c7-40fa-b43d-660b6b2d8d9d","system_id":"levelo_inurba_marseille","lat":43.32343,"lon":5.40623,"is_reserved":false,"is_disabled":false,"rental_uris":{"android":"levelo://app?vid=32b9fb5c-72c7-40fa-b43d-660b6b2d8d9d","ios":"levelo://app?vid=32b9fb5c-72c7-40fa-b43d-660b6b2d8d9d"},"vehicle_type_id":"4","last_reported":1731442202,"current_range_meters":24000,"station_id":"ce4bhq92rcd13ifvqhjg","pricing_plan_id":"cebpf4jnsgd1na2vs0mg"},{"bike_id":"12fedba1-7838-4446-bc5c-bf5334040960","system_id":"levelo_inurba_marseille","lat":43.29942,"lon":5.37477,"is_reserved":false,"is_disabled":false,"rental_uris":{"android":"levelo://app?vid=12fedba1-7838-4446-bc5c-bf5334040960","ios":"levelo://app?vid=12fedba1-7838-4446-bc5c-bf5334040960"},"vehicle_type_id":"4","last_reported":1731442202,"current_range_meters":38400,"station_id":"ce4bgjh2rcd13ifvqbg0","pricing_plan_id":"cebpf4jnsgd1na2vs0mg"},{"bike_id":"c4e00506-2f54-4afb-b23c-6fdb96d02c0e","system_id":"levelo_inurba_marseille","lat":43.23194,"lon":5.3555,"is_reserved":false,"is_disabled":false,"rental_uris":{"android":"levelo://app?vid=c4e00506-2f54-4afb-b23c-6fdb96d02c0e","ios":"levelo://app?vid=c4e00506-2f54-4afb-b23c-6fdb96d02c0e"},"vehicle_type_id":"4","last_reported":1731442202,"current_range_meters":23200,"station_id":"ce4bhu92rcd13ifvqi70","pricing_plan_id":"cebpf4jnsgd1na2vs0mg"},{"bike_id":"dd6f9bb7-4775-4e9e-9d5d-e853a06b449e","system_id":"levelo_inurba_marseille","lat":43.34143,"lon":5.40904,"is_reserved":false,"is_disabled":false,"rental_uris":{"android":"levelo://app?vid=dd6f9bb7-4775-4e9e-9d5d-e853a06b449e","ios":"levelo://app?vid=dd6f9bb7-4775-4e9e-9d5d-e853a06b449e"},"vehicle_type_id":"4","last_reported":1731442202,"current_range_meters":22800,"station_id":"ce4bhqh2rcd13ifvqhlg","pricing_plan_id":"cebpf4jnsgd1na2vs0mg"},{"bike_id":"c159af5d-9317-4e6f-b968-ebce412f1762","system_id":"levelo_inurba_marseille","lat":43.2962,"lon":5.3716,"is_reserved":false,"is_disabled":false,"rental_uris":{"android":"levelo://app?vid=c159af5d-9317-4e6f-b968-ebce412f1762","ios":"levelo://app?vid=c159af5d-9317-4e6f-b968-ebce412f1762"},"vehicle_type_id":"4","last_reported":1731442202,"current_range_meters":38000,"station_id":"ce4bgnh2rcd13ifvqc0g","pricing_plan_id":"cebpf4jnsgd1na2vs0mg"},{"bike_id":"0b785488-5f6f-4147-b7d5-50aff61b8478","system_id":"levelo_inurba_marseille","lat":43.31162,"lon":5.38716,"is_reserved":false,"is_disabled":false,"rental_uris":{"android":"levelo://app?vid=0b785488-5f6f-4147-b7d5-50aff61b8478","ios":"levelo://app?vid=0b785488-5f6f-4147-b7d5-50aff61b8478"},"vehicle_type_id":"4","last_reported":1731442202,"current_range_meters":19200,"station_id":"ce4bgv12rcd13ifvqcp0","pricing_plan_id":"cebpf4jnsgd1na2vs0mg"},{"bike_id":"18600b65-d922-4b26-8018-34b1e4d05724","system_id":"levelo_inurba_marseille","lat":43.27813,"lon":5.40715,"is_reserved":false,"is_disabled":false,"rental_uris":{"android":"levelo://app?vid=18600b65-d922-4b26-8018-34b1e4d05724","ios":"levelo://app?vid=18600b65-d922-4b26-8018-34b1e4d05724"},"vehicle_type_id":"4","last_reported":1731442202,"current_range_meters":39200,"station_id":"ce4bhnh2rcd13ifvqgtg","pricing_plan_id":"cebpf4jnsgd1na2vs0mg"},{"bike_id":"94104d52-b85c-40f3-b98b-8c4549bcf4e5","system_id":"levelo_inurba_marseille","lat":43.29203,"lon":5.39327,"is_reserved":false,"is_disabled":false,"rental_uris":{"android":"levelo://app?vid=94104d52-b85c-40f3-b98b-8c4549bcf4e5","ios":"levelo://app?vid=94104d52-b85c-40f3-b98b-8c4549bcf4e5"},"vehicle_type_id":"4","last_reported":1731442202,"current_range_meters":35600,"station_id":"ce4bh192rcd13ifvqdd0","pricing_plan_id":"cebpf4jnsgd1na2vs0mg"},{"bike_id":"18df7c71-103d-4f7e-ac84-690ea0604d22","system_id":"levelo_inurba_marseille","lat":43.23196,"lon":5.35557,"is_reserved":false,"is_disabled":false,"rental_uris":{"android":"levelo://app?vid=18df7c71-103d-4f7e-ac84-690ea0604d22","ios":"levelo://app?vid=18df7c71-103d-4f7e-ac84-690ea0604d22"},"vehicle_type_id":"4","last_reported":1731442202,"current_range_meters":22000,"station_id":"ce4bhu92rcd13ifvqi70","pricing_plan_id":"cebpf4jnsgd1na2vs0mg"},{"bike_id":"6b228d07-4301-4a5b-9474-4b744d853bd2","system_id":"levelo_inurba_marseille","lat":43.3248,"lon":5.36568,"is_reserved":false,"is_disabled":false,"rental_uris":{"android":"levelo://app?vid=6b228d07-4301-4a5b-9474-4b744d853bd2","ios":"levelo://app?vid=6b228d07-4301-4a5b-9474-4b744d853bd2"},"vehicle_type_id":"4","last_reported":1731442202,"current_range_meters":24000,"station_id":"ce4bhs12rcd13ifvqhvg","pricing_plan_id":"cebpf4jnsgd1na2vs0mg"},{"bike_id":"08b576bb-db72-4765-beb3-6747da039575","system_id":"levelo_inurba_marseille","lat":43.2815,"lon":5.42641,"is_reserved":false,"is_disabled":false,"rental_uris":{"android":"levelo://app?vid=08b576bb-db72-4765-beb3-6747da039575","ios":"levelo://app?vid=08b576bb-db72-4765-beb3-6747da039575"},"vehicle_type_id":"4","last_reported":1731442202,"current_range_meters":9600,"station_id":"ce4bhnh2rcd13ifvqgug","pricing_plan_id":"cebpf4jnsgd1na2vs0mg"},{"bike_id":"653e4468-60b9-4187-aef3-7b5969c990fa","system_id":"levelo_inurba_marseille","lat":43.28727,"lon":5.37939,"is_reserved":false,"is_disabled":false,"rental_uris":{"android":"levelo://app?vid=653e4468-60b9-4187-aef3-7b5969c990fa","ios":"levelo://app?vid=653e4468-60b9-4187-aef3-7b5969c990fa"},"vehicle_type_id":"4","last_reported":1731442202,"current_range_meters":4800,"station_id":"ce4bh9p2rcd13ifvqec0","pricing_plan_id":"cebpf4jnsgd1na2vs0mg"},{"bike_id":"7d87b85e-93cd-4582-82c9-874c09a2a874","system_id":"levelo_inurba_marseille","lat":43.27494,"lon":5.42451,"is_reserved":false,"is_disabled":false,"rental_uris":{"android":"levelo://app?vid=7d87b85e-93cd-4582-82c9-874c09a2a874","ios":"levelo://app?vid=7d87b85e-93cd-4582-82c9-874c09a2a874"},"vehicle_type_id":"4","last_reported":1731442202,"current_range_meters":9200,"station_id":"ce4bhn92rcd13ifvqgrg","pricing_plan_id":"cebpf4jnsgd1na2vs0mg"},{"bike_id":"ae7a1209-30cb-4adf-9682-f9a609b62c9b","system_id":"levelo_inurba_marseille","lat":43.32365,"lon":5.38883,"is_reserved":false,"is_disabled":false,"rental_uris":{"android":"levelo://app?vid=ae7a1209-30cb-4adf-9682-f9a609b62c9b","ios":"levelo://app?vid=ae7a1209-30cb-4adf-9682-f9a609b62c9b"},"vehicle_type_id":"4","last_reported":1731442202,"current_range_meters":17600,"station_id":"ce4bhqp2rcd13ifvqhog","pricing_plan_id":"cebpf4jnsgd1na2vs0mg"},{"bike_id":"92501b6a-7129-4fd6-b1c6-a0ff5a76a687","system_id":"levelo_inurba_marseille","lat":43.25087,"lon":5.39516,"is_reserved":false,"is_disabled":false,"rental_uris":{"android":"levelo://app?vid=92501b6a-7129-4fd6-b1c6-a0ff5a76a687","ios":"levelo://app?vid=92501b6a-7129-4fd6-b1c6-a0ff5a76a687"},"vehicle_type_id":"4","last_reported":1731442202,"current_range_meters":18800,"station_id":"ce4bhm12rcd13ifvqgkg","pricing_plan_id":"cebpf4jnsgd1na2vs0mg"},{"bike_id":"86f1feee-7efa-4d72-ae44-66404ff916fc","system_id":"levelo_inurba_marseille","lat":43.3091,"lon":5.36857,"is_reserved":false,"is_disabled":false,"rental_uris":{"android":"levelo://app?vid=86f1feee-7efa-4d72-ae44-66404ff916fc","ios":"levelo://app?vid=86f1feee-7efa-4d72-ae44-66404ff916fc"},"vehicle_type_id":"4","last_reported":1731442202,"current_range_meters":35600,"station_id":"ce4bgn92rcd13ifvqbvg","pricing_plan_id":"cebpf4jnsgd1na2vs0mg"},{"bike_id":"45bc7c88-9c3a-4904-b8f3-dfc1061e8f0f","system_id":"levelo_inurba_marseille","lat":43.31038,"lon":5.386315,"is_reserved":false,"is_disabled":false,"rental_uris":{"android":"levelo://app?vid=45bc7c88-9c3a-4904-b8f3-dfc1061e8f0f","ios":"levelo://app?vid=45bc7c88-9c3a-4904-b8f3-dfc1061e8f0f"},"vehicle_type_id":"4","last_reported":1731442202,"current_range_meters":7200,"station_id":"ce4bho92rcd13ifvqh4g","pricing_plan_id":"cebpf4jnsgd1na2vs0mg"},{"bike_id":"131c48f7-325d-49f5-b51e-4c6b86326b57","system_id":"levelo_inurba_marseille","lat":43.30212,"lon":5.39472,"is_reserved":false,"is_disabled":false,"rental_uris":{"android":"levelo://app?vid=131c48f7-325d-49f5-b51e-4c6b86326b57","ios":"levelo://app?vid=131c48f7-325d-49f5-b51e-4c6b86326b57"},"vehicle_type_id":"4","last_reported":1731442202,"current_range_meters":39200,"station_id":"ce4bh0p2rcd13ifvqd70","pricing_plan_id":"cebpf4jnsgd1na2vs0mg"},{"bike_id":"77a8d971-2f30-4a1d-8bad-2f755f82f9a7","system_id":"levelo_inurba_marseille","lat":43.28273,"lon":5.35075,"is_reserved":false,"is_disabled":false,"rental_uris":{"android":"levelo://app?vid=77a8d971-2f30-4a1d-8bad-2f755f82f9a7","ios":"levelo://app?vid=77a8d971-2f30-4a1d-8bad-2f755f82f9a7"},"vehicle_type_id":"4","last_reported":1731442202,"current_range_meters":32400,"station_id":"ce4bhbp2rcd13ifvqerg","pricing_plan_id":"cebpf4jnsgd1na2vs0mg"},{"bike_id":"1e6d59bd-28cd-4e09-b6e4-a60784365a06","system_id":"levelo_inurba_marseille","lat":43.2799,"lon":5.41663,"is_reserved":false,"is_disabled":false,"rental_uris":{"android":"levelo://app?vid=1e6d59bd-28cd-4e09-b6e4-a60784365a06","ios":"levelo://app?vid=1e6d59bd-28cd-4e09-b6e4-a60784365a06"},"vehicle_type_id":"4","last_reported":1731442202,"current_range_meters":38800,"station_id":"ce4bho12rcd13ifvqh1g","pricing_plan_id":"cebpf4jnsgd1na2vs0mg"},{"bike_id":"de1213ad-8538-49db-90f1-13c1562aa5c2","system_id":"levelo_inurba_marseille","lat":43.28612,"lon":5.35105,"is_reserved":false,"is_disabled":false,"rental_uris":{"android":"levelo://app?vid=de1213ad-8538-49db-90f1-13c1562aa5c2","ios":"levelo://app?vid=de1213ad-8538-49db-90f1-13c1562aa5c2"},"vehicle_type_id":"4","last_reported":1731442202,"current_range_meters":8000,"station_id":"ce4bhch2rcd13ifvqeug","pricing_plan_id":"cebpf4jnsgd1na2vs0mg"},{"bike_id":"5770bbd9-2c6e-4691-a76b-306c0fdae32c","system_id":"levelo_inurba_marseille","lat":43.28849,"lon":5.3585,"is_reserved":false,"is_disabled":false,"rental_uris":{"android":"levelo://app?vid=5770bbd9-2c6e-4691-a76b-306c0fdae32c","ios":"levelo://app?vid=5770bbd9-2c6e-4691-a76b-306c0fdae32c"},"vehicle_type_id":"4","last_reported":1731442202,"current_range_meters":32400,"station_id":"ce4bhb12rcd13ifvqem0","pricing_plan_id":"cebpf4jnsgd1na2vs0mg"},{"bike_id":"507284d9-4009-457e-bfa1-5ddbf58c6240","system_id":"levelo_inurba_marseille","lat":43.27175,"lon":5.40988,"is_reserved":false,"is_disabled":false,"rental_uris":{"android":"levelo://app?vid=507284d9-4009-457e-bfa1-5ddbf58c6240","ios":"levelo://app?vid=507284d9-4009-457e-bfa1-5ddbf58c6240"},"vehicle_type_id":"4","last_reported":1731442202,"current_range_meters":39200,"station_id":"ce4bhl12rcd13ifvqgf0","pricing_plan_id":"cebpf4jnsgd1na2vs0mg"},{"bike_id":"5585f7df-260f-4763-a77b-cec71622b344","system_id":"levelo_inurba_marseille","lat":43.31991,"lon":5.38149,"is_reserved":false,"is_disabled":false,"rental_uris":{"android":"levelo://app?vid=5585f7df-260f-4763-a77b-cec71622b344","ios":"levelo://app?vid=5585f7df-260f-4763-a77b-cec71622b344"},"vehicle_type_id":"4","last_reported":1731442202,"current_range_meters":31200,"station_id":"ce4bhr12rcd13ifvqhpg","pricing_plan_id":"cebpf4jnsgd1na2vs0mg"},{"bike_id":"23c52876-dd13-410b-9038-3c78b1547e42","system_id":"levelo_inurba_marseille","lat":43.287109,"lon":5.379285,"is_reserved":false,"is_disabled":false,"rental_uris":{"android":"levelo://app?vid=23c52876-dd13-410b-9038-3c78b1547e42","ios":"levelo://app?vid=23c52876-dd13-410b-9038-3c78b1547e42"},"vehicle_type_id":"4","last_reported":1731442202,"current_range_meters":37600,"station_id":"ce4bh9p2rcd13ifvqec0","pricing_plan_id":"cebpf4jnsgd1na2vs0mg"},{"bike_id":"477ac499-461c-4a23-8dfa-5e9d7eb9d95e","system_id":"levelo_inurba_marseille","lat":43.31166,"lon":5.38705,"is_reserved":false,"is_disabled":false,"rental_uris":{"android":"levelo://app?vid=477ac499-461c-4a23-8dfa-5e9d7eb9d95e","ios":"levelo://app?vid=477ac499-461c-4a23-8dfa-5e9d7eb9d95e"},"vehicle_type_id":"4","last_reported":1731442202,"current_range_meters":10800,"station_id":"ce4bgv12rcd13ifvqcp0","pricing_plan_id":"cebpf4jnsgd1na2vs0mg"},{"bike_id":"44a85343-f177-4904-8616-4b62e063a17c","system_id":"levelo_inurba_marseille","lat":43.29,"lon":5.35601,"is_reserved":false,"is_disabled":false,"rental_uris":{"android":"levelo://app?vid=44a85343-f177-4904-8616-4b62e063a17c","ios":"levelo://app?vid=44a85343-f177-4904-8616-4b62e063a17c"},"vehicle_type_id":"4","last_reported":1731442202,"current_range_meters":38800,"station_id":"ce4bhb92rcd13ifvqen0","pricing_plan_id":"cebpf4jnsgd1na2vs0mg"},{"bike_id":"0c16ce1e-70c2-4d1f-b546-d3a2156323ff","system_id":"levelo_inurba_marseille","lat":43.27808,"lon":5.40702,"is_reserved":false,"is_disabled":false,"rental_uris":{"android":"levelo://app?vid=0c16ce1e-70c2-4d1f-b546-d3a2156323ff","ios":"levelo://app?vid=0c16ce1e-70c2-4d1f-b546-d3a2156323ff"},"vehicle_type_id":"4","last_reported":1731442202,"current_range_meters":32400,"station_id":"ce4bhnh2rcd13ifvqgtg","pricing_plan_id":"cebpf4jnsgd1na2vs0mg"},{"bike_id":"545b5284-2b5f-4c76-b6de-050eba91d10e","system_id":"levelo_inurba_marseille","lat":43.24802,"lon":5.37457,"is_reserved":false,"is_disabled":false,"rental_uris":{"android":"levelo://app?vid=545b5284-2b5f-4c76-b6de-050eba91d10e","ios":"levelo://app?vid=545b5284-2b5f-4c76-b6de-050eba91d10e"},"vehicle_type_id":"4","last_reported":1731442202,"current_range_meters":6000,"station_id":"ce4bhgh2rcd13ifvqfb0","pricing_plan_id":"cebpf4jnsgd1na2vs0mg"},{"bike_id":"d5943862-203f-48ea-92c4-5ad0cb7262bb","system_id":"levelo_inurba_marseille","lat":43.31334,"lon":5.3969,"is_reserved":false,"is_disabled":false,"rental_uris":{"android":"levelo://app?vid=d5943862-203f-48ea-92c4-5ad0cb7262bb","ios":"levelo://app?vid=d5943862-203f-48ea-92c4-5ad0cb7262bb"},"vehicle_type_id":"4","last_reported":1731442202,"current_range_meters":38800,"station_id":"ce4bgvp2rcd13ifvqcu0","pricing_plan_id":"cebpf4jnsgd1na2vs0mg"},{"bike_id":"d265751d-fa37-4729-b8e3-a5848e7e9d07","system_id":"levelo_inurba_marseille","lat":43.24804,"lon":5.37455,"is_reserved":false,"is_disabled":false,"rental_uris":{"android":"levelo://app?vid=d265751d-fa37-4729-b8e3-a5848e7e9d07","ios":"levelo://app?vid=d265751d-fa37-4729-b8e3-a5848e7e9d07"},"vehicle_type_id":"4","last_reported":1731442202,"current_range_meters":39200,"station_id":"ce4bhgh2rcd13ifvqfb0","pricing_plan_id":"cebpf4jnsgd1na2vs0mg"},{"bike_id":"e4557244-baef-4fb7-ae0e-00398e2706db","system_id":"levelo_inurba_marseille","lat":43.28457,"lon":5.35893,"is_reserved":false,"is_disabled":false,"rental_uris":{"android":"levelo://app?vid=e4557244-baef-4fb7-ae0e-00398e2706db","ios":"levelo://app?vid=e4557244-baef-4fb7-ae0e-00398e2706db"},"vehicle_type_id":"4","last_reported":1731442202,"current_range_meters":28000,"station_id":"ce4bhah2rcd13ifvqei0","pricing_plan_id":"cebpf4jnsgd1na2vs0mg"},{"bike_id":"f6ab6a11-7b1f-4725-a4fc-55ac9756602b","system_id":"levelo_inurba_marseille","lat":43.23193,"lon":5.35541,"is_reserved":false,"is_disabled":false,"rental_uris":{"android":"levelo://app?vid=f6ab6a11-7b1f-4725-a4fc-55ac9756602b","ios":"levelo://app?vid=f6ab6a11-7b1f-4725-a4fc-55ac9756602b"},"vehicle_type_id":"4","last_reported":1731442202,"current_range_meters":36800,"station_id":"ce4bhu92rcd13ifvqi70","pricing_plan_id":"cebpf4jnsgd1na2vs0mg"},{"bike_id":"1661b959-96a0-4bc6-9284-ecde42b3da08","system_id":"levelo_inurba_marseille","lat":43.30603,"lon":5.393543,"is_reserved":false,"is_disabled":false,"rental_uris":{"android":"levelo://app?vid=1661b959-96a0-4bc6-9284-ecde42b3da08","ios":"levelo://app?vid=1661b959-96a0-4bc6-9284-ecde42b3da08"},"vehicle_type_id":"4","last_reported":1731442202,"current_range_meters":36400,"station_id":"ce4bh0p2rcd13ifvqd80","pricing_plan_id":"cebpf4jnsgd1na2vs0mg"},{"bike_id":"5ce06f72-b400-499c-be28-197a9bcfb656","system_id":"levelo_inurba_marseille","lat":43.29164,"lon":5.37159,"is_reserved":false,"is_disabled":false,"rental_uris":{"android":"levelo://app?vid=5ce06f72-b400-499c-be28-197a9bcfb656","ios":"levelo://app?vid=5ce06f72-b400-499c-be28-197a9bcfb656"},"vehicle_type_id":"4","last_reported":1731442202,"current_range_meters":38800,"station_id":"ce4bha92rcd13ifvqeh0","pricing_plan_id":"cebpf4jnsgd1na2vs0mg"},{"bike_id":"3922a5eb-6156-4c8a-a09b-14fee498ab0f","system_id":"levelo_inurba_marseille","lat":43.27069,"lon":5.42279,"is_reserved":false,"is_disabled":false,"rental_uris":{"android":"levelo://app?vid=3922a5eb-6156-4c8a-a09b-14fee498ab0f","ios":"levelo://app?vid=3922a5eb-6156-4c8a-a09b-14fee498ab0f"},"vehicle_type_id":"4","last_reported":1731442202,"current_range_meters":38800,"station_id":"ce4bhk92rcd13ifvqgb0","pricing_plan_id":"cebpf4jnsgd1na2vs0mg"},{"bike_id":"61fecd63-b608-4453-b03a-5f467b8e7514","system_id":"levelo_inurba_marseille","lat":43.31333,"lon":5.39691,"is_reserved":false,"is_disabled":false,"rental_uris":{"android":"levelo://app?vid=61fecd63-b608-4453-b03a-5f467b8e7514","ios":"levelo://app?vid=61fecd63-b608-4453-b03a-5f467b8e7514"},"vehicle_type_id":"4","last_reported":1731442202,"current_range_meters":22400,"station_id":"ce4bgvp2rcd13ifvqcu0","pricing_plan_id":"cebpf4jnsgd1na2vs0mg"},{"bike_id":"9c6e8335-7b55-4c15-8665-29190ffcd09f","system_id":"levelo_inurba_marseille","lat":43.26564,"lon":5.38999,"is_reserved":false,"is_disabled":false,"rental_uris":{"android":"levelo://app?vid=9c6e8335-7b55-4c15-8665-29190ffcd09f","ios":"levelo://app?vid=9c6e8335-7b55-4c15-8665-29190ffcd09f"},"vehicle_type_id":"4","last_reported":1731442202,"current_range_meters":16400,"station_id":"ce4bhe12rcd13ifvqf30","pricing_plan_id":"cebpf4jnsgd1na2vs0mg"},{"bike_id":"643acdb3-4fdc-4eb0-be6f-5155ce023638","system_id":"levelo_inurba_marseille","lat":43.22933,"lon":5.35376,"is_reserved":false,"is_disabled":false,"rental_uris":{"android":"levelo://app?vid=643acdb3-4fdc-4eb0-be6f-5155ce023638","ios":"levelo://app?vid=643acdb3-4fdc-4eb0-be6f-5155ce023638"},"vehicle_type_id":"4","last_reported":1731442202,"current_range_meters":23200,"station_id":"cpo3532slgdg3j2ikp40","pricing_plan_id":"cebpf4jnsgd1na2vs0mg"},{"bike_id":"cabd32d1-ee14-437f-9c0a-9dc62638f451","system_id":"levelo_inurba_marseille","lat":43.31686,"lon":5.40477,"is_reserved":false,"is_disabled":false,"rental_uris":{"android":"levelo://app?vid=cabd32d1-ee14-437f-9c0a-9dc62638f451","ios":"levelo://app?vid=cabd32d1-ee14-437f-9c0a-9dc62638f451"},"vehicle_type_id":"4","last_reported":1731442202,"current_range_meters":6000,"station_id":"ce4bh012rcd13ifvqd00","pricing_plan_id":"cebpf4jnsgd1na2vs0mg"},{"bike_id":"4ea09c0a-69d0-4a4b-ac6d-f8d9d70b9f13","system_id":"levelo_inurba_marseille","lat":43.28461,"lon":5.35886,"is_reserved":false,"is_disabled":false,"rental_uris":{"android":"levelo://app?vid=4ea09c0a-69d0-4a4b-ac6d-f8d9d70b9f13","ios":"levelo://app?vid=4ea09c0a-69d0-4a4b-ac6d-f8d9d70b9f13"},"vehicle_type_id":"4","last_reported":1731442202,"current_range_meters":34800,"station_id":"ce4bhah2rcd13ifvqei0","pricing_plan_id":"cebpf4jnsgd1na2vs0mg"},{"bike_id":"253a12c5-006f-4195-a5e6-b6dd3f5e3125","system_id":"levelo_inurba_marseille","lat":43.29452,"lon":5.39756,"is_reserved":false,"is_disabled":false,"rental_uris":{"android":"levelo://app?vid=253a12c5-006f-4195-a5e6-b6dd3f5e3125","ios":"levelo://app?vid=253a12c5-006f-4195-a5e6-b6dd3f5e3125"},"vehicle_type_id":"4","last_reported":1731442202,"current_range_meters":34800,"station_id":"ce4bh3h2rcd13ifvqdo0","pricing_plan_id":"cebpf4jnsgd1na2vs0mg"},{"bike_id":"d7ad06ec-6153-4f7f-a6e6-8b8e0d4e8fa7","system_id":"levelo_inurba_marseille","lat":43.3047,"lon":5.379,"is_reserved":false,"is_disabled":false,"rental_uris":{"android":"levelo://app?vid=d7ad06ec-6153-4f7f-a6e6-8b8e0d4e8fa7","ios":"levelo://app?vid=d7ad06ec-6153-4f7f-a6e6-8b8e0d4e8fa7"},"vehicle_type_id":"4","last_reported":1731442202,"current_range_meters":32400,"station_id":"ce4bhqp2rcd13ifvqhng","pricing_plan_id":"cebpf4jnsgd1na2vs0mg"},{"bike_id":"96d2f104-c9ef-4a4c-99ea-d8fee576fe68","system_id":"levelo_inurba_marseille","lat":43.25085,"lon":5.39519,"is_reserved":false,"is_disabled":false,"rental_uris":{"android":"levelo://app?vid=96d2f104-c9ef-4a4c-99ea-d8fee576fe68","ios":"levelo://app?vid=96d2f104-c9ef-4a4c-99ea-d8fee576fe68"},"vehicle_type_id":"4","last_reported":1731442202,"current_range_meters":6800,"station_id":"ce4bhm12rcd13ifvqgkg","pricing_plan_id":"cebpf4jnsgd1na2vs0mg"},{"bike_id":"cc28e414-0047-4ae0-a828-6e21b2d2f7a4","system_id":"levelo_inurba_marseille","lat":43.2799,"lon":5.4166,"is_reserved":false,"is_disabled":false,"rental_uris":{"android":"levelo://app?vid=cc28e414-0047-4ae0-a828-6e21b2d2f7a4","ios":"levelo://app?vid=cc28e414-0047-4ae0-a828-6e21b2d2f7a4"},"vehicle_type_id":"4","last_reported":1731442202,"current_range_meters":7200,"station_id":"ce4bho12rcd13ifvqh1g","pricing_plan_id":"cebpf4jnsgd1na2vs0mg"},{"bike_id":"7d250492-b878-490b-8fb4-bee304bc7d48","system_id":"levelo_inurba_marseille","lat":43.29517,"lon":5.39047,"is_reserved":false,"is_disabled":false,"rental_uris":{"android":"levelo://app?vid=7d250492-b878-490b-8fb4-bee304bc7d48","ios":"levelo://app?vid=7d250492-b878-490b-8fb4-bee304bc7d48"},"vehicle_type_id":"4","last_reported":1731442202,"current_range_meters":32800,"station_id":"ce4bh3p2rcd13ifvqdp0","pricing_plan_id":"cebpf4jnsgd1na2vs0mg"},{"bike_id":"2f7c0ff4-f529-409a-83cd-35a4539bd82f","system_id":"levelo_inurba_marseille","lat":43.24071,"lon":5.37757,"is_reserved":false,"is_disabled":false,"rental_uris":{"android":"levelo://app?vid=2f7c0ff4-f529-409a-83cd-35a4539bd82f","ios":"levelo://app?vid=2f7c0ff4-f529-409a-83cd-35a4539bd82f"},"vehicle_type_id":"4","last_reported":1731442202,"current_range_meters":23200,"station_id":"ce4bhnp2rcd13ifvqgvg","pricing_plan_id":"cebpf4jnsgd1na2vs0mg"},{"bike_id":"1c823daa-54e3-4fdc-ac69-748d400a7157","system_id":"levelo_inurba_marseille","lat":43.28108,"lon":5.37837,"is_reserved":false,"is_disabled":false,"rental_uris":{"android":"levelo://app?vid=1c823daa-54e3-4fdc-ac69-748d400a7157","ios":"levelo://app?vid=1c823daa-54e3-4fdc-ac69-748d400a7157"},"vehicle_type_id":"4","last_reported":1731442202,"current_range_meters":38800,"station_id":"ce4bha12rcd13ifvqee0","pricing_plan_id":"cebpf4jnsgd1na2vs0mg"},{"bike_id":"616c3488-4d1b-452c-97ba-8f81db7be84b","system_id":"levelo_inurba_marseille","lat":43.29267,"lon":5.38438,"is_reserved":false,"is_disabled":false,"rental_uris":{"android":"levelo://app?vid=616c3488-4d1b-452c-97ba-8f81db7be84b","ios":"levelo://app?vid=616c3488-4d1b-452c-97ba-8f81db7be84b"},"vehicle_type_id":"4","last_reported":1731442202,"current_range_meters":17600,"station_id":"ce4bh692rcd13ifvqea0","pricing_plan_id":"cebpf4jnsgd1na2vs0mg"},{"bike_id":"310bf956-2d0c-40fb-9411-0b80e8e2b383","system_id":"levelo_inurba_marseille","lat":43.30324,"lon":5.40442,"is_reserved":false,"is_disabled":false,"rental_uris":{"android":"levelo://app?vid=310bf956-2d0c-40fb-9411-0b80e8e2b383","ios":"levelo://app?vid=310bf956-2d0c-40fb-9411-0b80e8e2b383"},"vehicle_type_id":"4","last_reported":1731442202,"current_range_meters":38800,"station_id":"ce4bh012rcd13ifvqd10","pricing_plan_id":"cebpf4jnsgd1na2vs0mg"},{"bike_id":"e8e02d9c-9f18-44fb-893f-40424ddd086b","system_id":"levelo_inurba_marseille","lat":43.28457,"lon":5.35887,"is_reserved":false,"is_disabled":false,"rental_uris":{"android":"levelo://app?vid=e8e02d9c-9f18-44fb-893f-40424ddd086b","ios":"levelo://app?vid=e8e02d9c-9f18-44fb-893f-40424ddd086b"},"vehicle_type_id":"4","last_reported":1731442202,"current_range_meters":39200,"station_id":"ce4bhah2rcd13ifvqei0","pricing_plan_id":"cebpf4jnsgd1na2vs0mg"},{"bike_id":"82e98470-11c0-4399-ad83-59956d6b4baa","system_id":"levelo_inurba_marseille","lat":43.30592,"lon":5.39353,"is_reserved":false,"is_disabled":false,"rental_uris":{"android":"levelo://app?vid=82e98470-11c0-4399-ad83-59956d6b4baa","ios":"levelo://app?vid=82e98470-11c0-4399-ad83-59956d6b4baa"},"vehicle_type_id":"4","last_reported":1731442202,"current_range_meters":13600,"station_id":"ce4bh0p2rcd13ifvqd80","pricing_plan_id":"cebpf4jnsgd1na2vs0mg"},{"bike_id":"b0843d66-5916-4a06-86f1-73ac0aafef65","system_id":"levelo_inurba_marseille","lat":43.31755,"lon":5.39002,"is_reserved":false,"is_disabled":false,"rental_uris":{"android":"levelo://app?vid=b0843d66-5916-4a06-86f1-73ac0aafef65","ios":"levelo://app?vid=b0843d66-5916-4a06-86f1-73ac0aafef65"},"vehicle_type_id":"4","last_reported":1731442202,"current_range_meters":34000,"station_id":"ce4bhqp2rcd13ifvqhng","pricing_plan_id":"cebpf4jnsgd1na2vs0mg"},{"bike_id":"1740a8aa-c44f-4c36-a230-385a32395a5f","system_id":"levelo_inurba_marseille","lat":43.28725,"lon":5.36091,"is_reserved":false,"is_disabled":false,"rental_uris":{"android":"levelo://app?vid=1740a8aa-c44f-4c36-a230-385a32395a5f","ios":"levelo://app?vid=1740a8aa-c44f-4c36-a230-385a32395a5f"},"vehicle_type_id":"4","last_reported":1731442202,"current_range_meters":38800,"station_id":"cki0cbj6b192h4jlfktg","pricing_plan_id":"cebpf4jnsgd1na2vs0mg"},{"bike_id":"279e7387-2aa6-4fe0-952b-39bf3dc9e040","system_id":"levelo_inurba_marseille","lat":43.22932,"lon":5.35379,"is_reserved":false,"is_disabled":false,"rental_uris":{"android":"levelo://app?vid=279e7387-2aa6-4fe0-952b-39bf3dc9e040","ios":"levelo://app?vid=279e7387-2aa6-4fe0-952b-39bf3dc9e040"},"vehicle_type_id":"4","last_reported":1731442202,"current_range_meters":8800,"station_id":"cpo3532slgdg3j2ikp40","pricing_plan_id":"cebpf4jnsgd1na2vs0mg"},{"bike_id":"17501d7c-c069-4460-a5b3-f6280b33f6d5","system_id":"levelo_inurba_marseille","lat":43.29866,"lon":5.39732,"is_reserved":false,"is_disabled":false,"rental_uris":{"android":"levelo://app?vid=17501d7c-c069-4460-a5b3-f6280b33f6d5","ios":"levelo://app?vid=17501d7c-c069-4460-a5b3-f6280b33f6d5"},"vehicle_type_id":"4","last_reported":1731442202,"current_range_meters":16800,"station_id":"ce4bh0h2rcd13ifvqd50","pricing_plan_id":"cebpf4jnsgd1na2vs0mg"},{"bike_id":"bffb9ad5-11f9-4ac1-bc93-daa95e4d74a2","system_id":"levelo_inurba_marseille","lat":43.23188,"lon":5.39971,"is_reserved":false,"is_disabled":false,"rental_uris":{"android":"levelo://app?vid=bffb9ad5-11f9-4ac1-bc93-daa95e4d74a2","ios":"levelo://app?vid=bffb9ad5-11f9-4ac1-bc93-daa95e4d74a2"},"vehicle_type_id":"4","last_reported":1731442202,"current_range_meters":39200,"station_id":"ce4bhn12rcd13ifvqgqg","pricing_plan_id":"cebpf4jnsgd1na2vs0mg"},{"bike_id":"9686312c-dfac-4840-b80b-c5ff4cc01644","system_id":"levelo_inurba_marseille","lat":43.2885,"lon":5.39313,"is_reserved":false,"is_disabled":false,"rental_uris":{"android":"levelo://app?vid=9686312c-dfac-4840-b80b-c5ff4cc01644","ios":"levelo://app?vid=9686312c-dfac-4840-b80b-c5ff4cc01644"},"vehicle_type_id":"4","last_reported":1731442202,"current_range_meters":38800,"station_id":"ce4bh2p2rcd13ifvqdi0","pricing_plan_id":"cebpf4jnsgd1na2vs0mg"},{"bike_id":"7de8e655-df9b-45fc-8982-9a2d00a0ff2b","system_id":"levelo_inurba_marseille","lat":43.24667,"lon":5.38164,"is_reserved":false,"is_disabled":false,"rental_uris":{"android":"levelo://app?vid=7de8e655-df9b-45fc-8982-9a2d00a0ff2b","ios":"levelo://app?vid=7de8e655-df9b-45fc-8982-9a2d00a0ff2b"},"vehicle_type_id":"4","last_reported":1731442202,"current_range_meters":34800,"station_id":"ce4bhih2rcd13ifvqfr0","pricing_plan_id":"cebpf4jnsgd1na2vs0mg"},{"bike_id":"042e001c-91dd-41b7-b358-cb2e104d5b3a","system_id":"levelo_inurba_marseille","lat":43.30214,"lon":5.39468,"is_reserved":false,"is_disabled":false,"rental_uris":{"android":"levelo://app?vid=042e001c-91dd-41b7-b358-cb2e104d5b3a","ios":"levelo://app?vid=042e001c-91dd-41b7-b358-cb2e104d5b3a"},"vehicle_type_id":"4","last_reported":1731442202,"current_range_meters":18800,"station_id":"ce4bh0p2rcd13ifvqd70","pricing_plan_id":"cebpf4jnsgd1na2vs0mg"},{"bike_id":"0533d407-0885-441e-afcd-c99a726d8cbf","system_id":"levelo_inurba_marseille","lat":43.28851,"lon":5.35857,"is_reserved":false,"is_disabled":false,"rental_uris":{"android":"levelo://app?vid=0533d407-0885-441e-afcd-c99a726d8cbf","ios":"levelo://app?vid=0533d407-0885-441e-afcd-c99a726d8cbf"},"vehicle_type_id":"4","last_reported":1731442202,"current_range_meters":6400,"station_id":"ce4bhb12rcd13ifvqem0","pricing_plan_id":"cebpf4jnsgd1na2vs0mg"},{"bike_id":"6af85b63-eb6f-495b-9cce-d62cb4e5f26b","system_id":"levelo_inurba_marseille","lat":43.28153,"lon":5.42637,"is_reserved":false,"is_disabled":false,"rental_uris":{"android":"levelo://app?vid=6af85b63-eb6f-495b-9cce-d62cb4e5f26b","ios":"levelo://app?vid=6af85b63-eb6f-495b-9cce-d62cb4e5f26b"},"vehicle_type_id":"4","last_reported":1731442202,"current_range_meters":24000,"station_id":"ce4bhnh2rcd13ifvqgug","pricing_plan_id":"cebpf4jnsgd1na2vs0mg"},{"bike_id":"d7263090-4e41-407d-9271-2db32801f77e","system_id":"levelo_inurba_marseille","lat":43.27843,"lon":5.39213,"is_reserved":false,"is_disabled":false,"rental_uris":{"android":"levelo://app?vid=d7263090-4e41-407d-9271-2db32801f77e","ios":"levelo://app?vid=d7263090-4e41-407d-9271-2db32801f77e"},"vehicle_type_id":"4","last_reported":1731442202,"current_range_meters":34000,"station_id":"ce4bhjp2rcd13ifvqga0","pricing_plan_id":"cebpf4jnsgd1na2vs0mg"},{"bike_id":"489106ab-3e61-48a2-a451-a12e7b680d19","system_id":"levelo_inurba_marseille","lat":43.31267,"lon":5.40174,"is_reserved":false,"is_disabled":false,"rental_uris":{"android":"levelo://app?vid=489106ab-3e61-48a2-a451-a12e7b680d19","ios":"levelo://app?vid=489106ab-3e61-48a2-a451-a12e7b680d19"},"vehicle_type_id":"4","last_reported":1731442202,"current_range_meters":20000,"station_id":"ce4bh092rcd13ifvqd30","pricing_plan_id":"cebpf4jnsgd1na2vs0mg"},{"bike_id":"6202c343-c23c-4a8a-85fc-54b819826d60","system_id":"levelo_inurba_marseille","lat":43.337444,"lon":5.374475,"is_reserved":false,"is_disabled":false,"rental_uris":{"android":"levelo://app?vid=6202c343-c23c-4a8a-85fc-54b819826d60","ios":"levelo://app?vid=6202c343-c23c-4a8a-85fc-54b819826d60"},"vehicle_type_id":"4","last_reported":1731442202,"current_range_meters":17600,"station_id":"","pricing_plan_id":"cebpf4jnsgd1na2vs0mg"},{"bike_id":"2836167b-5db5-4496-9e46-a29afd1a6d15","system_id":"levelo_inurba_marseille","lat":43.29043,"lon":5.35913,"is_reserved":false,"is_disabled":false,"rental_uris":{"android":"levelo://app?vid=2836167b-5db5-4496-9e46-a29afd1a6d15","ios":"levelo://app?vid=2836167b-5db5-4496-9e46-a29afd1a6d15"},"vehicle_type_id":"4","last_reported":1731442202,"current_range_meters":33200,"station_id":"ce4bha92rcd13ifvqeg0","pricing_plan_id":"cebpf4jnsgd1na2vs0mg"},{"bike_id":"b006f22f-269a-46a7-b220-e64237870ed6","system_id":"levelo_inurba_marseille","lat":43.27181,"lon":5.40989,"is_reserved":false,"is_disabled":false,"rental_uris":{"android":"levelo://app?vid=b006f22f-269a-46a7-b220-e64237870ed6","ios":"levelo://app?vid=b006f22f-269a-46a7-b220-e64237870ed6"},"vehicle_type_id":"4","last_reported":1731442202,"current_range_meters":6000,"station_id":"ce4bhl12rcd13ifvqgf0","pricing_plan_id":"cebpf4jnsgd1na2vs0mg"},{"bike_id":"a4b6d270-8a6e-4716-a83e-fe9575fea649","system_id":"levelo_inurba_marseille","lat":43.24075,"lon":5.37763,"is_reserved":false,"is_disabled":false,"rental_uris":{"android":"levelo://app?vid=a4b6d270-8a6e-4716-a83e-fe9575fea649","ios":"levelo://app?vid=a4b6d270-8a6e-4716-a83e-fe9575fea649"},"vehicle_type_id":"4","last_reported":1731442202,"current_range_meters":6000,"station_id":"ce4bhnp2rcd13ifvqgvg","pricing_plan_id":"cebpf4jnsgd1na2vs0mg"},{"bike_id":"ac5501a9-cd92-46be-9b01-66b8a10f5b68","system_id":"levelo_inurba_marseille","lat":43.28109,"lon":5.37836,"is_reserved":false,"is_disabled":false,"rental_uris":{"android":"levelo://app?vid=ac5501a9-cd92-46be-9b01-66b8a10f5b68","ios":"levelo://app?vid=ac5501a9-cd92-46be-9b01-66b8a10f5b68"},"vehicle_type_id":"4","last_reported":1731442202,"current_range_meters":38800,"station_id":"ce4bha12rcd13ifvqee0","pricing_plan_id":"cebpf4jnsgd1na2vs0mg"},{"bike_id":"a395d216-538f-45c7-8a2a-a35c24519384","system_id":"levelo_inurba_marseille","lat":43.26806,"lon":5.40269,"is_reserved":false,"is_disabled":false,"rental_uris":{"android":"levelo://app?vid=a395d216-538f-45c7-8a2a-a35c24519384","ios":"levelo://app?vid=a395d216-538f-45c7-8a2a-a35c24519384"},"vehicle_type_id":"4","last_reported":1731442202,"current_range_meters":38800,"station_id":"ce501612rcd8frsf0b60","pricing_plan_id":"cebpf4jnsgd1na2vs0mg"},{"bike_id":"64628101-f202-440b-83b0-c9f25076dd30","system_id":"levelo_inurba_marseille","lat":43.28413,"lon":5.37518,"is_reserved":false,"is_disabled":false,"rental_uris":{"android":"levelo://app?vid=64628101-f202-440b-83b0-c9f25076dd30","ios":"levelo://app?vid=64628101-f202-440b-83b0-c9f25076dd30"},"vehicle_type_id":"4","last_reported":1731442202,"current_range_meters":9200,"station_id":"ce4bh412rcd13ifvqds0","pricing_plan_id":"cebpf4jnsgd1na2vs0mg"},{"bike_id":"22b6d7d4-f5e9-441e-baeb-bcfd84be88b4","system_id":"levelo_inurba_marseille","lat":43.28835,"lon":5.3586,"is_reserved":false,"is_disabled":false,"rental_uris":{"android":"levelo://app?vid=22b6d7d4-f5e9-441e-baeb-bcfd84be88b4","ios":"levelo://app?vid=22b6d7d4-f5e9-441e-baeb-bcfd84be88b4"},"vehicle_type_id":"4","last_reported":1731442202,"current_range_meters":36400,"station_id":"ce4bhb12rcd13ifvqem0","pricing_plan_id":"cebpf4jnsgd1na2vs0mg"},{"bike_id":"65715c3f-614c-464f-af5f-e10124002dd8","system_id":"levelo_inurba_marseille","lat":43.31528,"lon":5.38029,"is_reserved":false,"is_disabled":false,"rental_uris":{"android":"levelo://app?vid=65715c3f-614c-464f-af5f-e10124002dd8","ios":"levelo://app?vid=65715c3f-614c-464f-af5f-e10124002dd8"},"vehicle_type_id":"4","last_reported":1731442202,"current_range_meters":39200,"station_id":"ce4bhsp2rcd13ifvqi50","pricing_plan_id":"cebpf4jnsgd1na2vs0mg"},{"bike_id":"22e180e6-24f2-4ab6-80da-3b2e910228b6","system_id":"levelo_inurba_marseille","lat":43.30103,"lon":5.39071,"is_reserved":false,"is_disabled":false,"rental_uris":{"android":"levelo://app?vid=22e180e6-24f2-4ab6-80da-3b2e910228b6","ios":"levelo://app?vid=22e180e6-24f2-4ab6-80da-3b2e910228b6"},"vehicle_type_id":"4","last_reported":1731442202,"current_range_meters":23200,"station_id":"ce4bh192rcd13ifvqdb0","pricing_plan_id":"cebpf4jnsgd1na2vs0mg"},{"bike_id":"bfb8b61e-842d-44c3-aef8-f19c51e31927","system_id":"levelo_inurba_marseille","lat":43.28105,"lon":5.37835,"is_reserved":false,"is_disabled":false,"rental_uris":{"android":"levelo://app?vid=bfb8b61e-842d-44c3-aef8-f19c51e31927","ios":"levelo://app?vid=bfb8b61e-842d-44c3-aef8-f19c51e31927"},"vehicle_type_id":"4","last_reported":1731442202,"current_range_meters":14400,"station_id":"ce4bha12rcd13ifvqee0","pricing_plan_id":"cebpf4jnsgd1na2vs0mg"},{"bike_id":"00090ebe-df58-4cfb-a1b3-37deebdb9913","system_id":"levelo_inurba_marseille","lat":43.28957,"lon":5.35772,"is_reserved":false,"is_disabled":false,"rental_uris":{"android":"levelo://app?vid=00090ebe-df58-4cfb-a1b3-37deebdb9913","ios":"levelo://app?vid=00090ebe-df58-4cfb-a1b3-37deebdb9913"},"vehicle_type_id":"4","last_reported":1731442202,"current_range_meters":28400,"station_id":"","pricing_plan_id":"cebpf4jnsgd1na2vs0mg"},{"bike_id":"66666f45-6562-4a25-905a-788c606fb154","system_id":"levelo_inurba_marseille","lat":43.27922,"lon":5.39587,"is_reserved":false,"is_disabled":false,"rental_uris":{"android":"levelo://app?vid=66666f45-6562-4a25-905a-788c606fb154","ios":"levelo://app?vid=66666f45-6562-4a25-905a-788c606fb154"},"vehicle_type_id":"4","last_reported":1731442202,"current_range_meters":17200,"station_id":"ce4bhf92rcd13ifvqf40","pricing_plan_id":"cebpf4jnsgd1na2vs0mg"},{"bike_id":"42c7160a-9366-4d3e-861c-692db53c0318","system_id":"levelo_inurba_marseille","lat":43.29163,"lon":5.37168,"is_reserved":false,"is_disabled":false,"rental_uris":{"android":"levelo://app?vid=42c7160a-9366-4d3e-861c-692db53c0318","ios":"levelo://app?vid=42c7160a-9366-4d3e-861c-692db53c0318"},"vehicle_type_id":"4","last_reported":1731442202,"current_range_meters":27200,"station_id":"ce4bha92rcd13ifvqeh0","pricing_plan_id":"cebpf4jnsgd1na2vs0mg"},{"bike_id":"02a3f1fa-1b00-4bb2-8845-d89d50875ff5","system_id":"levelo_inurba_marseille","lat":43.32368,"lon":5.38874,"is_reserved":false,"is_disabled":false,"rental_uris":{"android":"levelo://app?vid=02a3f1fa-1b00-4bb2-8845-d89d50875ff5","ios":"levelo://app?vid=02a3f1fa-1b00-4bb2-8845-d89d50875ff5"},"vehicle_type_id":"4","last_reported":1731442202,"current_range_meters":36000,"station_id":"ce4bhqp2rcd13ifvqhog","pricing_plan_id":"cebpf4jnsgd1na2vs0mg"},{"bike_id":"8968d603-509e-44a7-808c-aa3ffa0dc107","system_id":"levelo_inurba_marseille","lat":43.3059,"lon":5.39359,"is_reserved":false,"is_disabled":false,"rental_uris":{"android":"levelo://app?vid=8968d603-509e-44a7-808c-aa3ffa0dc107","ios":"levelo://app?vid=8968d603-509e-44a7-808c-aa3ffa0dc107"},"vehicle_type_id":"4","last_reported":1731442202,"current_range_meters":24400,"station_id":"ce4bh0p2rcd13ifvqd80","pricing_plan_id":"cebpf4jnsgd1na2vs0mg"},{"bike_id":"91396e2c-9f64-4b07-9603-7237ff652da5","system_id":"levelo_inurba_marseille","lat":43.2815,"lon":5.42633,"is_reserved":false,"is_disabled":false,"rental_uris":{"android":"levelo://app?vid=91396e2c-9f64-4b07-9603-7237ff652da5","ios":"levelo://app?vid=91396e2c-9f64-4b07-9603-7237ff652da5"},"vehicle_type_id":"4","last_reported":1731442202,"current_range_meters":36800,"station_id":"ce4bhnh2rcd13ifvqgug","pricing_plan_id":"cebpf4jnsgd1na2vs0mg"},{"bike_id":"3fc8e131-ee97-4bd0-9956-4d476a1f6edb","system_id":"levelo_inurba_marseille","lat":43.27915,"lon":5.39588,"is_reserved":false,"is_disabled":false,"rental_uris":{"android":"levelo://app?vid=3fc8e131-ee97-4bd0-9956-4d476a1f6edb","ios":"levelo://app?vid=3fc8e131-ee97-4bd0-9956-4d476a1f6edb"},"vehicle_type_id":"4","last_reported":1731442202,"current_range_meters":20000,"station_id":"ce4bhf92rcd13ifvqf40","pricing_plan_id":"cebpf4jnsgd1na2vs0mg"},{"bike_id":"23371319-3326-4e94-b694-68f01aa3521f","system_id":"levelo_inurba_marseille","lat":43.337444,"lon":5.374475,"is_reserved":false,"is_disabled":false,"rental_uris":{"android":"levelo://app?vid=23371319-3326-4e94-b694-68f01aa3521f","ios":"levelo://app?vid=23371319-3326-4e94-b694-68f01aa3521f"},"vehicle_type_id":"4","last_reported":1731442202,"current_range_meters":36000,"station_id":"","pricing_plan_id":"cebpf4jnsgd1na2vs0mg"},{"bike_id":"e269129c-da8e-47c2-b65c-08eed86bffb7","system_id":"levelo_inurba_marseille","lat":43.32544,"lon":5.41434,"is_reserved":false,"is_disabled":false,"rental_uris":{"android":"levelo://app?vid=e269129c-da8e-47c2-b65c-08eed86bffb7","ios":"levelo://app?vid=e269129c-da8e-47c2-b65c-08eed86bffb7"},"vehicle_type_id":"4","last_reported":1731442202,"current_range_meters":18800,"station_id":"ce4bhq12rcd13ifvqhhg","pricing_plan_id":"cebpf4jnsgd1na2vs0mg"},{"bike_id":"6cc0ca5b-9472-41bb-bbd6-2de7dff169f8","system_id":"levelo_inurba_marseille","lat":43.29515,"lon":5.39402,"is_reserved":false,"is_disabled":false,"rental_uris":{"android":"levelo://app?vid=6cc0ca5b-9472-41bb-bbd6-2de7dff169f8","ios":"levelo://app?vid=6cc0ca5b-9472-41bb-bbd6-2de7dff169f8"},"vehicle_type_id":"4","last_reported":1731442202,"current_range_meters":36400,"station_id":"ce4bh292rcd13ifvqdf0","pricing_plan_id":"cebpf4jnsgd1na2vs0mg"},{"bike_id":"a93d8b68-be2e-4d7d-bd53-815af0cfe36b","system_id":"levelo_inurba_marseille","lat":43.2718,"lon":5.40988,"is_reserved":false,"is_disabled":false,"rental_uris":{"android":"levelo://app?vid=a93d8b68-be2e-4d7d-bd53-815af0cfe36b","ios":"levelo://app?vid=a93d8b68-be2e-4d7d-bd53-815af0cfe36b"},"vehicle_type_id":"4","last_reported":1731442202,"current_range_meters":9200,"station_id":"ce4bhl12rcd13ifvqgf0","pricing_plan_id":"cebpf4jnsgd1na2vs0mg"},{"bike_id":"56413b8d-93b3-48ae-b61f-0009617aa94a","system_id":"levelo_inurba_marseille","lat":43.25726,"lon":5.411,"is_reserved":false,"is_disabled":false,"rental_uris":{"android":"levelo://app?vid=56413b8d-93b3-48ae-b61f-0009617aa94a","ios":"levelo://app?vid=56413b8d-93b3-48ae-b61f-0009617aa94a"},"vehicle_type_id":"4","last_reported":1731442202,"current_range_meters":38800,"station_id":"ce4bhkp2rcd13ifvqgd0","pricing_plan_id":"cebpf4jnsgd1na2vs0mg"},{"bike_id":"f6ec8717-1c2c-4c9c-90c5-29827b3ed065","system_id":"levelo_inurba_marseille","lat":43.28846,"lon":5.35858,"is_reserved":false,"is_disabled":false,"rental_uris":{"android":"levelo://app?vid=f6ec8717-1c2c-4c9c-90c5-29827b3ed065","ios":"levelo://app?vid=f6ec8717-1c2c-4c9c-90c5-29827b3ed065"},"vehicle_type_id":"4","last_reported":1731442202,"current_range_meters":38400,"station_id":"ce4bhb12rcd13ifvqem0","pricing_plan_id":"cebpf4jnsgd1na2vs0mg"},{"bike_id":"468eed61-26ce-4f5c-b6ba-6d4aa7a408b5","system_id":"levelo_inurba_marseille","lat":43.29221,"lon":5.36072,"is_reserved":false,"is_disabled":false,"rental_uris":{"android":"levelo://app?vid=468eed61-26ce-4f5c-b6ba-6d4aa7a408b5","ios":"levelo://app?vid=468eed61-26ce-4f5c-b6ba-6d4aa7a408b5"},"vehicle_type_id":"4","last_reported":1731442202,"current_range_meters":36400,"station_id":"ce4bhbh2rcd13ifvqeqg","pricing_plan_id":"cebpf4jnsgd1na2vs0mg"},{"bike_id":"09077a57-50a1-44fb-b69b-72cc0c96f899","system_id":"levelo_inurba_marseille","lat":43.30245,"lon":5.40073,"is_reserved":false,"is_disabled":false,"rental_uris":{"android":"levelo://app?vid=09077a57-50a1-44fb-b69b-72cc0c96f899","ios":"levelo://app?vid=09077a57-50a1-44fb-b69b-72cc0c96f899"},"vehicle_type_id":"4","last_reported":1731442202,"current_range_meters":6000,"station_id":"ce4bgvh2rcd13ifvqcs0","pricing_plan_id":"cebpf4jnsgd1na2vs0mg"},{"bike_id":"4abc47d7-7a2c-4582-8d48-8fc4ad8eb42d","system_id":"levelo_inurba_marseille","lat":43.23191,"lon":5.35547,"is_reserved":false,"is_disabled":false,"rental_uris":{"android":"levelo://app?vid=4abc47d7-7a2c-4582-8d48-8fc4ad8eb42d","ios":"levelo://app?vid=4abc47d7-7a2c-4582-8d48-8fc4ad8eb42d"},"vehicle_type_id":"4","last_reported":1731442202,"current_range_meters":8000,"station_id":"ce4bhu92rcd13ifvqi70","pricing_plan_id":"cebpf4jnsgd1na2vs0mg"},{"bike_id":"a44bcfe8-777d-45fe-a1bd-e3af260423ba","system_id":"levelo_inurba_marseille","lat":43.30354,"lon":5.41882,"is_reserved":false,"is_disabled":false,"rental_uris":{"android":"levelo://app?vid=a44bcfe8-777d-45fe-a1bd-e3af260423ba","ios":"levelo://app?vid=a44bcfe8-777d-45fe-a1bd-e3af260423ba"},"vehicle_type_id":"4","last_reported":1731442202,"current_range_meters":28400,"station_id":"ce4bhop2rcd13ifvqh7g","pricing_plan_id":"cebpf4jnsgd1na2vs0mg"},{"bike_id":"fec10551-f379-49ba-9ca2-8a635f99a617","system_id":"levelo_inurba_marseille","lat":43.337444,"lon":5.374475,"is_reserved":false,"is_disabled":false,"rental_uris":{"android":"levelo://app?vid=fec10551-f379-49ba-9ca2-8a635f99a617","ios":"levelo://app?vid=fec10551-f379-49ba-9ca2-8a635f99a617"},"vehicle_type_id":"4","last_reported":1731442202,"current_range_meters":38000,"station_id":"","pricing_plan_id":"cebpf4jnsgd1na2vs0mg"},{"bike_id":"979b0182-b0c0-414a-ac99-0bb48afc867b","system_id":"levelo_inurba_marseille","lat":43.27408,"lon":5.38951,"is_reserved":false,"is_disabled":false,"rental_uris":{"android":"levelo://app?vid=979b0182-b0c0-414a-ac99-0bb48afc867b","ios":"levelo://app?vid=979b0182-b0c0-414a-ac99-0bb48afc867b"},"vehicle_type_id":"4","last_reported":1731442202,"current_range_meters":12400,"station_id":"","pricing_plan_id":"cebpf4jnsgd1na2vs0mg"},{"bike_id":"5deeb5b0-30a6-4dd7-8440-5bd8367e681d","system_id":"levelo_inurba_marseille","lat":43.30209,"lon":5.3947,"is_reserved":false,"is_disabled":false,"rental_uris":{"android":"levelo://app?vid=5deeb5b0-30a6-4dd7-8440-5bd8367e681d","ios":"levelo://app?vid=5deeb5b0-30a6-4dd7-8440-5bd8367e681d"},"vehicle_type_id":"4","last_reported":1731442202,"current_range_meters":27600,"station_id":"ce4bh0p2rcd13ifvqd70","pricing_plan_id":"cebpf4jnsgd1na2vs0mg"},{"bike_id":"9bcabaea-e159-41bf-9c59-27112db6b98d","system_id":"levelo_inurba_marseille","lat":43.289337,"lon":5.366367,"is_reserved":false,"is_disabled":false,"rental_uris":{"android":"levelo://app?vid=9bcabaea-e159-41bf-9c59-27112db6b98d","ios":"levelo://app?vid=9bcabaea-e159-41bf-9c59-27112db6b98d"},"vehicle_type_id":"4","last_reported":1731442202,"current_range_meters":30000,"station_id":"ce4bhap2rcd13ifvqek0","pricing_plan_id":"cebpf4jnsgd1na2vs0mg"},{"bike_id":"074aa0b6-d412-46a9-8f34-f50122ac74f5","system_id":"levelo_inurba_marseille","lat":43.30911,"lon":5.3685,"is_reserved":false,"is_disabled":false,"rental_uris":{"android":"levelo://app?vid=074aa0b6-d412-46a9-8f34-f50122ac74f5","ios":"levelo://app?vid=074aa0b6-d412-46a9-8f34-f50122ac74f5"},"vehicle_type_id":"4","last_reported":1731442202,"current_range_meters":38800,"station_id":"ce4bgn92rcd13ifvqbvg","pricing_plan_id":"cebpf4jnsgd1na2vs0mg"},{"bike_id":"9be58879-9b4f-48bf-864f-f319b0546a88","system_id":"levelo_inurba_marseille","lat":43.23954,"lon":5.36638,"is_reserved":false,"is_disabled":false,"rental_uris":{"android":"levelo://app?vid=9be58879-9b4f-48bf-864f-f319b0546a88","ios":"levelo://app?vid=9be58879-9b4f-48bf-864f-f319b0546a88"},"vehicle_type_id":"4","last_reported":1731442202,"current_range_meters":25600,"station_id":"ce4bhi12rcd13ifvqfp0","pricing_plan_id":"cebpf4jnsgd1na2vs0mg"},{"bike_id":"3856d85a-99c7-478f-9a1f-e4f2704976cf","system_id":"levelo_inurba_marseille","lat":43.278924,"lon":5.388063,"is_reserved":false,"is_disabled":false,"rental_uris":{"android":"levelo://app?vid=3856d85a-99c7-478f-9a1f-e4f2704976cf","ios":"levelo://app?vid=3856d85a-99c7-478f-9a1f-e4f2704976cf"},"vehicle_type_id":"4","last_reported":1731442202,"current_range_meters":31200,"station_id":"ce4bhg12rcd13ifvqf80","pricing_plan_id":"cebpf4jnsgd1na2vs0mg"},{"bike_id":"997e8ac0-1d46-4817-95d5-b61546cadfd8","system_id":"levelo_inurba_marseille","lat":43.22931,"lon":5.3538,"is_reserved":false,"is_disabled":false,"rental_uris":{"android":"levelo://app?vid=997e8ac0-1d46-4817-95d5-b61546cadfd8","ios":"levelo://app?vid=997e8ac0-1d46-4817-95d5-b61546cadfd8"},"vehicle_type_id":"4","last_reported":1731442202,"current_range_meters":38000,"station_id":"cpo3532slgdg3j2ikp40","pricing_plan_id":"cebpf4jnsgd1na2vs0mg"},{"bike_id":"8d37a234-729d-41b4-af36-39effabcf73b","system_id":"levelo_inurba_marseille","lat":43.28663,"lon":5.3636,"is_reserved":false,"is_disabled":false,"rental_uris":{"android":"levelo://app?vid=8d37a234-729d-41b4-af36-39effabcf73b","ios":"levelo://app?vid=8d37a234-729d-41b4-af36-39effabcf73b"},"vehicle_type_id":"4","last_reported":1731442202,"current_range_meters":25200,"station_id":"ce4bhah2rcd13ifvqej0","pricing_plan_id":"cebpf4jnsgd1na2vs0mg"},{"bike_id":"83b0e6f3-a122-48fa-a974-a192df1af5ed","system_id":"levelo_inurba_marseille","lat":43.27997,"lon":5.40011,"is_reserved":false,"is_disabled":false,"rental_uris":{"android":"levelo://app?vid=83b0e6f3-a122-48fa-a974-a192df1af5ed","ios":"levelo://app?vid=83b0e6f3-a122-48fa-a974-a192df1af5ed"},"vehicle_type_id":"4","last_reported":1731442202,"current_range_meters":19200,"station_id":"ce4bho92rcd13ifvqh4g","pricing_plan_id":"cebpf4jnsgd1na2vs0mg"},{"bike_id":"5db876a2-f8c2-4811-8cc5-4404462c0f30","system_id":"levelo_inurba_marseille","lat":43.26946,"lon":5.40256,"is_reserved":false,"is_disabled":false,"rental_uris":{"android":"levelo://app?vid=5db876a2-f8c2-4811-8cc5-4404462c0f30","ios":"levelo://app?vid=5db876a2-f8c2-4811-8cc5-4404462c0f30"},"vehicle_type_id":"4","last_reported":1731442202,"current_range_meters":32800,"station_id":"cjm6bp8fraef2m0cb0m0","pricing_plan_id":"cebpf4jnsgd1na2vs0mg"},{"bike_id":"7c464c17-921e-452a-933b-7a266cab13d7","system_id":"levelo_inurba_marseille","lat":43.29191,"lon":5.35799,"is_reserved":false,"is_disabled":false,"rental_uris":{"android":"levelo://app?vid=7c464c17-921e-452a-933b-7a266cab13d7","ios":"levelo://app?vid=7c464c17-921e-452a-933b-7a266cab13d7"},"vehicle_type_id":"4","last_reported":1731442202,"current_range_meters":12400,"station_id":"ce4bhb12rcd13ifvqel0","pricing_plan_id":"cebpf4jnsgd1na2vs0mg"},{"bike_id":"9c297363-88e6-4271-a4fa-e7aca7f99792","system_id":"levelo_inurba_marseille","lat":43.25001,"lon":5.38921,"is_reserved":false,"is_disabled":false,"rental_uris":{"android":"levelo://app?vid=9c297363-88e6-4271-a4fa-e7aca7f99792","ios":"levelo://app?vid=9c297363-88e6-4271-a4fa-e7aca7f99792"},"vehicle_type_id":"4","last_reported":1731442202,"current_range_meters":39200,"station_id":"ce4bhgp2rcd13ifvqfd0","pricing_plan_id":"cebpf4jnsgd1na2vs0mg"},{"bike_id":"a03fe7c0-2e62-4b1b-9b91-54305e0c86f7","system_id":"levelo_inurba_marseille","lat":43.32655,"lon":5.4099,"is_reserved":false,"is_disabled":false,"rental_uris":{"android":"levelo://app?vid=a03fe7c0-2e62-4b1b-9b91-54305e0c86f7","ios":"levelo://app?vid=a03fe7c0-2e62-4b1b-9b91-54305e0c86f7"},"vehicle_type_id":"4","last_reported":1731442202,"current_range_meters":19200,"station_id":"ce4bhpp2rcd13ifvqhgg","pricing_plan_id":"cebpf4jnsgd1na2vs0mg"},{"bike_id":"56cd5555-5691-44a6-b515-7c9485fe6b17","system_id":"levelo_inurba_marseille","lat":43.29555,"lon":5.42286,"is_reserved":false,"is_disabled":false,"rental_uris":{"android":"levelo://app?vid=56cd5555-5691-44a6-b515-7c9485fe6b17","ios":"levelo://app?vid=56cd5555-5691-44a6-b515-7c9485fe6b17"},"vehicle_type_id":"4","last_reported":1731442202,"current_range_meters":37600,"station_id":"ce4bhph2rcd13ifvqhdg","pricing_plan_id":"cebpf4jnsgd1na2vs0mg"},{"bike_id":"fa6af7c8-ac01-422b-a4fb-fe688220bd82","system_id":"levelo_inurba_marseille","lat":43.291962,"lon":5.385193,"is_reserved":false,"is_disabled":false,"rental_uris":{"android":"levelo://app?vid=fa6af7c8-ac01-422b-a4fb-fe688220bd82","ios":"levelo://app?vid=fa6af7c8-ac01-422b-a4fb-fe688220bd82"},"vehicle_type_id":"4","last_reported":1731442202,"current_range_meters":32400,"station_id":"","pricing_plan_id":"cebpf4jnsgd1na2vs0mg"},{"bike_id":"4857b91f-97a0-44d8-9e7b-8b7fb862a77d","system_id":"levelo_inurba_marseille","lat":43.2438,"lon":5.37056,"is_reserved":false,"is_disabled":false,"rental_uris":{"android":"levelo://app?vid=4857b91f-97a0-44d8-9e7b-8b7fb862a77d","ios":"levelo://app?vid=4857b91f-97a0-44d8-9e7b-8b7fb862a77d"},"vehicle_type_id":"4","last_reported":1731442202,"current_range_meters":14000,"station_id":"ce4bhhh2rcd13ifvqfk0","pricing_plan_id":"cebpf4jnsgd1na2vs0mg"},{"bike_id":"1f19bde5-b87a-4cfe-b505-74028be98918","system_id":"levelo_inurba_marseille","lat":43.30141,"lon":5.38788,"is_reserved":false,"is_disabled":false,"rental_uris":{"android":"levelo://app?vid=1f19bde5-b87a-4cfe-b505-74028be98918","ios":"levelo://app?vid=1f19bde5-b87a-4cfe-b505-74028be98918"},"vehicle_type_id":"4","last_reported":1731442202,"current_range_meters":24000,"station_id":"ce4bghh2rcd13ifvqb60","pricing_plan_id":"cebpf4jnsgd1na2vs0mg"},{"bike_id":"1bf4668b-4cd2-42ba-aaae-b2df22a8538a","system_id":"levelo_inurba_marseille","lat":43.29868,"lon":5.39728,"is_reserved":false,"is_disabled":false,"rental_uris":{"android":"levelo://app?vid=1bf4668b-4cd2-42ba-aaae-b2df22a8538a","ios":"levelo://app?vid=1bf4668b-4cd2-42ba-aaae-b2df22a8538a"},"vehicle_type_id":"4","last_reported":1731442202,"current_range_meters":31200,"station_id":"ce4bh0h2rcd13ifvqd50","pricing_plan_id":"cebpf4jnsgd1na2vs0mg"},{"bike_id":"1d2fdf37-8550-4501-9665-b3a002de98ca","system_id":"levelo_inurba_marseille","lat":43.29797,"lon":5.39334,"is_reserved":false,"is_disabled":false,"rental_uris":{"android":"levelo://app?vid=1d2fdf37-8550-4501-9665-b3a002de98ca","ios":"levelo://app?vid=1d2fdf37-8550-4501-9665-b3a002de98ca"},"vehicle_type_id":"4","last_reported":1731442202,"current_range_meters":24000,"station_id":"chh1huq6cuj3fo74tm60","pricing_plan_id":"cebpf4jnsgd1na2vs0mg"},{"bike_id":"f7be93c3-e6a3-40ba-94d0-3df20ea7a045","system_id":"levelo_inurba_marseille","lat":43.23188,"lon":5.39985,"is_reserved":false,"is_disabled":false,"rental_uris":{"android":"levelo://app?vid=f7be93c3-e6a3-40ba-94d0-3df20ea7a045","ios":"levelo://app?vid=f7be93c3-e6a3-40ba-94d0-3df20ea7a045"},"vehicle_type_id":"4","last_reported":1731442202,"current_range_meters":18000,"station_id":"ce4bhn12rcd13ifvqgqg","pricing_plan_id":"cebpf4jnsgd1na2vs0mg"},{"bike_id":"71a649ef-ed3c-4201-bbe7-3f4c92d1bb6e","system_id":"levelo_inurba_marseille","lat":43.29517,"lon":5.39033,"is_reserved":false,"is_disabled":false,"rental_uris":{"android":"levelo://app?vid=71a649ef-ed3c-4201-bbe7-3f4c92d1bb6e","ios":"levelo://app?vid=71a649ef-ed3c-4201-bbe7-3f4c92d1bb6e"},"vehicle_type_id":"4","last_reported":1731442202,"current_range_meters":32000,"station_id":"ce4bh3p2rcd13ifvqdp0","pricing_plan_id":"cebpf4jnsgd1na2vs0mg"},{"bike_id":"b7a103cd-05f7-4563-8ac4-69cc1430c968","system_id":"levelo_inurba_marseille","lat":43.30524,"lon":5.36587,"is_reserved":false,"is_disabled":false,"rental_uris":{"android":"levelo://app?vid=b7a103cd-05f7-4563-8ac4-69cc1430c968","ios":"levelo://app?vid=b7a103cd-05f7-4563-8ac4-69cc1430c968"},"vehicle_type_id":"4","last_reported":1731442202,"current_range_meters":9200,"station_id":"ce4bgs12rcd13ifvqcag","pricing_plan_id":"cebpf4jnsgd1na2vs0mg"},{"bike_id":"37d06836-adf9-4fd3-b447-ace2ba2f68e2","system_id":"levelo_inurba_marseille","lat":43.31363,"lon":5.38493,"is_reserved":false,"is_disabled":false,"rental_uris":{"android":"levelo://app?vid=37d06836-adf9-4fd3-b447-ace2ba2f68e2","ios":"levelo://app?vid=37d06836-adf9-4fd3-b447-ace2ba2f68e2"},"vehicle_type_id":"4","last_reported":1731442202,"current_range_meters":28000,"station_id":"ce4bgt92rcd13ifvqcf0","pricing_plan_id":"cebpf4jnsgd1na2vs0mg"},{"bike_id":"50ec9a72-2d48-4182-b452-21b17e2354cd","system_id":"levelo_inurba_marseille","lat":43.308,"lon":5.43524,"is_reserved":false,"is_disabled":false,"rental_uris":{"android":"levelo://app?vid=50ec9a72-2d48-4182-b452-21b17e2354cd","ios":"levelo://app?vid=50ec9a72-2d48-4182-b452-21b17e2354cd"},"vehicle_type_id":"4","last_reported":1731442202,"current_range_meters":5600,"station_id":"ce4bhph2rcd13ifvqheg","pricing_plan_id":"cebpf4jnsgd1na2vs0mg"},{"bike_id":"de654265-0d80-4f4f-9671-79f3c4312a80","system_id":"levelo_inurba_marseille","lat":43.3065,"lon":5.4009,"is_reserved":false,"is_disabled":false,"rental_uris":{"android":"levelo://app?vid=de654265-0d80-4f4f-9671-79f3c4312a80","ios":"levelo://app?vid=de654265-0d80-4f4f-9671-79f3c4312a80"},"vehicle_type_id":"4","last_reported":1731442202,"current_range_meters":33600,"station_id":"ce4bh112rcd13ifvqda0","pricing_plan_id":"cebpf4jnsgd1na2vs0mg"},{"bike_id":"2a827348-303b-4f7e-b6e1-faaee5485906","system_id":"levelo_inurba_marseille","lat":43.29093,"lon":5.38129,"is_reserved":false,"is_disabled":false,"rental_uris":{"android":"levelo://app?vid=2a827348-303b-4f7e-b6e1-faaee5485906","ios":"levelo://app?vid=2a827348-303b-4f7e-b6e1-faaee5485906"},"vehicle_type_id":"4","last_reported":1731442202,"current_range_meters":6800,"station_id":"ce4bh512rcd13ifvqe2g","pricing_plan_id":"cebpf4jnsgd1na2vs0mg"},{"bike_id":"428f796d-85f5-406a-8832-33d370c96797","system_id":"levelo_inurba_marseille","lat":43.30884,"lon":5.3964,"is_reserved":false,"is_disabled":false,"rental_uris":{"android":"levelo://app?vid=428f796d-85f5-406a-8832-33d370c96797","ios":"levelo://app?vid=428f796d-85f5-406a-8832-33d370c96797"},"vehicle_type_id":"4","last_reported":1731442202,"current_range_meters":18800,"station_id":"ce4bh012rcd13ifvqcv0","pricing_plan_id":"cebpf4jnsgd1na2vs0mg"},{"bike_id":"e20e371e-0ac8-4f8a-8e0a-12e9bf345f5e","system_id":"levelo_inurba_marseille","lat":43.27069,"lon":5.42281,"is_reserved":false,"is_disabled":false,"rental_uris":{"android":"levelo://app?vid=e20e371e-0ac8-4f8a-8e0a-12e9bf345f5e","ios":"levelo://app?vid=e20e371e-0ac8-4f8a-8e0a-12e9bf345f5e"},"vehicle_type_id":"4","last_reported":1731442202,"current_range_meters":30400,"station_id":"ce4bhk92rcd13ifvqgb0","pricing_plan_id":"cebpf4jnsgd1na2vs0mg"},{"bike_id":"9230f939-409f-42b5-a7a7-bcf8003da7db","system_id":"levelo_inurba_marseille","lat":43.29515,"lon":5.39032,"is_reserved":false,"is_disabled":false,"rental_uris":{"android":"levelo://app?vid=9230f939-409f-42b5-a7a7-bcf8003da7db","ios":"levelo://app?vid=9230f939-409f-42b5-a7a7-bcf8003da7db"},"vehicle_type_id":"4","last_reported":1731442202,"current_range_meters":32400,"station_id":"ce4bh3p2rcd13ifvqdp0","pricing_plan_id":"cebpf4jnsgd1na2vs0mg"},{"bike_id":"9c023286-c84c-4658-8c69-a78000b9f758","system_id":"levelo_inurba_marseille","lat":43.29007,"lon":5.35614,"is_reserved":false,"is_disabled":false,"rental_uris":{"android":"levelo://app?vid=9c023286-c84c-4658-8c69-a78000b9f758","ios":"levelo://app?vid=9c023286-c84c-4658-8c69-a78000b9f758"},"vehicle_type_id":"4","last_reported":1731442202,"current_range_meters":36400,"station_id":"ce4bhb92rcd13ifvqen0","pricing_plan_id":"cebpf4jnsgd1na2vs0mg"},{"bike_id":"a7fa391a-5e9a-4306-ab89-3411e5df4996","system_id":"levelo_inurba_marseille","lat":43.33014,"lon":5.39023,"is_reserved":false,"is_disabled":false,"rental_uris":{"android":"levelo://app?vid=a7fa391a-5e9a-4306-ab89-3411e5df4996","ios":"levelo://app?vid=a7fa391a-5e9a-4306-ab89-3411e5df4996"},"vehicle_type_id":"4","last_reported":1731442202,"current_range_meters":36800,"station_id":"ce4bhr92rcd13ifvqhrg","pricing_plan_id":"cebpf4jnsgd1na2vs0mg"},{"bike_id":"5817e958-deb7-4799-af1a-ed194ead4717","system_id":"levelo_inurba_marseille","lat":43.29207,"lon":5.39327,"is_reserved":false,"is_disabled":false,"rental_uris":{"android":"levelo://app?vid=5817e958-deb7-4799-af1a-ed194ead4717","ios":"levelo://app?vid=5817e958-deb7-4799-af1a-ed194ead4717"},"vehicle_type_id":"4","last_reported":1731442202,"current_range_meters":38800,"station_id":"ce4bh192rcd13ifvqdd0","pricing_plan_id":"cebpf4jnsgd1na2vs0mg"},{"bike_id":"075af8fc-b0ad-463b-b87e-f467344d0ecb","system_id":"levelo_inurba_marseille","lat":43.28461,"lon":5.35876,"is_reserved":false,"is_disabled":false,"rental_uris":{"android":"levelo://app?vid=075af8fc-b0ad-463b-b87e-f467344d0ecb","ios":"levelo://app?vid=075af8fc-b0ad-463b-b87e-f467344d0ecb"},"vehicle_type_id":"4","last_reported":1731442202,"current_range_meters":38000,"station_id":"ce4bhbp2rcd13ifvqerg","pricing_plan_id":"cebpf4jnsgd1na2vs0mg"},{"bike_id":"03190979-82a2-475a-bfb4-cdd8525d153b","system_id":"levelo_inurba_marseille","lat":43.29518,"lon":5.39044,"is_reserved":false,"is_disabled":false,"rental_uris":{"android":"levelo://app?vid=03190979-82a2-475a-bfb4-cdd8525d153b","ios":"levelo://app?vid=03190979-82a2-475a-bfb4-cdd8525d153b"},"vehicle_type_id":"4","last_reported":1731442202,"current_range_meters":28400,"station_id":"ce4bh3p2rcd13ifvqdp0","pricing_plan_id":"cebpf4jnsgd1na2vs0mg"},{"bike_id":"85818844-8eb0-4925-bc5d-82279bf48263","system_id":"levelo_inurba_marseille","lat":43.24804,"lon":5.37447,"is_reserved":false,"is_disabled":false,"rental_uris":{"android":"levelo://app?vid=85818844-8eb0-4925-bc5d-82279bf48263","ios":"levelo://app?vid=85818844-8eb0-4925-bc5d-82279bf48263"},"vehicle_type_id":"4","last_reported":1731442202,"current_range_meters":38000,"station_id":"ce4bhgh2rcd13ifvqfb0","pricing_plan_id":"cebpf4jnsgd1na2vs0mg"},{"bike_id":"51de079a-4713-4220-aef5-8906afb2ba42","system_id":"levelo_inurba_marseille","lat":43.28106,"lon":5.3784,"is_reserved":false,"is_disabled":false,"rental_uris":{"android":"levelo://app?vid=51de079a-4713-4220-aef5-8906afb2ba42","ios":"levelo://app?vid=51de079a-4713-4220-aef5-8906afb2ba42"},"vehicle_type_id":"4","last_reported":1731442202,"current_range_meters":36000,"station_id":"ce4bha12rcd13ifvqee0","pricing_plan_id":"cebpf4jnsgd1na2vs0mg"},{"bike_id":"d3d88389-bd60-4947-8db6-b3fd375e6183","system_id":"levelo_inurba_marseille","lat":43.23962,"lon":5.36619,"is_reserved":false,"is_disabled":false,"rental_uris":{"android":"levelo://app?vid=d3d88389-bd60-4947-8db6-b3fd375e6183","ios":"levelo://app?vid=d3d88389-bd60-4947-8db6-b3fd375e6183"},"vehicle_type_id":"4","last_reported":1731442202,"current_range_meters":36400,"station_id":"ce4bhi12rcd13ifvqfp0","pricing_plan_id":"cebpf4jnsgd1na2vs0mg"},{"bike_id":"78c3522d-5b6e-4e08-b566-8994a5485a38","system_id":"levelo_inurba_marseille","lat":43.27837,"lon":5.39215,"is_reserved":false,"is_disabled":false,"rental_uris":{"android":"levelo://app?vid=78c3522d-5b6e-4e08-b566-8994a5485a38","ios":"levelo://app?vid=78c3522d-5b6e-4e08-b566-8994a5485a38"},"vehicle_type_id":"4","last_reported":1731442202,"current_range_meters":18000,"station_id":"ce4bhjp2rcd13ifvqga0","pricing_plan_id":"cebpf4jnsgd1na2vs0mg"},{"bike_id":"6373b2ec-d5d0-4dc6-be95-a91e32029870","system_id":"levelo_inurba_marseille","lat":43.28118,"lon":5.37837,"is_reserved":false,"is_disabled":false,"rental_uris":{"android":"levelo://app?vid=6373b2ec-d5d0-4dc6-be95-a91e32029870","ios":"levelo://app?vid=6373b2ec-d5d0-4dc6-be95-a91e32029870"},"vehicle_type_id":"4","last_reported":1731442202,"current_range_meters":14000,"station_id":"ce4bha12rcd13ifvqee0","pricing_plan_id":"cebpf4jnsgd1na2vs0mg"},{"bike_id":"6a262d8c-b862-4636-a252-02099ef84214","system_id":"levelo_inurba_marseille","lat":43.33022,"lon":5.39044,"is_reserved":false,"is_disabled":false,"rental_uris":{"android":"levelo://app?vid=6a262d8c-b862-4636-a252-02099ef84214","ios":"levelo://app?vid=6a262d8c-b862-4636-a252-02099ef84214"},"vehicle_type_id":"4","last_reported":1731442202,"current_range_meters":18000,"station_id":"ce4bhr92rcd13ifvqhrg","pricing_plan_id":"cebpf4jnsgd1na2vs0mg"},{"bike_id":"d13dfac3-cdb7-4f2f-860c-e1df99fdc25a","system_id":"levelo_inurba_marseille","lat":43.25583,"lon":5.38236,"is_reserved":false,"is_disabled":false,"rental_uris":{"android":"levelo://app?vid=d13dfac3-cdb7-4f2f-860c-e1df99fdc25a","ios":"levelo://app?vid=d13dfac3-cdb7-4f2f-860c-e1df99fdc25a"},"vehicle_type_id":"4","last_reported":1731442202,"current_range_meters":20800,"station_id":"ce4bhih2rcd13ifvqfs0","pricing_plan_id":"cebpf4jnsgd1na2vs0mg"},{"bike_id":"6a7864c7-1043-407c-b1f5-95a83a37e67e","system_id":"levelo_inurba_marseille","lat":43.28403,"lon":5.3751,"is_reserved":false,"is_disabled":false,"rental_uris":{"android":"levelo://app?vid=6a7864c7-1043-407c-b1f5-95a83a37e67e","ios":"levelo://app?vid=6a7864c7-1043-407c-b1f5-95a83a37e67e"},"vehicle_type_id":"4","last_reported":1731442202,"current_range_meters":30800,"station_id":"ce4bh412rcd13ifvqds0","pricing_plan_id":"cebpf4jnsgd1na2vs0mg"},{"bike_id":"91526d85-6d2f-4b0d-b668-d1a556d90682","system_id":"levelo_inurba_marseille","lat":43.31994,"lon":5.38149,"is_reserved":false,"is_disabled":false,"rental_uris":{"android":"levelo://app?vid=91526d85-6d2f-4b0d-b668-d1a556d90682","ios":"levelo://app?vid=91526d85-6d2f-4b0d-b668-d1a556d90682"},"vehicle_type_id":"4","last_reported":1731442202,"current_range_meters":39200,"station_id":"ce4bhr12rcd13ifvqhpg","pricing_plan_id":"cebpf4jnsgd1na2vs0mg"},{"bike_id":"006b42b2-65c2-423a-91ff-5de809c0baa3","system_id":"levelo_inurba_marseille","lat":43.30422,"lon":5.39744,"is_reserved":false,"is_disabled":false,"rental_uris":{"android":"levelo://app?vid=006b42b2-65c2-423a-91ff-5de809c0baa3","ios":"levelo://app?vid=006b42b2-65c2-423a-91ff-5de809c0baa3"},"vehicle_type_id":"4","last_reported":1731442202,"current_range_meters":9200,"station_id":"ce4bh092rcd13ifvqd20","pricing_plan_id":"cebpf4jnsgd1na2vs0mg"},{"bike_id":"385d91d5-d144-4838-b15f-8b4d784f8d86","system_id":"levelo_inurba_marseille","lat":43.31173,"lon":5.38714,"is_reserved":false,"is_disabled":false,"rental_uris":{"android":"levelo://app?vid=385d91d5-d144-4838-b15f-8b4d784f8d86","ios":"levelo://app?vid=385d91d5-d144-4838-b15f-8b4d784f8d86"},"vehicle_type_id":"4","last_reported":1731442202,"current_range_meters":32800,"station_id":"ce4bgv12rcd13ifvqcp0","pricing_plan_id":"cebpf4jnsgd1na2vs0mg"},{"bike_id":"e1f2424d-96e3-41c7-9f8d-6dd18a27c6ce","system_id":"levelo_inurba_marseille","lat":43.2743,"lon":5.39409,"is_reserved":false,"is_disabled":false,"rental_uris":{"android":"levelo://app?vid=e1f2424d-96e3-41c7-9f8d-6dd18a27c6ce","ios":"levelo://app?vid=e1f2424d-96e3-41c7-9f8d-6dd18a27c6ce"},"vehicle_type_id":"4","last_reported":1731442202,"current_range_meters":38800,"station_id":"ce4bhdp2rcd13ifvqf20","pricing_plan_id":"cebpf4jnsgd1na2vs0mg"},{"bike_id":"d32cb781-3101-480c-93dd-503a994b5a91","system_id":"levelo_inurba_marseille","lat":43.24663,"lon":5.38164,"is_reserved":false,"is_disabled":false,"rental_uris":{"android":"levelo://app?vid=d32cb781-3101-480c-93dd-503a994b5a91","ios":"levelo://app?vid=d32cb781-3101-480c-93dd-503a994b5a91"},"vehicle_type_id":"4","last_reported":1731442202,"current_range_meters":24400,"station_id":"ce4bhih2rcd13ifvqfr0","pricing_plan_id":"cebpf4jnsgd1na2vs0mg"},{"bike_id":"77af50f4-2113-44b2-90e3-be2a97c53344","system_id":"levelo_inurba_marseille","lat":43.28465,"lon":5.38414,"is_reserved":false,"is_disabled":false,"rental_uris":{"android":"levelo://app?vid=77af50f4-2113-44b2-90e3-be2a97c53344","ios":"levelo://app?vid=77af50f4-2113-44b2-90e3-be2a97c53344"},"vehicle_type_id":"4","last_reported":1731442202,"current_range_meters":27200,"station_id":"ce4bh512rcd13ifvqe3g","pricing_plan_id":"cebpf4jnsgd1na2vs0mg"},{"bike_id":"7438763c-b765-4d2b-b443-55070a986cbf","system_id":"levelo_inurba_marseille","lat":43.27811,"lon":5.40713,"is_reserved":false,"is_disabled":false,"rental_uris":{"android":"levelo://app?vid=7438763c-b765-4d2b-b443-55070a986cbf","ios":"levelo://app?vid=7438763c-b765-4d2b-b443-55070a986cbf"},"vehicle_type_id":"4","last_reported":1731442202,"current_range_meters":38800,"station_id":"ce4bhnh2rcd13ifvqgtg","pricing_plan_id":"cebpf4jnsgd1na2vs0mg"},{"bike_id":"690959e1-32d7-492f-a674-cbcd4a6a2909","system_id":"levelo_inurba_marseille","lat":43.279097,"lon":5.395835,"is_reserved":false,"is_disabled":false,"rental_uris":{"android":"levelo://app?vid=690959e1-32d7-492f-a674-cbcd4a6a2909","ios":"levelo://app?vid=690959e1-32d7-492f-a674-cbcd4a6a2909"},"vehicle_type_id":"4","last_reported":1731442202,"current_range_meters":35200,"station_id":"ce4bhf92rcd13ifvqf40","pricing_plan_id":"cebpf4jnsgd1na2vs0mg"},{"bike_id":"2d11c320-a81b-424e-80ce-d8ac1193642b","system_id":"levelo_inurba_marseille","lat":43.27813,"lon":5.40708,"is_reserved":false,"is_disabled":false,"rental_uris":{"android":"levelo://app?vid=2d11c320-a81b-424e-80ce-d8ac1193642b","ios":"levelo://app?vid=2d11c320-a81b-424e-80ce-d8ac1193642b"},"vehicle_type_id":"4","last_reported":1731442202,"current_range_meters":37600,"station_id":"ce4bhnh2rcd13ifvqgtg","pricing_plan_id":"cebpf4jnsgd1na2vs0mg"},{"bike_id":"96b84df2-447b-42c1-9180-a983ad587907","system_id":"levelo_inurba_marseille","lat":43.25722,"lon":5.41109,"is_reserved":false,"is_disabled":false,"rental_uris":{"android":"levelo://app?vid=96b84df2-447b-42c1-9180-a983ad587907","ios":"levelo://app?vid=96b84df2-447b-42c1-9180-a983ad587907"},"vehicle_type_id":"4","last_reported":1731442202,"current_range_meters":38800,"station_id":"ce4bhkp2rcd13ifvqgd0","pricing_plan_id":"cebpf4jnsgd1na2vs0mg"},{"bike_id":"a3c951fb-c745-48fb-b680-dd3415bb1c78","system_id":"levelo_inurba_marseille","lat":43.29521,"lon":5.39033,"is_reserved":false,"is_disabled":false,"rental_uris":{"android":"levelo://app?vid=a3c951fb-c745-48fb-b680-dd3415bb1c78","ios":"levelo://app?vid=a3c951fb-c745-48fb-b680-dd3415bb1c78"},"vehicle_type_id":"4","last_reported":1731442202,"current_range_meters":7200,"station_id":"ce4bh3p2rcd13ifvqdp0","pricing_plan_id":"cebpf4jnsgd1na2vs0mg"},{"bike_id":"f5d8ceb3-933c-4906-a0f5-5e81baeb29ef","system_id":"levelo_inurba_marseille","lat":43.29867,"lon":5.39733,"is_reserved":false,"is_disabled":false,"rental_uris":{"android":"levelo://app?vid=f5d8ceb3-933c-4906-a0f5-5e81baeb29ef","ios":"levelo://app?vid=f5d8ceb3-933c-4906-a0f5-5e81baeb29ef"},"vehicle_type_id":"4","last_reported":1731442202,"current_range_meters":22400,"station_id":"ce4bh0h2rcd13ifvqd50","pricing_plan_id":"cebpf4jnsgd1na2vs0mg"},{"bike_id":"e62bb96a-ded7-4199-85d5-f7da5543f92d","system_id":"levelo_inurba_marseille","lat":43.30244,"lon":5.40054,"is_reserved":false,"is_disabled":false,"rental_uris":{"android":"levelo://app?vid=e62bb96a-ded7-4199-85d5-f7da5543f92d","ios":"levelo://app?vid=e62bb96a-ded7-4199-85d5-f7da5543f92d"},"vehicle_type_id":"4","last_reported":1731442202,"current_range_meters":38800,"station_id":"ce4bgvh2rcd13ifvqcs0","pricing_plan_id":"cebpf4jnsgd1na2vs0mg"},{"bike_id":"8ef70561-fcee-40a4-b033-2b7fb95e2bd9","system_id":"levelo_inurba_marseille","lat":43.27832,"lon":5.39201,"is_reserved":false,"is_disabled":false,"rental_uris":{"android":"levelo://app?vid=8ef70561-fcee-40a4-b033-2b7fb95e2bd9","ios":"levelo://app?vid=8ef70561-fcee-40a4-b033-2b7fb95e2bd9"},"vehicle_type_id":"4","last_reported":1731442202,"current_range_meters":32000,"station_id":"ce4bhjp2rcd13ifvqga0","pricing_plan_id":"cebpf4jnsgd1na2vs0mg"},{"bike_id":"02218ba6-6fdc-4419-a8e0-5d74d2be07b2","system_id":"levelo_inurba_marseille","lat":43.31712,"lon":5.437,"is_reserved":false,"is_disabled":false,"rental_uris":{"android":"levelo://app?vid=02218ba6-6fdc-4419-a8e0-5d74d2be07b2","ios":"levelo://app?vid=02218ba6-6fdc-4419-a8e0-5d74d2be07b2"},"vehicle_type_id":"4","last_reported":1731442202,"current_range_meters":12400,"station_id":"ce4bhp92rcd13ifvqhcg","pricing_plan_id":"cebpf4jnsgd1na2vs0mg"},{"bike_id":"23bd2924-0acf-4f0e-a6f4-fa7bc784425a","system_id":"levelo_inurba_marseille","lat":43.2293,"lon":5.35376,"is_reserved":false,"is_disabled":false,"rental_uris":{"android":"levelo://app?vid=23bd2924-0acf-4f0e-a6f4-fa7bc784425a","ios":"levelo://app?vid=23bd2924-0acf-4f0e-a6f4-fa7bc784425a"},"vehicle_type_id":"4","last_reported":1731442202,"current_range_meters":31200,"station_id":"cpo3532slgdg3j2ikp40","pricing_plan_id":"cebpf4jnsgd1na2vs0mg"},{"bike_id":"3f7f3df8-50d9-475f-8a41-f4a7ada046d4","system_id":"levelo_inurba_marseille","lat":43.31962,"lon":5.3684,"is_reserved":false,"is_disabled":false,"rental_uris":{"android":"levelo://app?vid=3f7f3df8-50d9-475f-8a41-f4a7ada046d4","ios":"levelo://app?vid=3f7f3df8-50d9-475f-8a41-f4a7ada046d4"},"vehicle_type_id":"4","last_reported":1731442202,"current_range_meters":27200,"station_id":"","pricing_plan_id":"cebpf4jnsgd1na2vs0mg"},{"bike_id":"28071f5e-223d-4fd3-b16c-5ef3c0211c4e","system_id":"levelo_inurba_marseille","lat":43.3153,"lon":5.38023,"is_reserved":false,"is_disabled":false,"rental_uris":{"android":"levelo://app?vid=28071f5e-223d-4fd3-b16c-5ef3c0211c4e","ios":"levelo://app?vid=28071f5e-223d-4fd3-b16c-5ef3c0211c4e"},"vehicle_type_id":"4","last_reported":1731442202,"current_range_meters":27600,"station_id":"ce4bhsp2rcd13ifvqi50","pricing_plan_id":"cebpf4jnsgd1na2vs0mg"},{"bike_id":"972d1d13-6d58-4c88-a331-c887e116d85e","system_id":"levelo_inurba_marseille","lat":43.31163,"lon":5.38712,"is_reserved":false,"is_disabled":false,"rental_uris":{"android":"levelo://app?vid=972d1d13-6d58-4c88-a331-c887e116d85e","ios":"levelo://app?vid=972d1d13-6d58-4c88-a331-c887e116d85e"},"vehicle_type_id":"4","last_reported":1731442202,"current_range_meters":28400,"station_id":"ce4bgv12rcd13ifvqcp0","pricing_plan_id":"cebpf4jnsgd1na2vs0mg"},{"bike_id":"30b4d1b4-b2f1-4f6e-aa22-a82631f0ed92","system_id":"levelo_inurba_marseille","lat":43.23068,"lon":5.35491,"is_reserved":false,"is_disabled":false,"rental_uris":{"android":"levelo://app?vid=30b4d1b4-b2f1-4f6e-aa22-a82631f0ed92","ios":"levelo://app?vid=30b4d1b4-b2f1-4f6e-aa22-a82631f0ed92"},"vehicle_type_id":"4","last_reported":1731442202,"current_range_meters":2000,"station_id":"cpo3342slgdg3j2ifvpg","pricing_plan_id":"cebpf4jnsgd1na2vs0mg"},{"bike_id":"bcd861b0-8eca-430f-8082-61adce7c6e7e","system_id":"levelo_inurba_marseille","lat":43.2582,"lon":5.39421,"is_reserved":false,"is_disabled":false,"rental_uris":{"android":"levelo://app?vid=bcd861b0-8eca-430f-8082-61adce7c6e7e","ios":"levelo://app?vid=bcd861b0-8eca-430f-8082-61adce7c6e7e"},"vehicle_type_id":"4","last_reported":1731442202,"current_range_meters":25200,"station_id":"ce4bhip2rcd13ifvqft0","pricing_plan_id":"cebpf4jnsgd1na2vs0mg"},{"bike_id":"0e171ddd-bcf2-4897-a3c5-4bcad6a3968d","system_id":"levelo_inurba_marseille","lat":43.2955,"lon":5.42283,"is_reserved":false,"is_disabled":false,"rental_uris":{"android":"levelo://app?vid=0e171ddd-bcf2-4897-a3c5-4bcad6a3968d","ios":"levelo://app?vid=0e171ddd-bcf2-4897-a3c5-4bcad6a3968d"},"vehicle_type_id":"4","last_reported":1731442202,"current_range_meters":26000,"station_id":"ce4bhph2rcd13ifvqhdg","pricing_plan_id":"cebpf4jnsgd1na2vs0mg"},{"bike_id":"accffff0-106b-494e-b740-c748a2d598de","system_id":"levelo_inurba_marseille","lat":43.29573,"lon":5.39984,"is_reserved":false,"is_disabled":false,"rental_uris":{"android":"levelo://app?vid=accffff0-106b-494e-b740-c748a2d598de","ios":"levelo://app?vid=accffff0-106b-494e-b740-c748a2d598de"},"vehicle_type_id":"4","last_reported":1731442202,"current_range_meters":16400,"station_id":"ce4bh312rcd13ifvqdj0","pricing_plan_id":"cebpf4jnsgd1na2vs0mg"},{"bike_id":"03daa446-bdb3-408f-acd6-27af68f24ff2","system_id":"levelo_inurba_marseille","lat":43.28354,"lon":5.38099,"is_reserved":false,"is_disabled":false,"rental_uris":{"android":"levelo://app?vid=03daa446-bdb3-408f-acd6-27af68f24ff2","ios":"levelo://app?vid=03daa446-bdb3-408f-acd6-27af68f24ff2"},"vehicle_type_id":"4","last_reported":1731442202,"current_range_meters":11600,"station_id":"ce4bh412rcd13ifvqdr0","pricing_plan_id":"cebpf4jnsgd1na2vs0mg"},{"bike_id":"e92c5947-6d80-41ba-aecc-06ded8281947","system_id":"levelo_inurba_marseille","lat":43.32483,"lon":5.36563,"is_reserved":false,"is_disabled":false,"rental_uris":{"android":"levelo://app?vid=e92c5947-6d80-41ba-aecc-06ded8281947","ios":"levelo://app?vid=e92c5947-6d80-41ba-aecc-06ded8281947"},"vehicle_type_id":"4","last_reported":1731442202,"current_range_meters":36000,"station_id":"ce4bhs12rcd13ifvqhvg","pricing_plan_id":"cebpf4jnsgd1na2vs0mg"},{"bike_id":"95a92208-fe5e-4560-85cb-1eeb02f67bdb","system_id":"levelo_inurba_marseille","lat":43.31326,"lon":5.39698,"is_reserved":false,"is_disabled":false,"rental_uris":{"android":"levelo://app?vid=95a92208-fe5e-4560-85cb-1eeb02f67bdb","ios":"levelo://app?vid=95a92208-fe5e-4560-85cb-1eeb02f67bdb"},"vehicle_type_id":"4","last_reported":1731442202,"current_range_meters":30800,"station_id":"ce4bgvp2rcd13ifvqcu0","pricing_plan_id":"cebpf4jnsgd1na2vs0mg"},{"bike_id":"0a4dbc4f-2399-465d-b363-0d9cad0e16b7","system_id":"levelo_inurba_marseille","lat":43.2962,"lon":5.3715,"is_reserved":false,"is_disabled":false,"rental_uris":{"android":"levelo://app?vid=0a4dbc4f-2399-465d-b363-0d9cad0e16b7","ios":"levelo://app?vid=0a4dbc4f-2399-465d-b363-0d9cad0e16b7"},"vehicle_type_id":"4","last_reported":1731442202,"current_range_meters":32000,"station_id":"ce4bgnh2rcd13ifvqc0g","pricing_plan_id":"cebpf4jnsgd1na2vs0mg"},{"bike_id":"aca0a2b6-877a-49e6-88ef-a28b7913efcd","system_id":"levelo_inurba_marseille","lat":43.31326,"lon":5.3969,"is_reserved":false,"is_disabled":false,"rental_uris":{"android":"levelo://app?vid=aca0a2b6-877a-49e6-88ef-a28b7913efcd","ios":"levelo://app?vid=aca0a2b6-877a-49e6-88ef-a28b7913efcd"},"vehicle_type_id":"4","last_reported":1731442202,"current_range_meters":12000,"station_id":"ce4bgvp2rcd13ifvqcu0","pricing_plan_id":"cebpf4jnsgd1na2vs0mg"},{"bike_id":"4470fc40-342a-4ee5-97dd-ceb40cd67403","system_id":"levelo_inurba_marseille","lat":43.30209,"lon":5.39461,"is_reserved":false,"is_disabled":false,"rental_uris":{"android":"levelo://app?vid=4470fc40-342a-4ee5-97dd-ceb40cd67403","ios":"levelo://app?vid=4470fc40-342a-4ee5-97dd-ceb40cd67403"},"vehicle_type_id":"4","last_reported":1731442202,"current_range_meters":24000,"station_id":"ce4bh0p2rcd13ifvqd70","pricing_plan_id":"cebpf4jnsgd1na2vs0mg"},{"bike_id":"84815c8c-d9df-4fa2-8ab2-37024a802a5d","system_id":"levelo_inurba_marseille","lat":43.30777,"lon":5.37649,"is_reserved":false,"is_disabled":false,"rental_uris":{"android":"levelo://app?vid=84815c8c-d9df-4fa2-8ab2-37024a802a5d","ios":"levelo://app?vid=84815c8c-d9df-4fa2-8ab2-37024a802a5d"},"vehicle_type_id":"4","last_reported":1731442202,"current_range_meters":37600,"station_id":"ce4bgv92rcd13ifvqcq0","pricing_plan_id":"cebpf4jnsgd1na2vs0mg"},{"bike_id":"b97d9351-3ee6-4996-9937-8e83f4b7299d","system_id":"levelo_inurba_marseille","lat":43.31328,"lon":5.39688,"is_reserved":false,"is_disabled":false,"rental_uris":{"android":"levelo://app?vid=b97d9351-3ee6-4996-9937-8e83f4b7299d","ios":"levelo://app?vid=b97d9351-3ee6-4996-9937-8e83f4b7299d"},"vehicle_type_id":"4","last_reported":1731442202,"current_range_meters":18000,"station_id":"ce4bgvp2rcd13ifvqcu0","pricing_plan_id":"cebpf4jnsgd1na2vs0mg"},{"bike_id":"4560d80d-b770-46a9-8ac0-6fe10fc64b4e","system_id":"levelo_inurba_marseille","lat":43.28035,"lon":5.36949,"is_reserved":false,"is_disabled":false,"rental_uris":{"android":"levelo://app?vid=4560d80d-b770-46a9-8ac0-6fe10fc64b4e","ios":"levelo://app?vid=4560d80d-b770-46a9-8ac0-6fe10fc64b4e"},"vehicle_type_id":"4","last_reported":1731442202,"current_range_meters":33200,"station_id":"ce4bha12rcd13ifvqef0","pricing_plan_id":"cebpf4jnsgd1na2vs0mg"},{"bike_id":"2cfaf8ae-765a-4c15-bd01-a49fcd32d129","system_id":"levelo_inurba_marseille","lat":43.3013,"lon":5.39871,"is_reserved":false,"is_disabled":false,"rental_uris":{"android":"levelo://app?vid=2cfaf8ae-765a-4c15-bd01-a49fcd32d129","ios":"levelo://app?vid=2cfaf8ae-765a-4c15-bd01-a49fcd32d129"},"vehicle_type_id":"4","last_reported":1731442202,"current_range_meters":6000,"station_id":"ce4bh0h2rcd13ifvqd40","pricing_plan_id":"cebpf4jnsgd1na2vs0mg"},{"bike_id":"08b12162-639b-42e6-b6d7-e289591b02ce","system_id":"levelo_inurba_marseille","lat":43.31745,"lon":5.3901,"is_reserved":false,"is_disabled":false,"rental_uris":{"android":"levelo://app?vid=08b12162-639b-42e6-b6d7-e289591b02ce","ios":"levelo://app?vid=08b12162-639b-42e6-b6d7-e289591b02ce"},"vehicle_type_id":"4","last_reported":1731442202,"current_range_meters":22000,"station_id":"ce4bhqp2rcd13ifvqhng","pricing_plan_id":"cebpf4jnsgd1na2vs0mg"},{"bike_id":"e60b42f2-a281-4419-a16c-efdb587b14b5","system_id":"levelo_inurba_marseille","lat":43.32284,"lon":5.38274,"is_reserved":false,"is_disabled":false,"rental_uris":{"android":"levelo://app?vid=e60b42f2-a281-4419-a16c-efdb587b14b5","ios":"levelo://app?vid=e60b42f2-a281-4419-a16c-efdb587b14b5"},"vehicle_type_id":"4","last_reported":1731442202,"current_range_meters":24800,"station_id":"ce4bhr12rcd13ifvqhqg","pricing_plan_id":"cebpf4jnsgd1na2vs0mg"},{"bike_id":"ee0f3edc-a2eb-41a5-9d63-4b2d59c7d64f","system_id":"levelo_inurba_marseille","lat":43.25111,"lon":5.40322,"is_reserved":false,"is_disabled":false,"rental_uris":{"android":"levelo://app?vid=ee0f3edc-a2eb-41a5-9d63-4b2d59c7d64f","ios":"levelo://app?vid=ee0f3edc-a2eb-41a5-9d63-4b2d59c7d64f"},"vehicle_type_id":"4","last_reported":1731442202,"current_range_meters":25200,"station_id":"ce4bhlh2rcd13ifvqgig","pricing_plan_id":"cebpf4jnsgd1na2vs0mg"},{"bike_id":"0a4189d5-e56b-4a49-a75b-035f42369ff2","system_id":"levelo_inurba_marseille","lat":43.3013,"lon":5.39864,"is_reserved":false,"is_disabled":false,"rental_uris":{"android":"levelo://app?vid=0a4189d5-e56b-4a49-a75b-035f42369ff2","ios":"levelo://app?vid=0a4189d5-e56b-4a49-a75b-035f42369ff2"},"vehicle_type_id":"4","last_reported":1731442202,"current_range_meters":10000,"station_id":"ce4bh0h2rcd13ifvqd40","pricing_plan_id":"cebpf4jnsgd1na2vs0mg"},{"bike_id":"7b1d3612-39cd-4cb3-9238-b7159cf9796b","system_id":"levelo_inurba_marseille","lat":43.28707,"lon":5.37388,"is_reserved":false,"is_disabled":false,"rental_uris":{"android":"levelo://app?vid=7b1d3612-39cd-4cb3-9238-b7159cf9796b","ios":"levelo://app?vid=7b1d3612-39cd-4cb3-9238-b7159cf9796b"},"vehicle_type_id":"4","last_reported":1731442202,"current_range_meters":30800,"station_id":"ce4bh3p2rcd13ifvqdq0","pricing_plan_id":"cebpf4jnsgd1na2vs0mg"},{"bike_id":"593dd953-92e9-4448-9d82-ca754ac12605","system_id":"levelo_inurba_marseille","lat":43.25089,"lon":5.39522,"is_reserved":false,"is_disabled":false,"rental_uris":{"android":"levelo://app?vid=593dd953-92e9-4448-9d82-ca754ac12605","ios":"levelo://app?vid=593dd953-92e9-4448-9d82-ca754ac12605"},"vehicle_type_id":"4","last_reported":1731442202,"current_range_meters":16800,"station_id":"ce4bhm12rcd13ifvqgkg","pricing_plan_id":"cebpf4jnsgd1na2vs0mg"},{"bike_id":"98a41b55-783d-4a53-9a0a-09f9b47b2669","system_id":"levelo_inurba_marseille","lat":43.2319,"lon":5.35548,"is_reserved":false,"is_disabled":false,"rental_uris":{"android":"levelo://app?vid=98a41b55-783d-4a53-9a0a-09f9b47b2669","ios":"levelo://app?vid=98a41b55-783d-4a53-9a0a-09f9b47b2669"},"vehicle_type_id":"4","last_reported":1731442202,"current_range_meters":19200,"station_id":"ce4bhu92rcd13ifvqi70","pricing_plan_id":"cebpf4jnsgd1na2vs0mg"},{"bike_id":"9b899324-9bf0-4e7e-944b-128cdc9d3596","system_id":"levelo_inurba_marseille","lat":43.25576,"lon":5.38235,"is_reserved":false,"is_disabled":false,"rental_uris":{"android":"levelo://app?vid=9b899324-9bf0-4e7e-944b-128cdc9d3596","ios":"levelo://app?vid=9b899324-9bf0-4e7e-944b-128cdc9d3596"},"vehicle_type_id":"4","last_reported":1731442202,"current_range_meters":32000,"station_id":"ce4bhih2rcd13ifvqfs0","pricing_plan_id":"cebpf4jnsgd1na2vs0mg"},{"bike_id":"33982fe9-a903-40cd-a32c-32a0ffad344a","system_id":"levelo_inurba_marseille","lat":43.28455,"lon":5.35894,"is_reserved":false,"is_disabled":false,"rental_uris":{"android":"levelo://app?vid=33982fe9-a903-40cd-a32c-32a0ffad344a","ios":"levelo://app?vid=33982fe9-a903-40cd-a32c-32a0ffad344a"},"vehicle_type_id":"4","last_reported":1731442202,"current_range_meters":32400,"station_id":"ce4bhah2rcd13ifvqei0","pricing_plan_id":"cebpf4jnsgd1na2vs0mg"},{"bike_id":"2202a904-a13c-4eda-9d49-23c5c6db8e84","system_id":"levelo_inurba_marseille","lat":43.28271,"lon":5.35066,"is_reserved":false,"is_disabled":false,"rental_uris":{"android":"levelo://app?vid=2202a904-a13c-4eda-9d49-23c5c6db8e84","ios":"levelo://app?vid=2202a904-a13c-4eda-9d49-23c5c6db8e84"},"vehicle_type_id":"4","last_reported":1731442202,"current_range_meters":34800,"station_id":"ce4bhbp2rcd13ifvqerg","pricing_plan_id":"cebpf4jnsgd1na2vs0mg"},{"bike_id":"692fb841-efd6-45f3-98d5-6b03df882962","system_id":"levelo_inurba_marseille","lat":43.27495,"lon":5.4245,"is_reserved":false,"is_disabled":false,"rental_uris":{"android":"levelo://app?vid=692fb841-efd6-45f3-98d5-6b03df882962","ios":"levelo://app?vid=692fb841-efd6-45f3-98d5-6b03df882962"},"vehicle_type_id":"4","last_reported":1731442202,"current_range_meters":38800,"station_id":"ce4bhn92rcd13ifvqgrg","pricing_plan_id":"cebpf4jnsgd1na2vs0mg"},{"bike_id":"17db4ccc-55e1-459e-b970-b46888175485","system_id":"levelo_inurba_marseille","lat":43.30245,"lon":5.40065,"is_reserved":false,"is_disabled":false,"rental_uris":{"android":"levelo://app?vid=17db4ccc-55e1-459e-b970-b46888175485","ios":"levelo://app?vid=17db4ccc-55e1-459e-b970-b46888175485"},"vehicle_type_id":"4","last_reported":1731442202,"current_range_meters":32400,"station_id":"ce4bgvh2rcd13ifvqcs0","pricing_plan_id":"cebpf4jnsgd1na2vs0mg"},{"bike_id":"f7dfe9d8-8b1c-44bd-9e07-3a51ca4750f2","system_id":"levelo_inurba_marseille","lat":43.26491,"lon":5.3955,"is_reserved":false,"is_disabled":false,"rental_uris":{"android":"levelo://app?vid=f7dfe9d8-8b1c-44bd-9e07-3a51ca4750f2","ios":"levelo://app?vid=f7dfe9d8-8b1c-44bd-9e07-3a51ca4750f2"},"vehicle_type_id":"4","last_reported":1731442202,"current_range_meters":33600,"station_id":"ce4bhi12rcd13ifvqfq0","pricing_plan_id":"cebpf4jnsgd1na2vs0mg"},{"bike_id":"bc61a3b9-3fb3-4296-853e-797c816f3109","system_id":"levelo_inurba_marseille","lat":43.28853,"lon":5.35847,"is_reserved":false,"is_disabled":false,"rental_uris":{"android":"levelo://app?vid=bc61a3b9-3fb3-4296-853e-797c816f3109","ios":"levelo://app?vid=bc61a3b9-3fb3-4296-853e-797c816f3109"},"vehicle_type_id":"4","last_reported":1731442202,"current_range_meters":20800,"station_id":"ce4bhb12rcd13ifvqem0","pricing_plan_id":"cebpf4jnsgd1na2vs0mg"},{"bike_id":"ff84b12f-d72e-4bd3-999d-3b3db59e354c","system_id":"levelo_inurba_marseille","lat":43.28841,"lon":5.3585,"is_reserved":false,"is_disabled":false,"rental_uris":{"android":"levelo://app?vid=ff84b12f-d72e-4bd3-999d-3b3db59e354c","ios":"levelo://app?vid=ff84b12f-d72e-4bd3-999d-3b3db59e354c"},"vehicle_type_id":"4","last_reported":1731442202,"current_range_meters":34800,"station_id":"ce4bhb12rcd13ifvqem0","pricing_plan_id":"cebpf4jnsgd1na2vs0mg"},{"bike_id":"73586d51-a7db-4f37-8fd9-c683a07e913a","system_id":"levelo_inurba_marseille","lat":43.28656,"lon":5.36346,"is_reserved":false,"is_disabled":false,"rental_uris":{"android":"levelo://app?vid=73586d51-a7db-4f37-8fd9-c683a07e913a","ios":"levelo://app?vid=73586d51-a7db-4f37-8fd9-c683a07e913a"},"vehicle_type_id":"4","last_reported":1731442202,"current_range_meters":16800,"station_id":"ce4bhah2rcd13ifvqej0","pricing_plan_id":"cebpf4jnsgd1na2vs0mg"},{"bike_id":"0606443b-4369-42a4-bea1-57669a14e9a4","system_id":"levelo_inurba_marseille","lat":43.27815,"lon":5.40715,"is_reserved":false,"is_disabled":false,"rental_uris":{"android":"levelo://app?vid=0606443b-4369-42a4-bea1-57669a14e9a4","ios":"levelo://app?vid=0606443b-4369-42a4-bea1-57669a14e9a4"},"vehicle_type_id":"4","last_reported":1731442202,"current_range_meters":36800,"station_id":"ce4bhnh2rcd13ifvqgtg","pricing_plan_id":"cebpf4jnsgd1na2vs0mg"},{"bike_id":"0fb7af37-ed7e-4639-a28c-e6d4b52ce80c","system_id":"levelo_inurba_marseille","lat":43.30934,"lon":5.40156,"is_reserved":false,"is_disabled":false,"rental_uris":{"android":"levelo://app?vid=0fb7af37-ed7e-4639-a28c-e6d4b52ce80c","ios":"levelo://app?vid=0fb7af37-ed7e-4639-a28c-e6d4b52ce80c"},"vehicle_type_id":"4","last_reported":1731442202,"current_range_meters":37600,"station_id":"ce4bgvp2rcd13ifvqct0","pricing_plan_id":"cebpf4jnsgd1na2vs0mg"},{"bike_id":"39bfa097-59a6-4e1f-8c95-57f4aa2e83f3","system_id":"levelo_inurba_marseille","lat":43.29773,"lon":5.37109,"is_reserved":false,"is_disabled":false,"rental_uris":{"android":"levelo://app?vid=39bfa097-59a6-4e1f-8c95-57f4aa2e83f3","ios":"levelo://app?vid=39bfa097-59a6-4e1f-8c95-57f4aa2e83f3"},"vehicle_type_id":"4","last_reported":1731442202,"current_range_meters":39200,"station_id":"ce4bgop2rcd13ifvqc1g","pricing_plan_id":"cebpf4jnsgd1na2vs0mg"},{"bike_id":"d5b47975-7665-4836-8707-7a65639f0843","system_id":"levelo_inurba_marseille","lat":43.3024,"lon":5.40064,"is_reserved":false,"is_disabled":false,"rental_uris":{"android":"levelo://app?vid=d5b47975-7665-4836-8707-7a65639f0843","ios":"levelo://app?vid=d5b47975-7665-4836-8707-7a65639f0843"},"vehicle_type_id":"4","last_reported":1731442202,"current_range_meters":37600,"station_id":"ce4bgvh2rcd13ifvqcs0","pricing_plan_id":"cebpf4jnsgd1na2vs0mg"},{"bike_id":"94d1953e-4437-4d05-895b-bdb399853a7d","system_id":"levelo_inurba_marseille","lat":43.30593,"lon":5.39355,"is_reserved":false,"is_disabled":false,"rental_uris":{"android":"levelo://app?vid=94d1953e-4437-4d05-895b-bdb399853a7d","ios":"levelo://app?vid=94d1953e-4437-4d05-895b-bdb399853a7d"},"vehicle_type_id":"4","last_reported":1731442202,"current_range_meters":10800,"station_id":"ce4bh0p2rcd13ifvqd80","pricing_plan_id":"cebpf4jnsgd1na2vs0mg"},{"bike_id":"09539a57-684d-447c-bc50-44d99b665999","system_id":"levelo_inurba_marseille","lat":43.30887,"lon":5.39654,"is_reserved":false,"is_disabled":false,"rental_uris":{"android":"levelo://app?vid=09539a57-684d-447c-bc50-44d99b665999","ios":"levelo://app?vid=09539a57-684d-447c-bc50-44d99b665999"},"vehicle_type_id":"4","last_reported":1731442202,"current_range_meters":22800,"station_id":"ce4bh012rcd13ifvqcv0","pricing_plan_id":"cebpf4jnsgd1na2vs0mg"},{"bike_id":"aa81cd4d-52e5-4916-b3b1-6e135085c8ef","system_id":"levelo_inurba_marseille","lat":43.24801,"lon":5.37461,"is_reserved":false,"is_disabled":false,"rental_uris":{"android":"levelo://app?vid=aa81cd4d-52e5-4916-b3b1-6e135085c8ef","ios":"levelo://app?vid=aa81cd4d-52e5-4916-b3b1-6e135085c8ef"},"vehicle_type_id":"4","last_reported":1731442202,"current_range_meters":39200,"station_id":"ce4bhgh2rcd13ifvqfb0","pricing_plan_id":"cebpf4jnsgd1na2vs0mg"},{"bike_id":"8c37e2bb-a208-40d5-8ae6-a98e72288fac","system_id":"levelo_inurba_marseille","lat":43.29171,"lon":5.3716,"is_reserved":false,"is_disabled":false,"rental_uris":{"android":"levelo://app?vid=8c37e2bb-a208-40d5-8ae6-a98e72288fac","ios":"levelo://app?vid=8c37e2bb-a208-40d5-8ae6-a98e72288fac"},"vehicle_type_id":"4","last_reported":1731442202,"current_range_meters":24400,"station_id":"ce4bha92rcd13ifvqeh0","pricing_plan_id":"cebpf4jnsgd1na2vs0mg"},{"bike_id":"19a5707f-5771-4308-8e76-2dc6824fa0e6","system_id":"levelo_inurba_marseille","lat":43.27569,"lon":5.38429,"is_reserved":false,"is_disabled":false,"rental_uris":{"android":"levelo://app?vid=19a5707f-5771-4308-8e76-2dc6824fa0e6","ios":"levelo://app?vid=19a5707f-5771-4308-8e76-2dc6824fa0e6"},"vehicle_type_id":"4","last_reported":1731442202,"current_range_meters":35200,"station_id":"ce4bhh92rcd13ifvqfi0","pricing_plan_id":"cebpf4jnsgd1na2vs0mg"},{"bike_id":"d1637773-1cf9-455f-bb0f-cde84ed359c0","system_id":"levelo_inurba_marseille","lat":43.2846,"lon":5.35877,"is_reserved":false,"is_disabled":false,"rental_uris":{"android":"levelo://app?vid=d1637773-1cf9-455f-bb0f-cde84ed359c0","ios":"levelo://app?vid=d1637773-1cf9-455f-bb0f-cde84ed359c0"},"vehicle_type_id":"4","last_reported":1731442202,"current_range_meters":38800,"station_id":"ce4bhah2rcd13ifvqei0","pricing_plan_id":"cebpf4jnsgd1na2vs0mg"},{"bike_id":"ed2020d9-53c9-4082-9a6b-029c3dfcbe63","system_id":"levelo_inurba_marseille","lat":43.29266,"lon":5.39313,"is_reserved":false,"is_disabled":false,"rental_uris":{"android":"levelo://app?vid=ed2020d9-53c9-4082-9a6b-029c3dfcbe63","ios":"levelo://app?vid=ed2020d9-53c9-4082-9a6b-029c3dfcbe63"},"vehicle_type_id":"4","last_reported":1731442202,"current_range_meters":4400,"station_id":"","pricing_plan_id":"cebpf4jnsgd1na2vs0mg"},{"bike_id":"7ca33f6b-e349-49e0-8226-5b445a766323","system_id":"levelo_inurba_marseille","lat":43.32102,"lon":5.36777,"is_reserved":false,"is_disabled":false,"rental_uris":{"android":"levelo://app?vid=7ca33f6b-e349-49e0-8226-5b445a766323","ios":"levelo://app?vid=7ca33f6b-e349-49e0-8226-5b445a766323"},"vehicle_type_id":"4","last_reported":1731442202,"current_range_meters":23200,"station_id":"ce4bhrh2rcd13ifvqhug","pricing_plan_id":"cebpf4jnsgd1na2vs0mg"},{"bike_id":"7eefa272-3116-4b84-a466-6a64c9d9db4c","system_id":"levelo_inurba_marseille","lat":43.288563,"lon":5.358463,"is_reserved":false,"is_disabled":false,"rental_uris":{"android":"levelo://app?vid=7eefa272-3116-4b84-a466-6a64c9d9db4c","ios":"levelo://app?vid=7eefa272-3116-4b84-a466-6a64c9d9db4c"},"vehicle_type_id":"4","last_reported":1731442202,"current_range_meters":36800,"station_id":"ce4bhb12rcd13ifvqem0","pricing_plan_id":"cebpf4jnsgd1na2vs0mg"},{"bike_id":"9b6f4511-578c-42ab-81ac-bef492210160","system_id":"levelo_inurba_marseille","lat":43.31331,"lon":5.39695,"is_reserved":false,"is_disabled":false,"rental_uris":{"android":"levelo://app?vid=9b6f4511-578c-42ab-81ac-bef492210160","ios":"levelo://app?vid=9b6f4511-578c-42ab-81ac-bef492210160"},"vehicle_type_id":"4","last_reported":1731442202,"current_range_meters":39200,"station_id":"ce4bgvp2rcd13ifvqcu0","pricing_plan_id":"cebpf4jnsgd1na2vs0mg"},{"bike_id":"aae49cd0-069f-4251-b778-25c0ab501fa1","system_id":"levelo_inurba_marseille","lat":43.29705,"lon":5.36615,"is_reserved":false,"is_disabled":false,"rental_uris":{"android":"levelo://app?vid=aae49cd0-069f-4251-b778-25c0ab501fa1","ios":"levelo://app?vid=aae49cd0-069f-4251-b778-25c0ab501fa1"},"vehicle_type_id":"4","last_reported":1731442202,"current_range_meters":10000,"station_id":"ce4bgn12rcd13ifvqbt0","pricing_plan_id":"cebpf4jnsgd1na2vs0mg"},{"bike_id":"a2fed592-e055-404e-949b-38dc428964cc","system_id":"levelo_inurba_marseille","lat":43.26566,"lon":5.39005,"is_reserved":false,"is_disabled":false,"rental_uris":{"android":"levelo://app?vid=a2fed592-e055-404e-949b-38dc428964cc","ios":"levelo://app?vid=a2fed592-e055-404e-949b-38dc428964cc"},"vehicle_type_id":"4","last_reported":1731442202,"current_range_meters":9600,"station_id":"ce4bhe12rcd13ifvqf30","pricing_plan_id":"cebpf4jnsgd1na2vs0mg"},{"bike_id":"053fb325-4a36-41e3-b541-71396d1c7972","system_id":"levelo_inurba_marseille","lat":43.29519,"lon":5.39403,"is_reserved":false,"is_disabled":false,"rental_uris":{"android":"levelo://app?vid=053fb325-4a36-41e3-b541-71396d1c7972","ios":"levelo://app?vid=053fb325-4a36-41e3-b541-71396d1c7972"},"vehicle_type_id":"4","last_reported":1731442202,"current_range_meters":18000,"station_id":"ce4bh292rcd13ifvqdf0","pricing_plan_id":"cebpf4jnsgd1na2vs0mg"},{"bike_id":"3a49739d-e0d5-44ce-afc6-bcfbf1160431","system_id":"levelo_inurba_marseille","lat":43.279473,"lon":5.41046,"is_reserved":false,"is_disabled":false,"rental_uris":{"android":"levelo://app?vid=3a49739d-e0d5-44ce-afc6-bcfbf1160431","ios":"levelo://app?vid=3a49739d-e0d5-44ce-afc6-bcfbf1160431"},"vehicle_type_id":"4","last_reported":1731442202,"current_range_meters":33200,"station_id":"ce4bhnp2rcd13ifvqh0g","pricing_plan_id":"cebpf4jnsgd1na2vs0mg"},{"bike_id":"d8691974-b452-4302-8aac-bf750f2c4c5d","system_id":"levelo_inurba_marseille","lat":43.28424,"lon":5.35,"is_reserved":false,"is_disabled":false,"rental_uris":{"android":"levelo://app?vid=d8691974-b452-4302-8aac-bf750f2c4c5d","ios":"levelo://app?vid=d8691974-b452-4302-8aac-bf750f2c4c5d"},"vehicle_type_id":"4","last_reported":1731442202,"current_range_meters":37600,"station_id":"ce4bhbh2rcd13ifvqepg","pricing_plan_id":"cebpf4jnsgd1na2vs0mg"},{"bike_id":"6cc49a5a-10d7-4481-bb6e-0b4566b7e49e","system_id":"levelo_inurba_marseille","lat":43.30643,"lon":5.40079,"is_reserved":false,"is_disabled":false,"rental_uris":{"android":"levelo://app?vid=6cc49a5a-10d7-4481-bb6e-0b4566b7e49e","ios":"levelo://app?vid=6cc49a5a-10d7-4481-bb6e-0b4566b7e49e"},"vehicle_type_id":"4","last_reported":1731442202,"current_range_meters":38800,"station_id":"ce4bh112rcd13ifvqda0","pricing_plan_id":"cebpf4jnsgd1na2vs0mg"},{"bike_id":"290d9ccc-ec87-4d41-bca2-75fa1cd5e08e","system_id":"levelo_inurba_marseille","lat":43.28855,"lon":5.35851,"is_reserved":false,"is_disabled":false,"rental_uris":{"android":"levelo://app?vid=290d9ccc-ec87-4d41-bca2-75fa1cd5e08e","ios":"levelo://app?vid=290d9ccc-ec87-4d41-bca2-75fa1cd5e08e"},"vehicle_type_id":"4","last_reported":1731442202,"current_range_meters":38800,"station_id":"ce4bhb12rcd13ifvqem0","pricing_plan_id":"cebpf4jnsgd1na2vs0mg"},{"bike_id":"87405bba-8d27-43a9-ba45-4436b04620c4","system_id":"levelo_inurba_marseille","lat":43.3108,"lon":5.42431,"is_reserved":false,"is_disabled":false,"rental_uris":{"android":"levelo://app?vid=87405bba-8d27-43a9-ba45-4436b04620c4","ios":"levelo://app?vid=87405bba-8d27-43a9-ba45-4436b04620c4"},"vehicle_type_id":"4","last_reported":1731442202,"current_range_meters":32000,"station_id":"ce4bhp92rcd13ifvqhag","pricing_plan_id":"cebpf4jnsgd1na2vs0mg"},{"bike_id":"af9e02e2-940a-4e2f-818b-e90fc6478df9","system_id":"levelo_inurba_marseille","lat":43.302435,"lon":5.39551,"is_reserved":false,"is_disabled":false,"rental_uris":{"android":"levelo://app?vid=af9e02e2-940a-4e2f-818b-e90fc6478df9","ios":"levelo://app?vid=af9e02e2-940a-4e2f-818b-e90fc6478df9"},"vehicle_type_id":"4","last_reported":1731442202,"current_range_meters":12800,"station_id":"","pricing_plan_id":"cebpf4jnsgd1na2vs0mg"},{"bike_id":"d1de9e77-22f4-488e-a8ea-1ef7c3c349ac","system_id":"levelo_inurba_marseille","lat":43.239658,"lon":5.3663,"is_reserved":false,"is_disabled":false,"rental_uris":{"android":"levelo://app?vid=d1de9e77-22f4-488e-a8ea-1ef7c3c349ac","ios":"levelo://app?vid=d1de9e77-22f4-488e-a8ea-1ef7c3c349ac"},"vehicle_type_id":"4","last_reported":1731442202,"current_range_meters":29600,"station_id":"ce4bhi12rcd13ifvqfp0","pricing_plan_id":"cebpf4jnsgd1na2vs0mg"},{"bike_id":"bfda5e69-37f2-44af-aaa6-6a46064d7a33","system_id":"levelo_inurba_marseille","lat":43.29312,"lon":5.37175,"is_reserved":false,"is_disabled":false,"rental_uris":{"android":"levelo://app?vid=bfda5e69-37f2-44af-aaa6-6a46064d7a33","ios":"levelo://app?vid=bfda5e69-37f2-44af-aaa6-6a46064d7a33"},"vehicle_type_id":"4","last_reported":1731442202,"current_range_meters":17200,"station_id":"ce4bgh92rcd13ifvqb40","pricing_plan_id":"cebpf4jnsgd1na2vs0mg"},{"bike_id":"604969ab-247a-4436-8de3-4b0947861361","system_id":"levelo_inurba_marseille","lat":43.27815,"lon":5.40718,"is_reserved":false,"is_disabled":false,"rental_uris":{"android":"levelo://app?vid=604969ab-247a-4436-8de3-4b0947861361","ios":"levelo://app?vid=604969ab-247a-4436-8de3-4b0947861361"},"vehicle_type_id":"4","last_reported":1731442202,"current_range_meters":16000,"station_id":"ce4bhnh2rcd13ifvqgtg","pricing_plan_id":"cebpf4jnsgd1na2vs0mg"},{"bike_id":"a80d908f-f8d2-49c1-a2b6-23222d7c95dc","system_id":"levelo_inurba_marseille","lat":43.28158,"lon":5.42636,"is_reserved":false,"is_disabled":false,"rental_uris":{"android":"levelo://app?vid=a80d908f-f8d2-49c1-a2b6-23222d7c95dc","ios":"levelo://app?vid=a80d908f-f8d2-49c1-a2b6-23222d7c95dc"},"vehicle_type_id":"4","last_reported":1731442202,"current_range_meters":24400,"station_id":"ce4bhnh2rcd13ifvqgug","pricing_plan_id":"cebpf4jnsgd1na2vs0mg"},{"bike_id":"991726b4-5671-45cd-9f87-83117ad09650","system_id":"levelo_inurba_marseille","lat":43.32363,"lon":5.38878,"is_reserved":false,"is_disabled":false,"rental_uris":{"android":"levelo://app?vid=991726b4-5671-45cd-9f87-83117ad09650","ios":"levelo://app?vid=991726b4-5671-45cd-9f87-83117ad09650"},"vehicle_type_id":"4","last_reported":1731442202,"current_range_meters":23200,"station_id":"ce4bhqp2rcd13ifvqhog","pricing_plan_id":"cebpf4jnsgd1na2vs0mg"},{"bike_id":"652d5563-c48b-48dd-900b-0b62a1a21cc9","system_id":"levelo_inurba_marseille","lat":43.27995,"lon":5.41661,"is_reserved":false,"is_disabled":false,"rental_uris":{"android":"levelo://app?vid=652d5563-c48b-48dd-900b-0b62a1a21cc9","ios":"levelo://app?vid=652d5563-c48b-48dd-900b-0b62a1a21cc9"},"vehicle_type_id":"4","last_reported":1731442202,"current_range_meters":6400,"station_id":"ce4bho12rcd13ifvqh1g","pricing_plan_id":"cebpf4jnsgd1na2vs0mg"},{"bike_id":"bf41a0e3-bd6d-4b9a-b6ee-b7a7be544246","system_id":"levelo_inurba_marseille","lat":43.27066,"lon":5.42274,"is_reserved":false,"is_disabled":false,"rental_uris":{"android":"levelo://app?vid=bf41a0e3-bd6d-4b9a-b6ee-b7a7be544246","ios":"levelo://app?vid=bf41a0e3-bd6d-4b9a-b6ee-b7a7be544246"},"vehicle_type_id":"4","last_reported":1731442202,"current_range_meters":28400,"station_id":"ce4bhk92rcd13ifvqgb0","pricing_plan_id":"cebpf4jnsgd1na2vs0mg"},{"bike_id":"1b78dc6f-bcd7-4772-9063-a0fe1798c19e","system_id":"levelo_inurba_marseille","lat":43.28151,"lon":5.42639,"is_reserved":false,"is_disabled":false,"rental_uris":{"android":"levelo://app?vid=1b78dc6f-bcd7-4772-9063-a0fe1798c19e","ios":"levelo://app?vid=1b78dc6f-bcd7-4772-9063-a0fe1798c19e"},"vehicle_type_id":"4","last_reported":1731442202,"current_range_meters":36400,"station_id":"ce4bhnh2rcd13ifvqgug","pricing_plan_id":"cebpf4jnsgd1na2vs0mg"},