{"last_updated":1750508312,"ttl":60,"version":"2.2","data":{"bikes":[{"bike_id":"3da29fb8-fc97-44c6-b9ac-31dd456b2fd4","system_id":"levelo_inurba_marseille","lat":43.33771,"lon":5.37424,"is_reserved":false,"is_disabled":true,"rental_uris":{"android":"levelo://app?vid=3da29fb8-fc97-44c6-b9ac-31dd456b2fd4","ios":"levelo://app?vid=3da29fb8-fc97-44c6-b9ac-31dd456b2fd4"},"vehicle_type_id":"4","last_reported":1750508312,"current_range_meters":0,"station_id":"","pricing_plan_id":"cebpf4jnsgd1na2vs0mg"},{"bike_id":"01861ad8-a8d7-4be6-816e-651927c87584","system_id":"levelo_inurba_marseille","lat":43.33751,"lon":5.37456,"is_reserved":false,"is_disabled":true,"rental_uris":{"android":"levelo://app?vid=01861ad8-a8d7-4be6-816e-651927c87584","ios":"levelo://app?vid=01861ad8-a8d7-4be6-816e-651927c87584"},"vehicle_type_id":"4","last_reported":1750508312,"current_range_meters":0,"station_id":"","pricing_plan_id":"cebpf4jnsgd1na2vs0mg"},{"bike_id":"62a493c7-4534-4419-ad43-0582de34a72a","system_id":"levelo_inurba_marseille","lat":43.21366,"lon":5.355183,"is_reserved":false,"is_disabled":true,"rental_uris":{"android":"levelo://app?vid=62a493c7-4534-4419-ad43-0582de34a72a","ios":"levelo://app?vid=62a493c7-4534-4419-ad43-0582de34a72a"},"vehicle_type_id":"4","last_reported":1750508312,"current_range_meters":0,"station_id":"","pricing_plan_id":"cebpf4jnsgd1na2vs0mg"},{"bike_id":"d6609b4f-333b-43c1-9ebe-8726f5e76e88","system_id":"levelo_inurba_marseille","lat":43.337444,"lon":5.374475,"is_reserved":false,"is_disabled":true,"rental_uris":{"android":"levelo://app?vid=d6609b4f-333b-43c1-9ebe-8726f5e76e88","ios":"levelo://app?vid=d6609b4f-333b-43c1-9ebe-8726f5e76e88"},"vehicle_type_id":"4","last_reported":1750508312,"current_range_meters":0,"station_id":"","pricing_plan_id":"cebpf4jnsgd1na2vs0mg"},{"bike_id":"45bbf0a9-fb71-4554-b265-a4213254df71","system_id":"levelo_inurba_marseille","lat":43.291958,"lon":5.357966,"is_reserved":false,"is_disabled":true,"rental_uris":{"android":"levelo://app?vid=45bbf0a9-fb71-4554-b265-a4213254df71","ios":"levelo://app?vid=45bbf0a9-fb71-4554-b265-a4213254df71"},"vehicle_type_id":"4","last_reported":1750508312,"current_range_meters":0,"station_id":"ce4bgip2rcd13ifvqbb0","pricing_plan_id":"cebpf4jnsgd1na2vs0mg"},{"bike_id":"a1675535-d1f1-4460-a127-c76f541c4611","system_id":"levelo_inurba_marseille","lat":43.30901,"lon":5.36837,"is_reserved":false,"is_disabled":true,"rental_uris":{"android":"levelo://app?vid=a1675535-d1f1-4460-a127-c76f541c4611","ios":"levelo://app?vid=a1675535-d1f1-4460-a127-c76f541c4611"},"vehicle_type_id":"4","last_reported":1750508312,"current_range_meters":0,"station_id":"ce4bgn92rcd13ifvqbvg","pricing_plan_id":"cebpf4jnsgd1na2vs0mg"},{"bike_id":"3ada4f9a-3c76-4ff6-a6ca-d65d1d1156ec","system_id":"levelo_inurba_marseille","lat":43.30534,"lon":5.36544,"is_reserved":false,"is_disabled":true,"rental_uris":{"android":"levelo://app?vid=3ada4f9a-3c76-4ff6-a6ca-d65d1d1156ec","ios":"levelo://app?vid=3ada4f9a-3c76-4ff6-a6ca-d65d1d1156ec"},"vehicle_type_id":"4","last_reported":1750508312,"current_range_meters":0,"station_id":"ce4bgs12rcd13ifvqcag","pricing_plan_id":"cebpf4jnsgd1na2vs0mg"},{"bike_id":"6e048adf-d3a0-4c0c-a196-ca6d06f92785","system_id":"levelo_inurba_marseille","lat":43.309345,"lon":5.401693,"is_reserved":false,"is_disabled":true,"rental_uris":{"android":"levelo://app?vid=6e048adf-d3a0-4c0c-a196-ca6d06f92785","ios":"levelo://app?vid=6e048adf-d3a0-4c0c-a196-ca6d06f92785"},"vehicle_type_id":"4","last_reported":1750508312,"current_range_meters":0,"station_id":"ce4bgvp2rcd13ifvqct0","pricing_plan_id":"cebpf4jnsgd1na2vs0mg"},{"bike_id":"1b75a80f-5fc9-4d60-bb59-310c82547c90","system_id":"levelo_inurba_marseille","lat":43.308929,"lon":5.396584,"is_reserved":false,"is_disabled":true,"rental_uris":{"android":"levelo://app?vid=1b75a80f-5fc9-4d60-bb59-310c82547c90","ios":"levelo://app?vid=1b75a80f-5fc9-4d60-bb59-310c82547c90"},"vehicle_type_id":"4","last_reported":1750508312,"current_range_meters":0,"station_id":"ce4bh012rcd13ifvqcv0","pricing_plan_id":"cebpf4jnsgd1na2vs0mg"},{"bike_id":"0734c3b4-1b6f-428d-b068-d7984553c29a","system_id":"levelo_inurba_marseille","lat":43.29894,"lon":5.38886,"is_reserved":false,"is_disabled":true,"rental_uris":{"android":"levelo://app?vid=0734c3b4-1b6f-428d-b068-d7984553c29a","ios":"levelo://app?vid=0734c3b4-1b6f-428d-b068-d7984553c29a"},"vehicle_type_id":"4","last_reported":1750508312,"current_range_meters":0,"station_id":"ce4bh392rcd13ifvqdl0","pricing_plan_id":"cebpf4jnsgd1na2vs0mg"},{"bike_id":"ab835baa-e2d6-45f4-b88f-8e4a91a14aef","system_id":"levelo_inurba_marseille","lat":43.28478,"lon":5.38427,"is_reserved":false,"is_disabled":true,"rental_uris":{"android":"levelo://app?vid=ab835baa-e2d6-45f4-b88f-8e4a91a14aef","ios":"levelo://app?vid=ab835baa-e2d6-45f4-b88f-8e4a91a14aef"},"vehicle_type_id":"4","last_reported":1750508312,"current_range_meters":0,"station_id":"ce4bh512rcd13ifvqe3g","pricing_plan_id":"cebpf4jnsgd1na2vs0mg"},{"bike_id":"57aee1e7-e584-4aca-bcd3-44d80291f554","system_id":"levelo_inurba_marseille","lat":43.2925,"lon":5.38436,"is_reserved":false,"is_disabled":true,"rental_uris":{"android":"levelo://app?vid=57aee1e7-e584-4aca-bcd3-44d80291f554","ios":"levelo://app?vid=57aee1e7-e584-4aca-bcd3-44d80291f554"},"vehicle_type_id":"4","last_reported":1750508312,"current_range_meters":0,"station_id":"ce4bh692rcd13ifvqea0","pricing_plan_id":"cebpf4jnsgd1na2vs0mg"},{"bike_id":"07023714-168c-44ab-9797-74856f814d11","system_id":"levelo_inurba_marseille","lat":43.27367,"lon":5.36262,"is_reserved":false,"is_disabled":true,"rental_uris":{"android":"levelo://app?vid=07023714-168c-44ab-9797-74856f814d11","ios":"levelo://app?vid=07023714-168c-44ab-9797-74856f814d11"},"vehicle_type_id":"4","last_reported":1750508312,"current_range_meters":0,"station_id":"ce4bhbh2rcd13ifvqeo0","pricing_plan_id":"cebpf4jnsgd1na2vs0mg"},{"bike_id":"1f3d1db0-6609-4b3f-99b9-fab6a3c5d167","system_id":"levelo_inurba_marseille","lat":43.292762,"lon":5.368384,"is_reserved":false,"is_disabled":true,"rental_uris":{"android":"levelo://app?vid=1f3d1db0-6609-4b3f-99b9-fab6a3c5d167","ios":"levelo://app?vid=1f3d1db0-6609-4b3f-99b9-fab6a3c5d167"},"vehicle_type_id":"4","last_reported":1750508312,"current_range_meters":0,"station_id":"ce4bhbh2rcd13ifvqeqg","pricing_plan_id":"cebpf4jnsgd1na2vs0mg"},{"bike_id":"e2334896-ca90-43e2-93ad-aaab9897182f","system_id":"levelo_inurba_marseille","lat":43.2826,"lon":5.35064,"is_reserved":false,"is_disabled":true,"rental_uris":{"android":"levelo://app?vid=e2334896-ca90-43e2-93ad-aaab9897182f","ios":"levelo://app?vid=e2334896-ca90-43e2-93ad-aaab9897182f"},"vehicle_type_id":"4","last_reported":1750508312,"current_range_meters":0,"station_id":"ce4bhbp2rcd13ifvqerg","pricing_plan_id":"cebpf4jnsgd1na2vs0mg"},{"bike_id":"19e25e12-46ff-4402-91b1-69fe60af316d","system_id":"levelo_inurba_marseille","lat":43.279142,"lon":5.395819,"is_reserved":false,"is_disabled":true,"rental_uris":{"android":"levelo://app?vid=19e25e12-46ff-4402-91b1-69fe60af316d","ios":"levelo://app?vid=19e25e12-46ff-4402-91b1-69fe60af316d"},"vehicle_type_id":"4","last_reported":1750508312,"current_range_meters":0,"station_id":"ce4bhf92rcd13ifvqf40","pricing_plan_id":"cebpf4jnsgd1na2vs0mg"},{"bike_id":"93244d65-311b-4223-bc2c-17db44215077","system_id":"levelo_inurba_marseille","lat":43.265587,"lon":5.372996,"is_reserved":false,"is_disabled":true,"rental_uris":{"android":"levelo://app?vid=93244d65-311b-4223-bc2c-17db44215077","ios":"levelo://app?vid=93244d65-311b-4223-bc2c-17db44215077"},"vehicle_type_id":"4","last_reported":1750508312,"current_range_meters":0,"station_id":"ce4bhg12rcd13ifvqf70","pricing_plan_id":"cebpf4jnsgd1na2vs0mg"},{"bike_id":"40cb0695-58f3-4098-a84f-d73e9151b713","system_id":"levelo_inurba_marseille","lat":43.24811,"lon":5.3745,"is_reserved":false,"is_disabled":true,"rental_uris":{"android":"levelo://app?vid=40cb0695-58f3-4098-a84f-d73e9151b713","ios":"levelo://app?vid=40cb0695-58f3-4098-a84f-d73e9151b713"},"vehicle_type_id":"4","last_reported":1750508312,"current_range_meters":0,"station_id":"ce4bhgh2rcd13ifvqfb0","pricing_plan_id":"cebpf4jnsgd1na2vs0mg"},{"bike_id":"fb16bd4a-a45c-404c-ae4f-594a50006a59","system_id":"levelo_inurba_marseille","lat":43.239663,"lon":5.366504,"is_reserved":false,"is_disabled":true,"rental_uris":{"android":"levelo://app?vid=fb16bd4a-a45c-404c-ae4f-594a50006a59","ios":"levelo://app?vid=fb16bd4a-a45c-404c-ae4f-594a50006a59"},"vehicle_type_id":"4","last_reported":1750508312,"current_range_meters":0,"station_id":"ce4bhi12rcd13ifvqfp0","pricing_plan_id":"cebpf4jnsgd1na2vs0mg"},{"bike_id":"428ac24f-e37e-48b4-97ce-217de8618032","system_id":"levelo_inurba_marseille","lat":43.25866,"lon":5.39905,"is_reserved":false,"is_disabled":true,"rental_uris":{"android":"levelo://app?vid=428ac24f-e37e-48b4-97ce-217de8618032","ios":"levelo://app?vid=428ac24f-e37e-48b4-97ce-217de8618032"},"vehicle_type_id":"4","last_reported":1750508312,"current_range_meters":0,"station_id":"ce4bhl92rcd13ifvqghg","pricing_plan_id":"cebpf4jnsgd1na2vs0mg"},{"bike_id":"e323ef03-a313-4148-9068-6d4da0de0a0d","system_id":"levelo_inurba_marseille","lat":43.23154,"lon":5.43711,"is_reserved":false,"is_disabled":true,"rental_uris":{"android":"levelo://app?vid=e323ef03-a313-4148-9068-6d4da0de0a0d","ios":"levelo://app?vid=e323ef03-a313-4148-9068-6d4da0de0a0d"},"vehicle_type_id":"4","last_reported":1750508312,"current_range_meters":0,"station_id":"ce4bhmp2rcd13ifvqgog","pricing_plan_id":"cebpf4jnsgd1na2vs0mg"},{"bike_id":"0b0fd9d5-73fe-4f19-8503-61f010db8594","system_id":"levelo_inurba_marseille","lat":43.21746,"lon":5.34619,"is_reserved":false,"is_disabled":true,"rental_uris":{"android":"levelo://app?vid=0b0fd9d5-73fe-4f19-8503-61f010db8594","ios":"levelo://app?vid=0b0fd9d5-73fe-4f19-8503-61f010db8594"},"vehicle_type_id":"4","last_reported":1750508312,"current_range_meters":0,"station_id":"st_cvj6r9ubvosntc0bgbag","pricing_plan_id":"cebpf4jnsgd1na2vs0mg"},{"bike_id":"bd0e3dcf-86bd-49e6-82f4-643dc229f570","system_id":"levelo_inurba_marseille","lat":43.21746,"lon":5.34591,"is_reserved":false,"is_disabled":true,"rental_uris":{"android":"levelo://app?vid=bd0e3dcf-86bd-49e6-82f4-643dc229f570","ios":"levelo://app?vid=bd0e3dcf-86bd-49e6-82f4-643dc229f570"},"vehicle_type_id":"4","last_reported":1750508312,"current_range_meters":0,"station_id":"st_cvj6r9ubvosntc0bgbag","pricing_plan_id":"cebpf4jnsgd1na2vs0mg"},{"bike_id":"ab9ebe50-6c2e-44ca-bb3c-0c48ea184be5","system_id":"levelo_inurba_marseille","lat":43.224989,"lon":5.347896,"is_reserved":false,"is_disabled":true,"rental_uris":{"android":"levelo://app?vid=ab9ebe50-6c2e-44ca-bb3c-0c48ea184be5","ios":"levelo://app?vid=ab9ebe50-6c2e-44ca-bb3c-0c48ea184be5"},"vehicle_type_id":"4","last_reported":1750508312,"current_range_meters":400,"station_id":"","pricing_plan_id":"cebpf4jnsgd1na2vs0mg"},{"bike_id":"a8315c18-574e-4aa9-b81b-8a92eadf75d6","system_id":"levelo_inurba_marseille","lat":43.301248,"lon":5.380022,"is_reserved":false,"is_disabled":true,"rental_uris":{"android":"levelo://app?vid=a8315c18-574e-4aa9-b81b-8a92eadf75d6","ios":"levelo://app?vid=a8315c18-574e-4aa9-b81b-8a92eadf75d6"},"vehicle_type_id":"4","last_reported":1750508312,"current_range_meters":400,"station_id":"","pricing_plan_id":"cebpf4jnsgd1na2vs0mg"},{"bike_id":"a5e5cd78-6878-4f4d-9d04-2bf2731afdab","system_id":"levelo_inurba_marseille","lat":43.29275,"lon":5.38443,"is_reserved":false,"is_disabled":true,"rental_uris":{"android":"levelo://app?vid=a5e5cd78-6878-4f4d-9d04-2bf2731afdab","ios":"levelo://app?vid=a5e5cd78-6878-4f4d-9d04-2bf2731afdab"},"vehicle_type_id":"4","last_reported":1750508312,"current_range_meters":400,"station_id":"ce4bh692rcd13ifvqea0","pricing_plan_id":"cebpf4jnsgd1na2vs0mg"},{"bike_id":"8dec4b6f-db74-4de4-b5a4-c1a59bcfd4bc","system_id":"levelo_inurba_marseille","lat":43.29267,"lon":5.36848,"is_reserved":false,"is_disabled":true,"rental_uris":{"android":"levelo://app?vid=8dec4b6f-db74-4de4-b5a4-c1a59bcfd4bc","ios":"levelo://app?vid=8dec4b6f-db74-4de4-b5a4-c1a59bcfd4bc"},"vehicle_type_id":"4","last_reported":1750508312,"current_range_meters":400,"station_id":"ce4bhbp2rcd13ifvqesg","pricing_plan_id":"cebpf4jnsgd1na2vs0mg"},{"bike_id":"0a236638-772d-44f0-a89a-0614c054554b","system_id":"levelo_inurba_marseille","lat":43.272058,"lon":5.391804,"is_reserved":false,"is_disabled":true,"rental_uris":{"android":"levelo://app?vid=0a236638-772d-44f0-a89a-0614c054554b","ios":"levelo://app?vid=0a236638-772d-44f0-a89a-0614c054554b"},"vehicle_type_id":"4","last_reported":1750508312,"current_range_meters":400,"station_id":"ce4bhhp2rcd13ifvqfm0","pricing_plan_id":"cebpf4jnsgd1na2vs0mg"},{"bike_id":"156717d9-5d82-4226-a389-e52555e7069b","system_id":"levelo_inurba_marseille","lat":43.306164,"lon":5.376333,"is_reserved":false,"is_disabled":true,"rental_uris":{"android":"levelo://app?vid=156717d9-5d82-4226-a389-e52555e7069b","ios":"levelo://app?vid=156717d9-5d82-4226-a389-e52555e7069b"},"vehicle_type_id":"4","last_reported":1750508312,"current_range_meters":800,"station_id":"","pricing_plan_id":"cebpf4jnsgd1na2vs0mg"},{"bike_id":"a72e051f-53ff-4dcc-acc2-50aef44075c5","system_id":"levelo_inurba_marseille","lat":43.29223,"lon":5.36065,"is_reserved":false,"is_disabled":true,"rental_uris":{"android":"levelo://app?vid=a72e051f-53ff-4dcc-acc2-50aef44075c5","ios":"levelo://app?vid=a72e051f-53ff-4dcc-acc2-50aef44075c5"},"vehicle_type_id":"4","last_reported":1750508312,"current_range_meters":800,"station_id":"ce4bhbh2rcd13ifvqeqg","pricing_plan_id":"cebpf4jnsgd1na2vs0mg"},{"bike_id":"baa2dd37-e48c-4250-8e62-f78ff9ceea7a","system_id":"levelo_inurba_marseille","lat":43.24997,"lon":5.38928,"is_reserved":false,"is_disabled":true,"rental_uris":{"android":"levelo://app?vid=baa2dd37-e48c-4250-8e62-f78ff9ceea7a","ios":"levelo://app?vid=baa2dd37-e48c-4250-8e62-f78ff9ceea7a"},"vehicle_type_id":"4","last_reported":1750508312,"current_range_meters":800,"station_id":"ce4bhgp2rcd13ifvqfd0","pricing_plan_id":"cebpf4jnsgd1na2vs0mg"},{"bike_id":"fb90f752-6bae-4fbc-9bae-c2850b0a08b5","system_id":"levelo_inurba_marseille","lat":43.26569,"lon":5.3901,"is_reserved":false,"is_disabled":true,"rental_uris":{"android":"levelo://app?vid=fb90f752-6bae-4fbc-9bae-c2850b0a08b5","ios":"levelo://app?vid=fb90f752-6bae-4fbc-9bae-c2850b0a08b5"},"vehicle_type_id":"4","last_reported":1750508312,"current_range_meters":1200,"station_id":"ce4bhe12rcd13ifvqf30","pricing_plan_id":"cebpf4jnsgd1na2vs0mg"},{"bike_id":"05e51855-0442-479b-98e5-ba9c6499bab0","system_id":"levelo_inurba_marseille","lat":43.23159,"lon":5.43706,"is_reserved":false,"is_disabled":true,"rental_uris":{"android":"levelo://app?vid=05e51855-0442-479b-98e5-ba9c6499bab0","ios":"levelo://app?vid=05e51855-0442-479b-98e5-ba9c6499bab0"},"vehicle_type_id":"4","last_reported":1750508312,"current_range_meters":1200,"station_id":"ce4bhmp2rcd13ifvqgog","pricing_plan_id":"cebpf4jnsgd1na2vs0mg"},{"bike_id":"efb8bd21-2026-4e81-bebe-a5ae01412d9b","system_id":"levelo_inurba_marseille","lat":43.21744,"lon":5.34606,"is_reserved":false,"is_disabled":true,"rental_uris":{"android":"levelo://app?vid=efb8bd21-2026-4e81-bebe-a5ae01412d9b","ios":"levelo://app?vid=efb8bd21-2026-4e81-bebe-a5ae01412d9b"},"vehicle_type_id":"4","last_reported":1750508312,"current_range_meters":1200,"station_id":"st_cvj6r9ubvosntc0bgbag","pricing_plan_id":"cebpf4jnsgd1na2vs0mg"},{"bike_id":"03dbe3f7-0c88-46d1-b106-8b7ad8c4762f","system_id":"levelo_inurba_marseille","lat":43.21752,"lon":5.34594,"is_reserved":false,"is_disabled":true,"rental_uris":{"android":"levelo://app?vid=03dbe3f7-0c88-46d1-b106-8b7ad8c4762f","ios":"levelo://app?vid=03dbe3f7-0c88-46d1-b106-8b7ad8c4762f"},"vehicle_type_id":"4","last_reported":1750508312,"current_range_meters":1200,"station_id":"st_cvj6r9ubvosntc0bgbag","pricing_plan_id":"cebpf4jnsgd1na2vs0mg"},{"bike_id":"fd68aeeb-ba8d-4a24-a1d3-4e77e1585d44","system_id":"levelo_inurba_marseille","lat":43.29613,"lon":5.37693,"is_reserved":false,"is_disabled":true,"rental_uris":{"android":"levelo://app?vid=fd68aeeb-ba8d-4a24-a1d3-4e77e1585d44","ios":"levelo://app?vid=fd68aeeb-ba8d-4a24-a1d3-4e77e1585d44"},"vehicle_type_id":"4","last_reported":1750508312,"current_range_meters":1600,"station_id":"ce4bgi92rcd13ifvqb90","pricing_plan_id":"cebpf4jnsgd1na2vs0mg"},{"bike_id":"61807267-1993-4b5c-b259-8a0b18099bcc","system_id":"levelo_inurba_marseille","lat":43.2968,"lon":5.37305,"is_reserved":false,"is_disabled":true,"rental_uris":{"android":"levelo://app?vid=61807267-1993-4b5c-b259-8a0b18099bcc","ios":"levelo://app?vid=61807267-1993-4b5c-b259-8a0b18099bcc"},"vehicle_type_id":"4","last_reported":1750508312,"current_range_meters":1600,"station_id":"ce4bgk12rcd13ifvqbj0","pricing_plan_id":"cebpf4jnsgd1na2vs0mg"},{"bike_id":"43b41881-66b4-4432-841b-c854f94af5ec","system_id":"levelo_inurba_marseille","lat":43.30938,"lon":5.3903,"is_reserved":false,"is_disabled":true,"rental_uris":{"android":"levelo://app?vid=43b41881-66b4-4432-841b-c854f94af5ec","ios":"levelo://app?vid=43b41881-66b4-4432-841b-c854f94af5ec"},"vehicle_type_id":"4","last_reported":1750508312,"current_range_meters":1600,"station_id":"ce4bgup2rcd13ifvqco0","pricing_plan_id":"cebpf4jnsgd1na2vs0mg"},{"bike_id":"4d843226-25b9-4f7c-99ed-6bffd35fd9f5","system_id":"levelo_inurba_marseille","lat":43.28477,"lon":5.38573,"is_reserved":false,"is_disabled":true,"rental_uris":{"android":"levelo://app?vid=4d843226-25b9-4f7c-99ed-6bffd35fd9f5","ios":"levelo://app?vid=4d843226-25b9-4f7c-99ed-6bffd35fd9f5"},"vehicle_type_id":"4","last_reported":1750508312,"current_range_meters":1600,"station_id":"ce4bh8p2rcd13ifvqeb0","pricing_plan_id":"cebpf4jnsgd1na2vs0mg"},{"bike_id":"0386eebb-7f0e-49db-a232-66f97d2e8307","system_id":"levelo_inurba_marseille","lat":43.2549,"lon":5.37647,"is_reserved":false,"is_disabled":true,"rental_uris":{"android":"levelo://app?vid=0386eebb-7f0e-49db-a232-66f97d2e8307","ios":"levelo://app?vid=0386eebb-7f0e-49db-a232-66f97d2e8307"},"vehicle_type_id":"4","last_reported":1750508312,"current_range_meters":1600,"station_id":"ce4bhh12rcd13ifvqff0","pricing_plan_id":"cebpf4jnsgd1na2vs0mg"},{"bike_id":"7ca52bfa-6cda-4171-b806-f7e257c8d3dd","system_id":"levelo_inurba_marseille","lat":43.217405,"lon":5.34604,"is_reserved":false,"is_disabled":true,"rental_uris":{"android":"levelo://app?vid=7ca52bfa-6cda-4171-b806-f7e257c8d3dd","ios":"levelo://app?vid=7ca52bfa-6cda-4171-b806-f7e257c8d3dd"},"vehicle_type_id":"4","last_reported":1750508312,"current_range_meters":1600,"station_id":"st_cvj6r9ubvosntc0bgbag","pricing_plan_id":"cebpf4jnsgd1na2vs0mg"},{"bike_id":"44de59e2-f5fa-4200-8ea7-2818d7f993d4","system_id":"levelo_inurba_marseille","lat":43.30526,"lon":5.36516,"is_reserved":false,"is_disabled":true,"rental_uris":{"android":"levelo://app?vid=44de59e2-f5fa-4200-8ea7-2818d7f993d4","ios":"levelo://app?vid=44de59e2-f5fa-4200-8ea7-2818d7f993d4"},"vehicle_type_id":"4","last_reported":1750508312,"current_range_meters":2000,"station_id":"ce4bgs12rcd13ifvqcag","pricing_plan_id":"cebpf4jnsgd1na2vs0mg"},{"bike_id":"aff2258e-97a5-4505-a775-c896244db053","system_id":"levelo_inurba_marseille","lat":43.286072,"lon":5.351053,"is_reserved":false,"is_disabled":true,"rental_uris":{"android":"levelo://app?vid=aff2258e-97a5-4505-a775-c896244db053","ios":"levelo://app?vid=aff2258e-97a5-4505-a775-c896244db053"},"vehicle_type_id":"4","last_reported":1750508312,"current_range_meters":2000,"station_id":"ce4bhch2rcd13ifvqeug","pricing_plan_id":"cebpf4jnsgd1na2vs0mg"},{"bike_id":"ad855103-c685-4b63-8c5b-60f76a7b4504","system_id":"levelo_inurba_marseille","lat":43.2396,"lon":5.36633,"is_reserved":false,"is_disabled":true,"rental_uris":{"android":"levelo://app?vid=ad855103-c685-4b63-8c5b-60f76a7b4504","ios":"levelo://app?vid=ad855103-c685-4b63-8c5b-60f76a7b4504"},"vehicle_type_id":"4","last_reported":1750508312,"current_range_meters":2000,"station_id":"ce4bhi12rcd13ifvqfp0","pricing_plan_id":"cebpf4jnsgd1na2vs0mg"},{"bike_id":"7eca31db-4d80-4191-93a7-22990395135d","system_id":"levelo_inurba_marseille","lat":43.25831,"lon":5.39435,"is_reserved":false,"is_disabled":true,"rental_uris":{"android":"levelo://app?vid=7eca31db-4d80-4191-93a7-22990395135d","ios":"levelo://app?vid=7eca31db-4d80-4191-93a7-22990395135d"},"vehicle_type_id":"4","last_reported":1750508312,"current_range_meters":2000,"station_id":"ce4bhip2rcd13ifvqft0","pricing_plan_id":"cebpf4jnsgd1na2vs0mg"},{"bike_id":"24d3d583-96bf-4b2a-8a83-8740ef0d58b4","system_id":"levelo_inurba_marseille","lat":43.23183,"lon":5.39978,"is_reserved":false,"is_disabled":true,"rental_uris":{"android":"levelo://app?vid=24d3d583-96bf-4b2a-8a83-8740ef0d58b4","ios":"levelo://app?vid=24d3d583-96bf-4b2a-8a83-8740ef0d58b4"},"vehicle_type_id":"4","last_reported":1750508312,"current_range_meters":2000,"station_id":"ce4bhn12rcd13ifvqgqg","pricing_plan_id":"cebpf4jnsgd1na2vs0mg"},{"bike_id":"47bd8ffb-1e68-40e5-9415-0fb40169fc2a","system_id":"levelo_inurba_marseille","lat":43.21759,"lon":5.34587,"is_reserved":false,"is_disabled":true,"rental_uris":{"android":"levelo://app?vid=47bd8ffb-1e68-40e5-9415-0fb40169fc2a","ios":"levelo://app?vid=47bd8ffb-1e68-40e5-9415-0fb40169fc2a"},"vehicle_type_id":"4","last_reported":1750508312,"current_range_meters":2000,"station_id":"st_cvj6r9ubvosntc0bgbag","pricing_plan_id":"cebpf4jnsgd1na2vs0mg"},{"bike_id":"282ec8cc-c0c3-4f99-bfba-63208a1e49d4","system_id":"levelo_inurba_marseille","lat":43.28611,"lon":5.35109,"is_reserved":false,"is_disabled":false,"rental_uris":{"android":"levelo://app?vid=282ec8cc-c0c3-4f99-bfba-63208a1e49d4","ios":"levelo://app?vid=282ec8cc-c0c3-4f99-bfba-63208a1e49d4"},"vehicle_type_id":"4","last_reported":1750508312,"current_range_meters":2800,"station_id":"ce4bhch2rcd13ifvqeug","pricing_plan_id":"cebpf4jnsgd1na2vs0mg"},{"bike_id":"df735c88-ae0a-4f8e-9723-d29eb27d80b9","system_id":"levelo_inurba_marseille","lat":43.299154,"lon":5.376231,"is_reserved":false,"is_disabled":false,"rental_uris":{"android":"levelo://app?vid=df735c88-ae0a-4f8e-9723-d29eb27d80b9","ios":"levelo://app?vid=df735c88-ae0a-4f8e-9723-d29eb27d80b9"},"vehicle_type_id":"4","last_reported":1750508312,"current_range_meters":3200,"station_id":"","pricing_plan_id":"cebpf4jnsgd1na2vs0mg"},{"bike_id":"e8b2899a-4211-4f31-b803-6ec5b4d26202","system_id":"levelo_inurba_marseille","lat":43.27595,"lon":5.39671,"is_reserved":false,"is_disabled":false,"rental_uris":{"android":"levelo://app?vid=e8b2899a-4211-4f31-b803-6ec5b4d26202","ios":"levelo://app?vid=e8b2899a-4211-4f31-b803-6ec5b4d26202"},"vehicle_type_id":"4","last_reported":1750508312,"current_range_meters":3200,"station_id":"","pricing_plan_id":"cebpf4jnsgd1na2vs0mg"},{"bike_id":"dd45b830-666c-4c76-b06e-9938bffa2cad","system_id":"levelo_inurba_marseille","lat":43.31978,"lon":5.37535,"is_reserved":false,"is_disabled":false,"rental_uris":{"android":"levelo://app?vid=dd45b830-666c-4c76-b06e-9938bffa2cad","ios":"levelo://app?vid=dd45b830-666c-4c76-b06e-9938bffa2cad"},"vehicle_type_id":"4","last_reported":1750508312,"current_range_meters":3600,"station_id":"","pricing_plan_id":"cebpf4jnsgd1na2vs0mg"},{"bike_id":"fbba978a-ddb7-4054-b4bc-e7546a0e342c","system_id":"levelo_inurba_marseille","lat":43.29191,"lon":5.35807,"is_reserved":false,"is_disabled":false,"rental_uris":{"android":"levelo://app?vid=fbba978a-ddb7-4054-b4bc-e7546a0e342c","ios":"levelo://app?vid=fbba978a-ddb7-4054-b4bc-e7546a0e342c"},"vehicle_type_id":"4","last_reported":1750508312,"current_range_meters":3600,"station_id":"ce4bhb12rcd13ifvqel0","pricing_plan_id":"cebpf4jnsgd1na2vs0mg"},{"bike_id":"78d01020-9abc-40d3-b129-403b4d01e9b7","system_id":"levelo_inurba_marseille","lat":43.26568,"lon":5.39015,"is_reserved":false,"is_disabled":false,"rental_uris":{"android":"levelo://app?vid=78d01020-9abc-40d3-b129-403b4d01e9b7","ios":"levelo://app?vid=78d01020-9abc-40d3-b129-403b4d01e9b7"},"vehicle_type_id":"4","last_reported":1750508312,"current_range_meters":3600,"station_id":"ce4bhe12rcd13ifvqf30","pricing_plan_id":"cebpf4jnsgd1na2vs0mg"},{"bike_id":"a9b23212-b22e-484a-99c6-8918a74098c3","system_id":"levelo_inurba_marseille","lat":43.23155,"lon":5.43726,"is_reserved":false,"is_disabled":false,"rental_uris":{"android":"levelo://app?vid=a9b23212-b22e-484a-99c6-8918a74098c3","ios":"levelo://app?vid=a9b23212-b22e-484a-99c6-8918a74098c3"},"vehicle_type_id":"4","last_reported":1750508312,"current_range_meters":3600,"station_id":"ce4bhmp2rcd13ifvqgog","pricing_plan_id":"cebpf4jnsgd1na2vs0mg"},{"bike_id":"bc833dd8-cdc3-42f5-94e5-c577b166447e","system_id":"levelo_inurba_marseille","lat":43.31698,"lon":5.40465,"is_reserved":false,"is_disabled":false,"rental_uris":{"android":"levelo://app?vid=bc833dd8-cdc3-42f5-94e5-c577b166447e","ios":"levelo://app?vid=bc833dd8-cdc3-42f5-94e5-c577b166447e"},"vehicle_type_id":"4","last_reported":1750508312,"current_range_meters":4000,"station_id":"ce4bh012rcd13ifvqd00","pricing_plan_id":"cebpf4jnsgd1na2vs0mg"},{"bike_id":"7bbb61ef-6a2c-4792-8977-690cab390e1a","system_id":"levelo_inurba_marseille","lat":43.2846,"lon":5.35899,"is_reserved":false,"is_disabled":false,"rental_uris":{"android":"levelo://app?vid=7bbb61ef-6a2c-4792-8977-690cab390e1a","ios":"levelo://app?vid=7bbb61ef-6a2c-4792-8977-690cab390e1a"},"vehicle_type_id":"4","last_reported":1750508312,"current_range_meters":4000,"station_id":"ce4bhah2rcd13ifvqei0","pricing_plan_id":"cebpf4jnsgd1na2vs0mg"},{"bike_id":"f025e0b0-8595-426c-b214-cb9b74c5fcfd","system_id":"levelo_inurba_marseille","lat":43.3218,"lon":5.40556,"is_reserved":false,"is_disabled":false,"rental_uris":{"android":"levelo://app?vid=f025e0b0-8595-426c-b214-cb9b74c5fcfd","ios":"levelo://app?vid=f025e0b0-8595-426c-b214-cb9b74c5fcfd"},"vehicle_type_id":"4","last_reported":1750508312,"current_range_meters":4400,"station_id":"","pricing_plan_id":"cebpf4jnsgd1na2vs0mg"},{"bike_id":"07bf6f54-c822-49c8-9fef-344d5922155b","system_id":"levelo_inurba_marseille","lat":43.28276,"lon":5.35085,"is_reserved":false,"is_disabled":false,"rental_uris":{"android":"levelo://app?vid=07bf6f54-c822-49c8-9fef-344d5922155b","ios":"levelo://app?vid=07bf6f54-c822-49c8-9fef-344d5922155b"},"vehicle_type_id":"4","last_reported":1750508312,"current_range_meters":4400,"station_id":"ce4bhbp2rcd13ifvqerg","pricing_plan_id":"cebpf4jnsgd1na2vs0mg"},{"bike_id":"99ddbc18-952f-41ac-a11d-d7b025def906","system_id":"levelo_inurba_marseille","lat":43.2439,"lon":5.37065,"is_reserved":false,"is_disabled":false,"rental_uris":{"android":"levelo://app?vid=99ddbc18-952f-41ac-a11d-d7b025def906","ios":"levelo://app?vid=99ddbc18-952f-41ac-a11d-d7b025def906"},"vehicle_type_id":"4","last_reported":1750508312,"current_range_meters":4400,"station_id":"ce4bhhh2rcd13ifvqfk0","pricing_plan_id":"cebpf4jnsgd1na2vs0mg"},{"bike_id":"0ae0a5e2-4172-42fc-b67e-dcb70ad4d289","system_id":"levelo_inurba_marseille","lat":43.26745,"lon":5.42214,"is_reserved":false,"is_disabled":false,"rental_uris":{"android":"levelo://app?vid=0ae0a5e2-4172-42fc-b67e-dcb70ad4d289","ios":"levelo://app?vid=0ae0a5e2-4172-42fc-b67e-dcb70ad4d289"},"vehicle_type_id":"4","last_reported":1750508312,"current_range_meters":4800,"station_id":"","pricing_plan_id":"cebpf4jnsgd1na2vs0mg"},{"bike_id":"8e870832-76c7-4a23-80fe-7850ae503800","system_id":"levelo_inurba_marseille","lat":43.212677,"lon":5.353598,"is_reserved":false,"is_disabled":false,"rental_uris":{"android":"levelo://app?vid=8e870832-76c7-4a23-80fe-7850ae503800","ios":"levelo://app?vid=8e870832-76c7-4a23-80fe-7850ae503800"},"vehicle_type_id":"4","last_reported":1750508312,"current_range_meters":4800,"station_id":"","pricing_plan_id":"cebpf4jnsgd1na2vs0mg"},{"bike_id":"eb708a20-d1b9-4d97-9e32-c1ba7d416bea","system_id":"levelo_inurba_marseille","lat":43.22923,"lon":5.35383,"is_reserved":false,"is_disabled":false,"rental_uris":{"android":"levelo://app?vid=eb708a20-d1b9-4d97-9e32-c1ba7d416bea","ios":"levelo://app?vid=eb708a20-d1b9-4d97-9e32-c1ba7d416bea"},"vehicle_type_id":"4","last_reported":1750508312,"current_range_meters":4800,"station_id":"","pricing_plan_id":"cebpf4jnsgd1na2vs0mg"},{"bike_id":"ab4bc3ab-8c06-42d5-8b7f-d6e8c9000f18","system_id":"levelo_inurba_marseille","lat":43.29534,"lon":5.39025,"is_reserved":false,"is_disabled":false,"rental_uris":{"android":"levelo://app?vid=ab4bc3ab-8c06-42d5-8b7f-d6e8c9000f18","ios":"levelo://app?vid=ab4bc3ab-8c06-42d5-8b7f-d6e8c9000f18"},"vehicle_type_id":"4","last_reported":1750508312,"current_range_meters":4800,"station_id":"ce4bh3p2rcd13ifvqdp0","pricing_plan_id":"cebpf4jnsgd1na2vs0mg"},{"bike_id":"a7f29e29-fc65-4d64-9a4e-5635d85c32dc","system_id":"levelo_inurba_marseille","lat":43.24176,"lon":5.36416,"is_reserved":false,"is_disabled":false,"rental_uris":{"android":"levelo://app?vid=a7f29e29-fc65-4d64-9a4e-5635d85c32dc","ios":"levelo://app?vid=a7f29e29-fc65-4d64-9a4e-5635d85c32dc"},"vehicle_type_id":"4","last_reported":1750508312,"current_range_meters":4800,"station_id":"cpo36qri1sfpv3e86is0","pricing_plan_id":"cebpf4jnsgd1na2vs0mg"},{"bike_id":"170f229b-0e45-4ce1-9102-98e2cdbef60f","system_id":"levelo_inurba_marseille","lat":43.29934,"lon":5.36556,"is_reserved":false,"is_disabled":false,"rental_uris":{"android":"levelo://app?vid=170f229b-0e45-4ce1-9102-98e2cdbef60f","ios":"levelo://app?vid=170f229b-0e45-4ce1-9102-98e2cdbef60f"},"vehicle_type_id":"4","last_reported":1750508312,"current_range_meters":5600,"station_id":"ce4bgm92rcd13ifvqbr0","pricing_plan_id":"cebpf4jnsgd1na2vs0mg"},{"bike_id":"d5d5163d-4f88-4dbd-8d9d-b7d701e74a21","system_id":"levelo_inurba_marseille","lat":43.30786,"lon":5.3816,"is_reserved":false,"is_disabled":false,"rental_uris":{"android":"levelo://app?vid=d5d5163d-4f88-4dbd-8d9d-b7d701e74a21","ios":"levelo://app?vid=d5d5163d-4f88-4dbd-8d9d-b7d701e74a21"},"vehicle_type_id":"4","last_reported":1750508312,"current_range_meters":6000,"station_id":"ce4bgt12rcd13ifvqce0","pricing_plan_id":"cebpf4jnsgd1na2vs0mg"},{"bike_id":"8d4e77ae-b096-4147-916f-ce8bf04aba50","system_id":"levelo_inurba_marseille","lat":43.28982,"lon":5.37829,"is_reserved":false,"is_disabled":false,"rental_uris":{"android":"levelo://app?vid=8d4e77ae-b096-4147-916f-ce8bf04aba50","ios":"levelo://app?vid=8d4e77ae-b096-4147-916f-ce8bf04aba50"},"vehicle_type_id":"4","last_reported":1750508312,"current_range_meters":6000,"station_id":"ce4bh9p2rcd13ifvqed0","pricing_plan_id":"cebpf4jnsgd1na2vs0mg"},{"bike_id":"40c9bdbd-898d-4a40-9421-1e8b0caa04fb","system_id":"levelo_inurba_marseille","lat":43.26193,"lon":5.37451,"is_reserved":false,"is_disabled":false,"rental_uris":{"android":"levelo://app?vid=40c9bdbd-898d-4a40-9421-1e8b0caa04fb","ios":"levelo://app?vid=40c9bdbd-898d-4a40-9421-1e8b0caa04fb"},"vehicle_type_id":"4","last_reported":1750508312,"current_range_meters":6000,"station_id":"ce4bhgp2rcd13ifvqfc0","pricing_plan_id":"cebpf4jnsgd1na2vs0mg"},{"bike_id":"69a91f41-e73b-4aa5-8d5f-da3a71d52410","system_id":"levelo_inurba_marseille","lat":43.25118,"lon":5.40317,"is_reserved":false,"is_disabled":false,"rental_uris":{"android":"levelo://app?vid=69a91f41-e73b-4aa5-8d5f-da3a71d52410","ios":"levelo://app?vid=69a91f41-e73b-4aa5-8d5f-da3a71d52410"},"vehicle_type_id":"4","last_reported":1750508312,"current_range_meters":6000,"station_id":"ce4bhlh2rcd13ifvqgig","pricing_plan_id":"cebpf4jnsgd1na2vs0mg"},{"bike_id":"1af8cc20-b4be-40a0-952b-b9221d26e0d7","system_id":"levelo_inurba_marseille","lat":43.29858,"lon":5.37669,"is_reserved":false,"is_disabled":false,"rental_uris":{"android":"levelo://app?vid=1af8cc20-b4be-40a0-952b-b9221d26e0d7","ios":"levelo://app?vid=1af8cc20-b4be-40a0-952b-b9221d26e0d7"},"vehicle_type_id":"4","last_reported":1750508312,"current_range_meters":6400,"station_id":"","pricing_plan_id":"cebpf4jnsgd1na2vs0mg"},{"bike_id":"33893335-fbcb-43e3-9e2f-95cb467b1bcb","system_id":"levelo_inurba_marseille","lat":43.30622,"lon":5.3766,"is_reserved":false,"is_disabled":false,"rental_uris":{"android":"levelo://app?vid=33893335-fbcb-43e3-9e2f-95cb467b1bcb","ios":"levelo://app?vid=33893335-fbcb-43e3-9e2f-95cb467b1bcb"},"vehicle_type_id":"4","last_reported":1750508312,"current_range_meters":6400,"station_id":"","pricing_plan_id":"cebpf4jnsgd1na2vs0mg"},{"bike_id":"fbe532e7-2f52-46dc-822c-1466686be8c5","system_id":"levelo_inurba_marseille","lat":43.30064,"lon":5.40575,"is_reserved":false,"is_disabled":false,"rental_uris":{"android":"levelo://app?vid=fbe532e7-2f52-46dc-822c-1466686be8c5","ios":"levelo://app?vid=fbe532e7-2f52-46dc-822c-1466686be8c5"},"vehicle_type_id":"4","last_reported":1750508312,"current_range_meters":6400,"station_id":"","pricing_plan_id":"cebpf4jnsgd1na2vs0mg"},{"bike_id":"bb492d99-2c02-4bfb-b75d-2f0c75235133","system_id":"levelo_inurba_marseille","lat":43.255,"lon":5.37649,"is_reserved":false,"is_disabled":false,"rental_uris":{"android":"levelo://app?vid=bb492d99-2c02-4bfb-b75d-2f0c75235133","ios":"levelo://app?vid=bb492d99-2c02-4bfb-b75d-2f0c75235133"},"vehicle_type_id":"4","last_reported":1750508312,"current_range_meters":6400,"station_id":"ce4bhh12rcd13ifvqff0","pricing_plan_id":"cebpf4jnsgd1na2vs0mg"},{"bike_id":"1661bf45-5f66-42a0-973d-fe62f1255e4c","system_id":"levelo_inurba_marseille","lat":43.3171,"lon":5.4371,"is_reserved":false,"is_disabled":false,"rental_uris":{"android":"levelo://app?vid=1661bf45-5f66-42a0-973d-fe62f1255e4c","ios":"levelo://app?vid=1661bf45-5f66-42a0-973d-fe62f1255e4c"},"vehicle_type_id":"4","last_reported":1750508312,"current_range_meters":6400,"station_id":"ce4bhp92rcd13ifvqhcg","pricing_plan_id":"cebpf4jnsgd1na2vs0mg"},{"bike_id":"d0b40f1b-49d8-4f1c-9499-9535d8d6cec2","system_id":"levelo_inurba_marseille","lat":43.29796,"lon":5.38081,"is_reserved":false,"is_disabled":false,"rental_uris":{"android":"levelo://app?vid=d0b40f1b-49d8-4f1c-9499-9535d8d6cec2","ios":"levelo://app?vid=d0b40f1b-49d8-4f1c-9499-9535d8d6cec2"},"vehicle_type_id":"4","last_reported":1750508312,"current_range_meters":6800,"station_id":"ce4bgip2rcd13ifvqbb0","pricing_plan_id":"cebpf4jnsgd1na2vs0mg"},{"bike_id":"004d3ea5-a365-4432-9d19-9eeb931af4ac","system_id":"levelo_inurba_marseille","lat":43.28415,"lon":5.34995,"is_reserved":false,"is_disabled":false,"rental_uris":{"android":"levelo://app?vid=004d3ea5-a365-4432-9d19-9eeb931af4ac","ios":"levelo://app?vid=004d3ea5-a365-4432-9d19-9eeb931af4ac"},"vehicle_type_id":"4","last_reported":1750508312,"current_range_meters":6800,"station_id":"ce4bhbh2rcd13ifvqepg","pricing_plan_id":"cebpf4jnsgd1na2vs0mg"},{"bike_id":"bd53c7a4-6a40-4a54-bdac-e609f4101448","system_id":"levelo_inurba_marseille","lat":43.26059,"lon":5.3939,"is_reserved":false,"is_disabled":false,"rental_uris":{"android":"levelo://app?vid=bd53c7a4-6a40-4a54-bdac-e609f4101448","ios":"levelo://app?vid=bd53c7a4-6a40-4a54-bdac-e609f4101448"},"vehicle_type_id":"4","last_reported":1750508312,"current_range_meters":6800,"station_id":"ce4bhh92rcd13ifvqfj0","pricing_plan_id":"cebpf4jnsgd1na2vs0mg"},{"bike_id":"c1b27eab-e688-4c30-a9f7-dbcf3faf01d6","system_id":"levelo_inurba_marseille","lat":43.260557,"lon":5.393974,"is_reserved":false,"is_disabled":false,"rental_uris":{"android":"levelo://app?vid=c1b27eab-e688-4c30-a9f7-dbcf3faf01d6","ios":"levelo://app?vid=c1b27eab-e688-4c30-a9f7-dbcf3faf01d6"},"vehicle_type_id":"4","last_reported":1750508312,"current_range_meters":7200,"station_id":"ce4bhh92rcd13ifvqfj0","pricing_plan_id":"cebpf4jnsgd1na2vs0mg"},{"bike_id":"0a1f0dd5-fe00-4775-953f-b96d70fb5442","system_id":"levelo_inurba_marseille","lat":43.34137,"lon":5.40906,"is_reserved":false,"is_disabled":false,"rental_uris":{"android":"levelo://app?vid=0a1f0dd5-fe00-4775-953f-b96d70fb5442","ios":"levelo://app?vid=0a1f0dd5-fe00-4775-953f-b96d70fb5442"},"vehicle_type_id":"4","last_reported":1750508312,"current_range_meters":7200,"station_id":"ce4bhqh2rcd13ifvqhlg","pricing_plan_id":"cebpf4jnsgd1na2vs0mg"},{"bike_id":"d927026b-73bb-4a78-96a5-8b901c90fcfa","system_id":"levelo_inurba_marseille","lat":43.23188,"lon":5.35549,"is_reserved":false,"is_disabled":false,"rental_uris":{"android":"levelo://app?vid=d927026b-73bb-4a78-96a5-8b901c90fcfa","ios":"levelo://app?vid=d927026b-73bb-4a78-96a5-8b901c90fcfa"},"vehicle_type_id":"4","last_reported":1750508312,"current_range_meters":7200,"station_id":"ce4bhu92rcd13ifvqi70","pricing_plan_id":"cebpf4jnsgd1na2vs0mg"},{"bike_id":"50fa9ad3-c289-4c44-be95-948df72533e4","system_id":"levelo_inurba_marseille","lat":43.26291,"lon":5.37639,"is_reserved":false,"is_disabled":false,"rental_uris":{"android":"levelo://app?vid=50fa9ad3-c289-4c44-be95-948df72533e4","ios":"levelo://app?vid=50fa9ad3-c289-4c44-be95-948df72533e4"},"vehicle_type_id":"4","last_reported":1750508312,"current_range_meters":8000,"station_id":"","pricing_plan_id":"cebpf4jnsgd1na2vs0mg"},{"bike_id":"c9ff68e3-635c-4689-8da3-eae101236feb","system_id":"levelo_inurba_marseille","lat":43.29561,"lon":5.37527,"is_reserved":false,"is_disabled":false,"rental_uris":{"android":"levelo://app?vid=c9ff68e3-635c-4689-8da3-eae101236feb","ios":"levelo://app?vid=c9ff68e3-635c-4689-8da3-eae101236feb"},"vehicle_type_id":"4","last_reported":1750508312,"current_range_meters":8000,"station_id":"ce4bgh92rcd13ifvqb50","pricing_plan_id":"cebpf4jnsgd1na2vs0mg"},{"bike_id":"44a531c2-4b9d-4dfa-a30f-3f8381ca90a1","system_id":"levelo_inurba_marseille","lat":43.30942,"lon":5.39029,"is_reserved":false,"is_disabled":false,"rental_uris":{"android":"levelo://app?vid=44a531c2-4b9d-4dfa-a30f-3f8381ca90a1","ios":"levelo://app?vid=44a531c2-4b9d-4dfa-a30f-3f8381ca90a1"},"vehicle_type_id":"4","last_reported":1750508312,"current_range_meters":8000,"station_id":"ce4bgup2rcd13ifvqco0","pricing_plan_id":"cebpf4jnsgd1na2vs0mg"},{"bike_id":"3958d908-8647-46fd-bb09-e7046e869501","system_id":"levelo_inurba_marseille","lat":43.28697,"lon":5.37383,"is_reserved":false,"is_disabled":false,"rental_uris":{"android":"levelo://app?vid=3958d908-8647-46fd-bb09-e7046e869501","ios":"levelo://app?vid=3958d908-8647-46fd-bb09-e7046e869501"},"vehicle_type_id":"4","last_reported":1750508312,"current_range_meters":8000,"station_id":"ce4bh3p2rcd13ifvqdq0","pricing_plan_id":"cebpf4jnsgd1na2vs0mg"},{"bike_id":"c75510ba-7079-4043-b394-35a6cfdf6445","system_id":"levelo_inurba_marseille","lat":43.29033,"lon":5.38643,"is_reserved":false,"is_disabled":false,"rental_uris":{"android":"levelo://app?vid=c75510ba-7079-4043-b394-35a6cfdf6445","ios":"levelo://app?vid=c75510ba-7079-4043-b394-35a6cfdf6445"},"vehicle_type_id":"4","last_reported":1750508312,"current_range_meters":8000,"station_id":"ce4bh4p2rcd13ifvqe0g","pricing_plan_id":"cebpf4jnsgd1na2vs0mg"},{"bike_id":"f24ee3d8-89eb-4fe8-9a16-442c4b1aa2ac","system_id":"levelo_inurba_marseille","lat":43.289323,"lon":5.366377,"is_reserved":false,"is_disabled":false,"rental_uris":{"android":"levelo://app?vid=f24ee3d8-89eb-4fe8-9a16-442c4b1aa2ac","ios":"levelo://app?vid=f24ee3d8-89eb-4fe8-9a16-442c4b1aa2ac"},"vehicle_type_id":"4","last_reported":1750508312,"current_range_meters":8000,"station_id":"ce4bhap2rcd13ifvqek0","pricing_plan_id":"cebpf4jnsgd1na2vs0mg"},{"bike_id":"040977a8-13c0-45f8-878b-41dbebdc1a7e","system_id":"levelo_inurba_marseille","lat":43.298962,"lon":5.436588,"is_reserved":false,"is_disabled":false,"rental_uris":{"android":"levelo://app?vid=040977a8-13c0-45f8-878b-41dbebdc1a7e","ios":"levelo://app?vid=040977a8-13c0-45f8-878b-41dbebdc1a7e"},"vehicle_type_id":"4","last_reported":1750508312,"current_range_meters":8000,"station_id":"ce4bhpp2rcd13ifvqhfg","pricing_plan_id":"cebpf4jnsgd1na2vs0mg"},{"bike_id":"c595d0e1-c778-4abe-9c79-a9dd74f54e27","system_id":"levelo_inurba_marseille","lat":43.24484,"lon":5.37219,"is_reserved":false,"is_disabled":false,"rental_uris":{"android":"levelo://app?vid=c595d0e1-c778-4abe-9c79-a9dd74f54e27","ios":"levelo://app?vid=c595d0e1-c778-4abe-9c79-a9dd74f54e27"},"vehicle_type_id":"4","last_reported":1750508312,"current_range_meters":8400,"station_id":"","pricing_plan_id":"cebpf4jnsgd1na2vs0mg"},{"bike_id":"76c8d397-b66b-43fa-9efd-c37dfffde571","system_id":"levelo_inurba_marseille","lat":43.29793,"lon":5.38096,"is_reserved":false,"is_disabled":false,"rental_uris":{"android":"levelo://app?vid=76c8d397-b66b-43fa-9efd-c37dfffde571","ios":"levelo://app?vid=76c8d397-b66b-43fa-9efd-c37dfffde571"},"vehicle_type_id":"4","last_reported":1750508312,"current_range_meters":8400,"station_id":"ce4bgip2rcd13ifvqbb0","pricing_plan_id":"cebpf4jnsgd1na2vs0mg"},{"bike_id":"80b16a31-d6c9-44cc-a42f-34282dec412b","system_id":"levelo_inurba_marseille","lat":43.30327,"lon":5.40418,"is_reserved":false,"is_disabled":false,"rental_uris":{"android":"levelo://app?vid=80b16a31-d6c9-44cc-a42f-34282dec412b","ios":"levelo://app?vid=80b16a31-d6c9-44cc-a42f-34282dec412b"},"vehicle_type_id":"4","last_reported":1750508312,"current_range_meters":8400,"station_id":"ce4bh012rcd13ifvqd10","pricing_plan_id":"cebpf4jnsgd1na2vs0mg"},{"bike_id":"380de782-4701-4be7-af62-2e4faef02977","system_id":"levelo_inurba_marseille","lat":43.284222,"lon":5.349882,"is_reserved":false,"is_disabled":false,"rental_uris":{"android":"levelo://app?vid=380de782-4701-4be7-af62-2e4faef02977","ios":"levelo://app?vid=380de782-4701-4be7-af62-2e4faef02977"},"vehicle_type_id":"4","last_reported":1750508312,"current_range_meters":8400,"station_id":"ce4bhbh2rcd13ifvqepg","pricing_plan_id":"cebpf4jnsgd1na2vs0mg"},{"bike_id":"cc554f2f-8737-4971-881e-eff8120e96eb","system_id":"levelo_inurba_marseille","lat":43.323596,"lon":5.367562,"is_reserved":false,"is_disabled":false,"rental_uris":{"android":"levelo://app?vid=cc554f2f-8737-4971-881e-eff8120e96eb","ios":"levelo://app?vid=cc554f2f-8737-4971-881e-eff8120e96eb"},"vehicle_type_id":"4","last_reported":1750508312,"current_range_meters":8400,"station_id":"ce4bhsh2rcd13ifvqi2g","pricing_plan_id":"cebpf4jnsgd1na2vs0mg"},{"bike_id":"9f07e339-7729-4263-a26e-0bb927800459","system_id":"levelo_inurba_marseille","lat":43.28307,"lon":5.35149,"is_reserved":false,"is_disabled":false,"rental_uris":{"android":"levelo://app?vid=9f07e339-7729-4263-a26e-0bb927800459","ios":"levelo://app?vid=9f07e339-7729-4263-a26e-0bb927800459"},"vehicle_type_id":"4","last_reported":1750508312,"current_range_meters":8800,"station_id":"","pricing_plan_id":"cebpf4jnsgd1na2vs0mg"},{"bike_id":"b50ed994-fd88-4dd1-8846-dc2bf2666662","system_id":"levelo_inurba_marseille","lat":43.30569,"lon":5.40106,"is_reserved":false,"is_disabled":false,"rental_uris":{"android":"levelo://app?vid=b50ed994-fd88-4dd1-8846-dc2bf2666662","ios":"levelo://app?vid=b50ed994-fd88-4dd1-8846-dc2bf2666662"},"vehicle_type_id":"4","last_reported":1750508312,"current_range_meters":8800,"station_id":"","pricing_plan_id":"cebpf4jnsgd1na2vs0mg"},{"bike_id":"8adc7b2b-72f7-45e6-bfef-2a559ef630a7","system_id":"levelo_inurba_marseille","lat":43.295174,"lon":5.374983,"is_reserved":false,"is_disabled":false,"rental_uris":{"android":"levelo://app?vid=8adc7b2b-72f7-45e6-bfef-2a559ef630a7","ios":"levelo://app?vid=8adc7b2b-72f7-45e6-bfef-2a559ef630a7"},"vehicle_type_id":"4","last_reported":1750508312,"current_range_meters":8800,"station_id":"ce4bgkp2rcd13ifvqbmg","pricing_plan_id":"cebpf4jnsgd1na2vs0mg"},{"bike_id":"a5922308-6e66-46da-9273-48e4e92965a5","system_id":"levelo_inurba_marseille","lat":43.337444,"lon":5.374475,"is_reserved":false,"is_disabled":false,"rental_uris":{"android":"levelo://app?vid=a5922308-6e66-46da-9273-48e4e92965a5","ios":"levelo://app?vid=a5922308-6e66-46da-9273-48e4e92965a5"},"vehicle_type_id":"4","last_reported":1750508312,"current_range_meters":8800,"station_id":"ce4bgvp2rcd13ifvqcu0","pricing_plan_id":"cebpf4jnsgd1na2vs0mg"},{"bike_id":"9a9ebd9b-e5a2-4f97-8810-4f291632a71e","system_id":"levelo_inurba_marseille","lat":43.2737,"lon":5.36256,"is_reserved":false,"is_disabled":false,"rental_uris":{"android":"levelo://app?vid=9a9ebd9b-e5a2-4f97-8810-4f291632a71e","ios":"levelo://app?vid=9a9ebd9b-e5a2-4f97-8810-4f291632a71e"},"vehicle_type_id":"4","last_reported":1750508312,"current_range_meters":8800,"station_id":"ce4bhbh2rcd13ifvqeo0","pricing_plan_id":"cebpf4jnsgd1na2vs0mg"},{"bike_id":"202522b4-099f-4524-8dc1-127f34476864","system_id":"levelo_inurba_marseille","lat":43.26194,"lon":5.37448,"is_reserved":false,"is_disabled":false,"rental_uris":{"android":"levelo://app?vid=202522b4-099f-4524-8dc1-127f34476864","ios":"levelo://app?vid=202522b4-099f-4524-8dc1-127f34476864"},"vehicle_type_id":"4","last_reported":1750508312,"current_range_meters":8800,"station_id":"ce4bhgp2rcd13ifvqfc0","pricing_plan_id":"cebpf4jnsgd1na2vs0mg"},{"bike_id":"bfb5813c-f2a6-4c90-8fc7-5ca0e4b24ddc","system_id":"levelo_inurba_marseille","lat":43.23146,"lon":5.43723,"is_reserved":false,"is_disabled":false,"rental_uris":{"android":"levelo://app?vid=bfb5813c-f2a6-4c90-8fc7-5ca0e4b24ddc","ios":"levelo://app?vid=bfb5813c-f2a6-4c90-8fc7-5ca0e4b24ddc"},"vehicle_type_id":"4","last_reported":1750508312,"current_range_meters":8800,"station_id":"ce4bhmp2rcd13ifvqgog","pricing_plan_id":"cebpf4jnsgd1na2vs0mg"},{"bike_id":"4f0042d4-6ea4-410d-85cf-d394572bf864","system_id":"levelo_inurba_marseille","lat":43.32033,"lon":5.41554,"is_reserved":false,"is_disabled":false,"rental_uris":{"android":"levelo://app?vid=4f0042d4-6ea4-410d-85cf-d394572bf864","ios":"levelo://app?vid=4f0042d4-6ea4-410d-85cf-d394572bf864"},"vehicle_type_id":"4","last_reported":1750508312,"current_range_meters":8800,"station_id":"ce4bhq92rcd13ifvqhkg","pricing_plan_id":"cebpf4jnsgd1na2vs0mg"},{"bike_id":"199c2831-e081-4bc0-9b94-19503817091d","system_id":"levelo_inurba_marseille","lat":43.248982,"lon":5.406647,"is_reserved":false,"is_disabled":false,"rental_uris":{"android":"levelo://app?vid=199c2831-e081-4bc0-9b94-19503817091d","ios":"levelo://app?vid=199c2831-e081-4bc0-9b94-19503817091d"},"vehicle_type_id":"4","last_reported":1750508312,"current_range_meters":9200,"station_id":"","pricing_plan_id":"cebpf4jnsgd1na2vs0mg"},{"bike_id":"972027ae-9c57-4b1f-8c1b-8f64c5cfe1b3","system_id":"levelo_inurba_marseille","lat":43.31327,"lon":5.39732,"is_reserved":false,"is_disabled":false,"rental_uris":{"android":"levelo://app?vid=972027ae-9c57-4b1f-8c1b-8f64c5cfe1b3","ios":"levelo://app?vid=972027ae-9c57-4b1f-8c1b-8f64c5cfe1b3"},"vehicle_type_id":"4","last_reported":1750508312,"current_range_meters":9200,"station_id":"ce4bgvp2rcd13ifvqcu0","pricing_plan_id":"cebpf4jnsgd1na2vs0mg"},{"bike_id":"45218258-c799-4b8f-af0b-c38d09b765f4","system_id":"levelo_inurba_marseille","lat":43.28717,"lon":5.36097,"is_reserved":false,"is_disabled":false,"rental_uris":{"android":"levelo://app?vid=45218258-c799-4b8f-af0b-c38d09b765f4","ios":"levelo://app?vid=45218258-c799-4b8f-af0b-c38d09b765f4"},"vehicle_type_id":"4","last_reported":1750508312,"current_range_meters":9200,"station_id":"cki0cbj6b192h4jlfktg","pricing_plan_id":"cebpf4jnsgd1na2vs0mg"},{"bike_id":"8290075e-df81-4143-b108-920019730ee1","system_id":"levelo_inurba_marseille","lat":43.26302,"lon":5.37651,"is_reserved":false,"is_disabled":false,"rental_uris":{"android":"levelo://app?vid=8290075e-df81-4143-b108-920019730ee1","ios":"levelo://app?vid=8290075e-df81-4143-b108-920019730ee1"},"vehicle_type_id":"4","last_reported":1750508312,"current_range_meters":9600,"station_id":"","pricing_plan_id":"cebpf4jnsgd1na2vs0mg"},{"bike_id":"80446519-e877-4809-9114-1064a19d50ec","system_id":"levelo_inurba_marseille","lat":43.28034,"lon":5.36947,"is_reserved":false,"is_disabled":false,"rental_uris":{"android":"levelo://app?vid=80446519-e877-4809-9114-1064a19d50ec","ios":"levelo://app?vid=80446519-e877-4809-9114-1064a19d50ec"},"vehicle_type_id":"4","last_reported":1750508312,"current_range_meters":9600,"station_id":"ce4bha12rcd13ifvqef0","pricing_plan_id":"cebpf4jnsgd1na2vs0mg"},{"bike_id":"98c1c211-b03a-41ea-bd65-4f0379d37105","system_id":"levelo_inurba_marseille","lat":43.27306,"lon":5.39086,"is_reserved":false,"is_disabled":false,"rental_uris":{"android":"levelo://app?vid=98c1c211-b03a-41ea-bd65-4f0379d37105","ios":"levelo://app?vid=98c1c211-b03a-41ea-bd65-4f0379d37105"},"vehicle_type_id":"4","last_reported":1750508312,"current_range_meters":9600,"station_id":"ce4bhgp2rcd13ifvqfe0","pricing_plan_id":"cebpf4jnsgd1na2vs0mg"},{"bike_id":"83e0933c-f1d4-42c9-8da5-8ac14b7076b7","system_id":"levelo_inurba_marseille","lat":43.25574,"lon":5.38231,"is_reserved":false,"is_disabled":false,"rental_uris":{"android":"levelo://app?vid=83e0933c-f1d4-42c9-8da5-8ac14b7076b7","ios":"levelo://app?vid=83e0933c-f1d4-42c9-8da5-8ac14b7076b7"},"vehicle_type_id":"4","last_reported":1750508312,"current_range_meters":9600,"station_id":"ce4bhih2rcd13ifvqfs0","pricing_plan_id":"cebpf4jnsgd1na2vs0mg"},{"bike_id":"1bc94c8e-1580-41a5-893f-320ea547c5af","system_id":"levelo_inurba_marseille","lat":43.211842,"lon":5.350614,"is_reserved":false,"is_disabled":false,"rental_uris":{"android":"levelo://app?vid=1bc94c8e-1580-41a5-893f-320ea547c5af","ios":"levelo://app?vid=1bc94c8e-1580-41a5-893f-320ea547c5af"},"vehicle_type_id":"4","last_reported":1750508312,"current_range_meters":9600,"station_id":"st_cvj6sg6p6f1abm77japg","pricing_plan_id":"cebpf4jnsgd1na2vs0mg"},{"bike_id":"8300812b-c3f4-4460-a462-0c10590e5460","system_id":"levelo_inurba_marseille","lat":43.329733,"lon":5.405501,"is_reserved":false,"is_disabled":false,"rental_uris":{"android":"levelo://app?vid=8300812b-c3f4-4460-a462-0c10590e5460","ios":"levelo://app?vid=8300812b-c3f4-4460-a462-0c10590e5460"},"vehicle_type_id":"4","last_reported":1750508312,"current_range_meters":10000,"station_id":"","pricing_plan_id":"cebpf4jnsgd1na2vs0mg"},{"bike_id":"a856b7c3-bd99-4b79-9040-3381374d773e","system_id":"levelo_inurba_marseille","lat":43.3094,"lon":5.39024,"is_reserved":false,"is_disabled":false,"rental_uris":{"android":"levelo://app?vid=a856b7c3-bd99-4b79-9040-3381374d773e","ios":"levelo://app?vid=a856b7c3-bd99-4b79-9040-3381374d773e"},"vehicle_type_id":"4","last_reported":1750508312,"current_range_meters":10000,"station_id":"ce4bgup2rcd13ifvqco0","pricing_plan_id":"cebpf4jnsgd1na2vs0mg"},{"bike_id":"0838e283-398f-49a2-9208-ba954d6e21da","system_id":"levelo_inurba_marseille","lat":43.2827,"lon":5.35065,"is_reserved":false,"is_disabled":false,"rental_uris":{"android":"levelo://app?vid=0838e283-398f-49a2-9208-ba954d6e21da","ios":"levelo://app?vid=0838e283-398f-49a2-9208-ba954d6e21da"},"vehicle_type_id":"4","last_reported":1750508312,"current_range_meters":10000,"station_id":"ce4bhbp2rcd13ifvqerg","pricing_plan_id":"cebpf4jnsgd1na2vs0mg"},{"bike_id":"8816d9ef-210a-4809-8185-dda0a3421e2c","system_id":"levelo_inurba_marseille","lat":43.25496,"lon":5.37645,"is_reserved":false,"is_disabled":false,"rental_uris":{"android":"levelo://app?vid=8816d9ef-210a-4809-8185-dda0a3421e2c","ios":"levelo://app?vid=8816d9ef-210a-4809-8185-dda0a3421e2c"},"vehicle_type_id":"4","last_reported":1750508312,"current_range_meters":10800,"station_id":"ce4bhh12rcd13ifvqff0","pricing_plan_id":"cebpf4jnsgd1na2vs0mg"},{"bike_id":"bae794a4-d206-4eaa-9888-7ffb89287003","system_id":"levelo_inurba_marseille","lat":43.24392,"lon":5.3705,"is_reserved":false,"is_disabled":false,"rental_uris":{"android":"levelo://app?vid=bae794a4-d206-4eaa-9888-7ffb89287003","ios":"levelo://app?vid=bae794a4-d206-4eaa-9888-7ffb89287003"},"vehicle_type_id":"4","last_reported":1750508312,"current_range_meters":10800,"station_id":"ce4bhhh2rcd13ifvqfk0","pricing_plan_id":"cebpf4jnsgd1na2vs0mg"},{"bike_id":"bd27fe72-6fbc-453f-8b77-bee10ab3b13c","system_id":"levelo_inurba_marseille","lat":43.2953,"lon":5.42335,"is_reserved":false,"is_disabled":false,"rental_uris":{"android":"levelo://app?vid=bd27fe72-6fbc-453f-8b77-bee10ab3b13c","ios":"levelo://app?vid=bd27fe72-6fbc-453f-8b77-bee10ab3b13c"},"vehicle_type_id":"4","last_reported":1750508312,"current_range_meters":10800,"station_id":"ce4bhph2rcd13ifvqhdg","pricing_plan_id":"cebpf4jnsgd1na2vs0mg"},{"bike_id":"dc540ba2-fb63-45eb-b83a-1826fb3d30b7","system_id":"levelo_inurba_marseille","lat":43.24597,"lon":5.392463,"is_reserved":false,"is_disabled":false,"rental_uris":{"android":"levelo://app?vid=dc540ba2-fb63-45eb-b83a-1826fb3d30b7","ios":"levelo://app?vid=dc540ba2-fb63-45eb-b83a-1826fb3d30b7"},"vehicle_type_id":"4","last_reported":1750508312,"current_range_meters":11200,"station_id":"","pricing_plan_id":"cebpf4jnsgd1na2vs0mg"},{"bike_id":"b79fe525-c816-4cbd-a5f7-018239184cc2","system_id":"levelo_inurba_marseille","lat":43.30192,"lon":5.36633,"is_reserved":false,"is_disabled":false,"rental_uris":{"android":"levelo://app?vid=b79fe525-c816-4cbd-a5f7-018239184cc2","ios":"levelo://app?vid=b79fe525-c816-4cbd-a5f7-018239184cc2"},"vehicle_type_id":"4","last_reported":1750508312,"current_range_meters":11200,"station_id":"ce4bgrh2rcd13ifvqc8g","pricing_plan_id":"cebpf4jnsgd1na2vs0mg"},{"bike_id":"bd57f181-ab55-41ea-94d9-358ae79b5efd","system_id":"levelo_inurba_marseille","lat":43.28028,"lon":5.36956,"is_reserved":false,"is_disabled":false,"rental_uris":{"android":"levelo://app?vid=bd57f181-ab55-41ea-94d9-358ae79b5efd","ios":"levelo://app?vid=bd57f181-ab55-41ea-94d9-358ae79b5efd"},"vehicle_type_id":"4","last_reported":1750508312,"current_range_meters":11200,"station_id":"ce4bha12rcd13ifvqef0","pricing_plan_id":"cebpf4jnsgd1na2vs0mg"},{"bike_id":"959f0c62-9761-4a35-9c23-557e23ca2679","system_id":"levelo_inurba_marseille","lat":43.24674,"lon":5.38162,"is_reserved":false,"is_disabled":false,"rental_uris":{"android":"levelo://app?vid=959f0c62-9761-4a35-9c23-557e23ca2679","ios":"levelo://app?vid=959f0c62-9761-4a35-9c23-557e23ca2679"},"vehicle_type_id":"4","last_reported":1750508312,"current_range_meters":11200,"station_id":"ce4bhih2rcd13ifvqfr0","pricing_plan_id":"cebpf4jnsgd1na2vs0mg"},{"bike_id":"5cc7a188-e79a-4a01-837e-0f7dc4d88cdf","system_id":"levelo_inurba_marseille","lat":43.25118,"lon":5.40317,"is_reserved":false,"is_disabled":false,"rental_uris":{"android":"levelo://app?vid=5cc7a188-e79a-4a01-837e-0f7dc4d88cdf","ios":"levelo://app?vid=5cc7a188-e79a-4a01-837e-0f7dc4d88cdf"},"vehicle_type_id":"4","last_reported":1750508312,"current_range_meters":11200,"station_id":"ce4bhlh2rcd13ifvqgig","pricing_plan_id":"cebpf4jnsgd1na2vs0mg"},{"bike_id":"8fd94bfe-b0a3-4509-a3c9-0f6e3f8eed78","system_id":"levelo_inurba_marseille","lat":43.2416,"lon":5.3645,"is_reserved":false,"is_disabled":false,"rental_uris":{"android":"levelo://app?vid=8fd94bfe-b0a3-4509-a3c9-0f6e3f8eed78","ios":"levelo://app?vid=8fd94bfe-b0a3-4509-a3c9-0f6e3f8eed78"},"vehicle_type_id":"4","last_reported":1750508312,"current_range_meters":11200,"station_id":"cpo36qri1sfpv3e86is0","pricing_plan_id":"cebpf4jnsgd1na2vs0mg"},{"bike_id":"a9ce9b34-05fe-4628-9f27-d23b1b5f7a34","system_id":"levelo_inurba_marseille","lat":43.26295,"lon":5.37683,"is_reserved":false,"is_disabled":false,"rental_uris":{"android":"levelo://app?vid=a9ce9b34-05fe-4628-9f27-d23b1b5f7a34","ios":"levelo://app?vid=a9ce9b34-05fe-4628-9f27-d23b1b5f7a34"},"vehicle_type_id":"4","last_reported":1750508312,"current_range_meters":11600,"station_id":"","pricing_plan_id":"cebpf4jnsgd1na2vs0mg"},{"bike_id":"8d5eeb77-60a3-4d69-9687-b8e6b551b11c","system_id":"levelo_inurba_marseille","lat":43.27828,"lon":5.41471,"is_reserved":false,"is_disabled":false,"rental_uris":{"android":"levelo://app?vid=8d5eeb77-60a3-4d69-9687-b8e6b551b11c","ios":"levelo://app?vid=8d5eeb77-60a3-4d69-9687-b8e6b551b11c"},"vehicle_type_id":"4","last_reported":1750508312,"current_range_meters":11600,"station_id":"","pricing_plan_id":"cebpf4jnsgd1na2vs0mg"},{"bike_id":"8ef11a45-504d-45b0-a2b5-97fef9594218","system_id":"levelo_inurba_marseille","lat":43.29571,"lon":5.38195,"is_reserved":false,"is_disabled":false,"rental_uris":{"android":"levelo://app?vid=8ef11a45-504d-45b0-a2b5-97fef9594218","ios":"levelo://app?vid=8ef11a45-504d-45b0-a2b5-97fef9594218"},"vehicle_type_id":"4","last_reported":1750508312,"current_range_meters":11600,"station_id":"","pricing_plan_id":"cebpf4jnsgd1na2vs0mg"},{"bike_id":"d5568cf5-717d-4f1b-b176-81f82b3e08bd","system_id":"levelo_inurba_marseille","lat":43.29933,"lon":5.3655,"is_reserved":false,"is_disabled":false,"rental_uris":{"android":"levelo://app?vid=d5568cf5-717d-4f1b-b176-81f82b3e08bd","ios":"levelo://app?vid=d5568cf5-717d-4f1b-b176-81f82b3e08bd"},"vehicle_type_id":"4","last_reported":1750508312,"current_range_meters":11600,"station_id":"ce4bgm92rcd13ifvqbr0","pricing_plan_id":"cebpf4jnsgd1na2vs0mg"},{"bike_id":"89a6e27e-624e-4c02-9cb2-3b1f995968ff","system_id":"levelo_inurba_marseille","lat":43.2619,"lon":5.37458,"is_reserved":false,"is_disabled":false,"rental_uris":{"android":"levelo://app?vid=89a6e27e-624e-4c02-9cb2-3b1f995968ff","ios":"levelo://app?vid=89a6e27e-624e-4c02-9cb2-3b1f995968ff"},"vehicle_type_id":"4","last_reported":1750508312,"current_range_meters":11600,"station_id":"ce4bhgp2rcd13ifvqfc0","pricing_plan_id":"cebpf4jnsgd1na2vs0mg"},{"bike_id":"f4b10d95-0fbb-4f5b-a156-86c1c0b8802c","system_id":"levelo_inurba_marseille","lat":43.28268,"lon":5.35057,"is_reserved":false,"is_disabled":false,"rental_uris":{"android":"levelo://app?vid=f4b10d95-0fbb-4f5b-a156-86c1c0b8802c","ios":"levelo://app?vid=f4b10d95-0fbb-4f5b-a156-86c1c0b8802c"},"vehicle_type_id":"4","last_reported":1750508312,"current_range_meters":12000,"station_id":"ce4bhbp2rcd13ifvqerg","pricing_plan_id":"cebpf4jnsgd1na2vs0mg"},{"bike_id":"3f74e17f-a589-41b1-83e4-89659c4b8465","system_id":"levelo_inurba_marseille","lat":43.27979,"lon":5.38741,"is_reserved":false,"is_disabled":false,"rental_uris":{"android":"levelo://app?vid=3f74e17f-a589-41b1-83e4-89659c4b8465","ios":"levelo://app?vid=3f74e17f-a589-41b1-83e4-89659c4b8465"},"vehicle_type_id":"4","last_reported":1750508312,"current_range_meters":12000,"station_id":"ce4bhg12rcd13ifvqf80","pricing_plan_id":"cebpf4jnsgd1na2vs0mg"},{"bike_id":"d40af265-11b5-43a6-9bb6-f910f57901ba","system_id":"levelo_inurba_marseille","lat":43.33033,"lon":5.38002,"is_reserved":false,"is_disabled":false,"rental_uris":{"android":"levelo://app?vid=d40af265-11b5-43a6-9bb6-f910f57901ba","ios":"levelo://app?vid=d40af265-11b5-43a6-9bb6-f910f57901ba"},"vehicle_type_id":"4","last_reported":1750508312,"current_range_meters":12400,"station_id":"","pricing_plan_id":"cebpf4jnsgd1na2vs0mg"},{"bike_id":"bd46dd06-4882-4d4b-b4a0-5932e953e4ac","system_id":"levelo_inurba_marseille","lat":43.292236,"lon":5.360605,"is_reserved":false,"is_disabled":false,"rental_uris":{"android":"levelo://app?vid=bd46dd06-4882-4d4b-b4a0-5932e953e4ac","ios":"levelo://app?vid=bd46dd06-4882-4d4b-b4a0-5932e953e4ac"},"vehicle_type_id":"4","last_reported":1750508312,"current_range_meters":12400,"station_id":"ce4bhbh2rcd13ifvqeqg","pricing_plan_id":"cebpf4jnsgd1na2vs0mg"},{"bike_id":"1da1adb8-fca8-4a02-b0eb-6acf8da95f11","system_id":"levelo_inurba_marseille","lat":43.2657,"lon":5.39,"is_reserved":false,"is_disabled":false,"rental_uris":{"android":"levelo://app?vid=1da1adb8-fca8-4a02-b0eb-6acf8da95f11","ios":"levelo://app?vid=1da1adb8-fca8-4a02-b0eb-6acf8da95f11"},"vehicle_type_id":"4","last_reported":1750508312,"current_range_meters":12400,"station_id":"ce4bhe12rcd13ifvqf30","pricing_plan_id":"cebpf4jnsgd1na2vs0mg"},{"bike_id":"ba93c9ad-28c8-4ab1-9fef-eabc6687f275","system_id":"levelo_inurba_marseille","lat":43.23194,"lon":5.35567,"is_reserved":false,"is_disabled":false,"rental_uris":{"android":"levelo://app?vid=ba93c9ad-28c8-4ab1-9fef-eabc6687f275","ios":"levelo://app?vid=ba93c9ad-28c8-4ab1-9fef-eabc6687f275"},"vehicle_type_id":"4","last_reported":1750508312,"current_range_meters":12400,"station_id":"ce4bhu92rcd13ifvqi70","pricing_plan_id":"cebpf4jnsgd1na2vs0mg"},{"bike_id":"4643bc90-1bac-4c4b-98b1-e2d500830573","system_id":"levelo_inurba_marseille","lat":43.31325,"lon":5.37665,"is_reserved":false,"is_disabled":false,"rental_uris":{"android":"levelo://app?vid=4643bc90-1bac-4c4b-98b1-e2d500830573","ios":"levelo://app?vid=4643bc90-1bac-4c4b-98b1-e2d500830573"},"vehicle_type_id":"4","last_reported":1750508312,"current_range_meters":12800,"station_id":"","pricing_plan_id":"cebpf4jnsgd1na2vs0mg"},{"bike_id":"a22aa312-0025-4f42-88e2-b1e95e79340f","system_id":"levelo_inurba_marseille","lat":43.316495,"lon":5.38341,"is_reserved":false,"is_disabled":false,"rental_uris":{"android":"levelo://app?vid=a22aa312-0025-4f42-88e2-b1e95e79340f","ios":"levelo://app?vid=a22aa312-0025-4f42-88e2-b1e95e79340f"},"vehicle_type_id":"4","last_reported":1750508312,"current_range_meters":12800,"station_id":"","pricing_plan_id":"cebpf4jnsgd1na2vs0mg"},{"bike_id":"ea69c579-e69d-4a0a-9acc-d3ff18be7563","system_id":"levelo_inurba_marseille","lat":43.31486,"lon":5.37291,"is_reserved":false,"is_disabled":false,"rental_uris":{"android":"levelo://app?vid=ea69c579-e69d-4a0a-9acc-d3ff18be7563","ios":"levelo://app?vid=ea69c579-e69d-4a0a-9acc-d3ff18be7563"},"vehicle_type_id":"4","last_reported":1750508312,"current_range_meters":12800,"station_id":"ce4bgt12rcd13ifvqcd0","pricing_plan_id":"cebpf4jnsgd1na2vs0mg"},{"bike_id":"1d3f4a8c-e7ae-43d9-bde7-a8b9b2e230a1","system_id":"levelo_inurba_marseille","lat":43.31509,"lon":5.37275,"is_reserved":false,"is_disabled":false,"rental_uris":{"android":"levelo://app?vid=1d3f4a8c-e7ae-43d9-bde7-a8b9b2e230a1","ios":"levelo://app?vid=1d3f4a8c-e7ae-43d9-bde7-a8b9b2e230a1"},"vehicle_type_id":"4","last_reported":1750508312,"current_range_meters":12800,"station_id":"ce4bgt12rcd13ifvqcd0","pricing_plan_id":"cebpf4jnsgd1na2vs0mg"},{"bike_id":"bb694417-b68c-4dc9-bc93-c0bc585f1917","system_id":"levelo_inurba_marseille","lat":43.26206,"lon":5.37439,"is_reserved":false,"is_disabled":false,"rental_uris":{"android":"levelo://app?vid=bb694417-b68c-4dc9-bc93-c0bc585f1917","ios":"levelo://app?vid=bb694417-b68c-4dc9-bc93-c0bc585f1917"},"vehicle_type_id":"4","last_reported":1750508312,"current_range_meters":12800,"station_id":"ce4bhgp2rcd13ifvqfc0","pricing_plan_id":"cebpf4jnsgd1na2vs0mg"},{"bike_id":"2973f248-b718-4a08-955a-e5ab97dfdc78","system_id":"levelo_inurba_marseille","lat":43.24391,"lon":5.370657,"is_reserved":false,"is_disabled":false,"rental_uris":{"android":"levelo://app?vid=2973f248-b718-4a08-955a-e5ab97dfdc78","ios":"levelo://app?vid=2973f248-b718-4a08-955a-e5ab97dfdc78"},"vehicle_type_id":"4","last_reported":1750508312,"current_range_meters":12800,"station_id":"ce4bhhh2rcd13ifvqfk0","pricing_plan_id":"cebpf4jnsgd1na2vs0mg"},{"bike_id":"6e0c7d17-fe46-485d-997b-0cb9ebd078fb","system_id":"levelo_inurba_marseille","lat":43.23963,"lon":5.36631,"is_reserved":false,"is_disabled":false,"rental_uris":{"android":"levelo://app?vid=6e0c7d17-fe46-485d-997b-0cb9ebd078fb","ios":"levelo://app?vid=6e0c7d17-fe46-485d-997b-0cb9ebd078fb"},"vehicle_type_id":"4","last_reported":1750508312,"current_range_meters":12800,"station_id":"ce4bhi12rcd13ifvqfp0","pricing_plan_id":"cebpf4jnsgd1na2vs0mg"},{"bike_id":"70255bad-4b49-45df-b26f-4acab1fa3f3d","system_id":"levelo_inurba_marseille","lat":43.23143,"lon":5.43724,"is_reserved":false,"is_disabled":false,"rental_uris":{"android":"levelo://app?vid=70255bad-4b49-45df-b26f-4acab1fa3f3d","ios":"levelo://app?vid=70255bad-4b49-45df-b26f-4acab1fa3f3d"},"vehicle_type_id":"4","last_reported":1750508312,"current_range_meters":12800,"station_id":"ce4bhmp2rcd13ifvqgog","pricing_plan_id":"cebpf4jnsgd1na2vs0mg"},{"bike_id":"2d3a5b91-c6f5-448e-b10b-9813f7d50e4a","system_id":"levelo_inurba_marseille","lat":43.31363,"lon":5.38488,"is_reserved":false,"is_disabled":false,"rental_uris":{"android":"levelo://app?vid=2d3a5b91-c6f5-448e-b10b-9813f7d50e4a","ios":"levelo://app?vid=2d3a5b91-c6f5-448e-b10b-9813f7d50e4a"},"vehicle_type_id":"4","last_reported":1750508312,"current_range_meters":13600,"station_id":"ce4bgt92rcd13ifvqcf0","pricing_plan_id":"cebpf4jnsgd1na2vs0mg"},{"bike_id":"27664e61-7c77-4e62-a5e1-f70cf563d605","system_id":"levelo_inurba_marseille","lat":43.28308,"lon":5.35144,"is_reserved":false,"is_disabled":false,"rental_uris":{"android":"levelo://app?vid=27664e61-7c77-4e62-a5e1-f70cf563d605","ios":"levelo://app?vid=27664e61-7c77-4e62-a5e1-f70cf563d605"},"vehicle_type_id":"4","last_reported":1750508312,"current_range_meters":14000,"station_id":"","pricing_plan_id":"cebpf4jnsgd1na2vs0mg"},{"bike_id":"c53122fb-9bcf-4792-a794-ecfe7dead8a3","system_id":"levelo_inurba_marseille","lat":43.30141,"lon":5.39868,"is_reserved":false,"is_disabled":false,"rental_uris":{"android":"levelo://app?vid=c53122fb-9bcf-4792-a794-ecfe7dead8a3","ios":"levelo://app?vid=c53122fb-9bcf-4792-a794-ecfe7dead8a3"},"vehicle_type_id":"4","last_reported":1750508312,"current_range_meters":14000,"station_id":"ce4bh0h2rcd13ifvqd40","pricing_plan_id":"cebpf4jnsgd1na2vs0mg"},{"bike_id":"56ce1b18-7cce-457c-acc0-414344054954","system_id":"levelo_inurba_marseille","lat":43.26209,"lon":5.37438,"is_reserved":false,"is_disabled":false,"rental_uris":{"android":"levelo://app?vid=56ce1b18-7cce-457c-acc0-414344054954","ios":"levelo://app?vid=56ce1b18-7cce-457c-acc0-414344054954"},"vehicle_type_id":"4","last_reported":1750508312,"current_range_meters":14000,"station_id":"ce4bhgp2rcd13ifvqfc0","pricing_plan_id":"cebpf4jnsgd1na2vs0mg"},{"bike_id":"109f9c9f-faba-406c-93ca-4032b50427cd","system_id":"levelo_inurba_marseille","lat":43.26264,"lon":5.37617,"is_reserved":false,"is_disabled":false,"rental_uris":{"android":"levelo://app?vid=109f9c9f-faba-406c-93ca-4032b50427cd","ios":"levelo://app?vid=109f9c9f-faba-406c-93ca-4032b50427cd"},"vehicle_type_id":"4","last_reported":1750508312,"current_range_meters":14400,"station_id":"","pricing_plan_id":"cebpf4jnsgd1na2vs0mg"},{"bike_id":"ef119b9f-74f5-4323-bd7b-10725bc86e56","system_id":"levelo_inurba_marseille","lat":43.24173,"lon":5.36399,"is_reserved":false,"is_disabled":false,"rental_uris":{"android":"levelo://app?vid=ef119b9f-74f5-4323-bd7b-10725bc86e56","ios":"levelo://app?vid=ef119b9f-74f5-4323-bd7b-10725bc86e56"},"vehicle_type_id":"4","last_reported":1750508312,"current_range_meters":14400,"station_id":"cpo36qri1sfpv3e86is0","pricing_plan_id":"cebpf4jnsgd1na2vs0mg"},{"bike_id":"b133eef1-2ff3-49a6-9ef2-2a766195ed3c","system_id":"levelo_inurba_marseille","lat":43.276123,"lon":5.361173,"is_reserved":false,"is_disabled":false,"rental_uris":{"android":"levelo://app?vid=b133eef1-2ff3-49a6-9ef2-2a766195ed3c","ios":"levelo://app?vid=b133eef1-2ff3-49a6-9ef2-2a766195ed3c"},"vehicle_type_id":"4","last_reported":1750508312,"current_range_meters":14800,"station_id":"ce4bgj92rcd13ifvqbe0","pricing_plan_id":"cebpf4jnsgd1na2vs0mg"},{"bike_id":"1bb4b78b-2946-4a3f-ae74-65d988becc01","system_id":"levelo_inurba_marseille","lat":43.29702,"lon":5.36612,"is_reserved":false,"is_disabled":false,"rental_uris":{"android":"levelo://app?vid=1bb4b78b-2946-4a3f-ae74-65d988becc01","ios":"levelo://app?vid=1bb4b78b-2946-4a3f-ae74-65d988becc01"},"vehicle_type_id":"4","last_reported":1750508312,"current_range_meters":14800,"station_id":"ce4bgn12rcd13ifvqbt0","pricing_plan_id":"cebpf4jnsgd1na2vs0mg"},{"bike_id":"9d8cea9e-5dc3-4979-89db-1e9a7449f475","system_id":"levelo_inurba_marseille","lat":43.23142,"lon":5.43741,"is_reserved":false,"is_disabled":false,"rental_uris":{"android":"levelo://app?vid=9d8cea9e-5dc3-4979-89db-1e9a7449f475","ios":"levelo://app?vid=9d8cea9e-5dc3-4979-89db-1e9a7449f475"},"vehicle_type_id":"4","last_reported":1750508312,"current_range_meters":14800,"station_id":"ce4bhmp2rcd13ifvqgog","pricing_plan_id":"cebpf4jnsgd1na2vs0mg"},{"bike_id":"23078c41-44a6-43a0-8cec-d815490d96d3","system_id":"levelo_inurba_marseille","lat":43.29552,"lon":5.42274,"is_reserved":false,"is_disabled":false,"rental_uris":{"android":"levelo://app?vid=23078c41-44a6-43a0-8cec-d815490d96d3","ios":"levelo://app?vid=23078c41-44a6-43a0-8cec-d815490d96d3"},"vehicle_type_id":"4","last_reported":1750508312,"current_range_meters":14800,"station_id":"ce4bhph2rcd13ifvqhdg","pricing_plan_id":"cebpf4jnsgd1na2vs0mg"},{"bike_id":"88dccb87-7b67-4c8b-b671-44047a7e89d8","system_id":"levelo_inurba_marseille","lat":43.32476,"lon":5.36569,"is_reserved":false,"is_disabled":false,"rental_uris":{"android":"levelo://app?vid=88dccb87-7b67-4c8b-b671-44047a7e89d8","ios":"levelo://app?vid=88dccb87-7b67-4c8b-b671-44047a7e89d8"},"vehicle_type_id":"4","last_reported":1750508312,"current_range_meters":14800,"station_id":"ce4bhs12rcd13ifvqhvg","pricing_plan_id":"cebpf4jnsgd1na2vs0mg"},{"bike_id":"df4ae7d7-fafc-4828-af07-436ae43bac5a","system_id":"levelo_inurba_marseille","lat":43.29702,"lon":5.36085,"is_reserved":false,"is_disabled":false,"rental_uris":{"android":"levelo://app?vid=df4ae7d7-fafc-4828-af07-436ae43bac5a","ios":"levelo://app?vid=df4ae7d7-fafc-4828-af07-436ae43bac5a"},"vehicle_type_id":"4","last_reported":1750508312,"current_range_meters":15200,"station_id":"","pricing_plan_id":"cebpf4jnsgd1na2vs0mg"},{"bike_id":"206a2593-b160-4c40-9ffb-31ebf5a31cef","system_id":"levelo_inurba_marseille","lat":43.26207,"lon":5.37441,"is_reserved":false,"is_disabled":false,"rental_uris":{"android":"levelo://app?vid=206a2593-b160-4c40-9ffb-31ebf5a31cef","ios":"levelo://app?vid=206a2593-b160-4c40-9ffb-31ebf5a31cef"},"vehicle_type_id":"4","last_reported":1750508312,"current_range_meters":15200,"station_id":"","pricing_plan_id":"cebpf4jnsgd1na2vs0mg"},{"bike_id":"0f0ee7ac-32fb-4e9b-9a7c-ee3ef4b9f765","system_id":"levelo_inurba_marseille","lat":43.28418,"lon":5.34969,"is_reserved":false,"is_disabled":false,"rental_uris":{"android":"levelo://app?vid=0f0ee7ac-32fb-4e9b-9a7c-ee3ef4b9f765","ios":"levelo://app?vid=0f0ee7ac-32fb-4e9b-9a7c-ee3ef4b9f765"},"vehicle_type_id":"4","last_reported":1750508312,"current_range_meters":15200,"station_id":"ce4bhbh2rcd13ifvqepg","pricing_plan_id":"cebpf4jnsgd1na2vs0mg"},{"bike_id":"c7b2667b-3508-4f71-9203-47f833a2ffb4","system_id":"levelo_inurba_marseille","lat":43.26051,"lon":5.394,"is_reserved":false,"is_disabled":false,"rental_uris":{"android":"levelo://app?vid=c7b2667b-3508-4f71-9203-47f833a2ffb4","ios":"levelo://app?vid=c7b2667b-3508-4f71-9203-47f833a2ffb4"},"vehicle_type_id":"4","last_reported":1750508312,"current_range_meters":15200,"station_id":"ce4bhh92rcd13ifvqfj0","pricing_plan_id":"cebpf4jnsgd1na2vs0mg"},{"bike_id":"c4ae9c0f-bcc5-4cef-a4f6-acfbca98db74","system_id":"levelo_inurba_marseille","lat":43.2293,"lon":5.35373,"is_reserved":false,"is_disabled":false,"rental_uris":{"android":"levelo://app?vid=c4ae9c0f-bcc5-4cef-a4f6-acfbca98db74","ios":"levelo://app?vid=c4ae9c0f-bcc5-4cef-a4f6-acfbca98db74"},"vehicle_type_id":"4","last_reported":1750508312,"current_range_meters":15200,"station_id":"cpo3532slgdg3j2ikp40","pricing_plan_id":"cebpf4jnsgd1na2vs0mg"},{"bike_id":"eed4c7a3-88bb-4112-b332-e98bb7637866","system_id":"levelo_inurba_marseille","lat":43.22922,"lon":5.35397,"is_reserved":false,"is_disabled":false,"rental_uris":{"android":"levelo://app?vid=eed4c7a3-88bb-4112-b332-e98bb7637866","ios":"levelo://app?vid=eed4c7a3-88bb-4112-b332-e98bb7637866"},"vehicle_type_id":"4","last_reported":1750508312,"current_range_meters":16000,"station_id":"","pricing_plan_id":"cebpf4jnsgd1na2vs0mg"},{"bike_id":"f060ae66-51af-4612-9fa7-0054e045a275","system_id":"levelo_inurba_marseille","lat":43.29689,"lon":5.37289,"is_reserved":false,"is_disabled":false,"rental_uris":{"android":"levelo://app?vid=f060ae66-51af-4612-9fa7-0054e045a275","ios":"levelo://app?vid=f060ae66-51af-4612-9fa7-0054e045a275"},"vehicle_type_id":"4","last_reported":1750508312,"current_range_meters":16000,"station_id":"ce4bgk12rcd13ifvqbj0","pricing_plan_id":"cebpf4jnsgd1na2vs0mg"},{"bike_id":"8b499c04-8dde-4c05-8dcf-01ce074f9af5","system_id":"levelo_inurba_marseille","lat":43.26194,"lon":5.37458,"is_reserved":false,"is_disabled":false,"rental_uris":{"android":"levelo://app?vid=8b499c04-8dde-4c05-8dcf-01ce074f9af5","ios":"levelo://app?vid=8b499c04-8dde-4c05-8dcf-01ce074f9af5"},"vehicle_type_id":"4","last_reported":1750508312,"current_range_meters":16000,"station_id":"ce4bhgp2rcd13ifvqfc0","pricing_plan_id":"cebpf4jnsgd1na2vs0mg"},{"bike_id":"422b457a-9714-4b3d-b510-895e4dd4789e","system_id":"levelo_inurba_marseille","lat":43.23963,"lon":5.36631,"is_reserved":false,"is_disabled":false,"rental_uris":{"android":"levelo://app?vid=422b457a-9714-4b3d-b510-895e4dd4789e","ios":"levelo://app?vid=422b457a-9714-4b3d-b510-895e4dd4789e"},"vehicle_type_id":"4","last_reported":1750508312,"current_range_meters":16000,"station_id":"ce4bhi12rcd13ifvqfp0","pricing_plan_id":"cebpf4jnsgd1na2vs0mg"},{"bike_id":"dbe4051a-2bd2-47e2-ad03-b82f32ca58cd","system_id":"levelo_inurba_marseille","lat":43.24158,"lon":5.36397,"is_reserved":false,"is_disabled":false,"rental_uris":{"android":"levelo://app?vid=dbe4051a-2bd2-47e2-ad03-b82f32ca58cd","ios":"levelo://app?vid=dbe4051a-2bd2-47e2-ad03-b82f32ca58cd"},"vehicle_type_id":"4","last_reported":1750508312,"current_range_meters":16000,"station_id":"cpo36qri1sfpv3e86is0","pricing_plan_id":"cebpf4jnsgd1na2vs0mg"},{"bike_id":"b4b9f165-9b30-462c-875b-bb8dde06fcb2","system_id":"levelo_inurba_marseille","lat":43.21744,"lon":5.34598,"is_reserved":false,"is_disabled":false,"rental_uris":{"android":"levelo://app?vid=b4b9f165-9b30-462c-875b-bb8dde06fcb2","ios":"levelo://app?vid=b4b9f165-9b30-462c-875b-bb8dde06fcb2"},"vehicle_type_id":"4","last_reported":1750508312,"current_range_meters":16000,"station_id":"st_cvj6r9ubvosntc0bgbag","pricing_plan_id":"cebpf4jnsgd1na2vs0mg"},{"bike_id":"38b4578b-d322-4ae7-86ef-2a7e9839b4fd","system_id":"levelo_inurba_marseille","lat":43.21222,"lon":5.35104,"is_reserved":false,"is_disabled":false,"rental_uris":{"android":"levelo://app?vid=38b4578b-d322-4ae7-86ef-2a7e9839b4fd","ios":"levelo://app?vid=38b4578b-d322-4ae7-86ef-2a7e9839b4fd"},"vehicle_type_id":"4","last_reported":1750508312,"current_range_meters":16000,"station_id":"st_cvj6sg6p6f1abm77japg","pricing_plan_id":"cebpf4jnsgd1na2vs0mg"},{"bike_id":"45d778e6-aa0b-40ba-a4de-a6c941762022","system_id":"levelo_inurba_marseille","lat":43.24388,"lon":5.37048,"is_reserved":false,"is_disabled":false,"rental_uris":{"android":"levelo://app?vid=45d778e6-aa0b-40ba-a4de-a6c941762022","ios":"levelo://app?vid=45d778e6-aa0b-40ba-a4de-a6c941762022"},"vehicle_type_id":"4","last_reported":1750508312,"current_range_meters":16400,"station_id":"","pricing_plan_id":"cebpf4jnsgd1na2vs0mg"},{"bike_id":"6a4b59b0-64b7-4950-ae73-2324ba55dcce","system_id":"levelo_inurba_marseille","lat":43.33004,"lon":5.38284,"is_reserved":false,"is_disabled":false,"rental_uris":{"android":"levelo://app?vid=6a4b59b0-64b7-4950-ae73-2324ba55dcce","ios":"levelo://app?vid=6a4b59b0-64b7-4950-ae73-2324ba55dcce"},"vehicle_type_id":"4","last_reported":1750508312,"current_range_meters":16400,"station_id":"","pricing_plan_id":"cebpf4jnsgd1na2vs0mg"},{"bike_id":"98337a1f-3231-490b-894a-d9d14ec84448","system_id":"levelo_inurba_marseille","lat":43.28563,"lon":5.35081,"is_reserved":false,"is_disabled":false,"rental_uris":{"android":"levelo://app?vid=98337a1f-3231-490b-894a-d9d14ec84448","ios":"levelo://app?vid=98337a1f-3231-490b-894a-d9d14ec84448"},"vehicle_type_id":"4","last_reported":1750508312,"current_range_meters":16400,"station_id":"","pricing_plan_id":"cebpf4jnsgd1na2vs0mg"},{"bike_id":"c41c675d-c98e-4f91-9fd8-fb102a1dabb6","system_id":"levelo_inurba_marseille","lat":43.29664,"lon":5.36194,"is_reserved":false,"is_disabled":false,"rental_uris":{"android":"levelo://app?vid=c41c675d-c98e-4f91-9fd8-fb102a1dabb6","ios":"levelo://app?vid=c41c675d-c98e-4f91-9fd8-fb102a1dabb6"},"vehicle_type_id":"4","last_reported":1750508312,"current_range_meters":16400,"station_id":"","pricing_plan_id":"cebpf4jnsgd1na2vs0mg"},{"bike_id":"80010168-9221-4e25-9fdf-86472741388a","system_id":"levelo_inurba_marseille","lat":43.29601,"lon":5.37719,"is_reserved":false,"is_disabled":false,"rental_uris":{"android":"levelo://app?vid=80010168-9221-4e25-9fdf-86472741388a","ios":"levelo://app?vid=80010168-9221-4e25-9fdf-86472741388a"},"vehicle_type_id":"4","last_reported":1750508312,"current_range_meters":16400,"station_id":"ce4bgi92rcd13ifvqb90","pricing_plan_id":"cebpf4jnsgd1na2vs0mg"},{"bike_id":"1fbc0fef-8f0f-43d6-9e64-d7e4bd812fa1","system_id":"levelo_inurba_marseille","lat":43.27621,"lon":5.36105,"is_reserved":false,"is_disabled":false,"rental_uris":{"android":"levelo://app?vid=1fbc0fef-8f0f-43d6-9e64-d7e4bd812fa1","ios":"levelo://app?vid=1fbc0fef-8f0f-43d6-9e64-d7e4bd812fa1"},"vehicle_type_id":"4","last_reported":1750508312,"current_range_meters":16400,"station_id":"ce4bgj92rcd13ifvqbe0","pricing_plan_id":"cebpf4jnsgd1na2vs0mg"},{"bike_id":"b312deee-a790-4ffb-a56c-2f882ddfcfec","system_id":"levelo_inurba_marseille","lat":43.304657,"lon":5.379059,"is_reserved":false,"is_disabled":false,"rental_uris":{"android":"levelo://app?vid=b312deee-a790-4ffb-a56c-2f882ddfcfec","ios":"levelo://app?vid=b312deee-a790-4ffb-a56c-2f882ddfcfec"},"vehicle_type_id":"4","last_reported":1750508312,"current_range_meters":16400,"station_id":"ce4bgup2rcd13ifvqcn0","pricing_plan_id":"cebpf4jnsgd1na2vs0mg"},{"bike_id":"b5e38c4d-fc9d-45ba-9f89-ff6dd0c73e05","system_id":"levelo_inurba_marseille","lat":43.29531,"lon":5.39025,"is_reserved":false,"is_disabled":false,"rental_uris":{"android":"levelo://app?vid=b5e38c4d-fc9d-45ba-9f89-ff6dd0c73e05","ios":"levelo://app?vid=b5e38c4d-fc9d-45ba-9f89-ff6dd0c73e05"},"vehicle_type_id":"4","last_reported":1750508312,"current_range_meters":16400,"station_id":"ce4bh3p2rcd13ifvqdp0","pricing_plan_id":"cebpf4jnsgd1na2vs0mg"},{"bike_id":"464b10be-7a2c-4ace-b4a3-b6922bfb5d3c","system_id":"levelo_inurba_marseille","lat":43.26567,"lon":5.39014,"is_reserved":false,"is_disabled":false,"rental_uris":{"android":"levelo://app?vid=464b10be-7a2c-4ace-b4a3-b6922bfb5d3c","ios":"levelo://app?vid=464b10be-7a2c-4ace-b4a3-b6922bfb5d3c"},"vehicle_type_id":"4","last_reported":1750508312,"current_range_meters":16400,"station_id":"ce4bhe12rcd13ifvqf30","pricing_plan_id":"cebpf4jnsgd1na2vs0mg"},{"bike_id":"d580f51c-9c0b-4360-af03-44d51cbc1727","system_id":"levelo_inurba_marseille","lat":43.24391,"lon":5.37062,"is_reserved":false,"is_disabled":false,"rental_uris":{"android":"levelo://app?vid=d580f51c-9c0b-4360-af03-44d51cbc1727","ios":"levelo://app?vid=d580f51c-9c0b-4360-af03-44d51cbc1727"},"vehicle_type_id":"4","last_reported":1750508312,"current_range_meters":16400,"station_id":"ce4bhhh2rcd13ifvqfk0","pricing_plan_id":"cebpf4jnsgd1na2vs0mg"},{"bike_id":"5a444312-ea58-41ad-8601-9a326005dcb0","system_id":"levelo_inurba_marseille","lat":43.21747,"lon":5.34604,"is_reserved":false,"is_disabled":false,"rental_uris":{"android":"levelo://app?vid=5a444312-ea58-41ad-8601-9a326005dcb0","ios":"levelo://app?vid=5a444312-ea58-41ad-8601-9a326005dcb0"},"vehicle_type_id":"4","last_reported":1750508312,"current_range_meters":16400,"station_id":"st_cvj6r9ubvosntc0bgbag","pricing_plan_id":"cebpf4jnsgd1na2vs0mg"},{"bike_id":"f6069a5d-a2bc-44cc-bc6f-f26f79591d92","system_id":"levelo_inurba_marseille","lat":43.30788,"lon":5.37374,"is_reserved":false,"is_disabled":false,"rental_uris":{"android":"levelo://app?vid=f6069a5d-a2bc-44cc-bc6f-f26f79591d92","ios":"levelo://app?vid=f6069a5d-a2bc-44cc-bc6f-f26f79591d92"},"vehicle_type_id":"4","last_reported":1750508312,"current_range_meters":16800,"station_id":"","pricing_plan_id":"cebpf4jnsgd1na2vs0mg"},{"bike_id":"fd956cfc-1aeb-4712-a31f-be21efaeeffc","system_id":"levelo_inurba_marseille","lat":43.30147,"lon":5.38086,"is_reserved":false,"is_disabled":false,"rental_uris":{"android":"levelo://app?vid=fd956cfc-1aeb-4712-a31f-be21efaeeffc","ios":"levelo://app?vid=fd956cfc-1aeb-4712-a31f-be21efaeeffc"},"vehicle_type_id":"4","last_reported":1750508312,"current_range_meters":16800,"station_id":"ce4bgjp2rcd13ifvqbh0","pricing_plan_id":"cebpf4jnsgd1na2vs0mg"},{"bike_id":"0c483017-d5e6-45c6-b121-108a4955fcc0","system_id":"levelo_inurba_marseille","lat":43.23181,"lon":5.39985,"is_reserved":false,"is_disabled":false,"rental_uris":{"android":"levelo://app?vid=0c483017-d5e6-45c6-b121-108a4955fcc0","ios":"levelo://app?vid=0c483017-d5e6-45c6-b121-108a4955fcc0"},"vehicle_type_id":"4","last_reported":1750508312,"current_range_meters":16800,"station_id":"ce4bhn12rcd13ifvqgqg","pricing_plan_id":"cebpf4jnsgd1na2vs0mg"},{"bike_id":"51924496-d375-43d1-9f3c-2086be022a83","system_id":"levelo_inurba_marseille","lat":43.259956,"lon":5.386729,"is_reserved":false,"is_disabled":false,"rental_uris":{"android":"levelo://app?vid=51924496-d375-43d1-9f3c-2086be022a83","ios":"levelo://app?vid=51924496-d375-43d1-9f3c-2086be022a83"},"vehicle_type_id":"4","last_reported":1750508312,"current_range_meters":17200,"station_id":"","pricing_plan_id":"cebpf4jnsgd1na2vs0mg"},{"bike_id":"a08d8572-1df9-48a5-8826-d23cf54d995d","system_id":"levelo_inurba_marseille","lat":43.273796,"lon":5.362545,"is_reserved":false,"is_disabled":false,"rental_uris":{"android":"levelo://app?vid=a08d8572-1df9-48a5-8826-d23cf54d995d","ios":"levelo://app?vid=a08d8572-1df9-48a5-8826-d23cf54d995d"},"vehicle_type_id":"4","last_reported":1750508312,"current_range_meters":17200,"station_id":"","pricing_plan_id":"cebpf4jnsgd1na2vs0mg"},{"bike_id":"0367337f-513a-40a0-9eb6-1f0b6f2bfa3b","system_id":"levelo_inurba_marseille","lat":43.30257,"lon":5.40063,"is_reserved":false,"is_disabled":false,"rental_uris":{"android":"levelo://app?vid=0367337f-513a-40a0-9eb6-1f0b6f2bfa3b","ios":"levelo://app?vid=0367337f-513a-40a0-9eb6-1f0b6f2bfa3b"},"vehicle_type_id":"4","last_reported":1750508312,"current_range_meters":17200,"station_id":"ce4bgvh2rcd13ifvqcs0","pricing_plan_id":"cebpf4jnsgd1na2vs0mg"},{"bike_id":"28a31c38-af8e-4a60-9395-0a036bff2b98","system_id":"levelo_inurba_marseille","lat":43.28274,"lon":5.3507,"is_reserved":false,"is_disabled":false,"rental_uris":{"android":"levelo://app?vid=28a31c38-af8e-4a60-9395-0a036bff2b98","ios":"levelo://app?vid=28a31c38-af8e-4a60-9395-0a036bff2b98"},"vehicle_type_id":"4","last_reported":1750508312,"current_range_meters":17200,"station_id":"ce4bhbp2rcd13ifvqerg","pricing_plan_id":"cebpf4jnsgd1na2vs0mg"},{"bike_id":"41b8da94-4253-4876-9c48-4e6835d4d50f","system_id":"levelo_inurba_marseille","lat":43.26551,"lon":5.37286,"is_reserved":false,"is_disabled":false,"rental_uris":{"android":"levelo://app?vid=41b8da94-4253-4876-9c48-4e6835d4d50f","ios":"levelo://app?vid=41b8da94-4253-4876-9c48-4e6835d4d50f"},"vehicle_type_id":"4","last_reported":1750508312,"current_range_meters":17200,"station_id":"ce4bhg12rcd13ifvqf70","pricing_plan_id":"cebpf4jnsgd1na2vs0mg"},{"bike_id":"cf077cfc-8295-4c86-b208-4d8963e12e17","system_id":"levelo_inurba_marseille","lat":43.27065,"lon":5.42278,"is_reserved":false,"is_disabled":false,"rental_uris":{"android":"levelo://app?vid=cf077cfc-8295-4c86-b208-4d8963e12e17","ios":"levelo://app?vid=cf077cfc-8295-4c86-b208-4d8963e12e17"},"vehicle_type_id":"4","last_reported":1750508312,"current_range_meters":17200,"station_id":"ce4bhk92rcd13ifvqgb0","pricing_plan_id":"cebpf4jnsgd1na2vs0mg"},{"bike_id":"9d1784d2-b222-41f2-b091-486cd0a2b9cd","system_id":"levelo_inurba_marseille","lat":43.23183,"lon":5.39991,"is_reserved":false,"is_disabled":false,"rental_uris":{"android":"levelo://app?vid=9d1784d2-b222-41f2-b091-486cd0a2b9cd","ios":"levelo://app?vid=9d1784d2-b222-41f2-b091-486cd0a2b9cd"},"vehicle_type_id":"4","last_reported":1750508312,"current_range_meters":17200,"station_id":"ce4bhn12rcd13ifvqgqg","pricing_plan_id":"cebpf4jnsgd1na2vs0mg"},{"bike_id":"1c6eee43-889f-4cff-bc8c-307447a31830","system_id":"levelo_inurba_marseille","lat":43.30798,"lon":5.4353,"is_reserved":false,"is_disabled":false,"rental_uris":{"android":"levelo://app?vid=1c6eee43-889f-4cff-bc8c-307447a31830","ios":"levelo://app?vid=1c6eee43-889f-4cff-bc8c-307447a31830"},"vehicle_type_id":"4","last_reported":1750508312,"current_range_meters":17200,"station_id":"ce4bhph2rcd13ifvqheg","pricing_plan_id":"cebpf4jnsgd1na2vs0mg"},{"bike_id":"e6de794e-6028-4a11-be8e-524a66b44be6","system_id":"levelo_inurba_marseille","lat":43.217506,"lon":5.346008,"is_reserved":false,"is_disabled":false,"rental_uris":{"android":"levelo://app?vid=e6de794e-6028-4a11-be8e-524a66b44be6","ios":"levelo://app?vid=e6de794e-6028-4a11-be8e-524a66b44be6"},"vehicle_type_id":"4","last_reported":1750508312,"current_range_meters":17200,"station_id":"st_cvj6r9ubvosntc0bgbag","pricing_plan_id":"cebpf4jnsgd1na2vs0mg"},{"bike_id":"51a10ac8-4a7d-4bb7-aa46-ee1fc97a585c","system_id":"levelo_inurba_marseille","lat":43.21749,"lon":5.34605,"is_reserved":false,"is_disabled":false,"rental_uris":{"android":"levelo://app?vid=51a10ac8-4a7d-4bb7-aa46-ee1fc97a585c","ios":"levelo://app?vid=51a10ac8-4a7d-4bb7-aa46-ee1fc97a585c"},"vehicle_type_id":"4","last_reported":1750508312,"current_range_meters":17200,"station_id":"st_cvj6r9ubvosntc0bgbag","pricing_plan_id":"cebpf4jnsgd1na2vs0mg"},{"bike_id":"7c3434e7-ecd7-4565-9a0f-952b018128a9","system_id":"levelo_inurba_marseille","lat":43.21189,"lon":5.35073,"is_reserved":false,"is_disabled":false,"rental_uris":{"android":"levelo://app?vid=7c3434e7-ecd7-4565-9a0f-952b018128a9","ios":"levelo://app?vid=7c3434e7-ecd7-4565-9a0f-952b018128a9"},"vehicle_type_id":"4","last_reported":1750508312,"current_range_meters":17200,"station_id":"st_cvj6sg6p6f1abm77japg","pricing_plan_id":"cebpf4jnsgd1na2vs0mg"},{"bike_id":"4d80d21e-3dc9-4004-a3c0-eb7b371a8ccf","system_id":"levelo_inurba_marseille","lat":43.33023,"lon":5.39382,"is_reserved":false,"is_disabled":false,"rental_uris":{"android":"levelo://app?vid=4d80d21e-3dc9-4004-a3c0-eb7b371a8ccf","ios":"levelo://app?vid=4d80d21e-3dc9-4004-a3c0-eb7b371a8ccf"},"vehicle_type_id":"4","last_reported":1750508312,"current_range_meters":17600,"station_id":"","pricing_plan_id":"cebpf4jnsgd1na2vs0mg"},{"bike_id":"efddbf56-d042-4a38-bb8f-58e58d065df2","system_id":"levelo_inurba_marseille","lat":43.2827,"lon":5.35059,"is_reserved":false,"is_disabled":false,"rental_uris":{"android":"levelo://app?vid=efddbf56-d042-4a38-bb8f-58e58d065df2","ios":"levelo://app?vid=efddbf56-d042-4a38-bb8f-58e58d065df2"},"vehicle_type_id":"4","last_reported":1750508312,"current_range_meters":17600,"station_id":"","pricing_plan_id":"cebpf4jnsgd1na2vs0mg"},{"bike_id":"ffbb0c22-3f4e-4cdb-a0e5-79e3b9f3e1a2","system_id":"levelo_inurba_marseille","lat":43.33769,"lon":5.37469,"is_reserved":false,"is_disabled":false,"rental_uris":{"android":"levelo://app?vid=ffbb0c22-3f4e-4cdb-a0e5-79e3b9f3e1a2","ios":"levelo://app?vid=ffbb0c22-3f4e-4cdb-a0e5-79e3b9f3e1a2"},"vehicle_type_id":"4","last_reported":1750508312,"current_range_meters":17600,"station_id":"","pricing_plan_id":"cebpf4jnsgd1na2vs0mg"},{"bike_id":"b2979440-5f29-4c85-9f09-ef6cf445ac43","system_id":"levelo_inurba_marseille","lat":43.3016,"lon":5.38057,"is_reserved":false,"is_disabled":false,"rental_uris":{"android":"levelo://app?vid=b2979440-5f29-4c85-9f09-ef6cf445ac43","ios":"levelo://app?vid=b2979440-5f29-4c85-9f09-ef6cf445ac43"},"vehicle_type_id":"4","last_reported":1750508312,"current_range_meters":17600,"station_id":"ce4bgjp2rcd13ifvqbh0","pricing_plan_id":"cebpf4jnsgd1na2vs0mg"},{"bike_id":"847a3407-2282-4fdf-a3f1-196f84f94e89","system_id":"levelo_inurba_marseille","lat":43.31222,"lon":5.36862,"is_reserved":false,"is_disabled":false,"rental_uris":{"android":"levelo://app?vid=847a3407-2282-4fdf-a3f1-196f84f94e89","ios":"levelo://app?vid=847a3407-2282-4fdf-a3f1-196f84f94e89"},"vehicle_type_id":"4","last_reported":1750508312,"current_range_meters":17600,"station_id":"ce4bgl92rcd13ifvqbq0","pricing_plan_id":"cebpf4jnsgd1na2vs0mg"},{"bike_id":"7753951d-6084-4a0b-bbe5-526d8bf6f222","system_id":"levelo_inurba_marseille","lat":43.313254,"lon":5.396902,"is_reserved":false,"is_disabled":false,"rental_uris":{"android":"levelo://app?vid=7753951d-6084-4a0b-bbe5-526d8bf6f222","ios":"levelo://app?vid=7753951d-6084-4a0b-bbe5-526d8bf6f222"},"vehicle_type_id":"4","last_reported":1750508312,"current_range_meters":17600,"station_id":"ce4bgvp2rcd13ifvqcu0","pricing_plan_id":"cebpf4jnsgd1na2vs0mg"},{"bike_id":"9c1a509a-07fd-4db4-a432-a49c5321e572","system_id":"levelo_inurba_marseille","lat":43.265548,"lon":5.372803,"is_reserved":false,"is_disabled":false,"rental_uris":{"android":"levelo://app?vid=9c1a509a-07fd-4db4-a432-a49c5321e572","ios":"levelo://app?vid=9c1a509a-07fd-4db4-a432-a49c5321e572"},"vehicle_type_id":"4","last_reported":1750508312,"current_range_meters":17600,"station_id":"ce4bhg12rcd13ifvqf70","pricing_plan_id":"cebpf4jnsgd1na2vs0mg"},{"bike_id":"1d4327a6-afb1-4c61-83f4-cf9ee29b487b","system_id":"levelo_inurba_marseille","lat":43.273129,"lon":5.390754,"is_reserved":false,"is_disabled":false,"rental_uris":{"android":"levelo://app?vid=1d4327a6-afb1-4c61-83f4-cf9ee29b487b","ios":"levelo://app?vid=1d4327a6-afb1-4c61-83f4-cf9ee29b487b"},"vehicle_type_id":"4","last_reported":1750508312,"current_range_meters":17600,"station_id":"ce4bhgp2rcd13ifvqfe0","pricing_plan_id":"cebpf4jnsgd1na2vs0mg"},{"bike_id":"bd519d1a-2842-439c-bdaa-207f8ce1a69c","system_id":"levelo_inurba_marseille","lat":43.27066,"lon":5.42271,"is_reserved":false,"is_disabled":false,"rental_uris":{"android":"levelo://app?vid=bd519d1a-2842-439c-bdaa-207f8ce1a69c","ios":"levelo://app?vid=bd519d1a-2842-439c-bdaa-207f8ce1a69c"},"vehicle_type_id":"4","last_reported":1750508312,"current_range_meters":17600,"station_id":"ce4bhk92rcd13ifvqgb0","pricing_plan_id":"cebpf4jnsgd1na2vs0mg"},{"bike_id":"82b609eb-4bb1-412b-8dd3-ab5548ecab23","system_id":"levelo_inurba_marseille","lat":43.2708,"lon":5.4227,"is_reserved":false,"is_disabled":false,"rental_uris":{"android":"levelo://app?vid=82b609eb-4bb1-412b-8dd3-ab5548ecab23","ios":"levelo://app?vid=82b609eb-4bb1-412b-8dd3-ab5548ecab23"},"vehicle_type_id":"4","last_reported":1750508312,"current_range_meters":17600,"station_id":"ce4bhk92rcd13ifvqgb0","pricing_plan_id":"cebpf4jnsgd1na2vs0mg"},{"bike_id":"ee6fddf9-6863-4a13-a31b-2f3228223d7e","system_id":"levelo_inurba_marseille","lat":43.21195,"lon":5.35083,"is_reserved":false,"is_disabled":false,"rental_uris":{"android":"levelo://app?vid=ee6fddf9-6863-4a13-a31b-2f3228223d7e","ios":"levelo://app?vid=ee6fddf9-6863-4a13-a31b-2f3228223d7e"},"vehicle_type_id":"4","last_reported":1750508312,"current_range_meters":18000,"station_id":"","pricing_plan_id":"cebpf4jnsgd1na2vs0mg"},{"bike_id":"d198f6f9-0d28-4fce-aeda-be1e070e2d21","system_id":"levelo_inurba_marseille","lat":43.29678,"lon":5.37284,"is_reserved":false,"is_disabled":false,"rental_uris":{"android":"levelo://app?vid=d198f6f9-0d28-4fce-aeda-be1e070e2d21","ios":"levelo://app?vid=d198f6f9-0d28-4fce-aeda-be1e070e2d21"},"vehicle_type_id":"4","last_reported":1750508312,"current_range_meters":18000,"station_id":"ce4bgk12rcd13ifvqbj0","pricing_plan_id":"cebpf4jnsgd1na2vs0mg"},{"bike_id":"4d4df371-4a07-4078-b66c-0646e04ad4bf","system_id":"levelo_inurba_marseille","lat":43.298999,"lon":5.436613,"is_reserved":false,"is_disabled":false,"rental_uris":{"android":"levelo://app?vid=4d4df371-4a07-4078-b66c-0646e04ad4bf","ios":"levelo://app?vid=4d4df371-4a07-4078-b66c-0646e04ad4bf"},"vehicle_type_id":"4","last_reported":1750508312,"current_range_meters":18000,"station_id":"ce4bhpp2rcd13ifvqhfg","pricing_plan_id":"cebpf4jnsgd1na2vs0mg"},{"bike_id":"dc1db63d-5468-44d8-958f-b819dd58751d","system_id":"levelo_inurba_marseille","lat":43.323467,"lon":5.406344,"is_reserved":false,"is_disabled":false,"rental_uris":{"android":"levelo://app?vid=dc1db63d-5468-44d8-958f-b819dd58751d","ios":"levelo://app?vid=dc1db63d-5468-44d8-958f-b819dd58751d"},"vehicle_type_id":"4","last_reported":1750508312,"current_range_meters":18000,"station_id":"ce4bhq92rcd13ifvqhjg","pricing_plan_id":"cebpf4jnsgd1na2vs0mg"},{"bike_id":"228c73f2-528b-4b63-8df8-3bbd2f787ade","system_id":"levelo_inurba_marseille","lat":43.28719,"lon":5.36097,"is_reserved":false,"is_disabled":false,"rental_uris":{"android":"levelo://app?vid=228c73f2-528b-4b63-8df8-3bbd2f787ade","ios":"levelo://app?vid=228c73f2-528b-4b63-8df8-3bbd2f787ade"},"vehicle_type_id":"4","last_reported":1750508312,"current_range_meters":18000,"station_id":"cki0cbj6b192h4jlfktg","pricing_plan_id":"cebpf4jnsgd1na2vs0mg"},{"bike_id":"3ee59046-073f-4c50-ba68-44b7905ed341","system_id":"levelo_inurba_marseille","lat":43.21741,"lon":5.34617,"is_reserved":false,"is_disabled":false,"rental_uris":{"android":"levelo://app?vid=3ee59046-073f-4c50-ba68-44b7905ed341","ios":"levelo://app?vid=3ee59046-073f-4c50-ba68-44b7905ed341"},"vehicle_type_id":"4","last_reported":1750508312,"current_range_meters":18000,"station_id":"st_cvj6r9ubvosntc0bgbag","pricing_plan_id":"cebpf4jnsgd1na2vs0mg"},{"bike_id":"b935579a-e9d3-4ccf-a111-a22b8dbf997d","system_id":"levelo_inurba_marseille","lat":43.22293,"lon":5.34594,"is_reserved":false,"is_disabled":false,"rental_uris":{"android":"levelo://app?vid=b935579a-e9d3-4ccf-a111-a22b8dbf997d","ios":"levelo://app?vid=b935579a-e9d3-4ccf-a111-a22b8dbf997d"},"vehicle_type_id":"4","last_reported":1750508312,"current_range_meters":18800,"station_id":"","pricing_plan_id":"cebpf4jnsgd1na2vs0mg"},{"bike_id":"07b34d18-a387-4aeb-aab5-61eec8495f50","system_id":"levelo_inurba_marseille","lat":43.29796,"lon":5.40394,"is_reserved":false,"is_disabled":false,"rental_uris":{"android":"levelo://app?vid=07b34d18-a387-4aeb-aab5-61eec8495f50","ios":"levelo://app?vid=07b34d18-a387-4aeb-aab5-61eec8495f50"},"vehicle_type_id":"4","last_reported":1750508312,"current_range_meters":18800,"station_id":"ce4bh112rcd13ifvqd90","pricing_plan_id":"cebpf4jnsgd1na2vs0mg"},{"bike_id":"e9eb657c-400f-41ee-97de-58790aa5151d","system_id":"levelo_inurba_marseille","lat":43.26218,"lon":5.40418,"is_reserved":false,"is_disabled":false,"rental_uris":{"android":"levelo://app?vid=e9eb657c-400f-41ee-97de-58790aa5151d","ios":"levelo://app?vid=e9eb657c-400f-41ee-97de-58790aa5151d"},"vehicle_type_id":"4","last_reported":1750508312,"current_range_meters":18800,"station_id":"ce4bhmh2rcd13ifvqgmg","pricing_plan_id":"cebpf4jnsgd1na2vs0mg"},{"bike_id":"348caee6-3db3-4b3a-a689-66d52af6e9a6","system_id":"levelo_inurba_marseille","lat":43.22923,"lon":5.35376,"is_reserved":false,"is_disabled":false,"rental_uris":{"android":"levelo://app?vid=348caee6-3db3-4b3a-a689-66d52af6e9a6","ios":"levelo://app?vid=348caee6-3db3-4b3a-a689-66d52af6e9a6"},"vehicle_type_id":"4","last_reported":1750508312,"current_range_meters":19200,"station_id":"","pricing_plan_id":"cebpf4jnsgd1na2vs0mg"},{"bike_id":"d316b32d-cc7c-47ad-93d9-921606b28236","system_id":"levelo_inurba_marseille","lat":43.30149,"lon":5.380708,"is_reserved":false,"is_disabled":false,"rental_uris":{"android":"levelo://app?vid=d316b32d-cc7c-47ad-93d9-921606b28236","ios":"levelo://app?vid=d316b32d-cc7c-47ad-93d9-921606b28236"},"vehicle_type_id":"4","last_reported":1750508312,"current_range_meters":19200,"station_id":"ce4bgjp2rcd13ifvqbh0","pricing_plan_id":"cebpf4jnsgd1na2vs0mg"},{"bike_id":"f7d174bb-5182-4b08-9d07-160d01e4acee","system_id":"levelo_inurba_marseille","lat":43.29849,"lon":5.36284,"is_reserved":false,"is_disabled":false,"rental_uris":{"android":"levelo://app?vid=f7d174bb-5182-4b08-9d07-160d01e4acee","ios":"levelo://app?vid=f7d174bb-5182-4b08-9d07-160d01e4acee"},"vehicle_type_id":"4","last_reported":1750508312,"current_range_meters":19200,"station_id":"ce4bgpp2rcd13ifvqc3g","pricing_plan_id":"cebpf4jnsgd1na2vs0mg"},{"bike_id":"7b948d27-a278-49f8-b484-d875d2d5e804","system_id":"levelo_inurba_marseille","lat":43.2621,"lon":5.3744,"is_reserved":false,"is_disabled":false,"rental_uris":{"android":"levelo://app?vid=7b948d27-a278-49f8-b484-d875d2d5e804","ios":"levelo://app?vid=7b948d27-a278-49f8-b484-d875d2d5e804"},"vehicle_type_id":"4","last_reported":1750508312,"current_range_meters":19200,"station_id":"ce4bhgp2rcd13ifvqfc0","pricing_plan_id":"cebpf4jnsgd1na2vs0mg"},{"bike_id":"1114fae7-4b61-4840-9240-337b80638f45","system_id":"levelo_inurba_marseille","lat":43.25503,"lon":5.37646,"is_reserved":false,"is_disabled":false,"rental_uris":{"android":"levelo://app?vid=1114fae7-4b61-4840-9240-337b80638f45","ios":"levelo://app?vid=1114fae7-4b61-4840-9240-337b80638f45"},"vehicle_type_id":"4","last_reported":1750508312,"current_range_meters":19200,"station_id":"ce4bhh12rcd13ifvqff0","pricing_plan_id":"cebpf4jnsgd1na2vs0mg"},{"bike_id":"fe7ff49d-f73c-4d4a-b369-9bc703c18401","system_id":"levelo_inurba_marseille","lat":43.24396,"lon":5.37049,"is_reserved":false,"is_disabled":false,"rental_uris":{"android":"levelo://app?vid=fe7ff49d-f73c-4d4a-b369-9bc703c18401","ios":"levelo://app?vid=fe7ff49d-f73c-4d4a-b369-9bc703c18401"},"vehicle_type_id":"4","last_reported":1750508312,"current_range_meters":19200,"station_id":"ce4bhhh2rcd13ifvqfk0","pricing_plan_id":"cebpf4jnsgd1na2vs0mg"},{"bike_id":"573f3c46-963f-4484-97bc-310a77dc0439","system_id":"levelo_inurba_marseille","lat":43.23965,"lon":5.36652,"is_reserved":false,"is_disabled":false,"rental_uris":{"android":"levelo://app?vid=573f3c46-963f-4484-97bc-310a77dc0439","ios":"levelo://app?vid=573f3c46-963f-4484-97bc-310a77dc0439"},"vehicle_type_id":"4","last_reported":1750508312,"current_range_meters":19200,"station_id":"ce4bhi12rcd13ifvqfp0","pricing_plan_id":"cebpf4jnsgd1na2vs0mg"},{"bike_id":"5e372528-2077-476b-a84f-f2201c11536d","system_id":"levelo_inurba_marseille","lat":43.28159,"lon":5.42657,"is_reserved":false,"is_disabled":false,"rental_uris":{"android":"levelo://app?vid=5e372528-2077-476b-a84f-f2201c11536d","ios":"levelo://app?vid=5e372528-2077-476b-a84f-f2201c11536d"},"vehicle_type_id":"4","last_reported":1750508312,"current_range_meters":19200,"station_id":"ce4bhnh2rcd13ifvqgug","pricing_plan_id":"cebpf4jnsgd1na2vs0mg"},{"bike_id":"377ec864-6a07-4987-8844-392b5fb8234b","system_id":"levelo_inurba_marseille","lat":43.317666,"lon":5.387921,"is_reserved":false,"is_disabled":false,"rental_uris":{"android":"levelo://app?vid=377ec864-6a07-4987-8844-392b5fb8234b","ios":"levelo://app?vid=377ec864-6a07-4987-8844-392b5fb8234b"},"vehicle_type_id":"4","last_reported":1750508312,"current_range_meters":19600,"station_id":"","pricing_plan_id":"cebpf4jnsgd1na2vs0mg"},{"bike_id":"b954ad20-8866-4808-9736-0e481591598c","system_id":"levelo_inurba_marseille","lat":43.325969,"lon":5.377581,"is_reserved":false,"is_disabled":false,"rental_uris":{"android":"levelo://app?vid=b954ad20-8866-4808-9736-0e481591598c","ios":"levelo://app?vid=b954ad20-8866-4808-9736-0e481591598c"},"vehicle_type_id":"4","last_reported":1750508312,"current_range_meters":19600,"station_id":"","pricing_plan_id":"cebpf4jnsgd1na2vs0mg"},{"bike_id":"8f8e0d7d-3072-4506-8a2b-0a05940237d6","system_id":"levelo_inurba_marseille","lat":43.21532,"lon":5.34765,"is_reserved":false,"is_disabled":false,"rental_uris":{"android":"levelo://app?vid=8f8e0d7d-3072-4506-8a2b-0a05940237d6","ios":"levelo://app?vid=8f8e0d7d-3072-4506-8a2b-0a05940237d6"},"vehicle_type_id":"4","last_reported":1750508312,"current_range_meters":19600,"station_id":"","pricing_plan_id":"cebpf4jnsgd1na2vs0mg"},{"bike_id":"03c4eb9a-5867-4bc0-afa2-c4f743035841","system_id":"levelo_inurba_marseille","lat":43.30266,"lon":5.37728,"is_reserved":false,"is_disabled":false,"rental_uris":{"android":"levelo://app?vid=03c4eb9a-5867-4bc0-afa2-c4f743035841","ios":"levelo://app?vid=03c4eb9a-5867-4bc0-afa2-c4f743035841"},"vehicle_type_id":"4","last_reported":1750508312,"current_range_meters":19600,"station_id":"ce4bguh2rcd13ifvqcj0","pricing_plan_id":"cebpf4jnsgd1na2vs0mg"},{"bike_id":"1bfabdcd-63ed-484c-af6a-6dc52b8da00e","system_id":"levelo_inurba_marseille","lat":43.273753,"lon":5.362699,"is_reserved":false,"is_disabled":false,"rental_uris":{"android":"levelo://app?vid=1bfabdcd-63ed-484c-af6a-6dc52b8da00e","ios":"levelo://app?vid=1bfabdcd-63ed-484c-af6a-6dc52b8da00e"},"vehicle_type_id":"4","last_reported":1750508312,"current_range_meters":19600,"station_id":"ce4bhbh2rcd13ifvqeo0","pricing_plan_id":"cebpf4jnsgd1na2vs0mg"},{"bike_id":"9b2a96a9-a93f-4a80-bfda-36abe26ceca5","system_id":"levelo_inurba_marseille","lat":43.2549,"lon":5.37646,"is_reserved":false,"is_disabled":false,"rental_uris":{"android":"levelo://app?vid=9b2a96a9-a93f-4a80-bfda-36abe26ceca5","ios":"levelo://app?vid=9b2a96a9-a93f-4a80-bfda-36abe26ceca5"},"vehicle_type_id":"4","last_reported":1750508312,"current_range_meters":19600,"station_id":"ce4bhh12rcd13ifvqff0","pricing_plan_id":"cebpf4jnsgd1na2vs0mg"},{"bike_id":"03d8f4ac-9105-4680-a54c-42c7a78c11e0","system_id":"levelo_inurba_marseille","lat":43.25578,"lon":5.3823,"is_reserved":false,"is_disabled":false,"rental_uris":{"android":"levelo://app?vid=03d8f4ac-9105-4680-a54c-42c7a78c11e0","ios":"levelo://app?vid=03d8f4ac-9105-4680-a54c-42c7a78c11e0"},"vehicle_type_id":"4","last_reported":1750508312,"current_range_meters":19600,"station_id":"ce4bhih2rcd13ifvqfs0","pricing_plan_id":"cebpf4jnsgd1na2vs0mg"},