{"last_updated":1727618868,"ttl":60,"version":"2.2","data":{"bikes":[{"bike_id":"629dd003-5419-41e5-967e-25eaeb140f35","system_id":"levelo_inurba_marseille","lat":43.29965,"lon":5.41291,"is_reserved":false,"is_disabled":false,"rental_uris":{"android":"levelo://app?vid=629dd003-5419-41e5-967e-25eaeb140f35","ios":"levelo://app?vid=629dd003-5419-41e5-967e-25eaeb140f35"},"vehicle_type_id":"4","last_reported":1727618868,"current_range_meters":26000,"station_id":"ce4bhp12rcd13ifvqh9g","pricing_plan_id":"cebpf4jnsgd1na2vs0mg"},{"bike_id":"0d4efacd-d638-44c9-b125-41ea5ef589a4","system_id":"levelo_inurba_marseille","lat":43.30122,"lon":5.39851,"is_reserved":false,"is_disabled":false,"rental_uris":{"android":"levelo://app?vid=0d4efacd-d638-44c9-b125-41ea5ef589a4","ios":"levelo://app?vid=0d4efacd-d638-44c9-b125-41ea5ef589a4"},"vehicle_type_id":"4","last_reported":1727618868,"current_range_meters":19600,"station_id":"ce4bh0h2rcd13ifvqd40","pricing_plan_id":"cebpf4jnsgd1na2vs0mg"},{"bike_id":"3469d501-3e11-4469-b2ff-622f6db788e7","system_id":"levelo_inurba_marseille","lat":43.29868,"lon":5.39731,"is_reserved":false,"is_disabled":false,"rental_uris":{"android":"levelo://app?vid=3469d501-3e11-4469-b2ff-622f6db788e7","ios":"levelo://app?vid=3469d501-3e11-4469-b2ff-622f6db788e7"},"vehicle_type_id":"4","last_reported":1727618868,"current_range_meters":12400,"station_id":"ce4bh0h2rcd13ifvqd50","pricing_plan_id":"cebpf4jnsgd1na2vs0mg"},{"bike_id":"acf0da7d-e6b3-48a2-8905-5de8bc3b795a","system_id":"levelo_inurba_marseille","lat":43.31994,"lon":5.38151,"is_reserved":false,"is_disabled":false,"rental_uris":{"android":"levelo://app?vid=acf0da7d-e6b3-48a2-8905-5de8bc3b795a","ios":"levelo://app?vid=acf0da7d-e6b3-48a2-8905-5de8bc3b795a"},"vehicle_type_id":"4","last_reported":1727618868,"current_range_meters":9200,"station_id":"ce4bhr12rcd13ifvqhpg","pricing_plan_id":"cebpf4jnsgd1na2vs0mg"},{"bike_id":"0ea9e4c4-cc08-41d9-862d-a80f7d54740c","system_id":"levelo_inurba_marseille","lat":43.3268,"lon":5.37494,"is_reserved":false,"is_disabled":false,"rental_uris":{"android":"levelo://app?vid=0ea9e4c4-cc08-41d9-862d-a80f7d54740c","ios":"levelo://app?vid=0ea9e4c4-cc08-41d9-862d-a80f7d54740c"},"vehicle_type_id":"4","last_reported":1727618868,"current_range_meters":36800,"station_id":"","pricing_plan_id":"cebpf4jnsgd1na2vs0mg"},{"bike_id":"d4c74265-2442-4454-aa29-65e3cce400cc","system_id":"levelo_inurba_marseille","lat":43.32369,"lon":5.38884,"is_reserved":false,"is_disabled":false,"rental_uris":{"android":"levelo://app?vid=d4c74265-2442-4454-aa29-65e3cce400cc","ios":"levelo://app?vid=d4c74265-2442-4454-aa29-65e3cce400cc"},"vehicle_type_id":"4","last_reported":1727618868,"current_range_meters":37600,"station_id":"ce4bhqp2rcd13ifvqhog","pricing_plan_id":"cebpf4jnsgd1na2vs0mg"},{"bike_id":"5a9badbe-b08c-4c6b-8435-26afa7e1077e","system_id":"levelo_inurba_marseille","lat":43.23966,"lon":5.36624,"is_reserved":false,"is_disabled":false,"rental_uris":{"android":"levelo://app?vid=5a9badbe-b08c-4c6b-8435-26afa7e1077e","ios":"levelo://app?vid=5a9badbe-b08c-4c6b-8435-26afa7e1077e"},"vehicle_type_id":"4","last_reported":1727618868,"current_range_meters":22400,"station_id":"ce4bhi12rcd13ifvqfp0","pricing_plan_id":"cebpf4jnsgd1na2vs0mg"},{"bike_id":"9a47dcb1-61bb-411f-affb-55731480b4cc","system_id":"levelo_inurba_marseille","lat":43.23958,"lon":5.36624,"is_reserved":false,"is_disabled":false,"rental_uris":{"android":"levelo://app?vid=9a47dcb1-61bb-411f-affb-55731480b4cc","ios":"levelo://app?vid=9a47dcb1-61bb-411f-affb-55731480b4cc"},"vehicle_type_id":"4","last_reported":1727618868,"current_range_meters":36800,"station_id":"ce4bhi12rcd13ifvqfp0","pricing_plan_id":"cebpf4jnsgd1na2vs0mg"},{"bike_id":"40c9519d-597d-45ac-bc08-03d00e9b2eed","system_id":"levelo_inurba_marseille","lat":43.27373,"lon":5.36255,"is_reserved":false,"is_disabled":false,"rental_uris":{"android":"levelo://app?vid=40c9519d-597d-45ac-bc08-03d00e9b2eed","ios":"levelo://app?vid=40c9519d-597d-45ac-bc08-03d00e9b2eed"},"vehicle_type_id":"4","last_reported":1727618868,"current_range_meters":2800,"station_id":"ce4bhbh2rcd13ifvqeo0","pricing_plan_id":"cebpf4jnsgd1na2vs0mg"},{"bike_id":"6c497d99-8532-4f7f-8d5d-779ea355478d","system_id":"levelo_inurba_marseille","lat":43.26193,"lon":5.37449,"is_reserved":false,"is_disabled":false,"rental_uris":{"android":"levelo://app?vid=6c497d99-8532-4f7f-8d5d-779ea355478d","ios":"levelo://app?vid=6c497d99-8532-4f7f-8d5d-779ea355478d"},"vehicle_type_id":"4","last_reported":1727618868,"current_range_meters":6400,"station_id":"ce4bhgp2rcd13ifvqfc0","pricing_plan_id":"cebpf4jnsgd1na2vs0mg"},{"bike_id":"734b1aa9-2063-4272-bc66-c6932a07e332","system_id":"levelo_inurba_marseille","lat":43.27923,"lon":5.39575,"is_reserved":false,"is_disabled":false,"rental_uris":{"android":"levelo://app?vid=734b1aa9-2063-4272-bc66-c6932a07e332","ios":"levelo://app?vid=734b1aa9-2063-4272-bc66-c6932a07e332"},"vehicle_type_id":"4","last_reported":1727618868,"current_range_meters":35600,"station_id":"ce4bhf92rcd13ifvqf40","pricing_plan_id":"cebpf4jnsgd1na2vs0mg"},{"bike_id":"350527bd-d56c-4532-ae06-af6b2268bcc6","system_id":"levelo_inurba_marseille","lat":43.26778,"lon":5.3942,"is_reserved":false,"is_disabled":false,"rental_uris":{"android":"levelo://app?vid=350527bd-d56c-4532-ae06-af6b2268bcc6","ios":"levelo://app?vid=350527bd-d56c-4532-ae06-af6b2268bcc6"},"vehicle_type_id":"4","last_reported":1727618868,"current_range_meters":24000,"station_id":"ce4bhh12rcd13ifvqfg0","pricing_plan_id":"cebpf4jnsgd1na2vs0mg"},{"bike_id":"eea12b89-a4b9-4465-bf70-63f96d0e2d12","system_id":"levelo_inurba_marseille","lat":43.34152,"lon":5.40905,"is_reserved":false,"is_disabled":false,"rental_uris":{"android":"levelo://app?vid=eea12b89-a4b9-4465-bf70-63f96d0e2d12","ios":"levelo://app?vid=eea12b89-a4b9-4465-bf70-63f96d0e2d12"},"vehicle_type_id":"4","last_reported":1727618868,"current_range_meters":8000,"station_id":"ce4bhqh2rcd13ifvqhlg","pricing_plan_id":"cebpf4jnsgd1na2vs0mg"},{"bike_id":"65b9b958-16f1-411c-a2c7-3c2353d4d07c","system_id":"levelo_inurba_marseille","lat":43.31758,"lon":5.38998,"is_reserved":false,"is_disabled":false,"rental_uris":{"android":"levelo://app?vid=65b9b958-16f1-411c-a2c7-3c2353d4d07c","ios":"levelo://app?vid=65b9b958-16f1-411c-a2c7-3c2353d4d07c"},"vehicle_type_id":"4","last_reported":1727618868,"current_range_meters":38800,"station_id":"ce4bhqp2rcd13ifvqhng","pricing_plan_id":"cebpf4jnsgd1na2vs0mg"},{"bike_id":"0521cc37-3a0f-4bc8-964a-96f026706e98","system_id":"levelo_inurba_marseille","lat":43.280199,"lon":5.360832,"is_reserved":false,"is_disabled":false,"rental_uris":{"android":"levelo://app?vid=0521cc37-3a0f-4bc8-964a-96f026706e98","ios":"levelo://app?vid=0521cc37-3a0f-4bc8-964a-96f026706e98"},"vehicle_type_id":"4","last_reported":1727618868,"current_range_meters":24400,"station_id":"","pricing_plan_id":"cebpf4jnsgd1na2vs0mg"},{"bike_id":"16ec8307-385e-405a-9539-99931243da4a","system_id":"levelo_inurba_marseille","lat":43.29537,"lon":5.42274,"is_reserved":false,"is_disabled":false,"rental_uris":{"android":"levelo://app?vid=16ec8307-385e-405a-9539-99931243da4a","ios":"levelo://app?vid=16ec8307-385e-405a-9539-99931243da4a"},"vehicle_type_id":"4","last_reported":1727618868,"current_range_meters":38400,"station_id":"ce4bhph2rcd13ifvqhdg","pricing_plan_id":"cebpf4jnsgd1na2vs0mg"},{"bike_id":"f51ce311-71f3-4c10-ab18-96668c08974f","system_id":"levelo_inurba_marseille","lat":43.28267,"lon":5.35064,"is_reserved":false,"is_disabled":false,"rental_uris":{"android":"levelo://app?vid=f51ce311-71f3-4c10-ab18-96668c08974f","ios":"levelo://app?vid=f51ce311-71f3-4c10-ab18-96668c08974f"},"vehicle_type_id":"4","last_reported":1727618868,"current_range_meters":12400,"station_id":"ce4bhbp2rcd13ifvqerg","pricing_plan_id":"cebpf4jnsgd1na2vs0mg"},{"bike_id":"94580139-2a2e-4ceb-92d0-8deea01c9cc5","system_id":"levelo_inurba_marseille","lat":43.23151,"lon":5.43733,"is_reserved":false,"is_disabled":false,"rental_uris":{"android":"levelo://app?vid=94580139-2a2e-4ceb-92d0-8deea01c9cc5","ios":"levelo://app?vid=94580139-2a2e-4ceb-92d0-8deea01c9cc5"},"vehicle_type_id":"4","last_reported":1727618868,"current_range_meters":10800,"station_id":"ce4bhmp2rcd13ifvqgog","pricing_plan_id":"cebpf4jnsgd1na2vs0mg"},{"bike_id":"0490b898-1b74-4218-a165-96b00aca9a07","system_id":"levelo_inurba_marseille","lat":43.28414,"lon":5.34981,"is_reserved":false,"is_disabled":false,"rental_uris":{"android":"levelo://app?vid=0490b898-1b74-4218-a165-96b00aca9a07","ios":"levelo://app?vid=0490b898-1b74-4218-a165-96b00aca9a07"},"vehicle_type_id":"4","last_reported":1727618868,"current_range_meters":40000,"station_id":"ce4bhbh2rcd13ifvqepg","pricing_plan_id":"cebpf4jnsgd1na2vs0mg"},{"bike_id":"1ce7c25b-6bd2-4b64-b4ae-543ea784fc5d","system_id":"levelo_inurba_marseille","lat":43.337444,"lon":5.374475,"is_reserved":false,"is_disabled":false,"rental_uris":{"android":"levelo://app?vid=1ce7c25b-6bd2-4b64-b4ae-543ea784fc5d","ios":"levelo://app?vid=1ce7c25b-6bd2-4b64-b4ae-543ea784fc5d"},"vehicle_type_id":"4","last_reported":1727618868,"current_range_meters":32400,"station_id":"","pricing_plan_id":"cebpf4jnsgd1na2vs0mg"},{"bike_id":"eeb4b54b-284a-4a51-af38-bfe005d55c3e","system_id":"levelo_inurba_marseille","lat":43.24812,"lon":5.37463,"is_reserved":false,"is_disabled":false,"rental_uris":{"android":"levelo://app?vid=eeb4b54b-284a-4a51-af38-bfe005d55c3e","ios":"levelo://app?vid=eeb4b54b-284a-4a51-af38-bfe005d55c3e"},"vehicle_type_id":"4","last_reported":1727618868,"current_range_meters":38800,"station_id":"ce4bhgh2rcd13ifvqfb0","pricing_plan_id":"cebpf4jnsgd1na2vs0mg"},{"bike_id":"0f6914a7-fbf2-45ee-b431-adad0a220610","system_id":"levelo_inurba_marseille","lat":43.30296,"lon":5.36871,"is_reserved":false,"is_disabled":false,"rental_uris":{"android":"levelo://app?vid=0f6914a7-fbf2-45ee-b431-adad0a220610","ios":"levelo://app?vid=0f6914a7-fbf2-45ee-b431-adad0a220610"},"vehicle_type_id":"4","last_reported":1727618868,"current_range_meters":8000,"station_id":"ce4bgqh2rcd13ifvqc5g","pricing_plan_id":"cebpf4jnsgd1na2vs0mg"},{"bike_id":"0c6a3edd-0259-43fd-a8d1-3d4bb6023605","system_id":"levelo_inurba_marseille","lat":43.2439,"lon":5.37053,"is_reserved":false,"is_disabled":false,"rental_uris":{"android":"levelo://app?vid=0c6a3edd-0259-43fd-a8d1-3d4bb6023605","ios":"levelo://app?vid=0c6a3edd-0259-43fd-a8d1-3d4bb6023605"},"vehicle_type_id":"4","last_reported":1727618868,"current_range_meters":38800,"station_id":"ce4bhhh2rcd13ifvqfk0","pricing_plan_id":"cebpf4jnsgd1na2vs0mg"},{"bike_id":"726cd938-69ee-4bea-9cc5-8900a7f1ff69","system_id":"levelo_inurba_marseille","lat":43.23069,"lon":5.35492,"is_reserved":false,"is_disabled":false,"rental_uris":{"android":"levelo://app?vid=726cd938-69ee-4bea-9cc5-8900a7f1ff69","ios":"levelo://app?vid=726cd938-69ee-4bea-9cc5-8900a7f1ff69"},"vehicle_type_id":"4","last_reported":1727618868,"current_range_meters":8400,"station_id":"cpo3342slgdg3j2ifvpg","pricing_plan_id":"cebpf4jnsgd1na2vs0mg"},{"bike_id":"edc1d7d7-1dd5-4a84-b77e-d1985dba6ef3","system_id":"levelo_inurba_marseille","lat":43.23174,"lon":5.39983,"is_reserved":false,"is_disabled":false,"rental_uris":{"android":"levelo://app?vid=edc1d7d7-1dd5-4a84-b77e-d1985dba6ef3","ios":"levelo://app?vid=edc1d7d7-1dd5-4a84-b77e-d1985dba6ef3"},"vehicle_type_id":"4","last_reported":1727618868,"current_range_meters":24800,"station_id":"ce4bhn12rcd13ifvqgqg","pricing_plan_id":"cebpf4jnsgd1na2vs0mg"},{"bike_id":"dea26cbf-9c02-4786-a3a1-6456744f7ebe","system_id":"levelo_inurba_marseille","lat":43.30793,"lon":5.43526,"is_reserved":false,"is_disabled":false,"rental_uris":{"android":"levelo://app?vid=dea26cbf-9c02-4786-a3a1-6456744f7ebe","ios":"levelo://app?vid=dea26cbf-9c02-4786-a3a1-6456744f7ebe"},"vehicle_type_id":"4","last_reported":1727618868,"current_range_meters":24800,"station_id":"ce4bhph2rcd13ifvqheg","pricing_plan_id":"cebpf4jnsgd1na2vs0mg"},{"bike_id":"9e3eeb26-cc9e-49cd-b725-9554a29e2b2b","system_id":"levelo_inurba_marseille","lat":43.25724,"lon":5.41106,"is_reserved":false,"is_disabled":false,"rental_uris":{"android":"levelo://app?vid=9e3eeb26-cc9e-49cd-b725-9554a29e2b2b","ios":"levelo://app?vid=9e3eeb26-cc9e-49cd-b725-9554a29e2b2b"},"vehicle_type_id":"4","last_reported":1727618868,"current_range_meters":6400,"station_id":"ce4bhkp2rcd13ifvqgd0","pricing_plan_id":"cebpf4jnsgd1na2vs0mg"},{"bike_id":"6a52f468-9bf5-46c2-819d-2c732c18128e","system_id":"levelo_inurba_marseille","lat":43.23961,"lon":5.36628,"is_reserved":false,"is_disabled":false,"rental_uris":{"android":"levelo://app?vid=6a52f468-9bf5-46c2-819d-2c732c18128e","ios":"levelo://app?vid=6a52f468-9bf5-46c2-819d-2c732c18128e"},"vehicle_type_id":"4","last_reported":1727618868,"current_range_meters":35600,"station_id":"ce4bhi12rcd13ifvqfp0","pricing_plan_id":"cebpf4jnsgd1na2vs0mg"},{"bike_id":"68f95a61-e701-4da5-a0c3-58758648f9c2","system_id":"levelo_inurba_marseille","lat":43.32491,"lon":5.36563,"is_reserved":false,"is_disabled":false,"rental_uris":{"android":"levelo://app?vid=68f95a61-e701-4da5-a0c3-58758648f9c2","ios":"levelo://app?vid=68f95a61-e701-4da5-a0c3-58758648f9c2"},"vehicle_type_id":"4","last_reported":1727618868,"current_range_meters":20400,"station_id":"ce4bhs12rcd13ifvqhvg","pricing_plan_id":"cebpf4jnsgd1na2vs0mg"},{"bike_id":"f8b3617c-bde0-4761-9ca8-23cddd4406d0","system_id":"levelo_inurba_marseille","lat":43.29961,"lon":5.41316,"is_reserved":false,"is_disabled":false,"rental_uris":{"android":"levelo://app?vid=f8b3617c-bde0-4761-9ca8-23cddd4406d0","ios":"levelo://app?vid=f8b3617c-bde0-4761-9ca8-23cddd4406d0"},"vehicle_type_id":"4","last_reported":1727618868,"current_range_meters":18000,"station_id":"ce4bhp12rcd13ifvqh9g","pricing_plan_id":"cebpf4jnsgd1na2vs0mg"},{"bike_id":"77e3f01c-d9d7-4a40-b4e7-e8725560036d","system_id":"levelo_inurba_marseille","lat":43.28569,"lon":5.39494,"is_reserved":false,"is_disabled":false,"rental_uris":{"android":"levelo://app?vid=77e3f01c-d9d7-4a40-b4e7-e8725560036d","ios":"levelo://app?vid=77e3f01c-d9d7-4a40-b4e7-e8725560036d"},"vehicle_type_id":"4","last_reported":1727618868,"current_range_meters":19200,"station_id":"ce4bh292rcd13ifvqdg0","pricing_plan_id":"cebpf4jnsgd1na2vs0mg"},{"bike_id":"240b6ed0-de28-4b78-b2af-b6ff5eb271e9","system_id":"levelo_inurba_marseille","lat":43.23589,"lon":5.36615,"is_reserved":false,"is_disabled":false,"rental_uris":{"android":"levelo://app?vid=240b6ed0-de28-4b78-b2af-b6ff5eb271e9","ios":"levelo://app?vid=240b6ed0-de28-4b78-b2af-b6ff5eb271e9"},"vehicle_type_id":"4","last_reported":1727618868,"current_range_meters":30400,"station_id":"","pricing_plan_id":"cebpf4jnsgd1na2vs0mg"},{"bike_id":"9cab4b77-e73b-485b-9196-05681379298d","system_id":"levelo_inurba_marseille","lat":43.32316,"lon":5.38286,"is_reserved":false,"is_disabled":false,"rental_uris":{"android":"levelo://app?vid=9cab4b77-e73b-485b-9196-05681379298d","ios":"levelo://app?vid=9cab4b77-e73b-485b-9196-05681379298d"},"vehicle_type_id":"4","last_reported":1727618868,"current_range_meters":37600,"station_id":"ce4bhr12rcd13ifvqhqg","pricing_plan_id":"cebpf4jnsgd1na2vs0mg"},{"bike_id":"ec79265c-889d-4330-a005-d8fba96f8dca","system_id":"levelo_inurba_marseille","lat":43.25936,"lon":5.40899,"is_reserved":false,"is_disabled":false,"rental_uris":{"android":"levelo://app?vid=ec79265c-889d-4330-a005-d8fba96f8dca","ios":"levelo://app?vid=ec79265c-889d-4330-a005-d8fba96f8dca"},"vehicle_type_id":"4","last_reported":1727618868,"current_range_meters":35200,"station_id":"ce4bhm92rcd13ifvqglg","pricing_plan_id":"cebpf4jnsgd1na2vs0mg"},{"bike_id":"9c8a7fb8-468c-4f0e-ac79-1458ba7682db","system_id":"levelo_inurba_marseille","lat":43.22936,"lon":5.35376,"is_reserved":false,"is_disabled":false,"rental_uris":{"android":"levelo://app?vid=9c8a7fb8-468c-4f0e-ac79-1458ba7682db","ios":"levelo://app?vid=9c8a7fb8-468c-4f0e-ac79-1458ba7682db"},"vehicle_type_id":"4","last_reported":1727618868,"current_range_meters":8400,"station_id":"cpo3532slgdg3j2ikp40","pricing_plan_id":"cebpf4jnsgd1na2vs0mg"},{"bike_id":"8052f078-4e20-41b6-b408-0331d8013a67","system_id":"levelo_inurba_marseille","lat":43.2396,"lon":5.36625,"is_reserved":false,"is_disabled":false,"rental_uris":{"android":"levelo://app?vid=8052f078-4e20-41b6-b408-0331d8013a67","ios":"levelo://app?vid=8052f078-4e20-41b6-b408-0331d8013a67"},"vehicle_type_id":"4","last_reported":1727618868,"current_range_meters":18800,"station_id":"ce4bhi12rcd13ifvqfp0","pricing_plan_id":"cebpf4jnsgd1na2vs0mg"},{"bike_id":"8041d409-9418-49cc-938d-a60d95dc0093","system_id":"levelo_inurba_marseille","lat":43.23157,"lon":5.43711,"is_reserved":false,"is_disabled":false,"rental_uris":{"android":"levelo://app?vid=8041d409-9418-49cc-938d-a60d95dc0093","ios":"levelo://app?vid=8041d409-9418-49cc-938d-a60d95dc0093"},"vehicle_type_id":"4","last_reported":1727618868,"current_range_meters":5600,"station_id":"ce4bhmp2rcd13ifvqgog","pricing_plan_id":"cebpf4jnsgd1na2vs0mg"},{"bike_id":"883dbd06-c2fc-4488-9b5e-ef4f05339f9b","system_id":"levelo_inurba_marseille","lat":43.30215,"lon":5.36623,"is_reserved":false,"is_disabled":false,"rental_uris":{"android":"levelo://app?vid=883dbd06-c2fc-4488-9b5e-ef4f05339f9b","ios":"levelo://app?vid=883dbd06-c2fc-4488-9b5e-ef4f05339f9b"},"vehicle_type_id":"4","last_reported":1727618868,"current_range_meters":29600,"station_id":"ce4bgrh2rcd13ifvqc8g","pricing_plan_id":"cebpf4jnsgd1na2vs0mg"},{"bike_id":"60e896e6-e68a-443e-87ec-da2febd95ae5","system_id":"levelo_inurba_marseille","lat":43.27203,"lon":5.39188,"is_reserved":false,"is_disabled":false,"rental_uris":{"android":"levelo://app?vid=60e896e6-e68a-443e-87ec-da2febd95ae5","ios":"levelo://app?vid=60e896e6-e68a-443e-87ec-da2febd95ae5"},"vehicle_type_id":"4","last_reported":1727618868,"current_range_meters":36000,"station_id":"ce4bhhp2rcd13ifvqfm0","pricing_plan_id":"cebpf4jnsgd1na2vs0mg"},{"bike_id":"cf2a99f0-171d-46e2-b5f9-b8e518581e33","system_id":"levelo_inurba_marseille","lat":43.23966,"lon":5.36621,"is_reserved":false,"is_disabled":false,"rental_uris":{"android":"levelo://app?vid=cf2a99f0-171d-46e2-b5f9-b8e518581e33","ios":"levelo://app?vid=cf2a99f0-171d-46e2-b5f9-b8e518581e33"},"vehicle_type_id":"4","last_reported":1727618868,"current_range_meters":33200,"station_id":"ce4bhi12rcd13ifvqfp0","pricing_plan_id":"cebpf4jnsgd1na2vs0mg"},{"bike_id":"279407de-8515-474b-b8f8-878d87c3f8e0","system_id":"levelo_inurba_marseille","lat":43.31224,"lon":5.36875,"is_reserved":false,"is_disabled":false,"rental_uris":{"android":"levelo://app?vid=279407de-8515-474b-b8f8-878d87c3f8e0","ios":"levelo://app?vid=279407de-8515-474b-b8f8-878d87c3f8e0"},"vehicle_type_id":"4","last_reported":1727618868,"current_range_meters":9600,"station_id":"ce4bgl92rcd13ifvqbq0","pricing_plan_id":"cebpf4jnsgd1na2vs0mg"},{"bike_id":"5566361a-b347-4042-87d5-b7f85faf3918","system_id":"levelo_inurba_marseille","lat":43.31078,"lon":5.40089,"is_reserved":false,"is_disabled":false,"rental_uris":{"android":"levelo://app?vid=5566361a-b347-4042-87d5-b7f85faf3918","ios":"levelo://app?vid=5566361a-b347-4042-87d5-b7f85faf3918"},"vehicle_type_id":"4","last_reported":1727618868,"current_range_meters":7200,"station_id":"","pricing_plan_id":"cebpf4jnsgd1na2vs0mg"},{"bike_id":"a1585792-a705-409d-93a4-c31da8100088","system_id":"levelo_inurba_marseille","lat":43.23195,"lon":5.35548,"is_reserved":false,"is_disabled":false,"rental_uris":{"android":"levelo://app?vid=a1585792-a705-409d-93a4-c31da8100088","ios":"levelo://app?vid=a1585792-a705-409d-93a4-c31da8100088"},"vehicle_type_id":"4","last_reported":1727618868,"current_range_meters":9200,"station_id":"ce4bhu92rcd13ifvqi70","pricing_plan_id":"cebpf4jnsgd1na2vs0mg"},{"bike_id":"b8e2d9f3-2bfa-4db2-9db3-10638d12c8e0","system_id":"levelo_inurba_marseille","lat":43.273762,"lon":5.362533,"is_reserved":false,"is_disabled":false,"rental_uris":{"android":"levelo://app?vid=b8e2d9f3-2bfa-4db2-9db3-10638d12c8e0","ios":"levelo://app?vid=b8e2d9f3-2bfa-4db2-9db3-10638d12c8e0"},"vehicle_type_id":"4","last_reported":1727618868,"current_range_meters":37600,"station_id":"ce4bhbh2rcd13ifvqeo0","pricing_plan_id":"cebpf4jnsgd1na2vs0mg"},{"bike_id":"fdb61897-97d0-4689-adc4-02e79ee31d57","system_id":"levelo_inurba_marseille","lat":43.23957,"lon":5.36629,"is_reserved":false,"is_disabled":false,"rental_uris":{"android":"levelo://app?vid=fdb61897-97d0-4689-adc4-02e79ee31d57","ios":"levelo://app?vid=fdb61897-97d0-4689-adc4-02e79ee31d57"},"vehicle_type_id":"4","last_reported":1727618868,"current_range_meters":36400,"station_id":"ce4bhi12rcd13ifvqfp0","pricing_plan_id":"cebpf4jnsgd1na2vs0mg"},{"bike_id":"52f17877-110a-422d-89ae-fdeda162e6f3","system_id":"levelo_inurba_marseille","lat":43.23961,"lon":5.36624,"is_reserved":false,"is_disabled":false,"rental_uris":{"android":"levelo://app?vid=52f17877-110a-422d-89ae-fdeda162e6f3","ios":"levelo://app?vid=52f17877-110a-422d-89ae-fdeda162e6f3"},"vehicle_type_id":"4","last_reported":1727618868,"current_range_meters":7200,"station_id":"ce4bhi12rcd13ifvqfp0","pricing_plan_id":"cebpf4jnsgd1na2vs0mg"},{"bike_id":"867fa1e2-6357-4cf5-ad17-e0a62cccfa20","system_id":"levelo_inurba_marseille","lat":43.2953,"lon":5.38546,"is_reserved":false,"is_disabled":false,"rental_uris":{"android":"levelo://app?vid=867fa1e2-6357-4cf5-ad17-e0a62cccfa20","ios":"levelo://app?vid=867fa1e2-6357-4cf5-ad17-e0a62cccfa20"},"vehicle_type_id":"4","last_reported":1727618868,"current_range_meters":30400,"station_id":"ce4bgih2rcd13ifvqba0","pricing_plan_id":"cebpf4jnsgd1na2vs0mg"},{"bike_id":"8717b2c7-9eb0-4359-b770-6af61233ba7d","system_id":"levelo_inurba_marseille","lat":43.28978,"lon":5.37836,"is_reserved":false,"is_disabled":false,"rental_uris":{"android":"levelo://app?vid=8717b2c7-9eb0-4359-b770-6af61233ba7d","ios":"levelo://app?vid=8717b2c7-9eb0-4359-b770-6af61233ba7d"},"vehicle_type_id":"4","last_reported":1727618868,"current_range_meters":32800,"station_id":"","pricing_plan_id":"cebpf4jnsgd1na2vs0mg"},{"bike_id":"6dccb071-7fce-44ee-af0c-c8f907582e7b","system_id":"levelo_inurba_marseille","lat":43.28404,"lon":5.37513,"is_reserved":false,"is_disabled":false,"rental_uris":{"android":"levelo://app?vid=6dccb071-7fce-44ee-af0c-c8f907582e7b","ios":"levelo://app?vid=6dccb071-7fce-44ee-af0c-c8f907582e7b"},"vehicle_type_id":"4","last_reported":1727618868,"current_range_meters":8800,"station_id":"ce4bh412rcd13ifvqds0","pricing_plan_id":"cebpf4jnsgd1na2vs0mg"},{"bike_id":"87338c1f-f69b-4a70-b906-14af9e9c148a","system_id":"levelo_inurba_marseille","lat":43.32547,"lon":5.41445,"is_reserved":false,"is_disabled":false,"rental_uris":{"android":"levelo://app?vid=87338c1f-f69b-4a70-b906-14af9e9c148a","ios":"levelo://app?vid=87338c1f-f69b-4a70-b906-14af9e9c148a"},"vehicle_type_id":"4","last_reported":1727618868,"current_range_meters":40000,"station_id":"ce4bhq12rcd13ifvqhhg","pricing_plan_id":"cebpf4jnsgd1na2vs0mg"},{"bike_id":"9e0e602a-711e-4e75-a4b3-f0d70db8f823","system_id":"levelo_inurba_marseille","lat":43.23964,"lon":5.36632,"is_reserved":false,"is_disabled":false,"rental_uris":{"android":"levelo://app?vid=9e0e602a-711e-4e75-a4b3-f0d70db8f823","ios":"levelo://app?vid=9e0e602a-711e-4e75-a4b3-f0d70db8f823"},"vehicle_type_id":"4","last_reported":1727618868,"current_range_meters":14400,"station_id":"ce4bhi12rcd13ifvqfp0","pricing_plan_id":"cebpf4jnsgd1na2vs0mg"},{"bike_id":"124cc49e-bc3f-4ee2-96b6-78f4c29aba27","system_id":"levelo_inurba_marseille","lat":43.25011,"lon":5.38918,"is_reserved":false,"is_disabled":false,"rental_uris":{"android":"levelo://app?vid=124cc49e-bc3f-4ee2-96b6-78f4c29aba27","ios":"levelo://app?vid=124cc49e-bc3f-4ee2-96b6-78f4c29aba27"},"vehicle_type_id":"4","last_reported":1727618868,"current_range_meters":23200,"station_id":"ce4bhgp2rcd13ifvqfd0","pricing_plan_id":"cebpf4jnsgd1na2vs0mg"},{"bike_id":"e15fc624-10d4-48c6-8836-d53a871a2c45","system_id":"levelo_inurba_marseille","lat":43.28149,"lon":5.42642,"is_reserved":false,"is_disabled":false,"rental_uris":{"android":"levelo://app?vid=e15fc624-10d4-48c6-8836-d53a871a2c45","ios":"levelo://app?vid=e15fc624-10d4-48c6-8836-d53a871a2c45"},"vehicle_type_id":"4","last_reported":1727618868,"current_range_meters":38000,"station_id":"ce4bhnh2rcd13ifvqgug","pricing_plan_id":"cebpf4jnsgd1na2vs0mg"},{"bike_id":"ed97208b-203a-4ec8-b3ae-5f47fb42cae1","system_id":"levelo_inurba_marseille","lat":43.30905,"lon":5.36844,"is_reserved":false,"is_disabled":false,"rental_uris":{"android":"levelo://app?vid=ed97208b-203a-4ec8-b3ae-5f47fb42cae1","ios":"levelo://app?vid=ed97208b-203a-4ec8-b3ae-5f47fb42cae1"},"vehicle_type_id":"4","last_reported":1727618868,"current_range_meters":32000,"station_id":"ce4bgn92rcd13ifvqbvg","pricing_plan_id":"cebpf4jnsgd1na2vs0mg"},{"bike_id":"286a38be-9a17-42ac-b216-07a9e5a83131","system_id":"levelo_inurba_marseille","lat":43.23188,"lon":5.35541,"is_reserved":false,"is_disabled":false,"rental_uris":{"android":"levelo://app?vid=286a38be-9a17-42ac-b216-07a9e5a83131","ios":"levelo://app?vid=286a38be-9a17-42ac-b216-07a9e5a83131"},"vehicle_type_id":"4","last_reported":1727618868,"current_range_meters":18000,"station_id":"ce4bhu92rcd13ifvqi70","pricing_plan_id":"cebpf4jnsgd1na2vs0mg"},{"bike_id":"9116828f-d560-4357-84f5-0b8af952d459","system_id":"levelo_inurba_marseille","lat":43.23194,"lon":5.35556,"is_reserved":false,"is_disabled":false,"rental_uris":{"android":"levelo://app?vid=9116828f-d560-4357-84f5-0b8af952d459","ios":"levelo://app?vid=9116828f-d560-4357-84f5-0b8af952d459"},"vehicle_type_id":"4","last_reported":1727618868,"current_range_meters":22000,"station_id":"ce4bhu92rcd13ifvqi70","pricing_plan_id":"cebpf4jnsgd1na2vs0mg"},{"bike_id":"f20ee96b-65b7-46d6-812e-6df84ab3c9c7","system_id":"levelo_inurba_marseille","lat":43.32043,"lon":5.38065,"is_reserved":false,"is_disabled":false,"rental_uris":{"android":"levelo://app?vid=f20ee96b-65b7-46d6-812e-6df84ab3c9c7","ios":"levelo://app?vid=f20ee96b-65b7-46d6-812e-6df84ab3c9c7"},"vehicle_type_id":"4","last_reported":1727618868,"current_range_meters":37600,"station_id":"ce4bgl92rcd13ifvqbq0","pricing_plan_id":"cebpf4jnsgd1na2vs0mg"},{"bike_id":"07ab11cd-dbaf-44b3-96fc-9f1de1d31415","system_id":"levelo_inurba_marseille","lat":43.2319,"lon":5.35548,"is_reserved":false,"is_disabled":false,"rental_uris":{"android":"levelo://app?vid=07ab11cd-dbaf-44b3-96fc-9f1de1d31415","ios":"levelo://app?vid=07ab11cd-dbaf-44b3-96fc-9f1de1d31415"},"vehicle_type_id":"4","last_reported":1727618868,"current_range_meters":24000,"station_id":"ce4bhu92rcd13ifvqi70","pricing_plan_id":"cebpf4jnsgd1na2vs0mg"},{"bike_id":"fb0c80a4-445a-49db-9f1d-78ce39e14a47","system_id":"levelo_inurba_marseille","lat":43.28411,"lon":5.34989,"is_reserved":false,"is_disabled":false,"rental_uris":{"android":"levelo://app?vid=fb0c80a4-445a-49db-9f1d-78ce39e14a47","ios":"levelo://app?vid=fb0c80a4-445a-49db-9f1d-78ce39e14a47"},"vehicle_type_id":"4","last_reported":1727618868,"current_range_meters":30800,"station_id":"ce4bhbh2rcd13ifvqepg","pricing_plan_id":"cebpf4jnsgd1na2vs0mg"},{"bike_id":"408d9401-5194-45b1-948e-a2c15040c41f","system_id":"levelo_inurba_marseille","lat":43.23198,"lon":5.35547,"is_reserved":false,"is_disabled":false,"rental_uris":{"android":"levelo://app?vid=408d9401-5194-45b1-948e-a2c15040c41f","ios":"levelo://app?vid=408d9401-5194-45b1-948e-a2c15040c41f"},"vehicle_type_id":"4","last_reported":1727618868,"current_range_meters":16400,"station_id":"ce4bhu92rcd13ifvqi70","pricing_plan_id":"cebpf4jnsgd1na2vs0mg"},{"bike_id":"fcff07e1-30b7-4a77-9260-27ecc6fc4b8d","system_id":"levelo_inurba_marseille","lat":43.2721,"lon":5.39181,"is_reserved":false,"is_disabled":false,"rental_uris":{"android":"levelo://app?vid=fcff07e1-30b7-4a77-9260-27ecc6fc4b8d","ios":"levelo://app?vid=fcff07e1-30b7-4a77-9260-27ecc6fc4b8d"},"vehicle_type_id":"4","last_reported":1727618868,"current_range_meters":34800,"station_id":"ce4bhhp2rcd13ifvqfm0","pricing_plan_id":"cebpf4jnsgd1na2vs0mg"},{"bike_id":"40137c71-656d-434d-af7d-2b63fbd45915","system_id":"levelo_inurba_marseille","lat":43.25817,"lon":5.39427,"is_reserved":false,"is_disabled":false,"rental_uris":{"android":"levelo://app?vid=40137c71-656d-434d-af7d-2b63fbd45915","ios":"levelo://app?vid=40137c71-656d-434d-af7d-2b63fbd45915"},"vehicle_type_id":"4","last_reported":1727618868,"current_range_meters":36800,"station_id":"ce4bhip2rcd13ifvqft0","pricing_plan_id":"cebpf4jnsgd1na2vs0mg"},{"bike_id":"3e5f5bb3-08c6-4087-a33a-2a7cdc9e4791","system_id":"levelo_inurba_marseille","lat":43.23194,"lon":5.35551,"is_reserved":false,"is_disabled":false,"rental_uris":{"android":"levelo://app?vid=3e5f5bb3-08c6-4087-a33a-2a7cdc9e4791","ios":"levelo://app?vid=3e5f5bb3-08c6-4087-a33a-2a7cdc9e4791"},"vehicle_type_id":"4","last_reported":1727618868,"current_range_meters":17600,"station_id":"ce4bhu92rcd13ifvqi70","pricing_plan_id":"cebpf4jnsgd1na2vs0mg"},{"bike_id":"1cc28bb0-757a-4001-abec-c1f1497a0345","system_id":"levelo_inurba_marseille","lat":43.31757,"lon":5.3901,"is_reserved":false,"is_disabled":false,"rental_uris":{"android":"levelo://app?vid=1cc28bb0-757a-4001-abec-c1f1497a0345","ios":"levelo://app?vid=1cc28bb0-757a-4001-abec-c1f1497a0345"},"vehicle_type_id":"4","last_reported":1727618868,"current_range_meters":38000,"station_id":"ce4bhqp2rcd13ifvqhng","pricing_plan_id":"cebpf4jnsgd1na2vs0mg"},{"bike_id":"b01722db-de21-4423-b59e-8a95ab7d80c6","system_id":"levelo_inurba_marseille","lat":43.28418,"lon":5.3498,"is_reserved":false,"is_disabled":false,"rental_uris":{"android":"levelo://app?vid=b01722db-de21-4423-b59e-8a95ab7d80c6","ios":"levelo://app?vid=b01722db-de21-4423-b59e-8a95ab7d80c6"},"vehicle_type_id":"4","last_reported":1727618868,"current_range_meters":38800,"station_id":"ce4bhbh2rcd13ifvqepg","pricing_plan_id":"cebpf4jnsgd1na2vs0mg"},{"bike_id":"40af7eb4-6cd7-462c-b9fb-34273e78aa71","system_id":"levelo_inurba_marseille","lat":43.24072,"lon":5.3776,"is_reserved":false,"is_disabled":false,"rental_uris":{"android":"levelo://app?vid=40af7eb4-6cd7-462c-b9fb-34273e78aa71","ios":"levelo://app?vid=40af7eb4-6cd7-462c-b9fb-34273e78aa71"},"vehicle_type_id":"4","last_reported":1727618868,"current_range_meters":11200,"station_id":"ce4bhnp2rcd13ifvqgvg","pricing_plan_id":"cebpf4jnsgd1na2vs0mg"},{"bike_id":"1f313afb-1cf8-4bb7-8831-2c9f193c2d0c","system_id":"levelo_inurba_marseille","lat":43.24812,"lon":5.37461,"is_reserved":false,"is_disabled":false,"rental_uris":{"android":"levelo://app?vid=1f313afb-1cf8-4bb7-8831-2c9f193c2d0c","ios":"levelo://app?vid=1f313afb-1cf8-4bb7-8831-2c9f193c2d0c"},"vehicle_type_id":"4","last_reported":1727618868,"current_range_meters":40000,"station_id":"ce4bhgh2rcd13ifvqfb0","pricing_plan_id":"cebpf4jnsgd1na2vs0mg"},{"bike_id":"a63d4449-4f5a-4f1c-9a3c-27c8d74bd2a3","system_id":"levelo_inurba_marseille","lat":43.24395,"lon":5.37063,"is_reserved":false,"is_disabled":false,"rental_uris":{"android":"levelo://app?vid=a63d4449-4f5a-4f1c-9a3c-27c8d74bd2a3","ios":"levelo://app?vid=a63d4449-4f5a-4f1c-9a3c-27c8d74bd2a3"},"vehicle_type_id":"4","last_reported":1727618868,"current_range_meters":10000,"station_id":"ce4bhhh2rcd13ifvqfk0","pricing_plan_id":"cebpf4jnsgd1na2vs0mg"},{"bike_id":"592afb6a-694d-4064-a18d-efbc160afc67","system_id":"levelo_inurba_marseille","lat":43.31119,"lon":5.37771,"is_reserved":false,"is_disabled":false,"rental_uris":{"android":"levelo://app?vid=592afb6a-694d-4064-a18d-efbc160afc67","ios":"levelo://app?vid=592afb6a-694d-4064-a18d-efbc160afc67"},"vehicle_type_id":"4","last_reported":1727618868,"current_range_meters":32400,"station_id":"ce4bgt92rcd13ifvqcg0","pricing_plan_id":"cebpf4jnsgd1na2vs0mg"},{"bike_id":"652d66df-ff77-40ea-b279-302d9eb679e7","system_id":"levelo_inurba_marseille","lat":43.24651,"lon":5.38892,"is_reserved":false,"is_disabled":false,"rental_uris":{"android":"levelo://app?vid=652d66df-ff77-40ea-b279-302d9eb679e7","ios":"levelo://app?vid=652d66df-ff77-40ea-b279-302d9eb679e7"},"vehicle_type_id":"4","last_reported":1727618868,"current_range_meters":25200,"station_id":"ce4bhg12rcd13ifvqf60","pricing_plan_id":"cebpf4jnsgd1na2vs0mg"},{"bike_id":"bc7dc6a9-589f-4649-9e06-6ce7434d3293","system_id":"levelo_inurba_marseille","lat":43.29041,"lon":5.36946,"is_reserved":false,"is_disabled":false,"rental_uris":{"android":"levelo://app?vid=bc7dc6a9-589f-4649-9e06-6ce7434d3293","ios":"levelo://app?vid=bc7dc6a9-589f-4649-9e06-6ce7434d3293"},"vehicle_type_id":"4","last_reported":1727618868,"current_range_meters":26000,"station_id":"ce4bhah2rcd13ifvqej0","pricing_plan_id":"cebpf4jnsgd1na2vs0mg"},{"bike_id":"f8cd1665-2182-42bb-993d-799437deb95c","system_id":"levelo_inurba_marseille","lat":43.23203,"lon":5.35544,"is_reserved":false,"is_disabled":false,"rental_uris":{"android":"levelo://app?vid=f8cd1665-2182-42bb-993d-799437deb95c","ios":"levelo://app?vid=f8cd1665-2182-42bb-993d-799437deb95c"},"vehicle_type_id":"4","last_reported":1727618868,"current_range_meters":38800,"station_id":"ce4bhu92rcd13ifvqi70","pricing_plan_id":"cebpf4jnsgd1na2vs0mg"},{"bike_id":"c663af0e-cde1-4bd3-995f-fc9e54a41259","system_id":"levelo_inurba_marseille","lat":43.31538,"lon":5.38021,"is_reserved":false,"is_disabled":false,"rental_uris":{"android":"levelo://app?vid=c663af0e-cde1-4bd3-995f-fc9e54a41259","ios":"levelo://app?vid=c663af0e-cde1-4bd3-995f-fc9e54a41259"},"vehicle_type_id":"4","last_reported":1727618868,"current_range_meters":30800,"station_id":"ce4bhsp2rcd13ifvqi50","pricing_plan_id":"cebpf4jnsgd1na2vs0mg"},{"bike_id":"c7b819b8-8f1e-4b7f-b8fc-9d70ecb02591","system_id":"levelo_inurba_marseille","lat":43.28259,"lon":5.35061,"is_reserved":false,"is_disabled":false,"rental_uris":{"android":"levelo://app?vid=c7b819b8-8f1e-4b7f-b8fc-9d70ecb02591","ios":"levelo://app?vid=c7b819b8-8f1e-4b7f-b8fc-9d70ecb02591"},"vehicle_type_id":"4","last_reported":1727618868,"current_range_meters":27200,"station_id":"ce4bhbp2rcd13ifvqerg","pricing_plan_id":"cebpf4jnsgd1na2vs0mg"},{"bike_id":"07451b19-52ad-411d-95a5-14ab17f5360f","system_id":"levelo_inurba_marseille","lat":43.23057,"lon":5.35491,"is_reserved":false,"is_disabled":false,"rental_uris":{"android":"levelo://app?vid=07451b19-52ad-411d-95a5-14ab17f5360f","ios":"levelo://app?vid=07451b19-52ad-411d-95a5-14ab17f5360f"},"vehicle_type_id":"4","last_reported":1727618868,"current_range_meters":16400,"station_id":"cpo3342slgdg3j2ifvpg","pricing_plan_id":"cebpf4jnsgd1na2vs0mg"},{"bike_id":"ebc1f7d0-bbac-4eeb-85f6-616cf9dbef90","system_id":"levelo_inurba_marseille","lat":43.27926,"lon":5.39571,"is_reserved":false,"is_disabled":false,"rental_uris":{"android":"levelo://app?vid=ebc1f7d0-bbac-4eeb-85f6-616cf9dbef90","ios":"levelo://app?vid=ebc1f7d0-bbac-4eeb-85f6-616cf9dbef90"},"vehicle_type_id":"4","last_reported":1727618868,"current_range_meters":30400,"station_id":"ce4bhf92rcd13ifvqf40","pricing_plan_id":"cebpf4jnsgd1na2vs0mg"},{"bike_id":"f64fac49-b7b4-4e6a-a11d-693a2b2fbaf8","system_id":"levelo_inurba_marseille","lat":43.26207,"lon":5.37441,"is_reserved":false,"is_disabled":false,"rental_uris":{"android":"levelo://app?vid=f64fac49-b7b4-4e6a-a11d-693a2b2fbaf8","ios":"levelo://app?vid=f64fac49-b7b4-4e6a-a11d-693a2b2fbaf8"},"vehicle_type_id":"4","last_reported":1727618868,"current_range_meters":26800,"station_id":"ce4bhgp2rcd13ifvqfc0","pricing_plan_id":"cebpf4jnsgd1na2vs0mg"},{"bike_id":"ed84faff-17c5-48fb-8753-c2f883b40c1d","system_id":"levelo_inurba_marseille","lat":43.23967,"lon":5.36635,"is_reserved":false,"is_disabled":false,"rental_uris":{"android":"levelo://app?vid=ed84faff-17c5-48fb-8753-c2f883b40c1d","ios":"levelo://app?vid=ed84faff-17c5-48fb-8753-c2f883b40c1d"},"vehicle_type_id":"4","last_reported":1727618868,"current_range_meters":38000,"station_id":"ce4bhi12rcd13ifvqfp0","pricing_plan_id":"cebpf4jnsgd1na2vs0mg"},{"bike_id":"3b170ecf-4bbb-421f-886d-94818fba1de8","system_id":"levelo_inurba_marseille","lat":43.28481,"lon":5.4001,"is_reserved":false,"is_disabled":false,"rental_uris":{"android":"levelo://app?vid=3b170ecf-4bbb-421f-886d-94818fba1de8","ios":"levelo://app?vid=3b170ecf-4bbb-421f-886d-94818fba1de8"},"vehicle_type_id":"4","last_reported":1727618868,"current_range_meters":30800,"station_id":"ce4bh2h2rcd13ifvqdh0","pricing_plan_id":"cebpf4jnsgd1na2vs0mg"},{"bike_id":"b818a14e-3e0e-4e17-b62c-d53194b54ac1","system_id":"levelo_inurba_marseille","lat":43.23067,"lon":5.35486,"is_reserved":false,"is_disabled":false,"rental_uris":{"android":"levelo://app?vid=b818a14e-3e0e-4e17-b62c-d53194b54ac1","ios":"levelo://app?vid=b818a14e-3e0e-4e17-b62c-d53194b54ac1"},"vehicle_type_id":"4","last_reported":1727618868,"current_range_meters":27200,"station_id":"cpo3342slgdg3j2ifvpg","pricing_plan_id":"cebpf4jnsgd1na2vs0mg"},{"bike_id":"7497ada0-4e52-442c-9aa1-86afe522b93f","system_id":"levelo_inurba_marseille","lat":43.29904,"lon":5.43663,"is_reserved":false,"is_disabled":false,"rental_uris":{"android":"levelo://app?vid=7497ada0-4e52-442c-9aa1-86afe522b93f","ios":"levelo://app?vid=7497ada0-4e52-442c-9aa1-86afe522b93f"},"vehicle_type_id":"4","last_reported":1727618868,"current_range_meters":24800,"station_id":"ce4bhpp2rcd13ifvqhfg","pricing_plan_id":"cebpf4jnsgd1na2vs0mg"},{"bike_id":"8a2141b5-4ed1-48ef-bcb9-2550c31a6897","system_id":"levelo_inurba_marseille","lat":43.23956,"lon":5.36622,"is_reserved":false,"is_disabled":false,"rental_uris":{"android":"levelo://app?vid=8a2141b5-4ed1-48ef-bcb9-2550c31a6897","ios":"levelo://app?vid=8a2141b5-4ed1-48ef-bcb9-2550c31a6897"},"vehicle_type_id":"4","last_reported":1727618868,"current_range_meters":18000,"station_id":"ce4bhi12rcd13ifvqfp0","pricing_plan_id":"cebpf4jnsgd1na2vs0mg"},{"bike_id":"b89d744e-3751-4aeb-b0af-0030b039b925","system_id":"levelo_inurba_marseille","lat":43.2996,"lon":5.41316,"is_reserved":false,"is_disabled":false,"rental_uris":{"android":"levelo://app?vid=b89d744e-3751-4aeb-b0af-0030b039b925","ios":"levelo://app?vid=b89d744e-3751-4aeb-b0af-0030b039b925"},"vehicle_type_id":"4","last_reported":1727618868,"current_range_meters":27200,"station_id":"ce4bhp12rcd13ifvqh9g","pricing_plan_id":"cebpf4jnsgd1na2vs0mg"},{"bike_id":"c51e285c-8141-4023-9ee3-49bcc68cf98c","system_id":"levelo_inurba_marseille","lat":43.25092,"lon":5.39511,"is_reserved":false,"is_disabled":false,"rental_uris":{"android":"levelo://app?vid=c51e285c-8141-4023-9ee3-49bcc68cf98c","ios":"levelo://app?vid=c51e285c-8141-4023-9ee3-49bcc68cf98c"},"vehicle_type_id":"4","last_reported":1727618868,"current_range_meters":38000,"station_id":"ce4bhm12rcd13ifvqgkg","pricing_plan_id":"cebpf4jnsgd1na2vs0mg"},{"bike_id":"eedc4536-53fe-4224-ac9a-cb838a1cd9d4","system_id":"levelo_inurba_marseille","lat":43.2439,"lon":5.37061,"is_reserved":false,"is_disabled":false,"rental_uris":{"android":"levelo://app?vid=eedc4536-53fe-4224-ac9a-cb838a1cd9d4","ios":"levelo://app?vid=eedc4536-53fe-4224-ac9a-cb838a1cd9d4"},"vehicle_type_id":"4","last_reported":1727618868,"current_range_meters":16400,"station_id":"ce4bhhh2rcd13ifvqfk0","pricing_plan_id":"cebpf4jnsgd1na2vs0mg"},{"bike_id":"36fc090f-852c-437e-88d1-d37eff71fc57","system_id":"levelo_inurba_marseille","lat":43.29567,"lon":5.37493,"is_reserved":false,"is_disabled":false,"rental_uris":{"android":"levelo://app?vid=36fc090f-852c-437e-88d1-d37eff71fc57","ios":"levelo://app?vid=36fc090f-852c-437e-88d1-d37eff71fc57"},"vehicle_type_id":"4","last_reported":1727618868,"current_range_meters":36400,"station_id":"ce4bgh92rcd13ifvqb50","pricing_plan_id":"cebpf4jnsgd1na2vs0mg"},{"bike_id":"31b96e55-8755-4ad3-9eff-ab1e7c9573a3","system_id":"levelo_inurba_marseille","lat":43.26193,"lon":5.37452,"is_reserved":false,"is_disabled":false,"rental_uris":{"android":"levelo://app?vid=31b96e55-8755-4ad3-9eff-ab1e7c9573a3","ios":"levelo://app?vid=31b96e55-8755-4ad3-9eff-ab1e7c9573a3"},"vehicle_type_id":"4","last_reported":1727618868,"current_range_meters":38800,"station_id":"ce4bhgp2rcd13ifvqfc0","pricing_plan_id":"cebpf4jnsgd1na2vs0mg"},{"bike_id":"eb35b74a-e100-4849-baf8-86135e114bef","system_id":"levelo_inurba_marseille","lat":43.23152,"lon":5.43702,"is_reserved":false,"is_disabled":false,"rental_uris":{"android":"levelo://app?vid=eb35b74a-e100-4849-baf8-86135e114bef","ios":"levelo://app?vid=eb35b74a-e100-4849-baf8-86135e114bef"},"vehicle_type_id":"4","last_reported":1727618868,"current_range_meters":31200,"station_id":"ce4bhmp2rcd13ifvqgog","pricing_plan_id":"cebpf4jnsgd1na2vs0mg"},{"bike_id":"166ad19a-00f6-4de5-bd25-b280ccfd1b18","system_id":"levelo_inurba_marseille","lat":43.25114,"lon":5.40321,"is_reserved":false,"is_disabled":false,"rental_uris":{"android":"levelo://app?vid=166ad19a-00f6-4de5-bd25-b280ccfd1b18","ios":"levelo://app?vid=166ad19a-00f6-4de5-bd25-b280ccfd1b18"},"vehicle_type_id":"4","last_reported":1727618868,"current_range_meters":32800,"station_id":"ce4bhlh2rcd13ifvqgig","pricing_plan_id":"cebpf4jnsgd1na2vs0mg"},{"bike_id":"219fbb01-22b8-4d9a-9ccf-f05c2d34eb36","system_id":"levelo_inurba_marseille","lat":43.32473,"lon":5.36692,"is_reserved":false,"is_disabled":false,"rental_uris":{"android":"levelo://app?vid=219fbb01-22b8-4d9a-9ccf-f05c2d34eb36","ios":"levelo://app?vid=219fbb01-22b8-4d9a-9ccf-f05c2d34eb36"},"vehicle_type_id":"4","last_reported":1727618868,"current_range_meters":10800,"station_id":"ce4bhs12rcd13ifvqhvg","pricing_plan_id":"cebpf4jnsgd1na2vs0mg"},{"bike_id":"0a9db6a3-6f2a-435c-801c-8333c7a53f0c","system_id":"levelo_inurba_marseille","lat":43.23189,"lon":5.35543,"is_reserved":false,"is_disabled":false,"rental_uris":{"android":"levelo://app?vid=0a9db6a3-6f2a-435c-801c-8333c7a53f0c","ios":"levelo://app?vid=0a9db6a3-6f2a-435c-801c-8333c7a53f0c"},"vehicle_type_id":"4","last_reported":1727618868,"current_range_meters":38800,"station_id":"ce4bhu92rcd13ifvqi70","pricing_plan_id":"cebpf4jnsgd1na2vs0mg"},{"bike_id":"04c6f98c-a00d-4b7b-86bb-d43a20d4863f","system_id":"levelo_inurba_marseille","lat":43.2319,"lon":5.35544,"is_reserved":false,"is_disabled":false,"rental_uris":{"android":"levelo://app?vid=04c6f98c-a00d-4b7b-86bb-d43a20d4863f","ios":"levelo://app?vid=04c6f98c-a00d-4b7b-86bb-d43a20d4863f"},"vehicle_type_id":"4","last_reported":1727618868,"current_range_meters":2000,"station_id":"ce4bhu92rcd13ifvqi70","pricing_plan_id":"cebpf4jnsgd1na2vs0mg"},{"bike_id":"3973ce25-2b60-44d6-8ea4-411280c32ac7","system_id":"levelo_inurba_marseille","lat":43.24169,"lon":5.36392,"is_reserved":false,"is_disabled":false,"rental_uris":{"android":"levelo://app?vid=3973ce25-2b60-44d6-8ea4-411280c32ac7","ios":"levelo://app?vid=3973ce25-2b60-44d6-8ea4-411280c32ac7"},"vehicle_type_id":"4","last_reported":1727618868,"current_range_meters":19600,"station_id":"cpo36qri1sfpv3e86is0","pricing_plan_id":"cebpf4jnsgd1na2vs0mg"},{"bike_id":"2101dd7b-ce7b-47e4-9e2c-eb06c0887e19","system_id":"levelo_inurba_marseille","lat":43.29418,"lon":5.3863,"is_reserved":false,"is_disabled":false,"rental_uris":{"android":"levelo://app?vid=2101dd7b-ce7b-47e4-9e2c-eb06c0887e19","ios":"levelo://app?vid=2101dd7b-ce7b-47e4-9e2c-eb06c0887e19"},"vehicle_type_id":"4","last_reported":1727618868,"current_range_meters":22400,"station_id":"ce4bh2h2rcd13ifvqdh0","pricing_plan_id":"cebpf4jnsgd1na2vs0mg"},{"bike_id":"cff181f9-8616-4616-aa84-3dbafde351b2","system_id":"levelo_inurba_marseille","lat":43.26507,"lon":5.38353,"is_reserved":false,"is_disabled":false,"rental_uris":{"android":"levelo://app?vid=cff181f9-8616-4616-aa84-3dbafde351b2","ios":"levelo://app?vid=cff181f9-8616-4616-aa84-3dbafde351b2"},"vehicle_type_id":"4","last_reported":1727618868,"current_range_meters":12400,"station_id":"ce4bh512rcd13ifvqe3g","pricing_plan_id":"cebpf4jnsgd1na2vs0mg"},{"bike_id":"ae6e5052-6a03-4966-93ee-31c054886e72","system_id":"levelo_inurba_marseille","lat":43.22935,"lon":5.35378,"is_reserved":false,"is_disabled":false,"rental_uris":{"android":"levelo://app?vid=ae6e5052-6a03-4966-93ee-31c054886e72","ios":"levelo://app?vid=ae6e5052-6a03-4966-93ee-31c054886e72"},"vehicle_type_id":"4","last_reported":1727618868,"current_range_meters":24800,"station_id":"cpo3532slgdg3j2ikp40","pricing_plan_id":"cebpf4jnsgd1na2vs0mg"},{"bike_id":"71bb5317-d39c-4d91-b8dd-eab0c25d179b","system_id":"levelo_inurba_marseille","lat":43.31081,"lon":5.4243,"is_reserved":false,"is_disabled":false,"rental_uris":{"android":"levelo://app?vid=71bb5317-d39c-4d91-b8dd-eab0c25d179b","ios":"levelo://app?vid=71bb5317-d39c-4d91-b8dd-eab0c25d179b"},"vehicle_type_id":"4","last_reported":1727618868,"current_range_meters":22400,"station_id":"ce4bhp92rcd13ifvqhag","pricing_plan_id":"cebpf4jnsgd1na2vs0mg"},{"bike_id":"a974d009-942e-477b-b4db-19f84bd48313","system_id":"levelo_inurba_marseille","lat":43.32368,"lon":5.38884,"is_reserved":false,"is_disabled":false,"rental_uris":{"android":"levelo://app?vid=a974d009-942e-477b-b4db-19f84bd48313","ios":"levelo://app?vid=a974d009-942e-477b-b4db-19f84bd48313"},"vehicle_type_id":"4","last_reported":1727618868,"current_range_meters":4400,"station_id":"ce4bhqp2rcd13ifvqhog","pricing_plan_id":"cebpf4jnsgd1na2vs0mg"},{"bike_id":"6a66b30d-b7e8-4317-88c5-fb9f52bf2878","system_id":"levelo_inurba_marseille","lat":43.2396,"lon":5.36617,"is_reserved":false,"is_disabled":false,"rental_uris":{"android":"levelo://app?vid=6a66b30d-b7e8-4317-88c5-fb9f52bf2878","ios":"levelo://app?vid=6a66b30d-b7e8-4317-88c5-fb9f52bf2878"},"vehicle_type_id":"4","last_reported":1727618868,"current_range_meters":38000,"station_id":"ce4bhi12rcd13ifvqfp0","pricing_plan_id":"cebpf4jnsgd1na2vs0mg"},{"bike_id":"e1a924f0-8d6e-4738-a00e-d65330e9e079","system_id":"levelo_inurba_marseille","lat":43.29579,"lon":5.36736,"is_reserved":false,"is_disabled":false,"rental_uris":{"android":"levelo://app?vid=e1a924f0-8d6e-4738-a00e-d65330e9e079","ios":"levelo://app?vid=e1a924f0-8d6e-4738-a00e-d65330e9e079"},"vehicle_type_id":"4","last_reported":1727618868,"current_range_meters":8800,"station_id":"ce4bgph2rcd13ifvqc2g","pricing_plan_id":"cebpf4jnsgd1na2vs0mg"},{"bike_id":"167d05c3-cf38-46a9-9ae7-f92bb00a2c2d","system_id":"levelo_inurba_marseille","lat":43.250853,"lon":5.395162,"is_reserved":false,"is_disabled":false,"rental_uris":{"android":"levelo://app?vid=167d05c3-cf38-46a9-9ae7-f92bb00a2c2d","ios":"levelo://app?vid=167d05c3-cf38-46a9-9ae7-f92bb00a2c2d"},"vehicle_type_id":"4","last_reported":1727618868,"current_range_meters":19600,"station_id":"ce4bhm12rcd13ifvqgkg","pricing_plan_id":"cebpf4jnsgd1na2vs0mg"},{"bike_id":"92d8bca2-5cb0-4530-9896-8c598a39273e","system_id":"levelo_inurba_marseille","lat":43.32002,"lon":5.38159,"is_reserved":false,"is_disabled":false,"rental_uris":{"android":"levelo://app?vid=92d8bca2-5cb0-4530-9896-8c598a39273e","ios":"levelo://app?vid=92d8bca2-5cb0-4530-9896-8c598a39273e"},"vehicle_type_id":"4","last_reported":1727618868,"current_range_meters":14000,"station_id":"ce4bhr12rcd13ifvqhpg","pricing_plan_id":"cebpf4jnsgd1na2vs0mg"},{"bike_id":"3ae16357-9b43-46d1-bbc8-483fcc70804b","system_id":"levelo_inurba_marseille","lat":43.25721,"lon":5.41111,"is_reserved":false,"is_disabled":false,"rental_uris":{"android":"levelo://app?vid=3ae16357-9b43-46d1-bbc8-483fcc70804b","ios":"levelo://app?vid=3ae16357-9b43-46d1-bbc8-483fcc70804b"},"vehicle_type_id":"4","last_reported":1727618868,"current_range_meters":28400,"station_id":"ce4bhkp2rcd13ifvqgd0","pricing_plan_id":"cebpf4jnsgd1na2vs0mg"},{"bike_id":"0f2100e4-743f-4a2d-b0dc-1c032bb9e483","system_id":"levelo_inurba_marseille","lat":43.31081,"lon":5.42428,"is_reserved":false,"is_disabled":false,"rental_uris":{"android":"levelo://app?vid=0f2100e4-743f-4a2d-b0dc-1c032bb9e483","ios":"levelo://app?vid=0f2100e4-743f-4a2d-b0dc-1c032bb9e483"},"vehicle_type_id":"4","last_reported":1727618868,"current_range_meters":26000,"station_id":"ce4bhp92rcd13ifvqhag","pricing_plan_id":"cebpf4jnsgd1na2vs0mg"},{"bike_id":"ae7459aa-6574-4367-92de-29032df3bdb6","system_id":"levelo_inurba_marseille","lat":43.27175,"lon":5.40996,"is_reserved":false,"is_disabled":false,"rental_uris":{"android":"levelo://app?vid=ae7459aa-6574-4367-92de-29032df3bdb6","ios":"levelo://app?vid=ae7459aa-6574-4367-92de-29032df3bdb6"},"vehicle_type_id":"4","last_reported":1727618868,"current_range_meters":32800,"station_id":"ce4bhl12rcd13ifvqgf0","pricing_plan_id":"cebpf4jnsgd1na2vs0mg"},{"bike_id":"199f764e-7942-4511-a407-33ff4a7dc457","system_id":"levelo_inurba_marseille","lat":43.26025,"lon":5.3755,"is_reserved":false,"is_disabled":false,"rental_uris":{"android":"levelo://app?vid=199f764e-7942-4511-a407-33ff4a7dc457","ios":"levelo://app?vid=199f764e-7942-4511-a407-33ff4a7dc457"},"vehicle_type_id":"4","last_reported":1727618868,"current_range_meters":36800,"station_id":"ce4bhgh2rcd13ifvqfa0","pricing_plan_id":"cebpf4jnsgd1na2vs0mg"},{"bike_id":"0701cf2a-674c-4c9d-af1e-6650acbaaf74","system_id":"levelo_inurba_marseille","lat":43.28375,"lon":5.37295,"is_reserved":false,"is_disabled":false,"rental_uris":{"android":"levelo://app?vid=0701cf2a-674c-4c9d-af1e-6650acbaaf74","ios":"levelo://app?vid=0701cf2a-674c-4c9d-af1e-6650acbaaf74"},"vehicle_type_id":"4","last_reported":1727618868,"current_range_meters":10000,"station_id":"","pricing_plan_id":"cebpf4jnsgd1na2vs0mg"},{"bike_id":"46340b57-cc64-40d7-959a-03e4671d23ca","system_id":"levelo_inurba_marseille","lat":43.26197,"lon":5.37449,"is_reserved":false,"is_disabled":false,"rental_uris":{"android":"levelo://app?vid=46340b57-cc64-40d7-959a-03e4671d23ca","ios":"levelo://app?vid=46340b57-cc64-40d7-959a-03e4671d23ca"},"vehicle_type_id":"4","last_reported":1727618868,"current_range_meters":38800,"station_id":"ce4bhgp2rcd13ifvqfc0","pricing_plan_id":"cebpf4jnsgd1na2vs0mg"},{"bike_id":"a48460e4-d4da-4877-ad08-62dca9d34780","system_id":"levelo_inurba_marseille","lat":43.24165,"lon":5.36395,"is_reserved":false,"is_disabled":false,"rental_uris":{"android":"levelo://app?vid=a48460e4-d4da-4877-ad08-62dca9d34780","ios":"levelo://app?vid=a48460e4-d4da-4877-ad08-62dca9d34780"},"vehicle_type_id":"4","last_reported":1727618868,"current_range_meters":33600,"station_id":"cpo36qri1sfpv3e86is0","pricing_plan_id":"cebpf4jnsgd1na2vs0mg"},{"bike_id":"7bef827b-d401-4fc3-b187-67ecef53c29d","system_id":"levelo_inurba_marseille","lat":43.2417,"lon":5.36395,"is_reserved":false,"is_disabled":false,"rental_uris":{"android":"levelo://app?vid=7bef827b-d401-4fc3-b187-67ecef53c29d","ios":"levelo://app?vid=7bef827b-d401-4fc3-b187-67ecef53c29d"},"vehicle_type_id":"4","last_reported":1727618868,"current_range_meters":5600,"station_id":"cpo36qri1sfpv3e86is0","pricing_plan_id":"cebpf4jnsgd1na2vs0mg"},{"bike_id":"6cdca13d-24d1-4302-912a-54d18c748242","system_id":"levelo_inurba_marseille","lat":43.31083,"lon":5.40132,"is_reserved":false,"is_disabled":false,"rental_uris":{"android":"levelo://app?vid=6cdca13d-24d1-4302-912a-54d18c748242","ios":"levelo://app?vid=6cdca13d-24d1-4302-912a-54d18c748242"},"vehicle_type_id":"4","last_reported":1727618868,"current_range_meters":4400,"station_id":"","pricing_plan_id":"cebpf4jnsgd1na2vs0mg"},{"bike_id":"b980e2b6-ccd9-4179-83df-12212be0a50e","system_id":"levelo_inurba_marseille","lat":43.26566,"lon":5.39012,"is_reserved":false,"is_disabled":false,"rental_uris":{"android":"levelo://app?vid=b980e2b6-ccd9-4179-83df-12212be0a50e","ios":"levelo://app?vid=b980e2b6-ccd9-4179-83df-12212be0a50e"},"vehicle_type_id":"4","last_reported":1727618868,"current_range_meters":38000,"station_id":"ce4bhe12rcd13ifvqf30","pricing_plan_id":"cebpf4jnsgd1na2vs0mg"},{"bike_id":"e4ab3cee-fde5-49f5-9de8-2637758a03f2","system_id":"levelo_inurba_marseille","lat":43.23197,"lon":5.35556,"is_reserved":false,"is_disabled":false,"rental_uris":{"android":"levelo://app?vid=e4ab3cee-fde5-49f5-9de8-2637758a03f2","ios":"levelo://app?vid=e4ab3cee-fde5-49f5-9de8-2637758a03f2"},"vehicle_type_id":"4","last_reported":1727618868,"current_range_meters":8400,"station_id":"ce4bhu92rcd13ifvqi70","pricing_plan_id":"cebpf4jnsgd1na2vs0mg"},{"bike_id":"241986e7-ab99-4a77-a0b2-fab5619e3016","system_id":"levelo_inurba_marseille","lat":43.27993,"lon":5.4001,"is_reserved":false,"is_disabled":false,"rental_uris":{"android":"levelo://app?vid=241986e7-ab99-4a77-a0b2-fab5619e3016","ios":"levelo://app?vid=241986e7-ab99-4a77-a0b2-fab5619e3016"},"vehicle_type_id":"4","last_reported":1727618868,"current_range_meters":38800,"station_id":"ce4bho92rcd13ifvqh4g","pricing_plan_id":"cebpf4jnsgd1na2vs0mg"},{"bike_id":"2739f21a-7d48-4a2c-8180-69d444e34103","system_id":"levelo_inurba_marseille","lat":43.26679,"lon":5.38267,"is_reserved":false,"is_disabled":false,"rental_uris":{"android":"levelo://app?vid=2739f21a-7d48-4a2c-8180-69d444e34103","ios":"levelo://app?vid=2739f21a-7d48-4a2c-8180-69d444e34103"},"vehicle_type_id":"4","last_reported":1727618868,"current_range_meters":32400,"station_id":"ce4bhg92rcd13ifvqf90","pricing_plan_id":"cebpf4jnsgd1na2vs0mg"},{"bike_id":"3cc40c44-bfce-4ff4-8a27-320adb1188d3","system_id":"levelo_inurba_marseille","lat":43.27208,"lon":5.39171,"is_reserved":false,"is_disabled":false,"rental_uris":{"android":"levelo://app?vid=3cc40c44-bfce-4ff4-8a27-320adb1188d3","ios":"levelo://app?vid=3cc40c44-bfce-4ff4-8a27-320adb1188d3"},"vehicle_type_id":"4","last_reported":1727618868,"current_range_meters":15200,"station_id":"ce4bhhp2rcd13ifvqfm0","pricing_plan_id":"cebpf4jnsgd1na2vs0mg"},{"bike_id":"b6045711-fac2-4bbf-b0fa-19eb855105f7","system_id":"levelo_inurba_marseille","lat":43.28259,"lon":5.35068,"is_reserved":false,"is_disabled":false,"rental_uris":{"android":"levelo://app?vid=b6045711-fac2-4bbf-b0fa-19eb855105f7","ios":"levelo://app?vid=b6045711-fac2-4bbf-b0fa-19eb855105f7"},"vehicle_type_id":"4","last_reported":1727618868,"current_range_meters":39200,"station_id":"ce4bhbp2rcd13ifvqerg","pricing_plan_id":"cebpf4jnsgd1na2vs0mg"},{"bike_id":"f18bd61b-b8c5-4be1-95b0-9a5fbb6e798c","system_id":"levelo_inurba_marseille","lat":43.2439,"lon":5.37056,"is_reserved":false,"is_disabled":false,"rental_uris":{"android":"levelo://app?vid=f18bd61b-b8c5-4be1-95b0-9a5fbb6e798c","ios":"levelo://app?vid=f18bd61b-b8c5-4be1-95b0-9a5fbb6e798c"},"vehicle_type_id":"4","last_reported":1727618868,"current_range_meters":9200,"station_id":"ce4bhhh2rcd13ifvqfk0","pricing_plan_id":"cebpf4jnsgd1na2vs0mg"},{"bike_id":"5220e7ba-5183-450c-986e-1a09b217d618","system_id":"levelo_inurba_marseille","lat":43.28264,"lon":5.35077,"is_reserved":false,"is_disabled":false,"rental_uris":{"android":"levelo://app?vid=5220e7ba-5183-450c-986e-1a09b217d618","ios":"levelo://app?vid=5220e7ba-5183-450c-986e-1a09b217d618"},"vehicle_type_id":"4","last_reported":1727618868,"current_range_meters":37600,"station_id":"ce4bhbp2rcd13ifvqerg","pricing_plan_id":"cebpf4jnsgd1na2vs0mg"},{"bike_id":"8c89b598-f5e1-4723-b7cf-365e45b9b978","system_id":"levelo_inurba_marseille","lat":43.29044,"lon":5.35893,"is_reserved":false,"is_disabled":false,"rental_uris":{"android":"levelo://app?vid=8c89b598-f5e1-4723-b7cf-365e45b9b978","ios":"levelo://app?vid=8c89b598-f5e1-4723-b7cf-365e45b9b978"},"vehicle_type_id":"4","last_reported":1727618868,"current_range_meters":24000,"station_id":"ce4bha92rcd13ifvqeg0","pricing_plan_id":"cebpf4jnsgd1na2vs0mg"},{"bike_id":"8a60a535-7e42-4d87-8dc1-48f36b9084f7","system_id":"levelo_inurba_marseille","lat":43.28415,"lon":5.34976,"is_reserved":false,"is_disabled":false,"rental_uris":{"android":"levelo://app?vid=8a60a535-7e42-4d87-8dc1-48f36b9084f7","ios":"levelo://app?vid=8a60a535-7e42-4d87-8dc1-48f36b9084f7"},"vehicle_type_id":"4","last_reported":1727618868,"current_range_meters":6400,"station_id":"ce4bhbh2rcd13ifvqepg","pricing_plan_id":"cebpf4jnsgd1na2vs0mg"},{"bike_id":"7dad3a58-67e8-4e41-a4ff-66ade5c62965","system_id":"levelo_inurba_marseille","lat":43.25582,"lon":5.38231,"is_reserved":false,"is_disabled":false,"rental_uris":{"android":"levelo://app?vid=7dad3a58-67e8-4e41-a4ff-66ade5c62965","ios":"levelo://app?vid=7dad3a58-67e8-4e41-a4ff-66ade5c62965"},"vehicle_type_id":"4","last_reported":1727618868,"current_range_meters":25600,"station_id":"ce4bhih2rcd13ifvqfs0","pricing_plan_id":"cebpf4jnsgd1na2vs0mg"},{"bike_id":"c7cf6af8-9981-4b9c-9e5a-cc8dc0e7d78a","system_id":"levelo_inurba_marseille","lat":43.31716,"lon":5.43703,"is_reserved":false,"is_disabled":false,"rental_uris":{"android":"levelo://app?vid=c7cf6af8-9981-4b9c-9e5a-cc8dc0e7d78a","ios":"levelo://app?vid=c7cf6af8-9981-4b9c-9e5a-cc8dc0e7d78a"},"vehicle_type_id":"4","last_reported":1727618868,"current_range_meters":22000,"station_id":"ce4bhp92rcd13ifvqhcg","pricing_plan_id":"cebpf4jnsgd1na2vs0mg"},{"bike_id":"0e434049-1ea7-4678-bd3c-e4c7038da2f2","system_id":"levelo_inurba_marseille","lat":43.28411,"lon":5.34983,"is_reserved":false,"is_disabled":false,"rental_uris":{"android":"levelo://app?vid=0e434049-1ea7-4678-bd3c-e4c7038da2f2","ios":"levelo://app?vid=0e434049-1ea7-4678-bd3c-e4c7038da2f2"},"vehicle_type_id":"4","last_reported":1727618868,"current_range_meters":40000,"station_id":"ce4bhbh2rcd13ifvqepg","pricing_plan_id":"cebpf4jnsgd1na2vs0mg"},{"bike_id":"f46ba497-4d2c-4e85-8316-f4b61f940e13","system_id":"levelo_inurba_marseille","lat":43.31756,"lon":5.3901,"is_reserved":false,"is_disabled":false,"rental_uris":{"android":"levelo://app?vid=f46ba497-4d2c-4e85-8316-f4b61f940e13","ios":"levelo://app?vid=f46ba497-4d2c-4e85-8316-f4b61f940e13"},"vehicle_type_id":"4","last_reported":1727618868,"current_range_meters":5600,"station_id":"ce4bhqp2rcd13ifvqhng","pricing_plan_id":"cebpf4jnsgd1na2vs0mg"},{"bike_id":"b418d1ac-8a84-4c27-88a4-c7bf23f9d2d4","system_id":"levelo_inurba_marseille","lat":43.27365,"lon":5.3625,"is_reserved":false,"is_disabled":false,"rental_uris":{"android":"levelo://app?vid=b418d1ac-8a84-4c27-88a4-c7bf23f9d2d4","ios":"levelo://app?vid=b418d1ac-8a84-4c27-88a4-c7bf23f9d2d4"},"vehicle_type_id":"4","last_reported":1727618868,"current_range_meters":39200,"station_id":"ce4bhbh2rcd13ifvqeo0","pricing_plan_id":"cebpf4jnsgd1na2vs0mg"},{"bike_id":"41ca4c63-8def-4c31-9103-fc1045ebe4a5","system_id":"levelo_inurba_marseille","lat":43.23195,"lon":5.3555,"is_reserved":false,"is_disabled":false,"rental_uris":{"android":"levelo://app?vid=41ca4c63-8def-4c31-9103-fc1045ebe4a5","ios":"levelo://app?vid=41ca4c63-8def-4c31-9103-fc1045ebe4a5"},"vehicle_type_id":"4","last_reported":1727618868,"current_range_meters":24800,"station_id":"ce4bhu92rcd13ifvqi70","pricing_plan_id":"cebpf4jnsgd1na2vs0mg"},{"bike_id":"d41a68ab-b917-4d0f-b33c-753afa912b96","system_id":"levelo_inurba_marseille","lat":43.24166,"lon":5.36391,"is_reserved":false,"is_disabled":false,"rental_uris":{"android":"levelo://app?vid=d41a68ab-b917-4d0f-b33c-753afa912b96","ios":"levelo://app?vid=d41a68ab-b917-4d0f-b33c-753afa912b96"},"vehicle_type_id":"4","last_reported":1727618868,"current_range_meters":27200,"station_id":"cpo36qri1sfpv3e86is0","pricing_plan_id":"cebpf4jnsgd1na2vs0mg"},{"bike_id":"1915b929-f39d-40c8-a49b-0f69cdc26e73","system_id":"levelo_inurba_marseille","lat":43.28419,"lon":5.34978,"is_reserved":false,"is_disabled":false,"rental_uris":{"android":"levelo://app?vid=1915b929-f39d-40c8-a49b-0f69cdc26e73","ios":"levelo://app?vid=1915b929-f39d-40c8-a49b-0f69cdc26e73"},"vehicle_type_id":"4","last_reported":1727618868,"current_range_meters":38800,"station_id":"ce4bhbh2rcd13ifvqepg","pricing_plan_id":"cebpf4jnsgd1na2vs0mg"},{"bike_id":"fecb9fb9-4d25-4b73-b7f1-1bf2c87ece21","system_id":"levelo_inurba_marseille","lat":43.25106,"lon":5.40323,"is_reserved":false,"is_disabled":false,"rental_uris":{"android":"levelo://app?vid=fecb9fb9-4d25-4b73-b7f1-1bf2c87ece21","ios":"levelo://app?vid=fecb9fb9-4d25-4b73-b7f1-1bf2c87ece21"},"vehicle_type_id":"4","last_reported":1727618868,"current_range_meters":3600,"station_id":"ce4bhlh2rcd13ifvqgig","pricing_plan_id":"cebpf4jnsgd1na2vs0mg"},{"bike_id":"16aef7bc-6e34-4da1-be38-669be00420e2","system_id":"levelo_inurba_marseille","lat":43.29894,"lon":5.43678,"is_reserved":false,"is_disabled":false,"rental_uris":{"android":"levelo://app?vid=16aef7bc-6e34-4da1-be38-669be00420e2","ios":"levelo://app?vid=16aef7bc-6e34-4da1-be38-669be00420e2"},"vehicle_type_id":"4","last_reported":1727618868,"current_range_meters":28400,"station_id":"ce4bhpp2rcd13ifvqhfg","pricing_plan_id":"cebpf4jnsgd1na2vs0mg"},{"bike_id":"d506f765-7389-4724-a7e4-a15c05a4de75","system_id":"levelo_inurba_marseille","lat":43.23189,"lon":5.35549,"is_reserved":false,"is_disabled":false,"rental_uris":{"android":"levelo://app?vid=d506f765-7389-4724-a7e4-a15c05a4de75","ios":"levelo://app?vid=d506f765-7389-4724-a7e4-a15c05a4de75"},"vehicle_type_id":"4","last_reported":1727618868,"current_range_meters":22000,"station_id":"ce4bhu92rcd13ifvqi70","pricing_plan_id":"cebpf4jnsgd1na2vs0mg"},{"bike_id":"275b0a25-1a9f-498c-9202-be550b06c3de","system_id":"levelo_inurba_marseille","lat":43.32292,"lon":5.38281,"is_reserved":false,"is_disabled":false,"rental_uris":{"android":"levelo://app?vid=275b0a25-1a9f-498c-9202-be550b06c3de","ios":"levelo://app?vid=275b0a25-1a9f-498c-9202-be550b06c3de"},"vehicle_type_id":"4","last_reported":1727618868,"current_range_meters":38800,"station_id":"ce4bhr12rcd13ifvqhqg","pricing_plan_id":"cebpf4jnsgd1na2vs0mg"},{"bike_id":"49694903-2672-49ab-bb82-4237ffff1349","system_id":"levelo_inurba_marseille","lat":43.31544,"lon":5.38025,"is_reserved":false,"is_disabled":false,"rental_uris":{"android":"levelo://app?vid=49694903-2672-49ab-bb82-4237ffff1349","ios":"levelo://app?vid=49694903-2672-49ab-bb82-4237ffff1349"},"vehicle_type_id":"4","last_reported":1727618868,"current_range_meters":23200,"station_id":"ce4bhsp2rcd13ifvqi50","pricing_plan_id":"cebpf4jnsgd1na2vs0mg"},{"bike_id":"90bd98a8-64e4-485e-ae20-a830b64e6d1f","system_id":"levelo_inurba_marseille","lat":43.26209,"lon":5.37444,"is_reserved":false,"is_disabled":false,"rental_uris":{"android":"levelo://app?vid=90bd98a8-64e4-485e-ae20-a830b64e6d1f","ios":"levelo://app?vid=90bd98a8-64e4-485e-ae20-a830b64e6d1f"},"vehicle_type_id":"4","last_reported":1727618868,"current_range_meters":28400,"station_id":"ce4bhgp2rcd13ifvqfc0","pricing_plan_id":"cebpf4jnsgd1na2vs0mg"},{"bike_id":"547fadb9-016c-417c-b3e2-6a8297cc5d64","system_id":"levelo_inurba_marseille","lat":43.28618,"lon":5.35102,"is_reserved":false,"is_disabled":false,"rental_uris":{"android":"levelo://app?vid=547fadb9-016c-417c-b3e2-6a8297cc5d64","ios":"levelo://app?vid=547fadb9-016c-417c-b3e2-6a8297cc5d64"},"vehicle_type_id":"4","last_reported":1727618868,"current_range_meters":38000,"station_id":"ce4bhch2rcd13ifvqeug","pricing_plan_id":"cebpf4jnsgd1na2vs0mg"},{"bike_id":"0c3f0369-7cdf-4cba-a0db-09435ab8c8da","system_id":"levelo_inurba_marseille","lat":43.23188,"lon":5.39991,"is_reserved":false,"is_disabled":false,"rental_uris":{"android":"levelo://app?vid=0c3f0369-7cdf-4cba-a0db-09435ab8c8da","ios":"levelo://app?vid=0c3f0369-7cdf-4cba-a0db-09435ab8c8da"},"vehicle_type_id":"4","last_reported":1727618868,"current_range_meters":26000,"station_id":"ce4bhn12rcd13ifvqgqg","pricing_plan_id":"cebpf4jnsgd1na2vs0mg"},{"bike_id":"e1cd2856-c65f-47f3-b915-bcbd54ef3d0b","system_id":"levelo_inurba_marseille","lat":43.292702,"lon":5.401199,"is_reserved":false,"is_disabled":false,"rental_uris":{"android":"levelo://app?vid=e1cd2856-c65f-47f3-b915-bcbd54ef3d0b","ios":"levelo://app?vid=e1cd2856-c65f-47f3-b915-bcbd54ef3d0b"},"vehicle_type_id":"4","last_reported":1727618868,"current_range_meters":37600,"station_id":"ce4bh312rcd13ifvqdk0","pricing_plan_id":"cebpf4jnsgd1na2vs0mg"},{"bike_id":"fdf16a2c-f8ba-4504-a2eb-c6089abe7ff8","system_id":"levelo_inurba_marseille","lat":43.254682,"lon":5.375974,"is_reserved":false,"is_disabled":false,"rental_uris":{"android":"levelo://app?vid=fdf16a2c-f8ba-4504-a2eb-c6089abe7ff8","ios":"levelo://app?vid=fdf16a2c-f8ba-4504-a2eb-c6089abe7ff8"},"vehicle_type_id":"4","last_reported":1727618868,"current_range_meters":39200,"station_id":"ce4bhh12rcd13ifvqff0","pricing_plan_id":"cebpf4jnsgd1na2vs0mg"},{"bike_id":"f9544fb1-c02e-4ef0-828d-b520c9bc1616","system_id":"levelo_inurba_marseille","lat":43.2439,"lon":5.37064,"is_reserved":false,"is_disabled":false,"rental_uris":{"android":"levelo://app?vid=f9544fb1-c02e-4ef0-828d-b520c9bc1616","ios":"levelo://app?vid=f9544fb1-c02e-4ef0-828d-b520c9bc1616"},"vehicle_type_id":"4","last_reported":1727618868,"current_range_meters":8000,"station_id":"ce4bhhh2rcd13ifvqfk0","pricing_plan_id":"cebpf4jnsgd1na2vs0mg"},{"bike_id":"3fb0e359-7a1b-43d8-a1de-40143e01bde5","system_id":"levelo_inurba_marseille","lat":43.25719,"lon":5.41112,"is_reserved":false,"is_disabled":false,"rental_uris":{"android":"levelo://app?vid=3fb0e359-7a1b-43d8-a1de-40143e01bde5","ios":"levelo://app?vid=3fb0e359-7a1b-43d8-a1de-40143e01bde5"},"vehicle_type_id":"4","last_reported":1727618868,"current_range_meters":34800,"station_id":"ce4bhkp2rcd13ifvqgd0","pricing_plan_id":"cebpf4jnsgd1na2vs0mg"},{"bike_id":"294d8486-ba3f-4d2f-9691-3b0a586b39e2","system_id":"levelo_inurba_marseille","lat":43.275,"lon":5.4245,"is_reserved":false,"is_disabled":false,"rental_uris":{"android":"levelo://app?vid=294d8486-ba3f-4d2f-9691-3b0a586b39e2","ios":"levelo://app?vid=294d8486-ba3f-4d2f-9691-3b0a586b39e2"},"vehicle_type_id":"4","last_reported":1727618868,"current_range_meters":13600,"station_id":"ce4bhn92rcd13ifvqgrg","pricing_plan_id":"cebpf4jnsgd1na2vs0mg"},{"bike_id":"313667a7-ae4b-4e91-a516-592d2cdde61a","system_id":"levelo_inurba_marseille","lat":43.28265,"lon":5.35061,"is_reserved":false,"is_disabled":false,"rental_uris":{"android":"levelo://app?vid=313667a7-ae4b-4e91-a516-592d2cdde61a","ios":"levelo://app?vid=313667a7-ae4b-4e91-a516-592d2cdde61a"},"vehicle_type_id":"4","last_reported":1727618868,"current_range_meters":4800,"station_id":"ce4bhbp2rcd13ifvqerg","pricing_plan_id":"cebpf4jnsgd1na2vs0mg"},{"bike_id":"31552421-58c2-42f5-aeeb-efc97a1f3415","system_id":"levelo_inurba_marseille","lat":43.28405,"lon":5.34987,"is_reserved":false,"is_disabled":false,"rental_uris":{"android":"levelo://app?vid=31552421-58c2-42f5-aeeb-efc97a1f3415","ios":"levelo://app?vid=31552421-58c2-42f5-aeeb-efc97a1f3415"},"vehicle_type_id":"4","last_reported":1727618868,"current_range_meters":38000,"station_id":"ce4bhbh2rcd13ifvqepg","pricing_plan_id":"cebpf4jnsgd1na2vs0mg"},{"bike_id":"35497633-4513-4672-86bf-e7a84b2376db","system_id":"levelo_inurba_marseille","lat":43.27375,"lon":5.36255,"is_reserved":false,"is_disabled":false,"rental_uris":{"android":"levelo://app?vid=35497633-4513-4672-86bf-e7a84b2376db","ios":"levelo://app?vid=35497633-4513-4672-86bf-e7a84b2376db"},"vehicle_type_id":"4","last_reported":1727618868,"current_range_meters":6800,"station_id":"ce4bhbh2rcd13ifvqeo0","pricing_plan_id":"cebpf4jnsgd1na2vs0mg"},{"bike_id":"e4361fa2-90d9-45ff-9d8a-e7b112f4e011","system_id":"levelo_inurba_marseille","lat":43.28508,"lon":5.39122,"is_reserved":false,"is_disabled":false,"rental_uris":{"android":"levelo://app?vid=e4361fa2-90d9-45ff-9d8a-e7b112f4e011","ios":"levelo://app?vid=e4361fa2-90d9-45ff-9d8a-e7b112f4e011"},"vehicle_type_id":"4","last_reported":1727618868,"current_range_meters":28400,"station_id":"ce4bh3p2rcd13ifvqdp0","pricing_plan_id":"cebpf4jnsgd1na2vs0mg"},{"bike_id":"844b3556-488f-48fe-8c37-ae10a6155d22","system_id":"levelo_inurba_marseille","lat":43.273738,"lon":5.362539,"is_reserved":false,"is_disabled":false,"rental_uris":{"android":"levelo://app?vid=844b3556-488f-48fe-8c37-ae10a6155d22","ios":"levelo://app?vid=844b3556-488f-48fe-8c37-ae10a6155d22"},"vehicle_type_id":"4","last_reported":1727618868,"current_range_meters":5600,"station_id":"ce4bhbh2rcd13ifvqeo0","pricing_plan_id":"cebpf4jnsgd1na2vs0mg"},{"bike_id":"e2121449-468e-4e0c-b5e6-a982c725ec47","system_id":"levelo_inurba_marseille","lat":43.28702,"lon":5.37387,"is_reserved":false,"is_disabled":false,"rental_uris":{"android":"levelo://app?vid=e2121449-468e-4e0c-b5e6-a982c725ec47","ios":"levelo://app?vid=e2121449-468e-4e0c-b5e6-a982c725ec47"},"vehicle_type_id":"4","last_reported":1727618868,"current_range_meters":38000,"station_id":"ce4bh3p2rcd13ifvqdq0","pricing_plan_id":"cebpf4jnsgd1na2vs0mg"},{"bike_id":"882ba506-1a08-4072-8320-b36e698224c5","system_id":"levelo_inurba_marseille","lat":43.24171,"lon":5.36396,"is_reserved":false,"is_disabled":false,"rental_uris":{"android":"levelo://app?vid=882ba506-1a08-4072-8320-b36e698224c5","ios":"levelo://app?vid=882ba506-1a08-4072-8320-b36e698224c5"},"vehicle_type_id":"4","last_reported":1727618868,"current_range_meters":28400,"station_id":"cpo36qri1sfpv3e86is0","pricing_plan_id":"cebpf4jnsgd1na2vs0mg"},{"bike_id":"6eff8d2d-61fa-4715-9388-b30a052d3e98","system_id":"levelo_inurba_marseille","lat":43.337444,"lon":5.374475,"is_reserved":false,"is_disabled":false,"rental_uris":{"android":"levelo://app?vid=6eff8d2d-61fa-4715-9388-b30a052d3e98","ios":"levelo://app?vid=6eff8d2d-61fa-4715-9388-b30a052d3e98"},"vehicle_type_id":"4","last_reported":1727618868,"current_range_meters":28000,"station_id":"","pricing_plan_id":"cebpf4jnsgd1na2vs0mg"},{"bike_id":"008608c3-4ed6-421f-8543-daf51d61c54f","system_id":"levelo_inurba_marseille","lat":43.28152,"lon":5.42637,"is_reserved":false,"is_disabled":false,"rental_uris":{"android":"levelo://app?vid=008608c3-4ed6-421f-8543-daf51d61c54f","ios":"levelo://app?vid=008608c3-4ed6-421f-8543-daf51d61c54f"},"vehicle_type_id":"4","last_reported":1727618868,"current_range_meters":37600,"station_id":"ce4bhnh2rcd13ifvqgug","pricing_plan_id":"cebpf4jnsgd1na2vs0mg"},{"bike_id":"bf84a262-9a1f-472b-bb5a-6d866fc38e23","system_id":"levelo_inurba_marseille","lat":43.2417,"lon":5.36392,"is_reserved":false,"is_disabled":false,"rental_uris":{"android":"levelo://app?vid=bf84a262-9a1f-472b-bb5a-6d866fc38e23","ios":"levelo://app?vid=bf84a262-9a1f-472b-bb5a-6d866fc38e23"},"vehicle_type_id":"4","last_reported":1727618868,"current_range_meters":18000,"station_id":"cpo36qri1sfpv3e86is0","pricing_plan_id":"cebpf4jnsgd1na2vs0mg"},{"bike_id":"fe1536c8-4c0e-465d-8e26-5e87756dd823","system_id":"levelo_inurba_marseille","lat":43.22927,"lon":5.35377,"is_reserved":false,"is_disabled":false,"rental_uris":{"android":"levelo://app?vid=fe1536c8-4c0e-465d-8e26-5e87756dd823","ios":"levelo://app?vid=fe1536c8-4c0e-465d-8e26-5e87756dd823"},"vehicle_type_id":"4","last_reported":1727618868,"current_range_meters":24800,"station_id":"cpo3532slgdg3j2ikp40","pricing_plan_id":"cebpf4jnsgd1na2vs0mg"},{"bike_id":"49103c36-092f-43a6-a665-96ac4218adb8","system_id":"levelo_inurba_marseille","lat":43.32297,"lon":5.38262,"is_reserved":false,"is_disabled":false,"rental_uris":{"android":"levelo://app?vid=49103c36-092f-43a6-a665-96ac4218adb8","ios":"levelo://app?vid=49103c36-092f-43a6-a665-96ac4218adb8"},"vehicle_type_id":"4","last_reported":1727618868,"current_range_meters":38800,"station_id":"ce4bhr12rcd13ifvqhqg","pricing_plan_id":"cebpf4jnsgd1na2vs0mg"},{"bike_id":"3a2bc396-c23e-4ed5-ac8c-ee000e6084a7","system_id":"levelo_inurba_marseille","lat":43.30644,"lon":5.40086,"is_reserved":false,"is_disabled":false,"rental_uris":{"android":"levelo://app?vid=3a2bc396-c23e-4ed5-ac8c-ee000e6084a7","ios":"levelo://app?vid=3a2bc396-c23e-4ed5-ac8c-ee000e6084a7"},"vehicle_type_id":"4","last_reported":1727618868,"current_range_meters":8400,"station_id":"ce4bh112rcd13ifvqda0","pricing_plan_id":"cebpf4jnsgd1na2vs0mg"},{"bike_id":"e4cbc219-68c3-4e03-a982-414a1249fee8","system_id":"levelo_inurba_marseille","lat":43.29706,"lon":5.36606,"is_reserved":false,"is_disabled":false,"rental_uris":{"android":"levelo://app?vid=e4cbc219-68c3-4e03-a982-414a1249fee8","ios":"levelo://app?vid=e4cbc219-68c3-4e03-a982-414a1249fee8"},"vehicle_type_id":"4","last_reported":1727618868,"current_range_meters":37600,"station_id":"ce4bgn12rcd13ifvqbt0","pricing_plan_id":"cebpf4jnsgd1na2vs0mg"},{"bike_id":"6f0f9c32-de70-4574-9b89-cca29ab0554e","system_id":"levelo_inurba_marseille","lat":43.337444,"lon":5.374475,"is_reserved":false,"is_disabled":false,"rental_uris":{"android":"levelo://app?vid=6f0f9c32-de70-4574-9b89-cca29ab0554e","ios":"levelo://app?vid=6f0f9c32-de70-4574-9b89-cca29ab0554e"},"vehicle_type_id":"4","last_reported":1727618868,"current_range_meters":25600,"station_id":"","pricing_plan_id":"cebpf4jnsgd1na2vs0mg"},{"bike_id":"c72610c1-2f00-4ea3-9c1b-a8f4e271ec3f","system_id":"levelo_inurba_marseille","lat":43.24811,"lon":5.37455,"is_reserved":false,"is_disabled":false,"rental_uris":{"android":"levelo://app?vid=c72610c1-2f00-4ea3-9c1b-a8f4e271ec3f","ios":"levelo://app?vid=c72610c1-2f00-4ea3-9c1b-a8f4e271ec3f"},"vehicle_type_id":"4","last_reported":1727618868,"current_range_meters":37600,"station_id":"ce4bhgh2rcd13ifvqfb0","pricing_plan_id":"cebpf4jnsgd1na2vs0mg"},{"bike_id":"44839918-e841-4578-a34d-4d8014b09bc8","system_id":"levelo_inurba_marseille","lat":43.31228,"lon":5.36849,"is_reserved":false,"is_disabled":false,"rental_uris":{"android":"levelo://app?vid=44839918-e841-4578-a34d-4d8014b09bc8","ios":"levelo://app?vid=44839918-e841-4578-a34d-4d8014b09bc8"},"vehicle_type_id":"4","last_reported":1727618868,"current_range_meters":37600,"station_id":"ce4bgl92rcd13ifvqbq0","pricing_plan_id":"cebpf4jnsgd1na2vs0mg"},{"bike_id":"b9897cf6-b27e-4987-8a36-ce737823aa7b","system_id":"levelo_inurba_marseille","lat":43.32314,"lon":5.38287,"is_reserved":false,"is_disabled":false,"rental_uris":{"android":"levelo://app?vid=b9897cf6-b27e-4987-8a36-ce737823aa7b","ios":"levelo://app?vid=b9897cf6-b27e-4987-8a36-ce737823aa7b"},"vehicle_type_id":"4","last_reported":1727618868,"current_range_meters":38800,"station_id":"ce4bhr12rcd13ifvqhqg","pricing_plan_id":"cebpf4jnsgd1na2vs0mg"},{"bike_id":"0687a646-be72-47a3-8907-22e0afb02a46","system_id":"levelo_inurba_marseille","lat":43.23959,"lon":5.36627,"is_reserved":false,"is_disabled":false,"rental_uris":{"android":"levelo://app?vid=0687a646-be72-47a3-8907-22e0afb02a46","ios":"levelo://app?vid=0687a646-be72-47a3-8907-22e0afb02a46"},"vehicle_type_id":"4","last_reported":1727618868,"current_range_meters":29600,"station_id":"ce4bhi12rcd13ifvqfp0","pricing_plan_id":"cebpf4jnsgd1na2vs0mg"},{"bike_id":"b6447ecc-99f1-4162-b827-bd67ee6b9636","system_id":"levelo_inurba_marseille","lat":43.23062,"lon":5.35487,"is_reserved":false,"is_disabled":false,"rental_uris":{"android":"levelo://app?vid=b6447ecc-99f1-4162-b827-bd67ee6b9636","ios":"levelo://app?vid=b6447ecc-99f1-4162-b827-bd67ee6b9636"},"vehicle_type_id":"4","last_reported":1727618868,"current_range_meters":24400,"station_id":"cpo3342slgdg3j2ifvpg","pricing_plan_id":"cebpf4jnsgd1na2vs0mg"},{"bike_id":"bc62f930-b5c7-4f73-9e7e-6e947951ae5d","system_id":"levelo_inurba_marseille","lat":43.25586,"lon":5.38236,"is_reserved":false,"is_disabled":false,"rental_uris":{"android":"levelo://app?vid=bc62f930-b5c7-4f73-9e7e-6e947951ae5d","ios":"levelo://app?vid=bc62f930-b5c7-4f73-9e7e-6e947951ae5d"},"vehicle_type_id":"4","last_reported":1727618868,"current_range_meters":25600,"station_id":"ce4bhih2rcd13ifvqfs0","pricing_plan_id":"cebpf4jnsgd1na2vs0mg"},{"bike_id":"d5a1b281-d9f3-4e8d-bdc8-181e1ee5f46d","system_id":"levelo_inurba_marseille","lat":43.23185,"lon":5.35541,"is_reserved":false,"is_disabled":false,"rental_uris":{"android":"levelo://app?vid=d5a1b281-d9f3-4e8d-bdc8-181e1ee5f46d","ios":"levelo://app?vid=d5a1b281-d9f3-4e8d-bdc8-181e1ee5f46d"},"vehicle_type_id":"4","last_reported":1727618868,"current_range_meters":38800,"station_id":"ce4bhu92rcd13ifvqi70","pricing_plan_id":"cebpf4jnsgd1na2vs0mg"},{"bike_id":"90c05d40-f5db-4a12-95b3-f8d41ae2e51b","system_id":"levelo_inurba_marseille","lat":43.32377,"lon":5.3892,"is_reserved":false,"is_disabled":false,"rental_uris":{"android":"levelo://app?vid=90c05d40-f5db-4a12-95b3-f8d41ae2e51b","ios":"levelo://app?vid=90c05d40-f5db-4a12-95b3-f8d41ae2e51b"},"vehicle_type_id":"4","last_reported":1727618868,"current_range_meters":30000,"station_id":"ce4bhqp2rcd13ifvqhog","pricing_plan_id":"cebpf4jnsgd1na2vs0mg"},{"bike_id":"4f028f3d-bdd9-4272-87b9-0a0a117f92ec","system_id":"levelo_inurba_marseille","lat":43.2439,"lon":5.37053,"is_reserved":false,"is_disabled":false,"rental_uris":{"android":"levelo://app?vid=4f028f3d-bdd9-4272-87b9-0a0a117f92ec","ios":"levelo://app?vid=4f028f3d-bdd9-4272-87b9-0a0a117f92ec"},"vehicle_type_id":"4","last_reported":1727618868,"current_range_meters":21600,"station_id":"ce4bhhh2rcd13ifvqfk0","pricing_plan_id":"cebpf4jnsgd1na2vs0mg"},{"bike_id":"94d1300a-e5c0-4f67-968c-609ee3a39627","system_id":"levelo_inurba_marseille","lat":43.282632,"lon":5.350566,"is_reserved":false,"is_disabled":false,"rental_uris":{"android":"levelo://app?vid=94d1300a-e5c0-4f67-968c-609ee3a39627","ios":"levelo://app?vid=94d1300a-e5c0-4f67-968c-609ee3a39627"},"vehicle_type_id":"4","last_reported":1727618868,"current_range_meters":22000,"station_id":"ce4bhbp2rcd13ifvqerg","pricing_plan_id":"cebpf4jnsgd1na2vs0mg"},{"bike_id":"5bcefc6d-7041-436a-bc90-c67541a01389","system_id":"levelo_inurba_marseille","lat":43.28277,"lon":5.35069,"is_reserved":false,"is_disabled":false,"rental_uris":{"android":"levelo://app?vid=5bcefc6d-7041-436a-bc90-c67541a01389","ios":"levelo://app?vid=5bcefc6d-7041-436a-bc90-c67541a01389"},"vehicle_type_id":"4","last_reported":1727618868,"current_range_meters":30000,"station_id":"ce4bhbp2rcd13ifvqerg","pricing_plan_id":"cebpf4jnsgd1na2vs0mg"},{"bike_id":"413882a8-6fa3-4f1e-a353-8a25fdff70e4","system_id":"levelo_inurba_marseille","lat":43.254908,"lon":5.376489,"is_reserved":false,"is_disabled":false,"rental_uris":{"android":"levelo://app?vid=413882a8-6fa3-4f1e-a353-8a25fdff70e4","ios":"levelo://app?vid=413882a8-6fa3-4f1e-a353-8a25fdff70e4"},"vehicle_type_id":"4","last_reported":1727618868,"current_range_meters":38800,"station_id":"ce4bhh12rcd13ifvqff0","pricing_plan_id":"cebpf4jnsgd1na2vs0mg"},{"bike_id":"b212cc82-d551-4fd6-9e8d-249eb51020d0","system_id":"levelo_inurba_marseille","lat":43.26032,"lon":5.37547,"is_reserved":false,"is_disabled":false,"rental_uris":{"android":"levelo://app?vid=b212cc82-d551-4fd6-9e8d-249eb51020d0","ios":"levelo://app?vid=b212cc82-d551-4fd6-9e8d-249eb51020d0"},"vehicle_type_id":"4","last_reported":1727618868,"current_range_meters":39200,"station_id":"ce4bhgh2rcd13ifvqfa0","pricing_plan_id":"cebpf4jnsgd1na2vs0mg"},{"bike_id":"ac756202-2e1b-47f8-b177-9f9914aa7906","system_id":"levelo_inurba_marseille","lat":43.22933,"lon":5.35383,"is_reserved":false,"is_disabled":false,"rental_uris":{"android":"levelo://app?vid=ac756202-2e1b-47f8-b177-9f9914aa7906","ios":"levelo://app?vid=ac756202-2e1b-47f8-b177-9f9914aa7906"},"vehicle_type_id":"4","last_reported":1727618868,"current_range_meters":19200,"station_id":"cpo3532slgdg3j2ikp40","pricing_plan_id":"cebpf4jnsgd1na2vs0mg"},{"bike_id":"db630383-d2d1-428d-b9f0-973005a9160a","system_id":"levelo_inurba_marseille","lat":43.24384,"lon":5.37055,"is_reserved":false,"is_disabled":false,"rental_uris":{"android":"levelo://app?vid=db630383-d2d1-428d-b9f0-973005a9160a","ios":"levelo://app?vid=db630383-d2d1-428d-b9f0-973005a9160a"},"vehicle_type_id":"4","last_reported":1727618868,"current_range_meters":38800,"station_id":"ce4bhhh2rcd13ifvqfk0","pricing_plan_id":"cebpf4jnsgd1na2vs0mg"},{"bike_id":"b20ef19b-3477-4bd6-a2b2-994df6e4255e","system_id":"levelo_inurba_marseille","lat":43.28605,"lon":5.37064,"is_reserved":false,"is_disabled":false,"rental_uris":{"android":"levelo://app?vid=b20ef19b-3477-4bd6-a2b2-994df6e4255e","ios":"levelo://app?vid=b20ef19b-3477-4bd6-a2b2-994df6e4255e"},"vehicle_type_id":"4","last_reported":1727618868,"current_range_meters":38800,"station_id":"ce4bht12rcd13ifvqi60","pricing_plan_id":"cebpf4jnsgd1na2vs0mg"},{"bike_id":"2e2ce58f-a5ca-4c8d-a6be-5c33703c1acb","system_id":"levelo_inurba_marseille","lat":43.29075,"lon":5.37177,"is_reserved":false,"is_disabled":false,"rental_uris":{"android":"levelo://app?vid=2e2ce58f-a5ca-4c8d-a6be-5c33703c1acb","ios":"levelo://app?vid=2e2ce58f-a5ca-4c8d-a6be-5c33703c1acb"},"vehicle_type_id":"4","last_reported":1727618868,"current_range_meters":26800,"station_id":"ce4bh5p2rcd13ifvqe4g","pricing_plan_id":"cebpf4jnsgd1na2vs0mg"},{"bike_id":"fdf72e4b-927b-4f6a-a94d-116dece9551f","system_id":"levelo_inurba_marseille","lat":43.30129,"lon":5.39845,"is_reserved":false,"is_disabled":false,"rental_uris":{"android":"levelo://app?vid=fdf72e4b-927b-4f6a-a94d-116dece9551f","ios":"levelo://app?vid=fdf72e4b-927b-4f6a-a94d-116dece9551f"},"vehicle_type_id":"4","last_reported":1727618868,"current_range_meters":31200,"station_id":"ce4bh0h2rcd13ifvqd40","pricing_plan_id":"cebpf4jnsgd1na2vs0mg"},{"bike_id":"caca268f-b5b5-4daa-810d-1b9769661e6b","system_id":"levelo_inurba_marseille","lat":43.26043,"lon":5.3755,"is_reserved":false,"is_disabled":false,"rental_uris":{"android":"levelo://app?vid=caca268f-b5b5-4daa-810d-1b9769661e6b","ios":"levelo://app?vid=caca268f-b5b5-4daa-810d-1b9769661e6b"},"vehicle_type_id":"4","last_reported":1727618868,"current_range_meters":38800,"station_id":"ce4bhgh2rcd13ifvqfa0","pricing_plan_id":"cebpf4jnsgd1na2vs0mg"},{"bike_id":"9d933d2a-f72c-492c-ae3d-eb238dac3442","system_id":"levelo_inurba_marseille","lat":43.317589,"lon":5.390251,"is_reserved":false,"is_disabled":false,"rental_uris":{"android":"levelo://app?vid=9d933d2a-f72c-492c-ae3d-eb238dac3442","ios":"levelo://app?vid=9d933d2a-f72c-492c-ae3d-eb238dac3442"},"vehicle_type_id":"4","last_reported":1727618868,"current_range_meters":12800,"station_id":"ce4bhqp2rcd13ifvqhng","pricing_plan_id":"cebpf4jnsgd1na2vs0mg"},{"bike_id":"7e0834c6-3322-4ceb-9dc5-a938a8d72d51","system_id":"levelo_inurba_marseille","lat":43.30913,"lon":5.36844,"is_reserved":false,"is_disabled":false,"rental_uris":{"android":"levelo://app?vid=7e0834c6-3322-4ceb-9dc5-a938a8d72d51","ios":"levelo://app?vid=7e0834c6-3322-4ceb-9dc5-a938a8d72d51"},"vehicle_type_id":"4","last_reported":1727618868,"current_range_meters":38800,"station_id":"ce4bgn92rcd13ifvqbvg","pricing_plan_id":"cebpf4jnsgd1na2vs0mg"},{"bike_id":"e8549bbe-f3aa-4948-a006-2c3da8f13ca2","system_id":"levelo_inurba_marseille","lat":43.24165,"lon":5.36396,"is_reserved":false,"is_disabled":false,"rental_uris":{"android":"levelo://app?vid=e8549bbe-f3aa-4948-a006-2c3da8f13ca2","ios":"levelo://app?vid=e8549bbe-f3aa-4948-a006-2c3da8f13ca2"},"vehicle_type_id":"4","last_reported":1727618868,"current_range_meters":36800,"station_id":"cpo36qri1sfpv3e86is0","pricing_plan_id":"cebpf4jnsgd1na2vs0mg"},{"bike_id":"8006c25d-8f1a-4c07-98da-8a1dc2492813","system_id":"levelo_inurba_marseille","lat":43.2794,"lon":5.41044,"is_reserved":false,"is_disabled":false,"rental_uris":{"android":"levelo://app?vid=8006c25d-8f1a-4c07-98da-8a1dc2492813","ios":"levelo://app?vid=8006c25d-8f1a-4c07-98da-8a1dc2492813"},"vehicle_type_id":"4","last_reported":1727618868,"current_range_meters":21600,"station_id":"ce4bhnp2rcd13ifvqh0g","pricing_plan_id":"cebpf4jnsgd1na2vs0mg"},{"bike_id":"e9bb9d17-40f6-468b-8c2a-cc2813aeee78","system_id":"levelo_inurba_marseille","lat":43.23962,"lon":5.36627,"is_reserved":false,"is_disabled":false,"rental_uris":{"android":"levelo://app?vid=e9bb9d17-40f6-468b-8c2a-cc2813aeee78","ios":"levelo://app?vid=e9bb9d17-40f6-468b-8c2a-cc2813aeee78"},"vehicle_type_id":"4","last_reported":1727618868,"current_range_meters":27600,"station_id":"ce4bhi12rcd13ifvqfp0","pricing_plan_id":"cebpf4jnsgd1na2vs0mg"},{"bike_id":"5f03f4d7-14be-4957-90f6-b3decdeb41e7","system_id":"levelo_inurba_marseille","lat":43.28265,"lon":5.35066,"is_reserved":false,"is_disabled":false,"rental_uris":{"android":"levelo://app?vid=5f03f4d7-14be-4957-90f6-b3decdeb41e7","ios":"levelo://app?vid=5f03f4d7-14be-4957-90f6-b3decdeb41e7"},"vehicle_type_id":"4","last_reported":1727618868,"current_range_meters":4400,"station_id":"ce4bhbp2rcd13ifvqerg","pricing_plan_id":"cebpf4jnsgd1na2vs0mg"},{"bike_id":"ae420688-5730-4c04-90f7-fb439220597f","system_id":"levelo_inurba_marseille","lat":43.337444,"lon":5.374475,"is_reserved":false,"is_disabled":false,"rental_uris":{"android":"levelo://app?vid=ae420688-5730-4c04-90f7-fb439220597f","ios":"levelo://app?vid=ae420688-5730-4c04-90f7-fb439220597f"},"vehicle_type_id":"4","last_reported":1727618868,"current_range_meters":28400,"station_id":"","pricing_plan_id":"cebpf4jnsgd1na2vs0mg"},{"bike_id":"64c5a41d-9764-4555-8564-e0109a27d62f","system_id":"levelo_inurba_marseille","lat":43.32264,"lon":5.38282,"is_reserved":false,"is_disabled":false,"rental_uris":{"android":"levelo://app?vid=64c5a41d-9764-4555-8564-e0109a27d62f","ios":"levelo://app?vid=64c5a41d-9764-4555-8564-e0109a27d62f"},"vehicle_type_id":"4","last_reported":1727618868,"current_range_meters":10000,"station_id":"ce4bhr12rcd13ifvqhqg","pricing_plan_id":"cebpf4jnsgd1na2vs0mg"},{"bike_id":"726a8c8a-80a9-44c7-b810-b8e0d39fa584","system_id":"levelo_inurba_marseille","lat":43.28765,"lon":5.35225,"is_reserved":false,"is_disabled":false,"rental_uris":{"android":"levelo://app?vid=726a8c8a-80a9-44c7-b810-b8e0d39fa584","ios":"levelo://app?vid=726a8c8a-80a9-44c7-b810-b8e0d39fa584"},"vehicle_type_id":"4","last_reported":1727618868,"current_range_meters":6800,"station_id":"ce4bhbh2rcd13ifvqeo0","pricing_plan_id":"cebpf4jnsgd1na2vs0mg"},{"bike_id":"86a71ee8-d43f-4ebe-bee2-169dfe2232ae","system_id":"levelo_inurba_marseille","lat":43.23962,"lon":5.3663,"is_reserved":false,"is_disabled":false,"rental_uris":{"android":"levelo://app?vid=86a71ee8-d43f-4ebe-bee2-169dfe2232ae","ios":"levelo://app?vid=86a71ee8-d43f-4ebe-bee2-169dfe2232ae"},"vehicle_type_id":"4","last_reported":1727618868,"current_range_meters":35600,"station_id":"ce4bhi12rcd13ifvqfp0","pricing_plan_id":"cebpf4jnsgd1na2vs0mg"},{"bike_id":"c1ba357f-1329-427e-924e-efcfaee52a1e","system_id":"levelo_inurba_marseille","lat":43.25864,"lon":5.39898,"is_reserved":false,"is_disabled":false,"rental_uris":{"android":"levelo://app?vid=c1ba357f-1329-427e-924e-efcfaee52a1e","ios":"levelo://app?vid=c1ba357f-1329-427e-924e-efcfaee52a1e"},"vehicle_type_id":"4","last_reported":1727618868,"current_range_meters":16000,"station_id":"ce4bhl92rcd13ifvqghg","pricing_plan_id":"cebpf4jnsgd1na2vs0mg"},{"bike_id":"deb302f7-3d92-4a9a-aa7a-dc90301a24a6","system_id":"levelo_inurba_marseille","lat":43.29034,"lon":5.35919,"is_reserved":false,"is_disabled":false,"rental_uris":{"android":"levelo://app?vid=deb302f7-3d92-4a9a-aa7a-dc90301a24a6","ios":"levelo://app?vid=deb302f7-3d92-4a9a-aa7a-dc90301a24a6"},"vehicle_type_id":"4","last_reported":1727618868,"current_range_meters":25200,"station_id":"ce4bha92rcd13ifvqeg0","pricing_plan_id":"cebpf4jnsgd1na2vs0mg"},{"bike_id":"adaf8c99-95b8-4c2d-8814-a55aadeeb624","system_id":"levelo_inurba_marseille","lat":43.23191,"lon":5.35545,"is_reserved":false,"is_disabled":false,"rental_uris":{"android":"levelo://app?vid=adaf8c99-95b8-4c2d-8814-a55aadeeb624","ios":"levelo://app?vid=adaf8c99-95b8-4c2d-8814-a55aadeeb624"},"vehicle_type_id":"4","last_reported":1727618868,"current_range_meters":26800,"station_id":"ce4bhu92rcd13ifvqi70","pricing_plan_id":"cebpf4jnsgd1na2vs0mg"},{"bike_id":"6589ed56-cb47-4581-8832-f7240483fc73","system_id":"levelo_inurba_marseille","lat":43.23059,"lon":5.35489,"is_reserved":false,"is_disabled":false,"rental_uris":{"android":"levelo://app?vid=6589ed56-cb47-4581-8832-f7240483fc73","ios":"levelo://app?vid=6589ed56-cb47-4581-8832-f7240483fc73"},"vehicle_type_id":"4","last_reported":1727618868,"current_range_meters":16000,"station_id":"cpo3342slgdg3j2ifvpg","pricing_plan_id":"cebpf4jnsgd1na2vs0mg"},{"bike_id":"8edf2e08-8f41-4b56-8d22-e49f75db35e4","system_id":"levelo_inurba_marseille","lat":43.27173,"lon":5.40994,"is_reserved":false,"is_disabled":false,"rental_uris":{"android":"levelo://app?vid=8edf2e08-8f41-4b56-8d22-e49f75db35e4","ios":"levelo://app?vid=8edf2e08-8f41-4b56-8d22-e49f75db35e4"},"vehicle_type_id":"4","last_reported":1727618868,"current_range_meters":23200,"station_id":"ce4bhl12rcd13ifvqgf0","pricing_plan_id":"cebpf4jnsgd1na2vs0mg"},{"bike_id":"96de09dc-099f-4c3b-b2a0-1c426bfb16a0","system_id":"levelo_inurba_marseille","lat":43.2842,"lon":5.34979,"is_reserved":false,"is_disabled":false,"rental_uris":{"android":"levelo://app?vid=96de09dc-099f-4c3b-b2a0-1c426bfb16a0","ios":"levelo://app?vid=96de09dc-099f-4c3b-b2a0-1c426bfb16a0"},"vehicle_type_id":"4","last_reported":1727618868,"current_range_meters":22000,"station_id":"ce4bhbh2rcd13ifvqepg","pricing_plan_id":"cebpf4jnsgd1na2vs0mg"},{"bike_id":"1f1955f1-bed6-439b-b8cb-d07b1d9ef4bc","system_id":"levelo_inurba_marseille","lat":43.23956,"lon":5.36637,"is_reserved":false,"is_disabled":false,"rental_uris":{"android":"levelo://app?vid=1f1955f1-bed6-439b-b8cb-d07b1d9ef4bc","ios":"levelo://app?vid=1f1955f1-bed6-439b-b8cb-d07b1d9ef4bc"},"vehicle_type_id":"4","last_reported":1727618868,"current_range_meters":38800,"station_id":"ce4bhi12rcd13ifvqfp0","pricing_plan_id":"cebpf4jnsgd1na2vs0mg"},{"bike_id":"8f0d3b2f-8fe9-4097-bd5f-e96b1a043e99","system_id":"levelo_inurba_marseille","lat":43.23197,"lon":5.35548,"is_reserved":false,"is_disabled":false,"rental_uris":{"android":"levelo://app?vid=8f0d3b2f-8fe9-4097-bd5f-e96b1a043e99","ios":"levelo://app?vid=8f0d3b2f-8fe9-4097-bd5f-e96b1a043e99"},"vehicle_type_id":"4","last_reported":1727618868,"current_range_meters":4800,"station_id":"ce4bhu92rcd13ifvqi70","pricing_plan_id":"cebpf4jnsgd1na2vs0mg"},{"bike_id":"e69e8f1c-5fd6-44eb-a007-6bb9caa0b882","system_id":"levelo_inurba_marseille","lat":43.31329,"lon":5.39689,"is_reserved":false,"is_disabled":false,"rental_uris":{"android":"levelo://app?vid=e69e8f1c-5fd6-44eb-a007-6bb9caa0b882","ios":"levelo://app?vid=e69e8f1c-5fd6-44eb-a007-6bb9caa0b882"},"vehicle_type_id":"4","last_reported":1727618868,"current_range_meters":6000,"station_id":"ce4bgvp2rcd13ifvqcu0","pricing_plan_id":"cebpf4jnsgd1na2vs0mg"},{"bike_id":"ad2b97cc-6d6b-4f2b-8bfd-af16a22fc4f8","system_id":"levelo_inurba_marseille","lat":43.27379,"lon":5.36253,"is_reserved":false,"is_disabled":false,"rental_uris":{"android":"levelo://app?vid=ad2b97cc-6d6b-4f2b-8bfd-af16a22fc4f8","ios":"levelo://app?vid=ad2b97cc-6d6b-4f2b-8bfd-af16a22fc4f8"},"vehicle_type_id":"4","last_reported":1727618868,"current_range_meters":32000,"station_id":"ce4bhbh2rcd13ifvqeo0","pricing_plan_id":"cebpf4jnsgd1na2vs0mg"},{"bike_id":"9cb3412e-3587-47af-8a8a-114bb5acd038","system_id":"levelo_inurba_marseille","lat":43.29898,"lon":5.43672,"is_reserved":false,"is_disabled":false,"rental_uris":{"android":"levelo://app?vid=9cb3412e-3587-47af-8a8a-114bb5acd038","ios":"levelo://app?vid=9cb3412e-3587-47af-8a8a-114bb5acd038"},"vehicle_type_id":"4","last_reported":1727618868,"current_range_meters":37600,"station_id":"ce4bhpp2rcd13ifvqhfg","pricing_plan_id":"cebpf4jnsgd1na2vs0mg"},{"bike_id":"f49ed0b8-b83c-4c43-8c3a-0a1704adb635","system_id":"levelo_inurba_marseille","lat":43.2842,"lon":5.35,"is_reserved":false,"is_disabled":false,"rental_uris":{"android":"levelo://app?vid=f49ed0b8-b83c-4c43-8c3a-0a1704adb635","ios":"levelo://app?vid=f49ed0b8-b83c-4c43-8c3a-0a1704adb635"},"vehicle_type_id":"4","last_reported":1727618868,"current_range_meters":19600,"station_id":"ce4bhbh2rcd13ifvqepg","pricing_plan_id":"cebpf4jnsgd1na2vs0mg"},{"bike_id":"b76ab228-8936-4991-9a7f-350ef3a0a6c4","system_id":"levelo_inurba_marseille","lat":43.27174,"lon":5.4099,"is_reserved":false,"is_disabled":false,"rental_uris":{"android":"levelo://app?vid=b76ab228-8936-4991-9a7f-350ef3a0a6c4","ios":"levelo://app?vid=b76ab228-8936-4991-9a7f-350ef3a0a6c4"},"vehicle_type_id":"4","last_reported":1727618868,"current_range_meters":16000,"station_id":"ce4bhl12rcd13ifvqgf0","pricing_plan_id":"cebpf4jnsgd1na2vs0mg"},{"bike_id":"86c229bc-f163-4e41-b138-e497bebda808","system_id":"levelo_inurba_marseille","lat":43.289326,"lon":5.363879,"is_reserved":false,"is_disabled":false,"rental_uris":{"android":"levelo://app?vid=86c229bc-f163-4e41-b138-e497bebda808","ios":"levelo://app?vid=86c229bc-f163-4e41-b138-e497bebda808"},"vehicle_type_id":"4","last_reported":1727618868,"current_range_meters":38800,"station_id":"ce4bhc92rcd13ifvqetg","pricing_plan_id":"cebpf4jnsgd1na2vs0mg"},{"bike_id":"d9a1a421-229e-48cb-87db-098645cfadd3","system_id":"levelo_inurba_marseille","lat":43.22934,"lon":5.35375,"is_reserved":false,"is_disabled":false,"rental_uris":{"android":"levelo://app?vid=d9a1a421-229e-48cb-87db-098645cfadd3","ios":"levelo://app?vid=d9a1a421-229e-48cb-87db-098645cfadd3"},"vehicle_type_id":"4","last_reported":1727618868,"current_range_meters":24400,"station_id":"cpo3532slgdg3j2ikp40","pricing_plan_id":"cebpf4jnsgd1na2vs0mg"},{"bike_id":"856f1dec-4d8f-4da7-af67-a1b7dd382d93","system_id":"levelo_inurba_marseille","lat":43.258445,"lon":5.375798,"is_reserved":false,"is_disabled":false,"rental_uris":{"android":"levelo://app?vid=856f1dec-4d8f-4da7-af67-a1b7dd382d93","ios":"levelo://app?vid=856f1dec-4d8f-4da7-af67-a1b7dd382d93"},"vehicle_type_id":"4","last_reported":1727618868,"current_range_meters":36000,"station_id":"ce4bhgh2rcd13ifvqfa0","pricing_plan_id":"cebpf4jnsgd1na2vs0mg"},{"bike_id":"6d4498e6-d1af-4183-90b6-4c14bf32b656","system_id":"levelo_inurba_marseille","lat":43.23195,"lon":5.35557,"is_reserved":false,"is_disabled":false,"rental_uris":{"android":"levelo://app?vid=6d4498e6-d1af-4183-90b6-4c14bf32b656","ios":"levelo://app?vid=6d4498e6-d1af-4183-90b6-4c14bf32b656"},"vehicle_type_id":"4","last_reported":1727618868,"current_range_meters":20800,"station_id":"ce4bhu92rcd13ifvqi70","pricing_plan_id":"cebpf4jnsgd1na2vs0mg"},{"bike_id":"a6f3456f-f73f-4350-91cf-0ecbb08350d1","system_id":"levelo_inurba_marseille","lat":43.32364,"lon":5.38884,"is_reserved":false,"is_disabled":false,"rental_uris":{"android":"levelo://app?vid=a6f3456f-f73f-4350-91cf-0ecbb08350d1","ios":"levelo://app?vid=a6f3456f-f73f-4350-91cf-0ecbb08350d1"},"vehicle_type_id":"4","last_reported":1727618868,"current_range_meters":27600,"station_id":"ce4bhqp2rcd13ifvqhog","pricing_plan_id":"cebpf4jnsgd1na2vs0mg"},{"bike_id":"d1195cde-968d-4a92-b19e-89edd8e649c1","system_id":"levelo_inurba_marseille","lat":43.3229,"lon":5.38264,"is_reserved":false,"is_disabled":false,"rental_uris":{"android":"levelo://app?vid=d1195cde-968d-4a92-b19e-89edd8e649c1","ios":"levelo://app?vid=d1195cde-968d-4a92-b19e-89edd8e649c1"},"vehicle_type_id":"4","last_reported":1727618868,"current_range_meters":16400,"station_id":"ce4bhr12rcd13ifvqhqg","pricing_plan_id":"cebpf4jnsgd1na2vs0mg"},{"bike_id":"d41a2eeb-5f2c-4b59-9198-baf37aa878da","system_id":"levelo_inurba_marseille","lat":43.28422,"lon":5.34985,"is_reserved":false,"is_disabled":false,"rental_uris":{"android":"levelo://app?vid=d41a2eeb-5f2c-4b59-9198-baf37aa878da","ios":"levelo://app?vid=d41a2eeb-5f2c-4b59-9198-baf37aa878da"},"vehicle_type_id":"4","last_reported":1727618868,"current_range_meters":25600,"station_id":"ce4bhbh2rcd13ifvqepg","pricing_plan_id":"cebpf4jnsgd1na2vs0mg"},{"bike_id":"ff6a5199-846d-4509-8717-5f81f9a49ed3","system_id":"levelo_inurba_marseille","lat":43.23196,"lon":5.35554,"is_reserved":false,"is_disabled":false,"rental_uris":{"android":"levelo://app?vid=ff6a5199-846d-4509-8717-5f81f9a49ed3","ios":"levelo://app?vid=ff6a5199-846d-4509-8717-5f81f9a49ed3"},"vehicle_type_id":"4","last_reported":1727618868,"current_range_meters":17200,"station_id":"ce4bhu92rcd13ifvqi70","pricing_plan_id":"cebpf4jnsgd1na2vs0mg"},{"bike_id":"c6a2ffaa-ef85-4115-94c3-5711ed5ff051","system_id":"levelo_inurba_marseille","lat":43.30141,"lon":5.38063,"is_reserved":false,"is_disabled":false,"rental_uris":{"android":"levelo://app?vid=c6a2ffaa-ef85-4115-94c3-5711ed5ff051","ios":"levelo://app?vid=c6a2ffaa-ef85-4115-94c3-5711ed5ff051"},"vehicle_type_id":"4","last_reported":1727618868,"current_range_meters":6000,"station_id":"ce4bgjp2rcd13ifvqbh0","pricing_plan_id":"cebpf4jnsgd1na2vs0mg"},{"bike_id":"72f04bea-87ff-462d-a51f-4ab9221a2163","system_id":"levelo_inurba_marseille","lat":43.23965,"lon":5.36629,"is_reserved":false,"is_disabled":false,"rental_uris":{"android":"levelo://app?vid=72f04bea-87ff-462d-a51f-4ab9221a2163","ios":"levelo://app?vid=72f04bea-87ff-462d-a51f-4ab9221a2163"},"vehicle_type_id":"4","last_reported":1727618868,"current_range_meters":26000,"station_id":"ce4bhi12rcd13ifvqfp0","pricing_plan_id":"cebpf4jnsgd1na2vs0mg"},{"bike_id":"d089905d-9203-45ce-8740-2dc2ae4520b6","system_id":"levelo_inurba_marseille","lat":43.28274,"lon":5.3507,"is_reserved":false,"is_disabled":false,"rental_uris":{"android":"levelo://app?vid=d089905d-9203-45ce-8740-2dc2ae4520b6","ios":"levelo://app?vid=d089905d-9203-45ce-8740-2dc2ae4520b6"},"vehicle_type_id":"4","last_reported":1727618868,"current_range_meters":38800,"station_id":"ce4bhbp2rcd13ifvqerg","pricing_plan_id":"cebpf4jnsgd1na2vs0mg"},{"bike_id":"51e287a5-b406-4bc2-885f-17e3718b5849","system_id":"levelo_inurba_marseille","lat":43.307213,"lon":5.386447,"is_reserved":false,"is_disabled":false,"rental_uris":{"android":"levelo://app?vid=51e287a5-b406-4bc2-885f-17e3718b5849","ios":"levelo://app?vid=51e287a5-b406-4bc2-885f-17e3718b5849"},"vehicle_type_id":"4","last_reported":1727618868,"current_range_meters":33200,"station_id":"","pricing_plan_id":"cebpf4jnsgd1na2vs0mg"},{"bike_id":"a793d5fc-d26f-407f-928e-50ffec78dc72","system_id":"levelo_inurba_marseille","lat":43.2606,"lon":5.394,"is_reserved":false,"is_disabled":false,"rental_uris":{"android":"levelo://app?vid=a793d5fc-d26f-407f-928e-50ffec78dc72","ios":"levelo://app?vid=a793d5fc-d26f-407f-928e-50ffec78dc72"},"vehicle_type_id":"4","last_reported":1727618868,"current_range_meters":6800,"station_id":"ce4bhh92rcd13ifvqfj0","pricing_plan_id":"cebpf4jnsgd1na2vs0mg"},{"bike_id":"85dd9079-0c10-400a-8f96-d0ae902cd411","system_id":"levelo_inurba_marseille","lat":43.28155,"lon":5.42641,"is_reserved":false,"is_disabled":false,"rental_uris":{"android":"levelo://app?vid=85dd9079-0c10-400a-8f96-d0ae902cd411","ios":"levelo://app?vid=85dd9079-0c10-400a-8f96-d0ae902cd411"},"vehicle_type_id":"4","last_reported":1727618868,"current_range_meters":36400,"station_id":"ce4bhnh2rcd13ifvqgug","pricing_plan_id":"cebpf4jnsgd1na2vs0mg"},{"bike_id":"9875a1f0-e592-46f9-8699-96387cfa5ee3","system_id":"levelo_inurba_marseille","lat":43.25724,"lon":5.41098,"is_reserved":false,"is_disabled":false,"rental_uris":{"android":"levelo://app?vid=9875a1f0-e592-46f9-8699-96387cfa5ee3","ios":"levelo://app?vid=9875a1f0-e592-46f9-8699-96387cfa5ee3"},"vehicle_type_id":"4","last_reported":1727618868,"current_range_meters":18000,"station_id":"ce4bhkp2rcd13ifvqgd0","pricing_plan_id":"cebpf4jnsgd1na2vs0mg"},{"bike_id":"5e4ccc44-602c-4fbe-b5e7-fb0f0c9e7e2b","system_id":"levelo_inurba_marseille","lat":43.25088,"lon":5.39508,"is_reserved":false,"is_disabled":false,"rental_uris":{"android":"levelo://app?vid=5e4ccc44-602c-4fbe-b5e7-fb0f0c9e7e2b","ios":"levelo://app?vid=5e4ccc44-602c-4fbe-b5e7-fb0f0c9e7e2b"},"vehicle_type_id":"4","last_reported":1727618868,"current_range_meters":38000,"station_id":"ce4bhm12rcd13ifvqgkg","pricing_plan_id":"cebpf4jnsgd1na2vs0mg"},{"bike_id":"b0c31863-9489-4555-8c14-cc83b377024c","system_id":"levelo_inurba_marseille","lat":43.26039,"lon":5.38199,"is_reserved":false,"is_disabled":false,"rental_uris":{"android":"levelo://app?vid=b0c31863-9489-4555-8c14-cc83b377024c","ios":"levelo://app?vid=b0c31863-9489-4555-8c14-cc83b377024c"},"vehicle_type_id":"4","last_reported":1727618868,"current_range_meters":24800,"station_id":"","pricing_plan_id":"cebpf4jnsgd1na2vs0mg"},{"bike_id":"9e3989a6-6d62-412f-9d85-e04831da2f97","system_id":"levelo_inurba_marseille","lat":43.28258,"lon":5.3507,"is_reserved":false,"is_disabled":false,"rental_uris":{"android":"levelo://app?vid=9e3989a6-6d62-412f-9d85-e04831da2f97","ios":"levelo://app?vid=9e3989a6-6d62-412f-9d85-e04831da2f97"},"vehicle_type_id":"4","last_reported":1727618868,"current_range_meters":39200,"station_id":"ce4bhbp2rcd13ifvqerg","pricing_plan_id":"cebpf4jnsgd1na2vs0mg"},{"bike_id":"c5780541-b30d-4d72-9466-9846f9352508","system_id":"levelo_inurba_marseille","lat":43.24394,"lon":5.37066,"is_reserved":false,"is_disabled":false,"rental_uris":{"android":"levelo://app?vid=c5780541-b30d-4d72-9466-9846f9352508","ios":"levelo://app?vid=c5780541-b30d-4d72-9466-9846f9352508"},"vehicle_type_id":"4","last_reported":1727618868,"current_range_meters":28800,"station_id":"ce4bhhh2rcd13ifvqfk0","pricing_plan_id":"cebpf4jnsgd1na2vs0mg"},{"bike_id":"bbf952ac-e334-4066-8586-c2a54f21154f","system_id":"levelo_inurba_marseille","lat":43.24485,"lon":5.3783,"is_reserved":false,"is_disabled":false,"rental_uris":{"android":"levelo://app?vid=bbf952ac-e334-4066-8586-c2a54f21154f","ios":"levelo://app?vid=bbf952ac-e334-4066-8586-c2a54f21154f"},"vehicle_type_id":"4","last_reported":1727618868,"current_range_meters":22400,"station_id":"","pricing_plan_id":"cebpf4jnsgd1na2vs0mg"},