{"last_updated":1722092840,"ttl":30,"version":"2.2","data":{"bikes":[{"bike_id":"fa279ac7-db49-4e76-b3c2-99988d52fb9f","system_id":"levelo_inurba_marseille","lat":43.312239,"lon":5.368562,"is_reserved":false,"is_disabled":false,"rental_uris":{"android":"levelo://app?vid=fa279ac7-db49-4e76-b3c2-99988d52fb9f","ios":"levelo://app?vid=fa279ac7-db49-4e76-b3c2-99988d52fb9f"},"vehicle_type_id":"4","last_reported":1722092840,"current_range_meters":23200,"station_id":"ce4bgl92rcd13ifvqbq0","pricing_plan_id":"cebpf4jnsgd1na2vs0mg"},{"bike_id":"bd49eaa7-6072-4aea-a36d-c372fe6e08db","system_id":"levelo_inurba_marseille","lat":43.312239,"lon":5.368562,"is_reserved":false,"is_disabled":false,"rental_uris":{"android":"levelo://app?vid=bd49eaa7-6072-4aea-a36d-c372fe6e08db","ios":"levelo://app?vid=bd49eaa7-6072-4aea-a36d-c372fe6e08db"},"vehicle_type_id":"4","last_reported":1722092840,"current_range_meters":0,"station_id":"ce4bgl92rcd13ifvqbq0","pricing_plan_id":"cebpf4jnsgd1na2vs0mg"},{"bike_id":"70b147dd-4dee-45ec-b1a6-7eca4050b185","system_id":"levelo_inurba_marseille","lat":43.314989,"lon":5.368484,"is_reserved":false,"is_disabled":false,"rental_uris":{"android":"levelo://app?vid=70b147dd-4dee-45ec-b1a6-7eca4050b185","ios":"levelo://app?vid=70b147dd-4dee-45ec-b1a6-7eca4050b185"},"vehicle_type_id":"4","last_reported":1722092840,"current_range_meters":10400,"station_id":"","pricing_plan_id":"cebpf4jnsgd1na2vs0mg"},{"bike_id":"99fc6748-4775-4aa4-a53a-ded0c0bcbba9","system_id":"levelo_inurba_marseille","lat":43.315483,"lon":5.373078,"is_reserved":false,"is_disabled":false,"rental_uris":{"android":"levelo://app?vid=99fc6748-4775-4aa4-a53a-ded0c0bcbba9","ios":"levelo://app?vid=99fc6748-4775-4aa4-a53a-ded0c0bcbba9"},"vehicle_type_id":"4","last_reported":1722092840,"current_range_meters":8000,"station_id":"","pricing_plan_id":"cebpf4jnsgd1na2vs0mg"},{"bike_id":"1ef70904-19f5-42a7-a1bd-fa2d73cdcab5","system_id":"levelo_inurba_marseille","lat":43.31674,"lon":5.374754,"is_reserved":false,"is_disabled":false,"rental_uris":{"android":"levelo://app?vid=1ef70904-19f5-42a7-a1bd-fa2d73cdcab5","ios":"levelo://app?vid=1ef70904-19f5-42a7-a1bd-fa2d73cdcab5"},"vehicle_type_id":"4","last_reported":1722092840,"current_range_meters":0,"station_id":"","pricing_plan_id":"cebpf4jnsgd1na2vs0mg"},{"bike_id":"69295316-d29b-495c-afa5-1fddac5bb6ff","system_id":"levelo_inurba_marseille","lat":43.305714,"lon":5.365633,"is_reserved":false,"is_disabled":false,"rental_uris":{"android":"levelo://app?vid=69295316-d29b-495c-afa5-1fddac5bb6ff","ios":"levelo://app?vid=69295316-d29b-495c-afa5-1fddac5bb6ff"},"vehicle_type_id":"4","last_reported":1722092840,"current_range_meters":0,"station_id":"ce4bgs12rcd13ifvqcag","pricing_plan_id":"cebpf4jnsgd1na2vs0mg"},{"bike_id":"e5fab29a-6253-4a11-b3de-a2532432aea9","system_id":"levelo_inurba_marseille","lat":43.307945,"lon":5.376487,"is_reserved":false,"is_disabled":false,"rental_uris":{"android":"levelo://app?vid=e5fab29a-6253-4a11-b3de-a2532432aea9","ios":"levelo://app?vid=e5fab29a-6253-4a11-b3de-a2532432aea9"},"vehicle_type_id":"4","last_reported":1722092840,"current_range_meters":16000,"station_id":"ce4bgv92rcd13ifvqcq0","pricing_plan_id":"cebpf4jnsgd1na2vs0mg"},{"bike_id":"8b516f78-d50a-4aab-af95-bf023c2b3cab","system_id":"levelo_inurba_marseille","lat":43.317075,"lon":5.377367,"is_reserved":false,"is_disabled":false,"rental_uris":{"android":"levelo://app?vid=8b516f78-d50a-4aab-af95-bf023c2b3cab","ios":"levelo://app?vid=8b516f78-d50a-4aab-af95-bf023c2b3cab"},"vehicle_type_id":"4","last_reported":1722092840,"current_range_meters":16800,"station_id":"ce4bgth2rcd13ifvqch0","pricing_plan_id":"cebpf4jnsgd1na2vs0mg"},{"bike_id":"85e60dfd-f81a-45d4-b6a0-1f882fd09ec6","system_id":"levelo_inurba_marseille","lat":43.31706,"lon":5.37751,"is_reserved":false,"is_disabled":false,"rental_uris":{"android":"levelo://app?vid=85e60dfd-f81a-45d4-b6a0-1f882fd09ec6","ios":"levelo://app?vid=85e60dfd-f81a-45d4-b6a0-1f882fd09ec6"},"vehicle_type_id":"4","last_reported":1722092840,"current_range_meters":5600,"station_id":"ce4bgth2rcd13ifvqch0","pricing_plan_id":"cebpf4jnsgd1na2vs0mg"},{"bike_id":"934f0b97-8586-4dd8-956b-22b9aa2d83bd","system_id":"levelo_inurba_marseille","lat":43.315289,"lon":5.380349,"is_reserved":false,"is_disabled":false,"rental_uris":{"android":"levelo://app?vid=934f0b97-8586-4dd8-956b-22b9aa2d83bd","ios":"levelo://app?vid=934f0b97-8586-4dd8-956b-22b9aa2d83bd"},"vehicle_type_id":"4","last_reported":1722092840,"current_range_meters":26800,"station_id":"ce4bhsp2rcd13ifvqi50","pricing_plan_id":"cebpf4jnsgd1na2vs0mg"},{"bike_id":"4a48e47e-59ab-4613-9cd5-f95504c55e20","system_id":"levelo_inurba_marseille","lat":43.308012,"lon":5.381511,"is_reserved":false,"is_disabled":false,"rental_uris":{"android":"levelo://app?vid=4a48e47e-59ab-4613-9cd5-f95504c55e20","ios":"levelo://app?vid=4a48e47e-59ab-4613-9cd5-f95504c55e20"},"vehicle_type_id":"4","last_reported":1722092840,"current_range_meters":12400,"station_id":"ce4bgt12rcd13ifvqce0","pricing_plan_id":"cebpf4jnsgd1na2vs0mg"},{"bike_id":"63f5f5d0-f0b9-4035-bbea-061f9f602ad7","system_id":"levelo_inurba_marseille","lat":43.308012,"lon":5.381511,"is_reserved":false,"is_disabled":false,"rental_uris":{"android":"levelo://app?vid=63f5f5d0-f0b9-4035-bbea-061f9f602ad7","ios":"levelo://app?vid=63f5f5d0-f0b9-4035-bbea-061f9f602ad7"},"vehicle_type_id":"4","last_reported":1722092840,"current_range_meters":17600,"station_id":"ce4bgt12rcd13ifvqce0","pricing_plan_id":"cebpf4jnsgd1na2vs0mg"},{"bike_id":"f3e33772-9b97-4442-beb9-f9eca32f90cf","system_id":"levelo_inurba_marseille","lat":43.308012,"lon":5.381511,"is_reserved":false,"is_disabled":false,"rental_uris":{"android":"levelo://app?vid=f3e33772-9b97-4442-beb9-f9eca32f90cf","ios":"levelo://app?vid=f3e33772-9b97-4442-beb9-f9eca32f90cf"},"vehicle_type_id":"4","last_reported":1722092840,"current_range_meters":26400,"station_id":"ce4bgt12rcd13ifvqce0","pricing_plan_id":"cebpf4jnsgd1na2vs0mg"},{"bike_id":"f71ed45a-ec37-402e-90ce-073289a7ae44","system_id":"levelo_inurba_marseille","lat":43.310804,"lon":5.38359,"is_reserved":false,"is_disabled":false,"rental_uris":{"android":"levelo://app?vid=f71ed45a-ec37-402e-90ce-073289a7ae44","ios":"levelo://app?vid=f71ed45a-ec37-402e-90ce-073289a7ae44"},"vehicle_type_id":"4","last_reported":1722092840,"current_range_meters":12800,"station_id":"ce4bgv92rcd13ifvqcr0","pricing_plan_id":"cebpf4jnsgd1na2vs0mg"},{"bike_id":"6579acd1-df81-425e-adb8-5ed56454c409","system_id":"levelo_inurba_marseille","lat":43.304606,"lon":5.379026,"is_reserved":false,"is_disabled":false,"rental_uris":{"android":"levelo://app?vid=6579acd1-df81-425e-adb8-5ed56454c409","ios":"levelo://app?vid=6579acd1-df81-425e-adb8-5ed56454c409"},"vehicle_type_id":"4","last_reported":1722092840,"current_range_meters":0,"station_id":"ce4bgup2rcd13ifvqcn0","pricing_plan_id":"cebpf4jnsgd1na2vs0mg"},{"bike_id":"44eb160c-49b0-43e2-9f1e-c4708ed19555","system_id":"levelo_inurba_marseille","lat":43.30463,"lon":5.37911,"is_reserved":false,"is_disabled":false,"rental_uris":{"android":"levelo://app?vid=44eb160c-49b0-43e2-9f1e-c4708ed19555","ios":"levelo://app?vid=44eb160c-49b0-43e2-9f1e-c4708ed19555"},"vehicle_type_id":"4","last_reported":1722092840,"current_range_meters":0,"station_id":"ce4bgup2rcd13ifvqcn0","pricing_plan_id":"cebpf4jnsgd1na2vs0mg"},{"bike_id":"e59997ab-f70a-4450-8f88-be18c3582c54","system_id":"levelo_inurba_marseille","lat":43.324771,"lon":5.36557,"is_reserved":false,"is_disabled":false,"rental_uris":{"android":"levelo://app?vid=e59997ab-f70a-4450-8f88-be18c3582c54","ios":"levelo://app?vid=e59997ab-f70a-4450-8f88-be18c3582c54"},"vehicle_type_id":"4","last_reported":1722092840,"current_range_meters":31600,"station_id":"ce4bhs12rcd13ifvqhvg","pricing_plan_id":"cebpf4jnsgd1na2vs0mg"},{"bike_id":"2fb79667-ea02-4953-87fa-e97ab647561d","system_id":"levelo_inurba_marseille","lat":43.324771,"lon":5.36557,"is_reserved":false,"is_disabled":false,"rental_uris":{"android":"levelo://app?vid=2fb79667-ea02-4953-87fa-e97ab647561d","ios":"levelo://app?vid=2fb79667-ea02-4953-87fa-e97ab647561d"},"vehicle_type_id":"4","last_reported":1722092840,"current_range_meters":28000,"station_id":"ce4bhs12rcd13ifvqhvg","pricing_plan_id":"cebpf4jnsgd1na2vs0mg"},{"bike_id":"33499b9a-4468-4d2a-9302-d9435251028e","system_id":"levelo_inurba_marseille","lat":43.324771,"lon":5.36557,"is_reserved":false,"is_disabled":false,"rental_uris":{"android":"levelo://app?vid=33499b9a-4468-4d2a-9302-d9435251028e","ios":"levelo://app?vid=33499b9a-4468-4d2a-9302-d9435251028e"},"vehicle_type_id":"4","last_reported":1722092840,"current_range_meters":8800,"station_id":"ce4bhs12rcd13ifvqhvg","pricing_plan_id":"cebpf4jnsgd1na2vs0mg"},{"bike_id":"9b39141c-3ef1-4e8e-9cb9-083bf11925b1","system_id":"levelo_inurba_marseille","lat":43.310804,"lon":5.38359,"is_reserved":false,"is_disabled":false,"rental_uris":{"android":"levelo://app?vid=9b39141c-3ef1-4e8e-9cb9-083bf11925b1","ios":"levelo://app?vid=9b39141c-3ef1-4e8e-9cb9-083bf11925b1"},"vehicle_type_id":"4","last_reported":1722092840,"current_range_meters":14000,"station_id":"ce4bgv92rcd13ifvqcr0","pricing_plan_id":"cebpf4jnsgd1na2vs0mg"},{"bike_id":"2e33158a-228e-4723-9271-c569ffcac343","system_id":"levelo_inurba_marseille","lat":43.30143,"lon":5.37413,"is_reserved":false,"is_disabled":false,"rental_uris":{"android":"levelo://app?vid=2e33158a-228e-4723-9271-c569ffcac343","ios":"levelo://app?vid=2e33158a-228e-4723-9271-c569ffcac343"},"vehicle_type_id":"4","last_reported":1722092840,"current_range_meters":0,"station_id":"ce4bgs92rcd13ifvqcc0","pricing_plan_id":"cebpf4jnsgd1na2vs0mg"},{"bike_id":"9df41fec-4549-43f8-8c75-7517744cbb33","system_id":"levelo_inurba_marseille","lat":43.320367,"lon":5.382717,"is_reserved":false,"is_disabled":false,"rental_uris":{"android":"levelo://app?vid=9df41fec-4549-43f8-8c75-7517744cbb33","ios":"levelo://app?vid=9df41fec-4549-43f8-8c75-7517744cbb33"},"vehicle_type_id":"4","last_reported":1722092840,"current_range_meters":29600,"station_id":"","pricing_plan_id":"cebpf4jnsgd1na2vs0mg"},{"bike_id":"7f3c87a9-888f-4458-b55d-6ce7906f1a35","system_id":"levelo_inurba_marseille","lat":43.305364,"lon":5.384119,"is_reserved":false,"is_disabled":false,"rental_uris":{"android":"levelo://app?vid=7f3c87a9-888f-4458-b55d-6ce7906f1a35","ios":"levelo://app?vid=7f3c87a9-888f-4458-b55d-6ce7906f1a35"},"vehicle_type_id":"4","last_reported":1722092840,"current_range_meters":17200,"station_id":"ce4bgg92rcd13ifvqb30","pricing_plan_id":"cebpf4jnsgd1na2vs0mg"},{"bike_id":"1458e7be-f7bf-4aa8-8468-b8726a90a9c8","system_id":"levelo_inurba_marseille","lat":43.29853,"lon":5.36291,"is_reserved":false,"is_disabled":false,"rental_uris":{"android":"levelo://app?vid=1458e7be-f7bf-4aa8-8468-b8726a90a9c8","ios":"levelo://app?vid=1458e7be-f7bf-4aa8-8468-b8726a90a9c8"},"vehicle_type_id":"4","last_reported":1722092840,"current_range_meters":27600,"station_id":"ce4bgpp2rcd13ifvqc3g","pricing_plan_id":"cebpf4jnsgd1na2vs0mg"},{"bike_id":"353d5ebd-b9bb-4095-9f82-aceb139bacae","system_id":"levelo_inurba_marseille","lat":43.305364,"lon":5.384119,"is_reserved":false,"is_disabled":false,"rental_uris":{"android":"levelo://app?vid=353d5ebd-b9bb-4095-9f82-aceb139bacae","ios":"levelo://app?vid=353d5ebd-b9bb-4095-9f82-aceb139bacae"},"vehicle_type_id":"4","last_reported":1722092840,"current_range_meters":400,"station_id":"ce4bgg92rcd13ifvqb30","pricing_plan_id":"cebpf4jnsgd1na2vs0mg"},{"bike_id":"97cdb7e3-04e2-49d6-96a3-d5d8b2d72495","system_id":"levelo_inurba_marseille","lat":43.298433,"lon":5.362774,"is_reserved":false,"is_disabled":false,"rental_uris":{"android":"levelo://app?vid=97cdb7e3-04e2-49d6-96a3-d5d8b2d72495","ios":"levelo://app?vid=97cdb7e3-04e2-49d6-96a3-d5d8b2d72495"},"vehicle_type_id":"4","last_reported":1722092840,"current_range_meters":0,"station_id":"ce4bgpp2rcd13ifvqc3g","pricing_plan_id":"cebpf4jnsgd1na2vs0mg"},{"bike_id":"47377255-f232-4651-8915-75fd0d7b20d7","system_id":"levelo_inurba_marseille","lat":43.298433,"lon":5.362774,"is_reserved":false,"is_disabled":false,"rental_uris":{"android":"levelo://app?vid=47377255-f232-4651-8915-75fd0d7b20d7","ios":"levelo://app?vid=47377255-f232-4651-8915-75fd0d7b20d7"},"vehicle_type_id":"4","last_reported":1722092840,"current_range_meters":26800,"station_id":"ce4bgpp2rcd13ifvqc3g","pricing_plan_id":"cebpf4jnsgd1na2vs0mg"},{"bike_id":"78c2c161-108f-4499-8580-66f7d3ce1ced","system_id":"levelo_inurba_marseille","lat":43.298433,"lon":5.362774,"is_reserved":false,"is_disabled":false,"rental_uris":{"android":"levelo://app?vid=78c2c161-108f-4499-8580-66f7d3ce1ced","ios":"levelo://app?vid=78c2c161-108f-4499-8580-66f7d3ce1ced"},"vehicle_type_id":"4","last_reported":1722092840,"current_range_meters":2800,"station_id":"ce4bgpp2rcd13ifvqc3g","pricing_plan_id":"cebpf4jnsgd1na2vs0mg"},{"bike_id":"fc6ffb0f-20cb-4963-a83e-5dd3fd11a081","system_id":"levelo_inurba_marseille","lat":43.3015,"lon":5.38089,"is_reserved":false,"is_disabled":false,"rental_uris":{"android":"levelo://app?vid=fc6ffb0f-20cb-4963-a83e-5dd3fd11a081","ios":"levelo://app?vid=fc6ffb0f-20cb-4963-a83e-5dd3fd11a081"},"vehicle_type_id":"4","last_reported":1722092840,"current_range_meters":4000,"station_id":"","pricing_plan_id":"cebpf4jnsgd1na2vs0mg"},{"bike_id":"2aa797f6-cf35-44ea-b97b-35b9e34f58e1","system_id":"levelo_inurba_marseille","lat":43.32285,"lon":5.38272,"is_reserved":false,"is_disabled":false,"rental_uris":{"android":"levelo://app?vid=2aa797f6-cf35-44ea-b97b-35b9e34f58e1","ios":"levelo://app?vid=2aa797f6-cf35-44ea-b97b-35b9e34f58e1"},"vehicle_type_id":"4","last_reported":1722092840,"current_range_meters":31200,"station_id":"ce4bhr12rcd13ifvqhqg","pricing_plan_id":"cebpf4jnsgd1na2vs0mg"},{"bike_id":"d4262961-f3bb-4638-aa76-74e085324454","system_id":"levelo_inurba_marseille","lat":43.322916,"lon":5.38266,"is_reserved":false,"is_disabled":false,"rental_uris":{"android":"levelo://app?vid=d4262961-f3bb-4638-aa76-74e085324454","ios":"levelo://app?vid=d4262961-f3bb-4638-aa76-74e085324454"},"vehicle_type_id":"4","last_reported":1722092840,"current_range_meters":0,"station_id":"ce4bhr12rcd13ifvqhqg","pricing_plan_id":"cebpf4jnsgd1na2vs0mg"},{"bike_id":"4dc794f6-e1d8-4cf0-95b2-cd6d647fab4e","system_id":"levelo_inurba_marseille","lat":43.322873,"lon":5.382732,"is_reserved":false,"is_disabled":false,"rental_uris":{"android":"levelo://app?vid=4dc794f6-e1d8-4cf0-95b2-cd6d647fab4e","ios":"levelo://app?vid=4dc794f6-e1d8-4cf0-95b2-cd6d647fab4e"},"vehicle_type_id":"4","last_reported":1722092840,"current_range_meters":23200,"station_id":"ce4bhr12rcd13ifvqhqg","pricing_plan_id":"cebpf4jnsgd1na2vs0mg"},{"bike_id":"553363d3-b2f0-4e68-a004-1fd5345938b3","system_id":"levelo_inurba_marseille","lat":43.32292,"lon":5.38268,"is_reserved":false,"is_disabled":false,"rental_uris":{"android":"levelo://app?vid=553363d3-b2f0-4e68-a004-1fd5345938b3","ios":"levelo://app?vid=553363d3-b2f0-4e68-a004-1fd5345938b3"},"vehicle_type_id":"4","last_reported":1722092840,"current_range_meters":6000,"station_id":"ce4bhr12rcd13ifvqhqg","pricing_plan_id":"cebpf4jnsgd1na2vs0mg"},{"bike_id":"7a4a332f-ccad-4d9e-9cdf-a1c6d87ff077","system_id":"levelo_inurba_marseille","lat":43.32289,"lon":5.38282,"is_reserved":false,"is_disabled":false,"rental_uris":{"android":"levelo://app?vid=7a4a332f-ccad-4d9e-9cdf-a1c6d87ff077","ios":"levelo://app?vid=7a4a332f-ccad-4d9e-9cdf-a1c6d87ff077"},"vehicle_type_id":"4","last_reported":1722092840,"current_range_meters":31200,"station_id":"ce4bhr12rcd13ifvqhqg","pricing_plan_id":"cebpf4jnsgd1na2vs0mg"},{"bike_id":"7b0d5a24-1fd7-45c6-89c6-5c233c3b1c3e","system_id":"levelo_inurba_marseille","lat":43.29961,"lon":5.37795,"is_reserved":false,"is_disabled":false,"rental_uris":{"android":"levelo://app?vid=7b0d5a24-1fd7-45c6-89c6-5c233c3b1c3e","ios":"levelo://app?vid=7b0d5a24-1fd7-45c6-89c6-5c233c3b1c3e"},"vehicle_type_id":"4","last_reported":1722092840,"current_range_meters":20000,"station_id":"","pricing_plan_id":"cebpf4jnsgd1na2vs0mg"},{"bike_id":"c397368f-9f67-4482-b9f7-1d9f600407e8","system_id":"levelo_inurba_marseille","lat":43.322872,"lon":5.382756,"is_reserved":false,"is_disabled":false,"rental_uris":{"android":"levelo://app?vid=c397368f-9f67-4482-b9f7-1d9f600407e8","ios":"levelo://app?vid=c397368f-9f67-4482-b9f7-1d9f600407e8"},"vehicle_type_id":"4","last_reported":1722092840,"current_range_meters":17600,"station_id":"ce4bhr12rcd13ifvqhqg","pricing_plan_id":"cebpf4jnsgd1na2vs0mg"},{"bike_id":"76b6ad8e-2960-45b6-bdb7-9963de3db73c","system_id":"levelo_inurba_marseille","lat":43.297163,"lon":5.365866,"is_reserved":false,"is_disabled":false,"rental_uris":{"android":"levelo://app?vid=76b6ad8e-2960-45b6-bdb7-9963de3db73c","ios":"levelo://app?vid=76b6ad8e-2960-45b6-bdb7-9963de3db73c"},"vehicle_type_id":"4","last_reported":1722092840,"current_range_meters":19600,"station_id":"ce4bgn12rcd13ifvqbt0","pricing_plan_id":"cebpf4jnsgd1na2vs0mg"},{"bike_id":"77ebd6f7-0e15-4246-8feb-b1d720ac899a","system_id":"levelo_inurba_marseille","lat":43.300434,"lon":5.382081,"is_reserved":false,"is_disabled":false,"rental_uris":{"android":"levelo://app?vid=77ebd6f7-0e15-4246-8feb-b1d720ac899a","ios":"levelo://app?vid=77ebd6f7-0e15-4246-8feb-b1d720ac899a"},"vehicle_type_id":"4","last_reported":1722092840,"current_range_meters":19200,"station_id":"","pricing_plan_id":"cebpf4jnsgd1na2vs0mg"},{"bike_id":"95f7cc9f-288f-4b08-a1fc-4eecedcd86e7","system_id":"levelo_inurba_marseille","lat":43.29573,"lon":5.367355,"is_reserved":false,"is_disabled":false,"rental_uris":{"android":"levelo://app?vid=95f7cc9f-288f-4b08-a1fc-4eecedcd86e7","ios":"levelo://app?vid=95f7cc9f-288f-4b08-a1fc-4eecedcd86e7"},"vehicle_type_id":"4","last_reported":1722092840,"current_range_meters":2800,"station_id":"ce4bgph2rcd13ifvqc2g","pricing_plan_id":"cebpf4jnsgd1na2vs0mg"},{"bike_id":"9616450b-58e8-4c4e-a6df-49c810f4b06d","system_id":"levelo_inurba_marseille","lat":43.29909,"lon":5.38141,"is_reserved":false,"is_disabled":false,"rental_uris":{"android":"levelo://app?vid=9616450b-58e8-4c4e-a6df-49c810f4b06d","ios":"levelo://app?vid=9616450b-58e8-4c4e-a6df-49c810f4b06d"},"vehicle_type_id":"4","last_reported":1722092840,"current_range_meters":2800,"station_id":"","pricing_plan_id":"cebpf4jnsgd1na2vs0mg"},{"bike_id":"80ce67c3-3158-448f-9fce-24e23f08a54b","system_id":"levelo_inurba_marseille","lat":43.309589,"lon":5.390258,"is_reserved":false,"is_disabled":false,"rental_uris":{"android":"levelo://app?vid=80ce67c3-3158-448f-9fce-24e23f08a54b","ios":"levelo://app?vid=80ce67c3-3158-448f-9fce-24e23f08a54b"},"vehicle_type_id":"4","last_reported":1722092840,"current_range_meters":20000,"station_id":"ce4bgup2rcd13ifvqco0","pricing_plan_id":"cebpf4jnsgd1na2vs0mg"},{"bike_id":"cf9ed157-3401-4403-8a72-e27e834e0613","system_id":"levelo_inurba_marseille","lat":43.317557,"lon":5.390173,"is_reserved":false,"is_disabled":false,"rental_uris":{"android":"levelo://app?vid=cf9ed157-3401-4403-8a72-e27e834e0613","ios":"levelo://app?vid=cf9ed157-3401-4403-8a72-e27e834e0613"},"vehicle_type_id":"4","last_reported":1722092840,"current_range_meters":26000,"station_id":"ce4bhqp2rcd13ifvqhng","pricing_plan_id":"cebpf4jnsgd1na2vs0mg"},{"bike_id":"9a200434-3620-4de8-b736-feaa94f497d5","system_id":"levelo_inurba_marseille","lat":43.304274,"lon":5.388873,"is_reserved":false,"is_disabled":false,"rental_uris":{"android":"levelo://app?vid=9a200434-3620-4de8-b736-feaa94f497d5","ios":"levelo://app?vid=9a200434-3620-4de8-b736-feaa94f497d5"},"vehicle_type_id":"4","last_reported":1722092840,"current_range_meters":18400,"station_id":"ce4bgk12rcd13ifvqbi0","pricing_plan_id":"cebpf4jnsgd1na2vs0mg"},{"bike_id":"ab5661ae-b780-4529-825b-5c869019f8a5","system_id":"levelo_inurba_marseille","lat":43.296263,"lon":5.377094,"is_reserved":false,"is_disabled":false,"rental_uris":{"android":"levelo://app?vid=ab5661ae-b780-4529-825b-5c869019f8a5","ios":"levelo://app?vid=ab5661ae-b780-4529-825b-5c869019f8a5"},"vehicle_type_id":"4","last_reported":1722092840,"current_range_meters":28000,"station_id":"ce4bgi92rcd13ifvqb90","pricing_plan_id":"cebpf4jnsgd1na2vs0mg"},{"bike_id":"7d08e6c8-6830-4da5-beb4-269f6b58d2c4","system_id":"levelo_inurba_marseille","lat":43.296263,"lon":5.377094,"is_reserved":false,"is_disabled":false,"rental_uris":{"android":"levelo://app?vid=7d08e6c8-6830-4da5-beb4-269f6b58d2c4","ios":"levelo://app?vid=7d08e6c8-6830-4da5-beb4-269f6b58d2c4"},"vehicle_type_id":"4","last_reported":1722092840,"current_range_meters":5200,"station_id":"ce4bgi92rcd13ifvqb90","pricing_plan_id":"cebpf4jnsgd1na2vs0mg"},{"bike_id":"c82b23b4-a2d5-4a80-9728-25b4b7e3ab25","system_id":"levelo_inurba_marseille","lat":43.295279,"lon":5.375048,"is_reserved":false,"is_disabled":false,"rental_uris":{"android":"levelo://app?vid=c82b23b4-a2d5-4a80-9728-25b4b7e3ab25","ios":"levelo://app?vid=c82b23b4-a2d5-4a80-9728-25b4b7e3ab25"},"vehicle_type_id":"4","last_reported":1722092840,"current_range_meters":10800,"station_id":"ce4bgkp2rcd13ifvqbmg","pricing_plan_id":"cebpf4jnsgd1na2vs0mg"},{"bike_id":"5929881c-bccd-4bec-a170-5ea29f76eac3","system_id":"levelo_inurba_marseille","lat":43.301396,"lon":5.387812,"is_reserved":false,"is_disabled":false,"rental_uris":{"android":"levelo://app?vid=5929881c-bccd-4bec-a170-5ea29f76eac3","ios":"levelo://app?vid=5929881c-bccd-4bec-a170-5ea29f76eac3"},"vehicle_type_id":"4","last_reported":1722092840,"current_range_meters":400,"station_id":"ce4bghh2rcd13ifvqb60","pricing_plan_id":"cebpf4jnsgd1na2vs0mg"},{"bike_id":"eda5ff20-3c73-448a-8884-f34d8c3dc245","system_id":"levelo_inurba_marseille","lat":43.301396,"lon":5.387812,"is_reserved":false,"is_disabled":false,"rental_uris":{"android":"levelo://app?vid=eda5ff20-3c73-448a-8884-f34d8c3dc245","ios":"levelo://app?vid=eda5ff20-3c73-448a-8884-f34d8c3dc245"},"vehicle_type_id":"4","last_reported":1722092840,"current_range_meters":1200,"station_id":"ce4bghh2rcd13ifvqb60","pricing_plan_id":"cebpf4jnsgd1na2vs0mg"},{"bike_id":"34e71249-44fc-40d4-99dc-c2e683882bce","system_id":"levelo_inurba_marseille","lat":43.293249,"lon":5.371578,"is_reserved":false,"is_disabled":false,"rental_uris":{"android":"levelo://app?vid=34e71249-44fc-40d4-99dc-c2e683882bce","ios":"levelo://app?vid=34e71249-44fc-40d4-99dc-c2e683882bce"},"vehicle_type_id":"4","last_reported":1722092840,"current_range_meters":8400,"station_id":"ce4bgh92rcd13ifvqb40","pricing_plan_id":"cebpf4jnsgd1na2vs0mg"},{"bike_id":"ef5f592b-b717-4b5c-ac60-89d174ff35c6","system_id":"levelo_inurba_marseille","lat":43.29275,"lon":5.36844,"is_reserved":false,"is_disabled":false,"rental_uris":{"android":"levelo://app?vid=ef5f592b-b717-4b5c-ac60-89d174ff35c6","ios":"levelo://app?vid=ef5f592b-b717-4b5c-ac60-89d174ff35c6"},"vehicle_type_id":"4","last_reported":1722092840,"current_range_meters":0,"station_id":"","pricing_plan_id":"cebpf4jnsgd1na2vs0mg"},{"bike_id":"fb4649f6-5774-4a6b-ab6d-18c7e48797ac","system_id":"levelo_inurba_marseille","lat":43.292749,"lon":5.368402,"is_reserved":false,"is_disabled":false,"rental_uris":{"android":"levelo://app?vid=fb4649f6-5774-4a6b-ab6d-18c7e48797ac","ios":"levelo://app?vid=fb4649f6-5774-4a6b-ab6d-18c7e48797ac"},"vehicle_type_id":"4","last_reported":1722092840,"current_range_meters":0,"station_id":"ce4bhbp2rcd13ifvqesg","pricing_plan_id":"cebpf4jnsgd1na2vs0mg"},{"bike_id":"39f66259-05d3-415b-ab99-1c69b6b93dbf","system_id":"levelo_inurba_marseille","lat":43.293009,"lon":5.374584,"is_reserved":false,"is_disabled":false,"rental_uris":{"android":"levelo://app?vid=39f66259-05d3-415b-ab99-1c69b6b93dbf","ios":"levelo://app?vid=39f66259-05d3-415b-ab99-1c69b6b93dbf"},"vehicle_type_id":"4","last_reported":1722092840,"current_range_meters":23200,"station_id":"ce4bgi12rcd13ifvqb70","pricing_plan_id":"cebpf4jnsgd1na2vs0mg"},{"bike_id":"85554b9c-b4b8-47af-9e2a-ca658563cd51","system_id":"levelo_inurba_marseille","lat":43.2936,"lon":5.37835,"is_reserved":false,"is_disabled":false,"rental_uris":{"android":"levelo://app?vid=85554b9c-b4b8-47af-9e2a-ca658563cd51","ios":"levelo://app?vid=85554b9c-b4b8-47af-9e2a-ca658563cd51"},"vehicle_type_id":"4","last_reported":1722092840,"current_range_meters":0,"station_id":"ce4bgjh2rcd13ifvqbf0","pricing_plan_id":"cebpf4jnsgd1na2vs0mg"},{"bike_id":"fdf992c3-29fd-41fa-9db5-5b99cb42147e","system_id":"levelo_inurba_marseille","lat":43.292311,"lon":5.360731,"is_reserved":false,"is_disabled":false,"rental_uris":{"android":"levelo://app?vid=fdf992c3-29fd-41fa-9db5-5b99cb42147e","ios":"levelo://app?vid=fdf992c3-29fd-41fa-9db5-5b99cb42147e"},"vehicle_type_id":"4","last_reported":1722092840,"current_range_meters":21600,"station_id":"ce4bhbh2rcd13ifvqeqg","pricing_plan_id":"cebpf4jnsgd1na2vs0mg"},{"bike_id":"c0c2a3d6-f03c-4ea7-a063-f420c07c3022","system_id":"levelo_inurba_marseille","lat":43.292311,"lon":5.360731,"is_reserved":false,"is_disabled":false,"rental_uris":{"android":"levelo://app?vid=c0c2a3d6-f03c-4ea7-a063-f420c07c3022","ios":"levelo://app?vid=c0c2a3d6-f03c-4ea7-a063-f420c07c3022"},"vehicle_type_id":"4","last_reported":1722092840,"current_range_meters":4800,"station_id":"ce4bhbh2rcd13ifvqeqg","pricing_plan_id":"cebpf4jnsgd1na2vs0mg"},{"bike_id":"d5f04152-5c86-44aa-85a6-685b8a1fea32","system_id":"levelo_inurba_marseille","lat":43.292571,"lon":5.376249,"is_reserved":false,"is_disabled":false,"rental_uris":{"android":"levelo://app?vid=d5f04152-5c86-44aa-85a6-685b8a1fea32","ios":"levelo://app?vid=d5f04152-5c86-44aa-85a6-685b8a1fea32"},"vehicle_type_id":"4","last_reported":1722092840,"current_range_meters":28000,"station_id":"ce4bgi12rcd13ifvqb80","pricing_plan_id":"cebpf4jnsgd1na2vs0mg"},{"bike_id":"c9df13fc-c711-4c28-ada2-1678efbf1af2","system_id":"levelo_inurba_marseille","lat":43.292563,"lon":5.376216,"is_reserved":false,"is_disabled":false,"rental_uris":{"android":"levelo://app?vid=c9df13fc-c711-4c28-ada2-1678efbf1af2","ios":"levelo://app?vid=c9df13fc-c711-4c28-ada2-1678efbf1af2"},"vehicle_type_id":"4","last_reported":1722092840,"current_range_meters":0,"station_id":"ce4bgi12rcd13ifvqb80","pricing_plan_id":"cebpf4jnsgd1na2vs0mg"},{"bike_id":"c15dd5bc-d55a-4127-aaf6-de481be9040d","system_id":"levelo_inurba_marseille","lat":43.29249,"lon":5.37631,"is_reserved":false,"is_disabled":false,"rental_uris":{"android":"levelo://app?vid=c15dd5bc-d55a-4127-aaf6-de481be9040d","ios":"levelo://app?vid=c15dd5bc-d55a-4127-aaf6-de481be9040d"},"vehicle_type_id":"4","last_reported":1722092840,"current_range_meters":400,"station_id":"ce4bgi12rcd13ifvqb80","pricing_plan_id":"cebpf4jnsgd1na2vs0mg"},{"bike_id":"b27a82ad-a505-4b11-a89a-ee05cc727eaa","system_id":"levelo_inurba_marseille","lat":43.31325,"lon":5.39674,"is_reserved":false,"is_disabled":false,"rental_uris":{"android":"levelo://app?vid=b27a82ad-a505-4b11-a89a-ee05cc727eaa","ios":"levelo://app?vid=b27a82ad-a505-4b11-a89a-ee05cc727eaa"},"vehicle_type_id":"4","last_reported":1722092840,"current_range_meters":5200,"station_id":"ce4bgvp2rcd13ifvqcu0","pricing_plan_id":"cebpf4jnsgd1na2vs0mg"},{"bike_id":"d830f9b9-0188-476e-81dd-4261f49d3986","system_id":"levelo_inurba_marseille","lat":43.313291,"lon":5.396838,"is_reserved":false,"is_disabled":false,"rental_uris":{"android":"levelo://app?vid=d830f9b9-0188-476e-81dd-4261f49d3986","ios":"levelo://app?vid=d830f9b9-0188-476e-81dd-4261f49d3986"},"vehicle_type_id":"4","last_reported":1722092840,"current_range_meters":0,"station_id":"ce4bgvp2rcd13ifvqcu0","pricing_plan_id":"cebpf4jnsgd1na2vs0mg"},{"bike_id":"b8d4894e-b9b9-4997-8620-b179df4a170e","system_id":"levelo_inurba_marseille","lat":43.309038,"lon":5.396546,"is_reserved":false,"is_disabled":false,"rental_uris":{"android":"levelo://app?vid=b8d4894e-b9b9-4997-8620-b179df4a170e","ios":"levelo://app?vid=b8d4894e-b9b9-4997-8620-b179df4a170e"},"vehicle_type_id":"4","last_reported":1722092840,"current_range_meters":14400,"station_id":"ce4bh012rcd13ifvqcv0","pricing_plan_id":"cebpf4jnsgd1na2vs0mg"},{"bike_id":"4f9ec8d8-dbf0-484c-8326-e62411f20a46","system_id":"levelo_inurba_marseille","lat":43.29529,"lon":5.385581,"is_reserved":false,"is_disabled":false,"rental_uris":{"android":"levelo://app?vid=4f9ec8d8-dbf0-484c-8326-e62411f20a46","ios":"levelo://app?vid=4f9ec8d8-dbf0-484c-8326-e62411f20a46"},"vehicle_type_id":"4","last_reported":1722092840,"current_range_meters":19600,"station_id":"ce4bgih2rcd13ifvqba0","pricing_plan_id":"cebpf4jnsgd1na2vs0mg"},{"bike_id":"d140a365-2c8b-45a4-9253-31d05ecaef7e","system_id":"levelo_inurba_marseille","lat":43.29075,"lon":5.3715,"is_reserved":false,"is_disabled":false,"rental_uris":{"android":"levelo://app?vid=d140a365-2c8b-45a4-9253-31d05ecaef7e","ios":"levelo://app?vid=d140a365-2c8b-45a4-9253-31d05ecaef7e"},"vehicle_type_id":"4","last_reported":1722092840,"current_range_meters":1600,"station_id":"","pricing_plan_id":"cebpf4jnsgd1na2vs0mg"},{"bike_id":"9c590b02-2dec-48d7-9998-f1915894d4c3","system_id":"levelo_inurba_marseille","lat":43.290631,"lon":5.359244,"is_reserved":false,"is_disabled":false,"rental_uris":{"android":"levelo://app?vid=9c590b02-2dec-48d7-9998-f1915894d4c3","ios":"levelo://app?vid=9c590b02-2dec-48d7-9998-f1915894d4c3"},"vehicle_type_id":"4","last_reported":1722092840,"current_range_meters":4400,"station_id":"ce4bha92rcd13ifvqeg0","pricing_plan_id":"cebpf4jnsgd1na2vs0mg"},{"bike_id":"7b726c9f-9a8b-425d-baec-55ad49785af1","system_id":"levelo_inurba_marseille","lat":43.294153,"lon":5.386305,"is_reserved":false,"is_disabled":false,"rental_uris":{"android":"levelo://app?vid=7b726c9f-9a8b-425d-baec-55ad49785af1","ios":"levelo://app?vid=7b726c9f-9a8b-425d-baec-55ad49785af1"},"vehicle_type_id":"4","last_reported":1722092840,"current_range_meters":14000,"station_id":"ce4bh2h2rcd13ifvqdh0","pricing_plan_id":"cebpf4jnsgd1na2vs0mg"},{"bike_id":"cc10878a-d175-40c4-8859-661b1daf3230","system_id":"levelo_inurba_marseille","lat":43.28937,"lon":5.36635,"is_reserved":false,"is_disabled":false,"rental_uris":{"android":"levelo://app?vid=cc10878a-d175-40c4-8859-661b1daf3230","ios":"levelo://app?vid=cc10878a-d175-40c4-8859-661b1daf3230"},"vehicle_type_id":"4","last_reported":1722092840,"current_range_meters":0,"station_id":"ce4bhap2rcd13ifvqek0","pricing_plan_id":"cebpf4jnsgd1na2vs0mg"},{"bike_id":"0c45d3c7-8d7e-4065-8c9d-abf9fc07844d","system_id":"levelo_inurba_marseille","lat":43.289184,"lon":5.366408,"is_reserved":false,"is_disabled":false,"rental_uris":{"android":"levelo://app?vid=0c45d3c7-8d7e-4065-8c9d-abf9fc07844d","ios":"levelo://app?vid=0c45d3c7-8d7e-4065-8c9d-abf9fc07844d"},"vehicle_type_id":"4","last_reported":1722092840,"current_range_meters":29600,"station_id":"ce4bhap2rcd13ifvqek0","pricing_plan_id":"cebpf4jnsgd1na2vs0mg"},{"bike_id":"2146cbde-ce9c-4088-a3f8-ebc27177ef81","system_id":"levelo_inurba_marseille","lat":43.29069,"lon":5.35589,"is_reserved":false,"is_disabled":false,"rental_uris":{"android":"levelo://app?vid=2146cbde-ce9c-4088-a3f8-ebc27177ef81","ios":"levelo://app?vid=2146cbde-ce9c-4088-a3f8-ebc27177ef81"},"vehicle_type_id":"4","last_reported":1722092840,"current_range_meters":0,"station_id":"","pricing_plan_id":"cebpf4jnsgd1na2vs0mg"},{"bike_id":"4834f627-6aff-47a0-b4ed-f11363ac0d0d","system_id":"levelo_inurba_marseille","lat":43.29008,"lon":5.35621,"is_reserved":false,"is_disabled":false,"rental_uris":{"android":"levelo://app?vid=4834f627-6aff-47a0-b4ed-f11363ac0d0d","ios":"levelo://app?vid=4834f627-6aff-47a0-b4ed-f11363ac0d0d"},"vehicle_type_id":"4","last_reported":1722092840,"current_range_meters":0,"station_id":"ce4bhb92rcd13ifvqen0","pricing_plan_id":"cebpf4jnsgd1na2vs0mg"},{"bike_id":"8fedcf4f-9bd3-43da-aff0-195a2817ba41","system_id":"levelo_inurba_marseille","lat":43.29007,"lon":5.3561,"is_reserved":false,"is_disabled":false,"rental_uris":{"android":"levelo://app?vid=8fedcf4f-9bd3-43da-aff0-195a2817ba41","ios":"levelo://app?vid=8fedcf4f-9bd3-43da-aff0-195a2817ba41"},"vehicle_type_id":"4","last_reported":1722092840,"current_range_meters":0,"station_id":"ce4bhb92rcd13ifvqen0","pricing_plan_id":"cebpf4jnsgd1na2vs0mg"},{"bike_id":"30162e39-0e81-485a-97b2-8d4e01e424ac","system_id":"levelo_inurba_marseille","lat":43.290103,"lon":5.356114,"is_reserved":false,"is_disabled":false,"rental_uris":{"android":"levelo://app?vid=30162e39-0e81-485a-97b2-8d4e01e424ac","ios":"levelo://app?vid=30162e39-0e81-485a-97b2-8d4e01e424ac"},"vehicle_type_id":"4","last_reported":1722092840,"current_range_meters":24400,"station_id":"ce4bhb92rcd13ifvqen0","pricing_plan_id":"cebpf4jnsgd1na2vs0mg"},{"bike_id":"6263705d-aadc-42c9-881d-d84ed68bb6d0","system_id":"levelo_inurba_marseille","lat":43.295169,"lon":5.390426,"is_reserved":false,"is_disabled":false,"rental_uris":{"android":"levelo://app?vid=6263705d-aadc-42c9-881d-d84ed68bb6d0","ios":"levelo://app?vid=6263705d-aadc-42c9-881d-d84ed68bb6d0"},"vehicle_type_id":"4","last_reported":1722092840,"current_range_meters":27200,"station_id":"ce4bh3p2rcd13ifvqdp0","pricing_plan_id":"cebpf4jnsgd1na2vs0mg"},{"bike_id":"cff887e6-5b4a-4738-81b5-3b2f5e45b4f5","system_id":"levelo_inurba_marseille","lat":43.330442,"lon":5.389148,"is_reserved":false,"is_disabled":false,"rental_uris":{"android":"levelo://app?vid=cff887e6-5b4a-4738-81b5-3b2f5e45b4f5","ios":"levelo://app?vid=cff887e6-5b4a-4738-81b5-3b2f5e45b4f5"},"vehicle_type_id":"4","last_reported":1722092840,"current_range_meters":2800,"station_id":"ce4bhr92rcd13ifvqhrg","pricing_plan_id":"cebpf4jnsgd1na2vs0mg"},{"bike_id":"03265a15-9cbb-437f-a0c3-187470e51679","system_id":"levelo_inurba_marseille","lat":43.31461,"lon":5.40057,"is_reserved":false,"is_disabled":false,"rental_uris":{"android":"levelo://app?vid=03265a15-9cbb-437f-a0c3-187470e51679","ios":"levelo://app?vid=03265a15-9cbb-437f-a0c3-187470e51679"},"vehicle_type_id":"4","last_reported":1722092840,"current_range_meters":1200,"station_id":"","pricing_plan_id":"cebpf4jnsgd1na2vs0mg"},{"bike_id":"37ba32d6-157c-466a-ad06-de08d32025a5","system_id":"levelo_inurba_marseille","lat":43.28856,"lon":5.358371,"is_reserved":false,"is_disabled":false,"rental_uris":{"android":"levelo://app?vid=37ba32d6-157c-466a-ad06-de08d32025a5","ios":"levelo://app?vid=37ba32d6-157c-466a-ad06-de08d32025a5"},"vehicle_type_id":"4","last_reported":1722092840,"current_range_meters":0,"station_id":"ce4bhb12rcd13ifvqem0","pricing_plan_id":"cebpf4jnsgd1na2vs0mg"},{"bike_id":"3e79250c-7764-488c-b465-61fd16d31170","system_id":"levelo_inurba_marseille","lat":43.33736,"lon":5.37477,"is_reserved":false,"is_disabled":false,"rental_uris":{"android":"levelo://app?vid=3e79250c-7764-488c-b465-61fd16d31170","ios":"levelo://app?vid=3e79250c-7764-488c-b465-61fd16d31170"},"vehicle_type_id":"4","last_reported":1722092840,"current_range_meters":28800,"station_id":"","pricing_plan_id":"cebpf4jnsgd1na2vs0mg"},{"bike_id":"e92bf1d5-b1ca-44cd-9b31-a0496082825d","system_id":"levelo_inurba_marseille","lat":43.33733,"lon":5.37507,"is_reserved":false,"is_disabled":false,"rental_uris":{"android":"levelo://app?vid=e92bf1d5-b1ca-44cd-9b31-a0496082825d","ios":"levelo://app?vid=e92bf1d5-b1ca-44cd-9b31-a0496082825d"},"vehicle_type_id":"4","last_reported":1722092840,"current_range_meters":29200,"station_id":"","pricing_plan_id":"cebpf4jnsgd1na2vs0mg"},{"bike_id":"28ff567c-281c-4a43-913e-e1206badf942","system_id":"levelo_inurba_marseille","lat":43.337413,"lon":5.37468,"is_reserved":false,"is_disabled":false,"rental_uris":{"android":"levelo://app?vid=28ff567c-281c-4a43-913e-e1206badf942","ios":"levelo://app?vid=28ff567c-281c-4a43-913e-e1206badf942"},"vehicle_type_id":"4","last_reported":1722092840,"current_range_meters":27200,"station_id":"","pricing_plan_id":"cebpf4jnsgd1na2vs0mg"},{"bike_id":"0aa226e6-2195-431b-bdc4-34bf44420451","system_id":"levelo_inurba_marseille","lat":43.337467,"lon":5.374397,"is_reserved":false,"is_disabled":false,"rental_uris":{"android":"levelo://app?vid=0aa226e6-2195-431b-bdc4-34bf44420451","ios":"levelo://app?vid=0aa226e6-2195-431b-bdc4-34bf44420451"},"vehicle_type_id":"4","last_reported":1722092840,"current_range_meters":26800,"station_id":"","pricing_plan_id":"cebpf4jnsgd1na2vs0mg"},{"bike_id":"f8e8dd66-c7d6-4bd0-91ac-ef4274ae24f3","system_id":"levelo_inurba_marseille","lat":43.337417,"lon":5.374722,"is_reserved":false,"is_disabled":false,"rental_uris":{"android":"levelo://app?vid=f8e8dd66-c7d6-4bd0-91ac-ef4274ae24f3","ios":"levelo://app?vid=f8e8dd66-c7d6-4bd0-91ac-ef4274ae24f3"},"vehicle_type_id":"4","last_reported":1722092840,"current_range_meters":22400,"station_id":"","pricing_plan_id":"cebpf4jnsgd1na2vs0mg"},{"bike_id":"6ff48f3c-927a-470d-a08e-7714539082f0","system_id":"levelo_inurba_marseille","lat":43.337447,"lon":5.374547,"is_reserved":false,"is_disabled":false,"rental_uris":{"android":"levelo://app?vid=6ff48f3c-927a-470d-a08e-7714539082f0","ios":"levelo://app?vid=6ff48f3c-927a-470d-a08e-7714539082f0"},"vehicle_type_id":"4","last_reported":1722092840,"current_range_meters":3600,"station_id":"","pricing_plan_id":"cebpf4jnsgd1na2vs0mg"},{"bike_id":"6cf0c176-f7c0-4e29-a014-f3a3b29e1d2a","system_id":"levelo_inurba_marseille","lat":43.337476,"lon":5.374468,"is_reserved":false,"is_disabled":false,"rental_uris":{"android":"levelo://app?vid=6cf0c176-f7c0-4e29-a014-f3a3b29e1d2a","ios":"levelo://app?vid=6cf0c176-f7c0-4e29-a014-f3a3b29e1d2a"},"vehicle_type_id":"4","last_reported":1722092840,"current_range_meters":28400,"station_id":"","pricing_plan_id":"cebpf4jnsgd1na2vs0mg"},{"bike_id":"20a7bf81-31fd-4cb5-b454-68d5314a31b8","system_id":"levelo_inurba_marseille","lat":43.337446,"lon":5.374668,"is_reserved":false,"is_disabled":false,"rental_uris":{"android":"levelo://app?vid=20a7bf81-31fd-4cb5-b454-68d5314a31b8","ios":"levelo://app?vid=20a7bf81-31fd-4cb5-b454-68d5314a31b8"},"vehicle_type_id":"4","last_reported":1722092840,"current_range_meters":30400,"station_id":"","pricing_plan_id":"cebpf4jnsgd1na2vs0mg"},{"bike_id":"f0338c4f-2f14-449f-abf8-25e44f36ca55","system_id":"levelo_inurba_marseille","lat":43.337503,"lon":5.374507,"is_reserved":false,"is_disabled":false,"rental_uris":{"android":"levelo://app?vid=f0338c4f-2f14-449f-abf8-25e44f36ca55","ios":"levelo://app?vid=f0338c4f-2f14-449f-abf8-25e44f36ca55"},"vehicle_type_id":"4","last_reported":1722092840,"current_range_meters":29600,"station_id":"","pricing_plan_id":"cebpf4jnsgd1na2vs0mg"},{"bike_id":"43d41115-8937-4ce6-93a9-3efbe19032fb","system_id":"levelo_inurba_marseille","lat":43.306502,"lon":5.400727,"is_reserved":false,"is_disabled":false,"rental_uris":{"android":"levelo://app?vid=43d41115-8937-4ce6-93a9-3efbe19032fb","ios":"levelo://app?vid=43d41115-8937-4ce6-93a9-3efbe19032fb"},"vehicle_type_id":"4","last_reported":1722092840,"current_range_meters":0,"station_id":"ce4bh112rcd13ifvqda0","pricing_plan_id":"cebpf4jnsgd1na2vs0mg"},{"bike_id":"149ad317-2977-4c2d-b9af-065d2c29d5b4","system_id":"levelo_inurba_marseille","lat":43.287808,"lon":5.373669,"is_reserved":false,"is_disabled":false,"rental_uris":{"android":"levelo://app?vid=149ad317-2977-4c2d-b9af-065d2c29d5b4","ios":"levelo://app?vid=149ad317-2977-4c2d-b9af-065d2c29d5b4"},"vehicle_type_id":"4","last_reported":1722092840,"current_range_meters":16800,"station_id":"","pricing_plan_id":"cebpf4jnsgd1na2vs0mg"},{"bike_id":"ce2a281f-6b17-464e-8289-d463ea4cfa07","system_id":"levelo_inurba_marseille","lat":43.337553,"lon":5.374554,"is_reserved":false,"is_disabled":false,"rental_uris":{"android":"levelo://app?vid=ce2a281f-6b17-464e-8289-d463ea4cfa07","ios":"levelo://app?vid=ce2a281f-6b17-464e-8289-d463ea4cfa07"},"vehicle_type_id":"4","last_reported":1722092840,"current_range_meters":29600,"station_id":"","pricing_plan_id":"cebpf4jnsgd1na2vs0mg"},{"bike_id":"1256508b-9d05-429d-92e2-1d197ee4de12","system_id":"levelo_inurba_marseille","lat":43.298681,"lon":5.397225,"is_reserved":false,"is_disabled":false,"rental_uris":{"android":"levelo://app?vid=1256508b-9d05-429d-92e2-1d197ee4de12","ios":"levelo://app?vid=1256508b-9d05-429d-92e2-1d197ee4de12"},"vehicle_type_id":"4","last_reported":1722092840,"current_range_meters":0,"station_id":"ce4bh0h2rcd13ifvqd50","pricing_plan_id":"cebpf4jnsgd1na2vs0mg"},{"bike_id":"f523ed3c-82ef-4fc0-ac34-a51c6b490b4e","system_id":"levelo_inurba_marseille","lat":43.298681,"lon":5.397225,"is_reserved":false,"is_disabled":false,"rental_uris":{"android":"levelo://app?vid=f523ed3c-82ef-4fc0-ac34-a51c6b490b4e","ios":"levelo://app?vid=f523ed3c-82ef-4fc0-ac34-a51c6b490b4e"},"vehicle_type_id":"4","last_reported":1722092840,"current_range_meters":22000,"station_id":"ce4bh0h2rcd13ifvqd50","pricing_plan_id":"cebpf4jnsgd1na2vs0mg"},{"bike_id":"26ddc4f0-ba3a-4e67-a8c6-c1e13c33ec93","system_id":"levelo_inurba_marseille","lat":43.28662,"lon":5.36351,"is_reserved":false,"is_disabled":false,"rental_uris":{"android":"levelo://app?vid=26ddc4f0-ba3a-4e67-a8c6-c1e13c33ec93","ios":"levelo://app?vid=26ddc4f0-ba3a-4e67-a8c6-c1e13c33ec93"},"vehicle_type_id":"4","last_reported":1722092840,"current_range_meters":0,"station_id":"ce4bhah2rcd13ifvqej0","pricing_plan_id":"cebpf4jnsgd1na2vs0mg"},{"bike_id":"f3446235-a732-4a5e-be32-a737600b663b","system_id":"levelo_inurba_marseille","lat":43.286591,"lon":5.363346,"is_reserved":false,"is_disabled":false,"rental_uris":{"android":"levelo://app?vid=f3446235-a732-4a5e-be32-a737600b663b","ios":"levelo://app?vid=f3446235-a732-4a5e-be32-a737600b663b"},"vehicle_type_id":"4","last_reported":1722092840,"current_range_meters":26800,"station_id":"ce4bhah2rcd13ifvqej0","pricing_plan_id":"cebpf4jnsgd1na2vs0mg"},{"bike_id":"f6784c66-f167-42b7-9c5d-a8a3de255faf","system_id":"levelo_inurba_marseille","lat":43.286593,"lon":5.363346,"is_reserved":false,"is_disabled":false,"rental_uris":{"android":"levelo://app?vid=f6784c66-f167-42b7-9c5d-a8a3de255faf","ios":"levelo://app?vid=f6784c66-f167-42b7-9c5d-a8a3de255faf"},"vehicle_type_id":"4","last_reported":1722092840,"current_range_meters":400,"station_id":"ce4bhah2rcd13ifvqej0","pricing_plan_id":"cebpf4jnsgd1na2vs0mg"},{"bike_id":"f97582dc-f45b-4947-8fab-e4776c91d3d0","system_id":"levelo_inurba_marseille","lat":43.28659,"lon":5.36342,"is_reserved":false,"is_disabled":false,"rental_uris":{"android":"levelo://app?vid=f97582dc-f45b-4947-8fab-e4776c91d3d0","ios":"levelo://app?vid=f97582dc-f45b-4947-8fab-e4776c91d3d0"},"vehicle_type_id":"4","last_reported":1722092840,"current_range_meters":0,"station_id":"ce4bhah2rcd13ifvqej0","pricing_plan_id":"cebpf4jnsgd1na2vs0mg"},{"bike_id":"4fb25d18-0834-4fa8-b243-2dffe22b81ac","system_id":"levelo_inurba_marseille","lat":43.28694,"lon":5.37382,"is_reserved":false,"is_disabled":false,"rental_uris":{"android":"levelo://app?vid=4fb25d18-0834-4fa8-b243-2dffe22b81ac","ios":"levelo://app?vid=4fb25d18-0834-4fa8-b243-2dffe22b81ac"},"vehicle_type_id":"4","last_reported":1722092840,"current_range_meters":6800,"station_id":"ce4bh3p2rcd13ifvqdq0","pricing_plan_id":"cebpf4jnsgd1na2vs0mg"},{"bike_id":"f745e933-3523-4482-95fa-6e9ccdc46b0b","system_id":"levelo_inurba_marseille","lat":43.286039,"lon":5.370679,"is_reserved":false,"is_disabled":false,"rental_uris":{"android":"levelo://app?vid=f745e933-3523-4482-95fa-6e9ccdc46b0b","ios":"levelo://app?vid=f745e933-3523-4482-95fa-6e9ccdc46b0b"},"vehicle_type_id":"4","last_reported":1722092840,"current_range_meters":20400,"station_id":"ce4bht12rcd13ifvqi60","pricing_plan_id":"cebpf4jnsgd1na2vs0mg"},{"bike_id":"21f45e9a-7d20-450b-8f12-3d96701d53ed","system_id":"levelo_inurba_marseille","lat":43.314012,"lon":5.40399,"is_reserved":false,"is_disabled":false,"rental_uris":{"android":"levelo://app?vid=21f45e9a-7d20-450b-8f12-3d96701d53ed","ios":"levelo://app?vid=21f45e9a-7d20-450b-8f12-3d96701d53ed"},"vehicle_type_id":"4","last_reported":1722092840,"current_range_meters":0,"station_id":"","pricing_plan_id":"cebpf4jnsgd1na2vs0mg"},{"bike_id":"5ba88844-5380-4fb6-b73c-b9acd2673a95","system_id":"levelo_inurba_marseille","lat":43.287184,"lon":5.37937,"is_reserved":false,"is_disabled":false,"rental_uris":{"android":"levelo://app?vid=5ba88844-5380-4fb6-b73c-b9acd2673a95","ios":"levelo://app?vid=5ba88844-5380-4fb6-b73c-b9acd2673a95"},"vehicle_type_id":"4","last_reported":1722092840,"current_range_meters":24000,"station_id":"ce4bh9p2rcd13ifvqec0","pricing_plan_id":"cebpf4jnsgd1na2vs0mg"},{"bike_id":"4a5d5ccf-3870-44c2-918f-5d514f4050e8","system_id":"levelo_inurba_marseille","lat":43.287184,"lon":5.37937,"is_reserved":false,"is_disabled":false,"rental_uris":{"android":"levelo://app?vid=4a5d5ccf-3870-44c2-918f-5d514f4050e8","ios":"levelo://app?vid=4a5d5ccf-3870-44c2-918f-5d514f4050e8"},"vehicle_type_id":"4","last_reported":1722092840,"current_range_meters":22000,"station_id":"ce4bh9p2rcd13ifvqec0","pricing_plan_id":"cebpf4jnsgd1na2vs0mg"},{"bike_id":"2c9ca53a-3b44-465a-8fa5-73e7cbffc645","system_id":"levelo_inurba_marseille","lat":43.287125,"lon":5.379432,"is_reserved":false,"is_disabled":false,"rental_uris":{"android":"levelo://app?vid=2c9ca53a-3b44-465a-8fa5-73e7cbffc645","ios":"levelo://app?vid=2c9ca53a-3b44-465a-8fa5-73e7cbffc645"},"vehicle_type_id":"4","last_reported":1722092840,"current_range_meters":0,"station_id":"ce4bh9p2rcd13ifvqec0","pricing_plan_id":"cebpf4jnsgd1na2vs0mg"},{"bike_id":"2605c096-a328-4ac0-b808-65880560c013","system_id":"levelo_inurba_marseille","lat":43.291994,"lon":5.392907,"is_reserved":false,"is_disabled":false,"rental_uris":{"android":"levelo://app?vid=2605c096-a328-4ac0-b808-65880560c013","ios":"levelo://app?vid=2605c096-a328-4ac0-b808-65880560c013"},"vehicle_type_id":"4","last_reported":1722092840,"current_range_meters":5600,"station_id":"ce4bh192rcd13ifvqdd0","pricing_plan_id":"cebpf4jnsgd1na2vs0mg"},{"bike_id":"bb1be8c2-6551-4e36-883e-6200cfadcfa7","system_id":"levelo_inurba_marseille","lat":43.2847,"lon":5.35883,"is_reserved":false,"is_disabled":false,"rental_uris":{"android":"levelo://app?vid=bb1be8c2-6551-4e36-883e-6200cfadcfa7","ios":"levelo://app?vid=bb1be8c2-6551-4e36-883e-6200cfadcfa7"},"vehicle_type_id":"4","last_reported":1722092840,"current_range_meters":11200,"station_id":"ce4bhah2rcd13ifvqei0","pricing_plan_id":"cebpf4jnsgd1na2vs0mg"},{"bike_id":"40f7b6f3-b9bf-4e1d-a52e-381f3caddc8c","system_id":"levelo_inurba_marseille","lat":43.284538,"lon":5.358657,"is_reserved":false,"is_disabled":false,"rental_uris":{"android":"levelo://app?vid=40f7b6f3-b9bf-4e1d-a52e-381f3caddc8c","ios":"levelo://app?vid=40f7b6f3-b9bf-4e1d-a52e-381f3caddc8c"},"vehicle_type_id":"4","last_reported":1722092840,"current_range_meters":15200,"station_id":"ce4bhah2rcd13ifvqei0","pricing_plan_id":"cebpf4jnsgd1na2vs0mg"},{"bike_id":"370e08c5-ad12-4a15-ba1d-337111410259","system_id":"levelo_inurba_marseille","lat":43.284534,"lon":5.358662,"is_reserved":false,"is_disabled":false,"rental_uris":{"android":"levelo://app?vid=370e08c5-ad12-4a15-ba1d-337111410259","ios":"levelo://app?vid=370e08c5-ad12-4a15-ba1d-337111410259"},"vehicle_type_id":"4","last_reported":1722092840,"current_range_meters":6800,"station_id":"ce4bhah2rcd13ifvqei0","pricing_plan_id":"cebpf4jnsgd1na2vs0mg"},{"bike_id":"4e103760-85a6-42df-8170-f9cde7760959","system_id":"levelo_inurba_marseille","lat":43.284538,"lon":5.358657,"is_reserved":false,"is_disabled":false,"rental_uris":{"android":"levelo://app?vid=4e103760-85a6-42df-8170-f9cde7760959","ios":"levelo://app?vid=4e103760-85a6-42df-8170-f9cde7760959"},"vehicle_type_id":"4","last_reported":1722092840,"current_range_meters":1200,"station_id":"ce4bhah2rcd13ifvqei0","pricing_plan_id":"cebpf4jnsgd1na2vs0mg"},{"bike_id":"493e2d3a-7834-4ea0-81dd-4ab70bd3b817","system_id":"levelo_inurba_marseille","lat":43.28458,"lon":5.35897,"is_reserved":false,"is_disabled":false,"rental_uris":{"android":"levelo://app?vid=493e2d3a-7834-4ea0-81dd-4ab70bd3b817","ios":"levelo://app?vid=493e2d3a-7834-4ea0-81dd-4ab70bd3b817"},"vehicle_type_id":"4","last_reported":1722092840,"current_range_meters":11600,"station_id":"ce4bhah2rcd13ifvqei0","pricing_plan_id":"cebpf4jnsgd1na2vs0mg"},{"bike_id":"2aeb9367-a019-4064-b56f-5957df3f99f3","system_id":"levelo_inurba_marseille","lat":43.284538,"lon":5.358657,"is_reserved":false,"is_disabled":false,"rental_uris":{"android":"levelo://app?vid=2aeb9367-a019-4064-b56f-5957df3f99f3","ios":"levelo://app?vid=2aeb9367-a019-4064-b56f-5957df3f99f3"},"vehicle_type_id":"4","last_reported":1722092840,"current_range_meters":11200,"station_id":"ce4bhah2rcd13ifvqei0","pricing_plan_id":"cebpf4jnsgd1na2vs0mg"},{"bike_id":"a071796e-20d9-4a30-b05c-ed5cf590f849","system_id":"levelo_inurba_marseille","lat":43.284534,"lon":5.358662,"is_reserved":false,"is_disabled":false,"rental_uris":{"android":"levelo://app?vid=a071796e-20d9-4a30-b05c-ed5cf590f849","ios":"levelo://app?vid=a071796e-20d9-4a30-b05c-ed5cf590f849"},"vehicle_type_id":"4","last_reported":1722092840,"current_range_meters":0,"station_id":"ce4bhah2rcd13ifvqei0","pricing_plan_id":"cebpf4jnsgd1na2vs0mg"},{"bike_id":"87a98917-96f0-4d21-8226-a01c2075780a","system_id":"levelo_inurba_marseille","lat":43.284538,"lon":5.358657,"is_reserved":false,"is_disabled":false,"rental_uris":{"android":"levelo://app?vid=87a98917-96f0-4d21-8226-a01c2075780a","ios":"levelo://app?vid=87a98917-96f0-4d21-8226-a01c2075780a"},"vehicle_type_id":"4","last_reported":1722092840,"current_range_meters":4400,"station_id":"ce4bhah2rcd13ifvqei0","pricing_plan_id":"cebpf4jnsgd1na2vs0mg"},{"bike_id":"2a7ca6ff-bfdc-49c8-8b3f-da0372eefd2f","system_id":"levelo_inurba_marseille","lat":43.28457,"lon":5.35886,"is_reserved":false,"is_disabled":false,"rental_uris":{"android":"levelo://app?vid=2a7ca6ff-bfdc-49c8-8b3f-da0372eefd2f","ios":"levelo://app?vid=2a7ca6ff-bfdc-49c8-8b3f-da0372eefd2f"},"vehicle_type_id":"4","last_reported":1722092840,"current_range_meters":0,"station_id":"ce4bhah2rcd13ifvqei0","pricing_plan_id":"cebpf4jnsgd1na2vs0mg"},{"bike_id":"de034252-f532-4f2f-9b4e-a9d202f5674a","system_id":"levelo_inurba_marseille","lat":43.284538,"lon":5.358657,"is_reserved":false,"is_disabled":false,"rental_uris":{"android":"levelo://app?vid=de034252-f532-4f2f-9b4e-a9d202f5674a","ios":"levelo://app?vid=de034252-f532-4f2f-9b4e-a9d202f5674a"},"vehicle_type_id":"4","last_reported":1722092840,"current_range_meters":1200,"station_id":"ce4bhah2rcd13ifvqei0","pricing_plan_id":"cebpf4jnsgd1na2vs0mg"},{"bike_id":"1cb60943-760b-401c-a96a-1ebb94fdd561","system_id":"levelo_inurba_marseille","lat":43.28622,"lon":5.35105,"is_reserved":false,"is_disabled":false,"rental_uris":{"android":"levelo://app?vid=1cb60943-760b-401c-a96a-1ebb94fdd561","ios":"levelo://app?vid=1cb60943-760b-401c-a96a-1ebb94fdd561"},"vehicle_type_id":"4","last_reported":1722092840,"current_range_meters":7600,"station_id":"ce4bhch2rcd13ifvqeug","pricing_plan_id":"cebpf4jnsgd1na2vs0mg"},{"bike_id":"b5a51157-4664-4bfa-9d60-7807e5ad9824","system_id":"levelo_inurba_marseille","lat":43.28624,"lon":5.35098,"is_reserved":false,"is_disabled":false,"rental_uris":{"android":"levelo://app?vid=b5a51157-4664-4bfa-9d60-7807e5ad9824","ios":"levelo://app?vid=b5a51157-4664-4bfa-9d60-7807e5ad9824"},"vehicle_type_id":"4","last_reported":1722092840,"current_range_meters":30800,"station_id":"ce4bhch2rcd13ifvqeug","pricing_plan_id":"cebpf4jnsgd1na2vs0mg"},{"bike_id":"c26aec70-2d61-4de1-8b5f-a4bf02eb00c2","system_id":"levelo_inurba_marseille","lat":43.28624,"lon":5.35096,"is_reserved":false,"is_disabled":false,"rental_uris":{"android":"levelo://app?vid=c26aec70-2d61-4de1-8b5f-a4bf02eb00c2","ios":"levelo://app?vid=c26aec70-2d61-4de1-8b5f-a4bf02eb00c2"},"vehicle_type_id":"4","last_reported":1722092840,"current_range_meters":11600,"station_id":"ce4bhch2rcd13ifvqeug","pricing_plan_id":"cebpf4jnsgd1na2vs0mg"},{"bike_id":"01473be5-f961-42b6-88f9-28d81e6133a2","system_id":"levelo_inurba_marseille","lat":43.286219,"lon":5.351007,"is_reserved":false,"is_disabled":false,"rental_uris":{"android":"levelo://app?vid=01473be5-f961-42b6-88f9-28d81e6133a2","ios":"levelo://app?vid=01473be5-f961-42b6-88f9-28d81e6133a2"},"vehicle_type_id":"4","last_reported":1722092840,"current_range_meters":11200,"station_id":"ce4bhch2rcd13ifvqeug","pricing_plan_id":"cebpf4jnsgd1na2vs0mg"},{"bike_id":"a2761788-91c6-4761-aad2-6918b20a9ede","system_id":"levelo_inurba_marseille","lat":43.28617,"lon":5.35116,"is_reserved":false,"is_disabled":false,"rental_uris":{"android":"levelo://app?vid=a2761788-91c6-4761-aad2-6918b20a9ede","ios":"levelo://app?vid=a2761788-91c6-4761-aad2-6918b20a9ede"},"vehicle_type_id":"4","last_reported":1722092840,"current_range_meters":22400,"station_id":"ce4bhch2rcd13ifvqeug","pricing_plan_id":"cebpf4jnsgd1na2vs0mg"},{"bike_id":"58b7941b-7730-4477-bfcd-e99f3d80ca1c","system_id":"levelo_inurba_marseille","lat":43.28621,"lon":5.35103,"is_reserved":false,"is_disabled":false,"rental_uris":{"android":"levelo://app?vid=58b7941b-7730-4477-bfcd-e99f3d80ca1c","ios":"levelo://app?vid=58b7941b-7730-4477-bfcd-e99f3d80ca1c"},"vehicle_type_id":"4","last_reported":1722092840,"current_range_meters":18400,"station_id":"ce4bhch2rcd13ifvqeug","pricing_plan_id":"cebpf4jnsgd1na2vs0mg"},{"bike_id":"f326bd6e-68c3-4bdb-b4d7-dea728a22306","system_id":"levelo_inurba_marseille","lat":43.28619,"lon":5.35106,"is_reserved":false,"is_disabled":false,"rental_uris":{"android":"levelo://app?vid=f326bd6e-68c3-4bdb-b4d7-dea728a22306","ios":"levelo://app?vid=f326bd6e-68c3-4bdb-b4d7-dea728a22306"},"vehicle_type_id":"4","last_reported":1722092840,"current_range_meters":18000,"station_id":"ce4bhch2rcd13ifvqeug","pricing_plan_id":"cebpf4jnsgd1na2vs0mg"},{"bike_id":"9c197d19-8c46-44c1-bdb4-9318a32c38c4","system_id":"levelo_inurba_marseille","lat":43.2862,"lon":5.35099,"is_reserved":false,"is_disabled":false,"rental_uris":{"android":"levelo://app?vid=9c197d19-8c46-44c1-bdb4-9318a32c38c4","ios":"levelo://app?vid=9c197d19-8c46-44c1-bdb4-9318a32c38c4"},"vehicle_type_id":"4","last_reported":1722092840,"current_range_meters":2400,"station_id":"ce4bhch2rcd13ifvqeug","pricing_plan_id":"cebpf4jnsgd1na2vs0mg"},{"bike_id":"9fc446d0-731d-4a7b-89da-f8f9cabf509d","system_id":"levelo_inurba_marseille","lat":43.28618,"lon":5.35105,"is_reserved":false,"is_disabled":false,"rental_uris":{"android":"levelo://app?vid=9fc446d0-731d-4a7b-89da-f8f9cabf509d","ios":"levelo://app?vid=9fc446d0-731d-4a7b-89da-f8f9cabf509d"},"vehicle_type_id":"4","last_reported":1722092840,"current_range_meters":26800,"station_id":"ce4bhch2rcd13ifvqeug","pricing_plan_id":"cebpf4jnsgd1na2vs0mg"},{"bike_id":"074448ee-e507-4cad-a096-52fd96acfdb4","system_id":"levelo_inurba_marseille","lat":43.2862,"lon":5.35097,"is_reserved":false,"is_disabled":false,"rental_uris":{"android":"levelo://app?vid=074448ee-e507-4cad-a096-52fd96acfdb4","ios":"levelo://app?vid=074448ee-e507-4cad-a096-52fd96acfdb4"},"vehicle_type_id":"4","last_reported":1722092840,"current_range_meters":26800,"station_id":"ce4bhch2rcd13ifvqeug","pricing_plan_id":"cebpf4jnsgd1na2vs0mg"},{"bike_id":"535c412c-1898-458f-b742-298089281984","system_id":"levelo_inurba_marseille","lat":43.28618,"lon":5.35103,"is_reserved":false,"is_disabled":false,"rental_uris":{"android":"levelo://app?vid=535c412c-1898-458f-b742-298089281984","ios":"levelo://app?vid=535c412c-1898-458f-b742-298089281984"},"vehicle_type_id":"4","last_reported":1722092840,"current_range_meters":19600,"station_id":"ce4bhch2rcd13ifvqeug","pricing_plan_id":"cebpf4jnsgd1na2vs0mg"},{"bike_id":"a92521dd-aaf7-494d-b003-7c1c42e0be2b","system_id":"levelo_inurba_marseille","lat":43.28618,"lon":5.35103,"is_reserved":false,"is_disabled":false,"rental_uris":{"android":"levelo://app?vid=a92521dd-aaf7-494d-b003-7c1c42e0be2b","ios":"levelo://app?vid=a92521dd-aaf7-494d-b003-7c1c42e0be2b"},"vehicle_type_id":"4","last_reported":1722092840,"current_range_meters":10000,"station_id":"ce4bhch2rcd13ifvqeug","pricing_plan_id":"cebpf4jnsgd1na2vs0mg"},{"bike_id":"803b7649-fa00-48ea-9032-3f08cffcec49","system_id":"levelo_inurba_marseille","lat":43.2862,"lon":5.35096,"is_reserved":false,"is_disabled":false,"rental_uris":{"android":"levelo://app?vid=803b7649-fa00-48ea-9032-3f08cffcec49","ios":"levelo://app?vid=803b7649-fa00-48ea-9032-3f08cffcec49"},"vehicle_type_id":"4","last_reported":1722092840,"current_range_meters":30800,"station_id":"ce4bhch2rcd13ifvqeug","pricing_plan_id":"cebpf4jnsgd1na2vs0mg"},{"bike_id":"27849222-323d-4861-a2ea-3749ee55de4a","system_id":"levelo_inurba_marseille","lat":43.28616,"lon":5.35108,"is_reserved":false,"is_disabled":false,"rental_uris":{"android":"levelo://app?vid=27849222-323d-4861-a2ea-3749ee55de4a","ios":"levelo://app?vid=27849222-323d-4861-a2ea-3749ee55de4a"},"vehicle_type_id":"4","last_reported":1722092840,"current_range_meters":19200,"station_id":"ce4bhch2rcd13ifvqeug","pricing_plan_id":"cebpf4jnsgd1na2vs0mg"},{"bike_id":"e4575d94-7a65-413b-bf3e-47d7e7e1279c","system_id":"levelo_inurba_marseille","lat":43.28616,"lon":5.35107,"is_reserved":false,"is_disabled":false,"rental_uris":{"android":"levelo://app?vid=e4575d94-7a65-413b-bf3e-47d7e7e1279c","ios":"levelo://app?vid=e4575d94-7a65-413b-bf3e-47d7e7e1279c"},"vehicle_type_id":"4","last_reported":1722092840,"current_range_meters":5600,"station_id":"ce4bhch2rcd13ifvqeug","pricing_plan_id":"cebpf4jnsgd1na2vs0mg"},{"bike_id":"4d391fdd-66ed-462e-a0af-3b655dadaab0","system_id":"levelo_inurba_marseille","lat":43.28617,"lon":5.35101,"is_reserved":false,"is_disabled":false,"rental_uris":{"android":"levelo://app?vid=4d391fdd-66ed-462e-a0af-3b655dadaab0","ios":"levelo://app?vid=4d391fdd-66ed-462e-a0af-3b655dadaab0"},"vehicle_type_id":"4","last_reported":1722092840,"current_range_meters":2800,"station_id":"ce4bhch2rcd13ifvqeug","pricing_plan_id":"cebpf4jnsgd1na2vs0mg"},{"bike_id":"25b75580-e66d-48ed-b206-e205005b3b43","system_id":"levelo_inurba_marseille","lat":43.28616,"lon":5.35104,"is_reserved":false,"is_disabled":false,"rental_uris":{"android":"levelo://app?vid=25b75580-e66d-48ed-b206-e205005b3b43","ios":"levelo://app?vid=25b75580-e66d-48ed-b206-e205005b3b43"},"vehicle_type_id":"4","last_reported":1722092840,"current_range_meters":20800,"station_id":"ce4bhch2rcd13ifvqeug","pricing_plan_id":"cebpf4jnsgd1na2vs0mg"},{"bike_id":"524af3ed-1a36-4b94-b39a-7964a5fbaa80","system_id":"levelo_inurba_marseille","lat":43.28616,"lon":5.35104,"is_reserved":false,"is_disabled":false,"rental_uris":{"android":"levelo://app?vid=524af3ed-1a36-4b94-b39a-7964a5fbaa80","ios":"levelo://app?vid=524af3ed-1a36-4b94-b39a-7964a5fbaa80"},"vehicle_type_id":"4","last_reported":1722092840,"current_range_meters":3600,"station_id":"ce4bhch2rcd13ifvqeug","pricing_plan_id":"cebpf4jnsgd1na2vs0mg"},{"bike_id":"f1cea5bd-4ed7-47a0-9d97-79d8641853f9","system_id":"levelo_inurba_marseille","lat":43.286154,"lon":5.351053,"is_reserved":false,"is_disabled":false,"rental_uris":{"android":"levelo://app?vid=f1cea5bd-4ed7-47a0-9d97-79d8641853f9","ios":"levelo://app?vid=f1cea5bd-4ed7-47a0-9d97-79d8641853f9"},"vehicle_type_id":"4","last_reported":1722092840,"current_range_meters":14000,"station_id":"ce4bhch2rcd13ifvqeug","pricing_plan_id":"cebpf4jnsgd1na2vs0mg"},{"bike_id":"f47281a1-f6eb-4c5b-8832-eb1f85bd1fc8","system_id":"levelo_inurba_marseille","lat":43.28617,"lon":5.351,"is_reserved":false,"is_disabled":false,"rental_uris":{"android":"levelo://app?vid=f47281a1-f6eb-4c5b-8832-eb1f85bd1fc8","ios":"levelo://app?vid=f47281a1-f6eb-4c5b-8832-eb1f85bd1fc8"},"vehicle_type_id":"4","last_reported":1722092840,"current_range_meters":22800,"station_id":"ce4bhch2rcd13ifvqeug","pricing_plan_id":"cebpf4jnsgd1na2vs0mg"},{"bike_id":"b1dcebbe-2f26-4972-a4c3-cfd6d1b59bc3","system_id":"levelo_inurba_marseille","lat":43.286158,"lon":5.351036,"is_reserved":false,"is_disabled":false,"rental_uris":{"android":"levelo://app?vid=b1dcebbe-2f26-4972-a4c3-cfd6d1b59bc3","ios":"levelo://app?vid=b1dcebbe-2f26-4972-a4c3-cfd6d1b59bc3"},"vehicle_type_id":"4","last_reported":1722092840,"current_range_meters":4400,"station_id":"ce4bhch2rcd13ifvqeug","pricing_plan_id":"cebpf4jnsgd1na2vs0mg"},{"bike_id":"68bb63a8-7384-4d6e-ab57-2958112d4a1d","system_id":"levelo_inurba_marseille","lat":43.28616,"lon":5.35103,"is_reserved":false,"is_disabled":false,"rental_uris":{"android":"levelo://app?vid=68bb63a8-7384-4d6e-ab57-2958112d4a1d","ios":"levelo://app?vid=68bb63a8-7384-4d6e-ab57-2958112d4a1d"},"vehicle_type_id":"4","last_reported":1722092840,"current_range_meters":0,"station_id":"ce4bhch2rcd13ifvqeug","pricing_plan_id":"cebpf4jnsgd1na2vs0mg"},{"bike_id":"71703bab-2919-4c0e-96f6-a811d9a3d4d4","system_id":"levelo_inurba_marseille","lat":43.28616,"lon":5.35102,"is_reserved":false,"is_disabled":false,"rental_uris":{"android":"levelo://app?vid=71703bab-2919-4c0e-96f6-a811d9a3d4d4","ios":"levelo://app?vid=71703bab-2919-4c0e-96f6-a811d9a3d4d4"},"vehicle_type_id":"4","last_reported":1722092840,"current_range_meters":4000,"station_id":"ce4bhch2rcd13ifvqeug","pricing_plan_id":"cebpf4jnsgd1na2vs0mg"},{"bike_id":"6453a802-53f6-48c4-8aff-7c293ed75dda","system_id":"levelo_inurba_marseille","lat":43.28613,"lon":5.35108,"is_reserved":false,"is_disabled":false,"rental_uris":{"android":"levelo://app?vid=6453a802-53f6-48c4-8aff-7c293ed75dda","ios":"levelo://app?vid=6453a802-53f6-48c4-8aff-7c293ed75dda"},"vehicle_type_id":"4","last_reported":1722092840,"current_range_meters":21200,"station_id":"ce4bhch2rcd13ifvqeug","pricing_plan_id":"cebpf4jnsgd1na2vs0mg"},{"bike_id":"aeec8b6c-8ab6-4895-b7ee-c104c635ca3a","system_id":"levelo_inurba_marseille","lat":43.28615,"lon":5.35101,"is_reserved":false,"is_disabled":false,"rental_uris":{"android":"levelo://app?vid=aeec8b6c-8ab6-4895-b7ee-c104c635ca3a","ios":"levelo://app?vid=aeec8b6c-8ab6-4895-b7ee-c104c635ca3a"},"vehicle_type_id":"4","last_reported":1722092840,"current_range_meters":23200,"station_id":"ce4bhch2rcd13ifvqeug","pricing_plan_id":"cebpf4jnsgd1na2vs0mg"},{"bike_id":"2d3c31c5-960d-40cd-8079-77bcc6293f17","system_id":"levelo_inurba_marseille","lat":43.28614,"lon":5.35104,"is_reserved":false,"is_disabled":false,"rental_uris":{"android":"levelo://app?vid=2d3c31c5-960d-40cd-8079-77bcc6293f17","ios":"levelo://app?vid=2d3c31c5-960d-40cd-8079-77bcc6293f17"},"vehicle_type_id":"4","last_reported":1722092840,"current_range_meters":11600,"station_id":"ce4bhch2rcd13ifvqeug","pricing_plan_id":"cebpf4jnsgd1na2vs0mg"},{"bike_id":"ee3bd901-f8e8-445b-8208-9c298c8c71c1","system_id":"levelo_inurba_marseille","lat":43.28614,"lon":5.35104,"is_reserved":false,"is_disabled":false,"rental_uris":{"android":"levelo://app?vid=ee3bd901-f8e8-445b-8208-9c298c8c71c1","ios":"levelo://app?vid=ee3bd901-f8e8-445b-8208-9c298c8c71c1"},"vehicle_type_id":"4","last_reported":1722092840,"current_range_meters":2000,"station_id":"ce4bhch2rcd13ifvqeug","pricing_plan_id":"cebpf4jnsgd1na2vs0mg"},{"bike_id":"4ccebab3-a94c-44a4-813f-07110b7c2318","system_id":"levelo_inurba_marseille","lat":43.286129,"lon":5.351072,"is_reserved":false,"is_disabled":false,"rental_uris":{"android":"levelo://app?vid=4ccebab3-a94c-44a4-813f-07110b7c2318","ios":"levelo://app?vid=4ccebab3-a94c-44a4-813f-07110b7c2318"},"vehicle_type_id":"4","last_reported":1722092840,"current_range_meters":15200,"station_id":"ce4bhch2rcd13ifvqeug","pricing_plan_id":"cebpf4jnsgd1na2vs0mg"},{"bike_id":"a411acfb-dcb4-485e-a67b-cc5c9fd0feac","system_id":"levelo_inurba_marseille","lat":43.28614,"lon":5.35103,"is_reserved":false,"is_disabled":false,"rental_uris":{"android":"levelo://app?vid=a411acfb-dcb4-485e-a67b-cc5c9fd0feac","ios":"levelo://app?vid=a411acfb-dcb4-485e-a67b-cc5c9fd0feac"},"vehicle_type_id":"4","last_reported":1722092840,"current_range_meters":31200,"station_id":"ce4bhch2rcd13ifvqeug","pricing_plan_id":"cebpf4jnsgd1na2vs0mg"},{"bike_id":"e8484b54-bfb7-4357-8f80-a22a627e22e0","system_id":"levelo_inurba_marseille","lat":43.28614,"lon":5.35102,"is_reserved":false,"is_disabled":false,"rental_uris":{"android":"levelo://app?vid=e8484b54-bfb7-4357-8f80-a22a627e22e0","ios":"levelo://app?vid=e8484b54-bfb7-4357-8f80-a22a627e22e0"},"vehicle_type_id":"4","last_reported":1722092840,"current_range_meters":28800,"station_id":"ce4bhch2rcd13ifvqeug","pricing_plan_id":"cebpf4jnsgd1na2vs0mg"},{"bike_id":"a1fb0234-862c-4247-99a7-e57367b0c1cf","system_id":"levelo_inurba_marseille","lat":43.28614,"lon":5.35102,"is_reserved":false,"is_disabled":false,"rental_uris":{"android":"levelo://app?vid=a1fb0234-862c-4247-99a7-e57367b0c1cf","ios":"levelo://app?vid=a1fb0234-862c-4247-99a7-e57367b0c1cf"},"vehicle_type_id":"4","last_reported":1722092840,"current_range_meters":31200,"station_id":"ce4bhch2rcd13ifvqeug","pricing_plan_id":"cebpf4jnsgd1na2vs0mg"},{"bike_id":"78784ea7-f0f5-421a-8119-a6cc86e761ae","system_id":"levelo_inurba_marseille","lat":43.28615,"lon":5.35098,"is_reserved":false,"is_disabled":false,"rental_uris":{"android":"levelo://app?vid=78784ea7-f0f5-421a-8119-a6cc86e761ae","ios":"levelo://app?vid=78784ea7-f0f5-421a-8119-a6cc86e761ae"},"vehicle_type_id":"4","last_reported":1722092840,"current_range_meters":10400,"station_id":"ce4bhch2rcd13ifvqeug","pricing_plan_id":"cebpf4jnsgd1na2vs0mg"},{"bike_id":"a187a3be-5859-4d3a-827a-8d8d0e7b2144","system_id":"levelo_inurba_marseille","lat":43.28613,"lon":5.35102,"is_reserved":false,"is_disabled":false,"rental_uris":{"android":"levelo://app?vid=a187a3be-5859-4d3a-827a-8d8d0e7b2144","ios":"levelo://app?vid=a187a3be-5859-4d3a-827a-8d8d0e7b2144"},"vehicle_type_id":"4","last_reported":1722092840,"current_range_meters":25600,"station_id":"ce4bhch2rcd13ifvqeug","pricing_plan_id":"cebpf4jnsgd1na2vs0mg"},{"bike_id":"903ae4c4-ae8b-45b0-9745-1114f5901739","system_id":"levelo_inurba_marseille","lat":43.28613,"lon":5.35102,"is_reserved":false,"is_disabled":false,"rental_uris":{"android":"levelo://app?vid=903ae4c4-ae8b-45b0-9745-1114f5901739","ios":"levelo://app?vid=903ae4c4-ae8b-45b0-9745-1114f5901739"},"vehicle_type_id":"4","last_reported":1722092840,"current_range_meters":0,"station_id":"ce4bhch2rcd13ifvqeug","pricing_plan_id":"cebpf4jnsgd1na2vs0mg"},{"bike_id":"addc2f9a-be85-4513-8bfa-b2adf33c7819","system_id":"levelo_inurba_marseille","lat":43.285856,"lon":5.350771,"is_reserved":false,"is_disabled":false,"rental_uris":{"android":"levelo://app?vid=addc2f9a-be85-4513-8bfa-b2adf33c7819","ios":"levelo://app?vid=addc2f9a-be85-4513-8bfa-b2adf33c7819"},"vehicle_type_id":"4","last_reported":1722092840,"current_range_meters":19600,"station_id":"ce4bhch2rcd13ifvqeug","pricing_plan_id":"cebpf4jnsgd1na2vs0mg"},{"bike_id":"cf3481a5-6e35-4632-bbdd-fe8283aa4cdc","system_id":"levelo_inurba_marseille","lat":43.28612,"lon":5.35104,"is_reserved":false,"is_disabled":false,"rental_uris":{"android":"levelo://app?vid=cf3481a5-6e35-4632-bbdd-fe8283aa4cdc","ios":"levelo://app?vid=cf3481a5-6e35-4632-bbdd-fe8283aa4cdc"},"vehicle_type_id":"4","last_reported":1722092840,"current_range_meters":10800,"station_id":"ce4bhch2rcd13ifvqeug","pricing_plan_id":"cebpf4jnsgd1na2vs0mg"},{"bike_id":"62296e16-6ba9-43de-b4d4-b9cab647ebb3","system_id":"levelo_inurba_marseille","lat":43.28612,"lon":5.35104,"is_reserved":false,"is_disabled":false,"rental_uris":{"android":"levelo://app?vid=62296e16-6ba9-43de-b4d4-b9cab647ebb3","ios":"levelo://app?vid=62296e16-6ba9-43de-b4d4-b9cab647ebb3"},"vehicle_type_id":"4","last_reported":1722092840,"current_range_meters":4000,"station_id":"ce4bhch2rcd13ifvqeug","pricing_plan_id":"cebpf4jnsgd1na2vs0mg"},{"bike_id":"7f4cd0dd-d743-4396-a21a-887e78b47fbe","system_id":"levelo_inurba_marseille","lat":43.28612,"lon":5.35104,"is_reserved":false,"is_disabled":false,"rental_uris":{"android":"levelo://app?vid=7f4cd0dd-d743-4396-a21a-887e78b47fbe","ios":"levelo://app?vid=7f4cd0dd-d743-4396-a21a-887e78b47fbe"},"vehicle_type_id":"4","last_reported":1722092840,"current_range_meters":400,"station_id":"ce4bhch2rcd13ifvqeug","pricing_plan_id":"cebpf4jnsgd1na2vs0mg"},{"bike_id":"e6a3d18f-037f-4f04-aded-9df2f63009c7","system_id":"levelo_inurba_marseille","lat":43.28614,"lon":5.35097,"is_reserved":false,"is_disabled":false,"rental_uris":{"android":"levelo://app?vid=e6a3d18f-037f-4f04-aded-9df2f63009c7","ios":"levelo://app?vid=e6a3d18f-037f-4f04-aded-9df2f63009c7"},"vehicle_type_id":"4","last_reported":1722092840,"current_range_meters":16400,"station_id":"ce4bhch2rcd13ifvqeug","pricing_plan_id":"cebpf4jnsgd1na2vs0mg"},{"bike_id":"dd196e07-656a-436c-8b64-2cb9ed00f148","system_id":"levelo_inurba_marseille","lat":43.28613,"lon":5.35099,"is_reserved":false,"is_disabled":false,"rental_uris":{"android":"levelo://app?vid=dd196e07-656a-436c-8b64-2cb9ed00f148","ios":"levelo://app?vid=dd196e07-656a-436c-8b64-2cb9ed00f148"},"vehicle_type_id":"4","last_reported":1722092840,"current_range_meters":14000,"station_id":"ce4bhch2rcd13ifvqeug","pricing_plan_id":"cebpf4jnsgd1na2vs0mg"},{"bike_id":"e3b95ea3-8cdd-42db-8688-37d34fd19ec3","system_id":"levelo_inurba_marseille","lat":43.28613,"lon":5.35098,"is_reserved":false,"is_disabled":false,"rental_uris":{"android":"levelo://app?vid=e3b95ea3-8cdd-42db-8688-37d34fd19ec3","ios":"levelo://app?vid=e3b95ea3-8cdd-42db-8688-37d34fd19ec3"},"vehicle_type_id":"4","last_reported":1722092840,"current_range_meters":16800,"station_id":"ce4bhch2rcd13ifvqeug","pricing_plan_id":"cebpf4jnsgd1na2vs0mg"},{"bike_id":"69815a8d-7df8-4a01-b8f0-b6154bf375e0","system_id":"levelo_inurba_marseille","lat":43.28612,"lon":5.35099,"is_reserved":false,"is_disabled":false,"rental_uris":{"android":"levelo://app?vid=69815a8d-7df8-4a01-b8f0-b6154bf375e0","ios":"levelo://app?vid=69815a8d-7df8-4a01-b8f0-b6154bf375e0"},"vehicle_type_id":"4","last_reported":1722092840,"current_range_meters":26000,"station_id":"ce4bhch2rcd13ifvqeug","pricing_plan_id":"cebpf4jnsgd1na2vs0mg"},{"bike_id":"c007c553-67dc-4371-a791-3316a2ca47df","system_id":"levelo_inurba_marseille","lat":43.28612,"lon":5.35098,"is_reserved":false,"is_disabled":false,"rental_uris":{"android":"levelo://app?vid=c007c553-67dc-4371-a791-3316a2ca47df","ios":"levelo://app?vid=c007c553-67dc-4371-a791-3316a2ca47df"},"vehicle_type_id":"4","last_reported":1722092840,"current_range_meters":24800,"station_id":"ce4bhch2rcd13ifvqeug","pricing_plan_id":"cebpf4jnsgd1na2vs0mg"},{"bike_id":"6e9ae5a9-d756-49ef-b502-6fbf66711372","system_id":"levelo_inurba_marseille","lat":43.286051,"lon":5.350988,"is_reserved":false,"is_disabled":false,"rental_uris":{"android":"levelo://app?vid=6e9ae5a9-d756-49ef-b502-6fbf66711372","ios":"levelo://app?vid=6e9ae5a9-d756-49ef-b502-6fbf66711372"},"vehicle_type_id":"4","last_reported":1722092840,"current_range_meters":0,"station_id":"ce4bhch2rcd13ifvqeug","pricing_plan_id":"cebpf4jnsgd1na2vs0mg"},{"bike_id":"8399d982-4a71-4452-8746-81f0bf2d15f4","system_id":"levelo_inurba_marseille","lat":43.28407,"lon":5.37517,"is_reserved":false,"is_disabled":false,"rental_uris":{"android":"levelo://app?vid=8399d982-4a71-4452-8746-81f0bf2d15f4","ios":"levelo://app?vid=8399d982-4a71-4452-8746-81f0bf2d15f4"},"vehicle_type_id":"4","last_reported":1722092840,"current_range_meters":0,"station_id":"ce4bh412rcd13ifvqds0","pricing_plan_id":"cebpf4jnsgd1na2vs0mg"},{"bike_id":"ad78ca98-99f5-4402-ac95-99ea864ae7e6","system_id":"levelo_inurba_marseille","lat":43.284016,"lon":5.37506,"is_reserved":false,"is_disabled":false,"rental_uris":{"android":"levelo://app?vid=ad78ca98-99f5-4402-ac95-99ea864ae7e6","ios":"levelo://app?vid=ad78ca98-99f5-4402-ac95-99ea864ae7e6"},"vehicle_type_id":"4","last_reported":1722092840,"current_range_meters":22400,"station_id":"ce4bh412rcd13ifvqds0","pricing_plan_id":"cebpf4jnsgd1na2vs0mg"},{"bike_id":"c89830c0-3696-4f87-ad1c-08b88eb47be0","system_id":"levelo_inurba_marseille","lat":43.284,"lon":5.37512,"is_reserved":false,"is_disabled":false,"rental_uris":{"android":"levelo://app?vid=c89830c0-3696-4f87-ad1c-08b88eb47be0","ios":"levelo://app?vid=c89830c0-3696-4f87-ad1c-08b88eb47be0"},"vehicle_type_id":"4","last_reported":1722092840,"current_range_meters":18400,"station_id":"ce4bh412rcd13ifvqds0","pricing_plan_id":"cebpf4jnsgd1na2vs0mg"},{"bike_id":"c12d95f0-2a21-4c0e-ac54-f15a73860471","system_id":"levelo_inurba_marseille","lat":43.295713,"lon":5.399639,"is_reserved":false,"is_disabled":false,"rental_uris":{"android":"levelo://app?vid=c12d95f0-2a21-4c0e-ac54-f15a73860471","ios":"levelo://app?vid=c12d95f0-2a21-4c0e-ac54-f15a73860471"},"vehicle_type_id":"4","last_reported":1722092840,"current_range_meters":800,"station_id":"ce4bh312rcd13ifvqdj0","pricing_plan_id":"cebpf4jnsgd1na2vs0mg"},{"bike_id":"4ff55185-e995-430d-a48b-8a5403478bbf","system_id":"levelo_inurba_marseille","lat":43.319179,"lon":5.407725,"is_reserved":false,"is_disabled":false,"rental_uris":{"android":"levelo://app?vid=4ff55185-e995-430d-a48b-8a5403478bbf","ios":"levelo://app?vid=4ff55185-e995-430d-a48b-8a5403478bbf"},"vehicle_type_id":"4","last_reported":1722092840,"current_range_meters":8400,"station_id":"ce4bhq12rcd13ifvqhig","pricing_plan_id":"cebpf4jnsgd1na2vs0mg"},{"bike_id":"acd01f13-54aa-4157-ab6b-0846acc70e3e","system_id":"levelo_inurba_marseille","lat":43.323464,"lon":5.406297,"is_reserved":false,"is_disabled":false,"rental_uris":{"android":"levelo://app?vid=acd01f13-54aa-4157-ab6b-0846acc70e3e","ios":"levelo://app?vid=acd01f13-54aa-4157-ab6b-0846acc70e3e"},"vehicle_type_id":"4","last_reported":1722092840,"current_range_meters":3200,"station_id":"ce4bhq92rcd13ifvqhjg","pricing_plan_id":"cebpf4jnsgd1na2vs0mg"},{"bike_id":"bac069dd-e9ca-4ec3-b8a4-d610c225d64e","system_id":"levelo_inurba_marseille","lat":43.33717,"lon":5.391857,"is_reserved":false,"is_disabled":false,"rental_uris":{"android":"levelo://app?vid=bac069dd-e9ca-4ec3-b8a4-d610c225d64e","ios":"levelo://app?vid=bac069dd-e9ca-4ec3-b8a4-d610c225d64e"},"vehicle_type_id":"4","last_reported":1722092840,"current_range_meters":25600,"station_id":"ce4bhr92rcd13ifvqhsg","pricing_plan_id":"cebpf4jnsgd1na2vs0mg"},{"bike_id":"8c8ec102-a0bf-4132-8b5e-f28b108c8995","system_id":"levelo_inurba_marseille","lat":43.284787,"lon":5.384116,"is_reserved":false,"is_disabled":false,"rental_uris":{"android":"levelo://app?vid=8c8ec102-a0bf-4132-8b5e-f28b108c8995","ios":"levelo://app?vid=8c8ec102-a0bf-4132-8b5e-f28b108c8995"},"vehicle_type_id":"4","last_reported":1722092840,"current_range_meters":0,"station_id":"ce4bh512rcd13ifvqe3g","pricing_plan_id":"cebpf4jnsgd1na2vs0mg"},{"bike_id":"1afcb043-1458-4721-849a-ab32f19b8455","system_id":"levelo_inurba_marseille","lat":43.285848,"lon":5.350787,"is_reserved":false,"is_disabled":false,"rental_uris":{"android":"levelo://app?vid=1afcb043-1458-4721-849a-ab32f19b8455","ios":"levelo://app?vid=1afcb043-1458-4721-849a-ab32f19b8455"},"vehicle_type_id":"4","last_reported":1722092840,"current_range_meters":0,"station_id":"ce4bhch2rcd13ifvqeug","pricing_plan_id":"cebpf4jnsgd1na2vs0mg"},{"bike_id":"358029a8-b200-4b04-aa5d-0427b3decc01","system_id":"levelo_inurba_marseille","lat":43.284787,"lon":5.384116,"is_reserved":false,"is_disabled":false,"rental_uris":{"android":"levelo://app?vid=358029a8-b200-4b04-aa5d-0427b3decc01","ios":"levelo://app?vid=358029a8-b200-4b04-aa5d-0427b3decc01"},"vehicle_type_id":"4","last_reported":1722092840,"current_range_meters":0,"station_id":"ce4bh512rcd13ifvqe3g","pricing_plan_id":"cebpf4jnsgd1na2vs0mg"},{"bike_id":"14bec15e-9c18-4ad1-a35c-3f8e3ce180fd","system_id":"levelo_inurba_marseille","lat":43.288501,"lon":5.393087,"is_reserved":false,"is_disabled":false,"rental_uris":{"android":"levelo://app?vid=14bec15e-9c18-4ad1-a35c-3f8e3ce180fd","ios":"levelo://app?vid=14bec15e-9c18-4ad1-a35c-3f8e3ce180fd"},"vehicle_type_id":"4","last_reported":1722092840,"current_range_meters":0,"station_id":"ce4bh2p2rcd13ifvqdi0","pricing_plan_id":"cebpf4jnsgd1na2vs0mg"},{"bike_id":"ec510d10-b011-41cb-b8e8-dfb113bdcf9c","system_id":"levelo_inurba_marseille","lat":43.284217,"lon":5.349697,"is_reserved":false,"is_disabled":false,"rental_uris":{"android":"levelo://app?vid=ec510d10-b011-41cb-b8e8-dfb113bdcf9c","ios":"levelo://app?vid=ec510d10-b011-41cb-b8e8-dfb113bdcf9c"},"vehicle_type_id":"4","last_reported":1722092840,"current_range_meters":28000,"station_id":"ce4bhbh2rcd13ifvqepg","pricing_plan_id":"cebpf4jnsgd1na2vs0mg"},{"bike_id":"d4caf244-5ddf-40aa-ac97-8dc17e136efc","system_id":"levelo_inurba_marseille","lat":43.284219,"lon":5.3497,"is_reserved":false,"is_disabled":false,"rental_uris":{"android":"levelo://app?vid=d4caf244-5ddf-40aa-ac97-8dc17e136efc","ios":"levelo://app?vid=d4caf244-5ddf-40aa-ac97-8dc17e136efc"},"vehicle_type_id":"4","last_reported":1722092840,"current_range_meters":23600,"station_id":"ce4bhbh2rcd13ifvqepg","pricing_plan_id":"cebpf4jnsgd1na2vs0mg"},{"bike_id":"5520c6b9-27a3-4bd3-86dc-f05bfdabc8a6","system_id":"levelo_inurba_marseille","lat":43.284219,"lon":5.3497,"is_reserved":false,"is_disabled":false,"rental_uris":{"android":"levelo://app?vid=5520c6b9-27a3-4bd3-86dc-f05bfdabc8a6","ios":"levelo://app?vid=5520c6b9-27a3-4bd3-86dc-f05bfdabc8a6"},"vehicle_type_id":"4","last_reported":1722092840,"current_range_meters":18400,"station_id":"ce4bhbh2rcd13ifvqepg","pricing_plan_id":"cebpf4jnsgd1na2vs0mg"},{"bike_id":"8de27a5f-656e-458c-bf3b-ad66d4e546e7","system_id":"levelo_inurba_marseille","lat":43.284219,"lon":5.3497,"is_reserved":false,"is_disabled":false,"rental_uris":{"android":"levelo://app?vid=8de27a5f-656e-458c-bf3b-ad66d4e546e7","ios":"levelo://app?vid=8de27a5f-656e-458c-bf3b-ad66d4e546e7"},"vehicle_type_id":"4","last_reported":1722092840,"current_range_meters":27200,"station_id":"ce4bhbh2rcd13ifvqepg","pricing_plan_id":"cebpf4jnsgd1na2vs0mg"},{"bike_id":"82b814f9-6a41-44ba-aa9a-9e72d5cb8043","system_id":"levelo_inurba_marseille","lat":43.28422,"lon":5.34985,"is_reserved":false,"is_disabled":false,"rental_uris":{"android":"levelo://app?vid=82b814f9-6a41-44ba-aa9a-9e72d5cb8043","ios":"levelo://app?vid=82b814f9-6a41-44ba-aa9a-9e72d5cb8043"},"vehicle_type_id":"4","last_reported":1722092840,"current_range_meters":0,"station_id":"ce4bhbh2rcd13ifvqepg","pricing_plan_id":"cebpf4jnsgd1na2vs0mg"},{"bike_id":"1a17753d-5897-4495-82d4-538943bd7573","system_id":"levelo_inurba_marseille","lat":43.284219,"lon":5.3497,"is_reserved":false,"is_disabled":false,"rental_uris":{"android":"levelo://app?vid=1a17753d-5897-4495-82d4-538943bd7573","ios":"levelo://app?vid=1a17753d-5897-4495-82d4-538943bd7573"},"vehicle_type_id":"4","last_reported":1722092840,"current_range_meters":31200,"station_id":"ce4bhbh2rcd13ifvqepg","pricing_plan_id":"cebpf4jnsgd1na2vs0mg"},{"bike_id":"51e03233-d3a2-4dde-9650-d4a6b7608358","system_id":"levelo_inurba_marseille","lat":43.284219,"lon":5.3497,"is_reserved":false,"is_disabled":false,"rental_uris":{"android":"levelo://app?vid=51e03233-d3a2-4dde-9650-d4a6b7608358","ios":"levelo://app?vid=51e03233-d3a2-4dde-9650-d4a6b7608358"},"vehicle_type_id":"4","last_reported":1722092840,"current_range_meters":21600,"station_id":"ce4bhbh2rcd13ifvqepg","pricing_plan_id":"cebpf4jnsgd1na2vs0mg"},{"bike_id":"6c607270-a9bf-41a4-8004-39041b9695a5","system_id":"levelo_inurba_marseille","lat":43.284219,"lon":5.3497,"is_reserved":false,"is_disabled":false,"rental_uris":{"android":"levelo://app?vid=6c607270-a9bf-41a4-8004-39041b9695a5","ios":"levelo://app?vid=6c607270-a9bf-41a4-8004-39041b9695a5"},"vehicle_type_id":"4","last_reported":1722092840,"current_range_meters":4000,"station_id":"ce4bhbh2rcd13ifvqepg","pricing_plan_id":"cebpf4jnsgd1na2vs0mg"},{"bike_id":"0d078bb8-36e1-4be8-9813-1f7ede2232e2","system_id":"levelo_inurba_marseille","lat":43.28425,"lon":5.34974,"is_reserved":false,"is_disabled":false,"rental_uris":{"android":"levelo://app?vid=0d078bb8-36e1-4be8-9813-1f7ede2232e2","ios":"levelo://app?vid=0d078bb8-36e1-4be8-9813-1f7ede2232e2"},"vehicle_type_id":"4","last_reported":1722092840,"current_range_meters":20400,"station_id":"ce4bhbh2rcd13ifvqepg","pricing_plan_id":"cebpf4jnsgd1na2vs0mg"},{"bike_id":"fe180e96-4700-48f8-bd21-725e5575a9dd","system_id":"levelo_inurba_marseille","lat":43.284217,"lon":5.349697,"is_reserved":false,"is_disabled":false,"rental_uris":{"android":"levelo://app?vid=fe180e96-4700-48f8-bd21-725e5575a9dd","ios":"levelo://app?vid=fe180e96-4700-48f8-bd21-725e5575a9dd"},"vehicle_type_id":"4","last_reported":1722092840,"current_range_meters":31600,"station_id":"ce4bhbh2rcd13ifvqepg","pricing_plan_id":"cebpf4jnsgd1na2vs0mg"},{"bike_id":"8a2f0a15-aea4-4e78-a2d0-ba25af6ad899","system_id":"levelo_inurba_marseille","lat":43.28424,"lon":5.34976,"is_reserved":false,"is_disabled":false,"rental_uris":{"android":"levelo://app?vid=8a2f0a15-aea4-4e78-a2d0-ba25af6ad899","ios":"levelo://app?vid=8a2f0a15-aea4-4e78-a2d0-ba25af6ad899"},"vehicle_type_id":"4","last_reported":1722092840,"current_range_meters":0,"station_id":"ce4bhbh2rcd13ifvqepg","pricing_plan_id":"cebpf4jnsgd1na2vs0mg"},{"bike_id":"88c68fd6-125d-4995-8d4e-e7996831b500","system_id":"levelo_inurba_marseille","lat":43.284217,"lon":5.349697,"is_reserved":false,"is_disabled":false,"rental_uris":{"android":"levelo://app?vid=88c68fd6-125d-4995-8d4e-e7996831b500","ios":"levelo://app?vid=88c68fd6-125d-4995-8d4e-e7996831b500"},"vehicle_type_id":"4","last_reported":1722092840,"current_range_meters":28800,"station_id":"ce4bhbh2rcd13ifvqepg","pricing_plan_id":"cebpf4jnsgd1na2vs0mg"},{"bike_id":"fb260322-938d-4342-a762-5f56edc7862a","system_id":"levelo_inurba_marseille","lat":43.28425,"lon":5.34969,"is_reserved":false,"is_disabled":false,"rental_uris":{"android":"levelo://app?vid=fb260322-938d-4342-a762-5f56edc7862a","ios":"levelo://app?vid=fb260322-938d-4342-a762-5f56edc7862a"},"vehicle_type_id":"4","last_reported":1722092840,"current_range_meters":30000,"station_id":"ce4bhbh2rcd13ifvqepg","pricing_plan_id":"cebpf4jnsgd1na2vs0mg"},{"bike_id":"b799a845-05e4-4ada-ac84-7c106a3698e9","system_id":"levelo_inurba_marseille","lat":43.284219,"lon":5.3497,"is_reserved":false,"is_disabled":false,"rental_uris":{"android":"levelo://app?vid=b799a845-05e4-4ada-ac84-7c106a3698e9","ios":"levelo://app?vid=b799a845-05e4-4ada-ac84-7c106a3698e9"},"vehicle_type_id":"4","last_reported":1722092840,"current_range_meters":7200,"station_id":"ce4bhbh2rcd13ifvqepg","pricing_plan_id":"cebpf4jnsgd1na2vs0mg"},{"bike_id":"f93bf151-9373-4c85-9432-f34063ac1d0f","system_id":"levelo_inurba_marseille","lat":43.284217,"lon":5.349697,"is_reserved":false,"is_disabled":false,"rental_uris":{"android":"levelo://app?vid=f93bf151-9373-4c85-9432-f34063ac1d0f","ios":"levelo://app?vid=f93bf151-9373-4c85-9432-f34063ac1d0f"},"vehicle_type_id":"4","last_reported":1722092840,"current_range_meters":31200,"station_id":"ce4bhbh2rcd13ifvqepg","pricing_plan_id":"cebpf4jnsgd1na2vs0mg"},{"bike_id":"53945ca2-8052-41e4-a546-7f0ae9bb2cb2","system_id":"levelo_inurba_marseille","lat":43.2842,"lon":5.34984,"is_reserved":false,"is_disabled":false,"rental_uris":{"android":"levelo://app?vid=53945ca2-8052-41e4-a546-7f0ae9bb2cb2","ios":"levelo://app?vid=53945ca2-8052-41e4-a546-7f0ae9bb2cb2"},"vehicle_type_id":"4","last_reported":1722092840,"current_range_meters":13200,"station_id":"ce4bhbh2rcd13ifvqepg","pricing_plan_id":"cebpf4jnsgd1na2vs0mg"},{"bike_id":"05a06871-24a8-4731-bb8a-f937b99c8b47","system_id":"levelo_inurba_marseille","lat":43.2842,"lon":5.34983,"is_reserved":false,"is_disabled":false,"rental_uris":{"android":"levelo://app?vid=05a06871-24a8-4731-bb8a-f937b99c8b47","ios":"levelo://app?vid=05a06871-24a8-4731-bb8a-f937b99c8b47"},"vehicle_type_id":"4","last_reported":1722092840,"current_range_meters":0,"station_id":"ce4bhbh2rcd13ifvqepg","pricing_plan_id":"cebpf4jnsgd1na2vs0mg"},{"bike_id":"be94c61f-0fcf-4e4a-b5b2-6281fda9e6d1","system_id":"levelo_inurba_marseille","lat":43.284219,"lon":5.3497,"is_reserved":false,"is_disabled":false,"rental_uris":{"android":"levelo://app?vid=be94c61f-0fcf-4e4a-b5b2-6281fda9e6d1","ios":"levelo://app?vid=be94c61f-0fcf-4e4a-b5b2-6281fda9e6d1"},"vehicle_type_id":"4","last_reported":1722092840,"current_range_meters":23200,"station_id":"ce4bhbh2rcd13ifvqepg","pricing_plan_id":"cebpf4jnsgd1na2vs0mg"},{"bike_id":"3f912705-ee6c-43f9-89ec-e62ee346ea9d","system_id":"levelo_inurba_marseille","lat":43.284219,"lon":5.3497,"is_reserved":false,"is_disabled":false,"rental_uris":{"android":"levelo://app?vid=3f912705-ee6c-43f9-89ec-e62ee346ea9d","ios":"levelo://app?vid=3f912705-ee6c-43f9-89ec-e62ee346ea9d"},"vehicle_type_id":"4","last_reported":1722092840,"current_range_meters":8400,"station_id":"ce4bhbh2rcd13ifvqepg","pricing_plan_id":"cebpf4jnsgd1na2vs0mg"},{"bike_id":"4a9c757e-4671-4831-a909-367847d48196","system_id":"levelo_inurba_marseille","lat":43.28415,"lon":5.34992,"is_reserved":false,"is_disabled":false,"rental_uris":{"android":"levelo://app?vid=4a9c757e-4671-4831-a909-367847d48196","ios":"levelo://app?vid=4a9c757e-4671-4831-a909-367847d48196"},"vehicle_type_id":"4","last_reported":1722092840,"current_range_meters":24400,"station_id":"ce4bhbh2rcd13ifvqepg","pricing_plan_id":"cebpf4jnsgd1na2vs0mg"},{"bike_id":"767b2075-d9f3-4fdc-a7c8-9a4236ed365b","system_id":"levelo_inurba_marseille","lat":43.284219,"lon":5.3497,"is_reserved":false,"is_disabled":false,"rental_uris":{"android":"levelo://app?vid=767b2075-d9f3-4fdc-a7c8-9a4236ed365b","ios":"levelo://app?vid=767b2075-d9f3-4fdc-a7c8-9a4236ed365b"},"vehicle_type_id":"4","last_reported":1722092840,"current_range_meters":22800,"station_id":"ce4bhbh2rcd13ifvqepg","pricing_plan_id":"cebpf4jnsgd1na2vs0mg"},{"bike_id":"62249a5f-3b7d-4ba9-9e05-5386a501e9cd","system_id":"levelo_inurba_marseille","lat":43.284219,"lon":5.3497,"is_reserved":false,"is_disabled":false,"rental_uris":{"android":"levelo://app?vid=62249a5f-3b7d-4ba9-9e05-5386a501e9cd","ios":"levelo://app?vid=62249a5f-3b7d-4ba9-9e05-5386a501e9cd"},"vehicle_type_id":"4","last_reported":1722092840,"current_range_meters":24400,"station_id":"ce4bhbh2rcd13ifvqepg","pricing_plan_id":"cebpf4jnsgd1na2vs0mg"},{"bike_id":"51048c84-588a-40f8-9fa8-6509cc8d230c","system_id":"levelo_inurba_marseille","lat":43.284133,"lon":5.34996,"is_reserved":false,"is_disabled":false,"rental_uris":{"android":"levelo://app?vid=51048c84-588a-40f8-9fa8-6509cc8d230c","ios":"levelo://app?vid=51048c84-588a-40f8-9fa8-6509cc8d230c"},"vehicle_type_id":"4","last_reported":1722092840,"current_range_meters":19200,"station_id":"ce4bhbh2rcd13ifvqepg","pricing_plan_id":"cebpf4jnsgd1na2vs0mg"},{"bike_id":"19adf7c2-2189-4fbe-8136-3a2fdc4b52d0","system_id":"levelo_inurba_marseille","lat":43.28416,"lon":5.34987,"is_reserved":false,"is_disabled":false,"rental_uris":{"android":"levelo://app?vid=19adf7c2-2189-4fbe-8136-3a2fdc4b52d0","ios":"levelo://app?vid=19adf7c2-2189-4fbe-8136-3a2fdc4b52d0"},"vehicle_type_id":"4","last_reported":1722092840,"current_range_meters":12400,"station_id":"ce4bhbh2rcd13ifvqepg","pricing_plan_id":"cebpf4jnsgd1na2vs0mg"},{"bike_id":"aa69235d-3355-442e-b43b-c999c94c7596","system_id":"levelo_inurba_marseille","lat":43.284219,"lon":5.3497,"is_reserved":false,"is_disabled":false,"rental_uris":{"android":"levelo://app?vid=aa69235d-3355-442e-b43b-c999c94c7596","ios":"levelo://app?vid=aa69235d-3355-442e-b43b-c999c94c7596"},"vehicle_type_id":"4","last_reported":1722092840,"current_range_meters":32000,"station_id":"ce4bhbh2rcd13ifvqepg","pricing_plan_id":"cebpf4jnsgd1na2vs0mg"},{"bike_id":"13dead7f-6229-4394-9295-4616da8802f7","system_id":"levelo_inurba_marseille","lat":43.28416,"lon":5.34986,"is_reserved":false,"is_disabled":false,"rental_uris":{"android":"levelo://app?vid=13dead7f-6229-4394-9295-4616da8802f7","ios":"levelo://app?vid=13dead7f-6229-4394-9295-4616da8802f7"},"vehicle_type_id":"4","last_reported":1722092840,"current_range_meters":18400,"station_id":"ce4bhbh2rcd13ifvqepg","pricing_plan_id":"cebpf4jnsgd1na2vs0mg"},{"bike_id":"2e14e1aa-2faf-4392-b100-56d7e4aa32f4","system_id":"levelo_inurba_marseille","lat":43.28418,"lon":5.34977,"is_reserved":false,"is_disabled":false,"rental_uris":{"android":"levelo://app?vid=2e14e1aa-2faf-4392-b100-56d7e4aa32f4","ios":"levelo://app?vid=2e14e1aa-2faf-4392-b100-56d7e4aa32f4"},"vehicle_type_id":"4","last_reported":1722092840,"current_range_meters":6800,"station_id":"ce4bhbh2rcd13ifvqepg","pricing_plan_id":"cebpf4jnsgd1na2vs0mg"},{"bike_id":"ff2e344b-e710-4abe-82f3-b8f6e3e74d39","system_id":"levelo_inurba_marseille","lat":43.284217,"lon":5.349697,"is_reserved":false,"is_disabled":false,"rental_uris":{"android":"levelo://app?vid=ff2e344b-e710-4abe-82f3-b8f6e3e74d39","ios":"levelo://app?vid=ff2e344b-e710-4abe-82f3-b8f6e3e74d39"},"vehicle_type_id":"4","last_reported":1722092840,"current_range_meters":11600,"station_id":"ce4bhbh2rcd13ifvqepg","pricing_plan_id":"cebpf4jnsgd1na2vs0mg"},{"bike_id":"877bbed9-65e6-4f92-bda7-4d35e67c9bf0","system_id":"levelo_inurba_marseille","lat":43.284217,"lon":5.349697,"is_reserved":false,"is_disabled":false,"rental_uris":{"android":"levelo://app?vid=877bbed9-65e6-4f92-bda7-4d35e67c9bf0","ios":"levelo://app?vid=877bbed9-65e6-4f92-bda7-4d35e67c9bf0"},"vehicle_type_id":"4","last_reported":1722092840,"current_range_meters":11200,"station_id":"ce4bhbh2rcd13ifvqepg","pricing_plan_id":"cebpf4jnsgd1na2vs0mg"},{"bike_id":"f3dd4bf0-75c0-425d-a04a-6a6fe6743816","system_id":"levelo_inurba_marseille","lat":43.28415,"lon":5.34984,"is_reserved":false,"is_disabled":false,"rental_uris":{"android":"levelo://app?vid=f3dd4bf0-75c0-425d-a04a-6a6fe6743816","ios":"levelo://app?vid=f3dd4bf0-75c0-425d-a04a-6a6fe6743816"},"vehicle_type_id":"4","last_reported":1722092840,"current_range_meters":4400,"station_id":"ce4bhbh2rcd13ifvqepg","pricing_plan_id":"cebpf4jnsgd1na2vs0mg"},{"bike_id":"0bae12fb-8533-4213-9451-6d6b23fd174d","system_id":"levelo_inurba_marseille","lat":43.28416,"lon":5.3498,"is_reserved":false,"is_disabled":false,"rental_uris":{"android":"levelo://app?vid=0bae12fb-8533-4213-9451-6d6b23fd174d","ios":"levelo://app?vid=0bae12fb-8533-4213-9451-6d6b23fd174d"},"vehicle_type_id":"4","last_reported":1722092840,"current_range_meters":20800,"station_id":"ce4bhbh2rcd13ifvqepg","pricing_plan_id":"cebpf4jnsgd1na2vs0mg"},{"bike_id":"39f39a5b-19b2-490c-9d09-2b61fae00c78","system_id":"levelo_inurba_marseille","lat":43.284219,"lon":5.3497,"is_reserved":false,"is_disabled":false,"rental_uris":{"android":"levelo://app?vid=39f39a5b-19b2-490c-9d09-2b61fae00c78","ios":"levelo://app?vid=39f39a5b-19b2-490c-9d09-2b61fae00c78"},"vehicle_type_id":"4","last_reported":1722092840,"current_range_meters":16800,"station_id":"ce4bhbh2rcd13ifvqepg","pricing_plan_id":"cebpf4jnsgd1na2vs0mg"},{"bike_id":"4f3341a9-2203-409d-a44f-b50250cb3372","system_id":"levelo_inurba_marseille","lat":43.28412,"lon":5.34992,"is_reserved":false,"is_disabled":false,"rental_uris":{"android":"levelo://app?vid=4f3341a9-2203-409d-a44f-b50250cb3372","ios":"levelo://app?vid=4f3341a9-2203-409d-a44f-b50250cb3372"},"vehicle_type_id":"4","last_reported":1722092840,"current_range_meters":26000,"station_id":"ce4bhbh2rcd13ifvqepg","pricing_plan_id":"cebpf4jnsgd1na2vs0mg"},{"bike_id":"3ae3fa87-1a6b-4c08-aa8a-7f5c9fd92131","system_id":"levelo_inurba_marseille","lat":43.284219,"lon":5.3497,"is_reserved":false,"is_disabled":false,"rental_uris":{"android":"levelo://app?vid=3ae3fa87-1a6b-4c08-aa8a-7f5c9fd92131","ios":"levelo://app?vid=3ae3fa87-1a6b-4c08-aa8a-7f5c9fd92131"},"vehicle_type_id":"4","last_reported":1722092840,"current_range_meters":26000,"station_id":"ce4bhbh2rcd13ifvqepg","pricing_plan_id":"cebpf4jnsgd1na2vs0mg"},{"bike_id":"258cd763-bc40-45f8-9943-d2d5e6852ab2","system_id":"levelo_inurba_marseille","lat":43.28414,"lon":5.34985,"is_reserved":false,"is_disabled":false,"rental_uris":{"android":"levelo://app?vid=258cd763-bc40-45f8-9943-d2d5e6852ab2","ios":"levelo://app?vid=258cd763-bc40-45f8-9943-d2d5e6852ab2"},"vehicle_type_id":"4","last_reported":1722092840,"current_range_meters":18400,"station_id":"ce4bhbh2rcd13ifvqepg","pricing_plan_id":"cebpf4jnsgd1na2vs0mg"},{"bike_id":"7843ffaf-db06-4c49-a89e-a86f6dd3bda6","system_id":"levelo_inurba_marseille","lat":43.284219,"lon":5.3497,"is_reserved":false,"is_disabled":false,"rental_uris":{"android":"levelo://app?vid=7843ffaf-db06-4c49-a89e-a86f6dd3bda6","ios":"levelo://app?vid=7843ffaf-db06-4c49-a89e-a86f6dd3bda6"},"vehicle_type_id":"4","last_reported":1722092840,"current_range_meters":20000,"station_id":"ce4bhbh2rcd13ifvqepg","pricing_plan_id":"cebpf4jnsgd1na2vs0mg"},{"bike_id":"75d0d320-04c3-4b58-a149-519f766734ce","system_id":"levelo_inurba_marseille","lat":43.2841,"lon":5.34994,"is_reserved":false,"is_disabled":false,"rental_uris":{"android":"levelo://app?vid=75d0d320-04c3-4b58-a149-519f766734ce","ios":"levelo://app?vid=75d0d320-04c3-4b58-a149-519f766734ce"},"vehicle_type_id":"4","last_reported":1722092840,"current_range_meters":25600,"station_id":"ce4bhbh2rcd13ifvqepg","pricing_plan_id":"cebpf4jnsgd1na2vs0mg"},{"bike_id":"cbaa2978-07fb-4ca2-89b6-8956324d17c6","system_id":"levelo_inurba_marseille","lat":43.284217,"lon":5.349697,"is_reserved":false,"is_disabled":false,"rental_uris":{"android":"levelo://app?vid=cbaa2978-07fb-4ca2-89b6-8956324d17c6","ios":"levelo://app?vid=cbaa2978-07fb-4ca2-89b6-8956324d17c6"},"vehicle_type_id":"4","last_reported":1722092840,"current_range_meters":17600,"station_id":"ce4bhbh2rcd13ifvqepg","pricing_plan_id":"cebpf4jnsgd1na2vs0mg"},{"bike_id":"450eb8f4-e710-4cb3-b7e7-e8ad10b996a2","system_id":"levelo_inurba_marseille","lat":43.284153,"lon":5.349767,"is_reserved":false,"is_disabled":false,"rental_uris":{"android":"levelo://app?vid=450eb8f4-e710-4cb3-b7e7-e8ad10b996a2","ios":"levelo://app?vid=450eb8f4-e710-4cb3-b7e7-e8ad10b996a2"},"vehicle_type_id":"4","last_reported":1722092840,"current_range_meters":30000,"station_id":"ce4bhbh2rcd13ifvqepg","pricing_plan_id":"cebpf4jnsgd1na2vs0mg"},{"bike_id":"887bc06b-7b3a-47dc-8628-b5771bc391a9","system_id":"levelo_inurba_marseille","lat":43.284214,"lon":5.349706,"is_reserved":false,"is_disabled":false,"rental_uris":{"android":"levelo://app?vid=887bc06b-7b3a-47dc-8628-b5771bc391a9","ios":"levelo://app?vid=887bc06b-7b3a-47dc-8628-b5771bc391a9"},"vehicle_type_id":"4","last_reported":1722092840,"current_range_meters":0,"station_id":"ce4bhbh2rcd13ifvqepg","pricing_plan_id":"cebpf4jnsgd1na2vs0mg"},{"bike_id":"4dfdc43f-2f5c-406a-8a5e-413a66773042","system_id":"levelo_inurba_marseille","lat":43.28413,"lon":5.34982,"is_reserved":false,"is_disabled":false,"rental_uris":{"android":"levelo://app?vid=4dfdc43f-2f5c-406a-8a5e-413a66773042","ios":"levelo://app?vid=4dfdc43f-2f5c-406a-8a5e-413a66773042"},"vehicle_type_id":"4","last_reported":1722092840,"current_range_meters":15200,"station_id":"ce4bhbh2rcd13ifvqepg","pricing_plan_id":"cebpf4jnsgd1na2vs0mg"},{"bike_id":"cd2108fe-305e-48ec-ad16-2b0cc033371a","system_id":"levelo_inurba_marseille","lat":43.28413,"lon":5.34981,"is_reserved":false,"is_disabled":false,"rental_uris":{"android":"levelo://app?vid=cd2108fe-305e-48ec-ad16-2b0cc033371a","ios":"levelo://app?vid=cd2108fe-305e-48ec-ad16-2b0cc033371a"},"vehicle_type_id":"4","last_reported":1722092840,"current_range_meters":5600,"station_id":"ce4bhbh2rcd13ifvqepg","pricing_plan_id":"cebpf4jnsgd1na2vs0mg"},{"bike_id":"2171b216-3128-4b13-8672-7783bffa4199","system_id":"levelo_inurba_marseille","lat":43.284125,"lon":5.349818,"is_reserved":false,"is_disabled":false,"rental_uris":{"android":"levelo://app?vid=2171b216-3128-4b13-8672-7783bffa4199","ios":"levelo://app?vid=2171b216-3128-4b13-8672-7783bffa4199"},"vehicle_type_id":"4","last_reported":1722092840,"current_range_meters":2800,"station_id":"ce4bhbh2rcd13ifvqepg","pricing_plan_id":"cebpf4jnsgd1na2vs0mg"},{"bike_id":"3ec73c02-cede-4b81-845b-9e6245d33e8c","system_id":"levelo_inurba_marseille","lat":43.28411,"lon":5.34986,"is_reserved":false,"is_disabled":false,"rental_uris":{"android":"levelo://app?vid=3ec73c02-cede-4b81-845b-9e6245d33e8c","ios":"levelo://app?vid=3ec73c02-cede-4b81-845b-9e6245d33e8c"},"vehicle_type_id":"4","last_reported":1722092840,"current_range_meters":6800,"station_id":"ce4bhbh2rcd13ifvqepg","pricing_plan_id":"cebpf4jnsgd1na2vs0mg"},{"bike_id":"69b88465-41d3-47c4-a951-f4e8b2118896","system_id":"levelo_inurba_marseille","lat":43.2841,"lon":5.349885,"is_reserved":false,"is_disabled":false,"rental_uris":{"android":"levelo://app?vid=69b88465-41d3-47c4-a951-f4e8b2118896","ios":"levelo://app?vid=69b88465-41d3-47c4-a951-f4e8b2118896"},"vehicle_type_id":"4","last_reported":1722092840,"current_range_meters":30800,"station_id":"ce4bhbh2rcd13ifvqepg","pricing_plan_id":"cebpf4jnsgd1na2vs0mg"},{"bike_id":"26428ecd-08df-4a3c-8b7a-b33569499e6e","system_id":"levelo_inurba_marseille","lat":43.284103,"lon":5.349857,"is_reserved":false,"is_disabled":false,"rental_uris":{"android":"levelo://app?vid=26428ecd-08df-4a3c-8b7a-b33569499e6e","ios":"levelo://app?vid=26428ecd-08df-4a3c-8b7a-b33569499e6e"},"vehicle_type_id":"4","last_reported":1722092840,"current_range_meters":21200,"station_id":"ce4bhbh2rcd13ifvqepg","pricing_plan_id":"cebpf4jnsgd1na2vs0mg"},{"bike_id":"49caa1c6-8652-4468-80f2-8fbde7aa6c88","system_id":"levelo_inurba_marseille","lat":43.28412,"lon":5.3498,"is_reserved":false,"is_disabled":false,"rental_uris":{"android":"levelo://app?vid=49caa1c6-8652-4468-80f2-8fbde7aa6c88","ios":"levelo://app?vid=49caa1c6-8652-4468-80f2-8fbde7aa6c88"},"vehicle_type_id":"4","last_reported":1722092840,"current_range_meters":4400,"station_id":"ce4bhbh2rcd13ifvqepg","pricing_plan_id":"cebpf4jnsgd1na2vs0mg"},{"bike_id":"c351d39f-6358-4fa5-955d-870d468ceb33","system_id":"levelo_inurba_marseille","lat":43.284083,"lon":5.349907,"is_reserved":false,"is_disabled":false,"rental_uris":{"android":"levelo://app?vid=c351d39f-6358-4fa5-955d-870d468ceb33","ios":"levelo://app?vid=c351d39f-6358-4fa5-955d-870d468ceb33"},"vehicle_type_id":"4","last_reported":1722092840,"current_range_meters":27600,"station_id":"ce4bhbh2rcd13ifvqepg","pricing_plan_id":"cebpf4jnsgd1na2vs0mg"},{"bike_id":"720b615b-b026-4685-9e3b-d05bd10ca82c","system_id":"levelo_inurba_marseille","lat":43.28412,"lon":5.34977,"is_reserved":false,"is_disabled":false,"rental_uris":{"android":"levelo://app?vid=720b615b-b026-4685-9e3b-d05bd10ca82c","ios":"levelo://app?vid=720b615b-b026-4685-9e3b-d05bd10ca82c"},"vehicle_type_id":"4","last_reported":1722092840,"current_range_meters":2400,"station_id":"ce4bhbh2rcd13ifvqepg","pricing_plan_id":"cebpf4jnsgd1na2vs0mg"},{"bike_id":"e4c30b02-01b4-470c-9c6f-4730981cbc17","system_id":"levelo_inurba_marseille","lat":43.284217,"lon":5.349697,"is_reserved":false,"is_disabled":false,"rental_uris":{"android":"levelo://app?vid=e4c30b02-01b4-470c-9c6f-4730981cbc17","ios":"levelo://app?vid=e4c30b02-01b4-470c-9c6f-4730981cbc17"},"vehicle_type_id":"4","last_reported":1722092840,"current_range_meters":3600,"station_id":"ce4bhbh2rcd13ifvqepg","pricing_plan_id":"cebpf4jnsgd1na2vs0mg"},{"bike_id":"251e836f-c037-4ce5-b600-436c3c53ae13","system_id":"levelo_inurba_marseille","lat":43.284075,"lon":5.349898,"is_reserved":false,"is_disabled":false,"rental_uris":{"android":"levelo://app?vid=251e836f-c037-4ce5-b600-436c3c53ae13","ios":"levelo://app?vid=251e836f-c037-4ce5-b600-436c3c53ae13"},"vehicle_type_id":"4","last_reported":1722092840,"current_range_meters":9600,"station_id":"ce4bhbh2rcd13ifvqepg","pricing_plan_id":"cebpf4jnsgd1na2vs0mg"},{"bike_id":"5e569bdb-5809-4ae5-a185-e4020753b8e7","system_id":"levelo_inurba_marseille","lat":43.28409,"lon":5.34979,"is_reserved":false,"is_disabled":false,"rental_uris":{"android":"levelo://app?vid=5e569bdb-5809-4ae5-a185-e4020753b8e7","ios":"levelo://app?vid=5e569bdb-5809-4ae5-a185-e4020753b8e7"},"vehicle_type_id":"4","last_reported":1722092840,"current_range_meters":6800,"station_id":"ce4bhbh2rcd13ifvqepg","pricing_plan_id":"cebpf4jnsgd1na2vs0mg"},{"bike_id":"9b2c2f01-4da4-49ef-a643-f0f9190cb81a","system_id":"levelo_inurba_marseille","lat":43.28292,"lon":5.35087,"is_reserved":false,"is_disabled":false,"rental_uris":{"android":"levelo://app?vid=9b2c2f01-4da4-49ef-a643-f0f9190cb81a","ios":"levelo://app?vid=9b2c2f01-4da4-49ef-a643-f0f9190cb81a"},"vehicle_type_id":"4","last_reported":1722092840,"current_range_meters":20000,"station_id":"ce4bhbp2rcd13ifvqerg","pricing_plan_id":"cebpf4jnsgd1na2vs0mg"},{"bike_id":"ab70afd5-0dcf-4d1d-9ecf-0ce09a7334fe","system_id":"levelo_inurba_marseille","lat":43.28278,"lon":5.35071,"is_reserved":false,"is_disabled":false,"rental_uris":{"android":"levelo://app?vid=ab70afd5-0dcf-4d1d-9ecf-0ce09a7334fe","ios":"levelo://app?vid=ab70afd5-0dcf-4d1d-9ecf-0ce09a7334fe"},"vehicle_type_id":"4","last_reported":1722092840,"current_range_meters":19200,"station_id":"ce4bhbp2rcd13ifvqerg","pricing_plan_id":"cebpf4jnsgd1na2vs0mg"},{"bike_id":"36c0e550-9d9a-4e17-beb2-fe720612774e","system_id":"levelo_inurba_marseille","lat":43.282746,"lon":5.350794,"is_reserved":false,"is_disabled":false,"rental_uris":{"android":"levelo://app?vid=36c0e550-9d9a-4e17-beb2-fe720612774e","ios":"levelo://app?vid=36c0e550-9d9a-4e17-beb2-fe720612774e"},