{"last_updated":1760177324,"ttl":60,"version":"2.2","data":{"bikes":[{"bike_id":"5516e87b-8441-4871-bd1c-dcd0126e113d","system_id":"levelo_inurba_marseille","lat":43.337444,"lon":5.374475,"is_reserved":false,"is_disabled":true,"rental_uris":{"android":"levelo://app?vid=5516e87b-8441-4871-bd1c-dcd0126e113d","ios":"levelo://app?vid=5516e87b-8441-4871-bd1c-dcd0126e113d"},"vehicle_type_id":"4","last_reported":1760177324,"current_range_meters":0,"station_id":"","pricing_plan_id":"cebpf4jnsgd1na2vs0mg"},{"bike_id":"f9ef6a8c-cc82-49e4-96c2-f46e0950a0fc","system_id":"levelo_inurba_marseille","lat":43.33771,"lon":5.37424,"is_reserved":false,"is_disabled":true,"rental_uris":{"android":"levelo://app?vid=f9ef6a8c-cc82-49e4-96c2-f46e0950a0fc","ios":"levelo://app?vid=f9ef6a8c-cc82-49e4-96c2-f46e0950a0fc"},"vehicle_type_id":"4","last_reported":1760177324,"current_range_meters":0,"station_id":"","pricing_plan_id":"cebpf4jnsgd1na2vs0mg"},{"bike_id":"f92995dc-d2e7-4f2e-bcaf-27995c98a1de","system_id":"levelo_inurba_marseille","lat":43.33751,"lon":5.37456,"is_reserved":false,"is_disabled":true,"rental_uris":{"android":"levelo://app?vid=f92995dc-d2e7-4f2e-bcaf-27995c98a1de","ios":"levelo://app?vid=f92995dc-d2e7-4f2e-bcaf-27995c98a1de"},"vehicle_type_id":"4","last_reported":1760177324,"current_range_meters":0,"station_id":"","pricing_plan_id":"cebpf4jnsgd1na2vs0mg"},{"bike_id":"092183e8-1e36-4ece-a29a-68743a5820f6","system_id":"levelo_inurba_marseille","lat":43.33747,"lon":5.37463,"is_reserved":false,"is_disabled":true,"rental_uris":{"android":"levelo://app?vid=092183e8-1e36-4ece-a29a-68743a5820f6","ios":"levelo://app?vid=092183e8-1e36-4ece-a29a-68743a5820f6"},"vehicle_type_id":"1","last_reported":1760177324,"current_range_meters":0,"station_id":"","pricing_plan_id":"cebpf4jnsgd1na2vs0mg"},{"bike_id":"268f0f13-c790-4518-9f6a-1fe45b445342","system_id":"levelo_inurba_marseille","lat":43.33737,"lon":5.37465,"is_reserved":false,"is_disabled":true,"rental_uris":{"android":"levelo://app?vid=268f0f13-c790-4518-9f6a-1fe45b445342","ios":"levelo://app?vid=268f0f13-c790-4518-9f6a-1fe45b445342"},"vehicle_type_id":"4","last_reported":1760177324,"current_range_meters":0,"station_id":"","pricing_plan_id":"cebpf4jnsgd1na2vs0mg"},{"bike_id":"844de8fa-b1ed-4b48-bbb0-8ea30f04e6fa","system_id":"levelo_inurba_marseille","lat":43.33755,"lon":5.37468,"is_reserved":false,"is_disabled":false,"rental_uris":{"android":"levelo://app?vid=844de8fa-b1ed-4b48-bbb0-8ea30f04e6fa","ios":"levelo://app?vid=844de8fa-b1ed-4b48-bbb0-8ea30f04e6fa"},"vehicle_type_id":"4","last_reported":1760177324,"current_range_meters":6000,"station_id":"","pricing_plan_id":"cebpf4jnsgd1na2vs0mg"},{"bike_id":"affea08d-2e61-49ad-9018-2db734fe38fb","system_id":"levelo_inurba_marseille","lat":43.337444,"lon":5.374475,"is_reserved":false,"is_disabled":true,"rental_uris":{"android":"levelo://app?vid=affea08d-2e61-49ad-9018-2db734fe38fb","ios":"levelo://app?vid=affea08d-2e61-49ad-9018-2db734fe38fb"},"vehicle_type_id":"4","last_reported":1760177324,"current_range_meters":0,"station_id":"","pricing_plan_id":"cebpf4jnsgd1na2vs0mg"},{"bike_id":"c80be3e3-26c1-4fd2-ab94-730bb8638bdc","system_id":"levelo_inurba_marseille","lat":43.337444,"lon":5.374475,"is_reserved":false,"is_disabled":true,"rental_uris":{"android":"levelo://app?vid=c80be3e3-26c1-4fd2-ab94-730bb8638bdc","ios":"levelo://app?vid=c80be3e3-26c1-4fd2-ab94-730bb8638bdc"},"vehicle_type_id":"4","last_reported":1760177324,"current_range_meters":0,"station_id":"","pricing_plan_id":"cebpf4jnsgd1na2vs0mg"},{"bike_id":"1c560a38-7ef3-4e44-b456-36993b5ca4af","system_id":"levelo_inurba_marseille","lat":43.337444,"lon":5.374475,"is_reserved":false,"is_disabled":true,"rental_uris":{"android":"levelo://app?vid=1c560a38-7ef3-4e44-b456-36993b5ca4af","ios":"levelo://app?vid=1c560a38-7ef3-4e44-b456-36993b5ca4af"},"vehicle_type_id":"4","last_reported":1760177324,"current_range_meters":0,"station_id":"","pricing_plan_id":"cebpf4jnsgd1na2vs0mg"},{"bike_id":"f8726700-64d6-4ff8-acc0-9adfce94dbe9","system_id":"levelo_inurba_marseille","lat":43.27851,"lon":5.38301,"is_reserved":false,"is_disabled":true,"rental_uris":{"android":"levelo://app?vid=f8726700-64d6-4ff8-acc0-9adfce94dbe9","ios":"levelo://app?vid=f8726700-64d6-4ff8-acc0-9adfce94dbe9"},"vehicle_type_id":"4","last_reported":1760177324,"current_range_meters":0,"station_id":"","pricing_plan_id":"cebpf4jnsgd1na2vs0mg"},{"bike_id":"b4e7ef10-af79-4cf8-a207-60ed0a922607","system_id":"levelo_inurba_marseille","lat":43.337444,"lon":5.374475,"is_reserved":false,"is_disabled":true,"rental_uris":{"android":"levelo://app?vid=b4e7ef10-af79-4cf8-a207-60ed0a922607","ios":"levelo://app?vid=b4e7ef10-af79-4cf8-a207-60ed0a922607"},"vehicle_type_id":"4","last_reported":1760177324,"current_range_meters":0,"station_id":"","pricing_plan_id":"cebpf4jnsgd1na2vs0mg"},{"bike_id":"4ccf7a59-029f-457f-b839-dc6f11286326","system_id":"levelo_inurba_marseille","lat":43.317702,"lon":5.422132,"is_reserved":false,"is_disabled":true,"rental_uris":{"android":"levelo://app?vid=4ccf7a59-029f-457f-b839-dc6f11286326","ios":"levelo://app?vid=4ccf7a59-029f-457f-b839-dc6f11286326"},"vehicle_type_id":"4","last_reported":1760177324,"current_range_meters":0,"station_id":"","pricing_plan_id":"cebpf4jnsgd1na2vs0mg"},{"bike_id":"bf0cd1f5-4a2b-4aae-9f11-cde060414574","system_id":"levelo_inurba_marseille","lat":43.2254,"lon":5.34825,"is_reserved":false,"is_disabled":true,"rental_uris":{"android":"levelo://app?vid=bf0cd1f5-4a2b-4aae-9f11-cde060414574","ios":"levelo://app?vid=bf0cd1f5-4a2b-4aae-9f11-cde060414574"},"vehicle_type_id":"4","last_reported":1760177324,"current_range_meters":0,"station_id":"","pricing_plan_id":"cebpf4jnsgd1na2vs0mg"},{"bike_id":"faf21e59-73fe-43ba-965b-23c7230d33c8","system_id":"levelo_inurba_marseille","lat":43.270557,"lon":5.392632,"is_reserved":false,"is_disabled":true,"rental_uris":{"android":"levelo://app?vid=faf21e59-73fe-43ba-965b-23c7230d33c8","ios":"levelo://app?vid=faf21e59-73fe-43ba-965b-23c7230d33c8"},"vehicle_type_id":"4","last_reported":1760177324,"current_range_meters":0,"station_id":"","pricing_plan_id":"cebpf4jnsgd1na2vs0mg"},{"bike_id":"ec39affe-5e48-4259-a225-7a0d248d923e","system_id":"levelo_inurba_marseille","lat":43.29675,"lon":5.3804,"is_reserved":false,"is_disabled":true,"rental_uris":{"android":"levelo://app?vid=ec39affe-5e48-4259-a225-7a0d248d923e","ios":"levelo://app?vid=ec39affe-5e48-4259-a225-7a0d248d923e"},"vehicle_type_id":"4","last_reported":1760177324,"current_range_meters":0,"station_id":"","pricing_plan_id":"cebpf4jnsgd1na2vs0mg"},{"bike_id":"71adf011-375e-40dc-9f02-5f5866d7a20c","system_id":"levelo_inurba_marseille","lat":43.21194,"lon":5.35086,"is_reserved":false,"is_disabled":true,"rental_uris":{"android":"levelo://app?vid=71adf011-375e-40dc-9f02-5f5866d7a20c","ios":"levelo://app?vid=71adf011-375e-40dc-9f02-5f5866d7a20c"},"vehicle_type_id":"4","last_reported":1760177324,"current_range_meters":0,"station_id":"","pricing_plan_id":"cebpf4jnsgd1na2vs0mg"},{"bike_id":"90bee144-32cd-4cdf-922d-2257ff3b894f","system_id":"levelo_inurba_marseille","lat":43.31335,"lon":5.39697,"is_reserved":false,"is_disabled":true,"rental_uris":{"android":"levelo://app?vid=90bee144-32cd-4cdf-922d-2257ff3b894f","ios":"levelo://app?vid=90bee144-32cd-4cdf-922d-2257ff3b894f"},"vehicle_type_id":"4","last_reported":1760177324,"current_range_meters":0,"station_id":"ce4bgvp2rcd13ifvqcu0","pricing_plan_id":"cebpf4jnsgd1na2vs0mg"},{"bike_id":"1e217379-81fc-498c-ab5f-050b06faee8c","system_id":"levelo_inurba_marseille","lat":43.28035,"lon":5.36932,"is_reserved":false,"is_disabled":true,"rental_uris":{"android":"levelo://app?vid=1e217379-81fc-498c-ab5f-050b06faee8c","ios":"levelo://app?vid=1e217379-81fc-498c-ab5f-050b06faee8c"},"vehicle_type_id":"4","last_reported":1760177324,"current_range_meters":0,"station_id":"ce4bha12rcd13ifvqef0","pricing_plan_id":"cebpf4jnsgd1na2vs0mg"},{"bike_id":"c9149361-22cd-4cc2-92b9-d8b1bdc954c6","system_id":"levelo_inurba_marseille","lat":43.28705,"lon":5.39989,"is_reserved":false,"is_disabled":true,"rental_uris":{"android":"levelo://app?vid=c9149361-22cd-4cc2-92b9-d8b1bdc954c6","ios":"levelo://app?vid=c9149361-22cd-4cc2-92b9-d8b1bdc954c6"},"vehicle_type_id":"4","last_reported":1760177324,"current_range_meters":0,"station_id":"ce4bho92rcd13ifvqh3g","pricing_plan_id":"cebpf4jnsgd1na2vs0mg"},{"bike_id":"ae8086aa-5d1f-48e8-86fc-a1ac146adddc","system_id":"levelo_inurba_marseille","lat":43.28727,"lon":5.36101,"is_reserved":false,"is_disabled":true,"rental_uris":{"android":"levelo://app?vid=ae8086aa-5d1f-48e8-86fc-a1ac146adddc","ios":"levelo://app?vid=ae8086aa-5d1f-48e8-86fc-a1ac146adddc"},"vehicle_type_id":"4","last_reported":1760177324,"current_range_meters":0,"station_id":"cki0cbj6b192h4jlfktg","pricing_plan_id":"cebpf4jnsgd1na2vs0mg"},{"bike_id":"86eca012-edfb-4c20-9aef-d37ce3cadbda","system_id":"levelo_inurba_marseille","lat":43.21195,"lon":5.35081,"is_reserved":false,"is_disabled":true,"rental_uris":{"android":"levelo://app?vid=86eca012-edfb-4c20-9aef-d37ce3cadbda","ios":"levelo://app?vid=86eca012-edfb-4c20-9aef-d37ce3cadbda"},"vehicle_type_id":"4","last_reported":1760177324,"current_range_meters":0,"station_id":"st_cvj6sg6p6f1abm77japg","pricing_plan_id":"cebpf4jnsgd1na2vs0mg"},{"bike_id":"5206f34d-5c08-42bd-b24d-21b13734d2e6","system_id":"levelo_inurba_marseille","lat":43.21195,"lon":5.35073,"is_reserved":false,"is_disabled":true,"rental_uris":{"android":"levelo://app?vid=5206f34d-5c08-42bd-b24d-21b13734d2e6","ios":"levelo://app?vid=5206f34d-5c08-42bd-b24d-21b13734d2e6"},"vehicle_type_id":"4","last_reported":1760177324,"current_range_meters":0,"station_id":"st_cvj6sg6p6f1abm77japg","pricing_plan_id":"cebpf4jnsgd1na2vs0mg"},{"bike_id":"4efb65b2-59d2-49c2-bfb7-a38d468bb2dd","system_id":"levelo_inurba_marseille","lat":43.211877,"lon":5.350811,"is_reserved":false,"is_disabled":true,"rental_uris":{"android":"levelo://app?vid=4efb65b2-59d2-49c2-bfb7-a38d468bb2dd","ios":"levelo://app?vid=4efb65b2-59d2-49c2-bfb7-a38d468bb2dd"},"vehicle_type_id":"4","last_reported":1760177324,"current_range_meters":0,"station_id":"st_cvj6sg6p6f1abm77japg","pricing_plan_id":"cebpf4jnsgd1na2vs0mg"},{"bike_id":"5a1f50b1-f1f9-4f02-a3c5-363250f2c45b","system_id":"levelo_inurba_marseille","lat":43.21191,"lon":5.35069,"is_reserved":false,"is_disabled":true,"rental_uris":{"android":"levelo://app?vid=5a1f50b1-f1f9-4f02-a3c5-363250f2c45b","ios":"levelo://app?vid=5a1f50b1-f1f9-4f02-a3c5-363250f2c45b"},"vehicle_type_id":"4","last_reported":1760177324,"current_range_meters":0,"station_id":"st_cvj6sg6p6f1abm77japg","pricing_plan_id":"cebpf4jnsgd1na2vs0mg"},{"bike_id":"c19915a3-9d36-4556-bafe-c7863ff90ad4","system_id":"levelo_inurba_marseille","lat":43.2175,"lon":5.346,"is_reserved":false,"is_disabled":true,"rental_uris":{"android":"levelo://app?vid=c19915a3-9d36-4556-bafe-c7863ff90ad4","ios":"levelo://app?vid=c19915a3-9d36-4556-bafe-c7863ff90ad4"},"vehicle_type_id":"4","last_reported":1760177324,"current_range_meters":400,"station_id":"st_cvj6r9ubvosntc0bgbag","pricing_plan_id":"cebpf4jnsgd1na2vs0mg"},{"bike_id":"31e82333-7af8-4792-a0d3-c53974ed6dee","system_id":"levelo_inurba_marseille","lat":43.28031,"lon":5.36935,"is_reserved":false,"is_disabled":true,"rental_uris":{"android":"levelo://app?vid=31e82333-7af8-4792-a0d3-c53974ed6dee","ios":"levelo://app?vid=31e82333-7af8-4792-a0d3-c53974ed6dee"},"vehicle_type_id":"4","last_reported":1760177324,"current_range_meters":800,"station_id":"ce4bha12rcd13ifvqef0","pricing_plan_id":"cebpf4jnsgd1na2vs0mg"},{"bike_id":"e5dceab8-a433-48c8-a2a3-3db12847b719","system_id":"levelo_inurba_marseille","lat":43.2904,"lon":5.35916,"is_reserved":false,"is_disabled":true,"rental_uris":{"android":"levelo://app?vid=e5dceab8-a433-48c8-a2a3-3db12847b719","ios":"levelo://app?vid=e5dceab8-a433-48c8-a2a3-3db12847b719"},"vehicle_type_id":"4","last_reported":1760177324,"current_range_meters":800,"station_id":"ce4bha92rcd13ifvqeg0","pricing_plan_id":"cebpf4jnsgd1na2vs0mg"},{"bike_id":"5e484363-88b7-4ed8-a2bc-57c9de887653","system_id":"levelo_inurba_marseille","lat":43.24648,"lon":5.38891,"is_reserved":false,"is_disabled":true,"rental_uris":{"android":"levelo://app?vid=5e484363-88b7-4ed8-a2bc-57c9de887653","ios":"levelo://app?vid=5e484363-88b7-4ed8-a2bc-57c9de887653"},"vehicle_type_id":"4","last_reported":1760177324,"current_range_meters":800,"station_id":"ce4bhg12rcd13ifvqf60","pricing_plan_id":"cebpf4jnsgd1na2vs0mg"},{"bike_id":"5c68b6ac-1d4e-4142-8bfc-dcacc09ea511","system_id":"levelo_inurba_marseille","lat":43.27208,"lon":5.3919,"is_reserved":false,"is_disabled":true,"rental_uris":{"android":"levelo://app?vid=5c68b6ac-1d4e-4142-8bfc-dcacc09ea511","ios":"levelo://app?vid=5c68b6ac-1d4e-4142-8bfc-dcacc09ea511"},"vehicle_type_id":"4","last_reported":1760177324,"current_range_meters":800,"station_id":"ce4bhhp2rcd13ifvqfm0","pricing_plan_id":"cebpf4jnsgd1na2vs0mg"},{"bike_id":"4603d2b3-0387-40ff-adec-6330c74af0d1","system_id":"levelo_inurba_marseille","lat":43.28324,"lon":5.38102,"is_reserved":false,"is_disabled":true,"rental_uris":{"android":"levelo://app?vid=4603d2b3-0387-40ff-adec-6330c74af0d1","ios":"levelo://app?vid=4603d2b3-0387-40ff-adec-6330c74af0d1"},"vehicle_type_id":"4","last_reported":1760177324,"current_range_meters":1200,"station_id":"ce4bh412rcd13ifvqdr0","pricing_plan_id":"cebpf4jnsgd1na2vs0mg"},{"bike_id":"b2e2b38d-36f4-4e15-986e-723132819a60","system_id":"levelo_inurba_marseille","lat":43.30824,"lon":5.43523,"is_reserved":false,"is_disabled":true,"rental_uris":{"android":"levelo://app?vid=b2e2b38d-36f4-4e15-986e-723132819a60","ios":"levelo://app?vid=b2e2b38d-36f4-4e15-986e-723132819a60"},"vehicle_type_id":"4","last_reported":1760177324,"current_range_meters":1200,"station_id":"ce4bhph2rcd13ifvqheg","pricing_plan_id":"cebpf4jnsgd1na2vs0mg"},{"bike_id":"133d7506-6317-4410-9fd4-a13902f83db9","system_id":"levelo_inurba_marseille","lat":43.21749,"lon":5.346,"is_reserved":false,"is_disabled":true,"rental_uris":{"android":"levelo://app?vid=133d7506-6317-4410-9fd4-a13902f83db9","ios":"levelo://app?vid=133d7506-6317-4410-9fd4-a13902f83db9"},"vehicle_type_id":"4","last_reported":1760177324,"current_range_meters":1200,"station_id":"st_cvj6r9ubvosntc0bgbag","pricing_plan_id":"cebpf4jnsgd1na2vs0mg"},{"bike_id":"79e72f8b-a1bd-4b6b-a803-078a6d3d48c7","system_id":"levelo_inurba_marseille","lat":43.28615,"lon":5.35108,"is_reserved":false,"is_disabled":true,"rental_uris":{"android":"levelo://app?vid=79e72f8b-a1bd-4b6b-a803-078a6d3d48c7","ios":"levelo://app?vid=79e72f8b-a1bd-4b6b-a803-078a6d3d48c7"},"vehicle_type_id":"4","last_reported":1760177324,"current_range_meters":1600,"station_id":"ce4bhch2rcd13ifvqeug","pricing_plan_id":"cebpf4jnsgd1na2vs0mg"},{"bike_id":"bc3f26e6-e751-4b6b-963c-dde1fcea9387","system_id":"levelo_inurba_marseille","lat":43.2983,"lon":5.36304,"is_reserved":false,"is_disabled":true,"rental_uris":{"android":"levelo://app?vid=bc3f26e6-e751-4b6b-963c-dde1fcea9387","ios":"levelo://app?vid=bc3f26e6-e751-4b6b-963c-dde1fcea9387"},"vehicle_type_id":"4","last_reported":1760177324,"current_range_meters":2000,"station_id":"ce4bgpp2rcd13ifvqc3g","pricing_plan_id":"cebpf4jnsgd1na2vs0mg"},{"bike_id":"2b602c09-1ed8-47c0-a190-08a0fc86914f","system_id":"levelo_inurba_marseille","lat":43.27595,"lon":5.36132,"is_reserved":false,"is_disabled":false,"rental_uris":{"android":"levelo://app?vid=2b602c09-1ed8-47c0-a190-08a0fc86914f","ios":"levelo://app?vid=2b602c09-1ed8-47c0-a190-08a0fc86914f"},"vehicle_type_id":"4","last_reported":1760177324,"current_range_meters":2800,"station_id":"ce4bgj92rcd13ifvqbe0","pricing_plan_id":"cebpf4jnsgd1na2vs0mg"},{"bike_id":"70e666ad-a05d-423e-9d19-af9ca84fb759","system_id":"levelo_inurba_marseille","lat":43.290333,"lon":5.375628,"is_reserved":false,"is_disabled":false,"rental_uris":{"android":"levelo://app?vid=70e666ad-a05d-423e-9d19-af9ca84fb759","ios":"levelo://app?vid=70e666ad-a05d-423e-9d19-af9ca84fb759"},"vehicle_type_id":"4","last_reported":1760177324,"current_range_meters":2800,"station_id":"ce4bh692rcd13ifvqe90","pricing_plan_id":"cebpf4jnsgd1na2vs0mg"},{"bike_id":"f6830330-9e2c-4c37-925e-9744d378a523","system_id":"levelo_inurba_marseille","lat":43.266785,"lon":5.382752,"is_reserved":false,"is_disabled":false,"rental_uris":{"android":"levelo://app?vid=f6830330-9e2c-4c37-925e-9744d378a523","ios":"levelo://app?vid=f6830330-9e2c-4c37-925e-9744d378a523"},"vehicle_type_id":"4","last_reported":1760177324,"current_range_meters":3200,"station_id":"ce4bhg92rcd13ifvqf90","pricing_plan_id":"cebpf4jnsgd1na2vs0mg"},{"bike_id":"3f471e1f-b45b-4895-87e8-d6b9df44974a","system_id":"levelo_inurba_marseille","lat":43.29525,"lon":5.39401,"is_reserved":false,"is_disabled":true,"rental_uris":{"android":"levelo://app?vid=3f471e1f-b45b-4895-87e8-d6b9df44974a","ios":"levelo://app?vid=3f471e1f-b45b-4895-87e8-d6b9df44974a"},"vehicle_type_id":"4","last_reported":1760177324,"current_range_meters":3600,"station_id":"","pricing_plan_id":"cebpf4jnsgd1na2vs0mg"},{"bike_id":"f7c4150b-6132-4e0b-a924-9527a9a3c38d","system_id":"levelo_inurba_marseille","lat":43.314895,"lon":5.373027,"is_reserved":false,"is_disabled":false,"rental_uris":{"android":"levelo://app?vid=f7c4150b-6132-4e0b-a924-9527a9a3c38d","ios":"levelo://app?vid=f7c4150b-6132-4e0b-a924-9527a9a3c38d"},"vehicle_type_id":"4","last_reported":1760177324,"current_range_meters":3600,"station_id":"ce4bgt12rcd13ifvqcd0","pricing_plan_id":"cebpf4jnsgd1na2vs0mg"},{"bike_id":"e3ac0afe-461e-44d6-95dc-7194ea521b11","system_id":"levelo_inurba_marseille","lat":43.212,"lon":5.35076,"is_reserved":false,"is_disabled":false,"rental_uris":{"android":"levelo://app?vid=e3ac0afe-461e-44d6-95dc-7194ea521b11","ios":"levelo://app?vid=e3ac0afe-461e-44d6-95dc-7194ea521b11"},"vehicle_type_id":"4","last_reported":1760177324,"current_range_meters":4400,"station_id":"","pricing_plan_id":"cebpf4jnsgd1na2vs0mg"},{"bike_id":"8dc0c13a-1042-4c67-b7b2-fb8ee98dc388","system_id":"levelo_inurba_marseille","lat":43.21751,"lon":5.34596,"is_reserved":false,"is_disabled":false,"rental_uris":{"android":"levelo://app?vid=8dc0c13a-1042-4c67-b7b2-fb8ee98dc388","ios":"levelo://app?vid=8dc0c13a-1042-4c67-b7b2-fb8ee98dc388"},"vehicle_type_id":"4","last_reported":1760177324,"current_range_meters":4400,"station_id":"st_cvj6r9ubvosntc0bgbag","pricing_plan_id":"cebpf4jnsgd1na2vs0mg"},{"bike_id":"1508e37c-ddee-4fca-a836-8777a02263a4","system_id":"levelo_inurba_marseille","lat":43.297229,"lon":5.380115,"is_reserved":false,"is_disabled":false,"rental_uris":{"android":"levelo://app?vid=1508e37c-ddee-4fca-a836-8777a02263a4","ios":"levelo://app?vid=1508e37c-ddee-4fca-a836-8777a02263a4"},"vehicle_type_id":"4","last_reported":1760177324,"current_range_meters":4800,"station_id":"","pricing_plan_id":"cebpf4jnsgd1na2vs0mg"},{"bike_id":"7bdc5d29-b04d-4ba5-b430-0dd8aa3a783a","system_id":"levelo_inurba_marseille","lat":43.29935,"lon":5.36552,"is_reserved":false,"is_disabled":false,"rental_uris":{"android":"levelo://app?vid=7bdc5d29-b04d-4ba5-b430-0dd8aa3a783a","ios":"levelo://app?vid=7bdc5d29-b04d-4ba5-b430-0dd8aa3a783a"},"vehicle_type_id":"4","last_reported":1760177324,"current_range_meters":4800,"station_id":"ce4bgm92rcd13ifvqbr0","pricing_plan_id":"cebpf4jnsgd1na2vs0mg"},{"bike_id":"afe56640-b781-4d0b-a3da-623bfa667eb9","system_id":"levelo_inurba_marseille","lat":43.26572,"lon":5.39002,"is_reserved":false,"is_disabled":false,"rental_uris":{"android":"levelo://app?vid=afe56640-b781-4d0b-a3da-623bfa667eb9","ios":"levelo://app?vid=afe56640-b781-4d0b-a3da-623bfa667eb9"},"vehicle_type_id":"4","last_reported":1760177324,"current_range_meters":4800,"station_id":"ce4bhe12rcd13ifvqf30","pricing_plan_id":"cebpf4jnsgd1na2vs0mg"},{"bike_id":"4a4f79e9-e6fe-4ea6-84a3-ec9601065161","system_id":"levelo_inurba_marseille","lat":43.23152,"lon":5.43696,"is_reserved":false,"is_disabled":false,"rental_uris":{"android":"levelo://app?vid=4a4f79e9-e6fe-4ea6-84a3-ec9601065161","ios":"levelo://app?vid=4a4f79e9-e6fe-4ea6-84a3-ec9601065161"},"vehicle_type_id":"4","last_reported":1760177324,"current_range_meters":6000,"station_id":"ce4bhmp2rcd13ifvqgog","pricing_plan_id":"cebpf4jnsgd1na2vs0mg"},{"bike_id":"7a3dbc10-c5dd-4c4d-a031-83f4d66ccc0d","system_id":"levelo_inurba_marseille","lat":43.27942,"lon":5.41043,"is_reserved":false,"is_disabled":false,"rental_uris":{"android":"levelo://app?vid=7a3dbc10-c5dd-4c4d-a031-83f4d66ccc0d","ios":"levelo://app?vid=7a3dbc10-c5dd-4c4d-a031-83f4d66ccc0d"},"vehicle_type_id":"4","last_reported":1760177324,"current_range_meters":6000,"station_id":"ce4bhnp2rcd13ifvqh0g","pricing_plan_id":"cebpf4jnsgd1na2vs0mg"},{"bike_id":"8b85e1cf-eb77-4f11-ad64-05babd7b1211","system_id":"levelo_inurba_marseille","lat":43.3014,"lon":5.38066,"is_reserved":false,"is_disabled":false,"rental_uris":{"android":"levelo://app?vid=8b85e1cf-eb77-4f11-ad64-05babd7b1211","ios":"levelo://app?vid=8b85e1cf-eb77-4f11-ad64-05babd7b1211"},"vehicle_type_id":"4","last_reported":1760177324,"current_range_meters":6400,"station_id":"ce4bgjp2rcd13ifvqbh0","pricing_plan_id":"cebpf4jnsgd1na2vs0mg"},{"bike_id":"6eef4957-b82f-4f82-bcdb-1c61b2f66ab6","system_id":"levelo_inurba_marseille","lat":43.311548,"lon":5.386821,"is_reserved":false,"is_disabled":false,"rental_uris":{"android":"levelo://app?vid=6eef4957-b82f-4f82-bcdb-1c61b2f66ab6","ios":"levelo://app?vid=6eef4957-b82f-4f82-bcdb-1c61b2f66ab6"},"vehicle_type_id":"4","last_reported":1760177324,"current_range_meters":6400,"station_id":"ce4bgv12rcd13ifvqcp0","pricing_plan_id":"cebpf4jnsgd1na2vs0mg"},{"bike_id":"f948d9ae-5ac9-4938-9cef-d82ad5666b76","system_id":"levelo_inurba_marseille","lat":43.27312,"lon":5.39084,"is_reserved":false,"is_disabled":false,"rental_uris":{"android":"levelo://app?vid=f948d9ae-5ac9-4938-9cef-d82ad5666b76","ios":"levelo://app?vid=f948d9ae-5ac9-4938-9cef-d82ad5666b76"},"vehicle_type_id":"4","last_reported":1760177324,"current_range_meters":6400,"station_id":"ce4bhgp2rcd13ifvqfe0","pricing_plan_id":"cebpf4jnsgd1na2vs0mg"},{"bike_id":"455c7637-9ee9-4060-ba9d-4b958ce26f8c","system_id":"levelo_inurba_marseille","lat":43.25591,"lon":5.38264,"is_reserved":false,"is_disabled":false,"rental_uris":{"android":"levelo://app?vid=455c7637-9ee9-4060-ba9d-4b958ce26f8c","ios":"levelo://app?vid=455c7637-9ee9-4060-ba9d-4b958ce26f8c"},"vehicle_type_id":"4","last_reported":1760177324,"current_range_meters":6400,"station_id":"ce4bhih2rcd13ifvqfs0","pricing_plan_id":"cebpf4jnsgd1na2vs0mg"},{"bike_id":"86614fca-5043-4b5f-b930-9b129eba83d8","system_id":"levelo_inurba_marseille","lat":43.24164,"lon":5.36396,"is_reserved":false,"is_disabled":false,"rental_uris":{"android":"levelo://app?vid=86614fca-5043-4b5f-b930-9b129eba83d8","ios":"levelo://app?vid=86614fca-5043-4b5f-b930-9b129eba83d8"},"vehicle_type_id":"4","last_reported":1760177324,"current_range_meters":6400,"station_id":"cpo36qri1sfpv3e86is0","pricing_plan_id":"cebpf4jnsgd1na2vs0mg"},{"bike_id":"bb9f3c9d-e7e8-44a8-858c-db0402947548","system_id":"levelo_inurba_marseille","lat":43.30335,"lon":5.4043,"is_reserved":false,"is_disabled":false,"rental_uris":{"android":"levelo://app?vid=bb9f3c9d-e7e8-44a8-858c-db0402947548","ios":"levelo://app?vid=bb9f3c9d-e7e8-44a8-858c-db0402947548"},"vehicle_type_id":"4","last_reported":1760177324,"current_range_meters":6800,"station_id":"ce4bh012rcd13ifvqd10","pricing_plan_id":"cebpf4jnsgd1na2vs0mg"},{"bike_id":"a5f2def1-e22a-4d3b-8f41-bfcd04df5af1","system_id":"levelo_inurba_marseille","lat":43.30644,"lon":5.40094,"is_reserved":false,"is_disabled":false,"rental_uris":{"android":"levelo://app?vid=a5f2def1-e22a-4d3b-8f41-bfcd04df5af1","ios":"levelo://app?vid=a5f2def1-e22a-4d3b-8f41-bfcd04df5af1"},"vehicle_type_id":"4","last_reported":1760177324,"current_range_meters":6800,"station_id":"ce4bh112rcd13ifvqda0","pricing_plan_id":"cebpf4jnsgd1na2vs0mg"},{"bike_id":"2634e06a-f7c4-4298-adba-c3976c82e418","system_id":"levelo_inurba_marseille","lat":43.28617,"lon":5.35103,"is_reserved":false,"is_disabled":false,"rental_uris":{"android":"levelo://app?vid=2634e06a-f7c4-4298-adba-c3976c82e418","ios":"levelo://app?vid=2634e06a-f7c4-4298-adba-c3976c82e418"},"vehicle_type_id":"4","last_reported":1760177324,"current_range_meters":6800,"station_id":"ce4bhch2rcd13ifvqeug","pricing_plan_id":"cebpf4jnsgd1na2vs0mg"},{"bike_id":"f92716c4-7d61-4a44-a003-4f53ce5444b2","system_id":"levelo_inurba_marseille","lat":43.24805,"lon":5.37452,"is_reserved":false,"is_disabled":false,"rental_uris":{"android":"levelo://app?vid=f92716c4-7d61-4a44-a003-4f53ce5444b2","ios":"levelo://app?vid=f92716c4-7d61-4a44-a003-4f53ce5444b2"},"vehicle_type_id":"4","last_reported":1760177324,"current_range_meters":6800,"station_id":"ce4bhgh2rcd13ifvqfb0","pricing_plan_id":"cebpf4jnsgd1na2vs0mg"},{"bike_id":"0587ff47-1929-4ca8-b71d-cc6552945df3","system_id":"levelo_inurba_marseille","lat":43.27059,"lon":5.40255,"is_reserved":false,"is_disabled":false,"rental_uris":{"android":"levelo://app?vid=0587ff47-1929-4ca8-b71d-cc6552945df3","ios":"levelo://app?vid=0587ff47-1929-4ca8-b71d-cc6552945df3"},"vehicle_type_id":"4","last_reported":1760177324,"current_range_meters":6800,"station_id":"ce4bhk92rcd13ifvqgc0","pricing_plan_id":"cebpf4jnsgd1na2vs0mg"},{"bike_id":"2bc038b1-519b-42b1-9bd4-7d2b97044996","system_id":"levelo_inurba_marseille","lat":43.29284,"lon":5.41053,"is_reserved":false,"is_disabled":false,"rental_uris":{"android":"levelo://app?vid=2bc038b1-519b-42b1-9bd4-7d2b97044996","ios":"levelo://app?vid=2bc038b1-519b-42b1-9bd4-7d2b97044996"},"vehicle_type_id":"4","last_reported":1760177324,"current_range_meters":7200,"station_id":"","pricing_plan_id":"cebpf4jnsgd1na2vs0mg"},{"bike_id":"a64181ce-0179-4007-b1b3-81ccff924198","system_id":"levelo_inurba_marseille","lat":43.30597,"lon":5.37221,"is_reserved":false,"is_disabled":false,"rental_uris":{"android":"levelo://app?vid=a64181ce-0179-4007-b1b3-81ccff924198","ios":"levelo://app?vid=a64181ce-0179-4007-b1b3-81ccff924198"},"vehicle_type_id":"4","last_reported":1760177324,"current_range_meters":7200,"station_id":"ce4bgqh2rcd13ifvqc4g","pricing_plan_id":"cebpf4jnsgd1na2vs0mg"},{"bike_id":"7683ef9c-c229-4109-bcaf-40d4816d671f","system_id":"levelo_inurba_marseille","lat":43.28615,"lon":5.35109,"is_reserved":false,"is_disabled":false,"rental_uris":{"android":"levelo://app?vid=7683ef9c-c229-4109-bcaf-40d4816d671f","ios":"levelo://app?vid=7683ef9c-c229-4109-bcaf-40d4816d671f"},"vehicle_type_id":"4","last_reported":1760177324,"current_range_meters":7200,"station_id":"ce4bhch2rcd13ifvqeug","pricing_plan_id":"cebpf4jnsgd1na2vs0mg"},{"bike_id":"7518734e-77cc-49eb-8dc1-574f8afa2287","system_id":"levelo_inurba_marseille","lat":43.29263,"lon":5.38441,"is_reserved":false,"is_disabled":false,"rental_uris":{"android":"levelo://app?vid=7518734e-77cc-49eb-8dc1-574f8afa2287","ios":"levelo://app?vid=7518734e-77cc-49eb-8dc1-574f8afa2287"},"vehicle_type_id":"4","last_reported":1760177324,"current_range_meters":8000,"station_id":"","pricing_plan_id":"cebpf4jnsgd1na2vs0mg"},{"bike_id":"01d49f3e-e77c-4089-9420-6cd93b2045d7","system_id":"levelo_inurba_marseille","lat":43.29527,"lon":5.37503,"is_reserved":false,"is_disabled":false,"rental_uris":{"android":"levelo://app?vid=01d49f3e-e77c-4089-9420-6cd93b2045d7","ios":"levelo://app?vid=01d49f3e-e77c-4089-9420-6cd93b2045d7"},"vehicle_type_id":"4","last_reported":1760177324,"current_range_meters":8000,"station_id":"ce4bgkp2rcd13ifvqbmg","pricing_plan_id":"cebpf4jnsgd1na2vs0mg"},{"bike_id":"1b7b0408-cb06-4d32-98e8-d5a1b82604a4","system_id":"levelo_inurba_marseille","lat":43.313571,"lon":5.384916,"is_reserved":false,"is_disabled":false,"rental_uris":{"android":"levelo://app?vid=1b7b0408-cb06-4d32-98e8-d5a1b82604a4","ios":"levelo://app?vid=1b7b0408-cb06-4d32-98e8-d5a1b82604a4"},"vehicle_type_id":"4","last_reported":1760177324,"current_range_meters":8000,"station_id":"ce4bgt92rcd13ifvqcf0","pricing_plan_id":"cebpf4jnsgd1na2vs0mg"},{"bike_id":"3b0ae4c4-f4b1-4f89-9faf-5e4f8f73338e","system_id":"levelo_inurba_marseille","lat":43.29003,"lon":5.35601,"is_reserved":false,"is_disabled":false,"rental_uris":{"android":"levelo://app?vid=3b0ae4c4-f4b1-4f89-9faf-5e4f8f73338e","ios":"levelo://app?vid=3b0ae4c4-f4b1-4f89-9faf-5e4f8f73338e"},"vehicle_type_id":"4","last_reported":1760177324,"current_range_meters":8000,"station_id":"ce4bhb92rcd13ifvqen0","pricing_plan_id":"cebpf4jnsgd1na2vs0mg"},{"bike_id":"a0751e22-b05e-4f86-8571-0bd1d0cb6aca","system_id":"levelo_inurba_marseille","lat":43.22565,"lon":5.41623,"is_reserved":false,"is_disabled":false,"rental_uris":{"android":"levelo://app?vid=a0751e22-b05e-4f86-8571-0bd1d0cb6aca","ios":"levelo://app?vid=a0751e22-b05e-4f86-8571-0bd1d0cb6aca"},"vehicle_type_id":"4","last_reported":1760177324,"current_range_meters":8000,"station_id":"st_d2o4gvlbi1j2169b742g","pricing_plan_id":"cebpf4jnsgd1na2vs0mg"},{"bike_id":"e9e42d2d-7e53-4efc-b575-031b106766c7","system_id":"levelo_inurba_marseille","lat":43.297386,"lon":5.36875,"is_reserved":false,"is_disabled":false,"rental_uris":{"android":"levelo://app?vid=e9e42d2d-7e53-4efc-b575-031b106766c7","ios":"levelo://app?vid=e9e42d2d-7e53-4efc-b575-031b106766c7"},"vehicle_type_id":"4","last_reported":1760177324,"current_range_meters":8400,"station_id":"","pricing_plan_id":"cebpf4jnsgd1na2vs0mg"},{"bike_id":"3385c05b-cb21-460f-989c-77433695c199","system_id":"levelo_inurba_marseille","lat":43.295311,"lon":5.375131,"is_reserved":false,"is_disabled":false,"rental_uris":{"android":"levelo://app?vid=3385c05b-cb21-460f-989c-77433695c199","ios":"levelo://app?vid=3385c05b-cb21-460f-989c-77433695c199"},"vehicle_type_id":"4","last_reported":1760177324,"current_range_meters":8400,"station_id":"ce4bgkp2rcd13ifvqbmg","pricing_plan_id":"cebpf4jnsgd1na2vs0mg"},{"bike_id":"fcc7ac51-7c13-4f9e-9b92-ab85483d8dbb","system_id":"levelo_inurba_marseille","lat":43.30884,"lon":5.39634,"is_reserved":false,"is_disabled":false,"rental_uris":{"android":"levelo://app?vid=fcc7ac51-7c13-4f9e-9b92-ab85483d8dbb","ios":"levelo://app?vid=fcc7ac51-7c13-4f9e-9b92-ab85483d8dbb"},"vehicle_type_id":"4","last_reported":1760177324,"current_range_meters":8400,"station_id":"ce4bh012rcd13ifvqcv0","pricing_plan_id":"cebpf4jnsgd1na2vs0mg"},{"bike_id":"ab39e7be-c709-417b-8585-a40c41c27372","system_id":"levelo_inurba_marseille","lat":43.22569,"lon":5.41645,"is_reserved":false,"is_disabled":false,"rental_uris":{"android":"levelo://app?vid=ab39e7be-c709-417b-8585-a40c41c27372","ios":"levelo://app?vid=ab39e7be-c709-417b-8585-a40c41c27372"},"vehicle_type_id":"4","last_reported":1760177324,"current_range_meters":8400,"station_id":"st_d2o4gvlbi1j2169b742g","pricing_plan_id":"cebpf4jnsgd1na2vs0mg"},{"bike_id":"6fcc7c8b-12c4-463d-9184-09762074cfde","system_id":"levelo_inurba_marseille","lat":43.26563,"lon":5.39015,"is_reserved":false,"is_disabled":false,"rental_uris":{"android":"levelo://app?vid=6fcc7c8b-12c4-463d-9184-09762074cfde","ios":"levelo://app?vid=6fcc7c8b-12c4-463d-9184-09762074cfde"},"vehicle_type_id":"4","last_reported":1760177324,"current_range_meters":8800,"station_id":"ce4bhe12rcd13ifvqf30","pricing_plan_id":"cebpf4jnsgd1na2vs0mg"},{"bike_id":"53e64b86-ff11-4cf4-9d58-0b5145342394","system_id":"levelo_inurba_marseille","lat":43.2706,"lon":5.40256,"is_reserved":false,"is_disabled":false,"rental_uris":{"android":"levelo://app?vid=53e64b86-ff11-4cf4-9d58-0b5145342394","ios":"levelo://app?vid=53e64b86-ff11-4cf4-9d58-0b5145342394"},"vehicle_type_id":"4","last_reported":1760177324,"current_range_meters":8800,"station_id":"ce4bhk92rcd13ifvqgc0","pricing_plan_id":"cebpf4jnsgd1na2vs0mg"},{"bike_id":"3b652a21-de5e-4660-9a1a-ba8c3c4363d7","system_id":"levelo_inurba_marseille","lat":43.279438,"lon":5.410551,"is_reserved":false,"is_disabled":false,"rental_uris":{"android":"levelo://app?vid=3b652a21-de5e-4660-9a1a-ba8c3c4363d7","ios":"levelo://app?vid=3b652a21-de5e-4660-9a1a-ba8c3c4363d7"},"vehicle_type_id":"4","last_reported":1760177324,"current_range_meters":8800,"station_id":"ce4bhnp2rcd13ifvqh0g","pricing_plan_id":"cebpf4jnsgd1na2vs0mg"},{"bike_id":"7ecce9b3-6d8a-4b46-9e3e-06d9c28c905f","system_id":"levelo_inurba_marseille","lat":43.28905,"lon":5.3908,"is_reserved":false,"is_disabled":false,"rental_uris":{"android":"levelo://app?vid=7ecce9b3-6d8a-4b46-9e3e-06d9c28c905f","ios":"levelo://app?vid=7ecce9b3-6d8a-4b46-9e3e-06d9c28c905f"},"vehicle_type_id":"4","last_reported":1760177324,"current_range_meters":9200,"station_id":"","pricing_plan_id":"cebpf4jnsgd1na2vs0mg"},{"bike_id":"e69857b2-722c-4d3e-ba60-818b5ac8a550","system_id":"levelo_inurba_marseille","lat":43.22529,"lon":5.34833,"is_reserved":false,"is_disabled":false,"rental_uris":{"android":"levelo://app?vid=e69857b2-722c-4d3e-ba60-818b5ac8a550","ios":"levelo://app?vid=e69857b2-722c-4d3e-ba60-818b5ac8a550"},"vehicle_type_id":"4","last_reported":1760177324,"current_range_meters":9200,"station_id":"","pricing_plan_id":"cebpf4jnsgd1na2vs0mg"},{"bike_id":"50f295f0-037b-4ef7-b1c3-60a6de7204ab","system_id":"levelo_inurba_marseille","lat":43.29632,"lon":5.40585,"is_reserved":false,"is_disabled":false,"rental_uris":{"android":"levelo://app?vid=50f295f0-037b-4ef7-b1c3-60a6de7204ab","ios":"levelo://app?vid=50f295f0-037b-4ef7-b1c3-60a6de7204ab"},"vehicle_type_id":"4","last_reported":1760177324,"current_range_meters":9200,"station_id":"ce4bh0h2rcd13ifvqd60","pricing_plan_id":"cebpf4jnsgd1na2vs0mg"},{"bike_id":"3b053d84-22eb-44ce-a0d4-092dde8b110a","system_id":"levelo_inurba_marseille","lat":43.24167,"lon":5.36394,"is_reserved":false,"is_disabled":false,"rental_uris":{"android":"levelo://app?vid=3b053d84-22eb-44ce-a0d4-092dde8b110a","ios":"levelo://app?vid=3b053d84-22eb-44ce-a0d4-092dde8b110a"},"vehicle_type_id":"4","last_reported":1760177324,"current_range_meters":9200,"station_id":"cpo36qri1sfpv3e86is0","pricing_plan_id":"cebpf4jnsgd1na2vs0mg"},{"bike_id":"65de34ce-6450-4e56-a6fe-251627e07b88","system_id":"levelo_inurba_marseille","lat":43.21755,"lon":5.34597,"is_reserved":false,"is_disabled":false,"rental_uris":{"android":"levelo://app?vid=65de34ce-6450-4e56-a6fe-251627e07b88","ios":"levelo://app?vid=65de34ce-6450-4e56-a6fe-251627e07b88"},"vehicle_type_id":"4","last_reported":1760177324,"current_range_meters":9200,"station_id":"st_cvj6r9ubvosntc0bgbag","pricing_plan_id":"cebpf4jnsgd1na2vs0mg"},{"bike_id":"0458f03b-1910-440f-9167-c00670fba699","system_id":"levelo_inurba_marseille","lat":43.337444,"lon":5.374475,"is_reserved":false,"is_disabled":false,"rental_uris":{"android":"levelo://app?vid=0458f03b-1910-440f-9167-c00670fba699","ios":"levelo://app?vid=0458f03b-1910-440f-9167-c00670fba699"},"vehicle_type_id":"4","last_reported":1760177324,"current_range_meters":9600,"station_id":"","pricing_plan_id":"cebpf4jnsgd1na2vs0mg"},{"bike_id":"840f5367-4a8b-4bf8-aed3-ddf295d75be0","system_id":"levelo_inurba_marseille","lat":43.30428,"lon":5.371896,"is_reserved":false,"is_disabled":false,"rental_uris":{"android":"levelo://app?vid=840f5367-4a8b-4bf8-aed3-ddf295d75be0","ios":"levelo://app?vid=840f5367-4a8b-4bf8-aed3-ddf295d75be0"},"vehicle_type_id":"4","last_reported":1760177324,"current_range_meters":9600,"station_id":"","pricing_plan_id":"cebpf4jnsgd1na2vs0mg"},{"bike_id":"d6032215-f901-428d-bf03-754985ab01a8","system_id":"levelo_inurba_marseille","lat":43.30185,"lon":5.36613,"is_reserved":false,"is_disabled":false,"rental_uris":{"android":"levelo://app?vid=d6032215-f901-428d-bf03-754985ab01a8","ios":"levelo://app?vid=d6032215-f901-428d-bf03-754985ab01a8"},"vehicle_type_id":"4","last_reported":1760177324,"current_range_meters":9600,"station_id":"ce4bgrh2rcd13ifvqc8g","pricing_plan_id":"cebpf4jnsgd1na2vs0mg"},{"bike_id":"e78c2604-e21f-422f-b80a-2add4d62e5bd","system_id":"levelo_inurba_marseille","lat":43.32877,"lon":5.38132,"is_reserved":false,"is_disabled":false,"rental_uris":{"android":"levelo://app?vid=e78c2604-e21f-422f-b80a-2add4d62e5bd","ios":"levelo://app?vid=e78c2604-e21f-422f-b80a-2add4d62e5bd"},"vehicle_type_id":"4","last_reported":1760177324,"current_range_meters":10000,"station_id":"","pricing_plan_id":"cebpf4jnsgd1na2vs0mg"},{"bike_id":"45736acf-bb94-4ef8-9cc3-de4a19963a36","system_id":"levelo_inurba_marseille","lat":43.225311,"lon":5.348347,"is_reserved":false,"is_disabled":false,"rental_uris":{"android":"levelo://app?vid=45736acf-bb94-4ef8-9cc3-de4a19963a36","ios":"levelo://app?vid=45736acf-bb94-4ef8-9cc3-de4a19963a36"},"vehicle_type_id":"4","last_reported":1760177324,"current_range_meters":10000,"station_id":"","pricing_plan_id":"cebpf4jnsgd1na2vs0mg"},{"bike_id":"d1bf98ef-f1b6-4472-b394-1a08568f7bb2","system_id":"levelo_inurba_marseille","lat":43.295417,"lon":5.374652,"is_reserved":false,"is_disabled":false,"rental_uris":{"android":"levelo://app?vid=d1bf98ef-f1b6-4472-b394-1a08568f7bb2","ios":"levelo://app?vid=d1bf98ef-f1b6-4472-b394-1a08568f7bb2"},"vehicle_type_id":"4","last_reported":1760177324,"current_range_meters":10000,"station_id":"","pricing_plan_id":"cebpf4jnsgd1na2vs0mg"},{"bike_id":"2d553498-0db7-4121-9ba7-a45229240d19","system_id":"levelo_inurba_marseille","lat":43.295226,"lon":5.39038,"is_reserved":false,"is_disabled":false,"rental_uris":{"android":"levelo://app?vid=2d553498-0db7-4121-9ba7-a45229240d19","ios":"levelo://app?vid=2d553498-0db7-4121-9ba7-a45229240d19"},"vehicle_type_id":"4","last_reported":1760177324,"current_range_meters":10000,"station_id":"ce4bh3p2rcd13ifvqdp0","pricing_plan_id":"cebpf4jnsgd1na2vs0mg"},{"bike_id":"b06aa8fc-fd54-4f80-bbc6-c3a979bb6336","system_id":"levelo_inurba_marseille","lat":43.29227,"lon":5.36059,"is_reserved":false,"is_disabled":false,"rental_uris":{"android":"levelo://app?vid=b06aa8fc-fd54-4f80-bbc6-c3a979bb6336","ios":"levelo://app?vid=b06aa8fc-fd54-4f80-bbc6-c3a979bb6336"},"vehicle_type_id":"4","last_reported":1760177324,"current_range_meters":10000,"station_id":"ce4bhbh2rcd13ifvqeqg","pricing_plan_id":"cebpf4jnsgd1na2vs0mg"},{"bike_id":"9bdee072-0fb2-4d87-8e3d-17c391759767","system_id":"levelo_inurba_marseille","lat":43.28615,"lon":5.35101,"is_reserved":false,"is_disabled":false,"rental_uris":{"android":"levelo://app?vid=9bdee072-0fb2-4d87-8e3d-17c391759767","ios":"levelo://app?vid=9bdee072-0fb2-4d87-8e3d-17c391759767"},"vehicle_type_id":"4","last_reported":1760177324,"current_range_meters":10000,"station_id":"ce4bhch2rcd13ifvqeug","pricing_plan_id":"cebpf4jnsgd1na2vs0mg"},{"bike_id":"226f9861-d66c-4c69-b23f-48aa5532ae82","system_id":"levelo_inurba_marseille","lat":43.28159,"lon":5.42637,"is_reserved":false,"is_disabled":false,"rental_uris":{"android":"levelo://app?vid=226f9861-d66c-4c69-b23f-48aa5532ae82","ios":"levelo://app?vid=226f9861-d66c-4c69-b23f-48aa5532ae82"},"vehicle_type_id":"4","last_reported":1760177324,"current_range_meters":10000,"station_id":"ce4bhnh2rcd13ifvqgug","pricing_plan_id":"cebpf4jnsgd1na2vs0mg"},{"bike_id":"0441e376-2474-4e63-8e92-4ac8940765be","system_id":"levelo_inurba_marseille","lat":43.2175,"lon":5.34599,"is_reserved":false,"is_disabled":false,"rental_uris":{"android":"levelo://app?vid=0441e376-2474-4e63-8e92-4ac8940765be","ios":"levelo://app?vid=0441e376-2474-4e63-8e92-4ac8940765be"},"vehicle_type_id":"4","last_reported":1760177324,"current_range_meters":10000,"station_id":"st_cvj6r9ubvosntc0bgbag","pricing_plan_id":"cebpf4jnsgd1na2vs0mg"},{"bike_id":"f058d08f-6668-4239-ac87-ad43c9779c67","system_id":"levelo_inurba_marseille","lat":43.30037,"lon":5.3782,"is_reserved":false,"is_disabled":false,"rental_uris":{"android":"levelo://app?vid=f058d08f-6668-4239-ac87-ad43c9779c67","ios":"levelo://app?vid=f058d08f-6668-4239-ac87-ad43c9779c67"},"vehicle_type_id":"4","last_reported":1760177324,"current_range_meters":10800,"station_id":"","pricing_plan_id":"cebpf4jnsgd1na2vs0mg"},{"bike_id":"f84db39b-1588-467c-a7d6-3417c55d68b1","system_id":"levelo_inurba_marseille","lat":43.29371,"lon":5.37533,"is_reserved":false,"is_disabled":false,"rental_uris":{"android":"levelo://app?vid=f84db39b-1588-467c-a7d6-3417c55d68b1","ios":"levelo://app?vid=f84db39b-1588-467c-a7d6-3417c55d68b1"},"vehicle_type_id":"4","last_reported":1760177324,"current_range_meters":10800,"station_id":"","pricing_plan_id":"cebpf4jnsgd1na2vs0mg"},{"bike_id":"431c2e70-433d-4af0-acf4-957ec8670f40","system_id":"levelo_inurba_marseille","lat":43.2954,"lon":5.383068,"is_reserved":false,"is_disabled":false,"rental_uris":{"android":"levelo://app?vid=431c2e70-433d-4af0-acf4-957ec8670f40","ios":"levelo://app?vid=431c2e70-433d-4af0-acf4-957ec8670f40"},"vehicle_type_id":"4","last_reported":1760177324,"current_range_meters":10800,"station_id":"","pricing_plan_id":"cebpf4jnsgd1na2vs0mg"},{"bike_id":"46a46397-c0ce-4124-8d5f-18fd19aaba9d","system_id":"levelo_inurba_marseille","lat":43.30152,"lon":5.38085,"is_reserved":false,"is_disabled":false,"rental_uris":{"android":"levelo://app?vid=46a46397-c0ce-4124-8d5f-18fd19aaba9d","ios":"levelo://app?vid=46a46397-c0ce-4124-8d5f-18fd19aaba9d"},"vehicle_type_id":"4","last_reported":1760177324,"current_range_meters":10800,"station_id":"ce4bgjp2rcd13ifvqbh0","pricing_plan_id":"cebpf4jnsgd1na2vs0mg"},{"bike_id":"2830d18f-faf1-45f8-86ba-3a7656dbb5b2","system_id":"levelo_inurba_marseille","lat":43.23962,"lon":5.36626,"is_reserved":false,"is_disabled":false,"rental_uris":{"android":"levelo://app?vid=2830d18f-faf1-45f8-86ba-3a7656dbb5b2","ios":"levelo://app?vid=2830d18f-faf1-45f8-86ba-3a7656dbb5b2"},"vehicle_type_id":"4","last_reported":1760177324,"current_range_meters":10800,"station_id":"ce4bhi12rcd13ifvqfp0","pricing_plan_id":"cebpf4jnsgd1na2vs0mg"},{"bike_id":"96a7130a-4d1f-4058-b422-b17242c06197","system_id":"levelo_inurba_marseille","lat":43.25725,"lon":5.41105,"is_reserved":false,"is_disabled":false,"rental_uris":{"android":"levelo://app?vid=96a7130a-4d1f-4058-b422-b17242c06197","ios":"levelo://app?vid=96a7130a-4d1f-4058-b422-b17242c06197"},"vehicle_type_id":"4","last_reported":1760177324,"current_range_meters":10800,"station_id":"ce4bhkp2rcd13ifvqgd0","pricing_plan_id":"cebpf4jnsgd1na2vs0mg"},{"bike_id":"17ac1910-8f4c-4f41-9652-106c3fd0e95b","system_id":"levelo_inurba_marseille","lat":43.25091,"lon":5.39524,"is_reserved":false,"is_disabled":false,"rental_uris":{"android":"levelo://app?vid=17ac1910-8f4c-4f41-9652-106c3fd0e95b","ios":"levelo://app?vid=17ac1910-8f4c-4f41-9652-106c3fd0e95b"},"vehicle_type_id":"4","last_reported":1760177324,"current_range_meters":10800,"station_id":"ce4bhm12rcd13ifvqgkg","pricing_plan_id":"cebpf4jnsgd1na2vs0mg"},{"bike_id":"9f9edaa2-34b7-4837-8925-898705819e49","system_id":"levelo_inurba_marseille","lat":43.323604,"lon":5.367607,"is_reserved":false,"is_disabled":false,"rental_uris":{"android":"levelo://app?vid=9f9edaa2-34b7-4837-8925-898705819e49","ios":"levelo://app?vid=9f9edaa2-34b7-4837-8925-898705819e49"},"vehicle_type_id":"4","last_reported":1760177324,"current_range_meters":10800,"station_id":"ce4bhsh2rcd13ifvqi2g","pricing_plan_id":"cebpf4jnsgd1na2vs0mg"},{"bike_id":"f19cf118-c296-4314-98d6-fa453397e7c6","system_id":"levelo_inurba_marseille","lat":43.28864,"lon":5.36627,"is_reserved":false,"is_disabled":false,"rental_uris":{"android":"levelo://app?vid=f19cf118-c296-4314-98d6-fa453397e7c6","ios":"levelo://app?vid=f19cf118-c296-4314-98d6-fa453397e7c6"},"vehicle_type_id":"4","last_reported":1760177324,"current_range_meters":11200,"station_id":"","pricing_plan_id":"cebpf4jnsgd1na2vs0mg"},{"bike_id":"92512a2c-81b4-456e-85c2-5e62bef2d087","system_id":"levelo_inurba_marseille","lat":43.24068,"lon":5.3775,"is_reserved":false,"is_disabled":false,"rental_uris":{"android":"levelo://app?vid=92512a2c-81b4-456e-85c2-5e62bef2d087","ios":"levelo://app?vid=92512a2c-81b4-456e-85c2-5e62bef2d087"},"vehicle_type_id":"4","last_reported":1760177324,"current_range_meters":11200,"station_id":"ce4bhnp2rcd13ifvqgvg","pricing_plan_id":"cebpf4jnsgd1na2vs0mg"},{"bike_id":"d0541185-1ae0-4b7a-85f0-f156ffc178f8","system_id":"levelo_inurba_marseille","lat":43.32027,"lon":5.41564,"is_reserved":false,"is_disabled":false,"rental_uris":{"android":"levelo://app?vid=d0541185-1ae0-4b7a-85f0-f156ffc178f8","ios":"levelo://app?vid=d0541185-1ae0-4b7a-85f0-f156ffc178f8"},"vehicle_type_id":"4","last_reported":1760177324,"current_range_meters":11200,"station_id":"ce4bhq92rcd13ifvqhkg","pricing_plan_id":"cebpf4jnsgd1na2vs0mg"},{"bike_id":"7346af06-666b-4b84-be15-69c7404f7ba0","system_id":"levelo_inurba_marseille","lat":43.211901,"lon":5.350751,"is_reserved":false,"is_disabled":false,"rental_uris":{"android":"levelo://app?vid=7346af06-666b-4b84-be15-69c7404f7ba0","ios":"levelo://app?vid=7346af06-666b-4b84-be15-69c7404f7ba0"},"vehicle_type_id":"4","last_reported":1760177324,"current_range_meters":11200,"station_id":"st_cvj6sg6p6f1abm77japg","pricing_plan_id":"cebpf4jnsgd1na2vs0mg"},{"bike_id":"90283bcd-aa07-4293-8ced-6711e5a7cb3e","system_id":"levelo_inurba_marseille","lat":43.292679,"lon":5.384348,"is_reserved":false,"is_disabled":false,"rental_uris":{"android":"levelo://app?vid=90283bcd-aa07-4293-8ced-6711e5a7cb3e","ios":"levelo://app?vid=90283bcd-aa07-4293-8ced-6711e5a7cb3e"},"vehicle_type_id":"4","last_reported":1760177324,"current_range_meters":11600,"station_id":"ce4bh692rcd13ifvqea0","pricing_plan_id":"cebpf4jnsgd1na2vs0mg"},{"bike_id":"1b145eeb-7934-4a47-8c50-b866cbfdb171","system_id":"levelo_inurba_marseille","lat":43.239589,"lon":5.366519,"is_reserved":false,"is_disabled":false,"rental_uris":{"android":"levelo://app?vid=1b145eeb-7934-4a47-8c50-b866cbfdb171","ios":"levelo://app?vid=1b145eeb-7934-4a47-8c50-b866cbfdb171"},"vehicle_type_id":"4","last_reported":1760177324,"current_range_meters":11600,"station_id":"ce4bhi12rcd13ifvqfp0","pricing_plan_id":"cebpf4jnsgd1na2vs0mg"},{"bike_id":"8b9acb90-b8ee-4339-9af4-5f0e7042e0f8","system_id":"levelo_inurba_marseille","lat":43.24165,"lon":5.36388,"is_reserved":false,"is_disabled":false,"rental_uris":{"android":"levelo://app?vid=8b9acb90-b8ee-4339-9af4-5f0e7042e0f8","ios":"levelo://app?vid=8b9acb90-b8ee-4339-9af4-5f0e7042e0f8"},"vehicle_type_id":"4","last_reported":1760177324,"current_range_meters":11600,"station_id":"cpo36qri1sfpv3e86is0","pricing_plan_id":"cebpf4jnsgd1na2vs0mg"},{"bike_id":"6f09963f-96ad-4617-91f6-12b84b7e5384","system_id":"levelo_inurba_marseille","lat":43.253397,"lon":5.421752,"is_reserved":false,"is_disabled":false,"rental_uris":{"android":"levelo://app?vid=6f09963f-96ad-4617-91f6-12b84b7e5384","ios":"levelo://app?vid=6f09963f-96ad-4617-91f6-12b84b7e5384"},"vehicle_type_id":"4","last_reported":1760177324,"current_range_meters":11600,"station_id":"st_d2m65c5bi1j21697t3ng","pricing_plan_id":"cebpf4jnsgd1na2vs0mg"},{"bike_id":"976d5090-2082-436b-a66f-e2e271152e11","system_id":"levelo_inurba_marseille","lat":43.273714,"lon":5.362663,"is_reserved":false,"is_disabled":false,"rental_uris":{"android":"levelo://app?vid=976d5090-2082-436b-a66f-e2e271152e11","ios":"levelo://app?vid=976d5090-2082-436b-a66f-e2e271152e11"},"vehicle_type_id":"4","last_reported":1760177324,"current_range_meters":12000,"station_id":"ce4bhbh2rcd13ifvqeo0","pricing_plan_id":"cebpf4jnsgd1na2vs0mg"},{"bike_id":"bba518c9-6b41-4f52-bbd2-7ca9cdbd7c63","system_id":"levelo_inurba_marseille","lat":43.28264,"lon":5.35064,"is_reserved":false,"is_disabled":false,"rental_uris":{"android":"levelo://app?vid=bba518c9-6b41-4f52-bbd2-7ca9cdbd7c63","ios":"levelo://app?vid=bba518c9-6b41-4f52-bbd2-7ca9cdbd7c63"},"vehicle_type_id":"4","last_reported":1760177324,"current_range_meters":12000,"station_id":"ce4bhbp2rcd13ifvqerg","pricing_plan_id":"cebpf4jnsgd1na2vs0mg"},{"bike_id":"68c0b6a3-a9d2-47a1-bccd-2b46e24f2696","system_id":"levelo_inurba_marseille","lat":43.22569,"lon":5.41626,"is_reserved":false,"is_disabled":false,"rental_uris":{"android":"levelo://app?vid=68c0b6a3-a9d2-47a1-bccd-2b46e24f2696","ios":"levelo://app?vid=68c0b6a3-a9d2-47a1-bccd-2b46e24f2696"},"vehicle_type_id":"4","last_reported":1760177324,"current_range_meters":12000,"station_id":"st_d2o4gvlbi1j2169b742g","pricing_plan_id":"cebpf4jnsgd1na2vs0mg"},{"bike_id":"17c12004-9ed4-4b1f-b1bf-3cb4f120663b","system_id":"levelo_inurba_marseille","lat":43.22561,"lon":5.41623,"is_reserved":false,"is_disabled":false,"rental_uris":{"android":"levelo://app?vid=17c12004-9ed4-4b1f-b1bf-3cb4f120663b","ios":"levelo://app?vid=17c12004-9ed4-4b1f-b1bf-3cb4f120663b"},"vehicle_type_id":"4","last_reported":1760177324,"current_range_meters":12000,"station_id":"st_d2o4gvlbi1j2169b742g","pricing_plan_id":"cebpf4jnsgd1na2vs0mg"},{"bike_id":"80b5fdd6-8044-4280-9733-7a4992e6b8f6","system_id":"levelo_inurba_marseille","lat":43.292676,"lon":5.376168,"is_reserved":false,"is_disabled":false,"rental_uris":{"android":"levelo://app?vid=80b5fdd6-8044-4280-9733-7a4992e6b8f6","ios":"levelo://app?vid=80b5fdd6-8044-4280-9733-7a4992e6b8f6"},"vehicle_type_id":"4","last_reported":1760177324,"current_range_meters":12400,"station_id":"","pricing_plan_id":"cebpf4jnsgd1na2vs0mg"},{"bike_id":"7c36acd1-e7a6-4c1a-be22-0861ba24f67a","system_id":"levelo_inurba_marseille","lat":43.29541,"lon":5.37509,"is_reserved":false,"is_disabled":false,"rental_uris":{"android":"levelo://app?vid=7c36acd1-e7a6-4c1a-be22-0861ba24f67a","ios":"levelo://app?vid=7c36acd1-e7a6-4c1a-be22-0861ba24f67a"},"vehicle_type_id":"4","last_reported":1760177324,"current_range_meters":12400,"station_id":"ce4bgkp2rcd13ifvqbmg","pricing_plan_id":"cebpf4jnsgd1na2vs0mg"},{"bike_id":"210f6bcd-6c32-40a7-b05a-a8c347f75cd9","system_id":"levelo_inurba_marseille","lat":43.28452,"lon":5.35885,"is_reserved":false,"is_disabled":false,"rental_uris":{"android":"levelo://app?vid=210f6bcd-6c32-40a7-b05a-a8c347f75cd9","ios":"levelo://app?vid=210f6bcd-6c32-40a7-b05a-a8c347f75cd9"},"vehicle_type_id":"4","last_reported":1760177324,"current_range_meters":12400,"station_id":"ce4bhah2rcd13ifvqei0","pricing_plan_id":"cebpf4jnsgd1na2vs0mg"},{"bike_id":"f84f0af7-720c-4219-b92e-f8fd78c3388b","system_id":"levelo_inurba_marseille","lat":43.24814,"lon":5.37453,"is_reserved":false,"is_disabled":false,"rental_uris":{"android":"levelo://app?vid=f84f0af7-720c-4219-b92e-f8fd78c3388b","ios":"levelo://app?vid=f84f0af7-720c-4219-b92e-f8fd78c3388b"},"vehicle_type_id":"4","last_reported":1760177324,"current_range_meters":12400,"station_id":"ce4bhgh2rcd13ifvqfb0","pricing_plan_id":"cebpf4jnsgd1na2vs0mg"},{"bike_id":"052a7c04-9caa-43c7-918f-24fccac024c5","system_id":"levelo_inurba_marseille","lat":43.26209,"lon":5.37441,"is_reserved":false,"is_disabled":false,"rental_uris":{"android":"levelo://app?vid=052a7c04-9caa-43c7-918f-24fccac024c5","ios":"levelo://app?vid=052a7c04-9caa-43c7-918f-24fccac024c5"},"vehicle_type_id":"4","last_reported":1760177324,"current_range_meters":12400,"station_id":"ce4bhgp2rcd13ifvqfc0","pricing_plan_id":"cebpf4jnsgd1na2vs0mg"},{"bike_id":"33f89483-ce28-4491-a3c7-f0cdbc13e3ff","system_id":"levelo_inurba_marseille","lat":43.26504,"lon":5.39534,"is_reserved":false,"is_disabled":false,"rental_uris":{"android":"levelo://app?vid=33f89483-ce28-4491-a3c7-f0cdbc13e3ff","ios":"levelo://app?vid=33f89483-ce28-4491-a3c7-f0cdbc13e3ff"},"vehicle_type_id":"4","last_reported":1760177324,"current_range_meters":12400,"station_id":"ce4bhi12rcd13ifvqfq0","pricing_plan_id":"cebpf4jnsgd1na2vs0mg"},{"bike_id":"e3aa9db7-5177-43d7-8ef6-f790149f0ca0","system_id":"levelo_inurba_marseille","lat":43.30374,"lon":5.42489,"is_reserved":false,"is_disabled":false,"rental_uris":{"android":"levelo://app?vid=e3aa9db7-5177-43d7-8ef6-f790149f0ca0","ios":"levelo://app?vid=e3aa9db7-5177-43d7-8ef6-f790149f0ca0"},"vehicle_type_id":"4","last_reported":1760177324,"current_range_meters":12400,"station_id":"ce4bhoh2rcd13ifvqh6g","pricing_plan_id":"cebpf4jnsgd1na2vs0mg"},{"bike_id":"666df080-386c-4c0c-9bac-cb5d92123a5d","system_id":"levelo_inurba_marseille","lat":43.26933,"lon":5.4026,"is_reserved":false,"is_disabled":false,"rental_uris":{"android":"levelo://app?vid=666df080-386c-4c0c-9bac-cb5d92123a5d","ios":"levelo://app?vid=666df080-386c-4c0c-9bac-cb5d92123a5d"},"vehicle_type_id":"4","last_reported":1760177324,"current_range_meters":12400,"station_id":"cjm6bp8fraef2m0cb0m0","pricing_plan_id":"cebpf4jnsgd1na2vs0mg"},{"bike_id":"b981c07b-927c-479e-9db0-ed6cdf301aea","system_id":"levelo_inurba_marseille","lat":43.21196,"lon":5.35067,"is_reserved":false,"is_disabled":false,"rental_uris":{"android":"levelo://app?vid=b981c07b-927c-479e-9db0-ed6cdf301aea","ios":"levelo://app?vid=b981c07b-927c-479e-9db0-ed6cdf301aea"},"vehicle_type_id":"4","last_reported":1760177324,"current_range_meters":12800,"station_id":"","pricing_plan_id":"cebpf4jnsgd1na2vs0mg"},{"bike_id":"ad75eb9e-fabf-42df-8d07-2158f358147e","system_id":"levelo_inurba_marseille","lat":43.30542,"lon":5.36528,"is_reserved":false,"is_disabled":false,"rental_uris":{"android":"levelo://app?vid=ad75eb9e-fabf-42df-8d07-2158f358147e","ios":"levelo://app?vid=ad75eb9e-fabf-42df-8d07-2158f358147e"},"vehicle_type_id":"4","last_reported":1760177324,"current_range_meters":12800,"station_id":"ce4bgs12rcd13ifvqcag","pricing_plan_id":"cebpf4jnsgd1na2vs0mg"},{"bike_id":"3aee201c-eced-4867-b84a-9c76c962f6e2","system_id":"levelo_inurba_marseille","lat":43.24167,"lon":5.36397,"is_reserved":false,"is_disabled":false,"rental_uris":{"android":"levelo://app?vid=3aee201c-eced-4867-b84a-9c76c962f6e2","ios":"levelo://app?vid=3aee201c-eced-4867-b84a-9c76c962f6e2"},"vehicle_type_id":"4","last_reported":1760177324,"current_range_meters":12800,"station_id":"cpo36qri1sfpv3e86is0","pricing_plan_id":"cebpf4jnsgd1na2vs0mg"},{"bike_id":"ea868bbe-d842-4598-a21a-c803746ce7ee","system_id":"levelo_inurba_marseille","lat":43.211966,"lon":5.350752,"is_reserved":false,"is_disabled":false,"rental_uris":{"android":"levelo://app?vid=ea868bbe-d842-4598-a21a-c803746ce7ee","ios":"levelo://app?vid=ea868bbe-d842-4598-a21a-c803746ce7ee"},"vehicle_type_id":"4","last_reported":1760177324,"current_range_meters":12800,"station_id":"st_cvj6sg6p6f1abm77japg","pricing_plan_id":"cebpf4jnsgd1na2vs0mg"},{"bike_id":"c61c0287-d7fa-4f42-b707-e7b889dbee3d","system_id":"levelo_inurba_marseille","lat":43.33767,"lon":5.3743,"is_reserved":false,"is_disabled":false,"rental_uris":{"android":"levelo://app?vid=c61c0287-d7fa-4f42-b707-e7b889dbee3d","ios":"levelo://app?vid=c61c0287-d7fa-4f42-b707-e7b889dbee3d"},"vehicle_type_id":"4","last_reported":1760177324,"current_range_meters":13600,"station_id":"","pricing_plan_id":"cebpf4jnsgd1na2vs0mg"},{"bike_id":"2d964ba3-c456-420e-ac7a-598a834ea568","system_id":"levelo_inurba_marseille","lat":43.27919,"lon":5.39574,"is_reserved":false,"is_disabled":false,"rental_uris":{"android":"levelo://app?vid=2d964ba3-c456-420e-ac7a-598a834ea568","ios":"levelo://app?vid=2d964ba3-c456-420e-ac7a-598a834ea568"},"vehicle_type_id":"4","last_reported":1760177324,"current_range_meters":13600,"station_id":"ce4bhf92rcd13ifvqf40","pricing_plan_id":"cebpf4jnsgd1na2vs0mg"},{"bike_id":"bcb1ff71-2dac-47c1-b0ee-00a14865620e","system_id":"levelo_inurba_marseille","lat":43.25114,"lon":5.39504,"is_reserved":false,"is_disabled":false,"rental_uris":{"android":"levelo://app?vid=bcb1ff71-2dac-47c1-b0ee-00a14865620e","ios":"levelo://app?vid=bcb1ff71-2dac-47c1-b0ee-00a14865620e"},"vehicle_type_id":"4","last_reported":1760177324,"current_range_meters":13600,"station_id":"ce4bhm12rcd13ifvqgkg","pricing_plan_id":"cebpf4jnsgd1na2vs0mg"},{"bike_id":"dca9caf3-c8b4-4aaf-96fc-4d195a5bb9a1","system_id":"levelo_inurba_marseille","lat":43.25087,"lon":5.39522,"is_reserved":false,"is_disabled":false,"rental_uris":{"android":"levelo://app?vid=dca9caf3-c8b4-4aaf-96fc-4d195a5bb9a1","ios":"levelo://app?vid=dca9caf3-c8b4-4aaf-96fc-4d195a5bb9a1"},"vehicle_type_id":"4","last_reported":1760177324,"current_range_meters":14000,"station_id":"ce4bhm12rcd13ifvqgkg","pricing_plan_id":"cebpf4jnsgd1na2vs0mg"},{"bike_id":"011cf43a-2205-4f38-b343-14971629602d","system_id":"levelo_inurba_marseille","lat":43.28701,"lon":5.39975,"is_reserved":false,"is_disabled":false,"rental_uris":{"android":"levelo://app?vid=011cf43a-2205-4f38-b343-14971629602d","ios":"levelo://app?vid=011cf43a-2205-4f38-b343-14971629602d"},"vehicle_type_id":"4","last_reported":1760177324,"current_range_meters":14000,"station_id":"ce4bho92rcd13ifvqh3g","pricing_plan_id":"cebpf4jnsgd1na2vs0mg"},{"bike_id":"84411cb5-3581-4c1a-b5d4-c473d3e5be62","system_id":"levelo_inurba_marseille","lat":43.305379,"lon":5.367158,"is_reserved":false,"is_disabled":false,"rental_uris":{"android":"levelo://app?vid=84411cb5-3581-4c1a-b5d4-c473d3e5be62","ios":"levelo://app?vid=84411cb5-3581-4c1a-b5d4-c473d3e5be62"},"vehicle_type_id":"4","last_reported":1760177324,"current_range_meters":14400,"station_id":"ce4bgrp2rcd13ifvqc9g","pricing_plan_id":"cebpf4jnsgd1na2vs0mg"},{"bike_id":"17a444fd-a973-4fdd-a7e7-c0b2ccd8b233","system_id":"levelo_inurba_marseille","lat":43.292652,"lon":5.38439,"is_reserved":false,"is_disabled":false,"rental_uris":{"android":"levelo://app?vid=17a444fd-a973-4fdd-a7e7-c0b2ccd8b233","ios":"levelo://app?vid=17a444fd-a973-4fdd-a7e7-c0b2ccd8b233"},"vehicle_type_id":"4","last_reported":1760177324,"current_range_meters":14400,"station_id":"ce4bh692rcd13ifvqea0","pricing_plan_id":"cebpf4jnsgd1na2vs0mg"},{"bike_id":"ebd107eb-d4fa-4d54-9edb-261ffd572ca7","system_id":"levelo_inurba_marseille","lat":43.317129,"lon":5.437141,"is_reserved":false,"is_disabled":false,"rental_uris":{"android":"levelo://app?vid=ebd107eb-d4fa-4d54-9edb-261ffd572ca7","ios":"levelo://app?vid=ebd107eb-d4fa-4d54-9edb-261ffd572ca7"},"vehicle_type_id":"4","last_reported":1760177324,"current_range_meters":14400,"station_id":"ce4bhp92rcd13ifvqhcg","pricing_plan_id":"cebpf4jnsgd1na2vs0mg"},{"bike_id":"96189567-9f56-4467-99e1-85c33efa20b5","system_id":"levelo_inurba_marseille","lat":43.22574,"lon":5.41636,"is_reserved":false,"is_disabled":false,"rental_uris":{"android":"levelo://app?vid=96189567-9f56-4467-99e1-85c33efa20b5","ios":"levelo://app?vid=96189567-9f56-4467-99e1-85c33efa20b5"},"vehicle_type_id":"4","last_reported":1760177324,"current_range_meters":14400,"station_id":"st_d2o4gvlbi1j2169b742g","pricing_plan_id":"cebpf4jnsgd1na2vs0mg"},{"bike_id":"9eb14a47-3efe-45ce-9aa3-366825f5c6bf","system_id":"levelo_inurba_marseille","lat":43.29538,"lon":5.37504,"is_reserved":false,"is_disabled":false,"rental_uris":{"android":"levelo://app?vid=9eb14a47-3efe-45ce-9aa3-366825f5c6bf","ios":"levelo://app?vid=9eb14a47-3efe-45ce-9aa3-366825f5c6bf"},"vehicle_type_id":"4","last_reported":1760177324,"current_range_meters":14800,"station_id":"ce4bgkp2rcd13ifvqbmg","pricing_plan_id":"cebpf4jnsgd1na2vs0mg"},{"bike_id":"5cae1a2f-2fa7-46c3-9db6-99a689505d4a","system_id":"levelo_inurba_marseille","lat":43.25718,"lon":5.41111,"is_reserved":false,"is_disabled":false,"rental_uris":{"android":"levelo://app?vid=5cae1a2f-2fa7-46c3-9db6-99a689505d4a","ios":"levelo://app?vid=5cae1a2f-2fa7-46c3-9db6-99a689505d4a"},"vehicle_type_id":"4","last_reported":1760177324,"current_range_meters":14800,"station_id":"ce4bhkp2rcd13ifvqgd0","pricing_plan_id":"cebpf4jnsgd1na2vs0mg"},{"bike_id":"338d22d1-d917-41b0-bd23-0264004b2593","system_id":"levelo_inurba_marseille","lat":43.22563,"lon":5.41621,"is_reserved":false,"is_disabled":false,"rental_uris":{"android":"levelo://app?vid=338d22d1-d917-41b0-bd23-0264004b2593","ios":"levelo://app?vid=338d22d1-d917-41b0-bd23-0264004b2593"},"vehicle_type_id":"4","last_reported":1760177324,"current_range_meters":14800,"station_id":"st_d2o4gvlbi1j2169b742g","pricing_plan_id":"cebpf4jnsgd1na2vs0mg"},{"bike_id":"8482c7fc-cae1-421d-909c-59f847f96804","system_id":"levelo_inurba_marseille","lat":43.21187,"lon":5.35065,"is_reserved":false,"is_disabled":false,"rental_uris":{"android":"levelo://app?vid=8482c7fc-cae1-421d-909c-59f847f96804","ios":"levelo://app?vid=8482c7fc-cae1-421d-909c-59f847f96804"},"vehicle_type_id":"4","last_reported":1760177324,"current_range_meters":15200,"station_id":"","pricing_plan_id":"cebpf4jnsgd1na2vs0mg"},{"bike_id":"5b7b7f64-19dd-4841-85a2-4c1d87dda20a","system_id":"levelo_inurba_marseille","lat":43.32906,"lon":5.41048,"is_reserved":false,"is_disabled":false,"rental_uris":{"android":"levelo://app?vid=5b7b7f64-19dd-4841-85a2-4c1d87dda20a","ios":"levelo://app?vid=5b7b7f64-19dd-4841-85a2-4c1d87dda20a"},"vehicle_type_id":"4","last_reported":1760177324,"current_range_meters":15200,"station_id":"","pricing_plan_id":"cebpf4jnsgd1na2vs0mg"},{"bike_id":"6f2d9c56-83d9-46f6-ac7f-f337729a72b8","system_id":"levelo_inurba_marseille","lat":43.24801,"lon":5.37447,"is_reserved":false,"is_disabled":false,"rental_uris":{"android":"levelo://app?vid=6f2d9c56-83d9-46f6-ac7f-f337729a72b8","ios":"levelo://app?vid=6f2d9c56-83d9-46f6-ac7f-f337729a72b8"},"vehicle_type_id":"4","last_reported":1760177324,"current_range_meters":15200,"station_id":"ce4bhgh2rcd13ifvqfb0","pricing_plan_id":"cebpf4jnsgd1na2vs0mg"},{"bike_id":"9a3f78ca-b0c6-4f72-8a79-592b18fbedf7","system_id":"levelo_inurba_marseille","lat":43.2407,"lon":5.37766,"is_reserved":false,"is_disabled":false,"rental_uris":{"android":"levelo://app?vid=9a3f78ca-b0c6-4f72-8a79-592b18fbedf7","ios":"levelo://app?vid=9a3f78ca-b0c6-4f72-8a79-592b18fbedf7"},"vehicle_type_id":"4","last_reported":1760177324,"current_range_meters":15200,"station_id":"ce4bhnp2rcd13ifvqgvg","pricing_plan_id":"cebpf4jnsgd1na2vs0mg"},{"bike_id":"1274341e-f484-48bd-95e5-e905ccbea7d0","system_id":"levelo_inurba_marseille","lat":43.28001,"lon":5.41655,"is_reserved":false,"is_disabled":false,"rental_uris":{"android":"levelo://app?vid=1274341e-f484-48bd-95e5-e905ccbea7d0","ios":"levelo://app?vid=1274341e-f484-48bd-95e5-e905ccbea7d0"},"vehicle_type_id":"4","last_reported":1760177324,"current_range_meters":15200,"station_id":"ce4bho12rcd13ifvqh1g","pricing_plan_id":"cebpf4jnsgd1na2vs0mg"},{"bike_id":"562bbd76-53e8-4952-b5e4-fca8e70242cb","system_id":"levelo_inurba_marseille","lat":43.30794,"lon":5.43515,"is_reserved":false,"is_disabled":false,"rental_uris":{"android":"levelo://app?vid=562bbd76-53e8-4952-b5e4-fca8e70242cb","ios":"levelo://app?vid=562bbd76-53e8-4952-b5e4-fca8e70242cb"},"vehicle_type_id":"4","last_reported":1760177324,"current_range_meters":15200,"station_id":"ce4bhph2rcd13ifvqheg","pricing_plan_id":"cebpf4jnsgd1na2vs0mg"},{"bike_id":"de9dd418-fb2e-44c2-9158-d139e52e2d07","system_id":"levelo_inurba_marseille","lat":43.22929,"lon":5.35375,"is_reserved":false,"is_disabled":false,"rental_uris":{"android":"levelo://app?vid=de9dd418-fb2e-44c2-9158-d139e52e2d07","ios":"levelo://app?vid=de9dd418-fb2e-44c2-9158-d139e52e2d07"},"vehicle_type_id":"4","last_reported":1760177324,"current_range_meters":15200,"station_id":"cpo3532slgdg3j2ikp40","pricing_plan_id":"cebpf4jnsgd1na2vs0mg"},{"bike_id":"eb6eacbd-f0fc-4b7f-8ffb-8a556b5b91dc","system_id":"levelo_inurba_marseille","lat":43.24943,"lon":5.40491,"is_reserved":false,"is_disabled":false,"rental_uris":{"android":"levelo://app?vid=eb6eacbd-f0fc-4b7f-8ffb-8a556b5b91dc","ios":"levelo://app?vid=eb6eacbd-f0fc-4b7f-8ffb-8a556b5b91dc"},"vehicle_type_id":"4","last_reported":1760177324,"current_range_meters":15200,"station_id":"st_d2ngiaodas8pm72gd1h0","pricing_plan_id":"cebpf4jnsgd1na2vs0mg"},{"bike_id":"bcda893d-2685-4b2a-903a-e735eca47a80","system_id":"levelo_inurba_marseille","lat":43.331337,"lon":5.354979,"is_reserved":false,"is_disabled":false,"rental_uris":{"android":"levelo://app?vid=bcda893d-2685-4b2a-903a-e735eca47a80","ios":"levelo://app?vid=bcda893d-2685-4b2a-903a-e735eca47a80"},"vehicle_type_id":"4","last_reported":1760177324,"current_range_meters":16000,"station_id":"","pricing_plan_id":"cebpf4jnsgd1na2vs0mg"},{"bike_id":"187cf0d8-0607-43fc-8eaa-6af12fda0dee","system_id":"levelo_inurba_marseille","lat":43.22428,"lon":5.34657,"is_reserved":false,"is_disabled":false,"rental_uris":{"android":"levelo://app?vid=187cf0d8-0607-43fc-8eaa-6af12fda0dee","ios":"levelo://app?vid=187cf0d8-0607-43fc-8eaa-6af12fda0dee"},"vehicle_type_id":"4","last_reported":1760177324,"current_range_meters":16000,"station_id":"","pricing_plan_id":"cebpf4jnsgd1na2vs0mg"},{"bike_id":"ac126244-2e00-4589-a00e-b9ffa772eb22","system_id":"levelo_inurba_marseille","lat":43.31118,"lon":5.39758,"is_reserved":false,"is_disabled":false,"rental_uris":{"android":"levelo://app?vid=ac126244-2e00-4589-a00e-b9ffa772eb22","ios":"levelo://app?vid=ac126244-2e00-4589-a00e-b9ffa772eb22"},"vehicle_type_id":"4","last_reported":1760177324,"current_range_meters":16000,"station_id":"","pricing_plan_id":"cebpf4jnsgd1na2vs0mg"},{"bike_id":"36852a13-f383-442f-9a01-f153febeeef2","system_id":"levelo_inurba_marseille","lat":43.30191,"lon":5.36865,"is_reserved":false,"is_disabled":false,"rental_uris":{"android":"levelo://app?vid=36852a13-f383-442f-9a01-f153febeeef2","ios":"levelo://app?vid=36852a13-f383-442f-9a01-f153febeeef2"},"vehicle_type_id":"4","last_reported":1760177324,"current_range_meters":16000,"station_id":"","pricing_plan_id":"cebpf4jnsgd1na2vs0mg"},{"bike_id":"a3bc5d98-cf95-44e5-830d-6af82bdc5b25","system_id":"levelo_inurba_marseille","lat":43.29574,"lon":5.37514,"is_reserved":false,"is_disabled":false,"rental_uris":{"android":"levelo://app?vid=a3bc5d98-cf95-44e5-830d-6af82bdc5b25","ios":"levelo://app?vid=a3bc5d98-cf95-44e5-830d-6af82bdc5b25"},"vehicle_type_id":"4","last_reported":1760177324,"current_range_meters":16000,"station_id":"ce4bgh92rcd13ifvqb50","pricing_plan_id":"cebpf4jnsgd1na2vs0mg"},{"bike_id":"30bd0872-4a7a-4238-b145-b5b9792dc539","system_id":"levelo_inurba_marseille","lat":43.26212,"lon":5.37441,"is_reserved":false,"is_disabled":false,"rental_uris":{"android":"levelo://app?vid=30bd0872-4a7a-4238-b145-b5b9792dc539","ios":"levelo://app?vid=30bd0872-4a7a-4238-b145-b5b9792dc539"},"vehicle_type_id":"4","last_reported":1760177324,"current_range_meters":16000,"station_id":"ce4bhgp2rcd13ifvqfc0","pricing_plan_id":"cebpf4jnsgd1na2vs0mg"},{"bike_id":"50cd598d-628a-42c2-9d23-726286698347","system_id":"levelo_inurba_marseille","lat":43.26501,"lon":5.3953,"is_reserved":false,"is_disabled":false,"rental_uris":{"android":"levelo://app?vid=50cd598d-628a-42c2-9d23-726286698347","ios":"levelo://app?vid=50cd598d-628a-42c2-9d23-726286698347"},"vehicle_type_id":"4","last_reported":1760177324,"current_range_meters":16000,"station_id":"ce4bhi12rcd13ifvqfq0","pricing_plan_id":"cebpf4jnsgd1na2vs0mg"},{"bike_id":"9f7695d5-5ae1-475a-9602-4620ac069f23","system_id":"levelo_inurba_marseille","lat":43.23149,"lon":5.43713,"is_reserved":false,"is_disabled":false,"rental_uris":{"android":"levelo://app?vid=9f7695d5-5ae1-475a-9602-4620ac069f23","ios":"levelo://app?vid=9f7695d5-5ae1-475a-9602-4620ac069f23"},"vehicle_type_id":"4","last_reported":1760177324,"current_range_meters":16000,"station_id":"ce4bhmp2rcd13ifvqgog","pricing_plan_id":"cebpf4jnsgd1na2vs0mg"},{"bike_id":"60cafd66-2df6-4806-9a58-f6839f09019a","system_id":"levelo_inurba_marseille","lat":43.27824,"lon":5.40712,"is_reserved":false,"is_disabled":false,"rental_uris":{"android":"levelo://app?vid=60cafd66-2df6-4806-9a58-f6839f09019a","ios":"levelo://app?vid=60cafd66-2df6-4806-9a58-f6839f09019a"},"vehicle_type_id":"4","last_reported":1760177324,"current_range_meters":16000,"station_id":"ce4bhnh2rcd13ifvqgtg","pricing_plan_id":"cebpf4jnsgd1na2vs0mg"},{"bike_id":"78515990-e130-442f-89ff-0a6fd150a9e5","system_id":"levelo_inurba_marseille","lat":43.3074,"lon":5.42426,"is_reserved":false,"is_disabled":false,"rental_uris":{"android":"levelo://app?vid=78515990-e130-442f-89ff-0a6fd150a9e5","ios":"levelo://app?vid=78515990-e130-442f-89ff-0a6fd150a9e5"},"vehicle_type_id":"4","last_reported":1760177324,"current_range_meters":16000,"station_id":"st_cvj6ca6bvosntc0bfgr0","pricing_plan_id":"cebpf4jnsgd1na2vs0mg"},{"bike_id":"daca0046-00af-4c3d-97a3-9a04d8ad7588","system_id":"levelo_inurba_marseille","lat":43.22557,"lon":5.41631,"is_reserved":false,"is_disabled":false,"rental_uris":{"android":"levelo://app?vid=daca0046-00af-4c3d-97a3-9a04d8ad7588","ios":"levelo://app?vid=daca0046-00af-4c3d-97a3-9a04d8ad7588"},"vehicle_type_id":"4","last_reported":1760177324,"current_range_meters":16000,"station_id":"st_d2o4gvlbi1j2169b742g","pricing_plan_id":"cebpf4jnsgd1na2vs0mg"},{"bike_id":"2d47de9e-e33d-477c-8917-7d91ac05947a","system_id":"levelo_inurba_marseille","lat":43.29711,"lon":5.39824,"is_reserved":false,"is_disabled":false,"rental_uris":{"android":"levelo://app?vid=2d47de9e-e33d-477c-8917-7d91ac05947a","ios":"levelo://app?vid=2d47de9e-e33d-477c-8917-7d91ac05947a"},"vehicle_type_id":"4","last_reported":1760177324,"current_range_meters":16400,"station_id":"","pricing_plan_id":"cebpf4jnsgd1na2vs0mg"},{"bike_id":"f643732a-737c-4023-9ce1-91073dd626a3","system_id":"levelo_inurba_marseille","lat":43.31598,"lon":5.38135,"is_reserved":false,"is_disabled":false,"rental_uris":{"android":"levelo://app?vid=f643732a-737c-4023-9ce1-91073dd626a3","ios":"levelo://app?vid=f643732a-737c-4023-9ce1-91073dd626a3"},"vehicle_type_id":"4","last_reported":1760177324,"current_range_meters":16400,"station_id":"","pricing_plan_id":"cebpf4jnsgd1na2vs0mg"},{"bike_id":"b78fc6de-8c66-40b1-bc7e-1794eacc6804","system_id":"levelo_inurba_marseille","lat":43.281304,"lon":5.350276,"is_reserved":false,"is_disabled":false,"rental_uris":{"android":"levelo://app?vid=b78fc6de-8c66-40b1-bc7e-1794eacc6804","ios":"levelo://app?vid=b78fc6de-8c66-40b1-bc7e-1794eacc6804"},"vehicle_type_id":"4","last_reported":1760177324,"current_range_meters":16400,"station_id":"","pricing_plan_id":"cebpf4jnsgd1na2vs0mg"},{"bike_id":"bc88cb63-5b3a-4a06-882f-173d6d38a217","system_id":"levelo_inurba_marseille","lat":43.305516,"lon":5.367039,"is_reserved":false,"is_disabled":false,"rental_uris":{"android":"levelo://app?vid=bc88cb63-5b3a-4a06-882f-173d6d38a217","ios":"levelo://app?vid=bc88cb63-5b3a-4a06-882f-173d6d38a217"},"vehicle_type_id":"4","last_reported":1760177324,"current_range_meters":16400,"station_id":"ce4bgrp2rcd13ifvqc9g","pricing_plan_id":"cebpf4jnsgd1na2vs0mg"},{"bike_id":"08833a63-c178-4748-8970-63e0d3d52809","system_id":"levelo_inurba_marseille","lat":43.29019,"lon":5.38128,"is_reserved":false,"is_disabled":false,"rental_uris":{"android":"levelo://app?vid=08833a63-c178-4748-8970-63e0d3d52809","ios":"levelo://app?vid=08833a63-c178-4748-8970-63e0d3d52809"},"vehicle_type_id":"4","last_reported":1760177324,"current_range_meters":16400,"station_id":"ce4bh4p2rcd13ifvqe1g","pricing_plan_id":"cebpf4jnsgd1na2vs0mg"},{"bike_id":"86e4250c-eacd-47b9-9fb7-5bf144c43514","system_id":"levelo_inurba_marseille","lat":43.26571,"lon":5.39018,"is_reserved":false,"is_disabled":false,"rental_uris":{"android":"levelo://app?vid=86e4250c-eacd-47b9-9fb7-5bf144c43514","ios":"levelo://app?vid=86e4250c-eacd-47b9-9fb7-5bf144c43514"},"vehicle_type_id":"4","last_reported":1760177324,"current_range_meters":16400,"station_id":"ce4bhe12rcd13ifvqf30","pricing_plan_id":"cebpf4jnsgd1na2vs0mg"},{"bike_id":"0fbb1846-a2ab-49f7-a28e-a21c0c5e7917","system_id":"levelo_inurba_marseille","lat":43.2621,"lon":5.37442,"is_reserved":false,"is_disabled":false,"rental_uris":{"android":"levelo://app?vid=0fbb1846-a2ab-49f7-a28e-a21c0c5e7917","ios":"levelo://app?vid=0fbb1846-a2ab-49f7-a28e-a21c0c5e7917"},"vehicle_type_id":"4","last_reported":1760177324,"current_range_meters":16400,"station_id":"ce4bhgp2rcd13ifvqfc0","pricing_plan_id":"cebpf4jnsgd1na2vs0mg"},{"bike_id":"417598c7-3580-4187-ba64-c00ae7ba0112","system_id":"levelo_inurba_marseille","lat":43.243993,"lon":5.371045,"is_reserved":false,"is_disabled":false,"rental_uris":{"android":"levelo://app?vid=417598c7-3580-4187-ba64-c00ae7ba0112","ios":"levelo://app?vid=417598c7-3580-4187-ba64-c00ae7ba0112"},"vehicle_type_id":"4","last_reported":1760177324,"current_range_meters":16400,"station_id":"ce4bhhh2rcd13ifvqfk0","pricing_plan_id":"cebpf4jnsgd1na2vs0mg"},{"bike_id":"fecedf8e-e76a-462a-89b1-b16abd90f988","system_id":"levelo_inurba_marseille","lat":43.23066,"lon":5.35486,"is_reserved":false,"is_disabled":false,"rental_uris":{"android":"levelo://app?vid=fecedf8e-e76a-462a-89b1-b16abd90f988","ios":"levelo://app?vid=fecedf8e-e76a-462a-89b1-b16abd90f988"},"vehicle_type_id":"4","last_reported":1760177324,"current_range_meters":16400,"station_id":"cpo3342slgdg3j2ifvpg","pricing_plan_id":"cebpf4jnsgd1na2vs0mg"},{"bike_id":"bf3e6031-a4b5-4d11-9089-ea468e967475","system_id":"levelo_inurba_marseille","lat":43.24169,"lon":5.36396,"is_reserved":false,"is_disabled":false,"rental_uris":{"android":"levelo://app?vid=bf3e6031-a4b5-4d11-9089-ea468e967475","ios":"levelo://app?vid=bf3e6031-a4b5-4d11-9089-ea468e967475"},"vehicle_type_id":"4","last_reported":1760177324,"current_range_meters":16400,"station_id":"cpo36qri1sfpv3e86is0","pricing_plan_id":"cebpf4jnsgd1na2vs0mg"},{"bike_id":"4834a710-f242-4b0f-9ef7-9d6d9f7a4b7b","system_id":"levelo_inurba_marseille","lat":43.22568,"lon":5.41621,"is_reserved":false,"is_disabled":false,"rental_uris":{"android":"levelo://app?vid=4834a710-f242-4b0f-9ef7-9d6d9f7a4b7b","ios":"levelo://app?vid=4834a710-f242-4b0f-9ef7-9d6d9f7a4b7b"},"vehicle_type_id":"4","last_reported":1760177324,"current_range_meters":16400,"station_id":"st_d2o4gvlbi1j2169b742g","pricing_plan_id":"cebpf4jnsgd1na2vs0mg"},{"bike_id":"6afea392-f4bc-4dea-9475-5708c86a0324","system_id":"levelo_inurba_marseille","lat":43.26878,"lon":5.37014,"is_reserved":false,"is_disabled":false,"rental_uris":{"android":"levelo://app?vid=6afea392-f4bc-4dea-9475-5708c86a0324","ios":"levelo://app?vid=6afea392-f4bc-4dea-9475-5708c86a0324"},"vehicle_type_id":"4","last_reported":1760177324,"current_range_meters":16800,"station_id":"","pricing_plan_id":"cebpf4jnsgd1na2vs0mg"},{"bike_id":"3b55a2bc-f880-497c-82d8-dc23aea896c7","system_id":"levelo_inurba_marseille","lat":43.30594,"lon":5.39359,"is_reserved":false,"is_disabled":false,"rental_uris":{"android":"levelo://app?vid=3b55a2bc-f880-497c-82d8-dc23aea896c7","ios":"levelo://app?vid=3b55a2bc-f880-497c-82d8-dc23aea896c7"},"vehicle_type_id":"4","last_reported":1760177324,"current_range_meters":16800,"station_id":"ce4bh0p2rcd13ifvqd80","pricing_plan_id":"cebpf4jnsgd1na2vs0mg"},{"bike_id":"2e0430aa-b679-4b5b-b4fa-503e90a61f70","system_id":"levelo_inurba_marseille","lat":43.288503,"lon":5.3584,"is_reserved":false,"is_disabled":false,"rental_uris":{"android":"levelo://app?vid=2e0430aa-b679-4b5b-b4fa-503e90a61f70","ios":"levelo://app?vid=2e0430aa-b679-4b5b-b4fa-503e90a61f70"},"vehicle_type_id":"4","last_reported":1760177324,"current_range_meters":16800,"station_id":"ce4bhb12rcd13ifvqem0","pricing_plan_id":"cebpf4jnsgd1na2vs0mg"},{"bike_id":"d378113e-7210-466b-9c18-09f26d57c6ce","system_id":"levelo_inurba_marseille","lat":43.243846,"lon":5.370561,"is_reserved":false,"is_disabled":false,"rental_uris":{"android":"levelo://app?vid=d378113e-7210-466b-9c18-09f26d57c6ce","ios":"levelo://app?vid=d378113e-7210-466b-9c18-09f26d57c6ce"},"vehicle_type_id":"4","last_reported":1760177324,"current_range_meters":16800,"station_id":"ce4bhhh2rcd13ifvqfk0","pricing_plan_id":"cebpf4jnsgd1na2vs0mg"},{"bike_id":"b35a2a59-de93-40d1-be91-25b9c11fad5e","system_id":"levelo_inurba_marseille","lat":43.23195,"lon":5.35548,"is_reserved":false,"is_disabled":false,"rental_uris":{"android":"levelo://app?vid=b35a2a59-de93-40d1-be91-25b9c11fad5e","ios":"levelo://app?vid=b35a2a59-de93-40d1-be91-25b9c11fad5e"},"vehicle_type_id":"4","last_reported":1760177324,"current_range_meters":16800,"station_id":"ce4bhu92rcd13ifvqi70","pricing_plan_id":"cebpf4jnsgd1na2vs0mg"},{"bike_id":"0d125caf-5238-4006-bbc8-77c21e114e38","system_id":"levelo_inurba_marseille","lat":43.241687,"lon":5.363898,"is_reserved":false,"is_disabled":false,"rental_uris":{"android":"levelo://app?vid=0d125caf-5238-4006-bbc8-77c21e114e38","ios":"levelo://app?vid=0d125caf-5238-4006-bbc8-77c21e114e38"},"vehicle_type_id":"4","last_reported":1760177324,"current_range_meters":16800,"station_id":"cpo36qri1sfpv3e86is0","pricing_plan_id":"cebpf4jnsgd1na2vs0mg"},{"bike_id":"83e214c2-0ada-4351-8a27-d8d9e569d46f","system_id":"levelo_inurba_marseille","lat":43.24166,"lon":5.3639,"is_reserved":false,"is_disabled":false,"rental_uris":{"android":"levelo://app?vid=83e214c2-0ada-4351-8a27-d8d9e569d46f","ios":"levelo://app?vid=83e214c2-0ada-4351-8a27-d8d9e569d46f"},"vehicle_type_id":"4","last_reported":1760177324,"current_range_meters":16800,"station_id":"cpo36qri1sfpv3e86is0","pricing_plan_id":"cebpf4jnsgd1na2vs0mg"},{"bike_id":"036ee69c-aec3-40e7-89aa-d47bdab5f713","system_id":"levelo_inurba_marseille","lat":43.30946,"lon":5.39039,"is_reserved":false,"is_disabled":false,"rental_uris":{"android":"levelo://app?vid=036ee69c-aec3-40e7-89aa-d47bdab5f713","ios":"levelo://app?vid=036ee69c-aec3-40e7-89aa-d47bdab5f713"},"vehicle_type_id":"4","last_reported":1760177324,"current_range_meters":17200,"station_id":"ce4bgup2rcd13ifvqco0","pricing_plan_id":"cebpf4jnsgd1na2vs0mg"},{"bike_id":"c9afd29e-e7d5-4312-8306-3b5c4618a024","system_id":"levelo_inurba_marseille","lat":43.29782,"lon":5.39335,"is_reserved":false,"is_disabled":false,"rental_uris":{"android":"levelo://app?vid=c9afd29e-e7d5-4312-8306-3b5c4618a024","ios":"levelo://app?vid=c9afd29e-e7d5-4312-8306-3b5c4618a024"},"vehicle_type_id":"4","last_reported":1760177324,"current_range_meters":17200,"station_id":"chh1huq6cuj3fo74tm60","pricing_plan_id":"cebpf4jnsgd1na2vs0mg"},{"bike_id":"90a7399f-67eb-4ed6-8265-2126a88abadc","system_id":"levelo_inurba_marseille","lat":43.22551,"lon":5.4163,"is_reserved":false,"is_disabled":false,"rental_uris":{"android":"levelo://app?vid=90a7399f-67eb-4ed6-8265-2126a88abadc","ios":"levelo://app?vid=90a7399f-67eb-4ed6-8265-2126a88abadc"},"vehicle_type_id":"4","last_reported":1760177324,"current_range_meters":17200,"station_id":"st_d2o4gvlbi1j2169b742g","pricing_plan_id":"cebpf4jnsgd1na2vs0mg"},{"bike_id":"a10dabe4-e9de-4ff3-9dc9-8a21e2d7ddb0","system_id":"levelo_inurba_marseille","lat":43.21192,"lon":5.350707,"is_reserved":false,"is_disabled":false,"rental_uris":{"android":"levelo://app?vid=a10dabe4-e9de-4ff3-9dc9-8a21e2d7ddb0","ios":"levelo://app?vid=a10dabe4-e9de-4ff3-9dc9-8a21e2d7ddb0"},"vehicle_type_id":"4","last_reported":1760177324,"current_range_meters":17600,"station_id":"","pricing_plan_id":"cebpf4jnsgd1na2vs0mg"},{"bike_id":"b99394a6-9028-4805-b51f-c15af951f338","system_id":"levelo_inurba_marseille","lat":43.29843,"lon":5.36267,"is_reserved":false,"is_disabled":false,"rental_uris":{"android":"levelo://app?vid=b99394a6-9028-4805-b51f-c15af951f338","ios":"levelo://app?vid=b99394a6-9028-4805-b51f-c15af951f338"},"vehicle_type_id":"4","last_reported":1760177324,"current_range_meters":17600,"station_id":"ce4bgpp2rcd13ifvqc3g","pricing_plan_id":"cebpf4jnsgd1na2vs0mg"},{"bike_id":"d1f450a6-5dea-4515-bf0c-99745a442e6f","system_id":"levelo_inurba_marseille","lat":43.309511,"lon":5.390419,"is_reserved":false,"is_disabled":false,"rental_uris":{"android":"levelo://app?vid=d1f450a6-5dea-4515-bf0c-99745a442e6f","ios":"levelo://app?vid=d1f450a6-5dea-4515-bf0c-99745a442e6f"},"vehicle_type_id":"4","last_reported":1760177324,"current_range_meters":17600,"station_id":"ce4bgup2rcd13ifvqco0","pricing_plan_id":"cebpf4jnsgd1na2vs0mg"},{"bike_id":"d323299d-d1ab-41c7-b944-2778ec2d9b2a","system_id":"levelo_inurba_marseille","lat":43.23179,"lon":5.39985,"is_reserved":false,"is_disabled":false,"rental_uris":{"android":"levelo://app?vid=d323299d-d1ab-41c7-b944-2778ec2d9b2a","ios":"levelo://app?vid=d323299d-d1ab-41c7-b944-2778ec2d9b2a"},"vehicle_type_id":"4","last_reported":1760177324,"current_range_meters":17600,"station_id":"ce4bhn12rcd13ifvqgqg","pricing_plan_id":"cebpf4jnsgd1na2vs0mg"},{"bike_id":"63438911-9e20-4de0-8959-5d119ced76c6","system_id":"levelo_inurba_marseille","lat":43.280798,"lon":5.396602,"is_reserved":false,"is_disabled":false,"rental_uris":{"android":"levelo://app?vid=63438911-9e20-4de0-8959-5d119ced76c6","ios":"levelo://app?vid=63438911-9e20-4de0-8959-5d119ced76c6"},"vehicle_type_id":"4","last_reported":1760177324,"current_range_meters":17600,"station_id":"ce4bho12rcd13ifvqh2g","pricing_plan_id":"cebpf4jnsgd1na2vs0mg"},{"bike_id":"ae2a7956-a773-4074-b9b8-4d3bf601a9ba","system_id":"levelo_inurba_marseille","lat":43.31165,"lon":5.39331,"is_reserved":false,"is_disabled":false,"rental_uris":{"android":"levelo://app?vid=ae2a7956-a773-4074-b9b8-4d3bf601a9ba","ios":"levelo://app?vid=ae2a7956-a773-4074-b9b8-4d3bf601a9ba"},"vehicle_type_id":"4","last_reported":1760177324,"current_range_meters":18000,"station_id":"","pricing_plan_id":"cebpf4jnsgd1na2vs0mg"},{"bike_id":"4dd08bc7-3257-460c-bb89-edc9b57dc12a","system_id":"levelo_inurba_marseille","lat":43.2317,"lon":5.39988,"is_reserved":false,"is_disabled":false,"rental_uris":{"android":"levelo://app?vid=4dd08bc7-3257-460c-bb89-edc9b57dc12a","ios":"levelo://app?vid=4dd08bc7-3257-460c-bb89-edc9b57dc12a"},"vehicle_type_id":"4","last_reported":1760177324,"current_range_meters":18000,"station_id":"ce4bhn12rcd13ifvqgqg","pricing_plan_id":"cebpf4jnsgd1na2vs0mg"},{"bike_id":"b10d96bd-cfc0-4f48-ab6e-c4c72ef0cbc3","system_id":"levelo_inurba_marseille","lat":43.29728,"lon":5.37113,"is_reserved":false,"is_disabled":false,"rental_uris":{"android":"levelo://app?vid=b10d96bd-cfc0-4f48-ab6e-c4c72ef0cbc3","ios":"levelo://app?vid=b10d96bd-cfc0-4f48-ab6e-c4c72ef0cbc3"},"vehicle_type_id":"4","last_reported":1760177324,"current_range_meters":18800,"station_id":"","pricing_plan_id":"cebpf4jnsgd1na2vs0mg"},{"bike_id":"0720f871-5266-450b-85ff-6ca0722de6d0","system_id":"levelo_inurba_marseille","lat":43.276218,"lon":5.361034,"is_reserved":false,"is_disabled":false,"rental_uris":{"android":"levelo://app?vid=0720f871-5266-450b-85ff-6ca0722de6d0","ios":"levelo://app?vid=0720f871-5266-450b-85ff-6ca0722de6d0"},"vehicle_type_id":"4","last_reported":1760177324,"current_range_meters":18800,"station_id":"ce4bgj92rcd13ifvqbe0","pricing_plan_id":"cebpf4jnsgd1na2vs0mg"},{"bike_id":"87a2afbe-65eb-4f71-b21e-40efbb59899e","system_id":"levelo_inurba_marseille","lat":43.279261,"lon":5.395822,"is_reserved":false,"is_disabled":false,"rental_uris":{"android":"levelo://app?vid=87a2afbe-65eb-4f71-b21e-40efbb59899e","ios":"levelo://app?vid=87a2afbe-65eb-4f71-b21e-40efbb59899e"},"vehicle_type_id":"4","last_reported":1760177324,"current_range_meters":18800,"station_id":"ce4bhf92rcd13ifvqf40","pricing_plan_id":"cebpf4jnsgd1na2vs0mg"},{"bike_id":"2eea6181-cc3b-488f-9b46-a56f813c4bae","system_id":"levelo_inurba_marseille","lat":43.25112,"lon":5.40326,"is_reserved":false,"is_disabled":false,"rental_uris":{"android":"levelo://app?vid=2eea6181-cc3b-488f-9b46-a56f813c4bae","ios":"levelo://app?vid=2eea6181-cc3b-488f-9b46-a56f813c4bae"},"vehicle_type_id":"4","last_reported":1760177324,"current_range_meters":18800,"station_id":"ce4bhlh2rcd13ifvqgig","pricing_plan_id":"cebpf4jnsgd1na2vs0mg"},{"bike_id":"8ce263e4-194a-4012-96d5-d6eec0f65350","system_id":"levelo_inurba_marseille","lat":43.2418,"lon":5.39726,"is_reserved":false,"is_disabled":false,"rental_uris":{"android":"levelo://app?vid=8ce263e4-194a-4012-96d5-d6eec0f65350","ios":"levelo://app?vid=8ce263e4-194a-4012-96d5-d6eec0f65350"},"vehicle_type_id":"4","last_reported":1760177324,"current_range_meters":18800,"station_id":"ce4bhn12rcd13ifvqgpg","pricing_plan_id":"cebpf4jnsgd1na2vs0mg"},{"bike_id":"1bc064ab-06d7-4109-bc07-a0da0d4defc1","system_id":"levelo_inurba_marseille","lat":43.23203,"lon":5.35532,"is_reserved":false,"is_disabled":false,"rental_uris":{"android":"levelo://app?vid=1bc064ab-06d7-4109-bc07-a0da0d4defc1","ios":"levelo://app?vid=1bc064ab-06d7-4109-bc07-a0da0d4defc1"},"vehicle_type_id":"4","last_reported":1760177324,"current_range_meters":18800,"station_id":"ce4bhu92rcd13ifvqi70","pricing_plan_id":"cebpf4jnsgd1na2vs0mg"},{"bike_id":"a88060e4-18ba-417b-9308-94c6b69f3ed0","system_id":"levelo_inurba_marseille","lat":43.24161,"lon":5.36375,"is_reserved":false,"is_disabled":false,"rental_uris":{"android":"levelo://app?vid=a88060e4-18ba-417b-9308-94c6b69f3ed0","ios":"levelo://app?vid=a88060e4-18ba-417b-9308-94c6b69f3ed0"},"vehicle_type_id":"4","last_reported":1760177324,"current_range_meters":18800,"station_id":"cpo36qri1sfpv3e86is0","pricing_plan_id":"cebpf4jnsgd1na2vs0mg"},{"bike_id":"7fe79bea-5e42-4119-bb05-688b3bf3270d","system_id":"levelo_inurba_marseille","lat":43.22568,"lon":5.41632,"is_reserved":false,"is_disabled":false,"rental_uris":{"android":"levelo://app?vid=7fe79bea-5e42-4119-bb05-688b3bf3270d","ios":"levelo://app?vid=7fe79bea-5e42-4119-bb05-688b3bf3270d"},"vehicle_type_id":"4","last_reported":1760177324,"current_range_meters":18800,"station_id":"st_d2o4gvlbi1j2169b742g","pricing_plan_id":"cebpf4jnsgd1na2vs0mg"},{"bike_id":"fdfd3e92-648a-4e18-90a3-57873823c41b","system_id":"levelo_inurba_marseille","lat":43.337444,"lon":5.374475,"is_reserved":false,"is_disabled":false,"rental_uris":{"android":"levelo://app?vid=fdfd3e92-648a-4e18-90a3-57873823c41b","ios":"levelo://app?vid=fdfd3e92-648a-4e18-90a3-57873823c41b"},"vehicle_type_id":"4","last_reported":1760177324,"current_range_meters":19200,"station_id":"","pricing_plan_id":"cebpf4jnsgd1na2vs0mg"},{"bike_id":"cd8056cc-3df7-4c4d-a253-6a582ba2e73b","system_id":"levelo_inurba_marseille","lat":43.29528,"lon":5.39034,"is_reserved":false,"is_disabled":false,"rental_uris":{"android":"levelo://app?vid=cd8056cc-3df7-4c4d-a253-6a582ba2e73b","ios":"levelo://app?vid=cd8056cc-3df7-4c4d-a253-6a582ba2e73b"},"vehicle_type_id":"4","last_reported":1760177324,"current_range_meters":19200,"station_id":"ce4bh3p2rcd13ifvqdp0","pricing_plan_id":"cebpf4jnsgd1na2vs0mg"},{"bike_id":"017f5792-d715-4dfc-b823-d6b54f6fcd24","system_id":"levelo_inurba_marseille","lat":43.26569,"lon":5.39006,"is_reserved":false,"is_disabled":false,"rental_uris":{"android":"levelo://app?vid=017f5792-d715-4dfc-b823-d6b54f6fcd24","ios":"levelo://app?vid=017f5792-d715-4dfc-b823-d6b54f6fcd24"},"vehicle_type_id":"4","last_reported":1760177324,"current_range_meters":19200,"station_id":"ce4bhe12rcd13ifvqf30","pricing_plan_id":"cebpf4jnsgd1na2vs0mg"},{"bike_id":"889ff6cd-1f4a-444c-8cdd-e5c07000866a","system_id":"levelo_inurba_marseille","lat":43.23965,"lon":5.36621,"is_reserved":false,"is_disabled":false,"rental_uris":{"android":"levelo://app?vid=889ff6cd-1f4a-444c-8cdd-e5c07000866a","ios":"levelo://app?vid=889ff6cd-1f4a-444c-8cdd-e5c07000866a"},"vehicle_type_id":"4","last_reported":1760177324,"current_range_meters":19200,"station_id":"ce4bhi12rcd13ifvqfp0","pricing_plan_id":"cebpf4jnsgd1na2vs0mg"},{"bike_id":"133c9cd6-f120-43c0-a3a2-955a00bd1271","system_id":"levelo_inurba_marseille","lat":43.23961,"lon":5.36635,"is_reserved":false,"is_disabled":false,"rental_uris":{"android":"levelo://app?vid=133c9cd6-f120-43c0-a3a2-955a00bd1271","ios":"levelo://app?vid=133c9cd6-f120-43c0-a3a2-955a00bd1271"},"vehicle_type_id":"4","last_reported":1760177324,"current_range_meters":19200,"station_id":"ce4bhi12rcd13ifvqfp0","pricing_plan_id":"cebpf4jnsgd1na2vs0mg"},{"bike_id":"9fd6271a-c667-4d33-b37e-7ff2556f5ef3","system_id":"levelo_inurba_marseille","lat":43.25088,"lon":5.39507,"is_reserved":false,"is_disabled":false,"rental_uris":{"android":"levelo://app?vid=9fd6271a-c667-4d33-b37e-7ff2556f5ef3","ios":"levelo://app?vid=9fd6271a-c667-4d33-b37e-7ff2556f5ef3"},"vehicle_type_id":"4","last_reported":1760177324,"current_range_meters":19200,"station_id":"ce4bhm12rcd13ifvqgkg","pricing_plan_id":"cebpf4jnsgd1na2vs0mg"},{"bike_id":"6c5a429e-2fb0-4498-85e6-dafb87c6aab7","system_id":"levelo_inurba_marseille","lat":43.27809,"lon":5.40709,"is_reserved":false,"is_disabled":false,"rental_uris":{"android":"levelo://app?vid=6c5a429e-2fb0-4498-85e6-dafb87c6aab7","ios":"levelo://app?vid=6c5a429e-2fb0-4498-85e6-dafb87c6aab7"},"vehicle_type_id":"4","last_reported":1760177324,"current_range_meters":19200,"station_id":"ce4bhnh2rcd13ifvqgtg","pricing_plan_id":"cebpf4jnsgd1na2vs0mg"},{"bike_id":"b6544ab3-0ec4-439d-b62f-8f762208acc8","system_id":"levelo_inurba_marseille","lat":43.25497,"lon":5.37647,"is_reserved":false,"is_disabled":false,"rental_uris":{"android":"levelo://app?vid=b6544ab3-0ec4-439d-b62f-8f762208acc8","ios":"levelo://app?vid=b6544ab3-0ec4-439d-b62f-8f762208acc8"},"vehicle_type_id":"4","last_reported":1760177324,"current_range_meters":19600,"station_id":"ce4bhh12rcd13ifvqff0","pricing_plan_id":"cebpf4jnsgd1na2vs0mg"},{"bike_id":"dcb04ae5-42ba-4e45-86f4-18620ea89b53","system_id":"levelo_inurba_marseille","lat":43.243916,"lon":5.370707,"is_reserved":false,"is_disabled":false,"rental_uris":{"android":"levelo://app?vid=dcb04ae5-42ba-4e45-86f4-18620ea89b53","ios":"levelo://app?vid=dcb04ae5-42ba-4e45-86f4-18620ea89b53"},"vehicle_type_id":"4","last_reported":1760177324,"current_range_meters":19600,"station_id":"ce4bhhh2rcd13ifvqfk0","pricing_plan_id":"cebpf4jnsgd1na2vs0mg"},{"bike_id":"fd756379-a569-4e77-b474-c526177c49d1","system_id":"levelo_inurba_marseille","lat":43.295585,"lon":5.42286,"is_reserved":false,"is_disabled":false,"rental_uris":{"android":"levelo://app?vid=fd756379-a569-4e77-b474-c526177c49d1","ios":"levelo://app?vid=fd756379-a569-4e77-b474-c526177c49d1"},"vehicle_type_id":"4","last_reported":1760177324,"current_range_meters":19600,"station_id":"ce4bhph2rcd13ifvqhdg","pricing_plan_id":"cebpf4jnsgd1na2vs0mg"},{"bike_id":"c6307a71-646f-4c5a-9084-fa2f86ef2fb1","system_id":"levelo_inurba_marseille","lat":43.23193,"lon":5.35546,"is_reserved":false,"is_disabled":false,"rental_uris":{"android":"levelo://app?vid=c6307a71-646f-4c5a-9084-fa2f86ef2fb1","ios":"levelo://app?vid=c6307a71-646f-4c5a-9084-fa2f86ef2fb1"},"vehicle_type_id":"4","last_reported":1760177324,"current_range_meters":19600,"station_id":"ce4bhu92rcd13ifvqi70","pricing_plan_id":"cebpf4jnsgd1na2vs0mg"},{"bike_id":"cf0c65d1-be92-470e-aadb-83fc3474b512","system_id":"levelo_inurba_marseille","lat":43.21192,"lon":5.35072,"is_reserved":false,"is_disabled":false,"rental_uris":{"android":"levelo://app?vid=cf0c65d1-be92-470e-aadb-83fc3474b512","ios":"levelo://app?vid=cf0c65d1-be92-470e-aadb-83fc3474b512"},"vehicle_type_id":"4","last_reported":1760177324,"current_range_meters":20000,"station_id":"","pricing_plan_id":"cebpf4jnsgd1na2vs0mg"},{"bike_id":"801f1623-a60a-4c10-b1c1-9671df6e3bf7","system_id":"levelo_inurba_marseille","lat":43.30434,"lon":5.36829,"is_reserved":false,"is_disabled":false,"rental_uris":{"android":"levelo://app?vid=801f1623-a60a-4c10-b1c1-9671df6e3bf7","ios":"levelo://app?vid=801f1623-a60a-4c10-b1c1-9671df6e3bf7"},"vehicle_type_id":"4","last_reported":1760177324,"current_range_meters":20000,"station_id":"","pricing_plan_id":"cebpf4jnsgd1na2vs0mg"},{"bike_id":"d92171e9-1c49-4e2c-a013-b2eab3f1250b","system_id":"levelo_inurba_marseille","lat":43.30192,"lon":5.3807,"is_reserved":false,"is_disabled":false,"rental_uris":{"android":"levelo://app?vid=d92171e9-1c49-4e2c-a013-b2eab3f1250b","ios":"levelo://app?vid=d92171e9-1c49-4e2c-a013-b2eab3f1250b"},"vehicle_type_id":"4","last_reported":1760177324,"current_range_meters":20000,"station_id":"","pricing_plan_id":"cebpf4jnsgd1na2vs0mg"},{"bike_id":"a4ceaffa-8bcf-4138-8a94-4e5f49e0135d","system_id":"levelo_inurba_marseille","lat":43.30942,"lon":5.39049,"is_reserved":false,"is_disabled":false,"rental_uris":{"android":"levelo://app?vid=a4ceaffa-8bcf-4138-8a94-4e5f49e0135d","ios":"levelo://app?vid=a4ceaffa-8bcf-4138-8a94-4e5f49e0135d"},"vehicle_type_id":"4","last_reported":1760177324,"current_range_meters":20000,"station_id":"ce4bgup2rcd13ifvqco0","pricing_plan_id":"cebpf4jnsgd1na2vs0mg"},{"bike_id":"0495b2f7-3fac-4455-9f7c-df01c3d01524","system_id":"levelo_inurba_marseille","lat":43.255837,"lon":5.382309,"is_reserved":false,"is_disabled":false,"rental_uris":{"android":"levelo://app?vid=0495b2f7-3fac-4455-9f7c-df01c3d01524","ios":"levelo://app?vid=0495b2f7-3fac-4455-9f7c-df01c3d01524"},"vehicle_type_id":"4","last_reported":1760177324,"current_range_meters":20000,"station_id":"ce4bhih2rcd13ifvqfs0","pricing_plan_id":"cebpf4jnsgd1na2vs0mg"},{"bike_id":"e51d39a5-5015-4e1c-bc42-c4fdbbbf0d4e","system_id":"levelo_inurba_marseille","lat":43.26203,"lon":5.37928,"is_reserved":false,"is_disabled":false,"rental_uris":{"android":"levelo://app?vid=e51d39a5-5015-4e1c-bc42-c4fdbbbf0d4e","ios":"levelo://app?vid=e51d39a5-5015-4e1c-bc42-c4fdbbbf0d4e"},"vehicle_type_id":"4","last_reported":1760177324,"current_range_meters":20000,"station_id":"ce4bhjp2rcd13ifvqg90","pricing_plan_id":"cebpf4jnsgd1na2vs0mg"},{"bike_id":"4bb5e811-77b4-4f11-91ab-28ccfa24065d","system_id":"levelo_inurba_marseille","lat":43.2417,"lon":5.36401,"is_reserved":false,"is_disabled":false,"rental_uris":{"android":"levelo://app?vid=4bb5e811-77b4-4f11-91ab-28ccfa24065d","ios":"levelo://app?vid=4bb5e811-77b4-4f11-91ab-28ccfa24065d"},"vehicle_type_id":"4","last_reported":1760177324,"current_range_meters":20000,"station_id":"cpo36qri1sfpv3e86is0","pricing_plan_id":"cebpf4jnsgd1na2vs0mg"},{"bike_id":"3aa70402-6e50-44b0-bf06-150c8047140d","system_id":"levelo_inurba_marseille","lat":43.225527,"lon":5.416311,"is_reserved":false,"is_disabled":false,"rental_uris":{"android":"levelo://app?vid=3aa70402-6e50-44b0-bf06-150c8047140d","ios":"levelo://app?vid=3aa70402-6e50-44b0-bf06-150c8047140d"},"vehicle_type_id":"4","last_reported":1760177324,"current_range_meters":20000,"station_id":"st_d2o4gvlbi1j2169b742g","pricing_plan_id":"cebpf4jnsgd1na2vs0mg"},{"bike_id":"a832ebe3-cdb8-4371-a560-4427dda18f6f","system_id":"levelo_inurba_marseille","lat":43.30922,"lon":5.40144,"is_reserved":false,"is_disabled":false,"rental_uris":{"android":"levelo://app?vid=a832ebe3-cdb8-4371-a560-4427dda18f6f","ios":"levelo://app?vid=a832ebe3-cdb8-4371-a560-4427dda18f6f"},"vehicle_type_id":"4","last_reported":1760177324,"current_range_meters":20400,"station_id":"ce4bgvp2rcd13ifvqct0","pricing_plan_id":"cebpf4jnsgd1na2vs0mg"},{"bike_id":"8b54de43-8f67-4531-9e6d-b78e352e4911","system_id":"levelo_inurba_marseille","lat":43.3169,"lon":5.4046,"is_reserved":false,"is_disabled":false,"rental_uris":{"android":"levelo://app?vid=8b54de43-8f67-4531-9e6d-b78e352e4911","ios":"levelo://app?vid=8b54de43-8f67-4531-9e6d-b78e352e4911"},"vehicle_type_id":"4","last_reported":1760177324,"current_range_meters":20400,"station_id":"ce4bh012rcd13ifvqd00","pricing_plan_id":"cebpf4jnsgd1na2vs0mg"},{"bike_id":"712e5892-aa98-4f6f-b9d6-5cfa43a62e11","system_id":"levelo_inurba_marseille","lat":43.25086,"lon":5.39522,"is_reserved":false,"is_disabled":false,"rental_uris":{"android":"levelo://app?vid=712e5892-aa98-4f6f-b9d6-5cfa43a62e11","ios":"levelo://app?vid=712e5892-aa98-4f6f-b9d6-5cfa43a62e11"},"vehicle_type_id":"4","last_reported":1760177324,"current_range_meters":20400,"station_id":"ce4bhm12rcd13ifvqgkg","pricing_plan_id":"cebpf4jnsgd1na2vs0mg"},{"bike_id":"bd716387-d314-4c47-800f-f85c5956b1b6","system_id":"levelo_inurba_marseille","lat":43.23189,"lon":5.39977,"is_reserved":false,"is_disabled":false,"rental_uris":{"android":"levelo://app?vid=bd716387-d314-4c47-800f-f85c5956b1b6","ios":"levelo://app?vid=bd716387-d314-4c47-800f-f85c5956b1b6"},"vehicle_type_id":"4","last_reported":1760177324,"current_range_meters":20400,"station_id":"ce4bhn12rcd13ifvqgqg","pricing_plan_id":"cebpf4jnsgd1na2vs0mg"},{"bike_id":"2609af2e-85de-4b67-9271-9ad758b9f2c3","system_id":"levelo_inurba_marseille","lat":43.27972,"lon":5.399788,"is_reserved":false,"is_disabled":false,"rental_uris":{"android":"levelo://app?vid=2609af2e-85de-4b67-9271-9ad758b9f2c3","ios":"levelo://app?vid=2609af2e-85de-4b67-9271-9ad758b9f2c3"},"vehicle_type_id":"4","last_reported":1760177324,"current_range_meters":20400,"station_id":"ce4bho92rcd13ifvqh4g","pricing_plan_id":"cebpf4jnsgd1na2vs0mg"},{"bike_id":"56bf8a1f-1fba-48ae-941e-eda9e33180f9","system_id":"levelo_inurba_marseille","lat":43.32286,"lon":5.3828,"is_reserved":false,"is_disabled":false,"rental_uris":{"android":"levelo://app?vid=56bf8a1f-1fba-48ae-941e-eda9e33180f9","ios":"levelo://app?vid=56bf8a1f-1fba-48ae-941e-eda9e33180f9"},"vehicle_type_id":"4","last_reported":1760177324,"current_range_meters":20400,"station_id":"ce4bhr12rcd13ifvqhqg","pricing_plan_id":"cebpf4jnsgd1na2vs0mg"},{"bike_id":"4efc364f-3b43-4cea-9e05-4577dec8f723","system_id":"levelo_inurba_marseille","lat":43.23187,"lon":5.35553,"is_reserved":false,"is_disabled":false,"rental_uris":{"android":"levelo://app?vid=4efc364f-3b43-4cea-9e05-4577dec8f723","ios":"levelo://app?vid=4efc364f-3b43-4cea-9e05-4577dec8f723"},"vehicle_type_id":"4","last_reported":1760177324,"current_range_meters":20400,"station_id":"ce4bhu92rcd13ifvqi70","pricing_plan_id":"cebpf4jnsgd1na2vs0mg"},{"bike_id":"0ffd122f-923e-40e7-8fd0-2821cbadf821","system_id":"levelo_inurba_marseille","lat":43.23056,"lon":5.35501,"is_reserved":false,"is_disabled":false,"rental_uris":{"android":"levelo://app?vid=0ffd122f-923e-40e7-8fd0-2821cbadf821","ios":"levelo://app?vid=0ffd122f-923e-40e7-8fd0-2821cbadf821"},"vehicle_type_id":"4","last_reported":1760177324,"current_range_meters":20400,"station_id":"cpo3342slgdg3j2ifvpg","pricing_plan_id":"cebpf4jnsgd1na2vs0mg"},{"bike_id":"76164ba7-75d0-4c5e-97c0-ef36374c7614","system_id":"levelo_inurba_marseille","lat":43.24944,"lon":5.40503,"is_reserved":false,"is_disabled":false,"rental_uris":{"android":"levelo://app?vid=76164ba7-75d0-4c5e-97c0-ef36374c7614","ios":"levelo://app?vid=76164ba7-75d0-4c5e-97c0-ef36374c7614"},"vehicle_type_id":"4","last_reported":1760177324,"current_range_meters":20400,"station_id":"st_d2ngiaodas8pm72gd1h0","pricing_plan_id":"cebpf4jnsgd1na2vs0mg"},{"bike_id":"46e371ea-2a9d-4ef9-abd3-82401d6d9122","system_id":"levelo_inurba_marseille","lat":43.29847,"lon":5.3629,"is_reserved":false,"is_disabled":false,"rental_uris":{"android":"levelo://app?vid=46e371ea-2a9d-4ef9-abd3-82401d6d9122","ios":"levelo://app?vid=46e371ea-2a9d-4ef9-abd3-82401d6d9122"},"vehicle_type_id":"4","last_reported":1760177324,"current_range_meters":20800,"station_id":"ce4bgpp2rcd13ifvqc3g","pricing_plan_id":"cebpf4jnsgd1na2vs0mg"},{"bike_id":"7623a8e4-1214-4d44-ab03-05342b2232b2","system_id":"levelo_inurba_marseille","lat":43.28264,"lon":5.35052,"is_reserved":false,"is_disabled":false,"rental_uris":{"android":"levelo://app?vid=7623a8e4-1214-4d44-ab03-05342b2232b2","ios":"levelo://app?vid=7623a8e4-1214-4d44-ab03-05342b2232b2"},"vehicle_type_id":"4","last_reported":1760177324,"current_range_meters":20800,"station_id":"ce4bhbp2rcd13ifvqerg","pricing_plan_id":"cebpf4jnsgd1na2vs0mg"},{"bike_id":"3dffbb90-c51e-48f8-a5ef-2afa7e70e7c7","system_id":"levelo_inurba_marseille","lat":43.26033,"lon":5.37551,"is_reserved":false,"is_disabled":false,"rental_uris":{"android":"levelo://app?vid=3dffbb90-c51e-48f8-a5ef-2afa7e70e7c7","ios":"levelo://app?vid=3dffbb90-c51e-48f8-a5ef-2afa7e70e7c7"},"vehicle_type_id":"4","last_reported":1760177324,"current_range_meters":20800,"station_id":"ce4bhgh2rcd13ifvqfa0","pricing_plan_id":"cebpf4jnsgd1na2vs0mg"},{"bike_id":"6ed2574f-caa1-4c54-97ee-d905951a0984","system_id":"levelo_inurba_marseille","lat":43.25494,"lon":5.37651,"is_reserved":false,"is_disabled":false,"rental_uris":{"android":"levelo://app?vid=6ed2574f-caa1-4c54-97ee-d905951a0984","ios":"levelo://app?vid=6ed2574f-caa1-4c54-97ee-d905951a0984"},"vehicle_type_id":"4","last_reported":1760177324,"current_range_meters":20800,"station_id":"ce4bhh12rcd13ifvqff0","pricing_plan_id":"cebpf4jnsgd1na2vs0mg"},{"bike_id":"602e9ecd-ad82-4d45-89be-929c911d3eb3","system_id":"levelo_inurba_marseille","lat":43.26493,"lon":5.39546,"is_reserved":false,"is_disabled":false,"rental_uris":{"android":"levelo://app?vid=602e9ecd-ad82-4d45-89be-929c911d3eb3","ios":"levelo://app?vid=602e9ecd-ad82-4d45-89be-929c911d3eb3"},"vehicle_type_id":"4","last_reported":1760177324,"current_range_meters":20800,"station_id":"ce4bhi12rcd13ifvqfq0","pricing_plan_id":"cebpf4jnsgd1na2vs0mg"},{"bike_id":"56d041b9-8d1c-49cf-9009-0dc0de16db65","system_id":"levelo_inurba_marseille","lat":43.23197,"lon":5.35548,"is_reserved":false,"is_disabled":false,"rental_uris":{"android":"levelo://app?vid=56d041b9-8d1c-49cf-9009-0dc0de16db65","ios":"levelo://app?vid=56d041b9-8d1c-49cf-9009-0dc0de16db65"},"vehicle_type_id":"4","last_reported":1760177324,"current_range_meters":20800,"station_id":"ce4bhu92rcd13ifvqi70","pricing_plan_id":"cebpf4jnsgd1na2vs0mg"},{"bike_id":"54af182f-82fd-4524-9da2-785af9850a37","system_id":"levelo_inurba_marseille","lat":43.288567,"lon":5.358411,"is_reserved":false,"is_disabled":false,"rental_uris":{"android":"levelo://app?vid=54af182f-82fd-4524-9da2-785af9850a37","ios":"levelo://app?vid=54af182f-82fd-4524-9da2-785af9850a37"},"vehicle_type_id":"4","last_reported":1760177324,"current_range_meters":21600,"station_id":"ce4bhb12rcd13ifvqel0","pricing_plan_id":"cebpf4jnsgd1na2vs0mg"},