{"last_updated":1737897022,"ttl":60,"version":"2.2","data":{"bikes":[{"bike_id":"ab628177-ca1b-4dd7-b477-6d03ce63a8a7","system_id":"levelo_inurba_marseille","lat":43.30155,"lon":5.38077,"is_reserved":false,"is_disabled":false,"rental_uris":{"android":"levelo://app?vid=ab628177-ca1b-4dd7-b477-6d03ce63a8a7","ios":"levelo://app?vid=ab628177-ca1b-4dd7-b477-6d03ce63a8a7"},"vehicle_type_id":"4","last_reported":1737897022,"current_range_meters":38800,"station_id":"ce4bgjp2rcd13ifvqbh0","pricing_plan_id":"cebpf4jnsgd1na2vs0mg"},{"bike_id":"03c64e80-5e01-4332-bc90-93a2fb6ac145","system_id":"levelo_inurba_marseille","lat":43.22924,"lon":5.35389,"is_reserved":false,"is_disabled":false,"rental_uris":{"android":"levelo://app?vid=03c64e80-5e01-4332-bc90-93a2fb6ac145","ios":"levelo://app?vid=03c64e80-5e01-4332-bc90-93a2fb6ac145"},"vehicle_type_id":"4","last_reported":1737897022,"current_range_meters":37600,"station_id":"cpo3532slgdg3j2ikp40","pricing_plan_id":"cebpf4jnsgd1na2vs0mg"},{"bike_id":"bffcd325-e6cd-43e3-b791-83e0a253567f","system_id":"levelo_inurba_marseille","lat":43.27205,"lon":5.3919,"is_reserved":false,"is_disabled":false,"rental_uris":{"android":"levelo://app?vid=bffcd325-e6cd-43e3-b791-83e0a253567f","ios":"levelo://app?vid=bffcd325-e6cd-43e3-b791-83e0a253567f"},"vehicle_type_id":"4","last_reported":1737897022,"current_range_meters":38400,"station_id":"ce4bhhp2rcd13ifvqfm0","pricing_plan_id":"cebpf4jnsgd1na2vs0mg"},{"bike_id":"22fdda07-29f7-4097-aa7c-457566d3caba","system_id":"levelo_inurba_marseille","lat":43.250818,"lon":5.395344,"is_reserved":false,"is_disabled":false,"rental_uris":{"android":"levelo://app?vid=22fdda07-29f7-4097-aa7c-457566d3caba","ios":"levelo://app?vid=22fdda07-29f7-4097-aa7c-457566d3caba"},"vehicle_type_id":"4","last_reported":1737897022,"current_range_meters":25600,"station_id":"ce4bhm12rcd13ifvqgkg","pricing_plan_id":"cebpf4jnsgd1na2vs0mg"},{"bike_id":"5f947a93-88f3-4ef0-a91b-15d3fec0dbf4","system_id":"levelo_inurba_marseille","lat":43.279376,"lon":5.410448,"is_reserved":false,"is_disabled":false,"rental_uris":{"android":"levelo://app?vid=5f947a93-88f3-4ef0-a91b-15d3fec0dbf4","ios":"levelo://app?vid=5f947a93-88f3-4ef0-a91b-15d3fec0dbf4"},"vehicle_type_id":"4","last_reported":1737897022,"current_range_meters":37600,"station_id":"ce4bhnp2rcd13ifvqh0g","pricing_plan_id":"cebpf4jnsgd1na2vs0mg"},{"bike_id":"4857b4cf-decd-41a9-ade3-4c571462c146","system_id":"levelo_inurba_marseille","lat":43.25404,"lon":5.41887,"is_reserved":false,"is_disabled":true,"rental_uris":{"android":"levelo://app?vid=4857b4cf-decd-41a9-ade3-4c571462c146","ios":"levelo://app?vid=4857b4cf-decd-41a9-ade3-4c571462c146"},"vehicle_type_id":"4","last_reported":1737897022,"current_range_meters":400,"station_id":"","pricing_plan_id":"cebpf4jnsgd1na2vs0mg"},{"bike_id":"4d1ac8a5-44bb-40f5-ad76-3b317a208892","system_id":"levelo_inurba_marseille","lat":43.30811,"lon":5.43521,"is_reserved":false,"is_disabled":false,"rental_uris":{"android":"levelo://app?vid=4d1ac8a5-44bb-40f5-ad76-3b317a208892","ios":"levelo://app?vid=4d1ac8a5-44bb-40f5-ad76-3b317a208892"},"vehicle_type_id":"4","last_reported":1737897022,"current_range_meters":24800,"station_id":"ce4bhph2rcd13ifvqheg","pricing_plan_id":"cebpf4jnsgd1na2vs0mg"},{"bike_id":"58d9e3df-28a3-4560-b2cd-4d33fefbd544","system_id":"levelo_inurba_marseille","lat":43.28351,"lon":5.38107,"is_reserved":false,"is_disabled":true,"rental_uris":{"android":"levelo://app?vid=58d9e3df-28a3-4560-b2cd-4d33fefbd544","ios":"levelo://app?vid=58d9e3df-28a3-4560-b2cd-4d33fefbd544"},"vehicle_type_id":"4","last_reported":1737897022,"current_range_meters":16800,"station_id":"ce4bh412rcd13ifvqdr0","pricing_plan_id":"cebpf4jnsgd1na2vs0mg"},{"bike_id":"fa5cc696-fa74-45d7-9894-bb340f9342a9","system_id":"levelo_inurba_marseille","lat":43.28658,"lon":5.3635,"is_reserved":false,"is_disabled":true,"rental_uris":{"android":"levelo://app?vid=fa5cc696-fa74-45d7-9894-bb340f9342a9","ios":"levelo://app?vid=fa5cc696-fa74-45d7-9894-bb340f9342a9"},"vehicle_type_id":"4","last_reported":1737897022,"current_range_meters":0,"station_id":"ce4bhah2rcd13ifvqej0","pricing_plan_id":"cebpf4jnsgd1na2vs0mg"},{"bike_id":"8a0e0678-6d35-481a-b62a-f9a4896bdc72","system_id":"levelo_inurba_marseille","lat":43.27205,"lon":5.39172,"is_reserved":false,"is_disabled":false,"rental_uris":{"android":"levelo://app?vid=8a0e0678-6d35-481a-b62a-f9a4896bdc72","ios":"levelo://app?vid=8a0e0678-6d35-481a-b62a-f9a4896bdc72"},"vehicle_type_id":"4","last_reported":1737897022,"current_range_meters":38800,"station_id":"ce4bhhp2rcd13ifvqfm0","pricing_plan_id":"cebpf4jnsgd1na2vs0mg"},{"bike_id":"d7c679d8-4279-46d2-9de9-cdf9d0fbe6c5","system_id":"levelo_inurba_marseille","lat":43.30139,"lon":5.37412,"is_reserved":false,"is_disabled":true,"rental_uris":{"android":"levelo://app?vid=d7c679d8-4279-46d2-9de9-cdf9d0fbe6c5","ios":"levelo://app?vid=d7c679d8-4279-46d2-9de9-cdf9d0fbe6c5"},"vehicle_type_id":"4","last_reported":1737897022,"current_range_meters":38800,"station_id":"ce4bgs92rcd13ifvqcc0","pricing_plan_id":"cebpf4jnsgd1na2vs0mg"},{"bike_id":"c27cac2d-2c6c-4b24-9cc6-691dbf0a6750","system_id":"levelo_inurba_marseille","lat":43.3229,"lon":5.38285,"is_reserved":false,"is_disabled":false,"rental_uris":{"android":"levelo://app?vid=c27cac2d-2c6c-4b24-9cc6-691dbf0a6750","ios":"levelo://app?vid=c27cac2d-2c6c-4b24-9cc6-691dbf0a6750"},"vehicle_type_id":"4","last_reported":1737897022,"current_range_meters":16800,"station_id":"ce4bhr12rcd13ifvqhqg","pricing_plan_id":"cebpf4jnsgd1na2vs0mg"},{"bike_id":"c91b5f2c-8ca3-43ed-a07a-3a40966e2960","system_id":"levelo_inurba_marseille","lat":43.23952,"lon":5.36663,"is_reserved":false,"is_disabled":false,"rental_uris":{"android":"levelo://app?vid=c91b5f2c-8ca3-43ed-a07a-3a40966e2960","ios":"levelo://app?vid=c91b5f2c-8ca3-43ed-a07a-3a40966e2960"},"vehicle_type_id":"4","last_reported":1737897022,"current_range_meters":8800,"station_id":"ce4bhi12rcd13ifvqfp0","pricing_plan_id":"cebpf4jnsgd1na2vs0mg"},{"bike_id":"99676360-4326-4830-9645-65ec283f07b1","system_id":"levelo_inurba_marseille","lat":43.30153,"lon":5.38081,"is_reserved":false,"is_disabled":false,"rental_uris":{"android":"levelo://app?vid=99676360-4326-4830-9645-65ec283f07b1","ios":"levelo://app?vid=99676360-4326-4830-9645-65ec283f07b1"},"vehicle_type_id":"4","last_reported":1737897022,"current_range_meters":38400,"station_id":"ce4bgjp2rcd13ifvqbh0","pricing_plan_id":"cebpf4jnsgd1na2vs0mg"},{"bike_id":"2b67dc9f-1e10-497e-af38-ea5cf1d371ff","system_id":"levelo_inurba_marseille","lat":43.32143,"lon":5.41495,"is_reserved":false,"is_disabled":false,"rental_uris":{"android":"levelo://app?vid=2b67dc9f-1e10-497e-af38-ea5cf1d371ff","ios":"levelo://app?vid=2b67dc9f-1e10-497e-af38-ea5cf1d371ff"},"vehicle_type_id":"4","last_reported":1737897022,"current_range_meters":38800,"station_id":"ce4bhq92rcd13ifvqhkg","pricing_plan_id":"cebpf4jnsgd1na2vs0mg"},{"bike_id":"bd23dcac-4a81-4482-b7c7-5669c412f41e","system_id":"levelo_inurba_marseille","lat":43.24184,"lon":5.39723,"is_reserved":false,"is_disabled":false,"rental_uris":{"android":"levelo://app?vid=bd23dcac-4a81-4482-b7c7-5669c412f41e","ios":"levelo://app?vid=bd23dcac-4a81-4482-b7c7-5669c412f41e"},"vehicle_type_id":"4","last_reported":1737897022,"current_range_meters":37600,"station_id":"ce4bhn12rcd13ifvqgpg","pricing_plan_id":"cebpf4jnsgd1na2vs0mg"},{"bike_id":"e551ac94-1727-4123-98db-40aad28848a6","system_id":"levelo_inurba_marseille","lat":43.26979,"lon":5.38721,"is_reserved":false,"is_disabled":false,"rental_uris":{"android":"levelo://app?vid=e551ac94-1727-4123-98db-40aad28848a6","ios":"levelo://app?vid=e551ac94-1727-4123-98db-40aad28848a6"},"vehicle_type_id":"4","last_reported":1737897022,"current_range_meters":38800,"station_id":"ce4bhhp2rcd13ifvqfm0","pricing_plan_id":"cebpf4jnsgd1na2vs0mg"},{"bike_id":"457dbd0e-8f95-45e9-8ae6-40b39a5ca596","system_id":"levelo_inurba_marseille","lat":43.23211,"lon":5.35548,"is_reserved":false,"is_disabled":false,"rental_uris":{"android":"levelo://app?vid=457dbd0e-8f95-45e9-8ae6-40b39a5ca596","ios":"levelo://app?vid=457dbd0e-8f95-45e9-8ae6-40b39a5ca596"},"vehicle_type_id":"4","last_reported":1737897022,"current_range_meters":36000,"station_id":"ce4bhu92rcd13ifvqi70","pricing_plan_id":"cebpf4jnsgd1na2vs0mg"},{"bike_id":"d77db00f-908b-4381-ac06-dc3e91b69008","system_id":"levelo_inurba_marseille","lat":43.25573,"lon":5.38249,"is_reserved":false,"is_disabled":false,"rental_uris":{"android":"levelo://app?vid=d77db00f-908b-4381-ac06-dc3e91b69008","ios":"levelo://app?vid=d77db00f-908b-4381-ac06-dc3e91b69008"},"vehicle_type_id":"4","last_reported":1737897022,"current_range_meters":5600,"station_id":"ce4bhih2rcd13ifvqfs0","pricing_plan_id":"cebpf4jnsgd1na2vs0mg"},{"bike_id":"e052512e-d0fe-4bbe-8fcb-e38e187d8be4","system_id":"levelo_inurba_marseille","lat":43.23963,"lon":5.36641,"is_reserved":false,"is_disabled":false,"rental_uris":{"android":"levelo://app?vid=e052512e-d0fe-4bbe-8fcb-e38e187d8be4","ios":"levelo://app?vid=e052512e-d0fe-4bbe-8fcb-e38e187d8be4"},"vehicle_type_id":"4","last_reported":1737897022,"current_range_meters":30400,"station_id":"ce4bhi12rcd13ifvqfp0","pricing_plan_id":"cebpf4jnsgd1na2vs0mg"},{"bike_id":"b059518b-cf2e-465f-b01b-867541f3ad91","system_id":"levelo_inurba_marseille","lat":43.24084,"lon":5.3774,"is_reserved":false,"is_disabled":false,"rental_uris":{"android":"levelo://app?vid=b059518b-cf2e-465f-b01b-867541f3ad91","ios":"levelo://app?vid=b059518b-cf2e-465f-b01b-867541f3ad91"},"vehicle_type_id":"4","last_reported":1737897022,"current_range_meters":38800,"station_id":"ce4bhnp2rcd13ifvqgvg","pricing_plan_id":"cebpf4jnsgd1na2vs0mg"},{"bike_id":"d249027f-c553-4ff1-9f7c-498d6709f69a","system_id":"levelo_inurba_marseille","lat":43.28417,"lon":5.349949,"is_reserved":false,"is_disabled":false,"rental_uris":{"android":"levelo://app?vid=d249027f-c553-4ff1-9f7c-498d6709f69a","ios":"levelo://app?vid=d249027f-c553-4ff1-9f7c-498d6709f69a"},"vehicle_type_id":"4","last_reported":1737897022,"current_range_meters":34800,"station_id":"","pricing_plan_id":"cebpf4jnsgd1na2vs0mg"},{"bike_id":"4e4a5c41-6ed2-435b-9c6a-dbaeecb8e0b1","system_id":"levelo_inurba_marseille","lat":43.29911,"lon":5.4367,"is_reserved":false,"is_disabled":false,"rental_uris":{"android":"levelo://app?vid=4e4a5c41-6ed2-435b-9c6a-dbaeecb8e0b1","ios":"levelo://app?vid=4e4a5c41-6ed2-435b-9c6a-dbaeecb8e0b1"},"vehicle_type_id":"4","last_reported":1737897022,"current_range_meters":16000,"station_id":"ce4bhpp2rcd13ifvqhfg","pricing_plan_id":"cebpf4jnsgd1na2vs0mg"},{"bike_id":"d06b6dd8-7b26-4e14-8483-8f8817ba9baf","system_id":"levelo_inurba_marseille","lat":43.32127,"lon":5.41518,"is_reserved":false,"is_disabled":false,"rental_uris":{"android":"levelo://app?vid=d06b6dd8-7b26-4e14-8483-8f8817ba9baf","ios":"levelo://app?vid=d06b6dd8-7b26-4e14-8483-8f8817ba9baf"},"vehicle_type_id":"4","last_reported":1737897022,"current_range_meters":38400,"station_id":"ce4bhq92rcd13ifvqhkg","pricing_plan_id":"cebpf4jnsgd1na2vs0mg"},{"bike_id":"6dcb204b-548c-487b-838f-241b01dfc2db","system_id":"levelo_inurba_marseille","lat":43.26796,"lon":5.39418,"is_reserved":false,"is_disabled":false,"rental_uris":{"android":"levelo://app?vid=6dcb204b-548c-487b-838f-241b01dfc2db","ios":"levelo://app?vid=6dcb204b-548c-487b-838f-241b01dfc2db"},"vehicle_type_id":"4","last_reported":1737897022,"current_range_meters":24400,"station_id":"ce4bhh12rcd13ifvqfg0","pricing_plan_id":"cebpf4jnsgd1na2vs0mg"},{"bike_id":"f65786a8-8c3b-40b9-a305-53e47b5c7019","system_id":"levelo_inurba_marseille","lat":43.25497,"lon":5.37664,"is_reserved":false,"is_disabled":false,"rental_uris":{"android":"levelo://app?vid=f65786a8-8c3b-40b9-a305-53e47b5c7019","ios":"levelo://app?vid=f65786a8-8c3b-40b9-a305-53e47b5c7019"},"vehicle_type_id":"4","last_reported":1737897022,"current_range_meters":38800,"station_id":"ce4bhh12rcd13ifvqff0","pricing_plan_id":"cebpf4jnsgd1na2vs0mg"},{"bike_id":"0886edf6-4f7e-49f5-80d6-fa517f687991","system_id":"levelo_inurba_marseille","lat":43.28272,"lon":5.35065,"is_reserved":false,"is_disabled":false,"rental_uris":{"android":"levelo://app?vid=0886edf6-4f7e-49f5-80d6-fa517f687991","ios":"levelo://app?vid=0886edf6-4f7e-49f5-80d6-fa517f687991"},"vehicle_type_id":"4","last_reported":1737897022,"current_range_meters":18000,"station_id":"ce4bhbp2rcd13ifvqerg","pricing_plan_id":"cebpf4jnsgd1na2vs0mg"},{"bike_id":"0cd73bdc-cd0c-4df3-872c-1c4be61bdf54","system_id":"levelo_inurba_marseille","lat":43.29189,"lon":5.35796,"is_reserved":false,"is_disabled":false,"rental_uris":{"android":"levelo://app?vid=0cd73bdc-cd0c-4df3-872c-1c4be61bdf54","ios":"levelo://app?vid=0cd73bdc-cd0c-4df3-872c-1c4be61bdf54"},"vehicle_type_id":"4","last_reported":1737897022,"current_range_meters":14800,"station_id":"ce4bhb12rcd13ifvqel0","pricing_plan_id":"cebpf4jnsgd1na2vs0mg"},{"bike_id":"4ee228f4-d876-40c1-a3ee-470ecaf3e882","system_id":"levelo_inurba_marseille","lat":43.31951,"lon":5.37126,"is_reserved":false,"is_disabled":false,"rental_uris":{"android":"levelo://app?vid=4ee228f4-d876-40c1-a3ee-470ecaf3e882","ios":"levelo://app?vid=4ee228f4-d876-40c1-a3ee-470ecaf3e882"},"vehicle_type_id":"4","last_reported":1737897022,"current_range_meters":32800,"station_id":"","pricing_plan_id":"cebpf4jnsgd1na2vs0mg"},{"bike_id":"e9b18d33-2c32-4c0b-bac5-aee7380b5154","system_id":"levelo_inurba_marseille","lat":43.25089,"lon":5.3952,"is_reserved":false,"is_disabled":false,"rental_uris":{"android":"levelo://app?vid=e9b18d33-2c32-4c0b-bac5-aee7380b5154","ios":"levelo://app?vid=e9b18d33-2c32-4c0b-bac5-aee7380b5154"},"vehicle_type_id":"4","last_reported":1737897022,"current_range_meters":34000,"station_id":"ce4bhm12rcd13ifvqgkg","pricing_plan_id":"cebpf4jnsgd1na2vs0mg"},{"bike_id":"1edc3a9d-b073-4200-8435-21288127161e","system_id":"levelo_inurba_marseille","lat":43.31299,"lon":5.36733,"is_reserved":false,"is_disabled":false,"rental_uris":{"android":"levelo://app?vid=1edc3a9d-b073-4200-8435-21288127161e","ios":"levelo://app?vid=1edc3a9d-b073-4200-8435-21288127161e"},"vehicle_type_id":"4","last_reported":1737897022,"current_range_meters":15200,"station_id":"ce4bgr92rcd13ifvqc6g","pricing_plan_id":"cebpf4jnsgd1na2vs0mg"},{"bike_id":"bb9df935-971d-48fe-841d-0dade0ac91aa","system_id":"levelo_inurba_marseille","lat":43.29534,"lon":5.38549,"is_reserved":false,"is_disabled":true,"rental_uris":{"android":"levelo://app?vid=bb9df935-971d-48fe-841d-0dade0ac91aa","ios":"levelo://app?vid=bb9df935-971d-48fe-841d-0dade0ac91aa"},"vehicle_type_id":"4","last_reported":1737897022,"current_range_meters":30800,"station_id":"ce4bgih2rcd13ifvqba0","pricing_plan_id":"cebpf4jnsgd1na2vs0mg"},{"bike_id":"c5496b0b-85c0-45ba-8ce4-2730a8f4bd84","system_id":"levelo_inurba_marseille","lat":43.30553,"lon":5.36515,"is_reserved":false,"is_disabled":false,"rental_uris":{"android":"levelo://app?vid=c5496b0b-85c0-45ba-8ce4-2730a8f4bd84","ios":"levelo://app?vid=c5496b0b-85c0-45ba-8ce4-2730a8f4bd84"},"vehicle_type_id":"4","last_reported":1737897022,"current_range_meters":19200,"station_id":"ce4bgs12rcd13ifvqcag","pricing_plan_id":"cebpf4jnsgd1na2vs0mg"},{"bike_id":"b8c7ac08-94bb-4c1a-be59-442ad905fc87","system_id":"levelo_inurba_marseille","lat":43.29246,"lon":5.36615,"is_reserved":false,"is_disabled":false,"rental_uris":{"android":"levelo://app?vid=b8c7ac08-94bb-4c1a-be59-442ad905fc87","ios":"levelo://app?vid=b8c7ac08-94bb-4c1a-be59-442ad905fc87"},"vehicle_type_id":"4","last_reported":1737897022,"current_range_meters":30000,"station_id":"","pricing_plan_id":"cebpf4jnsgd1na2vs0mg"},{"bike_id":"90e237f0-93b1-4db3-9e98-47d2a0d9dced","system_id":"levelo_inurba_marseille","lat":43.2498,"lon":5.38944,"is_reserved":false,"is_disabled":false,"rental_uris":{"android":"levelo://app?vid=90e237f0-93b1-4db3-9e98-47d2a0d9dced","ios":"levelo://app?vid=90e237f0-93b1-4db3-9e98-47d2a0d9dced"},"vehicle_type_id":"4","last_reported":1737897022,"current_range_meters":25600,"station_id":"ce4bhgp2rcd13ifvqfd0","pricing_plan_id":"cebpf4jnsgd1na2vs0mg"},{"bike_id":"8e427ace-ac9a-4b2d-b17e-1a4d3793b3bc","system_id":"levelo_inurba_marseille","lat":43.30933,"lon":5.40146,"is_reserved":false,"is_disabled":false,"rental_uris":{"android":"levelo://app?vid=8e427ace-ac9a-4b2d-b17e-1a4d3793b3bc","ios":"levelo://app?vid=8e427ace-ac9a-4b2d-b17e-1a4d3793b3bc"},"vehicle_type_id":"4","last_reported":1737897022,"current_range_meters":12400,"station_id":"ce4bgvp2rcd13ifvqct0","pricing_plan_id":"cebpf4jnsgd1na2vs0mg"},{"bike_id":"85a476ce-9794-4a9a-ac46-2dc0db8d9a62","system_id":"levelo_inurba_marseille","lat":43.30758,"lon":5.37659,"is_reserved":false,"is_disabled":false,"rental_uris":{"android":"levelo://app?vid=85a476ce-9794-4a9a-ac46-2dc0db8d9a62","ios":"levelo://app?vid=85a476ce-9794-4a9a-ac46-2dc0db8d9a62"},"vehicle_type_id":"4","last_reported":1737897022,"current_range_meters":24000,"station_id":"ce4bgv92rcd13ifvqcq0","pricing_plan_id":"cebpf4jnsgd1na2vs0mg"},{"bike_id":"2b1f2c73-a648-48ba-86a5-fada76619153","system_id":"levelo_inurba_marseille","lat":43.31326,"lon":5.39703,"is_reserved":false,"is_disabled":false,"rental_uris":{"android":"levelo://app?vid=2b1f2c73-a648-48ba-86a5-fada76619153","ios":"levelo://app?vid=2b1f2c73-a648-48ba-86a5-fada76619153"},"vehicle_type_id":"4","last_reported":1737897022,"current_range_meters":38800,"station_id":"ce4bgvp2rcd13ifvqcu0","pricing_plan_id":"cebpf4jnsgd1na2vs0mg"},{"bike_id":"2f87a813-309f-4da0-88ea-a7340f4e107b","system_id":"levelo_inurba_marseille","lat":43.29536,"lon":5.38549,"is_reserved":false,"is_disabled":false,"rental_uris":{"android":"levelo://app?vid=2f87a813-309f-4da0-88ea-a7340f4e107b","ios":"levelo://app?vid=2f87a813-309f-4da0-88ea-a7340f4e107b"},"vehicle_type_id":"4","last_reported":1737897022,"current_range_meters":35600,"station_id":"ce4bgih2rcd13ifvqba0","pricing_plan_id":"cebpf4jnsgd1na2vs0mg"},{"bike_id":"31e27afd-693c-4137-b741-f268da09293c","system_id":"levelo_inurba_marseille","lat":43.31494,"lon":5.37305,"is_reserved":false,"is_disabled":false,"rental_uris":{"android":"levelo://app?vid=31e27afd-693c-4137-b741-f268da09293c","ios":"levelo://app?vid=31e27afd-693c-4137-b741-f268da09293c"},"vehicle_type_id":"4","last_reported":1737897022,"current_range_meters":38000,"station_id":"ce4bgt12rcd13ifvqcd0","pricing_plan_id":"cebpf4jnsgd1na2vs0mg"},{"bike_id":"1b5250e4-2470-4d40-86ca-5191077c26d9","system_id":"levelo_inurba_marseille","lat":43.27078,"lon":5.42282,"is_reserved":false,"is_disabled":false,"rental_uris":{"android":"levelo://app?vid=1b5250e4-2470-4d40-86ca-5191077c26d9","ios":"levelo://app?vid=1b5250e4-2470-4d40-86ca-5191077c26d9"},"vehicle_type_id":"4","last_reported":1737897022,"current_range_meters":38800,"station_id":"ce4bhk92rcd13ifvqgb0","pricing_plan_id":"cebpf4jnsgd1na2vs0mg"},{"bike_id":"7b764a37-86ae-4506-bf6b-9f8ff35451d3","system_id":"levelo_inurba_marseille","lat":43.23196,"lon":5.35557,"is_reserved":false,"is_disabled":false,"rental_uris":{"android":"levelo://app?vid=7b764a37-86ae-4506-bf6b-9f8ff35451d3","ios":"levelo://app?vid=7b764a37-86ae-4506-bf6b-9f8ff35451d3"},"vehicle_type_id":"4","last_reported":1737897022,"current_range_meters":12400,"station_id":"ce4bhu92rcd13ifvqi70","pricing_plan_id":"cebpf4jnsgd1na2vs0mg"},{"bike_id":"63478736-837d-41fa-9e91-7be0d1155be3","system_id":"levelo_inurba_marseille","lat":43.31764,"lon":5.39019,"is_reserved":false,"is_disabled":false,"rental_uris":{"android":"levelo://app?vid=63478736-837d-41fa-9e91-7be0d1155be3","ios":"levelo://app?vid=63478736-837d-41fa-9e91-7be0d1155be3"},"vehicle_type_id":"4","last_reported":1737897022,"current_range_meters":38800,"station_id":"ce4bhqp2rcd13ifvqhng","pricing_plan_id":"cebpf4jnsgd1na2vs0mg"},{"bike_id":"707291c0-801f-4378-b622-04349833c400","system_id":"levelo_inurba_marseille","lat":43.28935,"lon":5.36626,"is_reserved":false,"is_disabled":true,"rental_uris":{"android":"levelo://app?vid=707291c0-801f-4378-b622-04349833c400","ios":"levelo://app?vid=707291c0-801f-4378-b622-04349833c400"},"vehicle_type_id":"4","last_reported":1737897022,"current_range_meters":36000,"station_id":"ce4bhap2rcd13ifvqek0","pricing_plan_id":"cebpf4jnsgd1na2vs0mg"},{"bike_id":"2581265e-461e-4093-96e3-176dcfa2ce51","system_id":"levelo_inurba_marseille","lat":43.24644,"lon":5.38902,"is_reserved":false,"is_disabled":false,"rental_uris":{"android":"levelo://app?vid=2581265e-461e-4093-96e3-176dcfa2ce51","ios":"levelo://app?vid=2581265e-461e-4093-96e3-176dcfa2ce51"},"vehicle_type_id":"4","last_reported":1737897022,"current_range_meters":38800,"station_id":"ce4bhg12rcd13ifvqf60","pricing_plan_id":"cebpf4jnsgd1na2vs0mg"},{"bike_id":"c0e635c8-e6f3-4193-9644-78b3ef59aa41","system_id":"levelo_inurba_marseille","lat":43.298123,"lon":5.397682,"is_reserved":false,"is_disabled":true,"rental_uris":{"android":"levelo://app?vid=c0e635c8-e6f3-4193-9644-78b3ef59aa41","ios":"levelo://app?vid=c0e635c8-e6f3-4193-9644-78b3ef59aa41"},"vehicle_type_id":"4","last_reported":1737897022,"current_range_meters":1200,"station_id":"","pricing_plan_id":"cebpf4jnsgd1na2vs0mg"},{"bike_id":"909a1c2e-107c-48f7-aae9-c2b5d9ac6e94","system_id":"levelo_inurba_marseille","lat":43.30913,"lon":5.36861,"is_reserved":false,"is_disabled":false,"rental_uris":{"android":"levelo://app?vid=909a1c2e-107c-48f7-aae9-c2b5d9ac6e94","ios":"levelo://app?vid=909a1c2e-107c-48f7-aae9-c2b5d9ac6e94"},"vehicle_type_id":"4","last_reported":1737897022,"current_range_meters":38800,"station_id":"ce4bgn92rcd13ifvqbvg","pricing_plan_id":"cebpf4jnsgd1na2vs0mg"},{"bike_id":"9709eec8-913d-43c3-8b2d-ebae3fa3e2ae","system_id":"levelo_inurba_marseille","lat":43.31506,"lon":5.37276,"is_reserved":false,"is_disabled":false,"rental_uris":{"android":"levelo://app?vid=9709eec8-913d-43c3-8b2d-ebae3fa3e2ae","ios":"levelo://app?vid=9709eec8-913d-43c3-8b2d-ebae3fa3e2ae"},"vehicle_type_id":"4","last_reported":1737897022,"current_range_meters":24400,"station_id":"ce4bgt12rcd13ifvqcd0","pricing_plan_id":"cebpf4jnsgd1na2vs0mg"},{"bike_id":"f81400cb-f7cb-4b96-bc1a-2bb79860c30a","system_id":"levelo_inurba_marseille","lat":43.27816,"lon":5.40697,"is_reserved":false,"is_disabled":false,"rental_uris":{"android":"levelo://app?vid=f81400cb-f7cb-4b96-bc1a-2bb79860c30a","ios":"levelo://app?vid=f81400cb-f7cb-4b96-bc1a-2bb79860c30a"},"vehicle_type_id":"4","last_reported":1737897022,"current_range_meters":34000,"station_id":"ce4bhnh2rcd13ifvqgtg","pricing_plan_id":"cebpf4jnsgd1na2vs0mg"},{"bike_id":"a9641c5b-171a-4976-b9f9-fdfa44f463f3","system_id":"levelo_inurba_marseille","lat":43.23962,"lon":5.36653,"is_reserved":false,"is_disabled":false,"rental_uris":{"android":"levelo://app?vid=a9641c5b-171a-4976-b9f9-fdfa44f463f3","ios":"levelo://app?vid=a9641c5b-171a-4976-b9f9-fdfa44f463f3"},"vehicle_type_id":"4","last_reported":1737897022,"current_range_meters":35200,"station_id":"ce4bhi12rcd13ifvqfp0","pricing_plan_id":"cebpf4jnsgd1na2vs0mg"},{"bike_id":"5a504fe4-0ab6-4eed-b9ef-e27131441d67","system_id":"levelo_inurba_marseille","lat":43.30325,"lon":5.37858,"is_reserved":false,"is_disabled":false,"rental_uris":{"android":"levelo://app?vid=5a504fe4-0ab6-4eed-b9ef-e27131441d67","ios":"levelo://app?vid=5a504fe4-0ab6-4eed-b9ef-e27131441d67"},"vehicle_type_id":"4","last_reported":1737897022,"current_range_meters":28400,"station_id":"","pricing_plan_id":"cebpf4jnsgd1na2vs0mg"},{"bike_id":"006db001-1d0c-4238-b135-2a41a20f610c","system_id":"levelo_inurba_marseille","lat":43.28679,"lon":5.38648,"is_reserved":false,"is_disabled":true,"rental_uris":{"android":"levelo://app?vid=006db001-1d0c-4238-b135-2a41a20f610c","ios":"levelo://app?vid=006db001-1d0c-4238-b135-2a41a20f610c"},"vehicle_type_id":"4","last_reported":1737897022,"current_range_meters":0,"station_id":"ce4bh492rcd13ifvqdug","pricing_plan_id":"cebpf4jnsgd1na2vs0mg"},{"bike_id":"8bdc9562-561d-4f09-9d6a-d7dd1ca25f03","system_id":"levelo_inurba_marseille","lat":43.29523,"lon":5.37501,"is_reserved":false,"is_disabled":false,"rental_uris":{"android":"levelo://app?vid=8bdc9562-561d-4f09-9d6a-d7dd1ca25f03","ios":"levelo://app?vid=8bdc9562-561d-4f09-9d6a-d7dd1ca25f03"},"vehicle_type_id":"4","last_reported":1737897022,"current_range_meters":11200,"station_id":"ce4bgkp2rcd13ifvqbmg","pricing_plan_id":"cebpf4jnsgd1na2vs0mg"},{"bike_id":"29537b6d-60f6-4053-b601-105bf13a2e3a","system_id":"levelo_inurba_marseille","lat":43.284941,"lon":5.384471,"is_reserved":false,"is_disabled":true,"rental_uris":{"android":"levelo://app?vid=29537b6d-60f6-4053-b601-105bf13a2e3a","ios":"levelo://app?vid=29537b6d-60f6-4053-b601-105bf13a2e3a"},"vehicle_type_id":"4","last_reported":1737897022,"current_range_meters":2800,"station_id":"ce4bh512rcd13ifvqe3g","pricing_plan_id":"cebpf4jnsgd1na2vs0mg"},{"bike_id":"426a6637-37ce-4f16-ade0-9762813e863f","system_id":"levelo_inurba_marseille","lat":43.30926,"lon":5.40137,"is_reserved":false,"is_disabled":true,"rental_uris":{"android":"levelo://app?vid=426a6637-37ce-4f16-ade0-9762813e863f","ios":"levelo://app?vid=426a6637-37ce-4f16-ade0-9762813e863f"},"vehicle_type_id":"4","last_reported":1737897022,"current_range_meters":0,"station_id":"ce4bgvp2rcd13ifvqct0","pricing_plan_id":"cebpf4jnsgd1na2vs0mg"},{"bike_id":"1bea2fdf-fd4c-4cef-8ac6-d7d41b543601","system_id":"levelo_inurba_marseille","lat":43.25486,"lon":5.37614,"is_reserved":false,"is_disabled":false,"rental_uris":{"android":"levelo://app?vid=1bea2fdf-fd4c-4cef-8ac6-d7d41b543601","ios":"levelo://app?vid=1bea2fdf-fd4c-4cef-8ac6-d7d41b543601"},"vehicle_type_id":"4","last_reported":1737897022,"current_range_meters":38400,"station_id":"ce4bhh12rcd13ifvqff0","pricing_plan_id":"cebpf4jnsgd1na2vs0mg"},{"bike_id":"c54f5b2e-f783-418a-8119-a38c5ea2c0aa","system_id":"levelo_inurba_marseille","lat":43.28999,"lon":5.35606,"is_reserved":false,"is_disabled":true,"rental_uris":{"android":"levelo://app?vid=c54f5b2e-f783-418a-8119-a38c5ea2c0aa","ios":"levelo://app?vid=c54f5b2e-f783-418a-8119-a38c5ea2c0aa"},"vehicle_type_id":"4","last_reported":1737897022,"current_range_meters":6000,"station_id":"ce4bhb92rcd13ifvqen0","pricing_plan_id":"cebpf4jnsgd1na2vs0mg"},{"bike_id":"9838cc78-2b53-49d3-ae13-82df62c4fd64","system_id":"levelo_inurba_marseille","lat":43.2842,"lon":5.40933,"is_reserved":false,"is_disabled":true,"rental_uris":{"android":"levelo://app?vid=9838cc78-2b53-49d3-ae13-82df62c4fd64","ios":"levelo://app?vid=9838cc78-2b53-49d3-ae13-82df62c4fd64"},"vehicle_type_id":"4","last_reported":1737897022,"current_range_meters":0,"station_id":"","pricing_plan_id":"cebpf4jnsgd1na2vs0mg"},{"bike_id":"d55205bb-33b4-45bb-8af2-c4c2661278c1","system_id":"levelo_inurba_marseille","lat":43.30303,"lon":5.39212,"is_reserved":false,"is_disabled":false,"rental_uris":{"android":"levelo://app?vid=d55205bb-33b4-45bb-8af2-c4c2661278c1","ios":"levelo://app?vid=d55205bb-33b4-45bb-8af2-c4c2661278c1"},"vehicle_type_id":"4","last_reported":1737897022,"current_range_meters":11600,"station_id":"ce4bgkh2rcd13ifvqbk0","pricing_plan_id":"cebpf4jnsgd1na2vs0mg"},{"bike_id":"1a12ccc4-119d-4583-9cd0-f3b08fa41a49","system_id":"levelo_inurba_marseille","lat":43.24109,"lon":5.37904,"is_reserved":false,"is_disabled":false,"rental_uris":{"android":"levelo://app?vid=1a12ccc4-119d-4583-9cd0-f3b08fa41a49","ios":"levelo://app?vid=1a12ccc4-119d-4583-9cd0-f3b08fa41a49"},"vehicle_type_id":"4","last_reported":1737897022,"current_range_meters":38400,"station_id":"","pricing_plan_id":"cebpf4jnsgd1na2vs0mg"},{"bike_id":"50dea0e4-53d8-4743-8aea-07f37b70b654","system_id":"levelo_inurba_marseille","lat":43.34145,"lon":5.409,"is_reserved":false,"is_disabled":false,"rental_uris":{"android":"levelo://app?vid=50dea0e4-53d8-4743-8aea-07f37b70b654","ios":"levelo://app?vid=50dea0e4-53d8-4743-8aea-07f37b70b654"},"vehicle_type_id":"4","last_reported":1737897022,"current_range_meters":38800,"station_id":"ce4bhqh2rcd13ifvqhlg","pricing_plan_id":"cebpf4jnsgd1na2vs0mg"},{"bike_id":"bf096a89-ee72-4f37-85bd-7b3cf9f0cb41","system_id":"levelo_inurba_marseille","lat":43.337285,"lon":5.39204,"is_reserved":false,"is_disabled":false,"rental_uris":{"android":"levelo://app?vid=bf096a89-ee72-4f37-85bd-7b3cf9f0cb41","ios":"levelo://app?vid=bf096a89-ee72-4f37-85bd-7b3cf9f0cb41"},"vehicle_type_id":"4","last_reported":1737897022,"current_range_meters":28000,"station_id":"ce4bhr92rcd13ifvqhsg","pricing_plan_id":"cebpf4jnsgd1na2vs0mg"},{"bike_id":"f0f42544-104f-4439-9c78-bb57f092128f","system_id":"levelo_inurba_marseille","lat":43.27064,"lon":5.42277,"is_reserved":false,"is_disabled":false,"rental_uris":{"android":"levelo://app?vid=f0f42544-104f-4439-9c78-bb57f092128f","ios":"levelo://app?vid=f0f42544-104f-4439-9c78-bb57f092128f"},"vehicle_type_id":"4","last_reported":1737897022,"current_range_meters":38800,"station_id":"ce4bhk92rcd13ifvqgb0","pricing_plan_id":"cebpf4jnsgd1na2vs0mg"},{"bike_id":"c2378bb1-796c-4edf-bf87-198266dfa5e8","system_id":"levelo_inurba_marseille","lat":43.23205,"lon":5.35547,"is_reserved":false,"is_disabled":false,"rental_uris":{"android":"levelo://app?vid=c2378bb1-796c-4edf-bf87-198266dfa5e8","ios":"levelo://app?vid=c2378bb1-796c-4edf-bf87-198266dfa5e8"},"vehicle_type_id":"4","last_reported":1737897022,"current_range_meters":38000,"station_id":"ce4bhu92rcd13ifvqi70","pricing_plan_id":"cebpf4jnsgd1na2vs0mg"},{"bike_id":"e585e44a-58e3-4810-8523-ad3082df2ff0","system_id":"levelo_inurba_marseille","lat":43.23063,"lon":5.35493,"is_reserved":false,"is_disabled":false,"rental_uris":{"android":"levelo://app?vid=e585e44a-58e3-4810-8523-ad3082df2ff0","ios":"levelo://app?vid=e585e44a-58e3-4810-8523-ad3082df2ff0"},"vehicle_type_id":"4","last_reported":1737897022,"current_range_meters":9200,"station_id":"cpo3342slgdg3j2ifvpg","pricing_plan_id":"cebpf4jnsgd1na2vs0mg"},{"bike_id":"d69cf1fa-59ad-4f44-a9fb-82fbbe1b6b05","system_id":"levelo_inurba_marseille","lat":43.30876,"lon":5.43503,"is_reserved":false,"is_disabled":false,"rental_uris":{"android":"levelo://app?vid=d69cf1fa-59ad-4f44-a9fb-82fbbe1b6b05","ios":"levelo://app?vid=d69cf1fa-59ad-4f44-a9fb-82fbbe1b6b05"},"vehicle_type_id":"4","last_reported":1737897022,"current_range_meters":24800,"station_id":"ce4bhph2rcd13ifvqheg","pricing_plan_id":"cebpf4jnsgd1na2vs0mg"},{"bike_id":"6f3a1ff9-bc68-466e-baf9-12372c96b07b","system_id":"levelo_inurba_marseille","lat":43.29004,"lon":5.35589,"is_reserved":false,"is_disabled":false,"rental_uris":{"android":"levelo://app?vid=6f3a1ff9-bc68-466e-baf9-12372c96b07b","ios":"levelo://app?vid=6f3a1ff9-bc68-466e-baf9-12372c96b07b"},"vehicle_type_id":"4","last_reported":1737897022,"current_range_meters":39200,"station_id":"ce4bhb92rcd13ifvqen0","pricing_plan_id":"cebpf4jnsgd1na2vs0mg"},{"bike_id":"2e0a8b86-b457-48a0-8577-213b01080398","system_id":"levelo_inurba_marseille","lat":43.23192,"lon":5.35539,"is_reserved":false,"is_disabled":false,"rental_uris":{"android":"levelo://app?vid=2e0a8b86-b457-48a0-8577-213b01080398","ios":"levelo://app?vid=2e0a8b86-b457-48a0-8577-213b01080398"},"vehicle_type_id":"4","last_reported":1737897022,"current_range_meters":38800,"station_id":"ce4bhu92rcd13ifvqi70","pricing_plan_id":"cebpf4jnsgd1na2vs0mg"},{"bike_id":"a7cf4467-440c-4bb8-a849-e8f193507576","system_id":"levelo_inurba_marseille","lat":43.29711,"lon":5.3762,"is_reserved":false,"is_disabled":false,"rental_uris":{"android":"levelo://app?vid=a7cf4467-440c-4bb8-a849-e8f193507576","ios":"levelo://app?vid=a7cf4467-440c-4bb8-a849-e8f193507576"},"vehicle_type_id":"4","last_reported":1737897022,"current_range_meters":28000,"station_id":"","pricing_plan_id":"cebpf4jnsgd1na2vs0mg"},{"bike_id":"d979d8d2-ec65-47af-9229-e4270aab279a","system_id":"levelo_inurba_marseille","lat":43.23066,"lon":5.35499,"is_reserved":false,"is_disabled":false,"rental_uris":{"android":"levelo://app?vid=d979d8d2-ec65-47af-9229-e4270aab279a","ios":"levelo://app?vid=d979d8d2-ec65-47af-9229-e4270aab279a"},"vehicle_type_id":"4","last_reported":1737897022,"current_range_meters":31200,"station_id":"cpo3342slgdg3j2ifvpg","pricing_plan_id":"cebpf4jnsgd1na2vs0mg"},{"bike_id":"fde6f0e8-df69-4cda-80c6-15306e619572","system_id":"levelo_inurba_marseille","lat":43.31274,"lon":5.40168,"is_reserved":false,"is_disabled":false,"rental_uris":{"android":"levelo://app?vid=fde6f0e8-df69-4cda-80c6-15306e619572","ios":"levelo://app?vid=fde6f0e8-df69-4cda-80c6-15306e619572"},"vehicle_type_id":"4","last_reported":1737897022,"current_range_meters":36800,"station_id":"ce4bh092rcd13ifvqd30","pricing_plan_id":"cebpf4jnsgd1na2vs0mg"},{"bike_id":"62400b69-2161-47c1-9f20-157304736db7","system_id":"levelo_inurba_marseille","lat":43.30541,"lon":5.36529,"is_reserved":false,"is_disabled":false,"rental_uris":{"android":"levelo://app?vid=62400b69-2161-47c1-9f20-157304736db7","ios":"levelo://app?vid=62400b69-2161-47c1-9f20-157304736db7"},"vehicle_type_id":"4","last_reported":1737897022,"current_range_meters":38000,"station_id":"ce4bgs12rcd13ifvqcag","pricing_plan_id":"cebpf4jnsgd1na2vs0mg"},{"bike_id":"87a5bed0-aef1-423b-bd85-fe44fdeeb863","system_id":"levelo_inurba_marseille","lat":43.337299,"lon":5.391894,"is_reserved":false,"is_disabled":false,"rental_uris":{"android":"levelo://app?vid=87a5bed0-aef1-423b-bd85-fe44fdeeb863","ios":"levelo://app?vid=87a5bed0-aef1-423b-bd85-fe44fdeeb863"},"vehicle_type_id":"4","last_reported":1737897022,"current_range_meters":35200,"station_id":"ce4bhr92rcd13ifvqhsg","pricing_plan_id":"cebpf4jnsgd1na2vs0mg"},{"bike_id":"770988d0-47fd-4d12-8823-5c1dca0d5dcb","system_id":"levelo_inurba_marseille","lat":43.27368,"lon":5.36256,"is_reserved":false,"is_disabled":false,"rental_uris":{"android":"levelo://app?vid=770988d0-47fd-4d12-8823-5c1dca0d5dcb","ios":"levelo://app?vid=770988d0-47fd-4d12-8823-5c1dca0d5dcb"},"vehicle_type_id":"4","last_reported":1737897022,"current_range_meters":38000,"station_id":"ce4bhbh2rcd13ifvqeo0","pricing_plan_id":"cebpf4jnsgd1na2vs0mg"},{"bike_id":"fc8701b1-a9a1-49ef-b38a-01e5962d98c0","system_id":"levelo_inurba_marseille","lat":43.32581,"lon":5.42206,"is_reserved":false,"is_disabled":false,"rental_uris":{"android":"levelo://app?vid=fc8701b1-a9a1-49ef-b38a-01e5962d98c0","ios":"levelo://app?vid=fc8701b1-a9a1-49ef-b38a-01e5962d98c0"},"vehicle_type_id":"4","last_reported":1737897022,"current_range_meters":26800,"station_id":"","pricing_plan_id":"cebpf4jnsgd1na2vs0mg"},{"bike_id":"05b8ad79-dcc8-4998-8b5d-63a3025d15b0","system_id":"levelo_inurba_marseille","lat":43.30435,"lon":5.38895,"is_reserved":false,"is_disabled":false,"rental_uris":{"android":"levelo://app?vid=05b8ad79-dcc8-4998-8b5d-63a3025d15b0","ios":"levelo://app?vid=05b8ad79-dcc8-4998-8b5d-63a3025d15b0"},"vehicle_type_id":"4","last_reported":1737897022,"current_range_meters":24000,"station_id":"ce4bgk12rcd13ifvqbi0","pricing_plan_id":"cebpf4jnsgd1na2vs0mg"},{"bike_id":"71da579c-cda3-4821-8a44-f2f668c2dca9","system_id":"levelo_inurba_marseille","lat":43.2465,"lon":5.38897,"is_reserved":false,"is_disabled":false,"rental_uris":{"android":"levelo://app?vid=71da579c-cda3-4821-8a44-f2f668c2dca9","ios":"levelo://app?vid=71da579c-cda3-4821-8a44-f2f668c2dca9"},"vehicle_type_id":"4","last_reported":1737897022,"current_range_meters":38800,"station_id":"ce4bhg12rcd13ifvqf60","pricing_plan_id":"cebpf4jnsgd1na2vs0mg"},{"bike_id":"521d942e-819b-4e72-a661-13cf9795186e","system_id":"levelo_inurba_marseille","lat":43.26554,"lon":5.37287,"is_reserved":false,"is_disabled":true,"rental_uris":{"android":"levelo://app?vid=521d942e-819b-4e72-a661-13cf9795186e","ios":"levelo://app?vid=521d942e-819b-4e72-a661-13cf9795186e"},"vehicle_type_id":"4","last_reported":1737897022,"current_range_meters":2000,"station_id":"ce4bhg12rcd13ifvqf70","pricing_plan_id":"cebpf4jnsgd1na2vs0mg"},{"bike_id":"a466f83a-57a5-4cca-a7af-dc17d6c05cfd","system_id":"levelo_inurba_marseille","lat":43.28413,"lon":5.35013,"is_reserved":false,"is_disabled":false,"rental_uris":{"android":"levelo://app?vid=a466f83a-57a5-4cca-a7af-dc17d6c05cfd","ios":"levelo://app?vid=a466f83a-57a5-4cca-a7af-dc17d6c05cfd"},"vehicle_type_id":"4","last_reported":1737897022,"current_range_meters":36400,"station_id":"ce4bhbh2rcd13ifvqepg","pricing_plan_id":"cebpf4jnsgd1na2vs0mg"},{"bike_id":"b2a6f4ce-e5e6-4b95-91b9-5cf515000dc6","system_id":"levelo_inurba_marseille","lat":43.31263,"lon":5.40183,"is_reserved":false,"is_disabled":true,"rental_uris":{"android":"levelo://app?vid=b2a6f4ce-e5e6-4b95-91b9-5cf515000dc6","ios":"levelo://app?vid=b2a6f4ce-e5e6-4b95-91b9-5cf515000dc6"},"vehicle_type_id":"4","last_reported":1737897022,"current_range_meters":23200,"station_id":"ce4bh092rcd13ifvqd30","pricing_plan_id":"cebpf4jnsgd1na2vs0mg"},{"bike_id":"bf1a07ea-0fc5-4696-a1db-1309679a15aa","system_id":"levelo_inurba_marseille","lat":43.3375,"lon":5.39178,"is_reserved":false,"is_disabled":false,"rental_uris":{"android":"levelo://app?vid=bf1a07ea-0fc5-4696-a1db-1309679a15aa","ios":"levelo://app?vid=bf1a07ea-0fc5-4696-a1db-1309679a15aa"},"vehicle_type_id":"4","last_reported":1737897022,"current_range_meters":38000,"station_id":"ce4bhr92rcd13ifvqhsg","pricing_plan_id":"cebpf4jnsgd1na2vs0mg"},{"bike_id":"14f6274e-574a-40d1-a38d-5d7f092064b7","system_id":"levelo_inurba_marseille","lat":43.27999,"lon":5.40031,"is_reserved":false,"is_disabled":false,"rental_uris":{"android":"levelo://app?vid=14f6274e-574a-40d1-a38d-5d7f092064b7","ios":"levelo://app?vid=14f6274e-574a-40d1-a38d-5d7f092064b7"},"vehicle_type_id":"4","last_reported":1737897022,"current_range_meters":23200,"station_id":"ce4bho92rcd13ifvqh4g","pricing_plan_id":"cebpf4jnsgd1na2vs0mg"},{"bike_id":"64e9009f-c066-4018-b62f-9a29844a1d10","system_id":"levelo_inurba_marseille","lat":43.320539,"lon":5.415731,"is_reserved":false,"is_disabled":false,"rental_uris":{"android":"levelo://app?vid=64e9009f-c066-4018-b62f-9a29844a1d10","ios":"levelo://app?vid=64e9009f-c066-4018-b62f-9a29844a1d10"},"vehicle_type_id":"4","last_reported":1737897022,"current_range_meters":38800,"station_id":"ce4bhq92rcd13ifvqhkg","pricing_plan_id":"cebpf4jnsgd1na2vs0mg"},{"bike_id":"6917a016-fa2f-4726-952b-ffe1167166a3","system_id":"levelo_inurba_marseille","lat":43.26065,"lon":5.39392,"is_reserved":false,"is_disabled":true,"rental_uris":{"android":"levelo://app?vid=6917a016-fa2f-4726-952b-ffe1167166a3","ios":"levelo://app?vid=6917a016-fa2f-4726-952b-ffe1167166a3"},"vehicle_type_id":"4","last_reported":1737897022,"current_range_meters":0,"station_id":"ce4bhh92rcd13ifvqfj0","pricing_plan_id":"cebpf4jnsgd1na2vs0mg"},{"bike_id":"aa5db7fd-895d-475c-8db1-359b628c6ce4","system_id":"levelo_inurba_marseille","lat":43.23966,"lon":5.36638,"is_reserved":false,"is_disabled":false,"rental_uris":{"android":"levelo://app?vid=aa5db7fd-895d-475c-8db1-359b628c6ce4","ios":"levelo://app?vid=aa5db7fd-895d-475c-8db1-359b628c6ce4"},"vehicle_type_id":"4","last_reported":1737897022,"current_range_meters":12400,"station_id":"ce4bhi12rcd13ifvqfp0","pricing_plan_id":"cebpf4jnsgd1na2vs0mg"},{"bike_id":"3fdd7e70-3e83-43bd-b13e-16385dfa32fb","system_id":"levelo_inurba_marseille","lat":43.24552,"lon":5.39533,"is_reserved":false,"is_disabled":false,"rental_uris":{"android":"levelo://app?vid=3fdd7e70-3e83-43bd-b13e-16385dfa32fb","ios":"levelo://app?vid=3fdd7e70-3e83-43bd-b13e-16385dfa32fb"},"vehicle_type_id":"4","last_reported":1737897022,"current_range_meters":19200,"station_id":"ce4bhlp2rcd13ifvqgjg","pricing_plan_id":"cebpf4jnsgd1na2vs0mg"},{"bike_id":"acf4cec9-04b2-432c-83ba-19cc7ebac443","system_id":"levelo_inurba_marseille","lat":43.29023,"lon":5.38121,"is_reserved":false,"is_disabled":true,"rental_uris":{"android":"levelo://app?vid=acf4cec9-04b2-432c-83ba-19cc7ebac443","ios":"levelo://app?vid=acf4cec9-04b2-432c-83ba-19cc7ebac443"},"vehicle_type_id":"4","last_reported":1737897022,"current_range_meters":27200,"station_id":"ce4bh4p2rcd13ifvqe1g","pricing_plan_id":"cebpf4jnsgd1na2vs0mg"},{"bike_id":"c4e2c490-cf40-402e-bebc-1ab39352cd5f","system_id":"levelo_inurba_marseille","lat":43.27812,"lon":5.40715,"is_reserved":false,"is_disabled":false,"rental_uris":{"android":"levelo://app?vid=c4e2c490-cf40-402e-bebc-1ab39352cd5f","ios":"levelo://app?vid=c4e2c490-cf40-402e-bebc-1ab39352cd5f"},"vehicle_type_id":"4","last_reported":1737897022,"current_range_meters":11200,"station_id":"ce4bhnh2rcd13ifvqgtg","pricing_plan_id":"cebpf4jnsgd1na2vs0mg"},{"bike_id":"8a4fd9c1-126f-44bd-8919-7cf37f162b5e","system_id":"levelo_inurba_marseille","lat":43.28152,"lon":5.42645,"is_reserved":false,"is_disabled":false,"rental_uris":{"android":"levelo://app?vid=8a4fd9c1-126f-44bd-8919-7cf37f162b5e","ios":"levelo://app?vid=8a4fd9c1-126f-44bd-8919-7cf37f162b5e"},"vehicle_type_id":"4","last_reported":1737897022,"current_range_meters":35200,"station_id":"ce4bhnh2rcd13ifvqgug","pricing_plan_id":"cebpf4jnsgd1na2vs0mg"},{"bike_id":"a03a3317-f012-43d1-afb4-abcd0371b21e","system_id":"levelo_inurba_marseille","lat":43.32658,"lon":5.40998,"is_reserved":false,"is_disabled":false,"rental_uris":{"android":"levelo://app?vid=a03a3317-f012-43d1-afb4-abcd0371b21e","ios":"levelo://app?vid=a03a3317-f012-43d1-afb4-abcd0371b21e"},"vehicle_type_id":"4","last_reported":1737897022,"current_range_meters":33600,"station_id":"ce4bhpp2rcd13ifvqhgg","pricing_plan_id":"cebpf4jnsgd1na2vs0mg"},{"bike_id":"7f343a02-c249-4114-8793-58f35c3eab7b","system_id":"levelo_inurba_marseille","lat":43.27223,"lon":5.39224,"is_reserved":false,"is_disabled":false,"rental_uris":{"android":"levelo://app?vid=7f343a02-c249-4114-8793-58f35c3eab7b","ios":"levelo://app?vid=7f343a02-c249-4114-8793-58f35c3eab7b"},"vehicle_type_id":"4","last_reported":1737897022,"current_range_meters":2800,"station_id":"ce4bhhp2rcd13ifvqfm0","pricing_plan_id":"cebpf4jnsgd1na2vs0mg"},{"bike_id":"a2175046-3791-4e6a-a4cc-b9f87d35c439","system_id":"levelo_inurba_marseille","lat":43.239646,"lon":5.366281,"is_reserved":false,"is_disabled":false,"rental_uris":{"android":"levelo://app?vid=a2175046-3791-4e6a-a4cc-b9f87d35c439","ios":"levelo://app?vid=a2175046-3791-4e6a-a4cc-b9f87d35c439"},"vehicle_type_id":"4","last_reported":1737897022,"current_range_meters":20400,"station_id":"ce4bhi12rcd13ifvqfp0","pricing_plan_id":"cebpf4jnsgd1na2vs0mg"},{"bike_id":"dcf9d711-ba99-4755-b27f-9c85313f69fe","system_id":"levelo_inurba_marseille","lat":43.28422,"lon":5.35005,"is_reserved":false,"is_disabled":false,"rental_uris":{"android":"levelo://app?vid=dcf9d711-ba99-4755-b27f-9c85313f69fe","ios":"levelo://app?vid=dcf9d711-ba99-4755-b27f-9c85313f69fe"},"vehicle_type_id":"4","last_reported":1737897022,"current_range_meters":30800,"station_id":"ce4bhbh2rcd13ifvqepg","pricing_plan_id":"cebpf4jnsgd1na2vs0mg"},{"bike_id":"a8ebf96a-72c6-49a1-9891-ec74b107e794","system_id":"levelo_inurba_marseille","lat":43.23202,"lon":5.35543,"is_reserved":false,"is_disabled":false,"rental_uris":{"android":"levelo://app?vid=a8ebf96a-72c6-49a1-9891-ec74b107e794","ios":"levelo://app?vid=a8ebf96a-72c6-49a1-9891-ec74b107e794"},"vehicle_type_id":"4","last_reported":1737897022,"current_range_meters":16800,"station_id":"ce4bhu92rcd13ifvqi70","pricing_plan_id":"cebpf4jnsgd1na2vs0mg"},{"bike_id":"2d0d2073-d710-414b-b25b-4383422beed0","system_id":"levelo_inurba_marseille","lat":43.28,"lon":5.4166,"is_reserved":false,"is_disabled":false,"rental_uris":{"android":"levelo://app?vid=2d0d2073-d710-414b-b25b-4383422beed0","ios":"levelo://app?vid=2d0d2073-d710-414b-b25b-4383422beed0"},"vehicle_type_id":"4","last_reported":1737897022,"current_range_meters":38800,"station_id":"ce4bho12rcd13ifvqh1g","pricing_plan_id":"cebpf4jnsgd1na2vs0mg"},{"bike_id":"53893159-1296-4aed-9fa8-45be978a80b2","system_id":"levelo_inurba_marseille","lat":43.24173,"lon":5.3974,"is_reserved":false,"is_disabled":false,"rental_uris":{"android":"levelo://app?vid=53893159-1296-4aed-9fa8-45be978a80b2","ios":"levelo://app?vid=53893159-1296-4aed-9fa8-45be978a80b2"},"vehicle_type_id":"4","last_reported":1737897022,"current_range_meters":17600,"station_id":"ce4bhn12rcd13ifvqgpg","pricing_plan_id":"cebpf4jnsgd1na2vs0mg"},{"bike_id":"09b3a993-b0f4-423e-b7ef-ca7f54ef70f8","system_id":"levelo_inurba_marseille","lat":43.307893,"lon":5.376487,"is_reserved":false,"is_disabled":false,"rental_uris":{"android":"levelo://app?vid=09b3a993-b0f4-423e-b7ef-ca7f54ef70f8","ios":"levelo://app?vid=09b3a993-b0f4-423e-b7ef-ca7f54ef70f8"},"vehicle_type_id":"4","last_reported":1737897022,"current_range_meters":38000,"station_id":"ce4bgv92rcd13ifvqcq0","pricing_plan_id":"cebpf4jnsgd1na2vs0mg"},{"bike_id":"08b2fb06-1028-4877-8954-8c61a4a1c0d1","system_id":"levelo_inurba_marseille","lat":43.26217,"lon":5.37445,"is_reserved":false,"is_disabled":false,"rental_uris":{"android":"levelo://app?vid=08b2fb06-1028-4877-8954-8c61a4a1c0d1","ios":"levelo://app?vid=08b2fb06-1028-4877-8954-8c61a4a1c0d1"},"vehicle_type_id":"4","last_reported":1737897022,"current_range_meters":2800,"station_id":"ce4bhgp2rcd13ifvqfc0","pricing_plan_id":"cebpf4jnsgd1na2vs0mg"},{"bike_id":"e9bc701b-86ce-45d6-bb9e-c295f6ce732c","system_id":"levelo_inurba_marseille","lat":43.3073,"lon":5.40073,"is_reserved":false,"is_disabled":true,"rental_uris":{"android":"levelo://app?vid=e9bc701b-86ce-45d6-bb9e-c295f6ce732c","ios":"levelo://app?vid=e9bc701b-86ce-45d6-bb9e-c295f6ce732c"},"vehicle_type_id":"4","last_reported":1737897022,"current_range_meters":35200,"station_id":"ce4bh112rcd13ifvqda0","pricing_plan_id":"cebpf4jnsgd1na2vs0mg"},{"bike_id":"ebbb6dd1-ea2a-4b9e-a0fd-f2fc38df1042","system_id":"levelo_inurba_marseille","lat":43.25009,"lon":5.3894,"is_reserved":false,"is_disabled":true,"rental_uris":{"android":"levelo://app?vid=ebbb6dd1-ea2a-4b9e-a0fd-f2fc38df1042","ios":"levelo://app?vid=ebbb6dd1-ea2a-4b9e-a0fd-f2fc38df1042"},"vehicle_type_id":"4","last_reported":1737897022,"current_range_meters":38800,"station_id":"ce4bhgp2rcd13ifvqfd0","pricing_plan_id":"cebpf4jnsgd1na2vs0mg"},{"bike_id":"056aafb0-5d13-4faa-a3d5-673b76adba15","system_id":"levelo_inurba_marseille","lat":43.31172,"lon":5.38714,"is_reserved":false,"is_disabled":false,"rental_uris":{"android":"levelo://app?vid=056aafb0-5d13-4faa-a3d5-673b76adba15","ios":"levelo://app?vid=056aafb0-5d13-4faa-a3d5-673b76adba15"},"vehicle_type_id":"4","last_reported":1737897022,"current_range_meters":19200,"station_id":"ce4bgv12rcd13ifvqcp0","pricing_plan_id":"cebpf4jnsgd1na2vs0mg"},{"bike_id":"1443fb5e-0b40-40e5-94a9-9b083facf73a","system_id":"levelo_inurba_marseille","lat":43.30884,"lon":5.39627,"is_reserved":false,"is_disabled":false,"rental_uris":{"android":"levelo://app?vid=1443fb5e-0b40-40e5-94a9-9b083facf73a","ios":"levelo://app?vid=1443fb5e-0b40-40e5-94a9-9b083facf73a"},"vehicle_type_id":"4","last_reported":1737897022,"current_range_meters":23200,"station_id":"ce4bh012rcd13ifvqcv0","pricing_plan_id":"cebpf4jnsgd1na2vs0mg"},{"bike_id":"4fd1268d-3247-40f3-b007-714690f25137","system_id":"levelo_inurba_marseille","lat":43.27202,"lon":5.39197,"is_reserved":false,"is_disabled":false,"rental_uris":{"android":"levelo://app?vid=4fd1268d-3247-40f3-b007-714690f25137","ios":"levelo://app?vid=4fd1268d-3247-40f3-b007-714690f25137"},"vehicle_type_id":"4","last_reported":1737897022,"current_range_meters":35200,"station_id":"ce4bhhp2rcd13ifvqfm0","pricing_plan_id":"cebpf4jnsgd1na2vs0mg"},{"bike_id":"f47d66d2-e490-4233-80c8-e01464e19196","system_id":"levelo_inurba_marseille","lat":43.28269,"lon":5.35047,"is_reserved":false,"is_disabled":false,"rental_uris":{"android":"levelo://app?vid=f47d66d2-e490-4233-80c8-e01464e19196","ios":"levelo://app?vid=f47d66d2-e490-4233-80c8-e01464e19196"},"vehicle_type_id":"4","last_reported":1737897022,"current_range_meters":38800,"station_id":"ce4bhbp2rcd13ifvqerg","pricing_plan_id":"cebpf4jnsgd1na2vs0mg"},{"bike_id":"6f20f9a6-b786-4af4-81af-ba59be1217ef","system_id":"levelo_inurba_marseille","lat":43.319988,"lon":5.381618,"is_reserved":false,"is_disabled":false,"rental_uris":{"android":"levelo://app?vid=6f20f9a6-b786-4af4-81af-ba59be1217ef","ios":"levelo://app?vid=6f20f9a6-b786-4af4-81af-ba59be1217ef"},"vehicle_type_id":"4","last_reported":1737897022,"current_range_meters":38000,"station_id":"ce4bhr12rcd13ifvqhpg","pricing_plan_id":"cebpf4jnsgd1na2vs0mg"},{"bike_id":"cefcd8c3-10ea-4497-95e8-7880b4b8a12b","system_id":"levelo_inurba_marseille","lat":43.24811,"lon":5.37452,"is_reserved":false,"is_disabled":false,"rental_uris":{"android":"levelo://app?vid=cefcd8c3-10ea-4497-95e8-7880b4b8a12b","ios":"levelo://app?vid=cefcd8c3-10ea-4497-95e8-7880b4b8a12b"},"vehicle_type_id":"4","last_reported":1737897022,"current_range_meters":32000,"station_id":"ce4bhgh2rcd13ifvqfb0","pricing_plan_id":"cebpf4jnsgd1na2vs0mg"},{"bike_id":"5d01d30a-8f08-4da7-ba9d-36f97507c308","system_id":"levelo_inurba_marseille","lat":43.23197,"lon":5.35565,"is_reserved":false,"is_disabled":false,"rental_uris":{"android":"levelo://app?vid=5d01d30a-8f08-4da7-ba9d-36f97507c308","ios":"levelo://app?vid=5d01d30a-8f08-4da7-ba9d-36f97507c308"},"vehicle_type_id":"4","last_reported":1737897022,"current_range_meters":24800,"station_id":"ce4bhu92rcd13ifvqi70","pricing_plan_id":"cebpf4jnsgd1na2vs0mg"},{"bike_id":"ce38d97c-05df-4dae-95c2-6861f124cdcb","system_id":"levelo_inurba_marseille","lat":43.29033,"lon":5.35579,"is_reserved":false,"is_disabled":false,"rental_uris":{"android":"levelo://app?vid=ce38d97c-05df-4dae-95c2-6861f124cdcb","ios":"levelo://app?vid=ce38d97c-05df-4dae-95c2-6861f124cdcb"},"vehicle_type_id":"4","last_reported":1737897022,"current_range_meters":25600,"station_id":"ce4bhb92rcd13ifvqen0","pricing_plan_id":"cebpf4jnsgd1na2vs0mg"},{"bike_id":"d54e7416-9133-47cb-bc55-3d590b1f98b8","system_id":"levelo_inurba_marseille","lat":43.286519,"lon":5.363559,"is_reserved":false,"is_disabled":true,"rental_uris":{"android":"levelo://app?vid=d54e7416-9133-47cb-bc55-3d590b1f98b8","ios":"levelo://app?vid=d54e7416-9133-47cb-bc55-3d590b1f98b8"},"vehicle_type_id":"4","last_reported":1737897022,"current_range_meters":0,"station_id":"ce4bhah2rcd13ifvqej0","pricing_plan_id":"cebpf4jnsgd1na2vs0mg"},{"bike_id":"697dd7fa-3361-4dd2-8fcc-3b23b5b2fa19","system_id":"levelo_inurba_marseille","lat":43.31743,"lon":5.40437,"is_reserved":false,"is_disabled":false,"rental_uris":{"android":"levelo://app?vid=697dd7fa-3361-4dd2-8fcc-3b23b5b2fa19","ios":"levelo://app?vid=697dd7fa-3361-4dd2-8fcc-3b23b5b2fa19"},"vehicle_type_id":"4","last_reported":1737897022,"current_range_meters":38400,"station_id":"ce4bh012rcd13ifvqd00","pricing_plan_id":"cebpf4jnsgd1na2vs0mg"},{"bike_id":"67ca3ef9-36d4-45ce-abe4-57e1256f1b6d","system_id":"levelo_inurba_marseille","lat":43.30184,"lon":5.36567,"is_reserved":false,"is_disabled":false,"rental_uris":{"android":"levelo://app?vid=67ca3ef9-36d4-45ce-abe4-57e1256f1b6d","ios":"levelo://app?vid=67ca3ef9-36d4-45ce-abe4-57e1256f1b6d"},"vehicle_type_id":"4","last_reported":1737897022,"current_range_meters":37600,"station_id":"ce4bgrh2rcd13ifvqc8g","pricing_plan_id":"cebpf4jnsgd1na2vs0mg"},{"bike_id":"e7b5364d-47e7-45d1-bfb6-e29107864918","system_id":"levelo_inurba_marseille","lat":43.29897,"lon":5.43665,"is_reserved":false,"is_disabled":false,"rental_uris":{"android":"levelo://app?vid=e7b5364d-47e7-45d1-bfb6-e29107864918","ios":"levelo://app?vid=e7b5364d-47e7-45d1-bfb6-e29107864918"},"vehicle_type_id":"4","last_reported":1737897022,"current_range_meters":8800,"station_id":"ce4bhpp2rcd13ifvqhfg","pricing_plan_id":"cebpf4jnsgd1na2vs0mg"},{"bike_id":"24282da7-04e9-451e-ad7e-9cbd59ac2553","system_id":"levelo_inurba_marseille","lat":43.30883,"lon":5.37176,"is_reserved":false,"is_disabled":false,"rental_uris":{"android":"levelo://app?vid=24282da7-04e9-451e-ad7e-9cbd59ac2553","ios":"levelo://app?vid=24282da7-04e9-451e-ad7e-9cbd59ac2553"},"vehicle_type_id":"4","last_reported":1737897022,"current_range_meters":24800,"station_id":"ce4bguh2rcd13ifvqckg","pricing_plan_id":"cebpf4jnsgd1na2vs0mg"},{"bike_id":"1c35c755-8b1c-439e-8798-f1a001a3969d","system_id":"levelo_inurba_marseille","lat":43.28102,"lon":5.37848,"is_reserved":false,"is_disabled":true,"rental_uris":{"android":"levelo://app?vid=1c35c755-8b1c-439e-8798-f1a001a3969d","ios":"levelo://app?vid=1c35c755-8b1c-439e-8798-f1a001a3969d"},"vehicle_type_id":"4","last_reported":1737897022,"current_range_meters":0,"station_id":"ce4bha12rcd13ifvqee0","pricing_plan_id":"cebpf4jnsgd1na2vs0mg"},{"bike_id":"7a570a98-199b-4814-b81d-64906a79f9a9","system_id":"levelo_inurba_marseille","lat":43.27214,"lon":5.39183,"is_reserved":false,"is_disabled":false,"rental_uris":{"android":"levelo://app?vid=7a570a98-199b-4814-b81d-64906a79f9a9","ios":"levelo://app?vid=7a570a98-199b-4814-b81d-64906a79f9a9"},"vehicle_type_id":"4","last_reported":1737897022,"current_range_meters":18000,"station_id":"ce4bhhp2rcd13ifvqfm0","pricing_plan_id":"cebpf4jnsgd1na2vs0mg"},{"bike_id":"3cde3b6d-3c2a-4fd6-9089-5663f06f2da6","system_id":"levelo_inurba_marseille","lat":43.29259,"lon":5.40912,"is_reserved":false,"is_disabled":false,"rental_uris":{"android":"levelo://app?vid=3cde3b6d-3c2a-4fd6-9089-5663f06f2da6","ios":"levelo://app?vid=3cde3b6d-3c2a-4fd6-9089-5663f06f2da6"},"vehicle_type_id":"4","last_reported":1737897022,"current_range_meters":24800,"station_id":"ce4bh192rcd13ifvqdc0","pricing_plan_id":"cebpf4jnsgd1na2vs0mg"},{"bike_id":"884f4337-debb-4f4e-9ffb-854d7bf11416","system_id":"levelo_inurba_marseille","lat":43.31497,"lon":5.38918,"is_reserved":false,"is_disabled":false,"rental_uris":{"android":"levelo://app?vid=884f4337-debb-4f4e-9ffb-854d7bf11416","ios":"levelo://app?vid=884f4337-debb-4f4e-9ffb-854d7bf11416"},"vehicle_type_id":"4","last_reported":1737897022,"current_range_meters":38000,"station_id":"","pricing_plan_id":"cebpf4jnsgd1na2vs0mg"},{"bike_id":"07137b92-e072-42ff-ae54-0b6f65b40399","system_id":"levelo_inurba_marseille","lat":43.23154,"lon":5.43706,"is_reserved":false,"is_disabled":false,"rental_uris":{"android":"levelo://app?vid=07137b92-e072-42ff-ae54-0b6f65b40399","ios":"levelo://app?vid=07137b92-e072-42ff-ae54-0b6f65b40399"},"vehicle_type_id":"4","last_reported":1737897022,"current_range_meters":18800,"station_id":"ce4bhmp2rcd13ifvqgog","pricing_plan_id":"cebpf4jnsgd1na2vs0mg"},{"bike_id":"e88c0a49-9ec8-47cf-ae75-0c05d89745b6","system_id":"levelo_inurba_marseille","lat":43.29715,"lon":5.36604,"is_reserved":false,"is_disabled":false,"rental_uris":{"android":"levelo://app?vid=e88c0a49-9ec8-47cf-ae75-0c05d89745b6","ios":"levelo://app?vid=e88c0a49-9ec8-47cf-ae75-0c05d89745b6"},"vehicle_type_id":"4","last_reported":1737897022,"current_range_meters":30000,"station_id":"ce4bgn12rcd13ifvqbt0","pricing_plan_id":"cebpf4jnsgd1na2vs0mg"},{"bike_id":"b96c22ba-a4c6-4ca8-b881-a2a2972e9bc2","system_id":"levelo_inurba_marseille","lat":43.2602,"lon":5.3756,"is_reserved":false,"is_disabled":true,"rental_uris":{"android":"levelo://app?vid=b96c22ba-a4c6-4ca8-b881-a2a2972e9bc2","ios":"levelo://app?vid=b96c22ba-a4c6-4ca8-b881-a2a2972e9bc2"},"vehicle_type_id":"4","last_reported":1737897022,"current_range_meters":32000,"station_id":"ce4bhgh2rcd13ifvqfa0","pricing_plan_id":"cebpf4jnsgd1na2vs0mg"},{"bike_id":"485cbd1a-d0c5-4e75-b546-fd083fb2d58e","system_id":"levelo_inurba_marseille","lat":43.28613,"lon":5.35111,"is_reserved":false,"is_disabled":false,"rental_uris":{"android":"levelo://app?vid=485cbd1a-d0c5-4e75-b546-fd083fb2d58e","ios":"levelo://app?vid=485cbd1a-d0c5-4e75-b546-fd083fb2d58e"},"vehicle_type_id":"4","last_reported":1737897022,"current_range_meters":8800,"station_id":"ce4bhch2rcd13ifvqeug","pricing_plan_id":"cebpf4jnsgd1na2vs0mg"},{"bike_id":"a0197b34-0c71-4348-a85c-357ca99a2b75","system_id":"levelo_inurba_marseille","lat":43.26057,"lon":5.39389,"is_reserved":false,"is_disabled":false,"rental_uris":{"android":"levelo://app?vid=a0197b34-0c71-4348-a85c-357ca99a2b75","ios":"levelo://app?vid=a0197b34-0c71-4348-a85c-357ca99a2b75"},"vehicle_type_id":"4","last_reported":1737897022,"current_range_meters":10000,"station_id":"ce4bhh92rcd13ifvqfj0","pricing_plan_id":"cebpf4jnsgd1na2vs0mg"},{"bike_id":"dcb50635-0e5e-4da9-b4df-329e73a63f8f","system_id":"levelo_inurba_marseille","lat":43.24155,"lon":5.39754,"is_reserved":false,"is_disabled":false,"rental_uris":{"android":"levelo://app?vid=dcb50635-0e5e-4da9-b4df-329e73a63f8f","ios":"levelo://app?vid=dcb50635-0e5e-4da9-b4df-329e73a63f8f"},"vehicle_type_id":"4","last_reported":1737897022,"current_range_meters":27600,"station_id":"ce4bhn12rcd13ifvqgpg","pricing_plan_id":"cebpf4jnsgd1na2vs0mg"},{"bike_id":"98a2cb10-0f11-4a3f-b5c2-fb63add72da7","system_id":"levelo_inurba_marseille","lat":43.23197,"lon":5.35558,"is_reserved":false,"is_disabled":false,"rental_uris":{"android":"levelo://app?vid=98a2cb10-0f11-4a3f-b5c2-fb63add72da7","ios":"levelo://app?vid=98a2cb10-0f11-4a3f-b5c2-fb63add72da7"},"vehicle_type_id":"4","last_reported":1737897022,"current_range_meters":29600,"station_id":"ce4bhu92rcd13ifvqi70","pricing_plan_id":"cebpf4jnsgd1na2vs0mg"},{"bike_id":"1346ff93-9ddb-4093-aa5d-b6cb09dfef3c","system_id":"levelo_inurba_marseille","lat":43.28546,"lon":5.3679,"is_reserved":false,"is_disabled":true,"rental_uris":{"android":"levelo://app?vid=1346ff93-9ddb-4093-aa5d-b6cb09dfef3c","ios":"levelo://app?vid=1346ff93-9ddb-4093-aa5d-b6cb09dfef3c"},"vehicle_type_id":"4","last_reported":1737897022,"current_range_meters":0,"station_id":"","pricing_plan_id":"cebpf4jnsgd1na2vs0mg"},{"bike_id":"3266850a-5ee3-4db4-ad76-b3cc25a45b79","system_id":"levelo_inurba_marseille","lat":43.32656,"lon":5.41008,"is_reserved":false,"is_disabled":false,"rental_uris":{"android":"levelo://app?vid=3266850a-5ee3-4db4-ad76-b3cc25a45b79","ios":"levelo://app?vid=3266850a-5ee3-4db4-ad76-b3cc25a45b79"},"vehicle_type_id":"4","last_reported":1737897022,"current_range_meters":36800,"station_id":"ce4bhpp2rcd13ifvqhgg","pricing_plan_id":"cebpf4jnsgd1na2vs0mg"},{"bike_id":"3780c28f-7c26-4c69-8f24-1432e2105aef","system_id":"levelo_inurba_marseille","lat":43.2501,"lon":5.38923,"is_reserved":false,"is_disabled":false,"rental_uris":{"android":"levelo://app?vid=3780c28f-7c26-4c69-8f24-1432e2105aef","ios":"levelo://app?vid=3780c28f-7c26-4c69-8f24-1432e2105aef"},"vehicle_type_id":"4","last_reported":1737897022,"current_range_meters":36400,"station_id":"ce4bhgp2rcd13ifvqfd0","pricing_plan_id":"cebpf4jnsgd1na2vs0mg"},{"bike_id":"cff6a491-5284-4b58-81b6-6f262d74c4a9","system_id":"levelo_inurba_marseille","lat":43.27818,"lon":5.40749,"is_reserved":false,"is_disabled":false,"rental_uris":{"android":"levelo://app?vid=cff6a491-5284-4b58-81b6-6f262d74c4a9","ios":"levelo://app?vid=cff6a491-5284-4b58-81b6-6f262d74c4a9"},"vehicle_type_id":"4","last_reported":1737897022,"current_range_meters":38800,"station_id":"ce4bhnh2rcd13ifvqgtg","pricing_plan_id":"cebpf4jnsgd1na2vs0mg"},{"bike_id":"20323193-b213-4bc7-b78a-a23c2bb00268","system_id":"levelo_inurba_marseille","lat":43.25496,"lon":5.37648,"is_reserved":false,"is_disabled":true,"rental_uris":{"android":"levelo://app?vid=20323193-b213-4bc7-b78a-a23c2bb00268","ios":"levelo://app?vid=20323193-b213-4bc7-b78a-a23c2bb00268"},"vehicle_type_id":"4","last_reported":1737897022,"current_range_meters":1200,"station_id":"ce4bhh12rcd13ifvqff0","pricing_plan_id":"cebpf4jnsgd1na2vs0mg"},{"bike_id":"7c3a1add-fa1a-44e9-b210-58865ab9c863","system_id":"levelo_inurba_marseille","lat":43.32103,"lon":5.36772,"is_reserved":false,"is_disabled":false,"rental_uris":{"android":"levelo://app?vid=7c3a1add-fa1a-44e9-b210-58865ab9c863","ios":"levelo://app?vid=7c3a1add-fa1a-44e9-b210-58865ab9c863"},"vehicle_type_id":"4","last_reported":1737897022,"current_range_meters":28800,"station_id":"ce4bhrh2rcd13ifvqhug","pricing_plan_id":"cebpf4jnsgd1na2vs0mg"},{"bike_id":"5658bf19-5e40-4edf-ac7a-3999a5207afd","system_id":"levelo_inurba_marseille","lat":43.23199,"lon":5.35544,"is_reserved":false,"is_disabled":false,"rental_uris":{"android":"levelo://app?vid=5658bf19-5e40-4edf-ac7a-3999a5207afd","ios":"levelo://app?vid=5658bf19-5e40-4edf-ac7a-3999a5207afd"},"vehicle_type_id":"4","last_reported":1737897022,"current_range_meters":38800,"station_id":"ce4bhu92rcd13ifvqi70","pricing_plan_id":"cebpf4jnsgd1na2vs0mg"},{"bike_id":"b01b0706-3a3a-4ff1-ac0d-6b17e48eff7a","system_id":"levelo_inurba_marseille","lat":43.23197,"lon":5.35568,"is_reserved":false,"is_disabled":true,"rental_uris":{"android":"levelo://app?vid=b01b0706-3a3a-4ff1-ac0d-6b17e48eff7a","ios":"levelo://app?vid=b01b0706-3a3a-4ff1-ac0d-6b17e48eff7a"},"vehicle_type_id":"4","last_reported":1737897022,"current_range_meters":0,"station_id":"ce4bhu92rcd13ifvqi70","pricing_plan_id":"cebpf4jnsgd1na2vs0mg"},{"bike_id":"35422ebd-a2cf-42b2-9801-6e7f91d03f6b","system_id":"levelo_inurba_marseille","lat":43.28422,"lon":5.34998,"is_reserved":false,"is_disabled":false,"rental_uris":{"android":"levelo://app?vid=35422ebd-a2cf-42b2-9801-6e7f91d03f6b","ios":"levelo://app?vid=35422ebd-a2cf-42b2-9801-6e7f91d03f6b"},"vehicle_type_id":"4","last_reported":1737897022,"current_range_meters":36800,"station_id":"ce4bhbh2rcd13ifvqepg","pricing_plan_id":"cebpf4jnsgd1na2vs0mg"},{"bike_id":"66743e23-0594-4715-a08c-22434e1ddfd8","system_id":"levelo_inurba_marseille","lat":43.28016,"lon":5.41231,"is_reserved":false,"is_disabled":false,"rental_uris":{"android":"levelo://app?vid=66743e23-0594-4715-a08c-22434e1ddfd8","ios":"levelo://app?vid=66743e23-0594-4715-a08c-22434e1ddfd8"},"vehicle_type_id":"4","last_reported":1737897022,"current_range_meters":30800,"station_id":"","pricing_plan_id":"cebpf4jnsgd1na2vs0mg"},{"bike_id":"82268c69-bcd8-49fb-91ea-6277b4711aa7","system_id":"levelo_inurba_marseille","lat":43.25558,"lon":5.39797,"is_reserved":false,"is_disabled":false,"rental_uris":{"android":"levelo://app?vid=82268c69-bcd8-49fb-91ea-6277b4711aa7","ios":"levelo://app?vid=82268c69-bcd8-49fb-91ea-6277b4711aa7"},"vehicle_type_id":"4","last_reported":1737897022,"current_range_meters":29600,"station_id":"","pricing_plan_id":"cebpf4jnsgd1na2vs0mg"},{"bike_id":"4f3aa407-8754-4e52-b1ac-a45a6af013fe","system_id":"levelo_inurba_marseille","lat":43.2407,"lon":5.37752,"is_reserved":false,"is_disabled":false,"rental_uris":{"android":"levelo://app?vid=4f3aa407-8754-4e52-b1ac-a45a6af013fe","ios":"levelo://app?vid=4f3aa407-8754-4e52-b1ac-a45a6af013fe"},"vehicle_type_id":"4","last_reported":1737897022,"current_range_meters":38400,"station_id":"ce4bhnp2rcd13ifvqgvg","pricing_plan_id":"cebpf4jnsgd1na2vs0mg"},{"bike_id":"ec625e23-1a60-4f83-8f41-f94e7188c34d","system_id":"levelo_inurba_marseille","lat":43.28417,"lon":5.34973,"is_reserved":false,"is_disabled":false,"rental_uris":{"android":"levelo://app?vid=ec625e23-1a60-4f83-8f41-f94e7188c34d","ios":"levelo://app?vid=ec625e23-1a60-4f83-8f41-f94e7188c34d"},"vehicle_type_id":"4","last_reported":1737897022,"current_range_meters":26000,"station_id":"ce4bhbh2rcd13ifvqepg","pricing_plan_id":"cebpf4jnsgd1na2vs0mg"},{"bike_id":"a013fb83-1ba7-475f-8403-94a74e9778fd","system_id":"levelo_inurba_marseille","lat":43.26213,"lon":5.3744,"is_reserved":false,"is_disabled":false,"rental_uris":{"android":"levelo://app?vid=a013fb83-1ba7-475f-8403-94a74e9778fd","ios":"levelo://app?vid=a013fb83-1ba7-475f-8403-94a74e9778fd"},"vehicle_type_id":"4","last_reported":1737897022,"current_range_meters":9200,"station_id":"ce4bhgp2rcd13ifvqfc0","pricing_plan_id":"cebpf4jnsgd1na2vs0mg"},{"bike_id":"79bc66a4-aeed-4eda-a560-099c58d7dbf9","system_id":"levelo_inurba_marseille","lat":43.31504,"lon":5.37302,"is_reserved":false,"is_disabled":true,"rental_uris":{"android":"levelo://app?vid=79bc66a4-aeed-4eda-a560-099c58d7dbf9","ios":"levelo://app?vid=79bc66a4-aeed-4eda-a560-099c58d7dbf9"},"vehicle_type_id":"4","last_reported":1737897022,"current_range_meters":14800,"station_id":"ce4bgt12rcd13ifvqcd0","pricing_plan_id":"cebpf4jnsgd1na2vs0mg"},{"bike_id":"10b1a047-be93-49dc-bba5-67085f222023","system_id":"levelo_inurba_marseille","lat":43.25582,"lon":5.382345,"is_reserved":false,"is_disabled":false,"rental_uris":{"android":"levelo://app?vid=10b1a047-be93-49dc-bba5-67085f222023","ios":"levelo://app?vid=10b1a047-be93-49dc-bba5-67085f222023"},"vehicle_type_id":"4","last_reported":1737897022,"current_range_meters":16800,"station_id":"ce4bhih2rcd13ifvqfs0","pricing_plan_id":"cebpf4jnsgd1na2vs0mg"},{"bike_id":"8596cde7-7473-4d76-b1eb-443c5f5117cc","system_id":"levelo_inurba_marseille","lat":43.2721,"lon":5.39179,"is_reserved":false,"is_disabled":false,"rental_uris":{"android":"levelo://app?vid=8596cde7-7473-4d76-b1eb-443c5f5117cc","ios":"levelo://app?vid=8596cde7-7473-4d76-b1eb-443c5f5117cc"},"vehicle_type_id":"4","last_reported":1737897022,"current_range_meters":36800,"station_id":"ce4bhhp2rcd13ifvqfm0","pricing_plan_id":"cebpf4jnsgd1na2vs0mg"},{"bike_id":"612cdb80-e2cc-4b64-a057-2821874f17be","system_id":"levelo_inurba_marseille","lat":43.32351,"lon":5.40614,"is_reserved":false,"is_disabled":false,"rental_uris":{"android":"levelo://app?vid=612cdb80-e2cc-4b64-a057-2821874f17be","ios":"levelo://app?vid=612cdb80-e2cc-4b64-a057-2821874f17be"},"vehicle_type_id":"4","last_reported":1737897022,"current_range_meters":38800,"station_id":"ce4bhq92rcd13ifvqhjg","pricing_plan_id":"cebpf4jnsgd1na2vs0mg"},{"bike_id":"14549f3c-9b93-4dce-b64e-10da7e275aeb","system_id":"levelo_inurba_marseille","lat":43.31525,"lon":5.37478,"is_reserved":false,"is_disabled":false,"rental_uris":{"android":"levelo://app?vid=14549f3c-9b93-4dce-b64e-10da7e275aeb","ios":"levelo://app?vid=14549f3c-9b93-4dce-b64e-10da7e275aeb"},"vehicle_type_id":"4","last_reported":1737897022,"current_range_meters":32800,"station_id":"","pricing_plan_id":"cebpf4jnsgd1na2vs0mg"},{"bike_id":"e84ea28d-d6c1-4a23-bfa5-fecf89bc2a9f","system_id":"levelo_inurba_marseille","lat":43.32462,"lon":5.36568,"is_reserved":false,"is_disabled":false,"rental_uris":{"android":"levelo://app?vid=e84ea28d-d6c1-4a23-bfa5-fecf89bc2a9f","ios":"levelo://app?vid=e84ea28d-d6c1-4a23-bfa5-fecf89bc2a9f"},"vehicle_type_id":"4","last_reported":1737897022,"current_range_meters":30800,"station_id":"ce4bhs12rcd13ifvqhvg","pricing_plan_id":"cebpf4jnsgd1na2vs0mg"},{"bike_id":"872d6532-d9ab-4af1-9b23-35219dc99559","system_id":"levelo_inurba_marseille","lat":43.24171,"lon":5.36407,"is_reserved":false,"is_disabled":false,"rental_uris":{"android":"levelo://app?vid=872d6532-d9ab-4af1-9b23-35219dc99559","ios":"levelo://app?vid=872d6532-d9ab-4af1-9b23-35219dc99559"},"vehicle_type_id":"4","last_reported":1737897022,"current_range_meters":20800,"station_id":"cpo36qri1sfpv3e86is0","pricing_plan_id":"cebpf4jnsgd1na2vs0mg"},{"bike_id":"57823e25-308b-4f11-a2b6-a7f52902c1c5","system_id":"levelo_inurba_marseille","lat":43.3081,"lon":5.38134,"is_reserved":false,"is_disabled":true,"rental_uris":{"android":"levelo://app?vid=57823e25-308b-4f11-a2b6-a7f52902c1c5","ios":"levelo://app?vid=57823e25-308b-4f11-a2b6-a7f52902c1c5"},"vehicle_type_id":"4","last_reported":1737897022,"current_range_meters":20000,"station_id":"ce4bgt12rcd13ifvqce0","pricing_plan_id":"cebpf4jnsgd1na2vs0mg"},{"bike_id":"ff68af14-5554-4f8d-a3de-4549d987f602","system_id":"levelo_inurba_marseille","lat":43.29889,"lon":5.43688,"is_reserved":false,"is_disabled":false,"rental_uris":{"android":"levelo://app?vid=ff68af14-5554-4f8d-a3de-4549d987f602","ios":"levelo://app?vid=ff68af14-5554-4f8d-a3de-4549d987f602"},"vehicle_type_id":"4","last_reported":1737897022,"current_range_meters":8400,"station_id":"ce4bhpp2rcd13ifvqhfg","pricing_plan_id":"cebpf4jnsgd1na2vs0mg"},{"bike_id":"68b28b90-d9d5-4ef4-9d96-79b28519ebc3","system_id":"levelo_inurba_marseille","lat":43.27185,"lon":5.40991,"is_reserved":false,"is_disabled":false,"rental_uris":{"android":"levelo://app?vid=68b28b90-d9d5-4ef4-9d96-79b28519ebc3","ios":"levelo://app?vid=68b28b90-d9d5-4ef4-9d96-79b28519ebc3"},"vehicle_type_id":"4","last_reported":1737897022,"current_range_meters":38800,"station_id":"ce4bhl12rcd13ifvqgf0","pricing_plan_id":"cebpf4jnsgd1na2vs0mg"},{"bike_id":"787fabc3-eb91-469a-81b6-44a6fdcc4a9b","system_id":"levelo_inurba_marseille","lat":43.23076,"lon":5.35498,"is_reserved":false,"is_disabled":false,"rental_uris":{"android":"levelo://app?vid=787fabc3-eb91-469a-81b6-44a6fdcc4a9b","ios":"levelo://app?vid=787fabc3-eb91-469a-81b6-44a6fdcc4a9b"},"vehicle_type_id":"4","last_reported":1737897022,"current_range_meters":37600,"station_id":"cpo3342slgdg3j2ifvpg","pricing_plan_id":"cebpf4jnsgd1na2vs0mg"},{"bike_id":"f1257a8f-3caf-4dd7-b1c9-ca74e05bed19","system_id":"levelo_inurba_marseille","lat":43.29578,"lon":5.37521,"is_reserved":false,"is_disabled":false,"rental_uris":{"android":"levelo://app?vid=f1257a8f-3caf-4dd7-b1c9-ca74e05bed19","ios":"levelo://app?vid=f1257a8f-3caf-4dd7-b1c9-ca74e05bed19"},"vehicle_type_id":"4","last_reported":1737897022,"current_range_meters":16000,"station_id":"ce4bgh92rcd13ifvqb50","pricing_plan_id":"cebpf4jnsgd1na2vs0mg"},{"bike_id":"1e328aaf-06e5-4767-a395-a9b21576497f","system_id":"levelo_inurba_marseille","lat":43.29754,"lon":5.37116,"is_reserved":false,"is_disabled":true,"rental_uris":{"android":"levelo://app?vid=1e328aaf-06e5-4767-a395-a9b21576497f","ios":"levelo://app?vid=1e328aaf-06e5-4767-a395-a9b21576497f"},"vehicle_type_id":"4","last_reported":1737897022,"current_range_meters":18000,"station_id":"ce4bgop2rcd13ifvqc1g","pricing_plan_id":"cebpf4jnsgd1na2vs0mg"},{"bike_id":"a49f50e7-94cf-4225-b0ae-697444b4970e","system_id":"levelo_inurba_marseille","lat":43.29024,"lon":5.37545,"is_reserved":false,"is_disabled":false,"rental_uris":{"android":"levelo://app?vid=a49f50e7-94cf-4225-b0ae-697444b4970e","ios":"levelo://app?vid=a49f50e7-94cf-4225-b0ae-697444b4970e"},"vehicle_type_id":"4","last_reported":1737897022,"current_range_meters":36400,"station_id":"ce4bh692rcd13ifvqe90","pricing_plan_id":"cebpf4jnsgd1na2vs0mg"},{"bike_id":"7facede7-71a3-4129-a1f3-f8692190d63d","system_id":"levelo_inurba_marseille","lat":43.3247,"lon":5.36572,"is_reserved":false,"is_disabled":false,"rental_uris":{"android":"levelo://app?vid=7facede7-71a3-4129-a1f3-f8692190d63d","ios":"levelo://app?vid=7facede7-71a3-4129-a1f3-f8692190d63d"},"vehicle_type_id":"4","last_reported":1737897022,"current_range_meters":19200,"station_id":"ce4bhs12rcd13ifvqhvg","pricing_plan_id":"cebpf4jnsgd1na2vs0mg"},{"bike_id":"6cb85097-e0aa-4066-a346-3afe34bfdb4c","system_id":"levelo_inurba_marseille","lat":43.30557,"lon":5.36535,"is_reserved":false,"is_disabled":false,"rental_uris":{"android":"levelo://app?vid=6cb85097-e0aa-4066-a346-3afe34bfdb4c","ios":"levelo://app?vid=6cb85097-e0aa-4066-a346-3afe34bfdb4c"},"vehicle_type_id":"4","last_reported":1737897022,"current_range_meters":37600,"station_id":"ce4bgs12rcd13ifvqcag","pricing_plan_id":"cebpf4jnsgd1na2vs0mg"},{"bike_id":"6e442fce-956b-4a71-ba3b-d58421709cb4","system_id":"levelo_inurba_marseille","lat":43.29636,"lon":5.37293,"is_reserved":false,"is_disabled":false,"rental_uris":{"android":"levelo://app?vid=6e442fce-956b-4a71-ba3b-d58421709cb4","ios":"levelo://app?vid=6e442fce-956b-4a71-ba3b-d58421709cb4"},"vehicle_type_id":"4","last_reported":1737897022,"current_range_meters":38000,"station_id":"ce4bgk12rcd13ifvqbj0","pricing_plan_id":"cebpf4jnsgd1na2vs0mg"},{"bike_id":"9dfebde1-25e4-4d42-95ff-1de403b41221","system_id":"levelo_inurba_marseille","lat":43.28937,"lon":5.36636,"is_reserved":false,"is_disabled":true,"rental_uris":{"android":"levelo://app?vid=9dfebde1-25e4-4d42-95ff-1de403b41221","ios":"levelo://app?vid=9dfebde1-25e4-4d42-95ff-1de403b41221"},"vehicle_type_id":"4","last_reported":1737897022,"current_range_meters":0,"station_id":"ce4bhap2rcd13ifvqek0","pricing_plan_id":"cebpf4jnsgd1na2vs0mg"},{"bike_id":"e44bd1d7-33b9-489f-b11d-70de50813f16","system_id":"levelo_inurba_marseille","lat":43.29179,"lon":5.35808,"is_reserved":false,"is_disabled":true,"rental_uris":{"android":"levelo://app?vid=e44bd1d7-33b9-489f-b11d-70de50813f16","ios":"levelo://app?vid=e44bd1d7-33b9-489f-b11d-70de50813f16"},"vehicle_type_id":"4","last_reported":1737897022,"current_range_meters":0,"station_id":"ce4bhb12rcd13ifvqel0","pricing_plan_id":"cebpf4jnsgd1na2vs0mg"},{"bike_id":"a7fcc53e-6f14-41c5-8b6d-25ab86bedc5f","system_id":"levelo_inurba_marseille","lat":43.2903,"lon":5.38646,"is_reserved":false,"is_disabled":true,"rental_uris":{"android":"levelo://app?vid=a7fcc53e-6f14-41c5-8b6d-25ab86bedc5f","ios":"levelo://app?vid=a7fcc53e-6f14-41c5-8b6d-25ab86bedc5f"},"vehicle_type_id":"4","last_reported":1737897022,"current_range_meters":31200,"station_id":"ce4bh4p2rcd13ifvqe0g","pricing_plan_id":"cebpf4jnsgd1na2vs0mg"},{"bike_id":"03cfeb2a-ce31-483a-be69-826132ecd719","system_id":"levelo_inurba_marseille","lat":43.2578,"lon":5.39424,"is_reserved":false,"is_disabled":false,"rental_uris":{"android":"levelo://app?vid=03cfeb2a-ce31-483a-be69-826132ecd719","ios":"levelo://app?vid=03cfeb2a-ce31-483a-be69-826132ecd719"},"vehicle_type_id":"4","last_reported":1737897022,"current_range_meters":30800,"station_id":"ce4bhip2rcd13ifvqft0","pricing_plan_id":"cebpf4jnsgd1na2vs0mg"},{"bike_id":"b1ff312f-094f-409e-a35b-15d478232342","system_id":"levelo_inurba_marseille","lat":43.30473,"lon":5.37918,"is_reserved":false,"is_disabled":false,"rental_uris":{"android":"levelo://app?vid=b1ff312f-094f-409e-a35b-15d478232342","ios":"levelo://app?vid=b1ff312f-094f-409e-a35b-15d478232342"},"vehicle_type_id":"4","last_reported":1737897022,"current_range_meters":28000,"station_id":"ce4bgup2rcd13ifvqcn0","pricing_plan_id":"cebpf4jnsgd1na2vs0mg"},{"bike_id":"13e11421-4f29-4395-84aa-513663a9b6f8","system_id":"levelo_inurba_marseille","lat":43.27622,"lon":5.36103,"is_reserved":false,"is_disabled":false,"rental_uris":{"android":"levelo://app?vid=13e11421-4f29-4395-84aa-513663a9b6f8","ios":"levelo://app?vid=13e11421-4f29-4395-84aa-513663a9b6f8"},"vehicle_type_id":"4","last_reported":1737897022,"current_range_meters":38400,"station_id":"ce4bgj92rcd13ifvqbe0","pricing_plan_id":"cebpf4jnsgd1na2vs0mg"},{"bike_id":"42b84b83-a007-432b-942c-d0f972c3135f","system_id":"levelo_inurba_marseille","lat":43.24073,"lon":5.37752,"is_reserved":false,"is_disabled":false,"rental_uris":{"android":"levelo://app?vid=42b84b83-a007-432b-942c-d0f972c3135f","ios":"levelo://app?vid=42b84b83-a007-432b-942c-d0f972c3135f"},"vehicle_type_id":"4","last_reported":1737897022,"current_range_meters":10800,"station_id":"ce4bhnp2rcd13ifvqgvg","pricing_plan_id":"cebpf4jnsgd1na2vs0mg"},{"bike_id":"eb68c0e8-7e8f-4b50-8d43-388120c90207","system_id":"levelo_inurba_marseille","lat":43.29794,"lon":5.40417,"is_reserved":false,"is_disabled":false,"rental_uris":{"android":"levelo://app?vid=eb68c0e8-7e8f-4b50-8d43-388120c90207","ios":"levelo://app?vid=eb68c0e8-7e8f-4b50-8d43-388120c90207"},"vehicle_type_id":"4","last_reported":1737897022,"current_range_meters":38000,"station_id":"ce4bh112rcd13ifvqd90","pricing_plan_id":"cebpf4jnsgd1na2vs0mg"},{"bike_id":"09351cb6-0309-44f4-8933-453ff4176d18","system_id":"levelo_inurba_marseille","lat":43.24799,"lon":5.37458,"is_reserved":false,"is_disabled":false,"rental_uris":{"android":"levelo://app?vid=09351cb6-0309-44f4-8933-453ff4176d18","ios":"levelo://app?vid=09351cb6-0309-44f4-8933-453ff4176d18"},"vehicle_type_id":"4","last_reported":1737897022,"current_range_meters":38000,"station_id":"ce4bhgh2rcd13ifvqfb0","pricing_plan_id":"cebpf4jnsgd1na2vs0mg"},{"bike_id":"e4b89815-f3d7-4d26-a380-9ca88709db83","system_id":"levelo_inurba_marseille","lat":43.28472,"lon":5.384365,"is_reserved":false,"is_disabled":false,"rental_uris":{"android":"levelo://app?vid=e4b89815-f3d7-4d26-a380-9ca88709db83","ios":"levelo://app?vid=e4b89815-f3d7-4d26-a380-9ca88709db83"},"vehicle_type_id":"4","last_reported":1737897022,"current_range_meters":38800,"station_id":"ce4bh512rcd13ifvqe3g","pricing_plan_id":"cebpf4jnsgd1na2vs0mg"},{"bike_id":"cb11c4e4-37a9-44f4-9ccd-767b3b519e30","system_id":"levelo_inurba_marseille","lat":43.2847,"lon":5.38426,"is_reserved":false,"is_disabled":true,"rental_uris":{"android":"levelo://app?vid=cb11c4e4-37a9-44f4-9ccd-767b3b519e30","ios":"levelo://app?vid=cb11c4e4-37a9-44f4-9ccd-767b3b519e30"},"vehicle_type_id":"4","last_reported":1737897022,"current_range_meters":16000,"station_id":"ce4bh512rcd13ifvqe3g","pricing_plan_id":"cebpf4jnsgd1na2vs0mg"},{"bike_id":"e2d90433-6bd8-4eae-9f69-a0dbfb869209","system_id":"levelo_inurba_marseille","lat":43.2862,"lon":5.35114,"is_reserved":false,"is_disabled":false,"rental_uris":{"android":"levelo://app?vid=e2d90433-6bd8-4eae-9f69-a0dbfb869209","ios":"levelo://app?vid=e2d90433-6bd8-4eae-9f69-a0dbfb869209"},"vehicle_type_id":"4","last_reported":1737897022,"current_range_meters":15200,"station_id":"ce4bhch2rcd13ifvqeug","pricing_plan_id":"cebpf4jnsgd1na2vs0mg"},{"bike_id":"06db7b38-d368-4168-a3af-68cb37ab41ea","system_id":"levelo_inurba_marseille","lat":43.31721,"lon":5.40442,"is_reserved":false,"is_disabled":false,"rental_uris":{"android":"levelo://app?vid=06db7b38-d368-4168-a3af-68cb37ab41ea","ios":"levelo://app?vid=06db7b38-d368-4168-a3af-68cb37ab41ea"},"vehicle_type_id":"4","last_reported":1737897022,"current_range_meters":38800,"station_id":"ce4bh012rcd13ifvqd00","pricing_plan_id":"cebpf4jnsgd1na2vs0mg"},{"bike_id":"e2fa58e8-528f-41ef-938e-9a27257248e0","system_id":"levelo_inurba_marseille","lat":43.27065,"lon":5.42284,"is_reserved":false,"is_disabled":false,"rental_uris":{"android":"levelo://app?vid=e2fa58e8-528f-41ef-938e-9a27257248e0","ios":"levelo://app?vid=e2fa58e8-528f-41ef-938e-9a27257248e0"},"vehicle_type_id":"4","last_reported":1737897022,"current_range_meters":38800,"station_id":"ce4bhk92rcd13ifvqgb0","pricing_plan_id":"cebpf4jnsgd1na2vs0mg"},{"bike_id":"b634609d-e34e-4cf4-8ad3-e70e093d77d6","system_id":"levelo_inurba_marseille","lat":43.33022,"lon":5.39041,"is_reserved":false,"is_disabled":false,"rental_uris":{"android":"levelo://app?vid=b634609d-e34e-4cf4-8ad3-e70e093d77d6","ios":"levelo://app?vid=b634609d-e34e-4cf4-8ad3-e70e093d77d6"},"vehicle_type_id":"4","last_reported":1737897022,"current_range_meters":37600,"station_id":"ce4bhr92rcd13ifvqhrg","pricing_plan_id":"cebpf4jnsgd1na2vs0mg"},{"bike_id":"406f3a4e-22c7-4501-a7fe-e475a9f714e4","system_id":"levelo_inurba_marseille","lat":43.2319,"lon":5.35546,"is_reserved":false,"is_disabled":false,"rental_uris":{"android":"levelo://app?vid=406f3a4e-22c7-4501-a7fe-e475a9f714e4","ios":"levelo://app?vid=406f3a4e-22c7-4501-a7fe-e475a9f714e4"},"vehicle_type_id":"4","last_reported":1737897022,"current_range_meters":19200,"station_id":"ce4bhu92rcd13ifvqi70","pricing_plan_id":"cebpf4jnsgd1na2vs0mg"},{"bike_id":"e7965682-cb07-492d-a8dc-957cdc5a4b6e","system_id":"levelo_inurba_marseille","lat":43.29973,"lon":5.38501,"is_reserved":false,"is_disabled":true,"rental_uris":{"android":"levelo://app?vid=e7965682-cb07-492d-a8dc-957cdc5a4b6e","ios":"levelo://app?vid=e7965682-cb07-492d-a8dc-957cdc5a4b6e"},"vehicle_type_id":"4","last_reported":1737897022,"current_range_meters":8400,"station_id":"ce4bgj92rcd13ifvqbd0","pricing_plan_id":"cebpf4jnsgd1na2vs0mg"},{"bike_id":"e94ddf65-29e9-4ab4-8213-52ea30f7c390","system_id":"levelo_inurba_marseille","lat":43.29712,"lon":5.36598,"is_reserved":false,"is_disabled":false,"rental_uris":{"android":"levelo://app?vid=e94ddf65-29e9-4ab4-8213-52ea30f7c390","ios":"levelo://app?vid=e94ddf65-29e9-4ab4-8213-52ea30f7c390"},"vehicle_type_id":"4","last_reported":1737897022,"current_range_meters":38800,"station_id":"ce4bgn12rcd13ifvqbt0","pricing_plan_id":"cebpf4jnsgd1na2vs0mg"},{"bike_id":"9a7368ed-b4dc-4588-984f-050921bfed4c","system_id":"levelo_inurba_marseille","lat":43.23053,"lon":5.3549,"is_reserved":false,"is_disabled":true,"rental_uris":{"android":"levelo://app?vid=9a7368ed-b4dc-4588-984f-050921bfed4c","ios":"levelo://app?vid=9a7368ed-b4dc-4588-984f-050921bfed4c"},"vehicle_type_id":"4","last_reported":1737897022,"current_range_meters":0,"station_id":"cpo3342slgdg3j2ifvpg","pricing_plan_id":"cebpf4jnsgd1na2vs0mg"},{"bike_id":"06c3e76e-c1e9-4491-a816-69dfa242b750","system_id":"levelo_inurba_marseille","lat":43.29975,"lon":5.41319,"is_reserved":false,"is_disabled":false,"rental_uris":{"android":"levelo://app?vid=06c3e76e-c1e9-4491-a816-69dfa242b750","ios":"levelo://app?vid=06c3e76e-c1e9-4491-a816-69dfa242b750"},"vehicle_type_id":"4","last_reported":1737897022,"current_range_meters":38800,"station_id":"ce4bhp12rcd13ifvqh9g","pricing_plan_id":"cebpf4jnsgd1na2vs0mg"},{"bike_id":"de6c4a59-36a1-48bf-9750-a7d9914a8195","system_id":"levelo_inurba_marseille","lat":43.23059,"lon":5.35492,"is_reserved":false,"is_disabled":false,"rental_uris":{"android":"levelo://app?vid=de6c4a59-36a1-48bf-9750-a7d9914a8195","ios":"levelo://app?vid=de6c4a59-36a1-48bf-9750-a7d9914a8195"},"vehicle_type_id":"4","last_reported":1737897022,"current_range_meters":8000,"station_id":"cpo3342slgdg3j2ifvpg","pricing_plan_id":"cebpf4jnsgd1na2vs0mg"},{"bike_id":"e7b63a5d-2827-4f63-83cd-321e7b17d5d6","system_id":"levelo_inurba_marseille","lat":43.31384,"lon":5.38495,"is_reserved":false,"is_disabled":false,"rental_uris":{"android":"levelo://app?vid=e7b63a5d-2827-4f63-83cd-321e7b17d5d6","ios":"levelo://app?vid=e7b63a5d-2827-4f63-83cd-321e7b17d5d6"},"vehicle_type_id":"4","last_reported":1737897022,"current_range_meters":34800,"station_id":"ce4bgt92rcd13ifvqcf0","pricing_plan_id":"cebpf4jnsgd1na2vs0mg"},{"bike_id":"26d3de6a-b7db-4cd7-885c-9cb71bb28aa5","system_id":"levelo_inurba_marseille","lat":43.27373,"lon":5.36266,"is_reserved":false,"is_disabled":false,"rental_uris":{"android":"levelo://app?vid=26d3de6a-b7db-4cd7-885c-9cb71bb28aa5","ios":"levelo://app?vid=26d3de6a-b7db-4cd7-885c-9cb71bb28aa5"},"vehicle_type_id":"4","last_reported":1737897022,"current_range_meters":36400,"station_id":"ce4bhbh2rcd13ifvqeo0","pricing_plan_id":"cebpf4jnsgd1na2vs0mg"},{"bike_id":"07162cf2-9520-4954-8d12-669f863694e1","system_id":"levelo_inurba_marseille","lat":43.25569,"lon":5.38249,"is_reserved":false,"is_disabled":false,"rental_uris":{"android":"levelo://app?vid=07162cf2-9520-4954-8d12-669f863694e1","ios":"levelo://app?vid=07162cf2-9520-4954-8d12-669f863694e1"},"vehicle_type_id":"4","last_reported":1737897022,"current_range_meters":36400,"station_id":"ce4bhih2rcd13ifvqfs0","pricing_plan_id":"cebpf4jnsgd1na2vs0mg"},{"bike_id":"7c78a755-c7f5-4f07-a96b-621451d47948","system_id":"levelo_inurba_marseille","lat":43.29903,"lon":5.43668,"is_reserved":false,"is_disabled":false,"rental_uris":{"android":"levelo://app?vid=7c78a755-c7f5-4f07-a96b-621451d47948","ios":"levelo://app?vid=7c78a755-c7f5-4f07-a96b-621451d47948"},"vehicle_type_id":"4","last_reported":1737897022,"current_range_meters":31200,"station_id":"ce4bhpp2rcd13ifvqhfg","pricing_plan_id":"cebpf4jnsgd1na2vs0mg"},{"bike_id":"411db94d-2a28-4940-91b6-7af39e445c36","system_id":"levelo_inurba_marseille","lat":43.2731,"lon":5.391,"is_reserved":false,"is_disabled":false,"rental_uris":{"android":"levelo://app?vid=411db94d-2a28-4940-91b6-7af39e445c36","ios":"levelo://app?vid=411db94d-2a28-4940-91b6-7af39e445c36"},"vehicle_type_id":"4","last_reported":1737897022,"current_range_meters":4000,"station_id":"ce4bhgp2rcd13ifvqfe0","pricing_plan_id":"cebpf4jnsgd1na2vs0mg"},{"bike_id":"a48a4fa8-387b-4ecc-bc7a-c3f07822bf47","system_id":"levelo_inurba_marseille","lat":43.27065,"lon":5.39225,"is_reserved":false,"is_disabled":true,"rental_uris":{"android":"levelo://app?vid=a48a4fa8-387b-4ecc-bc7a-c3f07822bf47","ios":"levelo://app?vid=a48a4fa8-387b-4ecc-bc7a-c3f07822bf47"},"vehicle_type_id":"4","last_reported":1737897022,"current_range_meters":0,"station_id":"","pricing_plan_id":"cebpf4jnsgd1na2vs0mg"},{"bike_id":"fd38b4b0-f42b-4d68-b90d-cf0284d0f76e","system_id":"levelo_inurba_marseille","lat":43.240799,"lon":5.377566,"is_reserved":false,"is_disabled":false,"rental_uris":{"android":"levelo://app?vid=fd38b4b0-f42b-4d68-b90d-cf0284d0f76e","ios":"levelo://app?vid=fd38b4b0-f42b-4d68-b90d-cf0284d0f76e"},"vehicle_type_id":"4","last_reported":1737897022,"current_range_meters":6800,"station_id":"ce4bhnp2rcd13ifvqgvg","pricing_plan_id":"cebpf4jnsgd1na2vs0mg"},{"bike_id":"57d5f24d-cb80-4d9f-a3b6-eb71c77bfaa9","system_id":"levelo_inurba_marseille","lat":43.27209,"lon":5.39188,"is_reserved":false,"is_disabled":false,"rental_uris":{"android":"levelo://app?vid=57d5f24d-cb80-4d9f-a3b6-eb71c77bfaa9","ios":"levelo://app?vid=57d5f24d-cb80-4d9f-a3b6-eb71c77bfaa9"},"vehicle_type_id":"4","last_reported":1737897022,"current_range_meters":25600,"station_id":"ce4bhhp2rcd13ifvqfm0","pricing_plan_id":"cebpf4jnsgd1na2vs0mg"},{"bike_id":"8fd0082a-8558-471d-bd5c-8f2bb03de120","system_id":"levelo_inurba_marseille","lat":43.2872,"lon":5.39992,"is_reserved":false,"is_disabled":true,"rental_uris":{"android":"levelo://app?vid=8fd0082a-8558-471d-bd5c-8f2bb03de120","ios":"levelo://app?vid=8fd0082a-8558-471d-bd5c-8f2bb03de120"},"vehicle_type_id":"4","last_reported":1737897022,"current_range_meters":27200,"station_id":"ce4bho92rcd13ifvqh3g","pricing_plan_id":"cebpf4jnsgd1na2vs0mg"},{"bike_id":"cdf5bf4b-1902-4037-9bd5-4251474e8276","system_id":"levelo_inurba_marseille","lat":43.28727,"lon":5.36082,"is_reserved":false,"is_disabled":false,"rental_uris":{"android":"levelo://app?vid=cdf5bf4b-1902-4037-9bd5-4251474e8276","ios":"levelo://app?vid=cdf5bf4b-1902-4037-9bd5-4251474e8276"},"vehicle_type_id":"4","last_reported":1737897022,"current_range_meters":24000,"station_id":"cki0cbj6b192h4jlfktg","pricing_plan_id":"cebpf4jnsgd1na2vs0mg"},{"bike_id":"9c09af66-30f1-488d-910d-a8a905d02871","system_id":"levelo_inurba_marseille","lat":43.2938,"lon":5.37918,"is_reserved":false,"is_disabled":true,"rental_uris":{"android":"levelo://app?vid=9c09af66-30f1-488d-910d-a8a905d02871","ios":"levelo://app?vid=9c09af66-30f1-488d-910d-a8a905d02871"},"vehicle_type_id":"4","last_reported":1737897022,"current_range_meters":0,"station_id":"","pricing_plan_id":"cebpf4jnsgd1na2vs0mg"},{"bike_id":"be21c1ad-b876-451a-abb4-0cf188265b7c","system_id":"levelo_inurba_marseille","lat":43.23964,"lon":5.36628,"is_reserved":false,"is_disabled":false,"rental_uris":{"android":"levelo://app?vid=be21c1ad-b876-451a-abb4-0cf188265b7c","ios":"levelo://app?vid=be21c1ad-b876-451a-abb4-0cf188265b7c"},"vehicle_type_id":"4","last_reported":1737897022,"current_range_meters":14000,"station_id":"ce4bhi12rcd13ifvqfp0","pricing_plan_id":"cebpf4jnsgd1na2vs0mg"},{"bike_id":"718ff68a-4148-45b0-a17d-b53a6bd08fc5","system_id":"levelo_inurba_marseille","lat":43.26195,"lon":5.37451,"is_reserved":false,"is_disabled":false,"rental_uris":{"android":"levelo://app?vid=718ff68a-4148-45b0-a17d-b53a6bd08fc5","ios":"levelo://app?vid=718ff68a-4148-45b0-a17d-b53a6bd08fc5"},"vehicle_type_id":"4","last_reported":1737897022,"current_range_meters":28000,"station_id":"ce4bhgp2rcd13ifvqfc0","pricing_plan_id":"cebpf4jnsgd1na2vs0mg"},{"bike_id":"7f08e056-4da3-478c-a512-77c2198866bb","system_id":"levelo_inurba_marseille","lat":43.24548,"lon":5.39523,"is_reserved":false,"is_disabled":false,"rental_uris":{"android":"levelo://app?vid=7f08e056-4da3-478c-a512-77c2198866bb","ios":"levelo://app?vid=7f08e056-4da3-478c-a512-77c2198866bb"},"vehicle_type_id":"4","last_reported":1737897022,"current_range_meters":30000,"station_id":"ce4bhlp2rcd13ifvqgjg","pricing_plan_id":"cebpf4jnsgd1na2vs0mg"},{"bike_id":"fdfb41bd-61c7-48ed-91a4-1ae8fd7fa7e7","system_id":"levelo_inurba_marseille","lat":43.29566,"lon":5.42311,"is_reserved":false,"is_disabled":false,"rental_uris":{"android":"levelo://app?vid=fdfb41bd-61c7-48ed-91a4-1ae8fd7fa7e7","ios":"levelo://app?vid=fdfb41bd-61c7-48ed-91a4-1ae8fd7fa7e7"},"vehicle_type_id":"4","last_reported":1737897022,"current_range_meters":31200,"station_id":"ce4bhph2rcd13ifvqhdg","pricing_plan_id":"cebpf4jnsgd1na2vs0mg"},{"bike_id":"0de97f28-c592-4ee5-a5dc-745e21fb3a62","system_id":"levelo_inurba_marseille","lat":43.28269,"lon":5.35055,"is_reserved":false,"is_disabled":false,"rental_uris":{"android":"levelo://app?vid=0de97f28-c592-4ee5-a5dc-745e21fb3a62","ios":"levelo://app?vid=0de97f28-c592-4ee5-a5dc-745e21fb3a62"},"vehicle_type_id":"4","last_reported":1737897022,"current_range_meters":33200,"station_id":"ce4bhbp2rcd13ifvqerg","pricing_plan_id":"cebpf4jnsgd1na2vs0mg"},{"bike_id":"c438c788-2c8f-4eda-8233-a8485c23c4af","system_id":"levelo_inurba_marseille","lat":43.30415,"lon":5.41281,"is_reserved":false,"is_disabled":true,"rental_uris":{"android":"levelo://app?vid=c438c788-2c8f-4eda-8233-a8485c23c4af","ios":"levelo://app?vid=c438c788-2c8f-4eda-8233-a8485c23c4af"},"vehicle_type_id":"4","last_reported":1737897022,"current_range_meters":0,"station_id":"ce4bhop2rcd13ifvqh8g","pricing_plan_id":"cebpf4jnsgd1na2vs0mg"},{"bike_id":"9353a8c9-0fb0-4e94-853c-ea392ad3a4d6","system_id":"levelo_inurba_marseille","lat":43.33011,"lon":5.3906,"is_reserved":false,"is_disabled":false,"rental_uris":{"android":"levelo://app?vid=9353a8c9-0fb0-4e94-853c-ea392ad3a4d6","ios":"levelo://app?vid=9353a8c9-0fb0-4e94-853c-ea392ad3a4d6"},"vehicle_type_id":"4","last_reported":1737897022,"current_range_meters":24800,"station_id":"ce4bhr92rcd13ifvqhrg","pricing_plan_id":"cebpf4jnsgd1na2vs0mg"},{"bike_id":"e13c6172-1729-4439-bf3f-830189912b0e","system_id":"levelo_inurba_marseille","lat":43.28934,"lon":5.36407,"is_reserved":false,"is_disabled":false,"rental_uris":{"android":"levelo://app?vid=e13c6172-1729-4439-bf3f-830189912b0e","ios":"levelo://app?vid=e13c6172-1729-4439-bf3f-830189912b0e"},"vehicle_type_id":"4","last_reported":1737897022,"current_range_meters":17600,"station_id":"ce4bhc92rcd13ifvqetg","pricing_plan_id":"cebpf4jnsgd1na2vs0mg"},{"bike_id":"6f688b8a-01c7-408f-86cd-ac3efacc4d60","system_id":"levelo_inurba_marseille","lat":43.29703,"lon":5.36582,"is_reserved":false,"is_disabled":false,"rental_uris":{"android":"levelo://app?vid=6f688b8a-01c7-408f-86cd-ac3efacc4d60","ios":"levelo://app?vid=6f688b8a-01c7-408f-86cd-ac3efacc4d60"},"vehicle_type_id":"4","last_reported":1737897022,"current_range_meters":38800,"station_id":"ce4bgn12rcd13ifvqbt0","pricing_plan_id":"cebpf4jnsgd1na2vs0mg"},{"bike_id":"b0b3e6f5-4249-4d76-976c-2ba4e45c36a7","system_id":"levelo_inurba_marseille","lat":43.29006,"lon":5.35608,"is_reserved":false,"is_disabled":false,"rental_uris":{"android":"levelo://app?vid=b0b3e6f5-4249-4d76-976c-2ba4e45c36a7","ios":"levelo://app?vid=b0b3e6f5-4249-4d76-976c-2ba4e45c36a7"},"vehicle_type_id":"4","last_reported":1737897022,"current_range_meters":16000,"station_id":"ce4bhb92rcd13ifvqen0","pricing_plan_id":"cebpf4jnsgd1na2vs0mg"},{"bike_id":"4f1dbc2f-1feb-47d9-bb81-d3e6faf38891","system_id":"levelo_inurba_marseille","lat":43.32353,"lon":5.40617,"is_reserved":false,"is_disabled":false,"rental_uris":{"android":"levelo://app?vid=4f1dbc2f-1feb-47d9-bb81-d3e6faf38891","ios":"levelo://app?vid=4f1dbc2f-1feb-47d9-bb81-d3e6faf38891"},"vehicle_type_id":"4","last_reported":1737897022,"current_range_meters":38800,"station_id":"ce4bhq92rcd13ifvqhjg","pricing_plan_id":"cebpf4jnsgd1na2vs0mg"},{"bike_id":"41b83754-c5eb-4383-8759-03adc2861d73","system_id":"levelo_inurba_marseille","lat":43.28264,"lon":5.35057,"is_reserved":false,"is_disabled":false,"rental_uris":{"android":"levelo://app?vid=41b83754-c5eb-4383-8759-03adc2861d73","ios":"levelo://app?vid=41b83754-c5eb-4383-8759-03adc2861d73"},"vehicle_type_id":"4","last_reported":1737897022,"current_range_meters":23200,"station_id":"ce4bhbp2rcd13ifvqerg","pricing_plan_id":"cebpf4jnsgd1na2vs0mg"},{"bike_id":"6df2b605-9cd0-422d-ac43-90bf5f43fe68","system_id":"levelo_inurba_marseille","lat":43.30134,"lon":5.3879,"is_reserved":false,"is_disabled":false,"rental_uris":{"android":"levelo://app?vid=6df2b605-9cd0-422d-ac43-90bf5f43fe68","ios":"levelo://app?vid=6df2b605-9cd0-422d-ac43-90bf5f43fe68"},"vehicle_type_id":"4","last_reported":1737897022,"current_range_meters":24000,"station_id":"ce4bhoh2rcd13ifvqh6g","pricing_plan_id":"cebpf4jnsgd1na2vs0mg"},{"bike_id":"c58e1df6-67ba-48b8-b2c0-bed52c522af7","system_id":"levelo_inurba_marseille","lat":43.30539,"lon":5.36537,"is_reserved":false,"is_disabled":false,"rental_uris":{"android":"levelo://app?vid=c58e1df6-67ba-48b8-b2c0-bed52c522af7","ios":"levelo://app?vid=c58e1df6-67ba-48b8-b2c0-bed52c522af7"},"vehicle_type_id":"4","last_reported":1737897022,"current_range_meters":18000,"station_id":"ce4bgs12rcd13ifvqcag","pricing_plan_id":"cebpf4jnsgd1na2vs0mg"},{"bike_id":"3d98c6ce-e80d-46e8-b577-648cd8c28632","system_id":"levelo_inurba_marseille","lat":43.34736,"lon":5.35282,"is_reserved":false,"is_disabled":true,"rental_uris":{"android":"levelo://app?vid=3d98c6ce-e80d-46e8-b577-648cd8c28632","ios":"levelo://app?vid=3d98c6ce-e80d-46e8-b577-648cd8c28632"},"vehicle_type_id":"4","last_reported":1737897022,"current_range_meters":0,"station_id":"","pricing_plan_id":"cebpf4jnsgd1na2vs0mg"},{"bike_id":"f13404b2-fb3e-4db4-bc17-139ef572528a","system_id":"levelo_inurba_marseille","lat":43.27552,"lon":5.35966,"is_reserved":false,"is_disabled":false,"rental_uris":{"android":"levelo://app?vid=f13404b2-fb3e-4db4-bc17-139ef572528a","ios":"levelo://app?vid=f13404b2-fb3e-4db4-bc17-139ef572528a"},"vehicle_type_id":"4","last_reported":1737897022,"current_range_meters":9200,"station_id":"ce4bgj92rcd13ifvqbe0","pricing_plan_id":"cebpf4jnsgd1na2vs0mg"},{"bike_id":"86167669-87ec-46d8-942a-1b0cb002dce8","system_id":"levelo_inurba_marseille","lat":43.29356,"lon":5.40115,"is_reserved":false,"is_disabled":true,"rental_uris":{"android":"levelo://app?vid=86167669-87ec-46d8-942a-1b0cb002dce8","ios":"levelo://app?vid=86167669-87ec-46d8-942a-1b0cb002dce8"},"vehicle_type_id":"4","last_reported":1737897022,"current_range_meters":26000,"station_id":"","pricing_plan_id":"cebpf4jnsgd1na2vs0mg"},{"bike_id":"6975cfd6-2081-4544-8ad1-47f93123d5f7","system_id":"levelo_inurba_marseille","lat":43.2873,"lon":5.39993,"is_reserved":false,"is_disabled":true,"rental_uris":{"android":"levelo://app?vid=6975cfd6-2081-4544-8ad1-47f93123d5f7","ios":"levelo://app?vid=6975cfd6-2081-4544-8ad1-47f93123d5f7"},"vehicle_type_id":"4","last_reported":1737897022,"current_range_meters":4400,"station_id":"ce4bho92rcd13ifvqh3g","pricing_plan_id":"cebpf4jnsgd1na2vs0mg"},{"bike_id":"16cba4e1-cb10-44ef-b1a1-eca95385335f","system_id":"levelo_inurba_marseille","lat":43.2842,"lon":5.3497,"is_reserved":false,"is_disabled":true,"rental_uris":{"android":"levelo://app?vid=16cba4e1-cb10-44ef-b1a1-eca95385335f","ios":"levelo://app?vid=16cba4e1-cb10-44ef-b1a1-eca95385335f"},"vehicle_type_id":"4","last_reported":1737897022,"current_range_meters":0,"station_id":"ce4bhbh2rcd13ifvqepg","pricing_plan_id":"cebpf4jnsgd1na2vs0mg"},{"bike_id":"b77efc8b-41fe-4709-b58e-05026c2b2ca6","system_id":"levelo_inurba_marseille","lat":43.30809,"lon":5.43518,"is_reserved":false,"is_disabled":false,"rental_uris":{"android":"levelo://app?vid=b77efc8b-41fe-4709-b58e-05026c2b2ca6","ios":"levelo://app?vid=b77efc8b-41fe-4709-b58e-05026c2b2ca6"},"vehicle_type_id":"4","last_reported":1737897022,"current_range_meters":16800,"station_id":"ce4bhph2rcd13ifvqheg","pricing_plan_id":"cebpf4jnsgd1na2vs0mg"},{"bike_id":"1ba7eca2-61d5-4332-b491-e4a3a664f440","system_id":"levelo_inurba_marseille","lat":43.27212,"lon":5.39177,"is_reserved":false,"is_disabled":false,"rental_uris":{"android":"levelo://app?vid=1ba7eca2-61d5-4332-b491-e4a3a664f440","ios":"levelo://app?vid=1ba7eca2-61d5-4332-b491-e4a3a664f440"},"vehicle_type_id":"4","last_reported":1737897022,"current_range_meters":24000,"station_id":"ce4bhhp2rcd13ifvqfm0","pricing_plan_id":"cebpf4jnsgd1na2vs0mg"},{"bike_id":"8fc5f132-29ed-47c1-bff0-bf17728d82ae","system_id":"levelo_inurba_marseille","lat":43.29366,"lon":5.37873,"is_reserved":false,"is_disabled":true,"rental_uris":{"android":"levelo://app?vid=8fc5f132-29ed-47c1-bff0-bf17728d82ae","ios":"levelo://app?vid=8fc5f132-29ed-47c1-bff0-bf17728d82ae"},"vehicle_type_id":"4","last_reported":1737897022,"current_range_meters":34000,"station_id":"ce4bgjh2rcd13ifvqbf0","pricing_plan_id":"cebpf4jnsgd1na2vs0mg"},{"bike_id":"429fcca6-76b0-4339-92c0-37c0b8017a49","system_id":"levelo_inurba_marseille","lat":43.26214,"lon":5.3744,"is_reserved":false,"is_disabled":false,"rental_uris":{"android":"levelo://app?vid=429fcca6-76b0-4339-92c0-37c0b8017a49","ios":"levelo://app?vid=429fcca6-76b0-4339-92c0-37c0b8017a49"},"vehicle_type_id":"4","last_reported":1737897022,"current_range_meters":8000,"station_id":"ce4bhgp2rcd13ifvqfc0","pricing_plan_id":"cebpf4jnsgd1na2vs0mg"},{"bike_id":"283cfd58-c0a1-4ca4-9c49-d4e7d8f088a6","system_id":"levelo_inurba_marseille","lat":43.27324,"lon":5.39138,"is_reserved":false,"is_disabled":false,"rental_uris":{"android":"levelo://app?vid=283cfd58-c0a1-4ca4-9c49-d4e7d8f088a6","ios":"levelo://app?vid=283cfd58-c0a1-4ca4-9c49-d4e7d8f088a6"},"vehicle_type_id":"4","last_reported":1737897022,"current_range_meters":17600,"station_id":"","pricing_plan_id":"cebpf4jnsgd1na2vs0mg"},{"bike_id":"0409c418-1a87-452b-be7c-84da8e4aa35a","system_id":"levelo_inurba_marseille","lat":43.31996,"lon":5.38157,"is_reserved":false,"is_disabled":true,"rental_uris":{"android":"levelo://app?vid=0409c418-1a87-452b-be7c-84da8e4aa35a","ios":"levelo://app?vid=0409c418-1a87-452b-be7c-84da8e4aa35a"},"vehicle_type_id":"4","last_reported":1737897022,"current_range_meters":0,"station_id":"ce4bhr12rcd13ifvqhpg","pricing_plan_id":"cebpf4jnsgd1na2vs0mg"},{"bike_id":"e2b481af-a742-476b-8558-f6402fb49992","system_id":"levelo_inurba_marseille","lat":43.23149,"lon":5.43708,"is_reserved":false,"is_disabled":false,"rental_uris":{"android":"levelo://app?vid=e2b481af-a742-476b-8558-f6402fb49992","ios":"levelo://app?vid=e2b481af-a742-476b-8558-f6402fb49992"},"vehicle_type_id":"4","last_reported":1737897022,"current_range_meters":13600,"station_id":"ce4bhmp2rcd13ifvqgog","pricing_plan_id":"cebpf4jnsgd1na2vs0mg"},{"bike_id":"dc16bd0c-0faa-4e10-8caa-552e467e81e6","system_id":"levelo_inurba_marseille","lat":43.26209,"lon":5.37444,"is_reserved":false,"is_disabled":false,"rental_uris":{"android":"levelo://app?vid=dc16bd0c-0faa-4e10-8caa-552e467e81e6","ios":"levelo://app?vid=dc16bd0c-0faa-4e10-8caa-552e467e81e6"},"vehicle_type_id":"4","last_reported":1737897022,"current_range_meters":11600,"station_id":"ce4bhgp2rcd13ifvqfc0","pricing_plan_id":"cebpf4jnsgd1na2vs0mg"},{"bike_id":"91d66d54-aabf-44b7-ac3a-355a4b9e5628","system_id":"levelo_inurba_marseille","lat":43.24399,"lon":5.37372,"is_reserved":false,"is_disabled":true,"rental_uris":{"android":"levelo://app?vid=91d66d54-aabf-44b7-ac3a-355a4b9e5628","ios":"levelo://app?vid=91d66d54-aabf-44b7-ac3a-355a4b9e5628"},"vehicle_type_id":"4","last_reported":1737897022,"current_range_meters":38800,"station_id":"","pricing_plan_id":"cebpf4jnsgd1na2vs0mg"},{"bike_id":"5b62bf0a-c3a3-442a-864e-e3e71616323c","system_id":"levelo_inurba_marseille","lat":43.30147,"lon":5.38081,"is_reserved":false,"is_disabled":false,"rental_uris":{"android":"levelo://app?vid=5b62bf0a-c3a3-442a-864e-e3e71616323c","ios":"levelo://app?vid=5b62bf0a-c3a3-442a-864e-e3e71616323c"},"vehicle_type_id":"4","last_reported":1737897022,"current_range_meters":12800,"station_id":"ce4bgjp2rcd13ifvqbh0","pricing_plan_id":"cebpf4jnsgd1na2vs0mg"},{"bike_id":"a05ddfe2-06a2-476e-98df-96b8f25cd95b","system_id":"levelo_inurba_marseille","lat":43.305449,"lon":5.365231,"is_reserved":false,"is_disabled":false,"rental_uris":{"android":"levelo://app?vid=a05ddfe2-06a2-476e-98df-96b8f25cd95b","ios":"levelo://app?vid=a05ddfe2-06a2-476e-98df-96b8f25cd95b"},"vehicle_type_id":"4","last_reported":1737897022,"current_range_meters":38800,"station_id":"ce4bgs12rcd13ifvqcag","pricing_plan_id":"cebpf4jnsgd1na2vs0mg"},{"bike_id":"a164554d-7c5e-4990-b022-26b5003f7ab3","system_id":"levelo_inurba_marseille","lat":43.27496,"lon":5.42455,"is_reserved":false,"is_disabled":false,"rental_uris":{"android":"levelo://app?vid=a164554d-7c5e-4990-b022-26b5003f7ab3","ios":"levelo://app?vid=a164554d-7c5e-4990-b022-26b5003f7ab3"},"vehicle_type_id":"4","last_reported":1737897022,"current_range_meters":9200,"station_id":"ce4bhn92rcd13ifvqgrg","pricing_plan_id":"cebpf4jnsgd1na2vs0mg"},{"bike_id":"1034d541-3c0d-4d8f-a939-7b844cd7a6ec","system_id":"levelo_inurba_marseille","lat":43.27987,"lon":5.41677,"is_reserved":false,"is_disabled":true,"rental_uris":{"android":"levelo://app?vid=1034d541-3c0d-4d8f-a939-7b844cd7a6ec","ios":"levelo://app?vid=1034d541-3c0d-4d8f-a939-7b844cd7a6ec"},"vehicle_type_id":"4","last_reported":1737897022,"current_range_meters":0,"station_id":"ce4bho12rcd13ifvqh1g","pricing_plan_id":"cebpf4jnsgd1na2vs0mg"},{"bike_id":"f4a67fd7-7ba0-462e-b321-724410a83bc3","system_id":"levelo_inurba_marseille","lat":43.28615,"lon":5.35099,"is_reserved":false,"is_disabled":true,"rental_uris":{"android":"levelo://app?vid=f4a67fd7-7ba0-462e-b321-724410a83bc3","ios":"levelo://app?vid=f4a67fd7-7ba0-462e-b321-724410a83bc3"},