{"last_updated":1689721598,"ttl":30,"version":"2.2","data":{"bikes":[{"bike_id":"f1913abf-7693-4dfb-801a-702c0dfb06c1","system_id":"levelo_inurba_marseille","lat":43.314811,"lon":5.373103,"is_reserved":false,"is_disabled":false,"rental_uris":{"android":"levelo://app?vid=f1913abf-7693-4dfb-801a-702c0dfb06c1","ios":"levelo://app?vid=f1913abf-7693-4dfb-801a-702c0dfb06c1"},"vehicle_type_id":"4","last_reported":1689721598,"current_range_meters":12400,"station_id":"ce4bgt12rcd13ifvqcd0","pricing_plan_id":"free"},{"bike_id":"3e56e29a-6421-4e0e-8e79-2c1098511e99","system_id":"levelo_inurba_marseille","lat":43.314811,"lon":5.373103,"is_reserved":false,"is_disabled":false,"rental_uris":{"android":"levelo://app?vid=3e56e29a-6421-4e0e-8e79-2c1098511e99","ios":"levelo://app?vid=3e56e29a-6421-4e0e-8e79-2c1098511e99"},"vehicle_type_id":"4","last_reported":1689721598,"current_range_meters":24000,"station_id":"ce4bgt12rcd13ifvqcd0","pricing_plan_id":"free"},{"bike_id":"77649e0f-36df-464c-8596-0f1c4c35cc65","system_id":"levelo_inurba_marseille","lat":43.314811,"lon":5.373103,"is_reserved":false,"is_disabled":false,"rental_uris":{"android":"levelo://app?vid=77649e0f-36df-464c-8596-0f1c4c35cc65","ios":"levelo://app?vid=77649e0f-36df-464c-8596-0f1c4c35cc65"},"vehicle_type_id":"4","last_reported":1689721598,"current_range_meters":18000,"station_id":"ce4bgt12rcd13ifvqcd0","pricing_plan_id":"free"},{"bike_id":"a37e52d2-f49c-4745-a51e-0954a75f092a","system_id":"levelo_inurba_marseille","lat":43.314811,"lon":5.373103,"is_reserved":false,"is_disabled":false,"rental_uris":{"android":"levelo://app?vid=a37e52d2-f49c-4745-a51e-0954a75f092a","ios":"levelo://app?vid=a37e52d2-f49c-4745-a51e-0954a75f092a"},"vehicle_type_id":"4","last_reported":1689721598,"current_range_meters":25200,"station_id":"ce4bgt12rcd13ifvqcd0","pricing_plan_id":"free"},{"bike_id":"a966cc17-3ab9-4518-86f8-5c6caa41a019","system_id":"levelo_inurba_marseille","lat":43.314811,"lon":5.373103,"is_reserved":false,"is_disabled":false,"rental_uris":{"android":"levelo://app?vid=a966cc17-3ab9-4518-86f8-5c6caa41a019","ios":"levelo://app?vid=a966cc17-3ab9-4518-86f8-5c6caa41a019"},"vehicle_type_id":"4","last_reported":1689721598,"current_range_meters":7600,"station_id":"ce4bgt12rcd13ifvqcd0","pricing_plan_id":"free"},{"bike_id":"4c77b589-32af-4a8d-b6c5-6d123cbebe50","system_id":"levelo_inurba_marseille","lat":43.314811,"lon":5.373103,"is_reserved":false,"is_disabled":false,"rental_uris":{"android":"levelo://app?vid=4c77b589-32af-4a8d-b6c5-6d123cbebe50","ios":"levelo://app?vid=4c77b589-32af-4a8d-b6c5-6d123cbebe50"},"vehicle_type_id":"4","last_reported":1689721598,"current_range_meters":21200,"station_id":"ce4bgt12rcd13ifvqcd0","pricing_plan_id":"free"},{"bike_id":"2bb28aeb-451f-4bdd-9f84-8f5fa0f6152c","system_id":"levelo_inurba_marseille","lat":43.314811,"lon":5.373104,"is_reserved":false,"is_disabled":false,"rental_uris":{"android":"levelo://app?vid=2bb28aeb-451f-4bdd-9f84-8f5fa0f6152c","ios":"levelo://app?vid=2bb28aeb-451f-4bdd-9f84-8f5fa0f6152c"},"vehicle_type_id":"4","last_reported":1689721598,"current_range_meters":4000,"station_id":"ce4bgt12rcd13ifvqcd0","pricing_plan_id":"free"},{"bike_id":"77f82340-953f-41f4-ba11-5554b100418f","system_id":"levelo_inurba_marseille","lat":43.314811,"lon":5.373103,"is_reserved":false,"is_disabled":false,"rental_uris":{"android":"levelo://app?vid=77f82340-953f-41f4-ba11-5554b100418f","ios":"levelo://app?vid=77f82340-953f-41f4-ba11-5554b100418f"},"vehicle_type_id":"4","last_reported":1689721598,"current_range_meters":26800,"station_id":"ce4bgt12rcd13ifvqcd0","pricing_plan_id":"free"},{"bike_id":"9ebfdadf-eebb-4934-973d-55963c25c762","system_id":"levelo_inurba_marseille","lat":43.31576,"lon":5.37352,"is_reserved":false,"is_disabled":false,"rental_uris":{"android":"levelo://app?vid=9ebfdadf-eebb-4934-973d-55963c25c762","ios":"levelo://app?vid=9ebfdadf-eebb-4934-973d-55963c25c762"},"vehicle_type_id":"4","last_reported":1689721598,"current_range_meters":30800,"station_id":"","pricing_plan_id":"free"},{"bike_id":"f508272a-ab00-434e-841c-4959d5643898","system_id":"levelo_inurba_marseille","lat":43.31673,"lon":5.37311,"is_reserved":false,"is_disabled":false,"rental_uris":{"android":"levelo://app?vid=f508272a-ab00-434e-841c-4959d5643898","ios":"levelo://app?vid=f508272a-ab00-434e-841c-4959d5643898"},"vehicle_type_id":"4","last_reported":1689721598,"current_range_meters":24800,"station_id":"","pricing_plan_id":"free"},{"bike_id":"8dab606f-2c1b-4486-94b1-66ef570c57d5","system_id":"levelo_inurba_marseille","lat":43.30884,"lon":5.37333,"is_reserved":false,"is_disabled":false,"rental_uris":{"android":"levelo://app?vid=8dab606f-2c1b-4486-94b1-66ef570c57d5","ios":"levelo://app?vid=8dab606f-2c1b-4486-94b1-66ef570c57d5"},"vehicle_type_id":"4","last_reported":1689721598,"current_range_meters":22400,"station_id":"","pricing_plan_id":"free"},{"bike_id":"d5452eac-45ec-41ca-8734-58f25f4b1789","system_id":"levelo_inurba_marseille","lat":43.31319,"lon":5.3768,"is_reserved":false,"is_disabled":false,"rental_uris":{"android":"levelo://app?vid=d5452eac-45ec-41ca-8734-58f25f4b1789","ios":"levelo://app?vid=d5452eac-45ec-41ca-8734-58f25f4b1789"},"vehicle_type_id":"4","last_reported":1689721598,"current_range_meters":29200,"station_id":"","pricing_plan_id":"free"},{"bike_id":"a2e136f1-c728-4018-88c2-a46aa30aa3c2","system_id":"levelo_inurba_marseille","lat":43.305368,"lon":5.367343,"is_reserved":false,"is_disabled":false,"rental_uris":{"android":"levelo://app?vid=a2e136f1-c728-4018-88c2-a46aa30aa3c2","ios":"levelo://app?vid=a2e136f1-c728-4018-88c2-a46aa30aa3c2"},"vehicle_type_id":"4","last_reported":1689721598,"current_range_meters":23600,"station_id":"ce4bgrp2rcd13ifvqc9g","pricing_plan_id":"free"},{"bike_id":"18c8f603-5b19-4d7a-9b38-e8b4dc75f27a","system_id":"levelo_inurba_marseille","lat":43.305989,"lon":5.37225,"is_reserved":false,"is_disabled":false,"rental_uris":{"android":"levelo://app?vid=18c8f603-5b19-4d7a-9b38-e8b4dc75f27a","ios":"levelo://app?vid=18c8f603-5b19-4d7a-9b38-e8b4dc75f27a"},"vehicle_type_id":"4","last_reported":1689721598,"current_range_meters":29200,"station_id":"ce4bgqh2rcd13ifvqc4g","pricing_plan_id":"free"},{"bike_id":"d7457d6d-ef9c-422f-abad-688def1ccfe1","system_id":"levelo_inurba_marseille","lat":43.305989,"lon":5.37225,"is_reserved":false,"is_disabled":false,"rental_uris":{"android":"levelo://app?vid=d7457d6d-ef9c-422f-abad-688def1ccfe1","ios":"levelo://app?vid=d7457d6d-ef9c-422f-abad-688def1ccfe1"},"vehicle_type_id":"4","last_reported":1689721598,"current_range_meters":4400,"station_id":"ce4bgqh2rcd13ifvqc4g","pricing_plan_id":"free"},{"bike_id":"c6185040-2d16-4f42-811a-07ec18e9fe0e","system_id":"levelo_inurba_marseille","lat":43.305989,"lon":5.37225,"is_reserved":false,"is_disabled":false,"rental_uris":{"android":"levelo://app?vid=c6185040-2d16-4f42-811a-07ec18e9fe0e","ios":"levelo://app?vid=c6185040-2d16-4f42-811a-07ec18e9fe0e"},"vehicle_type_id":"4","last_reported":1689721598,"current_range_meters":7600,"station_id":"ce4bgqh2rcd13ifvqc4g","pricing_plan_id":"free"},{"bike_id":"d3fd4e62-38c5-4ee1-a6be-944315819ed2","system_id":"levelo_inurba_marseille","lat":43.305989,"lon":5.37225,"is_reserved":false,"is_disabled":false,"rental_uris":{"android":"levelo://app?vid=d3fd4e62-38c5-4ee1-a6be-944315819ed2","ios":"levelo://app?vid=d3fd4e62-38c5-4ee1-a6be-944315819ed2"},"vehicle_type_id":"4","last_reported":1689721598,"current_range_meters":22400,"station_id":"ce4bgqh2rcd13ifvqc4g","pricing_plan_id":"free"},{"bike_id":"1963ddae-3ec3-4744-9520-e7ba37871c0b","system_id":"levelo_inurba_marseille","lat":43.305989,"lon":5.37225,"is_reserved":false,"is_disabled":false,"rental_uris":{"android":"levelo://app?vid=1963ddae-3ec3-4744-9520-e7ba37871c0b","ios":"levelo://app?vid=1963ddae-3ec3-4744-9520-e7ba37871c0b"},"vehicle_type_id":"4","last_reported":1689721598,"current_range_meters":21600,"station_id":"ce4bgqh2rcd13ifvqc4g","pricing_plan_id":"free"},{"bike_id":"5053dfe9-55c3-4aea-9ace-88810c43b59b","system_id":"levelo_inurba_marseille","lat":43.30599,"lon":5.37229,"is_reserved":false,"is_disabled":false,"rental_uris":{"android":"levelo://app?vid=5053dfe9-55c3-4aea-9ace-88810c43b59b","ios":"levelo://app?vid=5053dfe9-55c3-4aea-9ace-88810c43b59b"},"vehicle_type_id":"4","last_reported":1689721598,"current_range_meters":20800,"station_id":"","pricing_plan_id":"free"},{"bike_id":"0bcb5ba8-db2b-4cfa-adda-a6390487fd79","system_id":"levelo_inurba_marseille","lat":43.305989,"lon":5.37225,"is_reserved":false,"is_disabled":false,"rental_uris":{"android":"levelo://app?vid=0bcb5ba8-db2b-4cfa-adda-a6390487fd79","ios":"levelo://app?vid=0bcb5ba8-db2b-4cfa-adda-a6390487fd79"},"vehicle_type_id":"4","last_reported":1689721598,"current_range_meters":0,"station_id":"ce4bgqh2rcd13ifvqc4g","pricing_plan_id":"free"},{"bike_id":"823a3dd8-91b3-4678-a6f7-85562c1fcb1c","system_id":"levelo_inurba_marseille","lat":43.3113,"lon":5.37767,"is_reserved":false,"is_disabled":false,"rental_uris":{"android":"levelo://app?vid=823a3dd8-91b3-4678-a6f7-85562c1fcb1c","ios":"levelo://app?vid=823a3dd8-91b3-4678-a6f7-85562c1fcb1c"},"vehicle_type_id":"4","last_reported":1689721598,"current_range_meters":6400,"station_id":"ce4bgt92rcd13ifvqcg0","pricing_plan_id":"free"},{"bike_id":"d9b06de7-0e86-4c0d-a4be-990488d6fed0","system_id":"levelo_inurba_marseille","lat":43.3112,"lon":5.37768,"is_reserved":false,"is_disabled":false,"rental_uris":{"android":"levelo://app?vid=d9b06de7-0e86-4c0d-a4be-990488d6fed0","ios":"levelo://app?vid=d9b06de7-0e86-4c0d-a4be-990488d6fed0"},"vehicle_type_id":"4","last_reported":1689721598,"current_range_meters":12000,"station_id":"ce4bgt92rcd13ifvqcg0","pricing_plan_id":"free"},{"bike_id":"02b8a06e-d657-488b-88d2-93a6349021a0","system_id":"levelo_inurba_marseille","lat":43.31114,"lon":5.37769,"is_reserved":false,"is_disabled":false,"rental_uris":{"android":"levelo://app?vid=02b8a06e-d657-488b-88d2-93a6349021a0","ios":"levelo://app?vid=02b8a06e-d657-488b-88d2-93a6349021a0"},"vehicle_type_id":"4","last_reported":1689721598,"current_range_meters":18000,"station_id":"ce4bgt92rcd13ifvqcg0","pricing_plan_id":"free"},{"bike_id":"ee2e4652-8619-4c1d-8685-330a69905b3b","system_id":"levelo_inurba_marseille","lat":43.31125,"lon":5.37773,"is_reserved":false,"is_disabled":false,"rental_uris":{"android":"levelo://app?vid=ee2e4652-8619-4c1d-8685-330a69905b3b","ios":"levelo://app?vid=ee2e4652-8619-4c1d-8685-330a69905b3b"},"vehicle_type_id":"4","last_reported":1689721598,"current_range_meters":16000,"station_id":"ce4bgt92rcd13ifvqcg0","pricing_plan_id":"free"},{"bike_id":"06f10c34-b722-4749-8b3e-cdb656da24ae","system_id":"levelo_inurba_marseille","lat":43.31124,"lon":5.37774,"is_reserved":false,"is_disabled":false,"rental_uris":{"android":"levelo://app?vid=06f10c34-b722-4749-8b3e-cdb656da24ae","ios":"levelo://app?vid=06f10c34-b722-4749-8b3e-cdb656da24ae"},"vehicle_type_id":"4","last_reported":1689721598,"current_range_meters":31200,"station_id":"ce4bgt92rcd13ifvqcg0","pricing_plan_id":"free"},{"bike_id":"bcdae94a-4dba-4972-b697-94adb38ee427","system_id":"levelo_inurba_marseille","lat":43.31116,"lon":5.37773,"is_reserved":false,"is_disabled":false,"rental_uris":{"android":"levelo://app?vid=bcdae94a-4dba-4972-b697-94adb38ee427","ios":"levelo://app?vid=bcdae94a-4dba-4972-b697-94adb38ee427"},"vehicle_type_id":"4","last_reported":1689721598,"current_range_meters":30000,"station_id":"ce4bgt92rcd13ifvqcg0","pricing_plan_id":"free"},{"bike_id":"1239cff2-f179-4b64-bfa8-5878ab1ac4b3","system_id":"levelo_inurba_marseille","lat":43.3112,"lon":5.37775,"is_reserved":false,"is_disabled":false,"rental_uris":{"android":"levelo://app?vid=1239cff2-f179-4b64-bfa8-5878ab1ac4b3","ios":"levelo://app?vid=1239cff2-f179-4b64-bfa8-5878ab1ac4b3"},"vehicle_type_id":"4","last_reported":1689721598,"current_range_meters":27200,"station_id":"ce4bgt92rcd13ifvqcg0","pricing_plan_id":"free"},{"bike_id":"75f806f0-7871-4f16-a944-41aaaba75a74","system_id":"levelo_inurba_marseille","lat":43.317075,"lon":5.377367,"is_reserved":false,"is_disabled":false,"rental_uris":{"android":"levelo://app?vid=75f806f0-7871-4f16-a944-41aaaba75a74","ios":"levelo://app?vid=75f806f0-7871-4f16-a944-41aaaba75a74"},"vehicle_type_id":"4","last_reported":1689721598,"current_range_meters":25600,"station_id":"ce4bgth2rcd13ifvqch0","pricing_plan_id":"free"},{"bike_id":"a3f4c536-8c2c-442e-83df-fe41c5dfa652","system_id":"levelo_inurba_marseille","lat":43.317075,"lon":5.377367,"is_reserved":false,"is_disabled":false,"rental_uris":{"android":"levelo://app?vid=a3f4c536-8c2c-442e-83df-fe41c5dfa652","ios":"levelo://app?vid=a3f4c536-8c2c-442e-83df-fe41c5dfa652"},"vehicle_type_id":"4","last_reported":1689721598,"current_range_meters":30400,"station_id":"ce4bgth2rcd13ifvqch0","pricing_plan_id":"free"},{"bike_id":"071e26e0-af79-4432-93e0-2b23acda0269","system_id":"levelo_inurba_marseille","lat":43.317075,"lon":5.377367,"is_reserved":false,"is_disabled":false,"rental_uris":{"android":"levelo://app?vid=071e26e0-af79-4432-93e0-2b23acda0269","ios":"levelo://app?vid=071e26e0-af79-4432-93e0-2b23acda0269"},"vehicle_type_id":"4","last_reported":1689721598,"current_range_meters":30000,"station_id":"ce4bgth2rcd13ifvqch0","pricing_plan_id":"free"},{"bike_id":"3b5adf91-9019-4966-9be5-457ef9969770","system_id":"levelo_inurba_marseille","lat":43.315289,"lon":5.380349,"is_reserved":false,"is_disabled":false,"rental_uris":{"android":"levelo://app?vid=3b5adf91-9019-4966-9be5-457ef9969770","ios":"levelo://app?vid=3b5adf91-9019-4966-9be5-457ef9969770"},"vehicle_type_id":"4","last_reported":1689721598,"current_range_meters":19200,"station_id":"ce4bhsp2rcd13ifvqi50","pricing_plan_id":"free"},{"bike_id":"6763bc13-1a65-4adb-8e2f-7fd8ef2476ad","system_id":"levelo_inurba_marseille","lat":43.315293,"lon":5.380349,"is_reserved":false,"is_disabled":false,"rental_uris":{"android":"levelo://app?vid=6763bc13-1a65-4adb-8e2f-7fd8ef2476ad","ios":"levelo://app?vid=6763bc13-1a65-4adb-8e2f-7fd8ef2476ad"},"vehicle_type_id":"4","last_reported":1689721598,"current_range_meters":24400,"station_id":"ce4bhsp2rcd13ifvqi50","pricing_plan_id":"free"},{"bike_id":"3d0d6cd0-af46-4175-80bc-7c603c012432","system_id":"levelo_inurba_marseille","lat":43.315289,"lon":5.380349,"is_reserved":false,"is_disabled":false,"rental_uris":{"android":"levelo://app?vid=3d0d6cd0-af46-4175-80bc-7c603c012432","ios":"levelo://app?vid=3d0d6cd0-af46-4175-80bc-7c603c012432"},"vehicle_type_id":"4","last_reported":1689721598,"current_range_meters":16000,"station_id":"ce4bhsp2rcd13ifvqi50","pricing_plan_id":"free"},{"bike_id":"75e3c4fe-84b6-4386-9d3e-2453be7848f5","system_id":"levelo_inurba_marseille","lat":43.315293,"lon":5.380349,"is_reserved":false,"is_disabled":false,"rental_uris":{"android":"levelo://app?vid=75e3c4fe-84b6-4386-9d3e-2453be7848f5","ios":"levelo://app?vid=75e3c4fe-84b6-4386-9d3e-2453be7848f5"},"vehicle_type_id":"4","last_reported":1689721598,"current_range_meters":31200,"station_id":"ce4bhsp2rcd13ifvqi50","pricing_plan_id":"free"},{"bike_id":"b91fe4a4-e838-4df0-b10a-41894df1949a","system_id":"levelo_inurba_marseille","lat":43.315289,"lon":5.380349,"is_reserved":false,"is_disabled":false,"rental_uris":{"android":"levelo://app?vid=b91fe4a4-e838-4df0-b10a-41894df1949a","ios":"levelo://app?vid=b91fe4a4-e838-4df0-b10a-41894df1949a"},"vehicle_type_id":"4","last_reported":1689721598,"current_range_meters":3200,"station_id":"ce4bhsp2rcd13ifvqi50","pricing_plan_id":"free"},{"bike_id":"2dcfe06d-0cb9-4b23-a9af-456af37a47d3","system_id":"levelo_inurba_marseille","lat":43.301939,"lon":5.366286,"is_reserved":false,"is_disabled":false,"rental_uris":{"android":"levelo://app?vid=2dcfe06d-0cb9-4b23-a9af-456af37a47d3","ios":"levelo://app?vid=2dcfe06d-0cb9-4b23-a9af-456af37a47d3"},"vehicle_type_id":"4","last_reported":1689721598,"current_range_meters":31200,"station_id":"ce4bgrh2rcd13ifvqc8g","pricing_plan_id":"free"},{"bike_id":"8f6c996a-e86f-4bc9-9409-68cf9307a056","system_id":"levelo_inurba_marseille","lat":43.301939,"lon":5.366286,"is_reserved":false,"is_disabled":false,"rental_uris":{"android":"levelo://app?vid=8f6c996a-e86f-4bc9-9409-68cf9307a056","ios":"levelo://app?vid=8f6c996a-e86f-4bc9-9409-68cf9307a056"},"vehicle_type_id":"4","last_reported":1689721598,"current_range_meters":10000,"station_id":"ce4bgrh2rcd13ifvqc8g","pricing_plan_id":"free"},{"bike_id":"f4bd2bd0-f7ed-4de1-bcee-4ff385dac861","system_id":"levelo_inurba_marseille","lat":43.301939,"lon":5.366286,"is_reserved":false,"is_disabled":false,"rental_uris":{"android":"levelo://app?vid=f4bd2bd0-f7ed-4de1-bcee-4ff385dac861","ios":"levelo://app?vid=f4bd2bd0-f7ed-4de1-bcee-4ff385dac861"},"vehicle_type_id":"4","last_reported":1689721598,"current_range_meters":14000,"station_id":"ce4bgrh2rcd13ifvqc8g","pricing_plan_id":"free"},{"bike_id":"d45c9090-05bd-41cf-9622-23bfa67d1a26","system_id":"levelo_inurba_marseille","lat":43.308012,"lon":5.381511,"is_reserved":false,"is_disabled":false,"rental_uris":{"android":"levelo://app?vid=d45c9090-05bd-41cf-9622-23bfa67d1a26","ios":"levelo://app?vid=d45c9090-05bd-41cf-9622-23bfa67d1a26"},"vehicle_type_id":"4","last_reported":1689721598,"current_range_meters":7200,"station_id":"ce4bgt12rcd13ifvqce0","pricing_plan_id":"free"},{"bike_id":"77cb72ad-022d-41a2-a014-d2fa27ecd3ee","system_id":"levelo_inurba_marseille","lat":43.308012,"lon":5.381511,"is_reserved":false,"is_disabled":false,"rental_uris":{"android":"levelo://app?vid=77cb72ad-022d-41a2-a014-d2fa27ecd3ee","ios":"levelo://app?vid=77cb72ad-022d-41a2-a014-d2fa27ecd3ee"},"vehicle_type_id":"4","last_reported":1689721598,"current_range_meters":28800,"station_id":"ce4bgt12rcd13ifvqce0","pricing_plan_id":"free"},{"bike_id":"f4eefb1e-6d9c-480e-a8e1-68b8c8fdd6f5","system_id":"levelo_inurba_marseille","lat":43.308012,"lon":5.381511,"is_reserved":false,"is_disabled":false,"rental_uris":{"android":"levelo://app?vid=f4eefb1e-6d9c-480e-a8e1-68b8c8fdd6f5","ios":"levelo://app?vid=f4eefb1e-6d9c-480e-a8e1-68b8c8fdd6f5"},"vehicle_type_id":"4","last_reported":1689721598,"current_range_meters":0,"station_id":"ce4bgt12rcd13ifvqce0","pricing_plan_id":"free"},{"bike_id":"20b1698a-d408-4bac-9f70-ab259e08939b","system_id":"levelo_inurba_marseille","lat":43.308012,"lon":5.381511,"is_reserved":false,"is_disabled":false,"rental_uris":{"android":"levelo://app?vid=20b1698a-d408-4bac-9f70-ab259e08939b","ios":"levelo://app?vid=20b1698a-d408-4bac-9f70-ab259e08939b"},"vehicle_type_id":"4","last_reported":1689721598,"current_range_meters":22800,"station_id":"ce4bgt12rcd13ifvqce0","pricing_plan_id":"free"},{"bike_id":"eb5d346d-f41b-4539-8695-f97880e06f80","system_id":"levelo_inurba_marseille","lat":43.308012,"lon":5.381511,"is_reserved":false,"is_disabled":false,"rental_uris":{"android":"levelo://app?vid=eb5d346d-f41b-4539-8695-f97880e06f80","ios":"levelo://app?vid=eb5d346d-f41b-4539-8695-f97880e06f80"},"vehicle_type_id":"4","last_reported":1689721598,"current_range_meters":5600,"station_id":"ce4bgt12rcd13ifvqce0","pricing_plan_id":"free"},{"bike_id":"350caf44-0877-47eb-a4d2-430105cd943c","system_id":"levelo_inurba_marseille","lat":43.308012,"lon":5.381511,"is_reserved":false,"is_disabled":false,"rental_uris":{"android":"levelo://app?vid=350caf44-0877-47eb-a4d2-430105cd943c","ios":"levelo://app?vid=350caf44-0877-47eb-a4d2-430105cd943c"},"vehicle_type_id":"4","last_reported":1689721598,"current_range_meters":5600,"station_id":"ce4bgt12rcd13ifvqce0","pricing_plan_id":"free"},{"bike_id":"cbaed6d8-cf80-45e3-9816-e8ea0e26726c","system_id":"levelo_inurba_marseille","lat":43.308012,"lon":5.381511,"is_reserved":false,"is_disabled":false,"rental_uris":{"android":"levelo://app?vid=cbaed6d8-cf80-45e3-9816-e8ea0e26726c","ios":"levelo://app?vid=cbaed6d8-cf80-45e3-9816-e8ea0e26726c"},"vehicle_type_id":"4","last_reported":1689721598,"current_range_meters":28000,"station_id":"ce4bgt12rcd13ifvqce0","pricing_plan_id":"free"},{"bike_id":"7894cbbc-d2e2-4e09-bdbe-2b763be9ebd2","system_id":"levelo_inurba_marseille","lat":43.308012,"lon":5.381511,"is_reserved":false,"is_disabled":false,"rental_uris":{"android":"levelo://app?vid=7894cbbc-d2e2-4e09-bdbe-2b763be9ebd2","ios":"levelo://app?vid=7894cbbc-d2e2-4e09-bdbe-2b763be9ebd2"},"vehicle_type_id":"4","last_reported":1689721598,"current_range_meters":11600,"station_id":"ce4bgt12rcd13ifvqce0","pricing_plan_id":"free"},{"bike_id":"ea3a1c29-6bbd-4bb1-83f1-f34c8657d52a","system_id":"levelo_inurba_marseille","lat":43.308012,"lon":5.381511,"is_reserved":false,"is_disabled":false,"rental_uris":{"android":"levelo://app?vid=ea3a1c29-6bbd-4bb1-83f1-f34c8657d52a","ios":"levelo://app?vid=ea3a1c29-6bbd-4bb1-83f1-f34c8657d52a"},"vehicle_type_id":"4","last_reported":1689721598,"current_range_meters":8000,"station_id":"ce4bgt12rcd13ifvqce0","pricing_plan_id":"free"},{"bike_id":"192c5982-ef8b-45a6-bf7f-576965e2ddeb","system_id":"levelo_inurba_marseille","lat":43.308012,"lon":5.381511,"is_reserved":false,"is_disabled":false,"rental_uris":{"android":"levelo://app?vid=192c5982-ef8b-45a6-bf7f-576965e2ddeb","ios":"levelo://app?vid=192c5982-ef8b-45a6-bf7f-576965e2ddeb"},"vehicle_type_id":"4","last_reported":1689721598,"current_range_meters":10000,"station_id":"ce4bgt12rcd13ifvqce0","pricing_plan_id":"free"},{"bike_id":"489221f0-38d4-4f76-bc1f-70685b6c2bfd","system_id":"levelo_inurba_marseille","lat":43.308012,"lon":5.381511,"is_reserved":false,"is_disabled":false,"rental_uris":{"android":"levelo://app?vid=489221f0-38d4-4f76-bc1f-70685b6c2bfd","ios":"levelo://app?vid=489221f0-38d4-4f76-bc1f-70685b6c2bfd"},"vehicle_type_id":"4","last_reported":1689721598,"current_range_meters":8000,"station_id":"ce4bgt12rcd13ifvqce0","pricing_plan_id":"free"},{"bike_id":"fc764f11-b0cf-490f-83a1-9724a7af817d","system_id":"levelo_inurba_marseille","lat":43.308012,"lon":5.381511,"is_reserved":false,"is_disabled":false,"rental_uris":{"android":"levelo://app?vid=fc764f11-b0cf-490f-83a1-9724a7af817d","ios":"levelo://app?vid=fc764f11-b0cf-490f-83a1-9724a7af817d"},"vehicle_type_id":"4","last_reported":1689721598,"current_range_meters":10000,"station_id":"ce4bgt12rcd13ifvqce0","pricing_plan_id":"free"},{"bike_id":"efd2af30-5918-402b-a624-5fce37cb62bb","system_id":"levelo_inurba_marseille","lat":43.308012,"lon":5.381511,"is_reserved":false,"is_disabled":false,"rental_uris":{"android":"levelo://app?vid=efd2af30-5918-402b-a624-5fce37cb62bb","ios":"levelo://app?vid=efd2af30-5918-402b-a624-5fce37cb62bb"},"vehicle_type_id":"4","last_reported":1689721598,"current_range_meters":16800,"station_id":"ce4bgt12rcd13ifvqce0","pricing_plan_id":"free"},{"bike_id":"3ad3d142-4b55-4c7c-a2db-4934e38b15ff","system_id":"levelo_inurba_marseille","lat":43.308012,"lon":5.381511,"is_reserved":false,"is_disabled":false,"rental_uris":{"android":"levelo://app?vid=3ad3d142-4b55-4c7c-a2db-4934e38b15ff","ios":"levelo://app?vid=3ad3d142-4b55-4c7c-a2db-4934e38b15ff"},"vehicle_type_id":"4","last_reported":1689721598,"current_range_meters":6000,"station_id":"ce4bgt12rcd13ifvqce0","pricing_plan_id":"free"},{"bike_id":"2b9ae199-d44a-4932-b9ad-68c43ab9beb9","system_id":"levelo_inurba_marseille","lat":43.308012,"lon":5.381511,"is_reserved":false,"is_disabled":false,"rental_uris":{"android":"levelo://app?vid=2b9ae199-d44a-4932-b9ad-68c43ab9beb9","ios":"levelo://app?vid=2b9ae199-d44a-4932-b9ad-68c43ab9beb9"},"vehicle_type_id":"4","last_reported":1689721598,"current_range_meters":25200,"station_id":"ce4bgt12rcd13ifvqce0","pricing_plan_id":"free"},{"bike_id":"89b81568-d960-4ec0-9f9f-f7768f8e745e","system_id":"levelo_inurba_marseille","lat":43.308012,"lon":5.381511,"is_reserved":false,"is_disabled":false,"rental_uris":{"android":"levelo://app?vid=89b81568-d960-4ec0-9f9f-f7768f8e745e","ios":"levelo://app?vid=89b81568-d960-4ec0-9f9f-f7768f8e745e"},"vehicle_type_id":"4","last_reported":1689721598,"current_range_meters":11200,"station_id":"ce4bgt12rcd13ifvqce0","pricing_plan_id":"free"},{"bike_id":"85c13f6a-8a39-4846-a578-2727e237b498","system_id":"levelo_inurba_marseille","lat":43.308012,"lon":5.381511,"is_reserved":false,"is_disabled":false,"rental_uris":{"android":"levelo://app?vid=85c13f6a-8a39-4846-a578-2727e237b498","ios":"levelo://app?vid=85c13f6a-8a39-4846-a578-2727e237b498"},"vehicle_type_id":"4","last_reported":1689721598,"current_range_meters":18800,"station_id":"ce4bgt12rcd13ifvqce0","pricing_plan_id":"free"},{"bike_id":"739f82e7-a8c7-4e3a-8b92-767e8685d584","system_id":"levelo_inurba_marseille","lat":43.304606,"lon":5.379026,"is_reserved":false,"is_disabled":false,"rental_uris":{"android":"levelo://app?vid=739f82e7-a8c7-4e3a-8b92-767e8685d584","ios":"levelo://app?vid=739f82e7-a8c7-4e3a-8b92-767e8685d584"},"vehicle_type_id":"4","last_reported":1689721598,"current_range_meters":21600,"station_id":"ce4bgup2rcd13ifvqcn0","pricing_plan_id":"free"},{"bike_id":"08b38734-2a2a-4ce9-915f-bc4809b22cc5","system_id":"levelo_inurba_marseille","lat":43.302784,"lon":5.377158,"is_reserved":false,"is_disabled":false,"rental_uris":{"android":"levelo://app?vid=08b38734-2a2a-4ce9-915f-bc4809b22cc5","ios":"levelo://app?vid=08b38734-2a2a-4ce9-915f-bc4809b22cc5"},"vehicle_type_id":"4","last_reported":1689721598,"current_range_meters":22800,"station_id":"ce4bguh2rcd13ifvqcj0","pricing_plan_id":"free"},{"bike_id":"9b2ccf15-37cf-417e-8dd5-a4bf4c19bbab","system_id":"levelo_inurba_marseille","lat":43.30143,"lon":5.37416,"is_reserved":false,"is_disabled":false,"rental_uris":{"android":"levelo://app?vid=9b2ccf15-37cf-417e-8dd5-a4bf4c19bbab","ios":"levelo://app?vid=9b2ccf15-37cf-417e-8dd5-a4bf4c19bbab"},"vehicle_type_id":"4","last_reported":1689721598,"current_range_meters":20800,"station_id":"ce4bgs92rcd13ifvqcc0","pricing_plan_id":"free"},{"bike_id":"caf24fa0-878d-425f-b12a-0c83ba6ccf9b","system_id":"levelo_inurba_marseille","lat":43.319935,"lon":5.381699,"is_reserved":false,"is_disabled":false,"rental_uris":{"android":"levelo://app?vid=caf24fa0-878d-425f-b12a-0c83ba6ccf9b","ios":"levelo://app?vid=caf24fa0-878d-425f-b12a-0c83ba6ccf9b"},"vehicle_type_id":"4","last_reported":1689721598,"current_range_meters":9200,"station_id":"ce4bhr12rcd13ifvqhpg","pricing_plan_id":"free"},{"bike_id":"aecf68cc-6dab-4d48-9b33-456f56f1c060","system_id":"levelo_inurba_marseille","lat":43.319935,"lon":5.381699,"is_reserved":false,"is_disabled":false,"rental_uris":{"android":"levelo://app?vid=aecf68cc-6dab-4d48-9b33-456f56f1c060","ios":"levelo://app?vid=aecf68cc-6dab-4d48-9b33-456f56f1c060"},"vehicle_type_id":"4","last_reported":1689721598,"current_range_meters":24800,"station_id":"ce4bhr12rcd13ifvqhpg","pricing_plan_id":"free"},{"bike_id":"81dbb561-ba63-4cda-a721-d080e1d9f826","system_id":"levelo_inurba_marseille","lat":43.319935,"lon":5.381699,"is_reserved":false,"is_disabled":false,"rental_uris":{"android":"levelo://app?vid=81dbb561-ba63-4cda-a721-d080e1d9f826","ios":"levelo://app?vid=81dbb561-ba63-4cda-a721-d080e1d9f826"},"vehicle_type_id":"4","last_reported":1689721598,"current_range_meters":18000,"station_id":"ce4bhr12rcd13ifvqhpg","pricing_plan_id":"free"},{"bike_id":"a57d4915-fdc6-4e19-9b89-dad1c6d9dd22","system_id":"levelo_inurba_marseille","lat":43.319935,"lon":5.381699,"is_reserved":false,"is_disabled":false,"rental_uris":{"android":"levelo://app?vid=a57d4915-fdc6-4e19-9b89-dad1c6d9dd22","ios":"levelo://app?vid=a57d4915-fdc6-4e19-9b89-dad1c6d9dd22"},"vehicle_type_id":"4","last_reported":1689721598,"current_range_meters":21600,"station_id":"ce4bhr12rcd13ifvqhpg","pricing_plan_id":"free"},{"bike_id":"399df473-ca0d-4307-a31b-1e2c3dd75986","system_id":"levelo_inurba_marseille","lat":43.319935,"lon":5.381699,"is_reserved":false,"is_disabled":false,"rental_uris":{"android":"levelo://app?vid=399df473-ca0d-4307-a31b-1e2c3dd75986","ios":"levelo://app?vid=399df473-ca0d-4307-a31b-1e2c3dd75986"},"vehicle_type_id":"4","last_reported":1689721598,"current_range_meters":14400,"station_id":"ce4bhr12rcd13ifvqhpg","pricing_plan_id":"free"},{"bike_id":"19100311-c096-4ea3-9658-fe0675467fb5","system_id":"levelo_inurba_marseille","lat":43.319935,"lon":5.381699,"is_reserved":false,"is_disabled":false,"rental_uris":{"android":"levelo://app?vid=19100311-c096-4ea3-9658-fe0675467fb5","ios":"levelo://app?vid=19100311-c096-4ea3-9658-fe0675467fb5"},"vehicle_type_id":"4","last_reported":1689721598,"current_range_meters":29600,"station_id":"ce4bhr12rcd13ifvqhpg","pricing_plan_id":"free"},{"bike_id":"b0dd87b2-d98f-41f0-92f5-f872f1fe0084","system_id":"levelo_inurba_marseille","lat":43.319935,"lon":5.381699,"is_reserved":false,"is_disabled":false,"rental_uris":{"android":"levelo://app?vid=b0dd87b2-d98f-41f0-92f5-f872f1fe0084","ios":"levelo://app?vid=b0dd87b2-d98f-41f0-92f5-f872f1fe0084"},"vehicle_type_id":"4","last_reported":1689721598,"current_range_meters":30000,"station_id":"ce4bhr12rcd13ifvqhpg","pricing_plan_id":"free"},{"bike_id":"9bfdd7bb-a7de-4ef3-a9dd-8a041690c4c2","system_id":"levelo_inurba_marseille","lat":43.319935,"lon":5.381699,"is_reserved":false,"is_disabled":false,"rental_uris":{"android":"levelo://app?vid=9bfdd7bb-a7de-4ef3-a9dd-8a041690c4c2","ios":"levelo://app?vid=9bfdd7bb-a7de-4ef3-a9dd-8a041690c4c2"},"vehicle_type_id":"4","last_reported":1689721598,"current_range_meters":26800,"station_id":"ce4bhr12rcd13ifvqhpg","pricing_plan_id":"free"},{"bike_id":"6a7a13f7-afdd-4b2e-b1df-3ef610daea49","system_id":"levelo_inurba_marseille","lat":43.29973,"lon":5.3674,"is_reserved":false,"is_disabled":false,"rental_uris":{"android":"levelo://app?vid=6a7a13f7-afdd-4b2e-b1df-3ef610daea49","ios":"levelo://app?vid=6a7a13f7-afdd-4b2e-b1df-3ef610daea49"},"vehicle_type_id":"4","last_reported":1689721598,"current_range_meters":20000,"station_id":"","pricing_plan_id":"free"},{"bike_id":"5c850798-b8af-43c2-9727-ef86b837de70","system_id":"levelo_inurba_marseille","lat":43.313571,"lon":5.384829,"is_reserved":false,"is_disabled":false,"rental_uris":{"android":"levelo://app?vid=5c850798-b8af-43c2-9727-ef86b837de70","ios":"levelo://app?vid=5c850798-b8af-43c2-9727-ef86b837de70"},"vehicle_type_id":"4","last_reported":1689721598,"current_range_meters":25200,"station_id":"ce4bgt92rcd13ifvqcf0","pricing_plan_id":"free"},{"bike_id":"1b498175-c20f-4ab7-8fa5-370ed4da5d88","system_id":"levelo_inurba_marseille","lat":43.31367,"lon":5.38495,"is_reserved":false,"is_disabled":false,"rental_uris":{"android":"levelo://app?vid=1b498175-c20f-4ab7-8fa5-370ed4da5d88","ios":"levelo://app?vid=1b498175-c20f-4ab7-8fa5-370ed4da5d88"},"vehicle_type_id":"4","last_reported":1689721598,"current_range_meters":29600,"station_id":"ce4bgt92rcd13ifvqcf0","pricing_plan_id":"free"},{"bike_id":"2b65a5b6-650e-4bff-a741-cb44cccd0a5e","system_id":"levelo_inurba_marseille","lat":43.313571,"lon":5.384829,"is_reserved":false,"is_disabled":false,"rental_uris":{"android":"levelo://app?vid=2b65a5b6-650e-4bff-a741-cb44cccd0a5e","ios":"levelo://app?vid=2b65a5b6-650e-4bff-a741-cb44cccd0a5e"},"vehicle_type_id":"4","last_reported":1689721598,"current_range_meters":15600,"station_id":"ce4bgt92rcd13ifvqcf0","pricing_plan_id":"free"},{"bike_id":"e140a878-3206-4d7c-9332-85dd55cf184a","system_id":"levelo_inurba_marseille","lat":43.31367,"lon":5.385,"is_reserved":false,"is_disabled":false,"rental_uris":{"android":"levelo://app?vid=e140a878-3206-4d7c-9332-85dd55cf184a","ios":"levelo://app?vid=e140a878-3206-4d7c-9332-85dd55cf184a"},"vehicle_type_id":"4","last_reported":1689721598,"current_range_meters":26400,"station_id":"ce4bgt92rcd13ifvqcf0","pricing_plan_id":"free"},{"bike_id":"fee8fc7e-a3ac-49f6-a82f-77c0de84ff08","system_id":"levelo_inurba_marseille","lat":43.299222,"lon":5.365554,"is_reserved":false,"is_disabled":false,"rental_uris":{"android":"levelo://app?vid=fee8fc7e-a3ac-49f6-a82f-77c0de84ff08","ios":"levelo://app?vid=fee8fc7e-a3ac-49f6-a82f-77c0de84ff08"},"vehicle_type_id":"4","last_reported":1689721598,"current_range_meters":25200,"station_id":"ce4bgm92rcd13ifvqbr0","pricing_plan_id":"free"},{"bike_id":"61ee6655-2220-427d-bb61-949c0e24734c","system_id":"levelo_inurba_marseille","lat":43.299222,"lon":5.365554,"is_reserved":false,"is_disabled":false,"rental_uris":{"android":"levelo://app?vid=61ee6655-2220-427d-bb61-949c0e24734c","ios":"levelo://app?vid=61ee6655-2220-427d-bb61-949c0e24734c"},"vehicle_type_id":"4","last_reported":1689721598,"current_range_meters":18400,"station_id":"ce4bgm92rcd13ifvqbr0","pricing_plan_id":"free"},{"bike_id":"1204f1ca-7112-4b8b-acf4-83814c64e90d","system_id":"levelo_inurba_marseille","lat":43.29852,"lon":5.36288,"is_reserved":false,"is_disabled":false,"rental_uris":{"android":"levelo://app?vid=1204f1ca-7112-4b8b-acf4-83814c64e90d","ios":"levelo://app?vid=1204f1ca-7112-4b8b-acf4-83814c64e90d"},"vehicle_type_id":"4","last_reported":1689721598,"current_range_meters":8800,"station_id":"ce4bgpp2rcd13ifvqc3g","pricing_plan_id":"free"},{"bike_id":"e5a88865-4cb1-4a2c-91f7-99b87cd5f05a","system_id":"levelo_inurba_marseille","lat":43.29847,"lon":5.36284,"is_reserved":false,"is_disabled":false,"rental_uris":{"android":"levelo://app?vid=e5a88865-4cb1-4a2c-91f7-99b87cd5f05a","ios":"levelo://app?vid=e5a88865-4cb1-4a2c-91f7-99b87cd5f05a"},"vehicle_type_id":"4","last_reported":1689721598,"current_range_meters":22000,"station_id":"ce4bgpp2rcd13ifvqc3g","pricing_plan_id":"free"},{"bike_id":"5f7342e0-0c9b-4b33-b421-6a6e5a2b49a2","system_id":"levelo_inurba_marseille","lat":43.29846,"lon":5.36286,"is_reserved":false,"is_disabled":false,"rental_uris":{"android":"levelo://app?vid=5f7342e0-0c9b-4b33-b421-6a6e5a2b49a2","ios":"levelo://app?vid=5f7342e0-0c9b-4b33-b421-6a6e5a2b49a2"},"vehicle_type_id":"4","last_reported":1689721598,"current_range_meters":19200,"station_id":"ce4bgpp2rcd13ifvqc3g","pricing_plan_id":"free"},{"bike_id":"09d9a63f-ae6b-40de-aa99-2b02f69c781a","system_id":"levelo_inurba_marseille","lat":43.305364,"lon":5.384119,"is_reserved":false,"is_disabled":false,"rental_uris":{"android":"levelo://app?vid=09d9a63f-ae6b-40de-aa99-2b02f69c781a","ios":"levelo://app?vid=09d9a63f-ae6b-40de-aa99-2b02f69c781a"},"vehicle_type_id":"4","last_reported":1689721598,"current_range_meters":1200,"station_id":"ce4bgg92rcd13ifvqb30","pricing_plan_id":"free"},{"bike_id":"425b6c5e-d947-4a6c-b10e-213bdfbfb410","system_id":"levelo_inurba_marseille","lat":43.298433,"lon":5.362774,"is_reserved":false,"is_disabled":false,"rental_uris":{"android":"levelo://app?vid=425b6c5e-d947-4a6c-b10e-213bdfbfb410","ios":"levelo://app?vid=425b6c5e-d947-4a6c-b10e-213bdfbfb410"},"vehicle_type_id":"4","last_reported":1689721598,"current_range_meters":29200,"station_id":"ce4bgpp2rcd13ifvqc3g","pricing_plan_id":"free"},{"bike_id":"a12f1a0c-9448-493c-89b4-b1d7a3f8b20c","system_id":"levelo_inurba_marseille","lat":43.305364,"lon":5.384119,"is_reserved":false,"is_disabled":false,"rental_uris":{"android":"levelo://app?vid=a12f1a0c-9448-493c-89b4-b1d7a3f8b20c","ios":"levelo://app?vid=a12f1a0c-9448-493c-89b4-b1d7a3f8b20c"},"vehicle_type_id":"4","last_reported":1689721598,"current_range_meters":10400,"station_id":"ce4bgg92rcd13ifvqb30","pricing_plan_id":"free"},{"bike_id":"6f3ff64e-807d-4adb-acec-0ed9c5214c6a","system_id":"levelo_inurba_marseille","lat":43.305364,"lon":5.384119,"is_reserved":false,"is_disabled":false,"rental_uris":{"android":"levelo://app?vid=6f3ff64e-807d-4adb-acec-0ed9c5214c6a","ios":"levelo://app?vid=6f3ff64e-807d-4adb-acec-0ed9c5214c6a"},"vehicle_type_id":"4","last_reported":1689721598,"current_range_meters":3200,"station_id":"ce4bgg92rcd13ifvqb30","pricing_plan_id":"free"},{"bike_id":"2a85d959-0e97-4bec-bcfd-b535ed748919","system_id":"levelo_inurba_marseille","lat":43.299243,"lon":5.374807,"is_reserved":false,"is_disabled":false,"rental_uris":{"android":"levelo://app?vid=2a85d959-0e97-4bec-bcfd-b535ed748919","ios":"levelo://app?vid=2a85d959-0e97-4bec-bcfd-b535ed748919"},"vehicle_type_id":"4","last_reported":1689721598,"current_range_meters":14800,"station_id":"ce4bgjh2rcd13ifvqbg0","pricing_plan_id":"free"},{"bike_id":"bc1266ec-a411-413b-8c47-1b57be93170f","system_id":"levelo_inurba_marseille","lat":43.299243,"lon":5.374807,"is_reserved":false,"is_disabled":false,"rental_uris":{"android":"levelo://app?vid=bc1266ec-a411-413b-8c47-1b57be93170f","ios":"levelo://app?vid=bc1266ec-a411-413b-8c47-1b57be93170f"},"vehicle_type_id":"4","last_reported":1689721598,"current_range_meters":19200,"station_id":"ce4bgjh2rcd13ifvqbg0","pricing_plan_id":"free"},{"bike_id":"344f7eb4-b2fd-41dc-8fab-a93c0223ed9b","system_id":"levelo_inurba_marseille","lat":43.299243,"lon":5.374807,"is_reserved":false,"is_disabled":false,"rental_uris":{"android":"levelo://app?vid=344f7eb4-b2fd-41dc-8fab-a93c0223ed9b","ios":"levelo://app?vid=344f7eb4-b2fd-41dc-8fab-a93c0223ed9b"},"vehicle_type_id":"4","last_reported":1689721598,"current_range_meters":18400,"station_id":"ce4bgjh2rcd13ifvqbg0","pricing_plan_id":"free"},{"bike_id":"4dcb712a-4b8a-4477-9a11-4dd991a65e23","system_id":"levelo_inurba_marseille","lat":43.305364,"lon":5.384119,"is_reserved":false,"is_disabled":false,"rental_uris":{"android":"levelo://app?vid=4dcb712a-4b8a-4477-9a11-4dd991a65e23","ios":"levelo://app?vid=4dcb712a-4b8a-4477-9a11-4dd991a65e23"},"vehicle_type_id":"4","last_reported":1689721598,"current_range_meters":16800,"station_id":"ce4bgg92rcd13ifvqb30","pricing_plan_id":"free"},{"bike_id":"f1bd58cd-79f3-42e4-97fe-66e13d285f12","system_id":"levelo_inurba_marseille","lat":43.299243,"lon":5.374807,"is_reserved":false,"is_disabled":false,"rental_uris":{"android":"levelo://app?vid=f1bd58cd-79f3-42e4-97fe-66e13d285f12","ios":"levelo://app?vid=f1bd58cd-79f3-42e4-97fe-66e13d285f12"},"vehicle_type_id":"4","last_reported":1689721598,"current_range_meters":7600,"station_id":"ce4bgjh2rcd13ifvqbg0","pricing_plan_id":"free"},{"bike_id":"824bfc82-a279-410e-bd14-9e977fc7c8d6","system_id":"levelo_inurba_marseille","lat":43.311722,"lon":5.387247,"is_reserved":false,"is_disabled":false,"rental_uris":{"android":"levelo://app?vid=824bfc82-a279-410e-bd14-9e977fc7c8d6","ios":"levelo://app?vid=824bfc82-a279-410e-bd14-9e977fc7c8d6"},"vehicle_type_id":"4","last_reported":1689721598,"current_range_meters":17200,"station_id":"ce4bgv12rcd13ifvqcp0","pricing_plan_id":"free"},{"bike_id":"34d1ecec-7ca2-4696-b328-ea705392b645","system_id":"levelo_inurba_marseille","lat":43.299243,"lon":5.374807,"is_reserved":false,"is_disabled":false,"rental_uris":{"android":"levelo://app?vid=34d1ecec-7ca2-4696-b328-ea705392b645","ios":"levelo://app?vid=34d1ecec-7ca2-4696-b328-ea705392b645"},"vehicle_type_id":"4","last_reported":1689721598,"current_range_meters":16000,"station_id":"ce4bgjh2rcd13ifvqbg0","pricing_plan_id":"free"},{"bike_id":"5f0f16f6-eaf3-449b-b282-81400274a1a2","system_id":"levelo_inurba_marseille","lat":43.31165,"lon":5.38719,"is_reserved":false,"is_disabled":false,"rental_uris":{"android":"levelo://app?vid=5f0f16f6-eaf3-449b-b282-81400274a1a2","ios":"levelo://app?vid=5f0f16f6-eaf3-449b-b282-81400274a1a2"},"vehicle_type_id":"4","last_reported":1689721598,"current_range_meters":31200,"station_id":"","pricing_plan_id":"free"},{"bike_id":"dffab68e-ae58-406c-9bb0-82914ce2d400","system_id":"levelo_inurba_marseille","lat":43.299243,"lon":5.374807,"is_reserved":false,"is_disabled":false,"rental_uris":{"android":"levelo://app?vid=dffab68e-ae58-406c-9bb0-82914ce2d400","ios":"levelo://app?vid=dffab68e-ae58-406c-9bb0-82914ce2d400"},"vehicle_type_id":"4","last_reported":1689721598,"current_range_meters":8400,"station_id":"ce4bgjh2rcd13ifvqbg0","pricing_plan_id":"free"},{"bike_id":"ab3b8d5a-056c-4e83-acfe-2882327a82ac","system_id":"levelo_inurba_marseille","lat":43.297774,"lon":5.370875,"is_reserved":false,"is_disabled":false,"rental_uris":{"android":"levelo://app?vid=ab3b8d5a-056c-4e83-acfe-2882327a82ac","ios":"levelo://app?vid=ab3b8d5a-056c-4e83-acfe-2882327a82ac"},"vehicle_type_id":"4","last_reported":1689721598,"current_range_meters":24000,"station_id":"ce4bgop2rcd13ifvqc1g","pricing_plan_id":"free"},{"bike_id":"be92d518-68b8-4f05-a3c0-5d2d0d4d757d","system_id":"levelo_inurba_marseille","lat":43.3278,"lon":5.3669,"is_reserved":false,"is_disabled":false,"rental_uris":{"android":"levelo://app?vid=be92d518-68b8-4f05-a3c0-5d2d0d4d757d","ios":"levelo://app?vid=be92d518-68b8-4f05-a3c0-5d2d0d4d757d"},"vehicle_type_id":"4","last_reported":1689721598,"current_range_meters":20000,"station_id":"","pricing_plan_id":"free"},{"bike_id":"92423627-1e43-4689-8707-7dd0c0226293","system_id":"levelo_inurba_marseille","lat":43.297794,"lon":5.370888,"is_reserved":false,"is_disabled":false,"rental_uris":{"android":"levelo://app?vid=92423627-1e43-4689-8707-7dd0c0226293","ios":"levelo://app?vid=92423627-1e43-4689-8707-7dd0c0226293"},"vehicle_type_id":"4","last_reported":1689721598,"current_range_meters":31600,"station_id":"ce4bgop2rcd13ifvqc1g","pricing_plan_id":"free"},{"bike_id":"5ba21cf5-ae4c-4613-891f-8d5c5aa5ba93","system_id":"levelo_inurba_marseille","lat":43.297774,"lon":5.370875,"is_reserved":false,"is_disabled":false,"rental_uris":{"android":"levelo://app?vid=5ba21cf5-ae4c-4613-891f-8d5c5aa5ba93","ios":"levelo://app?vid=5ba21cf5-ae4c-4613-891f-8d5c5aa5ba93"},"vehicle_type_id":"4","last_reported":1689721598,"current_range_meters":29200,"station_id":"ce4bgop2rcd13ifvqc1g","pricing_plan_id":"free"},{"bike_id":"63d51479-34ac-402b-8463-870af890b643","system_id":"levelo_inurba_marseille","lat":43.297794,"lon":5.370888,"is_reserved":false,"is_disabled":false,"rental_uris":{"android":"levelo://app?vid=63d51479-34ac-402b-8463-870af890b643","ios":"levelo://app?vid=63d51479-34ac-402b-8463-870af890b643"},"vehicle_type_id":"4","last_reported":1689721598,"current_range_meters":18000,"station_id":"ce4bgop2rcd13ifvqc1g","pricing_plan_id":"free"},{"bike_id":"d26f8679-f8d9-4246-b95b-dbd5fc1067d5","system_id":"levelo_inurba_marseille","lat":43.297794,"lon":5.370888,"is_reserved":false,"is_disabled":false,"rental_uris":{"android":"levelo://app?vid=d26f8679-f8d9-4246-b95b-dbd5fc1067d5","ios":"levelo://app?vid=d26f8679-f8d9-4246-b95b-dbd5fc1067d5"},"vehicle_type_id":"4","last_reported":1689721598,"current_range_meters":18000,"station_id":"ce4bgop2rcd13ifvqc1g","pricing_plan_id":"free"},{"bike_id":"2ed41945-cea8-4afa-87d0-4eb6bbef9c57","system_id":"levelo_inurba_marseille","lat":43.32286,"lon":5.38263,"is_reserved":false,"is_disabled":false,"rental_uris":{"android":"levelo://app?vid=2ed41945-cea8-4afa-87d0-4eb6bbef9c57","ios":"levelo://app?vid=2ed41945-cea8-4afa-87d0-4eb6bbef9c57"},"vehicle_type_id":"4","last_reported":1689721598,"current_range_meters":24400,"station_id":"ce4bhr12rcd13ifvqhqg","pricing_plan_id":"free"},{"bike_id":"7c154cf1-be76-45ac-8f98-526cdbeb1a99","system_id":"levelo_inurba_marseille","lat":43.32288,"lon":5.38267,"is_reserved":false,"is_disabled":false,"rental_uris":{"android":"levelo://app?vid=7c154cf1-be76-45ac-8f98-526cdbeb1a99","ios":"levelo://app?vid=7c154cf1-be76-45ac-8f98-526cdbeb1a99"},"vehicle_type_id":"4","last_reported":1689721598,"current_range_meters":24400,"station_id":"ce4bhr12rcd13ifvqhqg","pricing_plan_id":"free"},{"bike_id":"38cb8470-ab16-4d1e-bd37-13ef2ac7db48","system_id":"levelo_inurba_marseille","lat":43.322872,"lon":5.382756,"is_reserved":false,"is_disabled":false,"rental_uris":{"android":"levelo://app?vid=38cb8470-ab16-4d1e-bd37-13ef2ac7db48","ios":"levelo://app?vid=38cb8470-ab16-4d1e-bd37-13ef2ac7db48"},"vehicle_type_id":"4","last_reported":1689721598,"current_range_meters":24000,"station_id":"ce4bhr12rcd13ifvqhqg","pricing_plan_id":"free"},{"bike_id":"64127e17-b117-4a26-b5b1-f27db8ca0e03","system_id":"levelo_inurba_marseille","lat":43.32294,"lon":5.38263,"is_reserved":false,"is_disabled":false,"rental_uris":{"android":"levelo://app?vid=64127e17-b117-4a26-b5b1-f27db8ca0e03","ios":"levelo://app?vid=64127e17-b117-4a26-b5b1-f27db8ca0e03"},"vehicle_type_id":"4","last_reported":1689721598,"current_range_meters":21200,"station_id":"ce4bhr12rcd13ifvqhqg","pricing_plan_id":"free"},{"bike_id":"3296666b-4550-46e5-8780-de3f4f4bdb22","system_id":"levelo_inurba_marseille","lat":43.32289,"lon":5.38279,"is_reserved":false,"is_disabled":false,"rental_uris":{"android":"levelo://app?vid=3296666b-4550-46e5-8780-de3f4f4bdb22","ios":"levelo://app?vid=3296666b-4550-46e5-8780-de3f4f4bdb22"},"vehicle_type_id":"4","last_reported":1689721598,"current_range_meters":23200,"station_id":"ce4bhr12rcd13ifvqhqg","pricing_plan_id":"free"},{"bike_id":"e916ca30-98a4-4365-b6d6-d96cd71c267d","system_id":"levelo_inurba_marseille","lat":43.32297,"lon":5.3828,"is_reserved":false,"is_disabled":false,"rental_uris":{"android":"levelo://app?vid=e916ca30-98a4-4365-b6d6-d96cd71c267d","ios":"levelo://app?vid=e916ca30-98a4-4365-b6d6-d96cd71c267d"},"vehicle_type_id":"4","last_reported":1689721598,"current_range_meters":15200,"station_id":"ce4bhr12rcd13ifvqhqg","pricing_plan_id":"free"},{"bike_id":"1b1a92f9-a469-49be-ae33-4794a606317c","system_id":"levelo_inurba_marseille","lat":43.328371,"lon":5.366909,"is_reserved":false,"is_disabled":false,"rental_uris":{"android":"levelo://app?vid=1b1a92f9-a469-49be-ae33-4794a606317c","ios":"levelo://app?vid=1b1a92f9-a469-49be-ae33-4794a606317c"},"vehicle_type_id":"4","last_reported":1689721598,"current_range_meters":18000,"station_id":"ce4bhs92rcd13ifvqi0g","pricing_plan_id":"free"},{"bike_id":"ca80ddc9-4224-4881-ba12-3ea418891e6c","system_id":"levelo_inurba_marseille","lat":43.32823,"lon":5.36684,"is_reserved":false,"is_disabled":false,"rental_uris":{"android":"levelo://app?vid=ca80ddc9-4224-4881-ba12-3ea418891e6c","ios":"levelo://app?vid=ca80ddc9-4224-4881-ba12-3ea418891e6c"},"vehicle_type_id":"4","last_reported":1689721598,"current_range_meters":0,"station_id":"ce4bhs92rcd13ifvqi0g","pricing_plan_id":"free"},{"bike_id":"bccd87f9-44fb-4c8c-b55e-836d1e79bd1d","system_id":"levelo_inurba_marseille","lat":43.328371,"lon":5.366909,"is_reserved":false,"is_disabled":false,"rental_uris":{"android":"levelo://app?vid=bccd87f9-44fb-4c8c-b55e-836d1e79bd1d","ios":"levelo://app?vid=bccd87f9-44fb-4c8c-b55e-836d1e79bd1d"},"vehicle_type_id":"4","last_reported":1689721598,"current_range_meters":24000,"station_id":"ce4bhs92rcd13ifvqi0g","pricing_plan_id":"free"},{"bike_id":"9cfa5118-e294-459c-9473-05c337cacf11","system_id":"levelo_inurba_marseille","lat":43.32825,"lon":5.36688,"is_reserved":false,"is_disabled":false,"rental_uris":{"android":"levelo://app?vid=9cfa5118-e294-459c-9473-05c337cacf11","ios":"levelo://app?vid=9cfa5118-e294-459c-9473-05c337cacf11"},"vehicle_type_id":"4","last_reported":1689721598,"current_range_meters":18400,"station_id":"ce4bhs92rcd13ifvqi0g","pricing_plan_id":"free"},{"bike_id":"c60ae560-9dc6-4bdd-b313-baa25229a308","system_id":"levelo_inurba_marseille","lat":43.32826,"lon":5.36687,"is_reserved":false,"is_disabled":false,"rental_uris":{"android":"levelo://app?vid=c60ae560-9dc6-4bdd-b313-baa25229a308","ios":"levelo://app?vid=c60ae560-9dc6-4bdd-b313-baa25229a308"},"vehicle_type_id":"4","last_reported":1689721598,"current_range_meters":22400,"station_id":"ce4bhs92rcd13ifvqi0g","pricing_plan_id":"free"},{"bike_id":"68aff992-6a2f-4df7-84f1-5f129124d378","system_id":"levelo_inurba_marseille","lat":43.32827,"lon":5.36688,"is_reserved":false,"is_disabled":false,"rental_uris":{"android":"levelo://app?vid=68aff992-6a2f-4df7-84f1-5f129124d378","ios":"levelo://app?vid=68aff992-6a2f-4df7-84f1-5f129124d378"},"vehicle_type_id":"4","last_reported":1689721598,"current_range_meters":31200,"station_id":"ce4bhs92rcd13ifvqi0g","pricing_plan_id":"free"},{"bike_id":"eb414e3d-48ee-4bed-aadf-aaf017756557","system_id":"levelo_inurba_marseille","lat":43.32827,"lon":5.36685,"is_reserved":false,"is_disabled":false,"rental_uris":{"android":"levelo://app?vid=eb414e3d-48ee-4bed-aadf-aaf017756557","ios":"levelo://app?vid=eb414e3d-48ee-4bed-aadf-aaf017756557"},"vehicle_type_id":"4","last_reported":1689721598,"current_range_meters":22800,"station_id":"ce4bhs92rcd13ifvqi0g","pricing_plan_id":"free"},{"bike_id":"c2dbc644-c7fb-4fb5-923b-703ff3d9c54f","system_id":"levelo_inurba_marseille","lat":43.32827,"lon":5.36682,"is_reserved":false,"is_disabled":false,"rental_uris":{"android":"levelo://app?vid=c2dbc644-c7fb-4fb5-923b-703ff3d9c54f","ios":"levelo://app?vid=c2dbc644-c7fb-4fb5-923b-703ff3d9c54f"},"vehicle_type_id":"4","last_reported":1689721598,"current_range_meters":800,"station_id":"ce4bhs92rcd13ifvqi0g","pricing_plan_id":"free"},{"bike_id":"1785ac81-c45b-4e28-b2e3-d4fb077dcc49","system_id":"levelo_inurba_marseille","lat":43.32829,"lon":5.36688,"is_reserved":false,"is_disabled":false,"rental_uris":{"android":"levelo://app?vid=1785ac81-c45b-4e28-b2e3-d4fb077dcc49","ios":"levelo://app?vid=1785ac81-c45b-4e28-b2e3-d4fb077dcc49"},"vehicle_type_id":"4","last_reported":1689721598,"current_range_meters":18000,"station_id":"ce4bhs92rcd13ifvqi0g","pricing_plan_id":"free"},{"bike_id":"a183349e-8fc2-422b-a1a4-311bf42922ae","system_id":"levelo_inurba_marseille","lat":43.32829,"lon":5.36685,"is_reserved":false,"is_disabled":false,"rental_uris":{"android":"levelo://app?vid=a183349e-8fc2-422b-a1a4-311bf42922ae","ios":"levelo://app?vid=a183349e-8fc2-422b-a1a4-311bf42922ae"},"vehicle_type_id":"4","last_reported":1689721598,"current_range_meters":23600,"station_id":"ce4bhs92rcd13ifvqi0g","pricing_plan_id":"free"},{"bike_id":"c52398db-3149-4ccd-8b41-49b4cc753238","system_id":"levelo_inurba_marseille","lat":43.32829,"lon":5.36682,"is_reserved":false,"is_disabled":false,"rental_uris":{"android":"levelo://app?vid=c52398db-3149-4ccd-8b41-49b4cc753238","ios":"levelo://app?vid=c52398db-3149-4ccd-8b41-49b4cc753238"},"vehicle_type_id":"4","last_reported":1689721598,"current_range_meters":19600,"station_id":"ce4bhs92rcd13ifvqi0g","pricing_plan_id":"free"},{"bike_id":"3916e407-8c11-4a2b-8e00-1d25f7bfdca8","system_id":"levelo_inurba_marseille","lat":43.297163,"lon":5.365866,"is_reserved":false,"is_disabled":false,"rental_uris":{"android":"levelo://app?vid=3916e407-8c11-4a2b-8e00-1d25f7bfdca8","ios":"levelo://app?vid=3916e407-8c11-4a2b-8e00-1d25f7bfdca8"},"vehicle_type_id":"4","last_reported":1689721598,"current_range_meters":29600,"station_id":"ce4bgn12rcd13ifvqbt0","pricing_plan_id":"free"},{"bike_id":"fa22a42c-19fd-4d4c-b13d-acfa470204e5","system_id":"levelo_inurba_marseille","lat":43.328371,"lon":5.366909,"is_reserved":false,"is_disabled":false,"rental_uris":{"android":"levelo://app?vid=fa22a42c-19fd-4d4c-b13d-acfa470204e5","ios":"levelo://app?vid=fa22a42c-19fd-4d4c-b13d-acfa470204e5"},"vehicle_type_id":"4","last_reported":1689721598,"current_range_meters":22800,"station_id":"ce4bhs92rcd13ifvqi0g","pricing_plan_id":"free"},{"bike_id":"05f61ee2-50db-419a-b4c2-15d64fa3a4b7","system_id":"levelo_inurba_marseille","lat":43.32832,"lon":5.36687,"is_reserved":false,"is_disabled":false,"rental_uris":{"android":"levelo://app?vid=05f61ee2-50db-419a-b4c2-15d64fa3a4b7","ios":"levelo://app?vid=05f61ee2-50db-419a-b4c2-15d64fa3a4b7"},"vehicle_type_id":"4","last_reported":1689721598,"current_range_meters":15600,"station_id":"ce4bhs92rcd13ifvqi0g","pricing_plan_id":"free"},{"bike_id":"5db31d5a-1c05-4dc6-974e-22f720d6be31","system_id":"levelo_inurba_marseille","lat":43.328329,"lon":5.366902,"is_reserved":false,"is_disabled":false,"rental_uris":{"android":"levelo://app?vid=5db31d5a-1c05-4dc6-974e-22f720d6be31","ios":"levelo://app?vid=5db31d5a-1c05-4dc6-974e-22f720d6be31"},"vehicle_type_id":"4","last_reported":1689721598,"current_range_meters":18800,"station_id":"ce4bhs92rcd13ifvqi0g","pricing_plan_id":"free"},{"bike_id":"a17039ea-41b2-41c8-ac48-a861bcbc31c6","system_id":"levelo_inurba_marseille","lat":43.2968,"lon":5.37291,"is_reserved":false,"is_disabled":false,"rental_uris":{"android":"levelo://app?vid=a17039ea-41b2-41c8-ac48-a861bcbc31c6","ios":"levelo://app?vid=a17039ea-41b2-41c8-ac48-a861bcbc31c6"},"vehicle_type_id":"4","last_reported":1689721598,"current_range_meters":22000,"station_id":"ce4bgk12rcd13ifvqbj0","pricing_plan_id":"free"},{"bike_id":"be58a856-69a2-4bea-8d50-7dd0c535c30b","system_id":"levelo_inurba_marseille","lat":43.29794,"lon":5.37708,"is_reserved":false,"is_disabled":false,"rental_uris":{"android":"levelo://app?vid=be58a856-69a2-4bea-8d50-7dd0c535c30b","ios":"levelo://app?vid=be58a856-69a2-4bea-8d50-7dd0c535c30b"},"vehicle_type_id":"4","last_reported":1689721598,"current_range_meters":13600,"station_id":"","pricing_plan_id":"free"},{"bike_id":"f9d209b6-dc93-4a81-b83c-3c2bb6c98dd6","system_id":"levelo_inurba_marseille","lat":43.29644,"lon":5.36029,"is_reserved":false,"is_disabled":false,"rental_uris":{"android":"levelo://app?vid=f9d209b6-dc93-4a81-b83c-3c2bb6c98dd6","ios":"levelo://app?vid=f9d209b6-dc93-4a81-b83c-3c2bb6c98dd6"},"vehicle_type_id":"4","last_reported":1689721598,"current_range_meters":30000,"station_id":"","pricing_plan_id":"free"},{"bike_id":"8f83921a-0e35-4794-b560-bccf32c67b9a","system_id":"levelo_inurba_marseille","lat":43.296935,"lon":5.376544,"is_reserved":false,"is_disabled":false,"rental_uris":{"android":"levelo://app?vid=8f83921a-0e35-4794-b560-bccf32c67b9a","ios":"levelo://app?vid=8f83921a-0e35-4794-b560-bccf32c67b9a"},"vehicle_type_id":"4","last_reported":1689721598,"current_range_meters":22800,"station_id":"ce4bgkh2rcd13ifvqbl0","pricing_plan_id":"free"},{"bike_id":"7a2df233-abe9-4b1d-a283-0f714878dbb5","system_id":"levelo_inurba_marseille","lat":43.296935,"lon":5.376544,"is_reserved":false,"is_disabled":false,"rental_uris":{"android":"levelo://app?vid=7a2df233-abe9-4b1d-a283-0f714878dbb5","ios":"levelo://app?vid=7a2df233-abe9-4b1d-a283-0f714878dbb5"},"vehicle_type_id":"4","last_reported":1689721598,"current_range_meters":18800,"station_id":"ce4bgkh2rcd13ifvqbl0","pricing_plan_id":"free"},{"bike_id":"0176cbe5-51b7-4dd6-86d6-6d4b97822379","system_id":"levelo_inurba_marseille","lat":43.299028,"lon":5.381509,"is_reserved":false,"is_disabled":false,"rental_uris":{"android":"levelo://app?vid=0176cbe5-51b7-4dd6-86d6-6d4b97822379","ios":"levelo://app?vid=0176cbe5-51b7-4dd6-86d6-6d4b97822379"},"vehicle_type_id":"4","last_reported":1689721598,"current_range_meters":29200,"station_id":"ce4bgj12rcd13ifvqbc0","pricing_plan_id":"free"},{"bike_id":"9d2276ca-9ed0-464b-9c0a-9e3c1152a896","system_id":"levelo_inurba_marseille","lat":43.299028,"lon":5.381509,"is_reserved":false,"is_disabled":false,"rental_uris":{"android":"levelo://app?vid=9d2276ca-9ed0-464b-9c0a-9e3c1152a896","ios":"levelo://app?vid=9d2276ca-9ed0-464b-9c0a-9e3c1152a896"},"vehicle_type_id":"4","last_reported":1689721598,"current_range_meters":17600,"station_id":"ce4bgj12rcd13ifvqbc0","pricing_plan_id":"free"},{"bike_id":"2daea014-f5a9-4e11-ba77-7ec47ca1435e","system_id":"levelo_inurba_marseille","lat":43.309589,"lon":5.390258,"is_reserved":false,"is_disabled":false,"rental_uris":{"android":"levelo://app?vid=2daea014-f5a9-4e11-ba77-7ec47ca1435e","ios":"levelo://app?vid=2daea014-f5a9-4e11-ba77-7ec47ca1435e"},"vehicle_type_id":"4","last_reported":1689721598,"current_range_meters":24400,"station_id":"ce4bgup2rcd13ifvqco0","pricing_plan_id":"free"},{"bike_id":"765f2394-1137-469c-b704-140fd803e64e","system_id":"levelo_inurba_marseille","lat":43.309589,"lon":5.390258,"is_reserved":false,"is_disabled":false,"rental_uris":{"android":"levelo://app?vid=765f2394-1137-469c-b704-140fd803e64e","ios":"levelo://app?vid=765f2394-1137-469c-b704-140fd803e64e"},"vehicle_type_id":"4","last_reported":1689721598,"current_range_meters":19200,"station_id":"ce4bgup2rcd13ifvqco0","pricing_plan_id":"free"},{"bike_id":"16a6ae85-41b7-4fb8-8cf8-51b8e2546e71","system_id":"levelo_inurba_marseille","lat":43.309589,"lon":5.390258,"is_reserved":false,"is_disabled":false,"rental_uris":{"android":"levelo://app?vid=16a6ae85-41b7-4fb8-8cf8-51b8e2546e71","ios":"levelo://app?vid=16a6ae85-41b7-4fb8-8cf8-51b8e2546e71"},"vehicle_type_id":"4","last_reported":1689721598,"current_range_meters":18000,"station_id":"ce4bgup2rcd13ifvqco0","pricing_plan_id":"free"},{"bike_id":"19ae6456-64fe-40a8-971c-60e41903446a","system_id":"levelo_inurba_marseille","lat":43.309589,"lon":5.390258,"is_reserved":false,"is_disabled":false,"rental_uris":{"android":"levelo://app?vid=19ae6456-64fe-40a8-971c-60e41903446a","ios":"levelo://app?vid=19ae6456-64fe-40a8-971c-60e41903446a"},"vehicle_type_id":"4","last_reported":1689721598,"current_range_meters":10400,"station_id":"ce4bgup2rcd13ifvqco0","pricing_plan_id":"free"},{"bike_id":"2be9208f-3c50-4d73-9483-2a855df8d547","system_id":"levelo_inurba_marseille","lat":43.309589,"lon":5.390258,"is_reserved":false,"is_disabled":false,"rental_uris":{"android":"levelo://app?vid=2be9208f-3c50-4d73-9483-2a855df8d547","ios":"levelo://app?vid=2be9208f-3c50-4d73-9483-2a855df8d547"},"vehicle_type_id":"4","last_reported":1689721598,"current_range_meters":24000,"station_id":"ce4bgup2rcd13ifvqco0","pricing_plan_id":"free"},{"bike_id":"94959e57-b440-423f-8dc5-bb4906fcdbdd","system_id":"levelo_inurba_marseille","lat":43.317557,"lon":5.390173,"is_reserved":false,"is_disabled":false,"rental_uris":{"android":"levelo://app?vid=94959e57-b440-423f-8dc5-bb4906fcdbdd","ios":"levelo://app?vid=94959e57-b440-423f-8dc5-bb4906fcdbdd"},"vehicle_type_id":"4","last_reported":1689721598,"current_range_meters":31600,"station_id":"ce4bhqp2rcd13ifvqhng","pricing_plan_id":"free"},{"bike_id":"11ee362a-447b-437c-9cc1-8c2c1025c76f","system_id":"levelo_inurba_marseille","lat":43.317557,"lon":5.390173,"is_reserved":false,"is_disabled":false,"rental_uris":{"android":"levelo://app?vid=11ee362a-447b-437c-9cc1-8c2c1025c76f","ios":"levelo://app?vid=11ee362a-447b-437c-9cc1-8c2c1025c76f"},"vehicle_type_id":"4","last_reported":1689721598,"current_range_meters":21600,"station_id":"ce4bhqp2rcd13ifvqhng","pricing_plan_id":"free"},{"bike_id":"149c94ad-2e03-4c5c-a382-ac5d9737014a","system_id":"levelo_inurba_marseille","lat":43.317557,"lon":5.390173,"is_reserved":false,"is_disabled":false,"rental_uris":{"android":"levelo://app?vid=149c94ad-2e03-4c5c-a382-ac5d9737014a","ios":"levelo://app?vid=149c94ad-2e03-4c5c-a382-ac5d9737014a"},"vehicle_type_id":"4","last_reported":1689721598,"current_range_meters":31600,"station_id":"ce4bhqp2rcd13ifvqhng","pricing_plan_id":"free"},{"bike_id":"3daa75b0-6298-4859-80cd-9f42f5dd00c5","system_id":"levelo_inurba_marseille","lat":43.317557,"lon":5.390173,"is_reserved":false,"is_disabled":false,"rental_uris":{"android":"levelo://app?vid=3daa75b0-6298-4859-80cd-9f42f5dd00c5","ios":"levelo://app?vid=3daa75b0-6298-4859-80cd-9f42f5dd00c5"},"vehicle_type_id":"4","last_reported":1689721598,"current_range_meters":8800,"station_id":"ce4bhqp2rcd13ifvqhng","pricing_plan_id":"free"},{"bike_id":"d892e2d7-6706-41b7-93dd-c79ea0a4c39c","system_id":"levelo_inurba_marseille","lat":43.317557,"lon":5.390173,"is_reserved":false,"is_disabled":false,"rental_uris":{"android":"levelo://app?vid=d892e2d7-6706-41b7-93dd-c79ea0a4c39c","ios":"levelo://app?vid=d892e2d7-6706-41b7-93dd-c79ea0a4c39c"},"vehicle_type_id":"4","last_reported":1689721598,"current_range_meters":21200,"station_id":"ce4bhqp2rcd13ifvqhng","pricing_plan_id":"free"},{"bike_id":"84a1215e-6a04-482e-b479-76a50877bf41","system_id":"levelo_inurba_marseille","lat":43.317557,"lon":5.390173,"is_reserved":false,"is_disabled":false,"rental_uris":{"android":"levelo://app?vid=84a1215e-6a04-482e-b479-76a50877bf41","ios":"levelo://app?vid=84a1215e-6a04-482e-b479-76a50877bf41"},"vehicle_type_id":"4","last_reported":1689721598,"current_range_meters":22400,"station_id":"ce4bhqp2rcd13ifvqhng","pricing_plan_id":"free"},{"bike_id":"5a3bae3f-877a-4441-96ce-3bab3b483ea1","system_id":"levelo_inurba_marseille","lat":43.317557,"lon":5.390173,"is_reserved":false,"is_disabled":false,"rental_uris":{"android":"levelo://app?vid=5a3bae3f-877a-4441-96ce-3bab3b483ea1","ios":"levelo://app?vid=5a3bae3f-877a-4441-96ce-3bab3b483ea1"},"vehicle_type_id":"4","last_reported":1689721598,"current_range_meters":31200,"station_id":"ce4bhqp2rcd13ifvqhng","pricing_plan_id":"free"},{"bike_id":"a4ce986c-bb39-40b0-9ba0-9e7c714bc33e","system_id":"levelo_inurba_marseille","lat":43.317557,"lon":5.390173,"is_reserved":false,"is_disabled":false,"rental_uris":{"android":"levelo://app?vid=a4ce986c-bb39-40b0-9ba0-9e7c714bc33e","ios":"levelo://app?vid=a4ce986c-bb39-40b0-9ba0-9e7c714bc33e"},"vehicle_type_id":"4","last_reported":1689721598,"current_range_meters":20800,"station_id":"ce4bhqp2rcd13ifvqhng","pricing_plan_id":"free"},{"bike_id":"97c69e7b-d785-4d2e-a444-b3f7be1ffbfb","system_id":"levelo_inurba_marseille","lat":43.317557,"lon":5.390173,"is_reserved":false,"is_disabled":false,"rental_uris":{"android":"levelo://app?vid=97c69e7b-d785-4d2e-a444-b3f7be1ffbfb","ios":"levelo://app?vid=97c69e7b-d785-4d2e-a444-b3f7be1ffbfb"},"vehicle_type_id":"4","last_reported":1689721598,"current_range_meters":31200,"station_id":"ce4bhqp2rcd13ifvqhng","pricing_plan_id":"free"},{"bike_id":"88419194-b871-45bb-8a6b-13f2d0d15dd4","system_id":"levelo_inurba_marseille","lat":43.304278,"lon":5.388868,"is_reserved":false,"is_disabled":false,"rental_uris":{"android":"levelo://app?vid=88419194-b871-45bb-8a6b-13f2d0d15dd4","ios":"levelo://app?vid=88419194-b871-45bb-8a6b-13f2d0d15dd4"},"vehicle_type_id":"4","last_reported":1689721598,"current_range_meters":12000,"station_id":"ce4bgk12rcd13ifvqbi0","pricing_plan_id":"free"},{"bike_id":"9306f28e-c129-483a-a152-ebf902441248","system_id":"levelo_inurba_marseille","lat":43.304278,"lon":5.388868,"is_reserved":false,"is_disabled":false,"rental_uris":{"android":"levelo://app?vid=9306f28e-c129-483a-a152-ebf902441248","ios":"levelo://app?vid=9306f28e-c129-483a-a152-ebf902441248"},"vehicle_type_id":"4","last_reported":1689721598,"current_range_meters":1600,"station_id":"ce4bgk12rcd13ifvqbi0","pricing_plan_id":"free"},{"bike_id":"c07496f5-f152-4e45-8e18-c13fcf8e3da4","system_id":"levelo_inurba_marseille","lat":43.304278,"lon":5.388868,"is_reserved":false,"is_disabled":false,"rental_uris":{"android":"levelo://app?vid=c07496f5-f152-4e45-8e18-c13fcf8e3da4","ios":"levelo://app?vid=c07496f5-f152-4e45-8e18-c13fcf8e3da4"},"vehicle_type_id":"4","last_reported":1689721598,"current_range_meters":19200,"station_id":"ce4bgk12rcd13ifvqbi0","pricing_plan_id":"free"},{"bike_id":"94658cc8-05e8-4903-be84-fbb258d35938","system_id":"levelo_inurba_marseille","lat":43.30443,"lon":5.38899,"is_reserved":false,"is_disabled":false,"rental_uris":{"android":"levelo://app?vid=94658cc8-05e8-4903-be84-fbb258d35938","ios":"levelo://app?vid=94658cc8-05e8-4903-be84-fbb258d35938"},"vehicle_type_id":"4","last_reported":1689721598,"current_range_meters":28400,"station_id":"ce4bgk12rcd13ifvqbi0","pricing_plan_id":"free"},{"bike_id":"2f3c9e55-cdef-4e15-861a-09cd1b71d7cb","system_id":"levelo_inurba_marseille","lat":43.304278,"lon":5.388868,"is_reserved":false,"is_disabled":false,"rental_uris":{"android":"levelo://app?vid=2f3c9e55-cdef-4e15-861a-09cd1b71d7cb","ios":"levelo://app?vid=2f3c9e55-cdef-4e15-861a-09cd1b71d7cb"},"vehicle_type_id":"4","last_reported":1689721598,"current_range_meters":8800,"station_id":"ce4bgk12rcd13ifvqbi0","pricing_plan_id":"free"},{"bike_id":"bc20cc22-23bb-4c0f-9029-8d2f987efd2f","system_id":"levelo_inurba_marseille","lat":43.304278,"lon":5.388868,"is_reserved":false,"is_disabled":false,"rental_uris":{"android":"levelo://app?vid=bc20cc22-23bb-4c0f-9029-8d2f987efd2f","ios":"levelo://app?vid=bc20cc22-23bb-4c0f-9029-8d2f987efd2f"},"vehicle_type_id":"4","last_reported":1689721598,"current_range_meters":10000,"station_id":"ce4bgk12rcd13ifvqbi0","pricing_plan_id":"free"},{"bike_id":"d2645ad7-fbaf-47f9-bb18-1526458ec45f","system_id":"levelo_inurba_marseille","lat":43.296263,"lon":5.377094,"is_reserved":false,"is_disabled":false,"rental_uris":{"android":"levelo://app?vid=d2645ad7-fbaf-47f9-bb18-1526458ec45f","ios":"levelo://app?vid=d2645ad7-fbaf-47f9-bb18-1526458ec45f"},"vehicle_type_id":"4","last_reported":1689721598,"current_range_meters":0,"station_id":"ce4bgi92rcd13ifvqb90","pricing_plan_id":"free"},{"bike_id":"1c772097-0f8e-4a7f-9543-dac990ef25af","system_id":"levelo_inurba_marseille","lat":43.299707,"lon":5.384859,"is_reserved":false,"is_disabled":false,"rental_uris":{"android":"levelo://app?vid=1c772097-0f8e-4a7f-9543-dac990ef25af","ios":"levelo://app?vid=1c772097-0f8e-4a7f-9543-dac990ef25af"},"vehicle_type_id":"4","last_reported":1689721598,"current_range_meters":30400,"station_id":"ce4bgj92rcd13ifvqbd0","pricing_plan_id":"free"},{"bike_id":"badfbcae-3bea-4c9b-b06a-421448319e08","system_id":"levelo_inurba_marseille","lat":43.299707,"lon":5.384859,"is_reserved":false,"is_disabled":false,"rental_uris":{"android":"levelo://app?vid=badfbcae-3bea-4c9b-b06a-421448319e08","ios":"levelo://app?vid=badfbcae-3bea-4c9b-b06a-421448319e08"},"vehicle_type_id":"4","last_reported":1689721598,"current_range_meters":30400,"station_id":"ce4bgj92rcd13ifvqbd0","pricing_plan_id":"free"},{"bike_id":"fe65c3f5-eaaa-43b8-b477-8d5ee12c5433","system_id":"levelo_inurba_marseille","lat":43.29973,"lon":5.38496,"is_reserved":false,"is_disabled":false,"rental_uris":{"android":"levelo://app?vid=fe65c3f5-eaaa-43b8-b477-8d5ee12c5433","ios":"levelo://app?vid=fe65c3f5-eaaa-43b8-b477-8d5ee12c5433"},"vehicle_type_id":"4","last_reported":1689721598,"current_range_meters":22400,"station_id":"ce4bgj92rcd13ifvqbd0","pricing_plan_id":"free"},{"bike_id":"40414916-a5c5-4cf2-99e8-a4b22d2d61da","system_id":"levelo_inurba_marseille","lat":43.29973,"lon":5.38502,"is_reserved":false,"is_disabled":false,"rental_uris":{"android":"levelo://app?vid=40414916-a5c5-4cf2-99e8-a4b22d2d61da","ios":"levelo://app?vid=40414916-a5c5-4cf2-99e8-a4b22d2d61da"},"vehicle_type_id":"4","last_reported":1689721598,"current_range_meters":11200,"station_id":"ce4bgj92rcd13ifvqbd0","pricing_plan_id":"free"},{"bike_id":"65126327-1721-40df-adfc-0bdf84f1817e","system_id":"levelo_inurba_marseille","lat":43.29967,"lon":5.38494,"is_reserved":false,"is_disabled":false,"rental_uris":{"android":"levelo://app?vid=65126327-1721-40df-adfc-0bdf84f1817e","ios":"levelo://app?vid=65126327-1721-40df-adfc-0bdf84f1817e"},"vehicle_type_id":"4","last_reported":1689721598,"current_range_meters":18800,"station_id":"ce4bgj92rcd13ifvqbd0","pricing_plan_id":"free"},{"bike_id":"276bc5dc-7891-45c7-9a63-5e798c041d0f","system_id":"levelo_inurba_marseille","lat":43.29968,"lon":5.38499,"is_reserved":false,"is_disabled":false,"rental_uris":{"android":"levelo://app?vid=276bc5dc-7891-45c7-9a63-5e798c041d0f","ios":"levelo://app?vid=276bc5dc-7891-45c7-9a63-5e798c041d0f"},"vehicle_type_id":"4","last_reported":1689721598,"current_range_meters":6800,"station_id":"ce4bgj92rcd13ifvqbd0","pricing_plan_id":"free"},{"bike_id":"1c770dec-0d22-49c9-bbe4-89e4d3fcf85e","system_id":"levelo_inurba_marseille","lat":43.29965,"lon":5.38495,"is_reserved":false,"is_disabled":false,"rental_uris":{"android":"levelo://app?vid=1c770dec-0d22-49c9-bbe4-89e4d3fcf85e","ios":"levelo://app?vid=1c770dec-0d22-49c9-bbe4-89e4d3fcf85e"},"vehicle_type_id":"4","last_reported":1689721598,"current_range_meters":3200,"station_id":"ce4bgj92rcd13ifvqbd0","pricing_plan_id":"free"},{"bike_id":"cf7ba923-1ffc-429f-9bfc-edc68077373d","system_id":"levelo_inurba_marseille","lat":43.29969,"lon":5.38501,"is_reserved":false,"is_disabled":false,"rental_uris":{"android":"levelo://app?vid=cf7ba923-1ffc-429f-9bfc-edc68077373d","ios":"levelo://app?vid=cf7ba923-1ffc-429f-9bfc-edc68077373d"},"vehicle_type_id":"4","last_reported":1689721598,"current_range_meters":27200,"station_id":"ce4bgj92rcd13ifvqbd0","pricing_plan_id":"free"},{"bike_id":"1a0ede6b-6dff-4345-8329-bb97a2d82933","system_id":"levelo_inurba_marseille","lat":43.29965,"lon":5.38498,"is_reserved":false,"is_disabled":false,"rental_uris":{"android":"levelo://app?vid=1a0ede6b-6dff-4345-8329-bb97a2d82933","ios":"levelo://app?vid=1a0ede6b-6dff-4345-8329-bb97a2d82933"},"vehicle_type_id":"4","last_reported":1689721598,"current_range_meters":24400,"station_id":"ce4bgj92rcd13ifvqbd0","pricing_plan_id":"free"},{"bike_id":"4b0f9873-2b73-4ac5-b623-225465cacbc7","system_id":"levelo_inurba_marseille","lat":43.29964,"lon":5.38497,"is_reserved":false,"is_disabled":false,"rental_uris":{"android":"levelo://app?vid=4b0f9873-2b73-4ac5-b623-225465cacbc7","ios":"levelo://app?vid=4b0f9873-2b73-4ac5-b623-225465cacbc7"},"vehicle_type_id":"4","last_reported":1689721598,"current_range_meters":0,"station_id":"ce4bgj92rcd13ifvqbd0","pricing_plan_id":"free"},{"bike_id":"f2cc5b5b-53a8-4b4c-8ca2-b39be4d5bd87","system_id":"levelo_inurba_marseille","lat":43.29965,"lon":5.385,"is_reserved":false,"is_disabled":false,"rental_uris":{"android":"levelo://app?vid=f2cc5b5b-53a8-4b4c-8ca2-b39be4d5bd87","ios":"levelo://app?vid=f2cc5b5b-53a8-4b4c-8ca2-b39be4d5bd87"},"vehicle_type_id":"4","last_reported":1689721598,"current_range_meters":1200,"station_id":"ce4bgj92rcd13ifvqbd0","pricing_plan_id":"free"},{"bike_id":"ee5e2eea-172a-4525-849a-945f7e821c9b","system_id":"levelo_inurba_marseille","lat":43.29967,"lon":5.38503,"is_reserved":false,"is_disabled":false,"rental_uris":{"android":"levelo://app?vid=ee5e2eea-172a-4525-849a-945f7e821c9b","ios":"levelo://app?vid=ee5e2eea-172a-4525-849a-945f7e821c9b"},"vehicle_type_id":"4","last_reported":1689721598,"current_range_meters":20400,"station_id":"ce4bgj92rcd13ifvqbd0","pricing_plan_id":"free"},{"bike_id":"55bb403e-acf5-4178-a335-344ffbf7f5f2","system_id":"levelo_inurba_marseille","lat":43.29964,"lon":5.38499,"is_reserved":false,"is_disabled":false,"rental_uris":{"android":"levelo://app?vid=55bb403e-acf5-4178-a335-344ffbf7f5f2","ios":"levelo://app?vid=55bb403e-acf5-4178-a335-344ffbf7f5f2"},"vehicle_type_id":"4","last_reported":1689721598,"current_range_meters":6000,"station_id":"ce4bgj92rcd13ifvqbd0","pricing_plan_id":"free"},{"bike_id":"81ab9bcb-b02c-4d55-9785-5cbac87e1680","system_id":"levelo_inurba_marseille","lat":43.29965,"lon":5.38501,"is_reserved":false,"is_disabled":false,"rental_uris":{"android":"levelo://app?vid=81ab9bcb-b02c-4d55-9785-5cbac87e1680","ios":"levelo://app?vid=81ab9bcb-b02c-4d55-9785-5cbac87e1680"},"vehicle_type_id":"4","last_reported":1689721598,"current_range_meters":10800,"station_id":"ce4bgj92rcd13ifvqbd0","pricing_plan_id":"free"},{"bike_id":"b4d7dcc3-facb-4ea1-ac3a-2451d6ef4b76","system_id":"levelo_inurba_marseille","lat":43.29966,"lon":5.38509,"is_reserved":false,"is_disabled":false,"rental_uris":{"android":"levelo://app?vid=b4d7dcc3-facb-4ea1-ac3a-2451d6ef4b76","ios":"levelo://app?vid=b4d7dcc3-facb-4ea1-ac3a-2451d6ef4b76"},"vehicle_type_id":"4","last_reported":1689721598,"current_range_meters":26000,"station_id":"ce4bgj92rcd13ifvqbd0","pricing_plan_id":"free"},{"bike_id":"e568c186-6167-402f-8fad-3d249a666ef8","system_id":"levelo_inurba_marseille","lat":43.29958,"lon":5.38511,"is_reserved":false,"is_disabled":false,"rental_uris":{"android":"levelo://app?vid=e568c186-6167-402f-8fad-3d249a666ef8","ios":"levelo://app?vid=e568c186-6167-402f-8fad-3d249a666ef8"},"vehicle_type_id":"4","last_reported":1689721598,"current_range_meters":6800,"station_id":"ce4bgj92rcd13ifvqbd0","pricing_plan_id":"free"},{"bike_id":"37489774-59bf-4a84-a322-f6765d786c75","system_id":"levelo_inurba_marseille","lat":43.32367,"lon":5.388836,"is_reserved":false,"is_disabled":false,"rental_uris":{"android":"levelo://app?vid=37489774-59bf-4a84-a322-f6765d786c75","ios":"levelo://app?vid=37489774-59bf-4a84-a322-f6765d786c75"},"vehicle_type_id":"4","last_reported":1689721598,"current_range_meters":9200,"station_id":"ce4bhqp2rcd13ifvqhog","pricing_plan_id":"free"},{"bike_id":"86af36f0-aa2d-4832-8dd6-f7db27de7d20","system_id":"levelo_inurba_marseille","lat":43.32367,"lon":5.388836,"is_reserved":false,"is_disabled":false,"rental_uris":{"android":"levelo://app?vid=86af36f0-aa2d-4832-8dd6-f7db27de7d20","ios":"levelo://app?vid=86af36f0-aa2d-4832-8dd6-f7db27de7d20"},"vehicle_type_id":"4","last_reported":1689721598,"current_range_meters":12400,"station_id":"ce4bhqp2rcd13ifvqhog","pricing_plan_id":"free"},{"bike_id":"5ec41c3e-a4d7-4bef-9b5f-e4125a041933","system_id":"levelo_inurba_marseille","lat":43.32363,"lon":5.38884,"is_reserved":false,"is_disabled":false,"rental_uris":{"android":"levelo://app?vid=5ec41c3e-a4d7-4bef-9b5f-e4125a041933","ios":"levelo://app?vid=5ec41c3e-a4d7-4bef-9b5f-e4125a041933"},"vehicle_type_id":"4","last_reported":1689721598,"current_range_meters":17600,"station_id":"ce4bhqp2rcd13ifvqhog","pricing_plan_id":"free"},{"bike_id":"a5ac91dd-494a-4153-ab5e-96317e5d6b50","system_id":"levelo_inurba_marseille","lat":43.32367,"lon":5.388836,"is_reserved":false,"is_disabled":false,"rental_uris":{"android":"levelo://app?vid=a5ac91dd-494a-4153-ab5e-96317e5d6b50","ios":"levelo://app?vid=a5ac91dd-494a-4153-ab5e-96317e5d6b50"},"vehicle_type_id":"4","last_reported":1689721598,"current_range_meters":21600,"station_id":"ce4bhqp2rcd13ifvqhog","pricing_plan_id":"free"},{"bike_id":"e0e94cfa-e2f8-4f09-b81f-5d644a7daab1","system_id":"levelo_inurba_marseille","lat":43.32367,"lon":5.38883,"is_reserved":false,"is_disabled":false,"rental_uris":{"android":"levelo://app?vid=e0e94cfa-e2f8-4f09-b81f-5d644a7daab1","ios":"levelo://app?vid=e0e94cfa-e2f8-4f09-b81f-5d644a7daab1"},"vehicle_type_id":"4","last_reported":1689721598,"current_range_meters":2000,"station_id":"ce4bhqp2rcd13ifvqhog","pricing_plan_id":"free"},{"bike_id":"2baf5c12-896e-4857-beb1-c0b457a46e61","system_id":"levelo_inurba_marseille","lat":43.32367,"lon":5.38884,"is_reserved":false,"is_disabled":false,"rental_uris":{"android":"levelo://app?vid=2baf5c12-896e-4857-beb1-c0b457a46e61","ios":"levelo://app?vid=2baf5c12-896e-4857-beb1-c0b457a46e61"},"vehicle_type_id":"4","last_reported":1689721598,"current_range_meters":24000,"station_id":"ce4bhqp2rcd13ifvqhog","pricing_plan_id":"free"},{"bike_id":"4290b152-9a44-4358-9a64-332a32078433","system_id":"levelo_inurba_marseille","lat":43.32367,"lon":5.388836,"is_reserved":false,"is_disabled":false,"rental_uris":{"android":"levelo://app?vid=4290b152-9a44-4358-9a64-332a32078433","ios":"levelo://app?vid=4290b152-9a44-4358-9a64-332a32078433"},"vehicle_type_id":"4","last_reported":1689721598,"current_range_meters":16400,"station_id":"ce4bhqp2rcd13ifvqhog","pricing_plan_id":"free"},{"bike_id":"fdf33e7e-bc6f-46fb-88e2-7a5aede71038","system_id":"levelo_inurba_marseille","lat":43.32364,"lon":5.38887,"is_reserved":false,"is_disabled":false,"rental_uris":{"android":"levelo://app?vid=fdf33e7e-bc6f-46fb-88e2-7a5aede71038","ios":"levelo://app?vid=fdf33e7e-bc6f-46fb-88e2-7a5aede71038"},"vehicle_type_id":"4","last_reported":1689721598,"current_range_meters":23200,"station_id":"ce4bhqp2rcd13ifvqhog","pricing_plan_id":"free"},{"bike_id":"33af6360-898e-403d-80f9-b88a5dacf14e","system_id":"levelo_inurba_marseille","lat":43.29602,"lon":5.381084,"is_reserved":false,"is_disabled":false,"rental_uris":{"android":"levelo://app?vid=33af6360-898e-403d-80f9-b88a5dacf14e","ios":"levelo://app?vid=33af6360-898e-403d-80f9-b88a5dacf14e"},"vehicle_type_id":"4","last_reported":1689721598,"current_range_meters":31200,"station_id":"ce4bgl12rcd13ifvqbo0","pricing_plan_id":"free"},{"bike_id":"a36a18ec-82c3-433d-b8dc-4cf1f72b94e7","system_id":"levelo_inurba_marseille","lat":43.29602,"lon":5.381084,"is_reserved":false,"is_disabled":false,"rental_uris":{"android":"levelo://app?vid=a36a18ec-82c3-433d-b8dc-4cf1f72b94e7","ios":"levelo://app?vid=a36a18ec-82c3-433d-b8dc-4cf1f72b94e7"},"vehicle_type_id":"4","last_reported":1689721598,"current_range_meters":31200,"station_id":"ce4bgl12rcd13ifvqbo0","pricing_plan_id":"free"},{"bike_id":"ad5889f3-e71a-4e16-89de-ffdff95c95a1","system_id":"levelo_inurba_marseille","lat":43.29332,"lon":5.37289,"is_reserved":false,"is_disabled":false,"rental_uris":{"android":"levelo://app?vid=ad5889f3-e71a-4e16-89de-ffdff95c95a1","ios":"levelo://app?vid=ad5889f3-e71a-4e16-89de-ffdff95c95a1"},"vehicle_type_id":"4","last_reported":1689721598,"current_range_meters":20800,"station_id":"","pricing_plan_id":"free"},{"bike_id":"94484169-2d51-46e6-aede-73c21eac8a82","system_id":"levelo_inurba_marseille","lat":43.30267,"lon":5.39104,"is_reserved":false,"is_disabled":false,"rental_uris":{"android":"levelo://app?vid=94484169-2d51-46e6-aede-73c21eac8a82","ios":"levelo://app?vid=94484169-2d51-46e6-aede-73c21eac8a82"},"vehicle_type_id":"4","last_reported":1689721598,"current_range_meters":24800,"station_id":"","pricing_plan_id":"free"},{"bike_id":"9f050ded-5131-4342-a298-dadde772172d","system_id":"levelo_inurba_marseille","lat":43.305994,"lon":5.393687,"is_reserved":false,"is_disabled":false,"rental_uris":{"android":"levelo://app?vid=9f050ded-5131-4342-a298-dadde772172d","ios":"levelo://app?vid=9f050ded-5131-4342-a298-dadde772172d"},"vehicle_type_id":"4","last_reported":1689721598,"current_range_meters":12000,"station_id":"ce4bh0p2rcd13ifvqd80","pricing_plan_id":"free"},{"bike_id":"ae360c4d-c96f-48df-8f89-f43a11a9a3e9","system_id":"levelo_inurba_marseille","lat":43.305994,"lon":5.393687,"is_reserved":false,"is_disabled":false,"rental_uris":{"android":"levelo://app?vid=ae360c4d-c96f-48df-8f89-f43a11a9a3e9","ios":"levelo://app?vid=ae360c4d-c96f-48df-8f89-f43a11a9a3e9"},"vehicle_type_id":"4","last_reported":1689721598,"current_range_meters":0,"station_id":"ce4bh0p2rcd13ifvqd80","pricing_plan_id":"free"},{"bike_id":"4ba63d1f-5a74-4a62-8e03-24388071fdd1","system_id":"levelo_inurba_marseille","lat":43.305994,"lon":5.393687,"is_reserved":false,"is_disabled":false,"rental_uris":{"android":"levelo://app?vid=4ba63d1f-5a74-4a62-8e03-24388071fdd1","ios":"levelo://app?vid=4ba63d1f-5a74-4a62-8e03-24388071fdd1"},"vehicle_type_id":"4","last_reported":1689721598,"current_range_meters":26800,"station_id":"ce4bh0p2rcd13ifvqd80","pricing_plan_id":"free"},{"bike_id":"60232cb3-0da8-4655-a4f9-2b9e5cb9f6fa","system_id":"levelo_inurba_marseille","lat":43.305994,"lon":5.393687,"is_reserved":false,"is_disabled":false,"rental_uris":{"android":"levelo://app?vid=60232cb3-0da8-4655-a4f9-2b9e5cb9f6fa","ios":"levelo://app?vid=60232cb3-0da8-4655-a4f9-2b9e5cb9f6fa"},"vehicle_type_id":"4","last_reported":1689721598,"current_range_meters":31200,"station_id":"ce4bh0p2rcd13ifvqd80","pricing_plan_id":"free"},{"bike_id":"8dd617d0-40ff-4c8b-9eb2-085e889ed8e3","system_id":"levelo_inurba_marseille","lat":43.305994,"lon":5.393687,"is_reserved":false,"is_disabled":false,"rental_uris":{"android":"levelo://app?vid=8dd617d0-40ff-4c8b-9eb2-085e889ed8e3","ios":"levelo://app?vid=8dd617d0-40ff-4c8b-9eb2-085e889ed8e3"},"vehicle_type_id":"4","last_reported":1689721598,"current_range_meters":1600,"station_id":"ce4bh0p2rcd13ifvqd80","pricing_plan_id":"free"},{"bike_id":"d0103d48-8e21-4287-8296-701e280d31cc","system_id":"levelo_inurba_marseille","lat":43.305994,"lon":5.393687,"is_reserved":false,"is_disabled":false,"rental_uris":{"android":"levelo://app?vid=d0103d48-8e21-4287-8296-701e280d31cc","ios":"levelo://app?vid=d0103d48-8e21-4287-8296-701e280d31cc"},"vehicle_type_id":"4","last_reported":1689721598,"current_range_meters":4000,"station_id":"ce4bh0p2rcd13ifvqd80","pricing_plan_id":"free"},{"bike_id":"47e027d7-33cd-49b8-a213-ac82982469d9","system_id":"levelo_inurba_marseille","lat":43.305994,"lon":5.393687,"is_reserved":false,"is_disabled":false,"rental_uris":{"android":"levelo://app?vid=47e027d7-33cd-49b8-a213-ac82982469d9","ios":"levelo://app?vid=47e027d7-33cd-49b8-a213-ac82982469d9"},"vehicle_type_id":"4","last_reported":1689721598,"current_range_meters":0,"station_id":"ce4bh0p2rcd13ifvqd80","pricing_plan_id":"free"},{"bike_id":"f9372e2f-0405-4bfc-b3ee-7e67093537b0","system_id":"levelo_inurba_marseille","lat":43.305994,"lon":5.393687,"is_reserved":false,"is_disabled":false,"rental_uris":{"android":"levelo://app?vid=f9372e2f-0405-4bfc-b3ee-7e67093537b0","ios":"levelo://app?vid=f9372e2f-0405-4bfc-b3ee-7e67093537b0"},"vehicle_type_id":"4","last_reported":1689721598,"current_range_meters":12400,"station_id":"ce4bh0p2rcd13ifvqd80","pricing_plan_id":"free"},{"bike_id":"b191108a-38a5-4b13-8525-ad3b11b39ed0","system_id":"levelo_inurba_marseille","lat":43.305994,"lon":5.393687,"is_reserved":false,"is_disabled":false,"rental_uris":{"android":"levelo://app?vid=b191108a-38a5-4b13-8525-ad3b11b39ed0","ios":"levelo://app?vid=b191108a-38a5-4b13-8525-ad3b11b39ed0"},"vehicle_type_id":"4","last_reported":1689721598,"current_range_meters":9200,"station_id":"ce4bh0p2rcd13ifvqd80","pricing_plan_id":"free"},{"bike_id":"10e44b5b-5ad0-4e9f-82f6-ac7deecd8f12","system_id":"levelo_inurba_marseille","lat":43.30301,"lon":5.39204,"is_reserved":false,"is_disabled":false,"rental_uris":{"android":"levelo://app?vid=10e44b5b-5ad0-4e9f-82f6-ac7deecd8f12","ios":"levelo://app?vid=10e44b5b-5ad0-4e9f-82f6-ac7deecd8f12"},"vehicle_type_id":"4","last_reported":1689721598,"current_range_meters":20400,"station_id":"ce4bgkh2rcd13ifvqbk0","pricing_plan_id":"free"},{"bike_id":"f4cef8cb-626c-4770-937c-9e6b36939546","system_id":"levelo_inurba_marseille","lat":43.302992,"lon":5.392136,"is_reserved":false,"is_disabled":false,"rental_uris":{"android":"levelo://app?vid=f4cef8cb-626c-4770-937c-9e6b36939546","ios":"levelo://app?vid=f4cef8cb-626c-4770-937c-9e6b36939546"},"vehicle_type_id":"4","last_reported":1689721598,"current_range_meters":20000,"station_id":"ce4bgkh2rcd13ifvqbk0","pricing_plan_id":"free"},{"bike_id":"7a748a92-4d37-48a5-939a-38f0476ce4f4","system_id":"levelo_inurba_marseille","lat":43.302992,"lon":5.392136,"is_reserved":false,"is_disabled":false,"rental_uris":{"android":"levelo://app?vid=7a748a92-4d37-48a5-939a-38f0476ce4f4","ios":"levelo://app?vid=7a748a92-4d37-48a5-939a-38f0476ce4f4"},"vehicle_type_id":"4","last_reported":1689721598,"current_range_meters":16000,"station_id":"ce4bgkh2rcd13ifvqbk0","pricing_plan_id":"free"},{"bike_id":"671f8cbd-4d3a-41cb-a276-7252350f3860","system_id":"levelo_inurba_marseille","lat":43.302992,"lon":5.392136,"is_reserved":false,"is_disabled":false,"rental_uris":{"android":"levelo://app?vid=671f8cbd-4d3a-41cb-a276-7252350f3860","ios":"levelo://app?vid=671f8cbd-4d3a-41cb-a276-7252350f3860"},"vehicle_type_id":"4","last_reported":1689721598,"current_range_meters":20800,"station_id":"ce4bgkh2rcd13ifvqbk0","pricing_plan_id":"free"},{"bike_id":"c33e0d26-da55-4aad-9faf-55a281df3202","system_id":"levelo_inurba_marseille","lat":43.30085,"lon":5.390856,"is_reserved":false,"is_disabled":false,"rental_uris":{"android":"levelo://app?vid=c33e0d26-da55-4aad-9faf-55a281df3202","ios":"levelo://app?vid=c33e0d26-da55-4aad-9faf-55a281df3202"},"vehicle_type_id":"4","last_reported":1689721598,"current_range_meters":28800,"station_id":"ce4bh192rcd13ifvqdb0","pricing_plan_id":"free"},{"bike_id":"bfe374d8-5da5-4ab6-96aa-49b1bc8b92e0","system_id":"levelo_inurba_marseille","lat":43.30085,"lon":5.390856,"is_reserved":false,"is_disabled":false,"rental_uris":{"android":"levelo://app?vid=bfe374d8-5da5-4ab6-96aa-49b1bc8b92e0","ios":"levelo://app?vid=bfe374d8-5da5-4ab6-96aa-49b1bc8b92e0"},"vehicle_type_id":"4","last_reported":1689721598,"current_range_meters":31600,"station_id":"ce4bh192rcd13ifvqdb0","pricing_plan_id":"free"},{"bike_id":"05911c12-db29-4578-9efe-cda63b893780","system_id":"levelo_inurba_marseille","lat":43.300852,"lon":5.390859,"is_reserved":false,"is_disabled":false,"rental_uris":{"android":"levelo://app?vid=05911c12-db29-4578-9efe-cda63b893780","ios":"levelo://app?vid=05911c12-db29-4578-9efe-cda63b893780"},"vehicle_type_id":"4","last_reported":1689721598,"current_range_meters":31600,"station_id":"ce4bh192rcd13ifvqdb0","pricing_plan_id":"free"},{"bike_id":"75580bd0-72fc-4395-a368-4de2f4ae78b0","system_id":"levelo_inurba_marseille","lat":43.300852,"lon":5.390859,"is_reserved":false,"is_disabled":false,"rental_uris":{"android":"levelo://app?vid=75580bd0-72fc-4395-a368-4de2f4ae78b0","ios":"levelo://app?vid=75580bd0-72fc-4395-a368-4de2f4ae78b0"},"vehicle_type_id":"4","last_reported":1689721598,"current_range_meters":17600,"station_id":"ce4bh192rcd13ifvqdb0","pricing_plan_id":"free"},{"bike_id":"1304b5df-c1a0-438a-9d68-87b3950b8c9e","system_id":"levelo_inurba_marseille","lat":43.30085,"lon":5.390856,"is_reserved":false,"is_disabled":false,"rental_uris":{"android":"levelo://app?vid=1304b5df-c1a0-438a-9d68-87b3950b8c9e","ios":"levelo://app?vid=1304b5df-c1a0-438a-9d68-87b3950b8c9e"},"vehicle_type_id":"4","last_reported":1689721598,"current_range_meters":25600,"station_id":"ce4bh192rcd13ifvqdb0","pricing_plan_id":"free"},{"bike_id":"49bbda67-6a9b-4b4f-a496-e8ace85afffd","system_id":"levelo_inurba_marseille","lat":43.30085,"lon":5.390856,"is_reserved":false,"is_disabled":false,"rental_uris":{"android":"levelo://app?vid=49bbda67-6a9b-4b4f-a496-e8ace85afffd","ios":"levelo://app?vid=49bbda67-6a9b-4b4f-a496-e8ace85afffd"},"vehicle_type_id":"4","last_reported":1689721598,"current_range_meters":26400,"station_id":"ce4bh192rcd13ifvqdb0","pricing_plan_id":"free"},{"bike_id":"555b0f90-85d9-4f27-a1ab-bed6ae18773f","system_id":"levelo_inurba_marseille","lat":43.29265,"lon":5.37622,"is_reserved":false,"is_disabled":false,"rental_uris":{"android":"levelo://app?vid=555b0f90-85d9-4f27-a1ab-bed6ae18773f","ios":"levelo://app?vid=555b0f90-85d9-4f27-a1ab-bed6ae18773f"},"vehicle_type_id":"4","last_reported":1689721598,"current_range_meters":29200,"station_id":"","pricing_plan_id":"free"},{"bike_id":"ad49adb1-9387-4757-961a-62a8056cca3e","system_id":"levelo_inurba_marseille","lat":43.292663,"lon":5.376389,"is_reserved":false,"is_disabled":false,"rental_uris":{"android":"levelo://app?vid=ad49adb1-9387-4757-961a-62a8056cca3e","ios":"levelo://app?vid=ad49adb1-9387-4757-961a-62a8056cca3e"},"vehicle_type_id":"4","last_reported":1689721598,"current_range_meters":28000,"station_id":"ce4bgi12rcd13ifvqb80","pricing_plan_id":"free"},{"bike_id":"31a03fdb-7ca9-484e-99af-1741d666146d","system_id":"levelo_inurba_marseille","lat":43.298764,"lon":5.388973,"is_reserved":false,"is_disabled":false,"rental_uris":{"android":"levelo://app?vid=31a03fdb-7ca9-484e-99af-1741d666146d","ios":"levelo://app?vid=31a03fdb-7ca9-484e-99af-1741d666146d"},"vehicle_type_id":"4","last_reported":1689721598,"current_range_meters":26000,"station_id":"ce4bh392rcd13ifvqdl0","pricing_plan_id":"free"},{"bike_id":"7782620e-067b-46fa-a022-94decd4f9351","system_id":"levelo_inurba_marseille","lat":43.298764,"lon":5.388973,"is_reserved":false,"is_disabled":false,"rental_uris":{"android":"levelo://app?vid=7782620e-067b-46fa-a022-94decd4f9351","ios":"levelo://app?vid=7782620e-067b-46fa-a022-94decd4f9351"},"vehicle_type_id":"4","last_reported":1689721598,"current_range_meters":13200,"station_id":"ce4bh392rcd13ifvqdl0","pricing_plan_id":"free"},{"bike_id":"c463b1de-1d0d-4727-b01a-8fa9d4fd3deb","system_id":"levelo_inurba_marseille","lat":43.298764,"lon":5.388973,"is_reserved":false,"is_disabled":false,"rental_uris":{"android":"levelo://app?vid=c463b1de-1d0d-4727-b01a-8fa9d4fd3deb","ios":"levelo://app?vid=c463b1de-1d0d-4727-b01a-8fa9d4fd3deb"},"vehicle_type_id":"4","last_reported":1689721598,"current_range_meters":17200,"station_id":"ce4bh392rcd13ifvqdl0","pricing_plan_id":"free"},{"bike_id":"2b7b01a0-4172-4068-b5dd-7f7d43415fad","system_id":"levelo_inurba_marseille","lat":43.298764,"lon":5.388973,"is_reserved":false,"is_disabled":false,"rental_uris":{"android":"levelo://app?vid=2b7b01a0-4172-4068-b5dd-7f7d43415fad","ios":"levelo://app?vid=2b7b01a0-4172-4068-b5dd-7f7d43415fad"},"vehicle_type_id":"4","last_reported":1689721598,"current_range_meters":1600,"station_id":"ce4bh392rcd13ifvqdl0","pricing_plan_id":"free"},{"bike_id":"8bcff715-88f2-42fd-a6a4-d6e36b07db72","system_id":"levelo_inurba_marseille","lat":43.298764,"lon":5.388973,"is_reserved":false,"is_disabled":false,"rental_uris":{"android":"levelo://app?vid=8bcff715-88f2-42fd-a6a4-d6e36b07db72","ios":"levelo://app?vid=8bcff715-88f2-42fd-a6a4-d6e36b07db72"},"vehicle_type_id":"4","last_reported":1689721598,"current_range_meters":21200,"station_id":"ce4bh392rcd13ifvqdl0","pricing_plan_id":"free"},{"bike_id":"7601673f-cd43-4d61-a87a-9ef03f053527","system_id":"levelo_inurba_marseille","lat":43.298764,"lon":5.388973,"is_reserved":false,"is_disabled":false,"rental_uris":{"android":"levelo://app?vid=7601673f-cd43-4d61-a87a-9ef03f053527","ios":"levelo://app?vid=7601673f-cd43-4d61-a87a-9ef03f053527"},"vehicle_type_id":"4","last_reported":1689721598,"current_range_meters":4400,"station_id":"ce4bh392rcd13ifvqdl0","pricing_plan_id":"free"},{"bike_id":"9013205a-6447-4168-99e4-2d7053f0ec88","system_id":"levelo_inurba_marseille","lat":43.298764,"lon":5.388973,"is_reserved":false,"is_disabled":false,"rental_uris":{"android":"levelo://app?vid=9013205a-6447-4168-99e4-2d7053f0ec88","ios":"levelo://app?vid=9013205a-6447-4168-99e4-2d7053f0ec88"},"vehicle_type_id":"4","last_reported":1689721598,"current_range_meters":24800,"station_id":"ce4bh392rcd13ifvqdl0","pricing_plan_id":"free"},{"bike_id":"c369d73d-8e1b-48a7-9371-193dfd4b5ad8","system_id":"levelo_inurba_marseille","lat":43.298764,"lon":5.388973,"is_reserved":false,"is_disabled":false,"rental_uris":{"android":"levelo://app?vid=c369d73d-8e1b-48a7-9371-193dfd4b5ad8","ios":"levelo://app?vid=c369d73d-8e1b-48a7-9371-193dfd4b5ad8"},"vehicle_type_id":"4","last_reported":1689721598,"current_range_meters":400,"station_id":"ce4bh392rcd13ifvqdl0","pricing_plan_id":"free"},{"bike_id":"243c2285-c7b5-451f-9698-3ee046960cb0","system_id":"levelo_inurba_marseille","lat":43.298764,"lon":5.388973,"is_reserved":false,"is_disabled":false,"rental_uris":{"android":"levelo://app?vid=243c2285-c7b5-451f-9698-3ee046960cb0","ios":"levelo://app?vid=243c2285-c7b5-451f-9698-3ee046960cb0"},"vehicle_type_id":"4","last_reported":1689721598,"current_range_meters":8000,"station_id":"ce4bh392rcd13ifvqdl0","pricing_plan_id":"free"},{"bike_id":"f89d4227-5b3a-45a8-acf7-d1c8ff595a29","system_id":"levelo_inurba_marseille","lat":43.29883,"lon":5.38916,"is_reserved":false,"is_disabled":false,"rental_uris":{"android":"levelo://app?vid=f89d4227-5b3a-45a8-acf7-d1c8ff595a29","ios":"levelo://app?vid=f89d4227-5b3a-45a8-acf7-d1c8ff595a29"},"vehicle_type_id":"4","last_reported":1689721598,"current_range_meters":23200,"station_id":"","pricing_plan_id":"free"},{"bike_id":"ef54cbd3-6071-47c6-8f88-a45eb4858763","system_id":"levelo_inurba_marseille","lat":43.298764,"lon":5.388973,"is_reserved":false,"is_disabled":false,"rental_uris":{"android":"levelo://app?vid=ef54cbd3-6071-47c6-8f88-a45eb4858763","ios":"levelo://app?vid=ef54cbd3-6071-47c6-8f88-a45eb4858763"},"vehicle_type_id":"4","last_reported":1689721598,"current_range_meters":25600,"station_id":"ce4bh392rcd13ifvqdl0","pricing_plan_id":"free"},{"bike_id":"453e8d5c-1ac4-4f76-9c28-866aba24ad9d","system_id":"levelo_inurba_marseille","lat":43.298764,"lon":5.388973,"is_reserved":false,"is_disabled":false,"rental_uris":{"android":"levelo://app?vid=453e8d5c-1ac4-4f76-9c28-866aba24ad9d","ios":"levelo://app?vid=453e8d5c-1ac4-4f76-9c28-866aba24ad9d"},"vehicle_type_id":"4","last_reported":1689721598,"current_range_meters":27600,"station_id":"ce4bh392rcd13ifvqdl0","pricing_plan_id":"free"},{"bike_id":"25e15512-6141-4c69-aebe-20d24a098538","system_id":"levelo_inurba_marseille","lat":43.298764,"lon":5.388973,"is_reserved":false,"is_disabled":false,"rental_uris":{"android":"levelo://app?vid=25e15512-6141-4c69-aebe-20d24a098538","ios":"levelo://app?vid=25e15512-6141-4c69-aebe-20d24a098538"},"vehicle_type_id":"4","last_reported":1689721598,"current_range_meters":31600,"station_id":"ce4bh392rcd13ifvqdl0","pricing_plan_id":"free"},{"bike_id":"6779dbf5-1145-415f-b1e1-42f5d4e61a54","system_id":"levelo_inurba_marseille","lat":43.291994,"lon":5.357886,"is_reserved":false,"is_disabled":false,"rental_uris":{"android":"levelo://app?vid=6779dbf5-1145-415f-b1e1-42f5d4e61a54","ios":"levelo://app?vid=6779dbf5-1145-415f-b1e1-42f5d4e61a54"},"vehicle_type_id":"4","last_reported":1689721598,"current_range_meters":21200,"station_id":"ce4bhb12rcd13ifvqel0","pricing_plan_id":"free"},{"bike_id":"cd60b1c2-fd73-4472-b305-cdc611f32f3d","system_id":"levelo_inurba_marseille","lat":43.309038,"lon":5.396546,"is_reserved":false,"is_disabled":false,"rental_uris":{"android":"levelo://app?vid=cd60b1c2-fd73-4472-b305-cdc611f32f3d","ios":"levelo://app?vid=cd60b1c2-fd73-4472-b305-cdc611f32f3d"},"vehicle_type_id":"4","last_reported":1689721598,"current_range_meters":13200,"station_id":"ce4bh012rcd13ifvqcv0","pricing_plan_id":"free"},{"bike_id":"fb0b74d9-6af3-49b0-837c-85f27d451c4c","system_id":"levelo_inurba_marseille","lat":43.313291,"lon":5.396838,"is_reserved":false,"is_disabled":false,"rental_uris":{"android":"levelo://app?vid=fb0b74d9-6af3-49b0-837c-85f27d451c4c","ios":"levelo://app?vid=fb0b74d9-6af3-49b0-837c-85f27d451c4c"},"vehicle_type_id":"4","last_reported":1689721598,"current_range_meters":0,"station_id":"ce4bgvp2rcd13ifvqcu0","pricing_plan_id":"free"},{"bike_id":"b743e2f8-ee5f-4815-a3f2-767cbe033cd4","system_id":"levelo_inurba_marseille","lat":43.313291,"lon":5.396838,"is_reserved":false,"is_disabled":false,"rental_uris":{"android":"levelo://app?vid=b743e2f8-ee5f-4815-a3f2-767cbe033cd4","ios":"levelo://app?vid=b743e2f8-ee5f-4815-a3f2-767cbe033cd4"},"vehicle_type_id":"4","last_reported":1689721598,"current_range_meters":18000,"station_id":"ce4bgvp2rcd13ifvqcu0","pricing_plan_id":"free"},{"bike_id":"16962afa-b0d0-4595-b621-cb36f849dd8a","system_id":"levelo_inurba_marseille","lat":43.313291,"lon":5.396838,"is_reserved":false,"is_disabled":false,"rental_uris":{"android":"levelo://app?vid=16962afa-b0d0-4595-b621-cb36f849dd8a","ios":"levelo://app?vid=16962afa-b0d0-4595-b621-cb36f849dd8a"},"vehicle_type_id":"4","last_reported":1689721598,"current_range_meters":0,"station_id":"ce4bgvp2rcd13ifvqcu0","pricing_plan_id":"free"},{"bike_id":"60eabdf1-3df4-45d3-a586-8227f8ae4881","system_id":"levelo_inurba_marseille","lat":43.309038,"lon":5.396546,"is_reserved":false,"is_disabled":false,"rental_uris":{"android":"levelo://app?vid=60eabdf1-3df4-45d3-a586-8227f8ae4881","ios":"levelo://app?vid=60eabdf1-3df4-45d3-a586-8227f8ae4881"},"vehicle_type_id":"4","last_reported":1689721598,"current_range_meters":4400,"station_id":"ce4bh012rcd13ifvqcv0","pricing_plan_id":"free"},{"bike_id":"81f3a67f-f4ab-4730-ae65-b8cbd2e87b12","system_id":"levelo_inurba_marseille","lat":43.313291,"lon":5.396838,"is_reserved":false,"is_disabled":false,"rental_uris":{"android":"levelo://app?vid=81f3a67f-f4ab-4730-ae65-b8cbd2e87b12","ios":"levelo://app?vid=81f3a67f-f4ab-4730-ae65-b8cbd2e87b12"},"vehicle_type_id":"4","last_reported":1689721598,"current_range_meters":25600,"station_id":"ce4bgvp2rcd13ifvqcu0","pricing_plan_id":"free"},{"bike_id":"42590978-69ff-4e55-95be-943b603d30a1","system_id":"levelo_inurba_marseille","lat":43.309038,"lon":5.396546,"is_reserved":false,"is_disabled":false,"rental_uris":{"android":"levelo://app?vid=42590978-69ff-4e55-95be-943b603d30a1","ios":"levelo://app?vid=42590978-69ff-4e55-95be-943b603d30a1"},"vehicle_type_id":"4","last_reported":1689721598,"current_range_meters":0,"station_id":"ce4bh012rcd13ifvqcv0","pricing_plan_id":"free"},{"bike_id":"053b46e9-a1d4-49d5-a63f-d6cc85f9b736","system_id":"levelo_inurba_marseille","lat":43.313291,"lon":5.396838,"is_reserved":false,"is_disabled":false,"rental_uris":{"android":"levelo://app?vid=053b46e9-a1d4-49d5-a63f-d6cc85f9b736","ios":"levelo://app?vid=053b46e9-a1d4-49d5-a63f-d6cc85f9b736"},"vehicle_type_id":"4","last_reported":1689721598,"current_range_meters":20800,"station_id":"ce4bgvp2rcd13ifvqcu0","pricing_plan_id":"free"},{"bike_id":"ba30c54b-b0d1-4816-9b03-a44e73f82aec","system_id":"levelo_inurba_marseille","lat":43.309038,"lon":5.396546,"is_reserved":false,"is_disabled":false,"rental_uris":{"android":"levelo://app?vid=ba30c54b-b0d1-4816-9b03-a44e73f82aec","ios":"levelo://app?vid=ba30c54b-b0d1-4816-9b03-a44e73f82aec"},"vehicle_type_id":"4","last_reported":1689721598,"current_range_meters":17200,"station_id":"ce4bh012rcd13ifvqcv0","pricing_plan_id":"free"},{"bike_id":"53b0affe-eec3-465c-8183-0c16161b3491","system_id":"levelo_inurba_marseille","lat":43.309038,"lon":5.396546,"is_reserved":false,"is_disabled":false,"rental_uris":{"android":"levelo://app?vid=53b0affe-eec3-465c-8183-0c16161b3491","ios":"levelo://app?vid=53b0affe-eec3-465c-8183-0c16161b3491"},"vehicle_type_id":"4","last_reported":1689721598,"current_range_meters":8000,"station_id":"ce4bh012rcd13ifvqcv0","pricing_plan_id":"free"},{"bike_id":"1f0c3301-7dcc-44e2-8728-9d12fb512c7e","system_id":"levelo_inurba_marseille","lat":43.309038,"lon":5.396546,"is_reserved":false,"is_disabled":false,"rental_uris":{"android":"levelo://app?vid=1f0c3301-7dcc-44e2-8728-9d12fb512c7e","ios":"levelo://app?vid=1f0c3301-7dcc-44e2-8728-9d12fb512c7e"},"vehicle_type_id":"4","last_reported":1689721598,"current_range_meters":11200,"station_id":"ce4bh012rcd13ifvqcv0","pricing_plan_id":"free"},{"bike_id":"68c1a075-d57b-454d-b4fe-76e9e4e420f0","system_id":"levelo_inurba_marseille","lat":43.309038,"lon":5.396546,"is_reserved":false,"is_disabled":false,"rental_uris":{"android":"levelo://app?vid=68c1a075-d57b-454d-b4fe-76e9e4e420f0","ios":"levelo://app?vid=68c1a075-d57b-454d-b4fe-76e9e4e420f0"},"vehicle_type_id":"4","last_reported":1689721598,"current_range_meters":5200,"station_id":"ce4bh012rcd13ifvqcv0","pricing_plan_id":"free"},{"bike_id":"b94a1ab7-2826-402f-b044-922406236b48","system_id":"levelo_inurba_marseille","lat":43.309038,"lon":5.396546,"is_reserved":false,"is_disabled":false,"rental_uris":{"android":"levelo://app?vid=b94a1ab7-2826-402f-b044-922406236b48","ios":"levelo://app?vid=b94a1ab7-2826-402f-b044-922406236b48"},"vehicle_type_id":"4","last_reported":1689721598,"current_range_meters":4800,"station_id":"ce4bh012rcd13ifvqcv0","pricing_plan_id":"free"},{"bike_id":"9555ef8b-4ab6-404f-a000-f5c74d5d7469","system_id":"levelo_inurba_marseille","lat":43.309038,"lon":5.396546,"is_reserved":false,"is_disabled":false,"rental_uris":{"android":"levelo://app?vid=9555ef8b-4ab6-404f-a000-f5c74d5d7469","ios":"levelo://app?vid=9555ef8b-4ab6-404f-a000-f5c74d5d7469"},"vehicle_type_id":"4","last_reported":1689721598,"current_range_meters":9600,"station_id":"ce4bh012rcd13ifvqcv0","pricing_plan_id":"free"},{"bike_id":"fbdc8830-4d47-4f54-822f-7c0c88c6940d","system_id":"levelo_inurba_marseille","lat":43.309038,"lon":5.396546,"is_reserved":false,"is_disabled":false,"rental_uris":{"android":"levelo://app?vid=fbdc8830-4d47-4f54-822f-7c0c88c6940d","ios":"levelo://app?vid=fbdc8830-4d47-4f54-822f-7c0c88c6940d"},"vehicle_type_id":"4","last_reported":1689721598,"current_range_meters":20800,"station_id":"ce4bh012rcd13ifvqcv0","pricing_plan_id":"free"},{"bike_id":"ba83840b-de22-459a-97b8-7116cdba1ee7","system_id":"levelo_inurba_marseille","lat":43.309038,"lon":5.396546,"is_reserved":false,"is_disabled":false,"rental_uris":{"android":"levelo://app?vid=ba83840b-de22-459a-97b8-7116cdba1ee7","ios":"levelo://app?vid=ba83840b-de22-459a-97b8-7116cdba1ee7"},"vehicle_type_id":"4","last_reported":1689721598,"current_range_meters":30400,"station_id":"ce4bh012rcd13ifvqcv0","pricing_plan_id":"free"},{"bike_id":"2f4dbb78-e4da-436e-9e1a-38d2d3ac8cfc","system_id":"levelo_inurba_marseille","lat":43.309038,"lon":5.396546,"is_reserved":false,"is_disabled":false,"rental_uris":{"android":"levelo://app?vid=2f4dbb78-e4da-436e-9e1a-38d2d3ac8cfc","ios":"levelo://app?vid=2f4dbb78-e4da-436e-9e1a-38d2d3ac8cfc"},"vehicle_type_id":"4","last_reported":1689721598,"current_range_meters":13600,"station_id":"ce4bh012rcd13ifvqcv0","pricing_plan_id":"free"},{"bike_id":"7b7d447f-a77a-42ba-bbac-a68d8527f40f","system_id":"levelo_inurba_marseille","lat":43.309038,"lon":5.396546,"is_reserved":false,"is_disabled":false,"rental_uris":{"android":"levelo://app?vid=7b7d447f-a77a-42ba-bbac-a68d8527f40f","ios":"levelo://app?vid=7b7d447f-a77a-42ba-bbac-a68d8527f40f"},"vehicle_type_id":"4","last_reported":1689721598,"current_range_meters":23200,"station_id":"ce4bh012rcd13ifvqcv0","pricing_plan_id":"free"},{"bike_id":"6e23cd9d-44c2-489f-ba55-76d6bdb11da0","system_id":"levelo_inurba_marseille","lat":43.309038,"lon":5.396546,"is_reserved":false,"is_disabled":false,"rental_uris":{"android":"levelo://app?vid=6e23cd9d-44c2-489f-ba55-76d6bdb11da0","ios":"levelo://app?vid=6e23cd9d-44c2-489f-ba55-76d6bdb11da0"},"vehicle_type_id":"4","last_reported":1689721598,"current_range_meters":11600,"station_id":"ce4bh012rcd13ifvqcv0","pricing_plan_id":"free"},{"bike_id":"b4e22dba-0de4-40ea-8917-d35a310e7a6a","system_id":"levelo_inurba_marseille","lat":43.29536,"lon":5.38541,"is_reserved":false,"is_disabled":false,"rental_uris":{"android":"levelo://app?vid=b4e22dba-0de4-40ea-8917-d35a310e7a6a","ios":"levelo://app?vid=b4e22dba-0de4-40ea-8917-d35a310e7a6a"},