{"last_updated":1776793860,"ttl":60,"version":"2.2","data":{"bikes":[{"bike_id":"b10d10f3-51c2-499e-9c6b-9de15b65136d","system_id":"levelo_inurba_marseille","lat":43.30089,"lon":5.39069,"is_reserved":false,"is_disabled":false,"rental_uris":{"android":"levelo://app?vid=b10d10f3-51c2-499e-9c6b-9de15b65136d","ios":"levelo://app?vid=b10d10f3-51c2-499e-9c6b-9de15b65136d"},"vehicle_type_id":"4","last_reported":1776793861,"current_range_meters":2800,"station_id":"ce4bh192rcd13ifvqdb0","pricing_plan_id":"cebpf4jnsgd1na2vs0mg"},{"bike_id":"94dcfb17-25d7-40e8-a163-0de5d10addf8","system_id":"levelo_inurba_marseille","lat":43.27211,"lon":5.39184,"is_reserved":false,"is_disabled":false,"rental_uris":{"android":"levelo://app?vid=94dcfb17-25d7-40e8-a163-0de5d10addf8","ios":"levelo://app?vid=94dcfb17-25d7-40e8-a163-0de5d10addf8"},"vehicle_type_id":"4","last_reported":1776793861,"current_range_meters":2800,"station_id":"ce4bhhp2rcd13ifvqfm0","pricing_plan_id":"cebpf4jnsgd1na2vs0mg"},{"bike_id":"ae327807-d8ff-45af-b8c4-c90d3303c082","system_id":"levelo_inurba_marseille","lat":43.28476,"lon":5.48388,"is_reserved":false,"is_disabled":false,"rental_uris":{"android":"levelo://app?vid=ae327807-d8ff-45af-b8c4-c90d3303c082","ios":"levelo://app?vid=ae327807-d8ff-45af-b8c4-c90d3303c082"},"vehicle_type_id":"4","last_reported":1776793861,"current_range_meters":2800,"station_id":"","pricing_plan_id":"cebpf4jnsgd1na2vs0mg"},{"bike_id":"f5780028-357c-4445-9a7c-16bf32c9bb44","system_id":"levelo_inurba_marseille","lat":43.272296,"lon":5.390807,"is_reserved":false,"is_disabled":false,"rental_uris":{"android":"levelo://app?vid=f5780028-357c-4445-9a7c-16bf32c9bb44","ios":"levelo://app?vid=f5780028-357c-4445-9a7c-16bf32c9bb44"},"vehicle_type_id":"4","last_reported":1776793861,"current_range_meters":2800,"station_id":"ce4bh292rcd13ifvqdg0","pricing_plan_id":"cebpf4jnsgd1na2vs0mg"},{"bike_id":"a2e0a403-6fb6-4418-9b19-ecf66709fae6","system_id":"levelo_inurba_marseille","lat":43.2869,"lon":5.46685,"is_reserved":false,"is_disabled":false,"rental_uris":{"android":"levelo://app?vid=a2e0a403-6fb6-4418-9b19-ecf66709fae6","ios":"levelo://app?vid=a2e0a403-6fb6-4418-9b19-ecf66709fae6"},"vehicle_type_id":"4","last_reported":1776793861,"current_range_meters":2800,"station_id":"st_d6tc3vkotcvc738tfjhg","pricing_plan_id":"cebpf4jnsgd1na2vs0mg"},{"bike_id":"a7020a93-7c00-4fec-b1a2-4f1670bbc6d7","system_id":"levelo_inurba_marseille","lat":43.23829,"lon":5.41329,"is_reserved":false,"is_disabled":false,"rental_uris":{"android":"levelo://app?vid=a7020a93-7c00-4fec-b1a2-4f1670bbc6d7","ios":"levelo://app?vid=a7020a93-7c00-4fec-b1a2-4f1670bbc6d7"},"vehicle_type_id":"4","last_reported":1776793861,"current_range_meters":2800,"station_id":"","pricing_plan_id":"cebpf4jnsgd1na2vs0mg"},{"bike_id":"f1dc6c9c-e9a3-4937-b042-bcfba714f415","system_id":"levelo_inurba_marseille","lat":43.29596,"lon":5.37403,"is_reserved":false,"is_disabled":false,"rental_uris":{"android":"levelo://app?vid=f1dc6c9c-e9a3-4937-b042-bcfba714f415","ios":"levelo://app?vid=f1dc6c9c-e9a3-4937-b042-bcfba714f415"},"vehicle_type_id":"4","last_reported":1776793861,"current_range_meters":2800,"station_id":"","pricing_plan_id":"cebpf4jnsgd1na2vs0mg"},{"bike_id":"0f5113d1-d0df-41dd-a910-454fc6a0c468","system_id":"levelo_inurba_marseille","lat":43.27385,"lon":5.36235,"is_reserved":false,"is_disabled":false,"rental_uris":{"android":"levelo://app?vid=0f5113d1-d0df-41dd-a910-454fc6a0c468","ios":"levelo://app?vid=0f5113d1-d0df-41dd-a910-454fc6a0c468"},"vehicle_type_id":"4","last_reported":1776793861,"current_range_meters":2800,"station_id":"ce4bhbh2rcd13ifvqeo0","pricing_plan_id":"cebpf4jnsgd1na2vs0mg"},{"bike_id":"29925e26-dafa-46b6-af7d-d2bf7e06b562","system_id":"levelo_inurba_marseille","lat":43.29623,"lon":5.37714,"is_reserved":false,"is_disabled":false,"rental_uris":{"android":"levelo://app?vid=29925e26-dafa-46b6-af7d-d2bf7e06b562","ios":"levelo://app?vid=29925e26-dafa-46b6-af7d-d2bf7e06b562"},"vehicle_type_id":"4","last_reported":1776793861,"current_range_meters":2800,"station_id":"ce4bgi92rcd13ifvqb90","pricing_plan_id":"cebpf4jnsgd1na2vs0mg"},{"bike_id":"af07daeb-e25b-4b95-bf76-838175c674e6","system_id":"levelo_inurba_marseille","lat":43.27679,"lon":5.3888,"is_reserved":false,"is_disabled":false,"rental_uris":{"android":"levelo://app?vid=af07daeb-e25b-4b95-bf76-838175c674e6","ios":"levelo://app?vid=af07daeb-e25b-4b95-bf76-838175c674e6"},"vehicle_type_id":"4","last_reported":1776793861,"current_range_meters":2800,"station_id":"ce4bhi12rcd13ifvqfo0","pricing_plan_id":"cebpf4jnsgd1na2vs0mg"},{"bike_id":"9972dd89-11d8-4025-b2cb-9379d0f72274","system_id":"levelo_inurba_marseille","lat":43.28349,"lon":5.38102,"is_reserved":false,"is_disabled":false,"rental_uris":{"android":"levelo://app?vid=9972dd89-11d8-4025-b2cb-9379d0f72274","ios":"levelo://app?vid=9972dd89-11d8-4025-b2cb-9379d0f72274"},"vehicle_type_id":"4","last_reported":1776793861,"current_range_meters":2800,"station_id":"ce4bh412rcd13ifvqdr0","pricing_plan_id":"cebpf4jnsgd1na2vs0mg"},{"bike_id":"2050f55b-1f31-4d68-85ca-fe667be01b30","system_id":"levelo_inurba_marseille","lat":43.25103,"lon":5.40334,"is_reserved":false,"is_disabled":false,"rental_uris":{"android":"levelo://app?vid=2050f55b-1f31-4d68-85ca-fe667be01b30","ios":"levelo://app?vid=2050f55b-1f31-4d68-85ca-fe667be01b30"},"vehicle_type_id":"4","last_reported":1776793861,"current_range_meters":2800,"station_id":"ce4bhlh2rcd13ifvqgig","pricing_plan_id":"cebpf4jnsgd1na2vs0mg"},{"bike_id":"48713af2-72c3-4ac6-97df-5f2e919c9f23","system_id":"levelo_inurba_marseille","lat":43.29051,"lon":5.4271,"is_reserved":false,"is_disabled":false,"rental_uris":{"android":"levelo://app?vid=48713af2-72c3-4ac6-97df-5f2e919c9f23","ios":"levelo://app?vid=48713af2-72c3-4ac6-97df-5f2e919c9f23"},"vehicle_type_id":"4","last_reported":1776793861,"current_range_meters":3200,"station_id":"","pricing_plan_id":"cebpf4jnsgd1na2vs0mg"},{"bike_id":"a6ff23e7-0235-4a88-b31c-c8806950b035","system_id":"levelo_inurba_marseille","lat":43.30949,"lon":5.39025,"is_reserved":false,"is_disabled":false,"rental_uris":{"android":"levelo://app?vid=a6ff23e7-0235-4a88-b31c-c8806950b035","ios":"levelo://app?vid=a6ff23e7-0235-4a88-b31c-c8806950b035"},"vehicle_type_id":"4","last_reported":1776793861,"current_range_meters":3200,"station_id":"ce4bgup2rcd13ifvqco0","pricing_plan_id":"cebpf4jnsgd1na2vs0mg"},{"bike_id":"6752d7ed-9b6b-4d1a-b80c-c596f7ae85f7","system_id":"levelo_inurba_marseille","lat":43.28618,"lon":5.35106,"is_reserved":false,"is_disabled":false,"rental_uris":{"android":"levelo://app?vid=6752d7ed-9b6b-4d1a-b80c-c596f7ae85f7","ios":"levelo://app?vid=6752d7ed-9b6b-4d1a-b80c-c596f7ae85f7"},"vehicle_type_id":"4","last_reported":1776793861,"current_range_meters":3200,"station_id":"ce4bhch2rcd13ifvqeug","pricing_plan_id":"cebpf4jnsgd1na2vs0mg"},{"bike_id":"33ff819f-543e-4962-b40d-8a18da3bd5a5","system_id":"levelo_inurba_marseille","lat":43.29531,"lon":5.38537,"is_reserved":false,"is_disabled":false,"rental_uris":{"android":"levelo://app?vid=33ff819f-543e-4962-b40d-8a18da3bd5a5","ios":"levelo://app?vid=33ff819f-543e-4962-b40d-8a18da3bd5a5"},"vehicle_type_id":"4","last_reported":1776793861,"current_range_meters":3200,"station_id":"ce4bgih2rcd13ifvqba0","pricing_plan_id":"cebpf4jnsgd1na2vs0mg"},{"bike_id":"a241507f-1354-498f-8fef-2437e8ce9d75","system_id":"levelo_inurba_marseille","lat":43.30654,"lon":5.40093,"is_reserved":false,"is_disabled":false,"rental_uris":{"android":"levelo://app?vid=a241507f-1354-498f-8fef-2437e8ce9d75","ios":"levelo://app?vid=a241507f-1354-498f-8fef-2437e8ce9d75"},"vehicle_type_id":"4","last_reported":1776793861,"current_range_meters":3200,"station_id":"ce4bh112rcd13ifvqda0","pricing_plan_id":"cebpf4jnsgd1na2vs0mg"},{"bike_id":"e47e01b8-6db2-4b39-ac1f-c8b2f27df461","system_id":"levelo_inurba_marseille","lat":43.25198,"lon":5.38031,"is_reserved":false,"is_disabled":false,"rental_uris":{"android":"levelo://app?vid=e47e01b8-6db2-4b39-ac1f-c8b2f27df461","ios":"levelo://app?vid=e47e01b8-6db2-4b39-ac1f-c8b2f27df461"},"vehicle_type_id":"4","last_reported":1776793861,"current_range_meters":3200,"station_id":"","pricing_plan_id":"cebpf4jnsgd1na2vs0mg"},{"bike_id":"973797d2-0b74-4f66-a28c-727366823c4e","system_id":"levelo_inurba_marseille","lat":43.27197,"lon":5.4099,"is_reserved":false,"is_disabled":false,"rental_uris":{"android":"levelo://app?vid=973797d2-0b74-4f66-a28c-727366823c4e","ios":"levelo://app?vid=973797d2-0b74-4f66-a28c-727366823c4e"},"vehicle_type_id":"4","last_reported":1776793861,"current_range_meters":3200,"station_id":"ce4bhl12rcd13ifvqgf0","pricing_plan_id":"cebpf4jnsgd1na2vs0mg"},{"bike_id":"a2f16209-a68b-401b-91f8-28a5abbac2b6","system_id":"levelo_inurba_marseille","lat":43.29426,"lon":5.37384,"is_reserved":false,"is_disabled":false,"rental_uris":{"android":"levelo://app?vid=a2f16209-a68b-401b-91f8-28a5abbac2b6","ios":"levelo://app?vid=a2f16209-a68b-401b-91f8-28a5abbac2b6"},"vehicle_type_id":"4","last_reported":1776793861,"current_range_meters":3200,"station_id":"","pricing_plan_id":"cebpf4jnsgd1na2vs0mg"},{"bike_id":"8a37c5ab-4375-4e5a-adb5-6c3916701d5b","system_id":"levelo_inurba_marseille","lat":43.29371,"lon":5.37853,"is_reserved":false,"is_disabled":false,"rental_uris":{"android":"levelo://app?vid=8a37c5ab-4375-4e5a-adb5-6c3916701d5b","ios":"levelo://app?vid=8a37c5ab-4375-4e5a-adb5-6c3916701d5b"},"vehicle_type_id":"4","last_reported":1776793861,"current_range_meters":3200,"station_id":"ce4bgjh2rcd13ifvqbf0","pricing_plan_id":"cebpf4jnsgd1na2vs0mg"},{"bike_id":"b2011645-cbc6-44f3-8c33-1aca90ae2d9e","system_id":"levelo_inurba_marseille","lat":43.23222,"lon":5.35136,"is_reserved":false,"is_disabled":false,"rental_uris":{"android":"levelo://app?vid=b2011645-cbc6-44f3-8c33-1aca90ae2d9e","ios":"levelo://app?vid=b2011645-cbc6-44f3-8c33-1aca90ae2d9e"},"vehicle_type_id":"4","last_reported":1776793861,"current_range_meters":3200,"station_id":"","pricing_plan_id":"cebpf4jnsgd1na2vs0mg"},{"bike_id":"2227aa0b-260b-48d9-a27c-ec5a04782447","system_id":"levelo_inurba_marseille","lat":43.30948,"lon":5.39046,"is_reserved":false,"is_disabled":false,"rental_uris":{"android":"levelo://app?vid=2227aa0b-260b-48d9-a27c-ec5a04782447","ios":"levelo://app?vid=2227aa0b-260b-48d9-a27c-ec5a04782447"},"vehicle_type_id":"4","last_reported":1776793861,"current_range_meters":3200,"station_id":"ce4bgup2rcd13ifvqco0","pricing_plan_id":"cebpf4jnsgd1na2vs0mg"},{"bike_id":"2a03fcc5-70c4-447b-91f6-aa37ba7c6426","system_id":"levelo_inurba_marseille","lat":43.28358,"lon":5.38105,"is_reserved":false,"is_disabled":false,"rental_uris":{"android":"levelo://app?vid=2a03fcc5-70c4-447b-91f6-aa37ba7c6426","ios":"levelo://app?vid=2a03fcc5-70c4-447b-91f6-aa37ba7c6426"},"vehicle_type_id":"4","last_reported":1776793861,"current_range_meters":3200,"station_id":"ce4bh412rcd13ifvqdr0","pricing_plan_id":"cebpf4jnsgd1na2vs0mg"},{"bike_id":"128050fb-14a4-4aa0-bb8f-0562f34c687d","system_id":"levelo_inurba_marseille","lat":43.30135,"lon":5.38781,"is_reserved":false,"is_disabled":false,"rental_uris":{"android":"levelo://app?vid=128050fb-14a4-4aa0-bb8f-0562f34c687d","ios":"levelo://app?vid=128050fb-14a4-4aa0-bb8f-0562f34c687d"},"vehicle_type_id":"4","last_reported":1776793861,"current_range_meters":3200,"station_id":"ce4bghh2rcd13ifvqb60","pricing_plan_id":"cebpf4jnsgd1na2vs0mg"},{"bike_id":"707167e3-6ac2-4547-aa18-57395eb012eb","system_id":"levelo_inurba_marseille","lat":43.28419,"lon":5.34977,"is_reserved":false,"is_disabled":false,"rental_uris":{"android":"levelo://app?vid=707167e3-6ac2-4547-aa18-57395eb012eb","ios":"levelo://app?vid=707167e3-6ac2-4547-aa18-57395eb012eb"},"vehicle_type_id":"4","last_reported":1776793861,"current_range_meters":3200,"station_id":"ce4bhbh2rcd13ifvqepg","pricing_plan_id":"cebpf4jnsgd1na2vs0mg"},{"bike_id":"82e4a329-5952-4081-9814-b1ad72240a02","system_id":"levelo_inurba_marseille","lat":43.26056,"lon":5.39932,"is_reserved":false,"is_disabled":false,"rental_uris":{"android":"levelo://app?vid=82e4a329-5952-4081-9814-b1ad72240a02","ios":"levelo://app?vid=82e4a329-5952-4081-9814-b1ad72240a02"},"vehicle_type_id":"4","last_reported":1776793861,"current_range_meters":3200,"station_id":"","pricing_plan_id":"cebpf4jnsgd1na2vs0mg"},{"bike_id":"a4e0f64d-01c4-4b0d-9de4-db9e20bfbea8","system_id":"levelo_inurba_marseille","lat":43.23193,"lon":5.35549,"is_reserved":false,"is_disabled":false,"rental_uris":{"android":"levelo://app?vid=a4e0f64d-01c4-4b0d-9de4-db9e20bfbea8","ios":"levelo://app?vid=a4e0f64d-01c4-4b0d-9de4-db9e20bfbea8"},"vehicle_type_id":"4","last_reported":1776793861,"current_range_meters":3200,"station_id":"ce4bhu92rcd13ifvqi70","pricing_plan_id":"cebpf4jnsgd1na2vs0mg"},{"bike_id":"491e2094-3f85-4b7c-9b15-f0a1616788aa","system_id":"levelo_inurba_marseille","lat":43.31884,"lon":5.40733,"is_reserved":false,"is_disabled":false,"rental_uris":{"android":"levelo://app?vid=491e2094-3f85-4b7c-9b15-f0a1616788aa","ios":"levelo://app?vid=491e2094-3f85-4b7c-9b15-f0a1616788aa"},"vehicle_type_id":"4","last_reported":1776793861,"current_range_meters":3600,"station_id":"ce4bhq12rcd13ifvqhig","pricing_plan_id":"cebpf4jnsgd1na2vs0mg"},{"bike_id":"425b6fa7-0c95-4986-8e8d-f3421cc31abf","system_id":"levelo_inurba_marseille","lat":43.29117,"lon":5.36178,"is_reserved":false,"is_disabled":false,"rental_uris":{"android":"levelo://app?vid=425b6fa7-0c95-4986-8e8d-f3421cc31abf","ios":"levelo://app?vid=425b6fa7-0c95-4986-8e8d-f3421cc31abf"},"vehicle_type_id":"4","last_reported":1776793861,"current_range_meters":3600,"station_id":"ce4bhbh2rcd13ifvqeqg","pricing_plan_id":"cebpf4jnsgd1na2vs0mg"},{"bike_id":"9f7a0e14-1758-4f1c-8276-8b128122e059","system_id":"levelo_inurba_marseille","lat":43.28953,"lon":5.36624,"is_reserved":false,"is_disabled":false,"rental_uris":{"android":"levelo://app?vid=9f7a0e14-1758-4f1c-8276-8b128122e059","ios":"levelo://app?vid=9f7a0e14-1758-4f1c-8276-8b128122e059"},"vehicle_type_id":"4","last_reported":1776793861,"current_range_meters":3600,"station_id":"ce4bhap2rcd13ifvqek0","pricing_plan_id":"cebpf4jnsgd1na2vs0mg"},{"bike_id":"1aa749ea-9602-4335-a192-634e3cccd4d6","system_id":"levelo_inurba_marseille","lat":43.29016,"lon":5.38135,"is_reserved":false,"is_disabled":false,"rental_uris":{"android":"levelo://app?vid=1aa749ea-9602-4335-a192-634e3cccd4d6","ios":"levelo://app?vid=1aa749ea-9602-4335-a192-634e3cccd4d6"},"vehicle_type_id":"4","last_reported":1776793861,"current_range_meters":3600,"station_id":"ce4bh4p2rcd13ifvqe1g","pricing_plan_id":"cebpf4jnsgd1na2vs0mg"},{"bike_id":"30d87ff1-3522-4098-a0b4-a7d36c1bced3","system_id":"levelo_inurba_marseille","lat":43.2762,"lon":5.36109,"is_reserved":false,"is_disabled":false,"rental_uris":{"android":"levelo://app?vid=30d87ff1-3522-4098-a0b4-a7d36c1bced3","ios":"levelo://app?vid=30d87ff1-3522-4098-a0b4-a7d36c1bced3"},"vehicle_type_id":"4","last_reported":1776793861,"current_range_meters":3600,"station_id":"ce4bgj92rcd13ifvqbe0","pricing_plan_id":"cebpf4jnsgd1na2vs0mg"},{"bike_id":"eea99321-c8b7-4d83-8193-cec232c32610","system_id":"levelo_inurba_marseille","lat":43.29642,"lon":5.37143,"is_reserved":false,"is_disabled":false,"rental_uris":{"android":"levelo://app?vid=eea99321-c8b7-4d83-8193-cec232c32610","ios":"levelo://app?vid=eea99321-c8b7-4d83-8193-cec232c32610"},"vehicle_type_id":"4","last_reported":1776793861,"current_range_meters":3600,"station_id":"ce4bgnh2rcd13ifvqc0g","pricing_plan_id":"cebpf4jnsgd1na2vs0mg"},{"bike_id":"81494501-cf66-4ccf-9591-36a559c84642","system_id":"levelo_inurba_marseille","lat":43.30207,"lon":5.39465,"is_reserved":false,"is_disabled":false,"rental_uris":{"android":"levelo://app?vid=81494501-cf66-4ccf-9591-36a559c84642","ios":"levelo://app?vid=81494501-cf66-4ccf-9591-36a559c84642"},"vehicle_type_id":"4","last_reported":1776793861,"current_range_meters":3600,"station_id":"ce4bh0p2rcd13ifvqd70","pricing_plan_id":"cebpf4jnsgd1na2vs0mg"},{"bike_id":"44e52038-d6a6-4ccf-a0e7-c5d143a3bed7","system_id":"levelo_inurba_marseille","lat":43.29531,"lon":5.37506,"is_reserved":false,"is_disabled":false,"rental_uris":{"android":"levelo://app?vid=44e52038-d6a6-4ccf-a0e7-c5d143a3bed7","ios":"levelo://app?vid=44e52038-d6a6-4ccf-a0e7-c5d143a3bed7"},"vehicle_type_id":"4","last_reported":1776793861,"current_range_meters":3600,"station_id":"ce4bgkp2rcd13ifvqbmg","pricing_plan_id":"cebpf4jnsgd1na2vs0mg"},{"bike_id":"f8f8aa4f-7d3a-46e0-84b5-afc05bec6d51","system_id":"levelo_inurba_marseille","lat":43.24954,"lon":5.40501,"is_reserved":false,"is_disabled":false,"rental_uris":{"android":"levelo://app?vid=f8f8aa4f-7d3a-46e0-84b5-afc05bec6d51","ios":"levelo://app?vid=f8f8aa4f-7d3a-46e0-84b5-afc05bec6d51"},"vehicle_type_id":"4","last_reported":1776793861,"current_range_meters":3600,"station_id":"st_d2ngiaodas8pm72gd1h0","pricing_plan_id":"cebpf4jnsgd1na2vs0mg"},{"bike_id":"22033817-0b57-4aac-b4c2-cb663c9a4002","system_id":"levelo_inurba_marseille","lat":43.31161,"lon":5.38971,"is_reserved":false,"is_disabled":false,"rental_uris":{"android":"levelo://app?vid=22033817-0b57-4aac-b4c2-cb663c9a4002","ios":"levelo://app?vid=22033817-0b57-4aac-b4c2-cb663c9a4002"},"vehicle_type_id":"4","last_reported":1776793861,"current_range_meters":3600,"station_id":"","pricing_plan_id":"cebpf4jnsgd1na2vs0mg"},{"bike_id":"57102544-5bd6-4728-a8e6-bdbd9350d143","system_id":"levelo_inurba_marseille","lat":43.30134,"lon":5.37428,"is_reserved":false,"is_disabled":false,"rental_uris":{"android":"levelo://app?vid=57102544-5bd6-4728-a8e6-bdbd9350d143","ios":"levelo://app?vid=57102544-5bd6-4728-a8e6-bdbd9350d143"},"vehicle_type_id":"4","last_reported":1776793861,"current_range_meters":4000,"station_id":"ce4bgs92rcd13ifvqcc0","pricing_plan_id":"cebpf4jnsgd1na2vs0mg"},{"bike_id":"678be1e3-7bf2-4e61-8458-42d5abd6c5bd","system_id":"levelo_inurba_marseille","lat":43.33758,"lon":5.37483,"is_reserved":false,"is_disabled":false,"rental_uris":{"android":"levelo://app?vid=678be1e3-7bf2-4e61-8458-42d5abd6c5bd","ios":"levelo://app?vid=678be1e3-7bf2-4e61-8458-42d5abd6c5bd"},"vehicle_type_id":"4","last_reported":1776793861,"current_range_meters":4000,"station_id":"","pricing_plan_id":"cebpf4jnsgd1na2vs0mg"},{"bike_id":"1f7a2d29-0ba7-4b8b-9cac-6ff894aac21f","system_id":"levelo_inurba_marseille","lat":43.32958,"lon":5.38956,"is_reserved":false,"is_disabled":false,"rental_uris":{"android":"levelo://app?vid=1f7a2d29-0ba7-4b8b-9cac-6ff894aac21f","ios":"levelo://app?vid=1f7a2d29-0ba7-4b8b-9cac-6ff894aac21f"},"vehicle_type_id":"4","last_reported":1776793861,"current_range_meters":4000,"station_id":"","pricing_plan_id":"cebpf4jnsgd1na2vs0mg"},{"bike_id":"38122d4b-f2a1-426d-a7e9-5e350fba44f1","system_id":"levelo_inurba_marseille","lat":43.29183,"lon":5.35797,"is_reserved":false,"is_disabled":false,"rental_uris":{"android":"levelo://app?vid=38122d4b-f2a1-426d-a7e9-5e350fba44f1","ios":"levelo://app?vid=38122d4b-f2a1-426d-a7e9-5e350fba44f1"},"vehicle_type_id":"4","last_reported":1776793861,"current_range_meters":4000,"station_id":"ce4bhb12rcd13ifvqel0","pricing_plan_id":"cebpf4jnsgd1na2vs0mg"},{"bike_id":"430e866e-d526-41dc-bf00-b98b0bd67f33","system_id":"levelo_inurba_marseille","lat":43.2657,"lon":5.39058,"is_reserved":false,"is_disabled":false,"rental_uris":{"android":"levelo://app?vid=430e866e-d526-41dc-bf00-b98b0bd67f33","ios":"levelo://app?vid=430e866e-d526-41dc-bf00-b98b0bd67f33"},"vehicle_type_id":"4","last_reported":1776793861,"current_range_meters":4000,"station_id":"ce4bhe12rcd13ifvqf30","pricing_plan_id":"cebpf4jnsgd1na2vs0mg"},{"bike_id":"58b8612e-3af1-455f-a4fc-862a59f3ee0e","system_id":"levelo_inurba_marseille","lat":43.303,"lon":5.39226,"is_reserved":false,"is_disabled":false,"rental_uris":{"android":"levelo://app?vid=58b8612e-3af1-455f-a4fc-862a59f3ee0e","ios":"levelo://app?vid=58b8612e-3af1-455f-a4fc-862a59f3ee0e"},"vehicle_type_id":"4","last_reported":1776793861,"current_range_meters":4000,"station_id":"ce4bgkh2rcd13ifvqbk0","pricing_plan_id":"cebpf4jnsgd1na2vs0mg"},{"bike_id":"2c45302f-7582-4e48-8d95-5a8bd10e97ca","system_id":"levelo_inurba_marseille","lat":43.26033,"lon":5.37525,"is_reserved":false,"is_disabled":false,"rental_uris":{"android":"levelo://app?vid=2c45302f-7582-4e48-8d95-5a8bd10e97ca","ios":"levelo://app?vid=2c45302f-7582-4e48-8d95-5a8bd10e97ca"},"vehicle_type_id":"4","last_reported":1776793861,"current_range_meters":4000,"station_id":"ce4bhgh2rcd13ifvqfa0","pricing_plan_id":"cebpf4jnsgd1na2vs0mg"},{"bike_id":"7abfa13b-45b6-4ceb-8f10-d0dc57ac70f9","system_id":"levelo_inurba_marseille","lat":43.28401,"lon":5.37513,"is_reserved":false,"is_disabled":false,"rental_uris":{"android":"levelo://app?vid=7abfa13b-45b6-4ceb-8f10-d0dc57ac70f9","ios":"levelo://app?vid=7abfa13b-45b6-4ceb-8f10-d0dc57ac70f9"},"vehicle_type_id":"4","last_reported":1776793861,"current_range_meters":4000,"station_id":"ce4bh412rcd13ifvqds0","pricing_plan_id":"cebpf4jnsgd1na2vs0mg"},{"bike_id":"72ce5c7b-f90a-4320-83e6-79770c82c65e","system_id":"levelo_inurba_marseille","lat":43.27406,"lon":5.38479,"is_reserved":false,"is_disabled":false,"rental_uris":{"android":"levelo://app?vid=72ce5c7b-f90a-4320-83e6-79770c82c65e","ios":"levelo://app?vid=72ce5c7b-f90a-4320-83e6-79770c82c65e"},"vehicle_type_id":"4","last_reported":1776793861,"current_range_meters":4000,"station_id":"","pricing_plan_id":"cebpf4jnsgd1na2vs0mg"},{"bike_id":"42ddb006-6c78-499d-a6fa-8d3d53105855","system_id":"levelo_inurba_marseille","lat":43.27194,"lon":5.40977,"is_reserved":false,"is_disabled":false,"rental_uris":{"android":"levelo://app?vid=42ddb006-6c78-499d-a6fa-8d3d53105855","ios":"levelo://app?vid=42ddb006-6c78-499d-a6fa-8d3d53105855"},"vehicle_type_id":"4","last_reported":1776793861,"current_range_meters":4000,"station_id":"ce4bhl12rcd13ifvqgf0","pricing_plan_id":"cebpf4jnsgd1na2vs0mg"},{"bike_id":"fdde59fb-e056-425c-9fdc-14b94359e5a7","system_id":"levelo_inurba_marseille","lat":43.31781,"lon":5.38451,"is_reserved":false,"is_disabled":false,"rental_uris":{"android":"levelo://app?vid=fdde59fb-e056-425c-9fdc-14b94359e5a7","ios":"levelo://app?vid=fdde59fb-e056-425c-9fdc-14b94359e5a7"},"vehicle_type_id":"4","last_reported":1776793861,"current_range_meters":4000,"station_id":"","pricing_plan_id":"cebpf4jnsgd1na2vs0mg"},{"bike_id":"9c97a513-8880-467b-9b43-38535b1fefdc","system_id":"levelo_inurba_marseille","lat":43.30193,"lon":5.36641,"is_reserved":false,"is_disabled":false,"rental_uris":{"android":"levelo://app?vid=9c97a513-8880-467b-9b43-38535b1fefdc","ios":"levelo://app?vid=9c97a513-8880-467b-9b43-38535b1fefdc"},"vehicle_type_id":"4","last_reported":1776793861,"current_range_meters":4000,"station_id":"ce4bgrh2rcd13ifvqc8g","pricing_plan_id":"cebpf4jnsgd1na2vs0mg"},{"bike_id":"fe4d0032-1635-4a68-a70e-b6b9fe1db515","system_id":"levelo_inurba_marseille","lat":43.29976,"lon":5.3718,"is_reserved":false,"is_disabled":false,"rental_uris":{"android":"levelo://app?vid=fe4d0032-1635-4a68-a70e-b6b9fe1db515","ios":"levelo://app?vid=fe4d0032-1635-4a68-a70e-b6b9fe1db515"},"vehicle_type_id":"4","last_reported":1776793861,"current_range_meters":4000,"station_id":"ce4bgr92rcd13ifvqc7g","pricing_plan_id":"cebpf4jnsgd1na2vs0mg"},{"bike_id":"fbbb17ec-87d6-401c-bd98-7a44cd44d3eb","system_id":"levelo_inurba_marseille","lat":43.28347,"lon":5.38108,"is_reserved":false,"is_disabled":false,"rental_uris":{"android":"levelo://app?vid=fbbb17ec-87d6-401c-bd98-7a44cd44d3eb","ios":"levelo://app?vid=fbbb17ec-87d6-401c-bd98-7a44cd44d3eb"},"vehicle_type_id":"4","last_reported":1776793861,"current_range_meters":4000,"station_id":"ce4bh412rcd13ifvqdr0","pricing_plan_id":"cebpf4jnsgd1na2vs0mg"},{"bike_id":"21298c5a-eda3-4af3-a524-0558894f8b98","system_id":"levelo_inurba_marseille","lat":43.30348,"lon":5.47284,"is_reserved":false,"is_disabled":false,"rental_uris":{"android":"levelo://app?vid=21298c5a-eda3-4af3-a524-0558894f8b98","ios":"levelo://app?vid=21298c5a-eda3-4af3-a524-0558894f8b98"},"vehicle_type_id":"4","last_reported":1776793861,"current_range_meters":4000,"station_id":"","pricing_plan_id":"cebpf4jnsgd1na2vs0mg"},{"bike_id":"7f1cd1a7-d464-4094-865b-2a591e93161f","system_id":"levelo_inurba_marseille","lat":43.23965,"lon":5.36629,"is_reserved":false,"is_disabled":false,"rental_uris":{"android":"levelo://app?vid=7f1cd1a7-d464-4094-865b-2a591e93161f","ios":"levelo://app?vid=7f1cd1a7-d464-4094-865b-2a591e93161f"},"vehicle_type_id":"4","last_reported":1776793861,"current_range_meters":4000,"station_id":"ce4bhi12rcd13ifvqfp0","pricing_plan_id":"cebpf4jnsgd1na2vs0mg"},{"bike_id":"0fdc542d-acd2-4025-8d63-512d2f4432f7","system_id":"levelo_inurba_marseille","lat":43.292316,"lon":5.360695,"is_reserved":false,"is_disabled":false,"rental_uris":{"android":"levelo://app?vid=0fdc542d-acd2-4025-8d63-512d2f4432f7","ios":"levelo://app?vid=0fdc542d-acd2-4025-8d63-512d2f4432f7"},"vehicle_type_id":"4","last_reported":1776793861,"current_range_meters":4000,"station_id":"ce4bh192rcd13ifvqdd0","pricing_plan_id":"cebpf4jnsgd1na2vs0mg"},{"bike_id":"b1825e17-c86a-4867-83b0-b5fcfd88ca26","system_id":"levelo_inurba_marseille","lat":43.292271,"lon":5.387876,"is_reserved":false,"is_disabled":false,"rental_uris":{"android":"levelo://app?vid=b1825e17-c86a-4867-83b0-b5fcfd88ca26","ios":"levelo://app?vid=b1825e17-c86a-4867-83b0-b5fcfd88ca26"},"vehicle_type_id":"4","last_reported":1776793861,"current_range_meters":4400,"station_id":"","pricing_plan_id":"cebpf4jnsgd1na2vs0mg"},{"bike_id":"910d6d58-36a3-4281-a91f-e38ab7d761f2","system_id":"levelo_inurba_marseille","lat":43.29546,"lon":5.39029,"is_reserved":false,"is_disabled":false,"rental_uris":{"android":"levelo://app?vid=910d6d58-36a3-4281-a91f-e38ab7d761f2","ios":"levelo://app?vid=910d6d58-36a3-4281-a91f-e38ab7d761f2"},"vehicle_type_id":"4","last_reported":1776793861,"current_range_meters":4400,"station_id":"ce4bh3p2rcd13ifvqdp0","pricing_plan_id":"cebpf4jnsgd1na2vs0mg"},{"bike_id":"8286bea9-1ed5-49d2-9a09-a56ee2db2de5","system_id":"levelo_inurba_marseille","lat":43.30952,"lon":5.39034,"is_reserved":false,"is_disabled":false,"rental_uris":{"android":"levelo://app?vid=8286bea9-1ed5-49d2-9a09-a56ee2db2de5","ios":"levelo://app?vid=8286bea9-1ed5-49d2-9a09-a56ee2db2de5"},"vehicle_type_id":"4","last_reported":1776793861,"current_range_meters":4400,"station_id":"ce4bgup2rcd13ifvqco0","pricing_plan_id":"cebpf4jnsgd1na2vs0mg"},{"bike_id":"6cb77786-5dff-4b6b-b399-83a9c40b38d5","system_id":"levelo_inurba_marseille","lat":43.21195,"lon":5.35095,"is_reserved":false,"is_disabled":false,"rental_uris":{"android":"levelo://app?vid=6cb77786-5dff-4b6b-b399-83a9c40b38d5","ios":"levelo://app?vid=6cb77786-5dff-4b6b-b399-83a9c40b38d5"},"vehicle_type_id":"4","last_reported":1776793861,"current_range_meters":4400,"station_id":"st_cvj6sg6p6f1abm77japg","pricing_plan_id":"cebpf4jnsgd1na2vs0mg"},{"bike_id":"428a3e1f-0c14-4644-9951-f64ac1c47a29","system_id":"levelo_inurba_marseille","lat":43.33547,"lon":5.37475,"is_reserved":false,"is_disabled":false,"rental_uris":{"android":"levelo://app?vid=428a3e1f-0c14-4644-9951-f64ac1c47a29","ios":"levelo://app?vid=428a3e1f-0c14-4644-9951-f64ac1c47a29"},"vehicle_type_id":"4","last_reported":1776793861,"current_range_meters":4400,"station_id":"st_d46tts09ee8s73dlu43g","pricing_plan_id":"cebpf4jnsgd1na2vs0mg"},{"bike_id":"1b034482-14d9-4e56-93d2-1b4a1b5e1cef","system_id":"levelo_inurba_marseille","lat":43.24184,"lon":5.39731,"is_reserved":false,"is_disabled":false,"rental_uris":{"android":"levelo://app?vid=1b034482-14d9-4e56-93d2-1b4a1b5e1cef","ios":"levelo://app?vid=1b034482-14d9-4e56-93d2-1b4a1b5e1cef"},"vehicle_type_id":"4","last_reported":1776793861,"current_range_meters":4400,"station_id":"ce4bhn12rcd13ifvqgpg","pricing_plan_id":"cebpf4jnsgd1na2vs0mg"},{"bike_id":"b0d8e667-4acb-45f2-a9d0-cd0aa7ed279a","system_id":"levelo_inurba_marseille","lat":43.29909,"lon":5.38138,"is_reserved":false,"is_disabled":false,"rental_uris":{"android":"levelo://app?vid=b0d8e667-4acb-45f2-a9d0-cd0aa7ed279a","ios":"levelo://app?vid=b0d8e667-4acb-45f2-a9d0-cd0aa7ed279a"},"vehicle_type_id":"4","last_reported":1776793861,"current_range_meters":4400,"station_id":"ce4bgj12rcd13ifvqbc0","pricing_plan_id":"cebpf4jnsgd1na2vs0mg"},{"bike_id":"2b91d518-5095-4415-99e4-124095a25fff","system_id":"levelo_inurba_marseille","lat":43.33692,"lon":5.39839,"is_reserved":false,"is_disabled":false,"rental_uris":{"android":"levelo://app?vid=2b91d518-5095-4415-99e4-124095a25fff","ios":"levelo://app?vid=2b91d518-5095-4415-99e4-124095a25fff"},"vehicle_type_id":"4","last_reported":1776793861,"current_range_meters":4400,"station_id":"","pricing_plan_id":"cebpf4jnsgd1na2vs0mg"},{"bike_id":"90f5c609-852a-4917-87c2-c45eaeb3be9b","system_id":"levelo_inurba_marseille","lat":43.28587,"lon":5.3513,"is_reserved":false,"is_disabled":false,"rental_uris":{"android":"levelo://app?vid=90f5c609-852a-4917-87c2-c45eaeb3be9b","ios":"levelo://app?vid=90f5c609-852a-4917-87c2-c45eaeb3be9b"},"vehicle_type_id":"4","last_reported":1776793861,"current_range_meters":4400,"station_id":"ce4bhch2rcd13ifvqeug","pricing_plan_id":"cebpf4jnsgd1na2vs0mg"},{"bike_id":"511b5ace-306e-450a-a1d6-c9ba294f3369","system_id":"levelo_inurba_marseille","lat":43.26679,"lon":5.38271,"is_reserved":false,"is_disabled":false,"rental_uris":{"android":"levelo://app?vid=511b5ace-306e-450a-a1d6-c9ba294f3369","ios":"levelo://app?vid=511b5ace-306e-450a-a1d6-c9ba294f3369"},"vehicle_type_id":"4","last_reported":1776793861,"current_range_meters":4400,"station_id":"ce4bhg92rcd13ifvqf90","pricing_plan_id":"cebpf4jnsgd1na2vs0mg"},{"bike_id":"ab47e0f7-b425-4453-af7b-7d7204dd776b","system_id":"levelo_inurba_marseille","lat":43.28537,"lon":5.44102,"is_reserved":false,"is_disabled":false,"rental_uris":{"android":"levelo://app?vid=ab47e0f7-b425-4453-af7b-7d7204dd776b","ios":"levelo://app?vid=ab47e0f7-b425-4453-af7b-7d7204dd776b"},"vehicle_type_id":"4","last_reported":1776793861,"current_range_meters":4800,"station_id":"st_d3j3df2ikq2c7380ej80","pricing_plan_id":"cebpf4jnsgd1na2vs0mg"},{"bike_id":"14c96f2b-5bfd-4acb-affb-34747bb616ea","system_id":"levelo_inurba_marseille","lat":43.29783,"lon":5.39335,"is_reserved":false,"is_disabled":false,"rental_uris":{"android":"levelo://app?vid=14c96f2b-5bfd-4acb-affb-34747bb616ea","ios":"levelo://app?vid=14c96f2b-5bfd-4acb-affb-34747bb616ea"},"vehicle_type_id":"4","last_reported":1776793861,"current_range_meters":4800,"station_id":"chh1huq6cuj3fo74tm60","pricing_plan_id":"cebpf4jnsgd1na2vs0mg"},{"bike_id":"b51730fd-1e5d-434f-864e-e93cdd900353","system_id":"levelo_inurba_marseille","lat":43.29002,"lon":5.35608,"is_reserved":false,"is_disabled":false,"rental_uris":{"android":"levelo://app?vid=b51730fd-1e5d-434f-864e-e93cdd900353","ios":"levelo://app?vid=b51730fd-1e5d-434f-864e-e93cdd900353"},"vehicle_type_id":"4","last_reported":1776793861,"current_range_meters":4800,"station_id":"ce4bhb92rcd13ifvqen0","pricing_plan_id":"cebpf4jnsgd1na2vs0mg"},{"bike_id":"c56d95ac-7be3-43d2-91fa-5b7471873583","system_id":"levelo_inurba_marseille","lat":43.29784,"lon":5.39336,"is_reserved":false,"is_disabled":false,"rental_uris":{"android":"levelo://app?vid=c56d95ac-7be3-43d2-91fa-5b7471873583","ios":"levelo://app?vid=c56d95ac-7be3-43d2-91fa-5b7471873583"},"vehicle_type_id":"4","last_reported":1776793861,"current_range_meters":4800,"station_id":"chh1huq6cuj3fo74tm60","pricing_plan_id":"cebpf4jnsgd1na2vs0mg"},{"bike_id":"9cc08143-b2ff-40c1-af93-68e1a6153260","system_id":"levelo_inurba_marseille","lat":43.28613,"lon":5.37059,"is_reserved":false,"is_disabled":false,"rental_uris":{"android":"levelo://app?vid=9cc08143-b2ff-40c1-af93-68e1a6153260","ios":"levelo://app?vid=9cc08143-b2ff-40c1-af93-68e1a6153260"},"vehicle_type_id":"4","last_reported":1776793861,"current_range_meters":4800,"station_id":"ce4bht12rcd13ifvqi60","pricing_plan_id":"cebpf4jnsgd1na2vs0mg"},{"bike_id":"63dfd97f-e7e4-487c-8760-4b7849a351d3","system_id":"levelo_inurba_marseille","lat":43.29197,"lon":5.35796,"is_reserved":false,"is_disabled":false,"rental_uris":{"android":"levelo://app?vid=63dfd97f-e7e4-487c-8760-4b7849a351d3","ios":"levelo://app?vid=63dfd97f-e7e4-487c-8760-4b7849a351d3"},"vehicle_type_id":"4","last_reported":1776793861,"current_range_meters":4800,"station_id":"ce4bhb12rcd13ifvqel0","pricing_plan_id":"cebpf4jnsgd1na2vs0mg"},{"bike_id":"5d5eaceb-5e86-4b93-b768-46345cadedfa","system_id":"levelo_inurba_marseille","lat":43.29532,"lon":5.38533,"is_reserved":false,"is_disabled":false,"rental_uris":{"android":"levelo://app?vid=5d5eaceb-5e86-4b93-b768-46345cadedfa","ios":"levelo://app?vid=5d5eaceb-5e86-4b93-b768-46345cadedfa"},"vehicle_type_id":"4","last_reported":1776793861,"current_range_meters":4800,"station_id":"ce4bgih2rcd13ifvqba0","pricing_plan_id":"cebpf4jnsgd1na2vs0mg"},{"bike_id":"65c36df8-a7fe-4010-8370-f48b0c45f206","system_id":"levelo_inurba_marseille","lat":43.33572,"lon":5.37488,"is_reserved":false,"is_disabled":false,"rental_uris":{"android":"levelo://app?vid=65c36df8-a7fe-4010-8370-f48b0c45f206","ios":"levelo://app?vid=65c36df8-a7fe-4010-8370-f48b0c45f206"},"vehicle_type_id":"4","last_reported":1776793861,"current_range_meters":4800,"station_id":"st_d46tts09ee8s73dlu43g","pricing_plan_id":"cebpf4jnsgd1na2vs0mg"},{"bike_id":"eb0dd92c-7777-4aff-ab88-96a22419386b","system_id":"levelo_inurba_marseille","lat":43.30176,"lon":5.38103,"is_reserved":false,"is_disabled":true,"rental_uris":{"android":"levelo://app?vid=eb0dd92c-7777-4aff-ab88-96a22419386b","ios":"levelo://app?vid=eb0dd92c-7777-4aff-ab88-96a22419386b"},"vehicle_type_id":"4","last_reported":1776793861,"current_range_meters":4800,"station_id":"ce4bgjp2rcd13ifvqbh0","pricing_plan_id":"cebpf4jnsgd1na2vs0mg"},{"bike_id":"9e4d43ba-3f3c-4820-b3ff-93f44a39bb25","system_id":"levelo_inurba_marseille","lat":43.25118,"lon":5.40314,"is_reserved":false,"is_disabled":false,"rental_uris":{"android":"levelo://app?vid=9e4d43ba-3f3c-4820-b3ff-93f44a39bb25","ios":"levelo://app?vid=9e4d43ba-3f3c-4820-b3ff-93f44a39bb25"},"vehicle_type_id":"4","last_reported":1776793861,"current_range_meters":4800,"station_id":"ce4bhlh2rcd13ifvqgig","pricing_plan_id":"cebpf4jnsgd1na2vs0mg"},{"bike_id":"be5348a3-1499-4f44-9d7a-d050ef9268e8","system_id":"levelo_inurba_marseille","lat":43.32699,"lon":5.38328,"is_reserved":false,"is_disabled":false,"rental_uris":{"android":"levelo://app?vid=be5348a3-1499-4f44-9d7a-d050ef9268e8","ios":"levelo://app?vid=be5348a3-1499-4f44-9d7a-d050ef9268e8"},"vehicle_type_id":"4","last_reported":1776793861,"current_range_meters":4800,"station_id":"","pricing_plan_id":"cebpf4jnsgd1na2vs0mg"},{"bike_id":"2591f740-9bef-4f17-be2b-1d68d8d4a1d4","system_id":"levelo_inurba_marseille","lat":43.29228,"lon":5.36067,"is_reserved":false,"is_disabled":false,"rental_uris":{"android":"levelo://app?vid=2591f740-9bef-4f17-be2b-1d68d8d4a1d4","ios":"levelo://app?vid=2591f740-9bef-4f17-be2b-1d68d8d4a1d4"},"vehicle_type_id":"4","last_reported":1776793861,"current_range_meters":4800,"station_id":"ce4bhbh2rcd13ifvqeqg","pricing_plan_id":"cebpf4jnsgd1na2vs0mg"},{"bike_id":"53c700b8-845b-473e-b238-598a75d59a87","system_id":"levelo_inurba_marseille","lat":43.308004,"lon":5.381417,"is_reserved":false,"is_disabled":false,"rental_uris":{"android":"levelo://app?vid=53c700b8-845b-473e-b238-598a75d59a87","ios":"levelo://app?vid=53c700b8-845b-473e-b238-598a75d59a87"},"vehicle_type_id":"4","last_reported":1776793861,"current_range_meters":4800,"station_id":"ce4bgt12rcd13ifvqce0","pricing_plan_id":"cebpf4jnsgd1na2vs0mg"},{"bike_id":"58ed09d9-0aa1-471f-818a-54c432b83970","system_id":"levelo_inurba_marseille","lat":43.26593,"lon":5.42835,"is_reserved":false,"is_disabled":false,"rental_uris":{"android":"levelo://app?vid=58ed09d9-0aa1-471f-818a-54c432b83970","ios":"levelo://app?vid=58ed09d9-0aa1-471f-818a-54c432b83970"},"vehicle_type_id":"4","last_reported":1776793861,"current_range_meters":5600,"station_id":"","pricing_plan_id":"cebpf4jnsgd1na2vs0mg"},{"bike_id":"881ce26b-1aa6-48b5-b468-e459b2526516","system_id":"levelo_inurba_marseille","lat":43.28923,"lon":5.38401,"is_reserved":false,"is_disabled":false,"rental_uris":{"android":"levelo://app?vid=881ce26b-1aa6-48b5-b468-e459b2526516","ios":"levelo://app?vid=881ce26b-1aa6-48b5-b468-e459b2526516"},"vehicle_type_id":"4","last_reported":1776793861,"current_range_meters":5600,"station_id":"ce4bh612rcd13ifvqe6g","pricing_plan_id":"cebpf4jnsgd1na2vs0mg"},{"bike_id":"ae900c24-4ed5-4152-bf0b-925d5d6c2d0a","system_id":"levelo_inurba_marseille","lat":43.29935,"lon":5.36554,"is_reserved":false,"is_disabled":false,"rental_uris":{"android":"levelo://app?vid=ae900c24-4ed5-4152-bf0b-925d5d6c2d0a","ios":"levelo://app?vid=ae900c24-4ed5-4152-bf0b-925d5d6c2d0a"},"vehicle_type_id":"4","last_reported":1776793861,"current_range_meters":5600,"station_id":"ce4bgm92rcd13ifvqbr0","pricing_plan_id":"cebpf4jnsgd1na2vs0mg"},{"bike_id":"595494a8-4052-4c6a-9535-2b84dd157f3e","system_id":"levelo_inurba_marseille","lat":43.2737,"lon":5.36248,"is_reserved":false,"is_disabled":false,"rental_uris":{"android":"levelo://app?vid=595494a8-4052-4c6a-9535-2b84dd157f3e","ios":"levelo://app?vid=595494a8-4052-4c6a-9535-2b84dd157f3e"},"vehicle_type_id":"4","last_reported":1776793861,"current_range_meters":5600,"station_id":"ce4bhbh2rcd13ifvqeo0","pricing_plan_id":"cebpf4jnsgd1na2vs0mg"},{"bike_id":"b9f48316-faff-45fa-ab27-aea350d0281e","system_id":"levelo_inurba_marseille","lat":43.2971,"lon":5.36611,"is_reserved":false,"is_disabled":false,"rental_uris":{"android":"levelo://app?vid=b9f48316-faff-45fa-ab27-aea350d0281e","ios":"levelo://app?vid=b9f48316-faff-45fa-ab27-aea350d0281e"},"vehicle_type_id":"4","last_reported":1776793861,"current_range_meters":5600,"station_id":"ce4bgn12rcd13ifvqbt0","pricing_plan_id":"cebpf4jnsgd1na2vs0mg"},{"bike_id":"64d94556-6834-4dbf-9283-c66d7f63f63b","system_id":"levelo_inurba_marseille","lat":43.29488,"lon":5.43291,"is_reserved":false,"is_disabled":false,"rental_uris":{"android":"levelo://app?vid=64d94556-6834-4dbf-9283-c66d7f63f63b","ios":"levelo://app?vid=64d94556-6834-4dbf-9283-c66d7f63f63b"},"vehicle_type_id":"4","last_reported":1776793861,"current_range_meters":5600,"station_id":"st_d3j5ugp08ojc73fj9d10","pricing_plan_id":"cebpf4jnsgd1na2vs0mg"},{"bike_id":"714dcc00-e1f0-496e-b551-da2d0ef32618","system_id":"levelo_inurba_marseille","lat":43.284212,"lon":5.349891,"is_reserved":false,"is_disabled":false,"rental_uris":{"android":"levelo://app?vid=714dcc00-e1f0-496e-b551-da2d0ef32618","ios":"levelo://app?vid=714dcc00-e1f0-496e-b551-da2d0ef32618"},"vehicle_type_id":"4","last_reported":1776793861,"current_range_meters":5600,"station_id":"ce4bhbh2rcd13ifvqepg","pricing_plan_id":"cebpf4jnsgd1na2vs0mg"},{"bike_id":"e9c2f297-4723-455f-9e1e-5cd936a34bfa","system_id":"levelo_inurba_marseille","lat":43.28403,"lon":5.35,"is_reserved":false,"is_disabled":false,"rental_uris":{"android":"levelo://app?vid=e9c2f297-4723-455f-9e1e-5cd936a34bfa","ios":"levelo://app?vid=e9c2f297-4723-455f-9e1e-5cd936a34bfa"},"vehicle_type_id":"4","last_reported":1776793861,"current_range_meters":5600,"station_id":"ce4bhbh2rcd13ifvqepg","pricing_plan_id":"cebpf4jnsgd1na2vs0mg"},{"bike_id":"71876fdf-04f6-4545-b4f2-a740d6faadde","system_id":"levelo_inurba_marseille","lat":43.27612,"lon":5.36118,"is_reserved":false,"is_disabled":false,"rental_uris":{"android":"levelo://app?vid=71876fdf-04f6-4545-b4f2-a740d6faadde","ios":"levelo://app?vid=71876fdf-04f6-4545-b4f2-a740d6faadde"},"vehicle_type_id":"4","last_reported":1776793861,"current_range_meters":5600,"station_id":"ce4bgj92rcd13ifvqbe0","pricing_plan_id":"cebpf4jnsgd1na2vs0mg"},{"bike_id":"55b9e363-aef1-4e55-a55c-7c19ee416703","system_id":"levelo_inurba_marseille","lat":43.31859,"lon":5.37266,"is_reserved":false,"is_disabled":false,"rental_uris":{"android":"levelo://app?vid=55b9e363-aef1-4e55-a55c-7c19ee416703","ios":"levelo://app?vid=55b9e363-aef1-4e55-a55c-7c19ee416703"},"vehicle_type_id":"4","last_reported":1776793861,"current_range_meters":5600,"station_id":"","pricing_plan_id":"cebpf4jnsgd1na2vs0mg"},{"bike_id":"76e6c7be-4771-4ed6-917a-d34713f1c81f","system_id":"levelo_inurba_marseille","lat":43.30437,"lon":5.39743,"is_reserved":false,"is_disabled":false,"rental_uris":{"android":"levelo://app?vid=76e6c7be-4771-4ed6-917a-d34713f1c81f","ios":"levelo://app?vid=76e6c7be-4771-4ed6-917a-d34713f1c81f"},"vehicle_type_id":"4","last_reported":1776793861,"current_range_meters":5600,"station_id":"ce4bh092rcd13ifvqd20","pricing_plan_id":"cebpf4jnsgd1na2vs0mg"},{"bike_id":"377e474f-c237-483e-b0c8-ff00e3d0a440","system_id":"levelo_inurba_marseille","lat":43.2509,"lon":5.39523,"is_reserved":false,"is_disabled":false,"rental_uris":{"android":"levelo://app?vid=377e474f-c237-483e-b0c8-ff00e3d0a440","ios":"levelo://app?vid=377e474f-c237-483e-b0c8-ff00e3d0a440"},"vehicle_type_id":"4","last_reported":1776793861,"current_range_meters":5600,"station_id":"ce4bhm12rcd13ifvqgkg","pricing_plan_id":"cebpf4jnsgd1na2vs0mg"},{"bike_id":"b785f7ea-cfcc-407f-b48a-6739a001a77c","system_id":"levelo_inurba_marseille","lat":43.33171,"lon":5.377,"is_reserved":false,"is_disabled":false,"rental_uris":{"android":"levelo://app?vid=b785f7ea-cfcc-407f-b48a-6739a001a77c","ios":"levelo://app?vid=b785f7ea-cfcc-407f-b48a-6739a001a77c"},"vehicle_type_id":"4","last_reported":1776793861,"current_range_meters":5600,"station_id":"st_d46cu089ee8s73dldbu0","pricing_plan_id":"cebpf4jnsgd1na2vs0mg"},{"bike_id":"5dca9a8e-83e7-4e4f-baef-b39340f4d785","system_id":"levelo_inurba_marseille","lat":43.29562,"lon":5.39998,"is_reserved":false,"is_disabled":true,"rental_uris":{"android":"levelo://app?vid=5dca9a8e-83e7-4e4f-baef-b39340f4d785","ios":"levelo://app?vid=5dca9a8e-83e7-4e4f-baef-b39340f4d785"},"vehicle_type_id":"4","last_reported":1776793861,"current_range_meters":5600,"station_id":"ce4bh312rcd13ifvqdj0","pricing_plan_id":"cebpf4jnsgd1na2vs0mg"},{"bike_id":"c116c86a-b351-4c4f-b364-0cb15366fa01","system_id":"levelo_inurba_marseille","lat":43.23897,"lon":5.37458,"is_reserved":false,"is_disabled":false,"rental_uris":{"android":"levelo://app?vid=c116c86a-b351-4c4f-b364-0cb15366fa01","ios":"levelo://app?vid=c116c86a-b351-4c4f-b364-0cb15366fa01"},"vehicle_type_id":"4","last_reported":1776793861,"current_range_meters":5600,"station_id":"st_d6sm7csbq4hs73f8fpjg","pricing_plan_id":"cebpf4jnsgd1na2vs0mg"},{"bike_id":"624daf69-f815-4f9b-8f7c-0a5468b5d0f6","system_id":"levelo_inurba_marseille","lat":43.26195,"lon":5.37046,"is_reserved":false,"is_disabled":false,"rental_uris":{"android":"levelo://app?vid=624daf69-f815-4f9b-8f7c-0a5468b5d0f6","ios":"levelo://app?vid=624daf69-f815-4f9b-8f7c-0a5468b5d0f6"},"vehicle_type_id":"4","last_reported":1776793861,"current_range_meters":5600,"station_id":"","pricing_plan_id":"cebpf4jnsgd1na2vs0mg"},{"bike_id":"7bee5315-c01b-408b-8743-0aa4d161af63","system_id":"levelo_inurba_marseille","lat":43.2926,"lon":5.37598,"is_reserved":false,"is_disabled":false,"rental_uris":{"android":"levelo://app?vid=7bee5315-c01b-408b-8743-0aa4d161af63","ios":"levelo://app?vid=7bee5315-c01b-408b-8743-0aa4d161af63"},"vehicle_type_id":"4","last_reported":1776793861,"current_range_meters":5600,"station_id":"ce4bgi12rcd13ifvqb80","pricing_plan_id":"cebpf4jnsgd1na2vs0mg"},{"bike_id":"908ae91c-1c71-4e49-862b-992bd94d477a","system_id":"levelo_inurba_marseille","lat":43.2841,"lon":5.3499,"is_reserved":false,"is_disabled":false,"rental_uris":{"android":"levelo://app?vid=908ae91c-1c71-4e49-862b-992bd94d477a","ios":"levelo://app?vid=908ae91c-1c71-4e49-862b-992bd94d477a"},"vehicle_type_id":"4","last_reported":1776793861,"current_range_meters":6000,"station_id":"ce4bhbh2rcd13ifvqepg","pricing_plan_id":"cebpf4jnsgd1na2vs0mg"},{"bike_id":"ae3cdbc1-046c-42e5-b909-29c9e0bcb254","system_id":"levelo_inurba_marseille","lat":43.33153,"lon":5.37696,"is_reserved":false,"is_disabled":false,"rental_uris":{"android":"levelo://app?vid=ae3cdbc1-046c-42e5-b909-29c9e0bcb254","ios":"levelo://app?vid=ae3cdbc1-046c-42e5-b909-29c9e0bcb254"},"vehicle_type_id":"4","last_reported":1776793861,"current_range_meters":6000,"station_id":"st_d46cu089ee8s73dldbu0","pricing_plan_id":"cebpf4jnsgd1na2vs0mg"},{"bike_id":"1862f7d6-a158-4915-b9b0-2f1faa3e3f86","system_id":"levelo_inurba_marseille","lat":43.26058,"lon":5.39398,"is_reserved":false,"is_disabled":false,"rental_uris":{"android":"levelo://app?vid=1862f7d6-a158-4915-b9b0-2f1faa3e3f86","ios":"levelo://app?vid=1862f7d6-a158-4915-b9b0-2f1faa3e3f86"},"vehicle_type_id":"4","last_reported":1776793861,"current_range_meters":6000,"station_id":"ce4bhh92rcd13ifvqfj0","pricing_plan_id":"cebpf4jnsgd1na2vs0mg"},{"bike_id":"ac881409-e7c1-4dc7-868f-5470aa726fd2","system_id":"levelo_inurba_marseille","lat":43.29816,"lon":5.44069,"is_reserved":false,"is_disabled":false,"rental_uris":{"android":"levelo://app?vid=ac881409-e7c1-4dc7-868f-5470aa726fd2","ios":"levelo://app?vid=ac881409-e7c1-4dc7-868f-5470aa726fd2"},"vehicle_type_id":"4","last_reported":1776793861,"current_range_meters":6000,"station_id":"st_d3jp68qikq2c7381ktn0","pricing_plan_id":"cebpf4jnsgd1na2vs0mg"},{"bike_id":"f357af0b-b5b9-4635-9f4a-653924842257","system_id":"levelo_inurba_marseille","lat":43.284085,"lon":5.349862,"is_reserved":false,"is_disabled":false,"rental_uris":{"android":"levelo://app?vid=f357af0b-b5b9-4635-9f4a-653924842257","ios":"levelo://app?vid=f357af0b-b5b9-4635-9f4a-653924842257"},"vehicle_type_id":"4","last_reported":1776793861,"current_range_meters":6000,"station_id":"ce4bhbh2rcd13ifvqepg","pricing_plan_id":"cebpf4jnsgd1na2vs0mg"},{"bike_id":"e3880a52-951b-434c-a5df-2b541ce61584","system_id":"levelo_inurba_marseille","lat":43.29202,"lon":5.35806,"is_reserved":false,"is_disabled":false,"rental_uris":{"android":"levelo://app?vid=e3880a52-951b-434c-a5df-2b541ce61584","ios":"levelo://app?vid=e3880a52-951b-434c-a5df-2b541ce61584"},"vehicle_type_id":"4","last_reported":1776793861,"current_range_meters":6000,"station_id":"ce4bhb12rcd13ifvqel0","pricing_plan_id":"cebpf4jnsgd1na2vs0mg"},{"bike_id":"e58670e4-9522-4521-ae5b-11255a5eb992","system_id":"levelo_inurba_marseille","lat":43.2922,"lon":5.3605,"is_reserved":false,"is_disabled":false,"rental_uris":{"android":"levelo://app?vid=e58670e4-9522-4521-ae5b-11255a5eb992","ios":"levelo://app?vid=e58670e4-9522-4521-ae5b-11255a5eb992"},"vehicle_type_id":"4","last_reported":1776793861,"current_range_meters":6000,"station_id":"ce4bhbh2rcd13ifvqeqg","pricing_plan_id":"cebpf4jnsgd1na2vs0mg"},{"bike_id":"ce4f7ebb-425f-47f9-bd03-7a83850a37bd","system_id":"levelo_inurba_marseille","lat":43.27673,"lon":5.38871,"is_reserved":false,"is_disabled":false,"rental_uris":{"android":"levelo://app?vid=ce4f7ebb-425f-47f9-bd03-7a83850a37bd","ios":"levelo://app?vid=ce4f7ebb-425f-47f9-bd03-7a83850a37bd"},"vehicle_type_id":"4","last_reported":1776793861,"current_range_meters":6000,"station_id":"ce4bhi12rcd13ifvqfo0","pricing_plan_id":"cebpf4jnsgd1na2vs0mg"},{"bike_id":"9a6a7c65-6c30-4406-be75-9523876aea89","system_id":"levelo_inurba_marseille","lat":43.28575,"lon":5.39504,"is_reserved":false,"is_disabled":false,"rental_uris":{"android":"levelo://app?vid=9a6a7c65-6c30-4406-be75-9523876aea89","ios":"levelo://app?vid=9a6a7c65-6c30-4406-be75-9523876aea89"},"vehicle_type_id":"4","last_reported":1776793861,"current_range_meters":6000,"station_id":"ce4bh292rcd13ifvqdg0","pricing_plan_id":"cebpf4jnsgd1na2vs0mg"},{"bike_id":"85d008d7-db23-4109-8c7e-d94d301d8f6b","system_id":"levelo_inurba_marseille","lat":43.26302,"lon":5.37359,"is_reserved":false,"is_disabled":false,"rental_uris":{"android":"levelo://app?vid=85d008d7-db23-4109-8c7e-d94d301d8f6b","ios":"levelo://app?vid=85d008d7-db23-4109-8c7e-d94d301d8f6b"},"vehicle_type_id":"4","last_reported":1776793861,"current_range_meters":6000,"station_id":"","pricing_plan_id":"cebpf4jnsgd1na2vs0mg"},{"bike_id":"dee9d798-a6c2-45af-a622-1f4c4e208441","system_id":"levelo_inurba_marseille","lat":43.27658,"lon":5.38961,"is_reserved":false,"is_disabled":false,"rental_uris":{"android":"levelo://app?vid=dee9d798-a6c2-45af-a622-1f4c4e208441","ios":"levelo://app?vid=dee9d798-a6c2-45af-a622-1f4c4e208441"},"vehicle_type_id":"4","last_reported":1776793861,"current_range_meters":6400,"station_id":"ce4bhi12rcd13ifvqfo0","pricing_plan_id":"cebpf4jnsgd1na2vs0mg"},{"bike_id":"2bf658ef-a912-4563-9f63-3110eb25e849","system_id":"levelo_inurba_marseille","lat":43.29743,"lon":5.35978,"is_reserved":false,"is_disabled":false,"rental_uris":{"android":"levelo://app?vid=2bf658ef-a912-4563-9f63-3110eb25e849","ios":"levelo://app?vid=2bf658ef-a912-4563-9f63-3110eb25e849"},"vehicle_type_id":"4","last_reported":1776793861,"current_range_meters":6400,"station_id":"","pricing_plan_id":"cebpf4jnsgd1na2vs0mg"},{"bike_id":"b70b16c8-13aa-4487-aec8-9b6456df1186","system_id":"levelo_inurba_marseille","lat":43.29759,"lon":5.42776,"is_reserved":false,"is_disabled":false,"rental_uris":{"android":"levelo://app?vid=b70b16c8-13aa-4487-aec8-9b6456df1186","ios":"levelo://app?vid=b70b16c8-13aa-4487-aec8-9b6456df1186"},"vehicle_type_id":"4","last_reported":1776793861,"current_range_meters":6400,"station_id":"st_d3md5207bmas73dh9klg","pricing_plan_id":"cebpf4jnsgd1na2vs0mg"},{"bike_id":"c511e4d8-7983-4ded-baa1-3c6f7148d199","system_id":"levelo_inurba_marseille","lat":43.24546,"lon":5.39521,"is_reserved":false,"is_disabled":false,"rental_uris":{"android":"levelo://app?vid=c511e4d8-7983-4ded-baa1-3c6f7148d199","ios":"levelo://app?vid=c511e4d8-7983-4ded-baa1-3c6f7148d199"},"vehicle_type_id":"4","last_reported":1776793861,"current_range_meters":6400,"station_id":"ce4bhlp2rcd13ifvqgjg","pricing_plan_id":"cebpf4jnsgd1na2vs0mg"},{"bike_id":"b9a565b9-250f-4f90-a370-1105c7c727cb","system_id":"levelo_inurba_marseille","lat":43.27206,"lon":5.39185,"is_reserved":false,"is_disabled":false,"rental_uris":{"android":"levelo://app?vid=b9a565b9-250f-4f90-a370-1105c7c727cb","ios":"levelo://app?vid=b9a565b9-250f-4f90-a370-1105c7c727cb"},"vehicle_type_id":"4","last_reported":1776793861,"current_range_meters":6400,"station_id":"ce4bhhp2rcd13ifvqfm0","pricing_plan_id":"cebpf4jnsgd1na2vs0mg"},{"bike_id":"2306ca47-4199-401b-acd8-618c3e1681fa","system_id":"levelo_inurba_marseille","lat":43.29225,"lon":5.36071,"is_reserved":false,"is_disabled":false,"rental_uris":{"android":"levelo://app?vid=2306ca47-4199-401b-acd8-618c3e1681fa","ios":"levelo://app?vid=2306ca47-4199-401b-acd8-618c3e1681fa"},"vehicle_type_id":"4","last_reported":1776793861,"current_range_meters":6400,"station_id":"ce4bhbh2rcd13ifvqeqg","pricing_plan_id":"cebpf4jnsgd1na2vs0mg"},{"bike_id":"52f5c221-7769-4684-b70c-9bf868b7607c","system_id":"levelo_inurba_marseille","lat":43.29229,"lon":5.36072,"is_reserved":false,"is_disabled":false,"rental_uris":{"android":"levelo://app?vid=52f5c221-7769-4684-b70c-9bf868b7607c","ios":"levelo://app?vid=52f5c221-7769-4684-b70c-9bf868b7607c"},"vehicle_type_id":"4","last_reported":1776793861,"current_range_meters":6400,"station_id":"ce4bhbh2rcd13ifvqeqg","pricing_plan_id":"cebpf4jnsgd1na2vs0mg"},{"bike_id":"496ff36b-a971-41d6-94ec-89b74a099bec","system_id":"levelo_inurba_marseille","lat":43.30689,"lon":5.37068,"is_reserved":false,"is_disabled":false,"rental_uris":{"android":"levelo://app?vid=496ff36b-a971-41d6-94ec-89b74a099bec","ios":"levelo://app?vid=496ff36b-a971-41d6-94ec-89b74a099bec"},"vehicle_type_id":"4","last_reported":1776793861,"current_range_meters":6400,"station_id":"","pricing_plan_id":"cebpf4jnsgd1na2vs0mg"},{"bike_id":"2923d899-e487-4cd1-8eb4-a2f0428efa22","system_id":"levelo_inurba_marseille","lat":43.33164,"lon":5.37677,"is_reserved":false,"is_disabled":false,"rental_uris":{"android":"levelo://app?vid=2923d899-e487-4cd1-8eb4-a2f0428efa22","ios":"levelo://app?vid=2923d899-e487-4cd1-8eb4-a2f0428efa22"},"vehicle_type_id":"4","last_reported":1776793861,"current_range_meters":6400,"station_id":"st_d46cu089ee8s73dldbu0","pricing_plan_id":"cebpf4jnsgd1na2vs0mg"},{"bike_id":"c224c9cf-d497-4bf6-82cd-eee25423f927","system_id":"levelo_inurba_marseille","lat":43.29682,"lon":5.37292,"is_reserved":false,"is_disabled":true,"rental_uris":{"android":"levelo://app?vid=c224c9cf-d497-4bf6-82cd-eee25423f927","ios":"levelo://app?vid=c224c9cf-d497-4bf6-82cd-eee25423f927"},"vehicle_type_id":"4","last_reported":1776793861,"current_range_meters":6400,"station_id":"ce4bgk12rcd13ifvqbj0","pricing_plan_id":"cebpf4jnsgd1na2vs0mg"},{"bike_id":"bb73f67e-03df-4173-804c-f7523c07e0c5","system_id":"levelo_inurba_marseille","lat":43.29951,"lon":5.380765,"is_reserved":false,"is_disabled":false,"rental_uris":{"android":"levelo://app?vid=bb73f67e-03df-4173-804c-f7523c07e0c5","ios":"levelo://app?vid=bb73f67e-03df-4173-804c-f7523c07e0c5"},"vehicle_type_id":"4","last_reported":1776793861,"current_range_meters":6400,"station_id":"ce4bgip2rcd13ifvqbb0","pricing_plan_id":"cebpf4jnsgd1na2vs0mg"},{"bike_id":"8585d2d5-83a0-4a63-b933-5e63d0d2bc96","system_id":"levelo_inurba_marseille","lat":43.25121,"lon":5.40318,"is_reserved":false,"is_disabled":false,"rental_uris":{"android":"levelo://app?vid=8585d2d5-83a0-4a63-b933-5e63d0d2bc96","ios":"levelo://app?vid=8585d2d5-83a0-4a63-b933-5e63d0d2bc96"},"vehicle_type_id":"4","last_reported":1776793861,"current_range_meters":6400,"station_id":"ce4bhlh2rcd13ifvqgig","pricing_plan_id":"cebpf4jnsgd1na2vs0mg"},{"bike_id":"513b0d35-c7fa-4c95-9dd5-0893b2c6e366","system_id":"levelo_inurba_marseille","lat":43.21745,"lon":5.34596,"is_reserved":false,"is_disabled":false,"rental_uris":{"android":"levelo://app?vid=513b0d35-c7fa-4c95-9dd5-0893b2c6e366","ios":"levelo://app?vid=513b0d35-c7fa-4c95-9dd5-0893b2c6e366"},"vehicle_type_id":"4","last_reported":1776793861,"current_range_meters":6800,"station_id":"st_cvj6r9ubvosntc0bgbag","pricing_plan_id":"cebpf4jnsgd1na2vs0mg"},{"bike_id":"38a0c1fe-c793-4677-abc9-44884653b8c5","system_id":"levelo_inurba_marseille","lat":43.29593,"lon":5.37776,"is_reserved":false,"is_disabled":false,"rental_uris":{"android":"levelo://app?vid=38a0c1fe-c793-4677-abc9-44884653b8c5","ios":"levelo://app?vid=38a0c1fe-c793-4677-abc9-44884653b8c5"},"vehicle_type_id":"4","last_reported":1776793861,"current_range_meters":6800,"station_id":"","pricing_plan_id":"cebpf4jnsgd1na2vs0mg"},{"bike_id":"7072cce7-7eca-490d-b009-9269205da678","system_id":"levelo_inurba_marseille","lat":43.29539,"lon":5.38534,"is_reserved":false,"is_disabled":false,"rental_uris":{"android":"levelo://app?vid=7072cce7-7eca-490d-b009-9269205da678","ios":"levelo://app?vid=7072cce7-7eca-490d-b009-9269205da678"},"vehicle_type_id":"4","last_reported":1776793861,"current_range_meters":6800,"station_id":"ce4bgih2rcd13ifvqba0","pricing_plan_id":"cebpf4jnsgd1na2vs0mg"},{"bike_id":"f0560ebd-54f4-470b-b211-8f235f923412","system_id":"levelo_inurba_marseille","lat":43.31262,"lon":5.37667,"is_reserved":false,"is_disabled":false,"rental_uris":{"android":"levelo://app?vid=f0560ebd-54f4-470b-b211-8f235f923412","ios":"levelo://app?vid=f0560ebd-54f4-470b-b211-8f235f923412"},"vehicle_type_id":"4","last_reported":1776793861,"current_range_meters":6800,"station_id":"","pricing_plan_id":"cebpf4jnsgd1na2vs0mg"},{"bike_id":"364373be-549a-4330-beba-78d6932fde3f","system_id":"levelo_inurba_marseille","lat":43.27381,"lon":5.3625,"is_reserved":false,"is_disabled":false,"rental_uris":{"android":"levelo://app?vid=364373be-549a-4330-beba-78d6932fde3f","ios":"levelo://app?vid=364373be-549a-4330-beba-78d6932fde3f"},"vehicle_type_id":"4","last_reported":1776793861,"current_range_meters":6800,"station_id":"ce4bhbh2rcd13ifvqeo0","pricing_plan_id":"cebpf4jnsgd1na2vs0mg"},{"bike_id":"326c9b9a-7a22-44c3-b23d-bf7d475bef70","system_id":"levelo_inurba_marseille","lat":43.29306,"lon":5.37174,"is_reserved":false,"is_disabled":false,"rental_uris":{"android":"levelo://app?vid=326c9b9a-7a22-44c3-b23d-bf7d475bef70","ios":"levelo://app?vid=326c9b9a-7a22-44c3-b23d-bf7d475bef70"},"vehicle_type_id":"4","last_reported":1776793861,"current_range_meters":6800,"station_id":"ce4bgh92rcd13ifvqb40","pricing_plan_id":"cebpf4jnsgd1na2vs0mg"},{"bike_id":"fec54d59-47d4-4ddb-8655-648e0f95cb70","system_id":"levelo_inurba_marseille","lat":43.23191,"lon":5.3555,"is_reserved":false,"is_disabled":false,"rental_uris":{"android":"levelo://app?vid=fec54d59-47d4-4ddb-8655-648e0f95cb70","ios":"levelo://app?vid=fec54d59-47d4-4ddb-8655-648e0f95cb70"},"vehicle_type_id":"4","last_reported":1776793861,"current_range_meters":6800,"station_id":"ce4bhu92rcd13ifvqi70","pricing_plan_id":"cebpf4jnsgd1na2vs0mg"},{"bike_id":"b2b89947-17d2-46c5-8740-cb4227421b94","system_id":"levelo_inurba_marseille","lat":43.31225,"lon":5.36861,"is_reserved":false,"is_disabled":false,"rental_uris":{"android":"levelo://app?vid=b2b89947-17d2-46c5-8740-cb4227421b94","ios":"levelo://app?vid=b2b89947-17d2-46c5-8740-cb4227421b94"},"vehicle_type_id":"4","last_reported":1776793861,"current_range_meters":6800,"station_id":"ce4bgl92rcd13ifvqbq0","pricing_plan_id":"cebpf4jnsgd1na2vs0mg"},{"bike_id":"6e49cc5b-9b88-4cc4-adb0-fb4c1782b257","system_id":"levelo_inurba_marseille","lat":43.29578,"lon":5.3999,"is_reserved":false,"is_disabled":false,"rental_uris":{"android":"levelo://app?vid=6e49cc5b-9b88-4cc4-adb0-fb4c1782b257","ios":"levelo://app?vid=6e49cc5b-9b88-4cc4-adb0-fb4c1782b257"},"vehicle_type_id":"4","last_reported":1776793861,"current_range_meters":6800,"station_id":"ce4bh312rcd13ifvqdj0","pricing_plan_id":"cebpf4jnsgd1na2vs0mg"},{"bike_id":"5c86cbe9-afe5-41b0-8b9c-f0fc93c92ebf","system_id":"levelo_inurba_marseille","lat":43.2551,"lon":5.37655,"is_reserved":false,"is_disabled":false,"rental_uris":{"android":"levelo://app?vid=5c86cbe9-afe5-41b0-8b9c-f0fc93c92ebf","ios":"levelo://app?vid=5c86cbe9-afe5-41b0-8b9c-f0fc93c92ebf"},"vehicle_type_id":"4","last_reported":1776793861,"current_range_meters":6800,"station_id":"ce4bhh12rcd13ifvqff0","pricing_plan_id":"cebpf4jnsgd1na2vs0mg"},{"bike_id":"14290775-1809-431a-89de-994574cdc895","system_id":"levelo_inurba_marseille","lat":43.27576,"lon":5.38641,"is_reserved":false,"is_disabled":false,"rental_uris":{"android":"levelo://app?vid=14290775-1809-431a-89de-994574cdc895","ios":"levelo://app?vid=14290775-1809-431a-89de-994574cdc895"},"vehicle_type_id":"4","last_reported":1776793861,"current_range_meters":6800,"station_id":"","pricing_plan_id":"cebpf4jnsgd1na2vs0mg"},{"bike_id":"5425c6a8-7c88-4617-9380-d5e374a8c463","system_id":"levelo_inurba_marseille","lat":43.25103,"lon":5.40315,"is_reserved":false,"is_disabled":false,"rental_uris":{"android":"levelo://app?vid=5425c6a8-7c88-4617-9380-d5e374a8c463","ios":"levelo://app?vid=5425c6a8-7c88-4617-9380-d5e374a8c463"},"vehicle_type_id":"4","last_reported":1776793861,"current_range_meters":6800,"station_id":"ce4bhlh2rcd13ifvqgig","pricing_plan_id":"cebpf4jnsgd1na2vs0mg"},{"bike_id":"4d7fde99-32b7-4f4e-bfeb-31d33fc69267","system_id":"levelo_inurba_marseille","lat":43.29253,"lon":5.36867,"is_reserved":false,"is_disabled":false,"rental_uris":{"android":"levelo://app?vid=4d7fde99-32b7-4f4e-bfeb-31d33fc69267","ios":"levelo://app?vid=4d7fde99-32b7-4f4e-bfeb-31d33fc69267"},"vehicle_type_id":"4","last_reported":1776793861,"current_range_meters":6800,"station_id":"ce4bhbp2rcd13ifvqesg","pricing_plan_id":"cebpf4jnsgd1na2vs0mg"},{"bike_id":"642c3158-d605-4664-a261-c779c823cfc9","system_id":"levelo_inurba_marseille","lat":43.29834,"lon":5.38093,"is_reserved":false,"is_disabled":false,"rental_uris":{"android":"levelo://app?vid=642c3158-d605-4664-a261-c779c823cfc9","ios":"levelo://app?vid=642c3158-d605-4664-a261-c779c823cfc9"},"vehicle_type_id":"4","last_reported":1776793861,"current_range_meters":6800,"station_id":"ce4bgip2rcd13ifvqbb0","pricing_plan_id":"cebpf4jnsgd1na2vs0mg"},{"bike_id":"2224c961-bce6-4c33-966e-f3361d1b2ab2","system_id":"levelo_inurba_marseille","lat":43.27504,"lon":5.41565,"is_reserved":false,"is_disabled":false,"rental_uris":{"android":"levelo://app?vid=2224c961-bce6-4c33-966e-f3361d1b2ab2","ios":"levelo://app?vid=2224c961-bce6-4c33-966e-f3361d1b2ab2"},"vehicle_type_id":"4","last_reported":1776793861,"current_range_meters":6800,"station_id":"st_d6im8g6chgec73a5pndg","pricing_plan_id":"cebpf4jnsgd1na2vs0mg"},{"bike_id":"f9e36f38-ef4d-44c9-9f31-a0f8b13d14ba","system_id":"levelo_inurba_marseille","lat":43.33143,"lon":5.37706,"is_reserved":false,"is_disabled":false,"rental_uris":{"android":"levelo://app?vid=f9e36f38-ef4d-44c9-9f31-a0f8b13d14ba","ios":"levelo://app?vid=f9e36f38-ef4d-44c9-9f31-a0f8b13d14ba"},"vehicle_type_id":"4","last_reported":1776793861,"current_range_meters":6800,"station_id":"st_d46cu089ee8s73dldbu0","pricing_plan_id":"cebpf4jnsgd1na2vs0mg"},{"bike_id":"18164fac-9e03-41a2-b421-52157bce44e8","system_id":"levelo_inurba_marseille","lat":43.29929,"lon":5.37462,"is_reserved":false,"is_disabled":false,"rental_uris":{"android":"levelo://app?vid=18164fac-9e03-41a2-b421-52157bce44e8","ios":"levelo://app?vid=18164fac-9e03-41a2-b421-52157bce44e8"},"vehicle_type_id":"4","last_reported":1776793861,"current_range_meters":6800,"station_id":"ce4bgjh2rcd13ifvqbg0","pricing_plan_id":"cebpf4jnsgd1na2vs0mg"},{"bike_id":"1fd10be9-0a9a-46a4-9d74-69cc8527ad5b","system_id":"levelo_inurba_marseille","lat":43.2848,"lon":5.484,"is_reserved":false,"is_disabled":false,"rental_uris":{"android":"levelo://app?vid=1fd10be9-0a9a-46a4-9d74-69cc8527ad5b","ios":"levelo://app?vid=1fd10be9-0a9a-46a4-9d74-69cc8527ad5b"},"vehicle_type_id":"4","last_reported":1776793861,"current_range_meters":7200,"station_id":"","pricing_plan_id":"cebpf4jnsgd1na2vs0mg"},{"bike_id":"6b036870-5bad-482f-afd5-9933c647ca38","system_id":"levelo_inurba_marseille","lat":43.26805,"lon":5.40265,"is_reserved":false,"is_disabled":false,"rental_uris":{"android":"levelo://app?vid=6b036870-5bad-482f-afd5-9933c647ca38","ios":"levelo://app?vid=6b036870-5bad-482f-afd5-9933c647ca38"},"vehicle_type_id":"4","last_reported":1776793861,"current_range_meters":7200,"station_id":"ce501612rcd8frsf0b60","pricing_plan_id":"cebpf4jnsgd1na2vs0mg"},{"bike_id":"e26ec41d-e988-4c31-b4e4-86d50ae40b2e","system_id":"levelo_inurba_marseille","lat":43.273767,"lon":5.362542,"is_reserved":false,"is_disabled":false,"rental_uris":{"android":"levelo://app?vid=e26ec41d-e988-4c31-b4e4-86d50ae40b2e","ios":"levelo://app?vid=e26ec41d-e988-4c31-b4e4-86d50ae40b2e"},"vehicle_type_id":"4","last_reported":1776793861,"current_range_meters":7200,"station_id":"ce4bhbh2rcd13ifvqeo0","pricing_plan_id":"cebpf4jnsgd1na2vs0mg"},{"bike_id":"a9b20c74-74a5-49c8-a72d-b9464b138266","system_id":"levelo_inurba_marseille","lat":43.30656,"lon":5.40092,"is_reserved":false,"is_disabled":false,"rental_uris":{"android":"levelo://app?vid=a9b20c74-74a5-49c8-a72d-b9464b138266","ios":"levelo://app?vid=a9b20c74-74a5-49c8-a72d-b9464b138266"},"vehicle_type_id":"4","last_reported":1776793861,"current_range_meters":7200,"station_id":"ce4bh112rcd13ifvqda0","pricing_plan_id":"cebpf4jnsgd1na2vs0mg"},{"bike_id":"af8a1ef7-3bce-462c-8983-73c0060888a3","system_id":"levelo_inurba_marseille","lat":43.29018,"lon":5.38189,"is_reserved":false,"is_disabled":true,"rental_uris":{"android":"levelo://app?vid=af8a1ef7-3bce-462c-8983-73c0060888a3","ios":"levelo://app?vid=af8a1ef7-3bce-462c-8983-73c0060888a3"},"vehicle_type_id":"4","last_reported":1776793861,"current_range_meters":7200,"station_id":"","pricing_plan_id":"cebpf4jnsgd1na2vs0mg"},{"bike_id":"afe6c9ff-8c7f-40d2-96bc-86354113b443","system_id":"levelo_inurba_marseille","lat":43.28486,"lon":5.48393,"is_reserved":false,"is_disabled":false,"rental_uris":{"android":"levelo://app?vid=afe6c9ff-8c7f-40d2-96bc-86354113b443","ios":"levelo://app?vid=afe6c9ff-8c7f-40d2-96bc-86354113b443"},"vehicle_type_id":"4","last_reported":1776793861,"current_range_meters":7200,"station_id":"","pricing_plan_id":"cebpf4jnsgd1na2vs0mg"},{"bike_id":"6157a246-f111-445f-9c2a-706e39776afd","system_id":"levelo_inurba_marseille","lat":43.29763,"lon":5.42787,"is_reserved":false,"is_disabled":false,"rental_uris":{"android":"levelo://app?vid=6157a246-f111-445f-9c2a-706e39776afd","ios":"levelo://app?vid=6157a246-f111-445f-9c2a-706e39776afd"},"vehicle_type_id":"4","last_reported":1776793861,"current_range_meters":7200,"station_id":"st_d3md5207bmas73dh9klg","pricing_plan_id":"cebpf4jnsgd1na2vs0mg"},{"bike_id":"8b856ae2-c645-4361-874a-3ad97da1d857","system_id":"levelo_inurba_marseille","lat":43.29785,"lon":5.37101,"is_reserved":false,"is_disabled":false,"rental_uris":{"android":"levelo://app?vid=8b856ae2-c645-4361-874a-3ad97da1d857","ios":"levelo://app?vid=8b856ae2-c645-4361-874a-3ad97da1d857"},"vehicle_type_id":"4","last_reported":1776793861,"current_range_meters":7200,"station_id":"ce4bgop2rcd13ifvqc1g","pricing_plan_id":"cebpf4jnsgd1na2vs0mg"},{"bike_id":"2d40a836-133e-4df4-8e94-64278280c4e2","system_id":"levelo_inurba_marseille","lat":43.28479,"lon":5.48378,"is_reserved":false,"is_disabled":false,"rental_uris":{"android":"levelo://app?vid=2d40a836-133e-4df4-8e94-64278280c4e2","ios":"levelo://app?vid=2d40a836-133e-4df4-8e94-64278280c4e2"},"vehicle_type_id":"4","last_reported":1776793861,"current_range_meters":7200,"station_id":"","pricing_plan_id":"cebpf4jnsgd1na2vs0mg"},{"bike_id":"dc5949bf-7d0e-45f3-a06d-99b2bea772b8","system_id":"levelo_inurba_marseille","lat":43.29771,"lon":5.42785,"is_reserved":false,"is_disabled":false,"rental_uris":{"android":"levelo://app?vid=dc5949bf-7d0e-45f3-a06d-99b2bea772b8","ios":"levelo://app?vid=dc5949bf-7d0e-45f3-a06d-99b2bea772b8"},"vehicle_type_id":"4","last_reported":1776793861,"current_range_meters":7200,"station_id":"st_d3md5207bmas73dh9klg","pricing_plan_id":"cebpf4jnsgd1na2vs0mg"},{"bike_id":"4d70670e-0ab6-42f1-9706-d1ca96346968","system_id":"levelo_inurba_marseille","lat":43.29441,"lon":5.39735,"is_reserved":false,"is_disabled":false,"rental_uris":{"android":"levelo://app?vid=4d70670e-0ab6-42f1-9706-d1ca96346968","ios":"levelo://app?vid=4d70670e-0ab6-42f1-9706-d1ca96346968"},"vehicle_type_id":"4","last_reported":1776793861,"current_range_meters":7200,"station_id":"ce4bh3h2rcd13ifvqdo0","pricing_plan_id":"cebpf4jnsgd1na2vs0mg"},{"bike_id":"e12c18a7-2e3a-4b6a-87a4-c9a9915d9e04","system_id":"levelo_inurba_marseille","lat":43.28483,"lon":5.38384,"is_reserved":false,"is_disabled":false,"rental_uris":{"android":"levelo://app?vid=e12c18a7-2e3a-4b6a-87a4-c9a9915d9e04","ios":"levelo://app?vid=e12c18a7-2e3a-4b6a-87a4-c9a9915d9e04"},"vehicle_type_id":"4","last_reported":1776793861,"current_range_meters":7200,"station_id":"ce4bh512rcd13ifvqe3g","pricing_plan_id":"cebpf4jnsgd1na2vs0mg"},{"bike_id":"17a218ae-0cbc-4023-80f0-9ffddf1324e3","system_id":"levelo_inurba_marseille","lat":43.260356,"lon":5.397998,"is_reserved":false,"is_disabled":false,"rental_uris":{"android":"levelo://app?vid=17a218ae-0cbc-4023-80f0-9ffddf1324e3","ios":"levelo://app?vid=17a218ae-0cbc-4023-80f0-9ffddf1324e3"},"vehicle_type_id":"4","last_reported":1776793861,"current_range_meters":8000,"station_id":"","pricing_plan_id":"cebpf4jnsgd1na2vs0mg"},{"bike_id":"909929ad-6150-4e90-9010-fc5021f6e58c","system_id":"levelo_inurba_marseille","lat":43.27227,"lon":5.40091,"is_reserved":false,"is_disabled":false,"rental_uris":{"android":"levelo://app?vid=909929ad-6150-4e90-9010-fc5021f6e58c","ios":"levelo://app?vid=909929ad-6150-4e90-9010-fc5021f6e58c"},"vehicle_type_id":"4","last_reported":1776793861,"current_range_meters":8000,"station_id":"","pricing_plan_id":"cebpf4jnsgd1na2vs0mg"},{"bike_id":"855178fe-e7c3-482c-8213-113f839e457a","system_id":"levelo_inurba_marseille","lat":43.27073,"lon":5.42284,"is_reserved":false,"is_disabled":false,"rental_uris":{"android":"levelo://app?vid=855178fe-e7c3-482c-8213-113f839e457a","ios":"levelo://app?vid=855178fe-e7c3-482c-8213-113f839e457a"},"vehicle_type_id":"4","last_reported":1776793861,"current_range_meters":8000,"station_id":"ce4bhk92rcd13ifvqgb0","pricing_plan_id":"cebpf4jnsgd1na2vs0mg"},{"bike_id":"415e0658-223c-4fe0-abd1-f3287f2893c2","system_id":"levelo_inurba_marseille","lat":43.31913,"lon":5.36812,"is_reserved":false,"is_disabled":false,"rental_uris":{"android":"levelo://app?vid=415e0658-223c-4fe0-abd1-f3287f2893c2","ios":"levelo://app?vid=415e0658-223c-4fe0-abd1-f3287f2893c2"},"vehicle_type_id":"4","last_reported":1776793861,"current_range_meters":8000,"station_id":"st_d6o2h0d0559c73evc1b0","pricing_plan_id":"cebpf4jnsgd1na2vs0mg"},{"bike_id":"d420143e-37e9-4bbd-a3bb-322c4c4ad02e","system_id":"levelo_inurba_marseille","lat":43.2795,"lon":5.38705,"is_reserved":false,"is_disabled":false,"rental_uris":{"android":"levelo://app?vid=d420143e-37e9-4bbd-a3bb-322c4c4ad02e","ios":"levelo://app?vid=d420143e-37e9-4bbd-a3bb-322c4c4ad02e"},"vehicle_type_id":"4","last_reported":1776793861,"current_range_meters":8000,"station_id":"ce4bhg12rcd13ifvqf80","pricing_plan_id":"cebpf4jnsgd1na2vs0mg"},{"bike_id":"357c8a3f-22a7-437b-9400-0efde2fb9a38","system_id":"levelo_inurba_marseille","lat":43.27077,"lon":5.42285,"is_reserved":false,"is_disabled":false,"rental_uris":{"android":"levelo://app?vid=357c8a3f-22a7-437b-9400-0efde2fb9a38","ios":"levelo://app?vid=357c8a3f-22a7-437b-9400-0efde2fb9a38"},"vehicle_type_id":"4","last_reported":1776793861,"current_range_meters":8000,"station_id":"ce4bhk92rcd13ifvqgb0","pricing_plan_id":"cebpf4jnsgd1na2vs0mg"},{"bike_id":"6a667070-f045-41a7-bc7f-b75ab43e320f","system_id":"levelo_inurba_marseille","lat":43.28607,"lon":5.37066,"is_reserved":false,"is_disabled":false,"rental_uris":{"android":"levelo://app?vid=6a667070-f045-41a7-bc7f-b75ab43e320f","ios":"levelo://app?vid=6a667070-f045-41a7-bc7f-b75ab43e320f"},"vehicle_type_id":"4","last_reported":1776793861,"current_range_meters":8000,"station_id":"ce4bht12rcd13ifvqi60","pricing_plan_id":"cebpf4jnsgd1na2vs0mg"},{"bike_id":"c5eb009f-3480-4876-add3-608c0b457401","system_id":"levelo_inurba_marseille","lat":43.27381,"lon":5.36248,"is_reserved":false,"is_disabled":false,"rental_uris":{"android":"levelo://app?vid=c5eb009f-3480-4876-add3-608c0b457401","ios":"levelo://app?vid=c5eb009f-3480-4876-add3-608c0b457401"},"vehicle_type_id":"4","last_reported":1776793861,"current_range_meters":8000,"station_id":"ce4bhbh2rcd13ifvqeo0","pricing_plan_id":"cebpf4jnsgd1na2vs0mg"},{"bike_id":"ccb706a2-5cb7-4123-a828-6f57892b08ad","system_id":"levelo_inurba_marseille","lat":43.25345,"lon":5.42157,"is_reserved":false,"is_disabled":false,"rental_uris":{"android":"levelo://app?vid=ccb706a2-5cb7-4123-a828-6f57892b08ad","ios":"levelo://app?vid=ccb706a2-5cb7-4123-a828-6f57892b08ad"},"vehicle_type_id":"4","last_reported":1776793861,"current_range_meters":8000,"station_id":"st_d2m65c5bi1j21697t3ng","pricing_plan_id":"cebpf4jnsgd1na2vs0mg"},{"bike_id":"4dd90c3a-c53a-454b-ad3a-8e2561f63203","system_id":"levelo_inurba_marseille","lat":43.312301,"lon":5.36869,"is_reserved":false,"is_disabled":false,"rental_uris":{"android":"levelo://app?vid=4dd90c3a-c53a-454b-ad3a-8e2561f63203","ios":"levelo://app?vid=4dd90c3a-c53a-454b-ad3a-8e2561f63203"},"vehicle_type_id":"4","last_reported":1776793861,"current_range_meters":8000,"station_id":"","pricing_plan_id":"cebpf4jnsgd1na2vs0mg"},{"bike_id":"e2398b8c-587f-4244-be07-9e96f5b6e899","system_id":"levelo_inurba_marseille","lat":43.29797,"lon":5.38115,"is_reserved":false,"is_disabled":false,"rental_uris":{"android":"levelo://app?vid=e2398b8c-587f-4244-be07-9e96f5b6e899","ios":"levelo://app?vid=e2398b8c-587f-4244-be07-9e96f5b6e899"},"vehicle_type_id":"4","last_reported":1776793861,"current_range_meters":8000,"station_id":"ce4bgip2rcd13ifvqbb0","pricing_plan_id":"cebpf4jnsgd1na2vs0mg"},{"bike_id":"477578aa-461b-42d7-a65f-a91e7dbe7434","system_id":"levelo_inurba_marseille","lat":43.28856,"lon":5.4252,"is_reserved":false,"is_disabled":false,"rental_uris":{"android":"levelo://app?vid=477578aa-461b-42d7-a65f-a91e7dbe7434","ios":"levelo://app?vid=477578aa-461b-42d7-a65f-a91e7dbe7434"},"vehicle_type_id":"4","last_reported":1776793861,"current_range_meters":8000,"station_id":"st_d3b462108ojc7389ooeg","pricing_plan_id":"cebpf4jnsgd1na2vs0mg"},{"bike_id":"0099c659-d3ff-44e5-bd1d-db056d5fd746","system_id":"levelo_inurba_marseille","lat":43.29791,"lon":5.39352,"is_reserved":false,"is_disabled":false,"rental_uris":{"android":"levelo://app?vid=0099c659-d3ff-44e5-bd1d-db056d5fd746","ios":"levelo://app?vid=0099c659-d3ff-44e5-bd1d-db056d5fd746"},"vehicle_type_id":"4","last_reported":1776793861,"current_range_meters":8000,"station_id":"chh1huq6cuj3fo74tm60","pricing_plan_id":"cebpf4jnsgd1na2vs0mg"},{"bike_id":"6941bf81-2b71-45da-86f8-ae002d5a69db","system_id":"levelo_inurba_marseille","lat":43.28035,"lon":5.36947,"is_reserved":false,"is_disabled":false,"rental_uris":{"android":"levelo://app?vid=6941bf81-2b71-45da-86f8-ae002d5a69db","ios":"levelo://app?vid=6941bf81-2b71-45da-86f8-ae002d5a69db"},"vehicle_type_id":"4","last_reported":1776793861,"current_range_meters":8000,"station_id":"ce4bha12rcd13ifvqef0","pricing_plan_id":"cebpf4jnsgd1na2vs0mg"},{"bike_id":"6e632b6a-0de9-43eb-884a-a0809cef0a34","system_id":"levelo_inurba_marseille","lat":43.28354,"lon":5.3503,"is_reserved":false,"is_disabled":false,"rental_uris":{"android":"levelo://app?vid=6e632b6a-0de9-43eb-884a-a0809cef0a34","ios":"levelo://app?vid=6e632b6a-0de9-43eb-884a-a0809cef0a34"},"vehicle_type_id":"4","last_reported":1776793861,"current_range_meters":8000,"station_id":"","pricing_plan_id":"cebpf4jnsgd1na2vs0mg"},{"bike_id":"62556c80-a776-4380-a3d7-3fcfa76114d4","system_id":"levelo_inurba_marseille","lat":43.29967,"lon":5.3717,"is_reserved":false,"is_disabled":false,"rental_uris":{"android":"levelo://app?vid=62556c80-a776-4380-a3d7-3fcfa76114d4","ios":"levelo://app?vid=62556c80-a776-4380-a3d7-3fcfa76114d4"},"vehicle_type_id":"4","last_reported":1776793861,"current_range_meters":8000,"station_id":"ce4bgr92rcd13ifvqc7g","pricing_plan_id":"cebpf4jnsgd1na2vs0mg"},{"bike_id":"0ac0b23b-b175-4f1f-9908-74787835f1d8","system_id":"levelo_inurba_marseille","lat":43.27428,"lon":5.3942,"is_reserved":false,"is_disabled":false,"rental_uris":{"android":"levelo://app?vid=0ac0b23b-b175-4f1f-9908-74787835f1d8","ios":"levelo://app?vid=0ac0b23b-b175-4f1f-9908-74787835f1d8"},"vehicle_type_id":"4","last_reported":1776793861,"current_range_meters":8000,"station_id":"ce4bhdp2rcd13ifvqf20","pricing_plan_id":"cebpf4jnsgd1na2vs0mg"},{"bike_id":"4476b0ee-8d00-4640-a0f1-261fe0296637","system_id":"levelo_inurba_marseille","lat":43.28352,"lon":5.38107,"is_reserved":false,"is_disabled":false,"rental_uris":{"android":"levelo://app?vid=4476b0ee-8d00-4640-a0f1-261fe0296637","ios":"levelo://app?vid=4476b0ee-8d00-4640-a0f1-261fe0296637"},"vehicle_type_id":"4","last_reported":1776793861,"current_range_meters":8000,"station_id":"ce4bh412rcd13ifvqdr0","pricing_plan_id":"cebpf4jnsgd1na2vs0mg"},{"bike_id":"a871dcef-249f-4f89-b0e8-5e3a1cc18d67","system_id":"levelo_inurba_marseille","lat":43.24999,"lon":5.38936,"is_reserved":false,"is_disabled":false,"rental_uris":{"android":"levelo://app?vid=a871dcef-249f-4f89-b0e8-5e3a1cc18d67","ios":"levelo://app?vid=a871dcef-249f-4f89-b0e8-5e3a1cc18d67"},"vehicle_type_id":"4","last_reported":1776793861,"current_range_meters":8000,"station_id":"ce4bhgp2rcd13ifvqfd0","pricing_plan_id":"cebpf4jnsgd1na2vs0mg"},{"bike_id":"4863a200-34ba-4631-8fae-dbc2906240c0","system_id":"levelo_inurba_marseille","lat":43.29554,"lon":5.42295,"is_reserved":false,"is_disabled":false,"rental_uris":{"android":"levelo://app?vid=4863a200-34ba-4631-8fae-dbc2906240c0","ios":"levelo://app?vid=4863a200-34ba-4631-8fae-dbc2906240c0"},"vehicle_type_id":"4","last_reported":1776793861,"current_range_meters":8400,"station_id":"ce4bhph2rcd13ifvqhdg","pricing_plan_id":"cebpf4jnsgd1na2vs0mg"},{"bike_id":"8c1d5b50-b708-48b1-9c7f-3b31486b57b4","system_id":"levelo_inurba_marseille","lat":43.29262,"lon":5.38427,"is_reserved":false,"is_disabled":false,"rental_uris":{"android":"levelo://app?vid=8c1d5b50-b708-48b1-9c7f-3b31486b57b4","ios":"levelo://app?vid=8c1d5b50-b708-48b1-9c7f-3b31486b57b4"},"vehicle_type_id":"4","last_reported":1776793861,"current_range_meters":8400,"station_id":"ce4bh692rcd13ifvqea0","pricing_plan_id":"cebpf4jnsgd1na2vs0mg"},{"bike_id":"44e696fa-fa54-42a6-be08-1bab5286dc01","system_id":"levelo_inurba_marseille","lat":43.28409,"lon":5.35012,"is_reserved":false,"is_disabled":false,"rental_uris":{"android":"levelo://app?vid=44e696fa-fa54-42a6-be08-1bab5286dc01","ios":"levelo://app?vid=44e696fa-fa54-42a6-be08-1bab5286dc01"},"vehicle_type_id":"4","last_reported":1776793861,"current_range_meters":8400,"station_id":"ce4bhbh2rcd13ifvqepg","pricing_plan_id":"cebpf4jnsgd1na2vs0mg"},{"bike_id":"75d64826-53ed-4fe7-9062-28a3d1f711d1","system_id":"levelo_inurba_marseille","lat":43.28861,"lon":5.42528,"is_reserved":false,"is_disabled":false,"rental_uris":{"android":"levelo://app?vid=75d64826-53ed-4fe7-9062-28a3d1f711d1","ios":"levelo://app?vid=75d64826-53ed-4fe7-9062-28a3d1f711d1"},"vehicle_type_id":"4","last_reported":1776793861,"current_range_meters":8400,"station_id":"st_d3b462108ojc7389ooeg","pricing_plan_id":"cebpf4jnsgd1na2vs0mg"},{"bike_id":"05c54d64-dd21-4f2a-8588-91ef66cf846d","system_id":"levelo_inurba_marseille","lat":43.25517,"lon":5.3766,"is_reserved":false,"is_disabled":false,"rental_uris":{"android":"levelo://app?vid=05c54d64-dd21-4f2a-8588-91ef66cf846d","ios":"levelo://app?vid=05c54d64-dd21-4f2a-8588-91ef66cf846d"},"vehicle_type_id":"4","last_reported":1776793861,"current_range_meters":8400,"station_id":"ce4bhh12rcd13ifvqff0","pricing_plan_id":"cebpf4jnsgd1na2vs0mg"},{"bike_id":"81bc26ea-d8cb-46ab-b7ef-05d759ea57e3","system_id":"levelo_inurba_marseille","lat":43.30846,"lon":5.41634,"is_reserved":false,"is_disabled":false,"rental_uris":{"android":"levelo://app?vid=81bc26ea-d8cb-46ab-b7ef-05d759ea57e3","ios":"levelo://app?vid=81bc26ea-d8cb-46ab-b7ef-05d759ea57e3"},"vehicle_type_id":"4","last_reported":1776793861,"current_range_meters":8400,"station_id":"","pricing_plan_id":"cebpf4jnsgd1na2vs0mg"},{"bike_id":"97c3c9c5-2d58-42c3-a28f-336f18ad3300","system_id":"levelo_inurba_marseille","lat":43.28848,"lon":5.39306,"is_reserved":false,"is_disabled":false,"rental_uris":{"android":"levelo://app?vid=97c3c9c5-2d58-42c3-a28f-336f18ad3300","ios":"levelo://app?vid=97c3c9c5-2d58-42c3-a28f-336f18ad3300"},"vehicle_type_id":"4","last_reported":1776793861,"current_range_meters":8400,"station_id":"ce4bh2p2rcd13ifvqdi0","pricing_plan_id":"cebpf4jnsgd1na2vs0mg"},{"bike_id":"53398df8-835b-4ed2-bf08-039bd71fda25","system_id":"levelo_inurba_marseille","lat":43.25928,"lon":5.38592,"is_reserved":false,"is_disabled":false,"rental_uris":{"android":"levelo://app?vid=53398df8-835b-4ed2-bf08-039bd71fda25","ios":"levelo://app?vid=53398df8-835b-4ed2-bf08-039bd71fda25"},"vehicle_type_id":"4","last_reported":1776793861,"current_range_meters":8400,"station_id":"","pricing_plan_id":"cebpf4jnsgd1na2vs0mg"},{"bike_id":"37eae820-b39c-4a10-b9f1-bbf6af567e33","system_id":"levelo_inurba_marseille","lat":43.29605,"lon":5.37722,"is_reserved":false,"is_disabled":false,"rental_uris":{"android":"levelo://app?vid=37eae820-b39c-4a10-b9f1-bbf6af567e33","ios":"levelo://app?vid=37eae820-b39c-4a10-b9f1-bbf6af567e33"},"vehicle_type_id":"4","last_reported":1776793861,"current_range_meters":8400,"station_id":"ce4bgi92rcd13ifvqb90","pricing_plan_id":"cebpf4jnsgd1na2vs0mg"},{"bike_id":"ae1a0ce0-3e2e-4cf2-b858-405a12aeabc1","system_id":"levelo_inurba_marseille","lat":43.27072,"lon":5.42294,"is_reserved":false,"is_disabled":false,"rental_uris":{"android":"levelo://app?vid=ae1a0ce0-3e2e-4cf2-b858-405a12aeabc1","ios":"levelo://app?vid=ae1a0ce0-3e2e-4cf2-b858-405a12aeabc1"},"vehicle_type_id":"4","last_reported":1776793861,"current_range_meters":8400,"station_id":"ce4bhk92rcd13ifvqgb0","pricing_plan_id":"cebpf4jnsgd1na2vs0mg"},{"bike_id":"d9be86bb-6c4e-4c05-bc60-e02431cbb916","system_id":"levelo_inurba_marseille","lat":43.31918,"lon":5.36847,"is_reserved":false,"is_disabled":false,"rental_uris":{"android":"levelo://app?vid=d9be86bb-6c4e-4c05-bc60-e02431cbb916","ios":"levelo://app?vid=d9be86bb-6c4e-4c05-bc60-e02431cbb916"},"vehicle_type_id":"4","last_reported":1776793861,"current_range_meters":8400,"station_id":"st_d6o2h0d0559c73evc1b0","pricing_plan_id":"cebpf4jnsgd1na2vs0mg"},{"bike_id":"3448f0f4-d448-4b78-8559-0a980538ebbf","system_id":"levelo_inurba_marseille","lat":43.29508,"lon":5.43303,"is_reserved":false,"is_disabled":false,"rental_uris":{"android":"levelo://app?vid=3448f0f4-d448-4b78-8559-0a980538ebbf","ios":"levelo://app?vid=3448f0f4-d448-4b78-8559-0a980538ebbf"},"vehicle_type_id":"4","last_reported":1776793861,"current_range_meters":8400,"station_id":"st_d3j5ugp08ojc73fj9d10","pricing_plan_id":"cebpf4jnsgd1na2vs0mg"},{"bike_id":"fafbdf42-6101-42a9-8140-1196ff6e4f28","system_id":"levelo_inurba_marseille","lat":43.29577,"lon":5.37527,"is_reserved":false,"is_disabled":false,"rental_uris":{"android":"levelo://app?vid=fafbdf42-6101-42a9-8140-1196ff6e4f28","ios":"levelo://app?vid=fafbdf42-6101-42a9-8140-1196ff6e4f28"},"vehicle_type_id":"4","last_reported":1776793861,"current_range_meters":8400,"station_id":"ce4bgh92rcd13ifvqb50","pricing_plan_id":"cebpf4jnsgd1na2vs0mg"},{"bike_id":"d13ec772-9f71-4892-831f-160228880b65","system_id":"levelo_inurba_marseille","lat":43.25002,"lon":5.38928,"is_reserved":false,"is_disabled":false,"rental_uris":{"android":"levelo://app?vid=d13ec772-9f71-4892-831f-160228880b65","ios":"levelo://app?vid=d13ec772-9f71-4892-831f-160228880b65"},"vehicle_type_id":"4","last_reported":1776793861,"current_range_meters":8400,"station_id":"ce4bhgp2rcd13ifvqfd0","pricing_plan_id":"cebpf4jnsgd1na2vs0mg"},{"bike_id":"e0967d21-e5a7-45e2-b945-219086e47c10","system_id":"levelo_inurba_marseille","lat":43.27911,"lon":5.38025,"is_reserved":false,"is_disabled":false,"rental_uris":{"android":"levelo://app?vid=e0967d21-e5a7-45e2-b945-219086e47c10","ios":"levelo://app?vid=e0967d21-e5a7-45e2-b945-219086e47c10"},"vehicle_type_id":"4","last_reported":1776793861,"current_range_meters":8400,"station_id":"ce4bhf92rcd13ifvqf50","pricing_plan_id":"cebpf4jnsgd1na2vs0mg"},{"bike_id":"5b31ba61-f229-47dd-99bf-d4aac0400a73","system_id":"levelo_inurba_marseille","lat":43.28422,"lon":5.35005,"is_reserved":false,"is_disabled":false,"rental_uris":{"android":"levelo://app?vid=5b31ba61-f229-47dd-99bf-d4aac0400a73","ios":"levelo://app?vid=5b31ba61-f229-47dd-99bf-d4aac0400a73"},"vehicle_type_id":"4","last_reported":1776793861,"current_range_meters":8400,"station_id":"ce4bhbh2rcd13ifvqepg","pricing_plan_id":"cebpf4jnsgd1na2vs0mg"},{"bike_id":"1cd11d61-8adf-44c3-8492-93adec62f17f","system_id":"levelo_inurba_marseille","lat":43.2655,"lon":5.3729,"is_reserved":false,"is_disabled":false,"rental_uris":{"android":"levelo://app?vid=1cd11d61-8adf-44c3-8492-93adec62f17f","ios":"levelo://app?vid=1cd11d61-8adf-44c3-8492-93adec62f17f"},"vehicle_type_id":"4","last_reported":1776793861,"current_range_meters":8400,"station_id":"ce4bhg12rcd13ifvqf70","pricing_plan_id":"cebpf4jnsgd1na2vs0mg"},{"bike_id":"61b3aea9-0113-4ac0-b8e1-3dc8d194446c","system_id":"levelo_inurba_marseille","lat":43.30133,"lon":5.43131,"is_reserved":false,"is_disabled":true,"rental_uris":{"android":"levelo://app?vid=61b3aea9-0113-4ac0-b8e1-3dc8d194446c","ios":"levelo://app?vid=61b3aea9-0113-4ac0-b8e1-3dc8d194446c"},"vehicle_type_id":"4","last_reported":1776793861,"current_range_meters":8400,"station_id":"st_d3js3co5814s73ftftug","pricing_plan_id":"cebpf4jnsgd1na2vs0mg"},{"bike_id":"a511edf3-b3d3-43e5-9e77-baa7c129208e","system_id":"levelo_inurba_marseille","lat":43.28405,"lon":5.34994,"is_reserved":false,"is_disabled":false,"rental_uris":{"android":"levelo://app?vid=a511edf3-b3d3-43e5-9e77-baa7c129208e","ios":"levelo://app?vid=a511edf3-b3d3-43e5-9e77-baa7c129208e"},"vehicle_type_id":"4","last_reported":1776793861,"current_range_meters":8400,"station_id":"ce4bhbh2rcd13ifvqepg","pricing_plan_id":"cebpf4jnsgd1na2vs0mg"},{"bike_id":"f36b765d-0d6f-4a5f-9f6c-3cb9e1935dc2","system_id":"levelo_inurba_marseille","lat":43.29812,"lon":5.37691,"is_reserved":false,"is_disabled":false,"rental_uris":{"android":"levelo://app?vid=f36b765d-0d6f-4a5f-9f6c-3cb9e1935dc2","ios":"levelo://app?vid=f36b765d-0d6f-4a5f-9f6c-3cb9e1935dc2"},"vehicle_type_id":"4","last_reported":1776793861,"current_range_meters":8800,"station_id":"","pricing_plan_id":"cebpf4jnsgd1na2vs0mg"},{"bike_id":"156a9278-c7f8-442d-9b54-2a52d275e0c5","system_id":"levelo_inurba_marseille","lat":43.28622,"lon":5.35089,"is_reserved":false,"is_disabled":true,"rental_uris":{"android":"levelo://app?vid=156a9278-c7f8-442d-9b54-2a52d275e0c5","ios":"levelo://app?vid=156a9278-c7f8-442d-9b54-2a52d275e0c5"},"vehicle_type_id":"4","last_reported":1776793861,"current_range_meters":8800,"station_id":"ce4bhch2rcd13ifvqeug","pricing_plan_id":"cebpf4jnsgd1na2vs0mg"},{"bike_id":"0cfb2b68-bee7-45a9-b197-4342c6f62233","system_id":"levelo_inurba_marseille","lat":43.28425,"lon":5.34993,"is_reserved":false,"is_disabled":false,"rental_uris":{"android":"levelo://app?vid=0cfb2b68-bee7-45a9-b197-4342c6f62233","ios":"levelo://app?vid=0cfb2b68-bee7-45a9-b197-4342c6f62233"},"vehicle_type_id":"4","last_reported":1776793861,"current_range_meters":8800,"station_id":"ce4bhbh2rcd13ifvqepg","pricing_plan_id":"cebpf4jnsgd1na2vs0mg"},{"bike_id":"491149f2-9882-4f8d-8d05-4434bd331921","system_id":"levelo_inurba_marseille","lat":43.23964,"lon":5.36631,"is_reserved":false,"is_disabled":false,"rental_uris":{"android":"levelo://app?vid=491149f2-9882-4f8d-8d05-4434bd331921","ios":"levelo://app?vid=491149f2-9882-4f8d-8d05-4434bd331921"},"vehicle_type_id":"4","last_reported":1776793861,"current_range_meters":8800,"station_id":"ce4bhi12rcd13ifvqfp0","pricing_plan_id":"cebpf4jnsgd1na2vs0mg"},{"bike_id":"9b5f530a-feb3-40f8-b325-17ef686ceeee","system_id":"levelo_inurba_marseille","lat":43.29131,"lon":5.38543,"is_reserved":false,"is_disabled":false,"rental_uris":{"android":"levelo://app?vid=9b5f530a-feb3-40f8-b325-17ef686ceeee","ios":"levelo://app?vid=9b5f530a-feb3-40f8-b325-17ef686ceeee"},"vehicle_type_id":"4","last_reported":1776793861,"current_range_meters":8800,"station_id":"","pricing_plan_id":"cebpf4jnsgd1na2vs0mg"},{"bike_id":"1aa14615-7c31-4e6b-beba-3e956c21dd8d","system_id":"levelo_inurba_marseille","lat":43.30772,"lon":5.37676,"is_reserved":false,"is_disabled":false,"rental_uris":{"android":"levelo://app?vid=1aa14615-7c31-4e6b-beba-3e956c21dd8d","ios":"levelo://app?vid=1aa14615-7c31-4e6b-beba-3e956c21dd8d"},"vehicle_type_id":"4","last_reported":1776793861,"current_range_meters":8800,"station_id":"ce4bgv92rcd13ifvqcq0","pricing_plan_id":"cebpf4jnsgd1na2vs0mg"},{"bike_id":"a17722a5-0933-4213-98dd-37d3e07432f2","system_id":"levelo_inurba_marseille","lat":43.28713,"lon":5.46661,"is_reserved":false,"is_disabled":false,"rental_uris":{"android":"levelo://app?vid=a17722a5-0933-4213-98dd-37d3e07432f2","ios":"levelo://app?vid=a17722a5-0933-4213-98dd-37d3e07432f2"},"vehicle_type_id":"4","last_reported":1776793861,"current_range_meters":8800,"station_id":"st_d6tc3vkotcvc738tfjhg","pricing_plan_id":"cebpf4jnsgd1na2vs0mg"},{"bike_id":"8849007d-8b53-45cd-9b99-15d8f2c53a75","system_id":"levelo_inurba_marseille","lat":43.27908,"lon":5.38015,"is_reserved":false,"is_disabled":false,"rental_uris":{"android":"levelo://app?vid=8849007d-8b53-45cd-9b99-15d8f2c53a75","ios":"levelo://app?vid=8849007d-8b53-45cd-9b99-15d8f2c53a75"},"vehicle_type_id":"4","last_reported":1776793861,"current_range_meters":8800,"station_id":"ce4bhf92rcd13ifvqf50","pricing_plan_id":"cebpf4jnsgd1na2vs0mg"},{"bike_id":"0cf9c7d1-4ff6-4885-afdb-1945ed4e0993","system_id":"levelo_inurba_marseille","lat":43.2964,"lon":5.40595,"is_reserved":false,"is_disabled":true,"rental_uris":{"android":"levelo://app?vid=0cf9c7d1-4ff6-4885-afdb-1945ed4e0993","ios":"levelo://app?vid=0cf9c7d1-4ff6-4885-afdb-1945ed4e0993"},"vehicle_type_id":"4","last_reported":1776793861,"current_range_meters":8800,"station_id":"ce4bh0h2rcd13ifvqd60","pricing_plan_id":"cebpf4jnsgd1na2vs0mg"},{"bike_id":"5a60d659-0e1d-4a02-989c-94e10d29f487","system_id":"levelo_inurba_marseille","lat":43.3414,"lon":5.40912,"is_reserved":false,"is_disabled":false,"rental_uris":{"android":"levelo://app?vid=5a60d659-0e1d-4a02-989c-94e10d29f487","ios":"levelo://app?vid=5a60d659-0e1d-4a02-989c-94e10d29f487"},"vehicle_type_id":"4","last_reported":1776793861,"current_range_meters":8800,"station_id":"ce4bhqh2rcd13ifvqhlg","pricing_plan_id":"cebpf4jnsgd1na2vs0mg"},{"bike_id":"37d0507a-9aae-4e51-be24-9c2d7111ce5d","system_id":"levelo_inurba_marseille","lat":43.29531,"lon":5.38532,"is_reserved":false,"is_disabled":false,"rental_uris":{"android":"levelo://app?vid=37d0507a-9aae-4e51-be24-9c2d7111ce5d","ios":"levelo://app?vid=37d0507a-9aae-4e51-be24-9c2d7111ce5d"},"vehicle_type_id":"4","last_reported":1776793861,"current_range_meters":8800,"station_id":"ce4bgih2rcd13ifvqba0","pricing_plan_id":"cebpf4jnsgd1na2vs0mg"},{"bike_id":"468b098b-8742-43b6-94e4-77df021ec20c","system_id":"levelo_inurba_marseille","lat":43.30734,"lon":5.42436,"is_reserved":false,"is_disabled":false,"rental_uris":{"android":"levelo://app?vid=468b098b-8742-43b6-94e4-77df021ec20c","ios":"levelo://app?vid=468b098b-8742-43b6-94e4-77df021ec20c"},"vehicle_type_id":"4","last_reported":1776793861,"current_range_meters":8800,"station_id":"st_cvj6ca6bvosntc0bfgr0","pricing_plan_id":"cebpf4jnsgd1na2vs0mg"},{"bike_id":"7da03474-09b2-44d7-aed2-64f78735c9f7","system_id":"levelo_inurba_marseille","lat":43.28413,"lon":5.34997,"is_reserved":false,"is_disabled":false,"rental_uris":{"android":"levelo://app?vid=7da03474-09b2-44d7-aed2-64f78735c9f7","ios":"levelo://app?vid=7da03474-09b2-44d7-aed2-64f78735c9f7"},"vehicle_type_id":"4","last_reported":1776793861,"current_range_meters":8800,"station_id":"ce4bhbh2rcd13ifvqepg","pricing_plan_id":"cebpf4jnsgd1na2vs0mg"},{"bike_id":"a5932d33-7fe4-4ab5-ab73-558a4a420627","system_id":"levelo_inurba_marseille","lat":43.24445,"lon":5.40039,"is_reserved":false,"is_disabled":false,"rental_uris":{"android":"levelo://app?vid=a5932d33-7fe4-4ab5-ab73-558a4a420627","ios":"levelo://app?vid=a5932d33-7fe4-4ab5-ab73-558a4a420627"},"vehicle_type_id":"4","last_reported":1776793861,"current_range_meters":8800,"station_id":"","pricing_plan_id":"cebpf4jnsgd1na2vs0mg"},{"bike_id":"43972b8b-58b1-4193-825a-00018c01ef49","system_id":"levelo_inurba_marseille","lat":43.29251,"lon":5.38439,"is_reserved":false,"is_disabled":false,"rental_uris":{"android":"levelo://app?vid=43972b8b-58b1-4193-825a-00018c01ef49","ios":"levelo://app?vid=43972b8b-58b1-4193-825a-00018c01ef49"},"vehicle_type_id":"4","last_reported":1776793861,"current_range_meters":8800,"station_id":"ce4bh692rcd13ifvqea0","pricing_plan_id":"cebpf4jnsgd1na2vs0mg"},{"bike_id":"3aa9d580-2838-441f-8868-190e4f2d7fcf","system_id":"levelo_inurba_marseille","lat":43.27905,"lon":5.38017,"is_reserved":false,"is_disabled":false,"rental_uris":{"android":"levelo://app?vid=3aa9d580-2838-441f-8868-190e4f2d7fcf","ios":"levelo://app?vid=3aa9d580-2838-441f-8868-190e4f2d7fcf"},"vehicle_type_id":"4","last_reported":1776793861,"current_range_meters":9200,"station_id":"ce4bhf92rcd13ifvqf50","pricing_plan_id":"cebpf4jnsgd1na2vs0mg"},{"bike_id":"07a9a8e0-ee81-4fc3-882a-eff9eff6e772","system_id":"levelo_inurba_marseille","lat":43.27629,"lon":5.3608,"is_reserved":false,"is_disabled":false,"rental_uris":{"android":"levelo://app?vid=07a9a8e0-ee81-4fc3-882a-eff9eff6e772","ios":"levelo://app?vid=07a9a8e0-ee81-4fc3-882a-eff9eff6e772"},"vehicle_type_id":"4","last_reported":1776793861,"current_range_meters":9200,"station_id":"ce4bgj92rcd13ifvqbe0","pricing_plan_id":"cebpf4jnsgd1na2vs0mg"},{"bike_id":"af2109e2-c5c8-4c3c-bd6e-8961d013a6d5","system_id":"levelo_inurba_marseille","lat":43.30146,"lon":5.37412,"is_reserved":false,"is_disabled":false,"rental_uris":{"android":"levelo://app?vid=af2109e2-c5c8-4c3c-bd6e-8961d013a6d5","ios":"levelo://app?vid=af2109e2-c5c8-4c3c-bd6e-8961d013a6d5"},"vehicle_type_id":"4","last_reported":1776793861,"current_range_meters":9200,"station_id":"ce4bgs92rcd13ifvqcc0","pricing_plan_id":"cebpf4jnsgd1na2vs0mg"},{"bike_id":"6a0ecfa3-9dad-41c3-aa70-9d3f23dda58e","system_id":"levelo_inurba_marseille","lat":43.30307,"lon":5.36889,"is_reserved":false,"is_disabled":false,"rental_uris":{"android":"levelo://app?vid=6a0ecfa3-9dad-41c3-aa70-9d3f23dda58e","ios":"levelo://app?vid=6a0ecfa3-9dad-41c3-aa70-9d3f23dda58e"},"vehicle_type_id":"4","last_reported":1776793861,"current_range_meters":9200,"station_id":"ce4bgqh2rcd13ifvqc5g","pricing_plan_id":"cebpf4jnsgd1na2vs0mg"},{"bike_id":"04257b95-4499-46e1-a4e3-88ab526291ba","system_id":"levelo_inurba_marseille","lat":43.28487,"lon":5.48392,"is_reserved":false,"is_disabled":false,"rental_uris":{"android":"levelo://app?vid=04257b95-4499-46e1-a4e3-88ab526291ba","ios":"levelo://app?vid=04257b95-4499-46e1-a4e3-88ab526291ba"},"vehicle_type_id":"4","last_reported":1776793861,"current_range_meters":9200,"station_id":"st_d3svhcjqgbts73a3dn0g","pricing_plan_id":"cebpf4jnsgd1na2vs0mg"},{"bike_id":"efafe04d-4c99-4008-b213-fd769bff4eb0","system_id":"levelo_inurba_marseille","lat":43.29517,"lon":5.39402,"is_reserved":false,"is_disabled":true,"rental_uris":{"android":"levelo://app?vid=efafe04d-4c99-4008-b213-fd769bff4eb0","ios":"levelo://app?vid=efafe04d-4c99-4008-b213-fd769bff4eb0"},"vehicle_type_id":"4","last_reported":1776793861,"current_range_meters":9200,"station_id":"ce4bh292rcd13ifvqdf0","pricing_plan_id":"cebpf4jnsgd1na2vs0mg"},{"bike_id":"cc8e0707-4992-491a-ad28-c94288565819","system_id":"levelo_inurba_marseille","lat":43.29534,"lon":5.38526,"is_reserved":false,"is_disabled":false,"rental_uris":{"android":"levelo://app?vid=cc8e0707-4992-491a-ad28-c94288565819","ios":"levelo://app?vid=cc8e0707-4992-491a-ad28-c94288565819"},"vehicle_type_id":"4","last_reported":1776793861,"current_range_meters":9200,"station_id":"ce4bgih2rcd13ifvqba0","pricing_plan_id":"cebpf4jnsgd1na2vs0mg"},{"bike_id":"813097ab-4c50-4cc8-aa28-a6839ce10568","system_id":"levelo_inurba_marseille","lat":43.3043,"lon":5.39748,"is_reserved":false,"is_disabled":false,"rental_uris":{"android":"levelo://app?vid=813097ab-4c50-4cc8-aa28-a6839ce10568","ios":"levelo://app?vid=813097ab-4c50-4cc8-aa28-a6839ce10568"},"vehicle_type_id":"4","last_reported":1776793861,"current_range_meters":9200,"station_id":"ce4bh092rcd13ifvqd20","pricing_plan_id":"cebpf4jnsgd1na2vs0mg"},{"bike_id":"a541cb34-ee48-48f0-993c-c14d7cbb75b7","system_id":"levelo_inurba_marseille","lat":43.24178,"lon":5.39743,"is_reserved":false,"is_disabled":false,"rental_uris":{"android":"levelo://app?vid=a541cb34-ee48-48f0-993c-c14d7cbb75b7","ios":"levelo://app?vid=a541cb34-ee48-48f0-993c-c14d7cbb75b7"},"vehicle_type_id":"4","last_reported":1776793861,"current_range_meters":9200,"station_id":"ce4bhn12rcd13ifvqgpg","pricing_plan_id":"cebpf4jnsgd1na2vs0mg"},{"bike_id":"6d804725-3e06-48aa-bb02-3731fe39ff8c","system_id":"levelo_inurba_marseille","lat":43.29535,"lon":5.38538,"is_reserved":false,"is_disabled":false,"rental_uris":{"android":"levelo://app?vid=6d804725-3e06-48aa-bb02-3731fe39ff8c","ios":"levelo://app?vid=6d804725-3e06-48aa-bb02-3731fe39ff8c"},"vehicle_type_id":"4","last_reported":1776793861,"current_range_meters":9200,"station_id":"ce4bgih2rcd13ifvqba0","pricing_plan_id":"cebpf4jnsgd1na2vs0mg"},{"bike_id":"5719f28c-fad3-46ef-9ef9-3fafe34149b6","system_id":"levelo_inurba_marseille","lat":43.28104,"lon":5.37853,"is_reserved":false,"is_disabled":false,"rental_uris":{"android":"levelo://app?vid=5719f28c-fad3-46ef-9ef9-3fafe34149b6","ios":"levelo://app?vid=5719f28c-fad3-46ef-9ef9-3fafe34149b6"},"vehicle_type_id":"4","last_reported":1776793861,"current_range_meters":9200,"station_id":"ce4bha12rcd13ifvqee0","pricing_plan_id":"cebpf4jnsgd1na2vs0mg"},{"bike_id":"e4470980-b65c-4b6a-adf3-8e9408816e0b","system_id":"levelo_inurba_marseille","lat":43.28409,"lon":5.34996,"is_reserved":false,"is_disabled":false,"rental_uris":{"android":"levelo://app?vid=e4470980-b65c-4b6a-adf3-8e9408816e0b","ios":"levelo://app?vid=e4470980-b65c-4b6a-adf3-8e9408816e0b"},"vehicle_type_id":"4","last_reported":1776793861,"current_range_meters":9200,"station_id":"ce4bhbh2rcd13ifvqepg","pricing_plan_id":"cebpf4jnsgd1na2vs0mg"},{"bike_id":"beafb519-18ba-43f5-901e-4d2a35f80af8","system_id":"levelo_inurba_marseille","lat":43.24395,"lon":5.37074,"is_reserved":false,"is_disabled":false,"rental_uris":{"android":"levelo://app?vid=beafb519-18ba-43f5-901e-4d2a35f80af8","ios":"levelo://app?vid=beafb519-18ba-43f5-901e-4d2a35f80af8"},"vehicle_type_id":"4","last_reported":1776793861,"current_range_meters":9200,"station_id":"ce4bhhh2rcd13ifvqfk0","pricing_plan_id":"cebpf4jnsgd1na2vs0mg"},{"bike_id":"353dbd75-4f34-4a0c-8a05-bb9d61e99cd2","system_id":"levelo_inurba_marseille","lat":43.30263,"lon":5.40073,"is_reserved":false,"is_disabled":false,"rental_uris":{"android":"levelo://app?vid=353dbd75-4f34-4a0c-8a05-bb9d61e99cd2","ios":"levelo://app?vid=353dbd75-4f34-4a0c-8a05-bb9d61e99cd2"},"vehicle_type_id":"4","last_reported":1776793861,"current_range_meters":9200,"station_id":"ce4bgvh2rcd13ifvqcs0","pricing_plan_id":"cebpf4jnsgd1na2vs0mg"},{"bike_id":"fd6523c6-ed34-4c3b-9867-9c0a23461711","system_id":"levelo_inurba_marseille","lat":43.27077,"lon":5.42279,"is_reserved":false,"is_disabled":false,"rental_uris":{"android":"levelo://app?vid=fd6523c6-ed34-4c3b-9867-9c0a23461711","ios":"levelo://app?vid=fd6523c6-ed34-4c3b-9867-9c0a23461711"},"vehicle_type_id":"4","last_reported":1776793861,"current_range_meters":9200,"station_id":"ce4bhk92rcd13ifvqgb0","pricing_plan_id":"cebpf4jnsgd1na2vs0mg"},{"bike_id":"0f4b732c-fd60-4637-83aa-a503c2a820ac","system_id":"levelo_inurba_marseille","lat":43.31329,"lon":5.39689,"is_reserved":false,"is_disabled":false,"rental_uris":{"android":"levelo://app?vid=0f4b732c-fd60-4637-83aa-a503c2a820ac","ios":"levelo://app?vid=0f4b732c-fd60-4637-83aa-a503c2a820ac"},"vehicle_type_id":"4","last_reported":1776793861,"current_range_meters":9200,"station_id":"ce4bgvp2rcd13ifvqcu0","pricing_plan_id":"cebpf4jnsgd1na2vs0mg"},{"bike_id":"059b4ad8-665d-46df-9a3f-e9b9a20a1c99","system_id":"levelo_inurba_marseille","lat":43.33554,"lon":5.3746,"is_reserved":false,"is_disabled":false,"rental_uris":{"android":"levelo://app?vid=059b4ad8-665d-46df-9a3f-e9b9a20a1c99","ios":"levelo://app?vid=059b4ad8-665d-46df-9a3f-e9b9a20a1c99"},"vehicle_type_id":"4","last_reported":1776793861,"current_range_meters":9200,"station_id":"st_d46tts09ee8s73dlu43g","pricing_plan_id":"cebpf4jnsgd1na2vs0mg"},{"bike_id":"5bc7df5e-5e82-4f14-b446-6daf4f972fa7","system_id":"levelo_inurba_marseille","lat":43.28942,"lon":5.36596,"is_reserved":false,"is_disabled":false,"rental_uris":{"android":"levelo://app?vid=5bc7df5e-5e82-4f14-b446-6daf4f972fa7","ios":"levelo://app?vid=5bc7df5e-5e82-4f14-b446-6daf4f972fa7"},"vehicle_type_id":"4","last_reported":1776793861,"current_range_meters":9200,"station_id":"ce4bhap2rcd13ifvqek0","pricing_plan_id":"cebpf4jnsgd1na2vs0mg"},{"bike_id":"d799120a-31bd-46a7-9995-478a5f10218f","system_id":"levelo_inurba_marseille","lat":43.30893,"lon":5.39622,"is_reserved":false,"is_disabled":false,"rental_uris":{"android":"levelo://app?vid=d799120a-31bd-46a7-9995-478a5f10218f","ios":"levelo://app?vid=d799120a-31bd-46a7-9995-478a5f10218f"},"vehicle_type_id":"4","last_reported":1776793861,"current_range_meters":9600,"station_id":"ce4bh012rcd13ifvqcv0","pricing_plan_id":"cebpf4jnsgd1na2vs0mg"},{"bike_id":"32023100-5ce8-4637-ad41-206e633c27ce","system_id":"levelo_inurba_marseille","lat":43.24817,"lon":5.37447,"is_reserved":false,"is_disabled":true,"rental_uris":{"android":"levelo://app?vid=32023100-5ce8-4637-ad41-206e633c27ce","ios":"levelo://app?vid=32023100-5ce8-4637-ad41-206e633c27ce"},"vehicle_type_id":"4","last_reported":1776793861,"current_range_meters":9600,"station_id":"ce4bhgh2rcd13ifvqfb0","pricing_plan_id":"cebpf4jnsgd1na2vs0mg"},{"bike_id":"fc83597b-c92a-4d6b-9ec3-85cccb5b70a7","system_id":"levelo_inurba_marseille","lat":43.3199,"lon":5.36811,"is_reserved":false,"is_disabled":false,"rental_uris":{"android":"levelo://app?vid=fc83597b-c92a-4d6b-9ec3-85cccb5b70a7","ios":"levelo://app?vid=fc83597b-c92a-4d6b-9ec3-85cccb5b70a7"},"vehicle_type_id":"4","last_reported":1776793861,"current_range_meters":9600,"station_id":"","pricing_plan_id":"cebpf4jnsgd1na2vs0mg"},{"bike_id":"6fc3f9d9-05e6-40c2-9aed-78d958ab62c1","system_id":"levelo_inurba_marseille","lat":43.25577,"lon":5.38239,"is_reserved":false,"is_disabled":false,"rental_uris":{"android":"levelo://app?vid=6fc3f9d9-05e6-40c2-9aed-78d958ab62c1","ios":"levelo://app?vid=6fc3f9d9-05e6-40c2-9aed-78d958ab62c1"},