{"last_updated":1707109666,"ttl":30,"version":"2.2","data":{"bikes":[{"bike_id":"fe9d2c7f-9e4c-4c7d-8fdd-830777cdee4b","system_id":"levelo_inurba_marseille","lat":43.313515,"lon":5.367139,"is_reserved":false,"is_disabled":false,"rental_uris":{"android":"levelo://app?vid=fe9d2c7f-9e4c-4c7d-8fdd-830777cdee4b","ios":"levelo://app?vid=fe9d2c7f-9e4c-4c7d-8fdd-830777cdee4b"},"vehicle_type_id":"4","last_reported":1707109666,"current_range_meters":28800,"station_id":"ce4bgr92rcd13ifvqc6g","pricing_plan_id":"free"},{"bike_id":"503b0865-7f5d-4a96-8566-7ae4b3d43232","system_id":"levelo_inurba_marseille","lat":43.312239,"lon":5.368562,"is_reserved":false,"is_disabled":false,"rental_uris":{"android":"levelo://app?vid=503b0865-7f5d-4a96-8566-7ae4b3d43232","ios":"levelo://app?vid=503b0865-7f5d-4a96-8566-7ae4b3d43232"},"vehicle_type_id":"4","last_reported":1707109666,"current_range_meters":29600,"station_id":"ce4bgl92rcd13ifvqbq0","pricing_plan_id":"free"},{"bike_id":"be714dbf-6c3c-4dfa-a584-a8f58f297942","system_id":"levelo_inurba_marseille","lat":43.312239,"lon":5.368562,"is_reserved":false,"is_disabled":false,"rental_uris":{"android":"levelo://app?vid=be714dbf-6c3c-4dfa-a584-a8f58f297942","ios":"levelo://app?vid=be714dbf-6c3c-4dfa-a584-a8f58f297942"},"vehicle_type_id":"4","last_reported":1707109666,"current_range_meters":6800,"station_id":"ce4bgl92rcd13ifvqbq0","pricing_plan_id":"free"},{"bike_id":"35a28d90-9f13-4a19-b701-d5c53651f8b5","system_id":"levelo_inurba_marseille","lat":43.312239,"lon":5.368562,"is_reserved":false,"is_disabled":false,"rental_uris":{"android":"levelo://app?vid=35a28d90-9f13-4a19-b701-d5c53651f8b5","ios":"levelo://app?vid=35a28d90-9f13-4a19-b701-d5c53651f8b5"},"vehicle_type_id":"4","last_reported":1707109666,"current_range_meters":29600,"station_id":"ce4bgl92rcd13ifvqbq0","pricing_plan_id":"free"},{"bike_id":"1a4ec0c2-562d-4cf9-8378-1b3ab4da9b15","system_id":"levelo_inurba_marseille","lat":43.314811,"lon":5.373104,"is_reserved":false,"is_disabled":false,"rental_uris":{"android":"levelo://app?vid=1a4ec0c2-562d-4cf9-8378-1b3ab4da9b15","ios":"levelo://app?vid=1a4ec0c2-562d-4cf9-8378-1b3ab4da9b15"},"vehicle_type_id":"4","last_reported":1707109666,"current_range_meters":28000,"station_id":"ce4bgt12rcd13ifvqcd0","pricing_plan_id":"free"},{"bike_id":"2cca0c93-133d-4f76-ae74-a9ec3c9789e3","system_id":"levelo_inurba_marseille","lat":43.314811,"lon":5.373104,"is_reserved":false,"is_disabled":false,"rental_uris":{"android":"levelo://app?vid=2cca0c93-133d-4f76-ae74-a9ec3c9789e3","ios":"levelo://app?vid=2cca0c93-133d-4f76-ae74-a9ec3c9789e3"},"vehicle_type_id":"4","last_reported":1707109666,"current_range_meters":24800,"station_id":"ce4bgt12rcd13ifvqcd0","pricing_plan_id":"free"},{"bike_id":"40e3a1cd-1487-4fff-ad3d-65d7029ba2b2","system_id":"levelo_inurba_marseille","lat":43.314811,"lon":5.373104,"is_reserved":false,"is_disabled":false,"rental_uris":{"android":"levelo://app?vid=40e3a1cd-1487-4fff-ad3d-65d7029ba2b2","ios":"levelo://app?vid=40e3a1cd-1487-4fff-ad3d-65d7029ba2b2"},"vehicle_type_id":"4","last_reported":1707109666,"current_range_meters":27200,"station_id":"ce4bgt12rcd13ifvqcd0","pricing_plan_id":"free"},{"bike_id":"ee7fd9f5-2c14-4f72-b99a-eaa21599d16d","system_id":"levelo_inurba_marseille","lat":43.309039,"lon":5.371797,"is_reserved":false,"is_disabled":false,"rental_uris":{"android":"levelo://app?vid=ee7fd9f5-2c14-4f72-b99a-eaa21599d16d","ios":"levelo://app?vid=ee7fd9f5-2c14-4f72-b99a-eaa21599d16d"},"vehicle_type_id":"4","last_reported":1707109666,"current_range_meters":29600,"station_id":"ce4bguh2rcd13ifvqckg","pricing_plan_id":"free"},{"bike_id":"6cb3bd70-ef7e-4aa7-8cc8-f420e4d5c003","system_id":"levelo_inurba_marseille","lat":43.309039,"lon":5.371797,"is_reserved":false,"is_disabled":false,"rental_uris":{"android":"levelo://app?vid=6cb3bd70-ef7e-4aa7-8cc8-f420e4d5c003","ios":"levelo://app?vid=6cb3bd70-ef7e-4aa7-8cc8-f420e4d5c003"},"vehicle_type_id":"4","last_reported":1707109666,"current_range_meters":27200,"station_id":"ce4bguh2rcd13ifvqckg","pricing_plan_id":"free"},{"bike_id":"2cb73969-2172-4838-8ba9-4dc1e6ff201e","system_id":"levelo_inurba_marseille","lat":43.30883,"lon":5.371992,"is_reserved":false,"is_disabled":false,"rental_uris":{"android":"levelo://app?vid=2cb73969-2172-4838-8ba9-4dc1e6ff201e","ios":"levelo://app?vid=2cb73969-2172-4838-8ba9-4dc1e6ff201e"},"vehicle_type_id":"4","last_reported":1707109666,"current_range_meters":11600,"station_id":"ce4bguh2rcd13ifvqckg","pricing_plan_id":"free"},{"bike_id":"7106d998-ebce-4b5b-b41d-bc60666b4f73","system_id":"levelo_inurba_marseille","lat":43.3059,"lon":5.37216,"is_reserved":false,"is_disabled":false,"rental_uris":{"android":"levelo://app?vid=7106d998-ebce-4b5b-b41d-bc60666b4f73","ios":"levelo://app?vid=7106d998-ebce-4b5b-b41d-bc60666b4f73"},"vehicle_type_id":"4","last_reported":1707109666,"current_range_meters":15600,"station_id":"ce4bgqh2rcd13ifvqc4g","pricing_plan_id":"free"},{"bike_id":"c5c5f2cf-113d-4fdd-b00b-63c91e45e71d","system_id":"levelo_inurba_marseille","lat":43.311131,"lon":5.377651,"is_reserved":false,"is_disabled":false,"rental_uris":{"android":"levelo://app?vid=c5c5f2cf-113d-4fdd-b00b-63c91e45e71d","ios":"levelo://app?vid=c5c5f2cf-113d-4fdd-b00b-63c91e45e71d"},"vehicle_type_id":"4","last_reported":1707109666,"current_range_meters":20800,"station_id":"ce4bgt92rcd13ifvqcg0","pricing_plan_id":"free"},{"bike_id":"a4e82300-334e-4405-9ac5-a1ff9aa24065","system_id":"levelo_inurba_marseille","lat":43.311131,"lon":5.377651,"is_reserved":false,"is_disabled":false,"rental_uris":{"android":"levelo://app?vid=a4e82300-334e-4405-9ac5-a1ff9aa24065","ios":"levelo://app?vid=a4e82300-334e-4405-9ac5-a1ff9aa24065"},"vehicle_type_id":"4","last_reported":1707109666,"current_range_meters":0,"station_id":"ce4bgt92rcd13ifvqcg0","pricing_plan_id":"free"},{"bike_id":"085707fe-e7c5-428f-b5c7-538194df522d","system_id":"levelo_inurba_marseille","lat":43.311202,"lon":5.377764,"is_reserved":false,"is_disabled":false,"rental_uris":{"android":"levelo://app?vid=085707fe-e7c5-428f-b5c7-538194df522d","ios":"levelo://app?vid=085707fe-e7c5-428f-b5c7-538194df522d"},"vehicle_type_id":"4","last_reported":1707109666,"current_range_meters":25600,"station_id":"ce4bgt92rcd13ifvqcg0","pricing_plan_id":"free"},{"bike_id":"c60e7252-bcc2-4201-a624-aec62d3d6b5d","system_id":"levelo_inurba_marseille","lat":43.316473,"lon":5.376847,"is_reserved":false,"is_disabled":false,"rental_uris":{"android":"levelo://app?vid=c60e7252-bcc2-4201-a624-aec62d3d6b5d","ios":"levelo://app?vid=c60e7252-bcc2-4201-a624-aec62d3d6b5d"},"vehicle_type_id":"4","last_reported":1707109666,"current_range_meters":0,"station_id":"","pricing_plan_id":"free"},{"bike_id":"4cc9047b-f435-4676-81be-b5072421b309","system_id":"levelo_inurba_marseille","lat":43.307945,"lon":5.376487,"is_reserved":false,"is_disabled":false,"rental_uris":{"android":"levelo://app?vid=4cc9047b-f435-4676-81be-b5072421b309","ios":"levelo://app?vid=4cc9047b-f435-4676-81be-b5072421b309"},"vehicle_type_id":"4","last_reported":1707109666,"current_range_meters":31200,"station_id":"ce4bgv92rcd13ifvqcq0","pricing_plan_id":"free"},{"bike_id":"02dec524-8991-47dd-b6dd-6981791a9d04","system_id":"levelo_inurba_marseille","lat":43.307837,"lon":5.376553,"is_reserved":false,"is_disabled":false,"rental_uris":{"android":"levelo://app?vid=02dec524-8991-47dd-b6dd-6981791a9d04","ios":"levelo://app?vid=02dec524-8991-47dd-b6dd-6981791a9d04"},"vehicle_type_id":"4","last_reported":1707109666,"current_range_meters":4800,"station_id":"ce4bgv92rcd13ifvqcq0","pricing_plan_id":"free"},{"bike_id":"e9ede453-eabb-45a9-a7cd-63831562e0a3","system_id":"levelo_inurba_marseille","lat":43.307945,"lon":5.376487,"is_reserved":false,"is_disabled":false,"rental_uris":{"android":"levelo://app?vid=e9ede453-eabb-45a9-a7cd-63831562e0a3","ios":"levelo://app?vid=e9ede453-eabb-45a9-a7cd-63831562e0a3"},"vehicle_type_id":"4","last_reported":1707109666,"current_range_meters":30800,"station_id":"ce4bgv92rcd13ifvqcq0","pricing_plan_id":"free"},{"bike_id":"774968e0-0222-4bb1-957e-ddd45d755b63","system_id":"levelo_inurba_marseille","lat":43.317075,"lon":5.377367,"is_reserved":false,"is_disabled":false,"rental_uris":{"android":"levelo://app?vid=774968e0-0222-4bb1-957e-ddd45d755b63","ios":"levelo://app?vid=774968e0-0222-4bb1-957e-ddd45d755b63"},"vehicle_type_id":"4","last_reported":1707109666,"current_range_meters":24000,"station_id":"ce4bgth2rcd13ifvqch0","pricing_plan_id":"free"},{"bike_id":"28883957-f386-42aa-9226-b2b01477e76b","system_id":"levelo_inurba_marseille","lat":43.317075,"lon":5.377367,"is_reserved":false,"is_disabled":false,"rental_uris":{"android":"levelo://app?vid=28883957-f386-42aa-9226-b2b01477e76b","ios":"levelo://app?vid=28883957-f386-42aa-9226-b2b01477e76b"},"vehicle_type_id":"4","last_reported":1707109666,"current_range_meters":12800,"station_id":"ce4bgth2rcd13ifvqch0","pricing_plan_id":"free"},{"bike_id":"0ef47422-aed9-4612-bf70-7d4b2c3bc7f0","system_id":"levelo_inurba_marseille","lat":43.317075,"lon":5.377367,"is_reserved":false,"is_disabled":false,"rental_uris":{"android":"levelo://app?vid=0ef47422-aed9-4612-bf70-7d4b2c3bc7f0","ios":"levelo://app?vid=0ef47422-aed9-4612-bf70-7d4b2c3bc7f0"},"vehicle_type_id":"4","last_reported":1707109666,"current_range_meters":31600,"station_id":"ce4bgth2rcd13ifvqch0","pricing_plan_id":"free"},{"bike_id":"cae57c84-5bef-406e-8c06-b4965a330fed","system_id":"levelo_inurba_marseille","lat":43.315293,"lon":5.380349,"is_reserved":false,"is_disabled":false,"rental_uris":{"android":"levelo://app?vid=cae57c84-5bef-406e-8c06-b4965a330fed","ios":"levelo://app?vid=cae57c84-5bef-406e-8c06-b4965a330fed"},"vehicle_type_id":"4","last_reported":1707109666,"current_range_meters":26400,"station_id":"ce4bhsp2rcd13ifvqi50","pricing_plan_id":"free"},{"bike_id":"020a1fc9-3d9c-4746-b562-96a6c827806d","system_id":"levelo_inurba_marseille","lat":43.315293,"lon":5.380349,"is_reserved":false,"is_disabled":false,"rental_uris":{"android":"levelo://app?vid=020a1fc9-3d9c-4746-b562-96a6c827806d","ios":"levelo://app?vid=020a1fc9-3d9c-4746-b562-96a6c827806d"},"vehicle_type_id":"4","last_reported":1707109666,"current_range_meters":29600,"station_id":"ce4bhsp2rcd13ifvqi50","pricing_plan_id":"free"},{"bike_id":"b65a265f-87d3-40c3-ba02-a1396d99cb16","system_id":"levelo_inurba_marseille","lat":43.308012,"lon":5.381511,"is_reserved":false,"is_disabled":false,"rental_uris":{"android":"levelo://app?vid=b65a265f-87d3-40c3-ba02-a1396d99cb16","ios":"levelo://app?vid=b65a265f-87d3-40c3-ba02-a1396d99cb16"},"vehicle_type_id":"4","last_reported":1707109666,"current_range_meters":3200,"station_id":"ce4bgt12rcd13ifvqce0","pricing_plan_id":"free"},{"bike_id":"ff3218db-947e-4d70-ae38-c2d21f881e56","system_id":"levelo_inurba_marseille","lat":43.308012,"lon":5.381511,"is_reserved":false,"is_disabled":false,"rental_uris":{"android":"levelo://app?vid=ff3218db-947e-4d70-ae38-c2d21f881e56","ios":"levelo://app?vid=ff3218db-947e-4d70-ae38-c2d21f881e56"},"vehicle_type_id":"4","last_reported":1707109666,"current_range_meters":30400,"station_id":"ce4bgt12rcd13ifvqce0","pricing_plan_id":"free"},{"bike_id":"086f384f-d11b-4b36-b743-3e79c6521b58","system_id":"levelo_inurba_marseille","lat":43.30461,"lon":5.37898,"is_reserved":false,"is_disabled":false,"rental_uris":{"android":"levelo://app?vid=086f384f-d11b-4b36-b743-3e79c6521b58","ios":"levelo://app?vid=086f384f-d11b-4b36-b743-3e79c6521b58"},"vehicle_type_id":"4","last_reported":1707109666,"current_range_meters":10000,"station_id":"ce4bgup2rcd13ifvqcn0","pricing_plan_id":"free"},{"bike_id":"7a061400-59b4-4b68-a22f-e449f5ef234e","system_id":"levelo_inurba_marseille","lat":43.3046,"lon":5.37898,"is_reserved":false,"is_disabled":false,"rental_uris":{"android":"levelo://app?vid=7a061400-59b4-4b68-a22f-e449f5ef234e","ios":"levelo://app?vid=7a061400-59b4-4b68-a22f-e449f5ef234e"},"vehicle_type_id":"4","last_reported":1707109666,"current_range_meters":29600,"station_id":"ce4bgup2rcd13ifvqcn0","pricing_plan_id":"free"},{"bike_id":"5f20f059-5752-4b43-9eb0-840b98333a50","system_id":"levelo_inurba_marseille","lat":43.3046,"lon":5.37898,"is_reserved":false,"is_disabled":false,"rental_uris":{"android":"levelo://app?vid=5f20f059-5752-4b43-9eb0-840b98333a50","ios":"levelo://app?vid=5f20f059-5752-4b43-9eb0-840b98333a50"},"vehicle_type_id":"4","last_reported":1707109666,"current_range_meters":2800,"station_id":"ce4bgup2rcd13ifvqcn0","pricing_plan_id":"free"},{"bike_id":"c62ec861-bae0-4b64-a68a-c23726f1e820","system_id":"levelo_inurba_marseille","lat":43.30463,"lon":5.37902,"is_reserved":false,"is_disabled":false,"rental_uris":{"android":"levelo://app?vid=c62ec861-bae0-4b64-a68a-c23726f1e820","ios":"levelo://app?vid=c62ec861-bae0-4b64-a68a-c23726f1e820"},"vehicle_type_id":"4","last_reported":1707109666,"current_range_meters":15600,"station_id":"ce4bgup2rcd13ifvqcn0","pricing_plan_id":"free"},{"bike_id":"c7b7e1dd-8788-4057-ad5c-bf5d9585e8a5","system_id":"levelo_inurba_marseille","lat":43.30461,"lon":5.37903,"is_reserved":false,"is_disabled":false,"rental_uris":{"android":"levelo://app?vid=c7b7e1dd-8788-4057-ad5c-bf5d9585e8a5","ios":"levelo://app?vid=c7b7e1dd-8788-4057-ad5c-bf5d9585e8a5"},"vehicle_type_id":"4","last_reported":1707109666,"current_range_meters":13600,"station_id":"ce4bgup2rcd13ifvqcn0","pricing_plan_id":"free"},{"bike_id":"e4b70445-254a-47ec-9a8a-bf6985455b43","system_id":"levelo_inurba_marseille","lat":43.304606,"lon":5.379026,"is_reserved":false,"is_disabled":false,"rental_uris":{"android":"levelo://app?vid=e4b70445-254a-47ec-9a8a-bf6985455b43","ios":"levelo://app?vid=e4b70445-254a-47ec-9a8a-bf6985455b43"},"vehicle_type_id":"4","last_reported":1707109666,"current_range_meters":24000,"station_id":"ce4bgup2rcd13ifvqcn0","pricing_plan_id":"free"},{"bike_id":"5284a2cd-89f6-4b2f-8df9-78154674085b","system_id":"levelo_inurba_marseille","lat":43.304606,"lon":5.379026,"is_reserved":false,"is_disabled":false,"rental_uris":{"android":"levelo://app?vid=5284a2cd-89f6-4b2f-8df9-78154674085b","ios":"levelo://app?vid=5284a2cd-89f6-4b2f-8df9-78154674085b"},"vehicle_type_id":"4","last_reported":1707109666,"current_range_meters":30400,"station_id":"ce4bgup2rcd13ifvqcn0","pricing_plan_id":"free"},{"bike_id":"aaab3b75-c1ba-4038-94f6-d2fa261277de","system_id":"levelo_inurba_marseille","lat":43.304606,"lon":5.379026,"is_reserved":false,"is_disabled":false,"rental_uris":{"android":"levelo://app?vid=aaab3b75-c1ba-4038-94f6-d2fa261277de","ios":"levelo://app?vid=aaab3b75-c1ba-4038-94f6-d2fa261277de"},"vehicle_type_id":"4","last_reported":1707109666,"current_range_meters":13200,"station_id":"ce4bgup2rcd13ifvqcn0","pricing_plan_id":"free"},{"bike_id":"a211890a-8784-45e7-a2a7-0247d172eb29","system_id":"levelo_inurba_marseille","lat":43.324771,"lon":5.36557,"is_reserved":false,"is_disabled":false,"rental_uris":{"android":"levelo://app?vid=a211890a-8784-45e7-a2a7-0247d172eb29","ios":"levelo://app?vid=a211890a-8784-45e7-a2a7-0247d172eb29"},"vehicle_type_id":"4","last_reported":1707109666,"current_range_meters":10800,"station_id":"ce4bhs12rcd13ifvqhvg","pricing_plan_id":"free"},{"bike_id":"bc974708-dcbd-4a8a-ac0d-164e8d7c65dc","system_id":"levelo_inurba_marseille","lat":43.32487,"lon":5.36554,"is_reserved":false,"is_disabled":false,"rental_uris":{"android":"levelo://app?vid=bc974708-dcbd-4a8a-ac0d-164e8d7c65dc","ios":"levelo://app?vid=bc974708-dcbd-4a8a-ac0d-164e8d7c65dc"},"vehicle_type_id":"4","last_reported":1707109666,"current_range_meters":19200,"station_id":"ce4bhs12rcd13ifvqhvg","pricing_plan_id":"free"},{"bike_id":"cc1f1f55-cfe9-4d66-88ed-570dd139ade7","system_id":"levelo_inurba_marseille","lat":43.324883,"lon":5.365646,"is_reserved":false,"is_disabled":false,"rental_uris":{"android":"levelo://app?vid=cc1f1f55-cfe9-4d66-88ed-570dd139ade7","ios":"levelo://app?vid=cc1f1f55-cfe9-4d66-88ed-570dd139ade7"},"vehicle_type_id":"4","last_reported":1707109666,"current_range_meters":1600,"station_id":"ce4bhs12rcd13ifvqhvg","pricing_plan_id":"free"},{"bike_id":"a1485eba-7c53-432b-989b-9e88a4ad9301","system_id":"levelo_inurba_marseille","lat":43.3028,"lon":5.37695,"is_reserved":false,"is_disabled":false,"rental_uris":{"android":"levelo://app?vid=a1485eba-7c53-432b-989b-9e88a4ad9301","ios":"levelo://app?vid=a1485eba-7c53-432b-989b-9e88a4ad9301"},"vehicle_type_id":"4","last_reported":1707109666,"current_range_meters":22000,"station_id":"ce4bguh2rcd13ifvqcj0","pricing_plan_id":"free"},{"bike_id":"5dd612ed-4b71-448b-a4c0-78904c5dda2d","system_id":"levelo_inurba_marseille","lat":43.30276,"lon":5.37714,"is_reserved":false,"is_disabled":false,"rental_uris":{"android":"levelo://app?vid=5dd612ed-4b71-448b-a4c0-78904c5dda2d","ios":"levelo://app?vid=5dd612ed-4b71-448b-a4c0-78904c5dda2d"},"vehicle_type_id":"4","last_reported":1707109666,"current_range_meters":18800,"station_id":"ce4bguh2rcd13ifvqcj0","pricing_plan_id":"free"},{"bike_id":"a18abb52-ec20-4708-9e0b-97c717ce7704","system_id":"levelo_inurba_marseille","lat":43.301429,"lon":5.37413,"is_reserved":false,"is_disabled":false,"rental_uris":{"android":"levelo://app?vid=a18abb52-ec20-4708-9e0b-97c717ce7704","ios":"levelo://app?vid=a18abb52-ec20-4708-9e0b-97c717ce7704"},"vehicle_type_id":"4","last_reported":1707109666,"current_range_meters":28800,"station_id":"ce4bgs92rcd13ifvqcc0","pricing_plan_id":"free"},{"bike_id":"f4722360-683c-4330-a41f-ae15de548a95","system_id":"levelo_inurba_marseille","lat":43.319935,"lon":5.381699,"is_reserved":false,"is_disabled":false,"rental_uris":{"android":"levelo://app?vid=f4722360-683c-4330-a41f-ae15de548a95","ios":"levelo://app?vid=f4722360-683c-4330-a41f-ae15de548a95"},"vehicle_type_id":"4","last_reported":1707109666,"current_range_meters":27200,"station_id":"ce4bhr12rcd13ifvqhpg","pricing_plan_id":"free"},{"bike_id":"59cc87ce-3450-43cd-916c-2fef1cd5c80f","system_id":"levelo_inurba_marseille","lat":43.313571,"lon":5.384829,"is_reserved":false,"is_disabled":false,"rental_uris":{"android":"levelo://app?vid=59cc87ce-3450-43cd-916c-2fef1cd5c80f","ios":"levelo://app?vid=59cc87ce-3450-43cd-916c-2fef1cd5c80f"},"vehicle_type_id":"4","last_reported":1707109666,"current_range_meters":28000,"station_id":"ce4bgt92rcd13ifvqcf0","pricing_plan_id":"free"},{"bike_id":"85dcfe40-7253-42f1-9f59-1e1f7882f45e","system_id":"levelo_inurba_marseille","lat":43.299222,"lon":5.365554,"is_reserved":false,"is_disabled":false,"rental_uris":{"android":"levelo://app?vid=85dcfe40-7253-42f1-9f59-1e1f7882f45e","ios":"levelo://app?vid=85dcfe40-7253-42f1-9f59-1e1f7882f45e"},"vehicle_type_id":"4","last_reported":1707109666,"current_range_meters":17200,"station_id":"ce4bgm92rcd13ifvqbr0","pricing_plan_id":"free"},{"bike_id":"dedb6ef0-107a-4e3e-bad6-d6db1dc02d33","system_id":"levelo_inurba_marseille","lat":43.299222,"lon":5.365554,"is_reserved":false,"is_disabled":false,"rental_uris":{"android":"levelo://app?vid=dedb6ef0-107a-4e3e-bad6-d6db1dc02d33","ios":"levelo://app?vid=dedb6ef0-107a-4e3e-bad6-d6db1dc02d33"},"vehicle_type_id":"4","last_reported":1707109666,"current_range_meters":22400,"station_id":"ce4bgm92rcd13ifvqbr0","pricing_plan_id":"free"},{"bike_id":"d73908e2-2bfd-489b-804e-d4e95fac72d2","system_id":"levelo_inurba_marseille","lat":43.326525,"lon":5.36078,"is_reserved":false,"is_disabled":false,"rental_uris":{"android":"levelo://app?vid=d73908e2-2bfd-489b-804e-d4e95fac72d2","ios":"levelo://app?vid=d73908e2-2bfd-489b-804e-d4e95fac72d2"},"vehicle_type_id":"4","last_reported":1707109666,"current_range_meters":19600,"station_id":"","pricing_plan_id":"free"},{"bike_id":"63e8965e-f033-4555-9b4d-2d6003415729","system_id":"levelo_inurba_marseille","lat":43.311722,"lon":5.387247,"is_reserved":false,"is_disabled":false,"rental_uris":{"android":"levelo://app?vid=63e8965e-f033-4555-9b4d-2d6003415729","ios":"levelo://app?vid=63e8965e-f033-4555-9b4d-2d6003415729"},"vehicle_type_id":"4","last_reported":1707109666,"current_range_meters":30000,"station_id":"ce4bgv12rcd13ifvqcp0","pricing_plan_id":"free"},{"bike_id":"aa02d5e6-af2e-4f9d-9e7a-47c8497dae38","system_id":"levelo_inurba_marseille","lat":43.311722,"lon":5.387247,"is_reserved":false,"is_disabled":false,"rental_uris":{"android":"levelo://app?vid=aa02d5e6-af2e-4f9d-9e7a-47c8497dae38","ios":"levelo://app?vid=aa02d5e6-af2e-4f9d-9e7a-47c8497dae38"},"vehicle_type_id":"4","last_reported":1707109666,"current_range_meters":29200,"station_id":"ce4bgv12rcd13ifvqcp0","pricing_plan_id":"free"},{"bike_id":"4acc3e26-503e-4082-90b4-3e255cc9ea62","system_id":"levelo_inurba_marseille","lat":43.311722,"lon":5.387247,"is_reserved":false,"is_disabled":false,"rental_uris":{"android":"levelo://app?vid=4acc3e26-503e-4082-90b4-3e255cc9ea62","ios":"levelo://app?vid=4acc3e26-503e-4082-90b4-3e255cc9ea62"},"vehicle_type_id":"4","last_reported":1707109666,"current_range_meters":30400,"station_id":"ce4bgv12rcd13ifvqcp0","pricing_plan_id":"free"},{"bike_id":"eaabca2f-fa5e-4057-be4c-f475c64f4f93","system_id":"levelo_inurba_marseille","lat":43.297926,"lon":5.371018,"is_reserved":false,"is_disabled":false,"rental_uris":{"android":"levelo://app?vid=eaabca2f-fa5e-4057-be4c-f475c64f4f93","ios":"levelo://app?vid=eaabca2f-fa5e-4057-be4c-f475c64f4f93"},"vehicle_type_id":"4","last_reported":1707109666,"current_range_meters":20800,"station_id":"ce4bgop2rcd13ifvqc1g","pricing_plan_id":"free"},{"bike_id":"dda919da-b4cd-4a9f-a180-9e8be61d124e","system_id":"levelo_inurba_marseille","lat":43.322872,"lon":5.382756,"is_reserved":false,"is_disabled":false,"rental_uris":{"android":"levelo://app?vid=dda919da-b4cd-4a9f-a180-9e8be61d124e","ios":"levelo://app?vid=dda919da-b4cd-4a9f-a180-9e8be61d124e"},"vehicle_type_id":"4","last_reported":1707109666,"current_range_meters":22000,"station_id":"ce4bhr12rcd13ifvqhqg","pricing_plan_id":"free"},{"bike_id":"8b023912-5267-4e1c-a403-4d70b425cebe","system_id":"levelo_inurba_marseille","lat":43.322872,"lon":5.382756,"is_reserved":false,"is_disabled":false,"rental_uris":{"android":"levelo://app?vid=8b023912-5267-4e1c-a403-4d70b425cebe","ios":"levelo://app?vid=8b023912-5267-4e1c-a403-4d70b425cebe"},"vehicle_type_id":"4","last_reported":1707109666,"current_range_meters":30000,"station_id":"ce4bhr12rcd13ifvqhqg","pricing_plan_id":"free"},{"bike_id":"1900e2ea-9239-49b1-933e-57903fa99707","system_id":"levelo_inurba_marseille","lat":43.32826,"lon":5.36695,"is_reserved":false,"is_disabled":false,"rental_uris":{"android":"levelo://app?vid=1900e2ea-9239-49b1-933e-57903fa99707","ios":"levelo://app?vid=1900e2ea-9239-49b1-933e-57903fa99707"},"vehicle_type_id":"4","last_reported":1707109666,"current_range_meters":8400,"station_id":"ce4bhs92rcd13ifvqi0g","pricing_plan_id":"free"},{"bike_id":"38a8c636-7425-4097-bc40-b291d23dba1f","system_id":"levelo_inurba_marseille","lat":43.328371,"lon":5.366912,"is_reserved":false,"is_disabled":false,"rental_uris":{"android":"levelo://app?vid=38a8c636-7425-4097-bc40-b291d23dba1f","ios":"levelo://app?vid=38a8c636-7425-4097-bc40-b291d23dba1f"},"vehicle_type_id":"4","last_reported":1707109666,"current_range_meters":19200,"station_id":"ce4bhs92rcd13ifvqi0g","pricing_plan_id":"free"},{"bike_id":"e3381cea-a03e-41ad-b80e-b28ca715db2d","system_id":"levelo_inurba_marseille","lat":43.328371,"lon":5.366912,"is_reserved":false,"is_disabled":false,"rental_uris":{"android":"levelo://app?vid=e3381cea-a03e-41ad-b80e-b28ca715db2d","ios":"levelo://app?vid=e3381cea-a03e-41ad-b80e-b28ca715db2d"},"vehicle_type_id":"4","last_reported":1707109666,"current_range_meters":0,"station_id":"ce4bhs92rcd13ifvqi0g","pricing_plan_id":"free"},{"bike_id":"0c03f3a1-bbe5-49b5-965c-2bed791d4409","system_id":"levelo_inurba_marseille","lat":43.328371,"lon":5.366912,"is_reserved":false,"is_disabled":false,"rental_uris":{"android":"levelo://app?vid=0c03f3a1-bbe5-49b5-965c-2bed791d4409","ios":"levelo://app?vid=0c03f3a1-bbe5-49b5-965c-2bed791d4409"},"vehicle_type_id":"4","last_reported":1707109666,"current_range_meters":23200,"station_id":"ce4bhs92rcd13ifvqi0g","pricing_plan_id":"free"},{"bike_id":"62aabb2b-c9f9-48ea-a3a4-e4eb79305b81","system_id":"levelo_inurba_marseille","lat":43.328371,"lon":5.366909,"is_reserved":false,"is_disabled":false,"rental_uris":{"android":"levelo://app?vid=62aabb2b-c9f9-48ea-a3a4-e4eb79305b81","ios":"levelo://app?vid=62aabb2b-c9f9-48ea-a3a4-e4eb79305b81"},"vehicle_type_id":"4","last_reported":1707109666,"current_range_meters":11200,"station_id":"ce4bhs92rcd13ifvqi0g","pricing_plan_id":"free"},{"bike_id":"8bea6ee2-bb12-4611-84ff-9527b54da0c8","system_id":"levelo_inurba_marseille","lat":43.296686,"lon":5.367872,"is_reserved":false,"is_disabled":false,"rental_uris":{"android":"levelo://app?vid=8bea6ee2-bb12-4611-84ff-9527b54da0c8","ios":"levelo://app?vid=8bea6ee2-bb12-4611-84ff-9527b54da0c8"},"vehicle_type_id":"4","last_reported":1707109666,"current_range_meters":28400,"station_id":"","pricing_plan_id":"free"},{"bike_id":"54c8e793-aa78-47c9-ae45-8a0506612236","system_id":"levelo_inurba_marseille","lat":43.29573,"lon":5.367355,"is_reserved":false,"is_disabled":false,"rental_uris":{"android":"levelo://app?vid=54c8e793-aa78-47c9-ae45-8a0506612236","ios":"levelo://app?vid=54c8e793-aa78-47c9-ae45-8a0506612236"},"vehicle_type_id":"4","last_reported":1707109666,"current_range_meters":24800,"station_id":"ce4bgph2rcd13ifvqc2g","pricing_plan_id":"free"},{"bike_id":"89550da8-72f8-4231-b4dd-66e6b20473b2","system_id":"levelo_inurba_marseille","lat":43.299028,"lon":5.381509,"is_reserved":false,"is_disabled":false,"rental_uris":{"android":"levelo://app?vid=89550da8-72f8-4231-b4dd-66e6b20473b2","ios":"levelo://app?vid=89550da8-72f8-4231-b4dd-66e6b20473b2"},"vehicle_type_id":"4","last_reported":1707109666,"current_range_meters":28800,"station_id":"ce4bgj12rcd13ifvqbc0","pricing_plan_id":"free"},{"bike_id":"06324b15-7067-4574-b50b-3b3ce1ef258d","system_id":"levelo_inurba_marseille","lat":43.299028,"lon":5.381509,"is_reserved":false,"is_disabled":false,"rental_uris":{"android":"levelo://app?vid=06324b15-7067-4574-b50b-3b3ce1ef258d","ios":"levelo://app?vid=06324b15-7067-4574-b50b-3b3ce1ef258d"},"vehicle_type_id":"4","last_reported":1707109666,"current_range_meters":25600,"station_id":"ce4bgj12rcd13ifvqbc0","pricing_plan_id":"free"},{"bike_id":"14cbf3f9-7153-44b8-a928-4735ab57fcdb","system_id":"levelo_inurba_marseille","lat":43.309589,"lon":5.390258,"is_reserved":false,"is_disabled":false,"rental_uris":{"android":"levelo://app?vid=14cbf3f9-7153-44b8-a928-4735ab57fcdb","ios":"levelo://app?vid=14cbf3f9-7153-44b8-a928-4735ab57fcdb"},"vehicle_type_id":"4","last_reported":1707109666,"current_range_meters":23200,"station_id":"ce4bgup2rcd13ifvqco0","pricing_plan_id":"free"},{"bike_id":"ad51f22f-5340-4259-9a76-7db375d8b5cc","system_id":"levelo_inurba_marseille","lat":43.309589,"lon":5.390258,"is_reserved":false,"is_disabled":false,"rental_uris":{"android":"levelo://app?vid=ad51f22f-5340-4259-9a76-7db375d8b5cc","ios":"levelo://app?vid=ad51f22f-5340-4259-9a76-7db375d8b5cc"},"vehicle_type_id":"4","last_reported":1707109666,"current_range_meters":31600,"station_id":"ce4bgup2rcd13ifvqco0","pricing_plan_id":"free"},{"bike_id":"47c03536-7c5a-482f-8d99-dbdd139d3e82","system_id":"levelo_inurba_marseille","lat":43.309589,"lon":5.390258,"is_reserved":false,"is_disabled":false,"rental_uris":{"android":"levelo://app?vid=47c03536-7c5a-482f-8d99-dbdd139d3e82","ios":"levelo://app?vid=47c03536-7c5a-482f-8d99-dbdd139d3e82"},"vehicle_type_id":"4","last_reported":1707109666,"current_range_meters":31600,"station_id":"ce4bgup2rcd13ifvqco0","pricing_plan_id":"free"},{"bike_id":"40a85205-af79-43c2-bdc9-257280312aae","system_id":"levelo_inurba_marseille","lat":43.317539,"lon":5.390164,"is_reserved":false,"is_disabled":false,"rental_uris":{"android":"levelo://app?vid=40a85205-af79-43c2-bdc9-257280312aae","ios":"levelo://app?vid=40a85205-af79-43c2-bdc9-257280312aae"},"vehicle_type_id":"4","last_reported":1707109666,"current_range_meters":26000,"station_id":"ce4bhqp2rcd13ifvqhng","pricing_plan_id":"free"},{"bike_id":"6cfa88ed-149c-49d5-84f4-6a9acdd199d1","system_id":"levelo_inurba_marseille","lat":43.317557,"lon":5.390173,"is_reserved":false,"is_disabled":false,"rental_uris":{"android":"levelo://app?vid=6cfa88ed-149c-49d5-84f4-6a9acdd199d1","ios":"levelo://app?vid=6cfa88ed-149c-49d5-84f4-6a9acdd199d1"},"vehicle_type_id":"4","last_reported":1707109666,"current_range_meters":19200,"station_id":"ce4bhqp2rcd13ifvqhng","pricing_plan_id":"free"},{"bike_id":"1033b78d-f901-4cfa-8cae-54cb1e173be4","system_id":"levelo_inurba_marseille","lat":43.317557,"lon":5.390173,"is_reserved":false,"is_disabled":false,"rental_uris":{"android":"levelo://app?vid=1033b78d-f901-4cfa-8cae-54cb1e173be4","ios":"levelo://app?vid=1033b78d-f901-4cfa-8cae-54cb1e173be4"},"vehicle_type_id":"4","last_reported":1707109666,"current_range_meters":28000,"station_id":"ce4bhqp2rcd13ifvqhng","pricing_plan_id":"free"},{"bike_id":"2a286b63-3c4a-4893-8f11-dd6a58a41ee4","system_id":"levelo_inurba_marseille","lat":43.317516,"lon":5.390271,"is_reserved":false,"is_disabled":false,"rental_uris":{"android":"levelo://app?vid=2a286b63-3c4a-4893-8f11-dd6a58a41ee4","ios":"levelo://app?vid=2a286b63-3c4a-4893-8f11-dd6a58a41ee4"},"vehicle_type_id":"4","last_reported":1707109666,"current_range_meters":8000,"station_id":"ce4bhqp2rcd13ifvqhng","pricing_plan_id":"free"},{"bike_id":"86eba5ee-3f3e-465e-879d-a26eca611b6f","system_id":"levelo_inurba_marseille","lat":43.318274,"lon":5.390273,"is_reserved":false,"is_disabled":false,"rental_uris":{"android":"levelo://app?vid=86eba5ee-3f3e-465e-879d-a26eca611b6f","ios":"levelo://app?vid=86eba5ee-3f3e-465e-879d-a26eca611b6f"},"vehicle_type_id":"4","last_reported":1707109666,"current_range_meters":14400,"station_id":"","pricing_plan_id":"free"},{"bike_id":"b922aeb4-d56a-4f16-876b-30335af1da2c","system_id":"levelo_inurba_marseille","lat":43.298037,"lon":5.381066,"is_reserved":false,"is_disabled":false,"rental_uris":{"android":"levelo://app?vid=b922aeb4-d56a-4f16-876b-30335af1da2c","ios":"levelo://app?vid=b922aeb4-d56a-4f16-876b-30335af1da2c"},"vehicle_type_id":"4","last_reported":1707109666,"current_range_meters":15600,"station_id":"ce4bgip2rcd13ifvqbb0","pricing_plan_id":"free"},{"bike_id":"9e6ea252-9011-44ce-a307-2b3561a1911b","system_id":"levelo_inurba_marseille","lat":43.298037,"lon":5.381066,"is_reserved":false,"is_disabled":false,"rental_uris":{"android":"levelo://app?vid=9e6ea252-9011-44ce-a307-2b3561a1911b","ios":"levelo://app?vid=9e6ea252-9011-44ce-a307-2b3561a1911b"},"vehicle_type_id":"4","last_reported":1707109666,"current_range_meters":30400,"station_id":"ce4bgip2rcd13ifvqbb0","pricing_plan_id":"free"},{"bike_id":"3c5cb494-3b14-4a2a-8967-f9cf1493f713","system_id":"levelo_inurba_marseille","lat":43.298037,"lon":5.381066,"is_reserved":false,"is_disabled":false,"rental_uris":{"android":"levelo://app?vid=3c5cb494-3b14-4a2a-8967-f9cf1493f713","ios":"levelo://app?vid=3c5cb494-3b14-4a2a-8967-f9cf1493f713"},"vehicle_type_id":"4","last_reported":1707109666,"current_range_meters":25200,"station_id":"ce4bgip2rcd13ifvqbb0","pricing_plan_id":"free"},{"bike_id":"5dab2890-042c-4965-b7bf-0d94b00d5489","system_id":"levelo_inurba_marseille","lat":43.304278,"lon":5.388868,"is_reserved":false,"is_disabled":false,"rental_uris":{"android":"levelo://app?vid=5dab2890-042c-4965-b7bf-0d94b00d5489","ios":"levelo://app?vid=5dab2890-042c-4965-b7bf-0d94b00d5489"},"vehicle_type_id":"4","last_reported":1707109666,"current_range_meters":30400,"station_id":"ce4bgk12rcd13ifvqbi0","pricing_plan_id":"free"},{"bike_id":"1da6440d-e4bf-4775-bea8-1cc78047f191","system_id":"levelo_inurba_marseille","lat":43.304274,"lon":5.388873,"is_reserved":false,"is_disabled":false,"rental_uris":{"android":"levelo://app?vid=1da6440d-e4bf-4775-bea8-1cc78047f191","ios":"levelo://app?vid=1da6440d-e4bf-4775-bea8-1cc78047f191"},"vehicle_type_id":"4","last_reported":1707109666,"current_range_meters":20800,"station_id":"ce4bgk12rcd13ifvqbi0","pricing_plan_id":"free"},{"bike_id":"808c49ff-8c56-4803-9a13-eca71bad3e48","system_id":"levelo_inurba_marseille","lat":43.304278,"lon":5.388868,"is_reserved":false,"is_disabled":false,"rental_uris":{"android":"levelo://app?vid=808c49ff-8c56-4803-9a13-eca71bad3e48","ios":"levelo://app?vid=808c49ff-8c56-4803-9a13-eca71bad3e48"},"vehicle_type_id":"4","last_reported":1707109666,"current_range_meters":30000,"station_id":"ce4bgk12rcd13ifvqbi0","pricing_plan_id":"free"},{"bike_id":"19107991-4eef-4a68-80f6-bdfc45e8e99a","system_id":"levelo_inurba_marseille","lat":43.304274,"lon":5.388873,"is_reserved":false,"is_disabled":false,"rental_uris":{"android":"levelo://app?vid=19107991-4eef-4a68-80f6-bdfc45e8e99a","ios":"levelo://app?vid=19107991-4eef-4a68-80f6-bdfc45e8e99a"},"vehicle_type_id":"4","last_reported":1707109666,"current_range_meters":31600,"station_id":"ce4bgk12rcd13ifvqbi0","pricing_plan_id":"free"},{"bike_id":"6fa6bb43-d14f-45d4-8fc6-7dfe913b079e","system_id":"levelo_inurba_marseille","lat":43.304274,"lon":5.388873,"is_reserved":false,"is_disabled":false,"rental_uris":{"android":"levelo://app?vid=6fa6bb43-d14f-45d4-8fc6-7dfe913b079e","ios":"levelo://app?vid=6fa6bb43-d14f-45d4-8fc6-7dfe913b079e"},"vehicle_type_id":"4","last_reported":1707109666,"current_range_meters":24800,"station_id":"ce4bgk12rcd13ifvqbi0","pricing_plan_id":"free"},{"bike_id":"0b7ba447-d57a-40a7-a0b7-25b8f005bf3a","system_id":"levelo_inurba_marseille","lat":43.304274,"lon":5.388873,"is_reserved":false,"is_disabled":false,"rental_uris":{"android":"levelo://app?vid=0b7ba447-d57a-40a7-a0b7-25b8f005bf3a","ios":"levelo://app?vid=0b7ba447-d57a-40a7-a0b7-25b8f005bf3a"},"vehicle_type_id":"4","last_reported":1707109666,"current_range_meters":31600,"station_id":"ce4bgk12rcd13ifvqbi0","pricing_plan_id":"free"},{"bike_id":"f459bcc8-96d9-431d-bb45-ce1f50e6d398","system_id":"levelo_inurba_marseille","lat":43.323624,"lon":5.388788,"is_reserved":false,"is_disabled":false,"rental_uris":{"android":"levelo://app?vid=f459bcc8-96d9-431d-bb45-ce1f50e6d398","ios":"levelo://app?vid=f459bcc8-96d9-431d-bb45-ce1f50e6d398"},"vehicle_type_id":"4","last_reported":1707109666,"current_range_meters":0,"station_id":"ce4bhqp2rcd13ifvqhog","pricing_plan_id":"free"},{"bike_id":"999af2fa-7743-40b1-ad5a-09d74cc1efed","system_id":"levelo_inurba_marseille","lat":43.32365,"lon":5.3888,"is_reserved":false,"is_disabled":false,"rental_uris":{"android":"levelo://app?vid=999af2fa-7743-40b1-ad5a-09d74cc1efed","ios":"levelo://app?vid=999af2fa-7743-40b1-ad5a-09d74cc1efed"},"vehicle_type_id":"4","last_reported":1707109666,"current_range_meters":20000,"station_id":"ce4bhqp2rcd13ifvqhog","pricing_plan_id":"free"},{"bike_id":"50da6af1-97e0-49c6-a363-76b31fd6a0a1","system_id":"levelo_inurba_marseille","lat":43.32367,"lon":5.388836,"is_reserved":false,"is_disabled":false,"rental_uris":{"android":"levelo://app?vid=50da6af1-97e0-49c6-a363-76b31fd6a0a1","ios":"levelo://app?vid=50da6af1-97e0-49c6-a363-76b31fd6a0a1"},"vehicle_type_id":"4","last_reported":1707109666,"current_range_meters":15600,"station_id":"ce4bhqp2rcd13ifvqhog","pricing_plan_id":"free"},{"bike_id":"8de15d3c-03c3-4ab0-8d3d-1e33fd14e876","system_id":"levelo_inurba_marseille","lat":43.32367,"lon":5.388836,"is_reserved":false,"is_disabled":false,"rental_uris":{"android":"levelo://app?vid=8de15d3c-03c3-4ab0-8d3d-1e33fd14e876","ios":"levelo://app?vid=8de15d3c-03c3-4ab0-8d3d-1e33fd14e876"},"vehicle_type_id":"4","last_reported":1707109666,"current_range_meters":13200,"station_id":"ce4bhqp2rcd13ifvqhog","pricing_plan_id":"free"},{"bike_id":"e7a95a5a-7d13-48ff-a856-827ce0771044","system_id":"levelo_inurba_marseille","lat":43.323664,"lon":5.388863,"is_reserved":false,"is_disabled":false,"rental_uris":{"android":"levelo://app?vid=e7a95a5a-7d13-48ff-a856-827ce0771044","ios":"levelo://app?vid=e7a95a5a-7d13-48ff-a856-827ce0771044"},"vehicle_type_id":"4","last_reported":1707109666,"current_range_meters":23600,"station_id":"ce4bhqp2rcd13ifvqhog","pricing_plan_id":"free"},{"bike_id":"ee0b2543-3432-41f6-af25-63fb60196ed6","system_id":"levelo_inurba_marseille","lat":43.32367,"lon":5.388836,"is_reserved":false,"is_disabled":false,"rental_uris":{"android":"levelo://app?vid=ee0b2543-3432-41f6-af25-63fb60196ed6","ios":"levelo://app?vid=ee0b2543-3432-41f6-af25-63fb60196ed6"},"vehicle_type_id":"4","last_reported":1707109666,"current_range_meters":2800,"station_id":"ce4bhqp2rcd13ifvqhog","pricing_plan_id":"free"},{"bike_id":"11b2ff84-0922-45f3-a024-496c98d9bbfe","system_id":"levelo_inurba_marseille","lat":43.29601,"lon":5.381084,"is_reserved":false,"is_disabled":false,"rental_uris":{"android":"levelo://app?vid=11b2ff84-0922-45f3-a024-496c98d9bbfe","ios":"levelo://app?vid=11b2ff84-0922-45f3-a024-496c98d9bbfe"},"vehicle_type_id":"4","last_reported":1707109666,"current_range_meters":30000,"station_id":"ce4bgl12rcd13ifvqbo0","pricing_plan_id":"free"},{"bike_id":"ffdc299c-81b0-4d80-8250-3a0cbfa65296","system_id":"levelo_inurba_marseille","lat":43.29601,"lon":5.381084,"is_reserved":false,"is_disabled":false,"rental_uris":{"android":"levelo://app?vid=ffdc299c-81b0-4d80-8250-3a0cbfa65296","ios":"levelo://app?vid=ffdc299c-81b0-4d80-8250-3a0cbfa65296"},"vehicle_type_id":"4","last_reported":1707109666,"current_range_meters":12800,"station_id":"ce4bgl12rcd13ifvqbo0","pricing_plan_id":"free"},{"bike_id":"8fdfe49e-2ce4-423e-a2df-8886ca527313","system_id":"levelo_inurba_marseille","lat":43.29272,"lon":5.36834,"is_reserved":false,"is_disabled":false,"rental_uris":{"android":"levelo://app?vid=8fdfe49e-2ce4-423e-a2df-8886ca527313","ios":"levelo://app?vid=8fdfe49e-2ce4-423e-a2df-8886ca527313"},"vehicle_type_id":"4","last_reported":1707109666,"current_range_meters":31200,"station_id":"ce4bhbp2rcd13ifvqesg","pricing_plan_id":"free"},{"bike_id":"e752e18d-2214-4cfd-82b7-221fe85b456a","system_id":"levelo_inurba_marseille","lat":43.29271,"lon":5.36842,"is_reserved":false,"is_disabled":false,"rental_uris":{"android":"levelo://app?vid=e752e18d-2214-4cfd-82b7-221fe85b456a","ios":"levelo://app?vid=e752e18d-2214-4cfd-82b7-221fe85b456a"},"vehicle_type_id":"4","last_reported":1707109666,"current_range_meters":30400,"station_id":"ce4bhbp2rcd13ifvqesg","pricing_plan_id":"free"},{"bike_id":"6b095ab0-34cc-411d-b773-932405995ed9","system_id":"levelo_inurba_marseille","lat":43.29269,"lon":5.36832,"is_reserved":false,"is_disabled":false,"rental_uris":{"android":"levelo://app?vid=6b095ab0-34cc-411d-b773-932405995ed9","ios":"levelo://app?vid=6b095ab0-34cc-411d-b773-932405995ed9"},"vehicle_type_id":"4","last_reported":1707109666,"current_range_meters":30800,"station_id":"ce4bhbp2rcd13ifvqesg","pricing_plan_id":"free"},{"bike_id":"7473e499-ea70-46aa-9e18-f327688d74ef","system_id":"levelo_inurba_marseille","lat":43.306025,"lon":5.3935,"is_reserved":false,"is_disabled":false,"rental_uris":{"android":"levelo://app?vid=7473e499-ea70-46aa-9e18-f327688d74ef","ios":"levelo://app?vid=7473e499-ea70-46aa-9e18-f327688d74ef"},"vehicle_type_id":"4","last_reported":1707109666,"current_range_meters":23600,"station_id":"ce4bh0p2rcd13ifvqd80","pricing_plan_id":"free"},{"bike_id":"d3df372e-6b0e-482c-b10e-487dab3ab99e","system_id":"levelo_inurba_marseille","lat":43.305976,"lon":5.393484,"is_reserved":false,"is_disabled":false,"rental_uris":{"android":"levelo://app?vid=d3df372e-6b0e-482c-b10e-487dab3ab99e","ios":"levelo://app?vid=d3df372e-6b0e-482c-b10e-487dab3ab99e"},"vehicle_type_id":"4","last_reported":1707109666,"current_range_meters":0,"station_id":"ce4bh0p2rcd13ifvqd80","pricing_plan_id":"free"},{"bike_id":"3c46be13-3f0d-4c01-ac64-80c1f43ffe42","system_id":"levelo_inurba_marseille","lat":43.30598,"lon":5.39349,"is_reserved":false,"is_disabled":false,"rental_uris":{"android":"levelo://app?vid=3c46be13-3f0d-4c01-ac64-80c1f43ffe42","ios":"levelo://app?vid=3c46be13-3f0d-4c01-ac64-80c1f43ffe42"},"vehicle_type_id":"4","last_reported":1707109666,"current_range_meters":25600,"station_id":"ce4bh0p2rcd13ifvqd80","pricing_plan_id":"free"},{"bike_id":"23d7ba28-37cd-45b7-8fc1-1d4764243323","system_id":"levelo_inurba_marseille","lat":43.305994,"lon":5.393687,"is_reserved":false,"is_disabled":false,"rental_uris":{"android":"levelo://app?vid=23d7ba28-37cd-45b7-8fc1-1d4764243323","ios":"levelo://app?vid=23d7ba28-37cd-45b7-8fc1-1d4764243323"},"vehicle_type_id":"4","last_reported":1707109666,"current_range_meters":0,"station_id":"ce4bh0p2rcd13ifvqd80","pricing_plan_id":"free"},{"bike_id":"aa578eb2-63cc-4c54-aee0-f3c37cc33587","system_id":"levelo_inurba_marseille","lat":43.30598,"lon":5.393578,"is_reserved":false,"is_disabled":false,"rental_uris":{"android":"levelo://app?vid=aa578eb2-63cc-4c54-aee0-f3c37cc33587","ios":"levelo://app?vid=aa578eb2-63cc-4c54-aee0-f3c37cc33587"},"vehicle_type_id":"4","last_reported":1707109666,"current_range_meters":29200,"station_id":"ce4bh0p2rcd13ifvqd80","pricing_plan_id":"free"},{"bike_id":"d5d46b64-c4f7-4a60-ae5e-0f064dc83448","system_id":"levelo_inurba_marseille","lat":43.303002,"lon":5.392142,"is_reserved":false,"is_disabled":false,"rental_uris":{"android":"levelo://app?vid=d5d46b64-c4f7-4a60-ae5e-0f064dc83448","ios":"levelo://app?vid=d5d46b64-c4f7-4a60-ae5e-0f064dc83448"},"vehicle_type_id":"4","last_reported":1707109666,"current_range_meters":29600,"station_id":"ce4bgkh2rcd13ifvqbk0","pricing_plan_id":"free"},{"bike_id":"b46e9818-e930-4133-adf9-66257c3f17cc","system_id":"levelo_inurba_marseille","lat":43.303002,"lon":5.392142,"is_reserved":false,"is_disabled":false,"rental_uris":{"android":"levelo://app?vid=b46e9818-e930-4133-adf9-66257c3f17cc","ios":"levelo://app?vid=b46e9818-e930-4133-adf9-66257c3f17cc"},"vehicle_type_id":"4","last_reported":1707109666,"current_range_meters":30400,"station_id":"ce4bgkh2rcd13ifvqbk0","pricing_plan_id":"free"},{"bike_id":"2c174866-960d-4bca-9772-10dd37273ca7","system_id":"levelo_inurba_marseille","lat":43.302992,"lon":5.392136,"is_reserved":false,"is_disabled":false,"rental_uris":{"android":"levelo://app?vid=2c174866-960d-4bca-9772-10dd37273ca7","ios":"levelo://app?vid=2c174866-960d-4bca-9772-10dd37273ca7"},"vehicle_type_id":"4","last_reported":1707109666,"current_range_meters":31200,"station_id":"ce4bgkh2rcd13ifvqbk0","pricing_plan_id":"free"},{"bike_id":"c4dfb04f-e907-401b-9fe2-7b4ae461b3e7","system_id":"levelo_inurba_marseille","lat":43.302992,"lon":5.392136,"is_reserved":false,"is_disabled":false,"rental_uris":{"android":"levelo://app?vid=c4dfb04f-e907-401b-9fe2-7b4ae461b3e7","ios":"levelo://app?vid=c4dfb04f-e907-401b-9fe2-7b4ae461b3e7"},"vehicle_type_id":"4","last_reported":1707109666,"current_range_meters":30400,"station_id":"ce4bgkh2rcd13ifvqbk0","pricing_plan_id":"free"},{"bike_id":"d9ab9c70-8f98-4a45-b026-689c058c034f","system_id":"levelo_inurba_marseille","lat":43.30085,"lon":5.390856,"is_reserved":false,"is_disabled":false,"rental_uris":{"android":"levelo://app?vid=d9ab9c70-8f98-4a45-b026-689c058c034f","ios":"levelo://app?vid=d9ab9c70-8f98-4a45-b026-689c058c034f"},"vehicle_type_id":"4","last_reported":1707109666,"current_range_meters":27600,"station_id":"ce4bh192rcd13ifvqdb0","pricing_plan_id":"free"},{"bike_id":"644c46c7-90e1-4280-ab6d-68e38567eeb4","system_id":"levelo_inurba_marseille","lat":43.293009,"lon":5.374584,"is_reserved":false,"is_disabled":false,"rental_uris":{"android":"levelo://app?vid=644c46c7-90e1-4280-ab6d-68e38567eeb4","ios":"levelo://app?vid=644c46c7-90e1-4280-ab6d-68e38567eeb4"},"vehicle_type_id":"4","last_reported":1707109666,"current_range_meters":24800,"station_id":"ce4bgi12rcd13ifvqb70","pricing_plan_id":"free"},{"bike_id":"6ef51a8f-1eea-46d3-b835-ac52293b7b21","system_id":"levelo_inurba_marseille","lat":43.298764,"lon":5.388973,"is_reserved":false,"is_disabled":false,"rental_uris":{"android":"levelo://app?vid=6ef51a8f-1eea-46d3-b835-ac52293b7b21","ios":"levelo://app?vid=6ef51a8f-1eea-46d3-b835-ac52293b7b21"},"vehicle_type_id":"4","last_reported":1707109666,"current_range_meters":21600,"station_id":"ce4bh392rcd13ifvqdl0","pricing_plan_id":"free"},{"bike_id":"9b338476-e853-4138-9651-fdcd6bb99eca","system_id":"levelo_inurba_marseille","lat":43.298764,"lon":5.388973,"is_reserved":false,"is_disabled":false,"rental_uris":{"android":"levelo://app?vid=9b338476-e853-4138-9651-fdcd6bb99eca","ios":"levelo://app?vid=9b338476-e853-4138-9651-fdcd6bb99eca"},"vehicle_type_id":"4","last_reported":1707109666,"current_range_meters":27600,"station_id":"ce4bh392rcd13ifvqdl0","pricing_plan_id":"free"},{"bike_id":"4e23b0c8-d9e2-4154-b941-d8d2e19c7b9c","system_id":"levelo_inurba_marseille","lat":43.298764,"lon":5.388973,"is_reserved":false,"is_disabled":false,"rental_uris":{"android":"levelo://app?vid=4e23b0c8-d9e2-4154-b941-d8d2e19c7b9c","ios":"levelo://app?vid=4e23b0c8-d9e2-4154-b941-d8d2e19c7b9c"},"vehicle_type_id":"4","last_reported":1707109666,"current_range_meters":18800,"station_id":"ce4bh392rcd13ifvqdl0","pricing_plan_id":"free"},{"bike_id":"b977fcb5-5fdc-49a9-b6c1-577d7e678031","system_id":"levelo_inurba_marseille","lat":43.309047,"lon":5.396551,"is_reserved":false,"is_disabled":false,"rental_uris":{"android":"levelo://app?vid=b977fcb5-5fdc-49a9-b6c1-577d7e678031","ios":"levelo://app?vid=b977fcb5-5fdc-49a9-b6c1-577d7e678031"},"vehicle_type_id":"4","last_reported":1707109666,"current_range_meters":20000,"station_id":"ce4bh012rcd13ifvqcv0","pricing_plan_id":"free"},{"bike_id":"6c874cfe-4464-4696-afa3-480e01c3a358","system_id":"levelo_inurba_marseille","lat":43.291946,"lon":5.358085,"is_reserved":false,"is_disabled":false,"rental_uris":{"android":"levelo://app?vid=6c874cfe-4464-4696-afa3-480e01c3a358","ios":"levelo://app?vid=6c874cfe-4464-4696-afa3-480e01c3a358"},"vehicle_type_id":"4","last_reported":1707109666,"current_range_meters":21600,"station_id":"ce4bhb12rcd13ifvqel0","pricing_plan_id":"free"},{"bike_id":"579fc067-862b-4dd0-a941-fc509ea115a5","system_id":"levelo_inurba_marseille","lat":43.309047,"lon":5.396551,"is_reserved":false,"is_disabled":false,"rental_uris":{"android":"levelo://app?vid=579fc067-862b-4dd0-a941-fc509ea115a5","ios":"levelo://app?vid=579fc067-862b-4dd0-a941-fc509ea115a5"},"vehicle_type_id":"4","last_reported":1707109666,"current_range_meters":31600,"station_id":"ce4bh012rcd13ifvqcv0","pricing_plan_id":"free"},{"bike_id":"573c02cc-0e0f-43db-889f-7c4dc4c1ccad","system_id":"levelo_inurba_marseille","lat":43.313288,"lon":5.396873,"is_reserved":false,"is_disabled":false,"rental_uris":{"android":"levelo://app?vid=573c02cc-0e0f-43db-889f-7c4dc4c1ccad","ios":"levelo://app?vid=573c02cc-0e0f-43db-889f-7c4dc4c1ccad"},"vehicle_type_id":"4","last_reported":1707109666,"current_range_meters":1200,"station_id":"ce4bgvp2rcd13ifvqcu0","pricing_plan_id":"free"},{"bike_id":"cb0adc17-b24c-4353-9bb7-6064290cd099","system_id":"levelo_inurba_marseille","lat":43.309047,"lon":5.396551,"is_reserved":false,"is_disabled":false,"rental_uris":{"android":"levelo://app?vid=cb0adc17-b24c-4353-9bb7-6064290cd099","ios":"levelo://app?vid=cb0adc17-b24c-4353-9bb7-6064290cd099"},"vehicle_type_id":"4","last_reported":1707109666,"current_range_meters":31600,"station_id":"ce4bh012rcd13ifvqcv0","pricing_plan_id":"free"},{"bike_id":"6373685d-447a-4f89-95e6-b27bbb374feb","system_id":"levelo_inurba_marseille","lat":43.309038,"lon":5.396546,"is_reserved":false,"is_disabled":false,"rental_uris":{"android":"levelo://app?vid=6373685d-447a-4f89-95e6-b27bbb374feb","ios":"levelo://app?vid=6373685d-447a-4f89-95e6-b27bbb374feb"},"vehicle_type_id":"4","last_reported":1707109666,"current_range_meters":22000,"station_id":"ce4bh012rcd13ifvqcv0","pricing_plan_id":"free"},{"bike_id":"6b9e30aa-bb59-400a-bb19-9a7017d73ce6","system_id":"levelo_inurba_marseille","lat":43.309038,"lon":5.396546,"is_reserved":false,"is_disabled":false,"rental_uris":{"android":"levelo://app?vid=6b9e30aa-bb59-400a-bb19-9a7017d73ce6","ios":"levelo://app?vid=6b9e30aa-bb59-400a-bb19-9a7017d73ce6"},"vehicle_type_id":"4","last_reported":1707109666,"current_range_meters":31600,"station_id":"ce4bh012rcd13ifvqcv0","pricing_plan_id":"free"},{"bike_id":"c04ece00-56e9-45a8-a961-5fdd3fc649a4","system_id":"levelo_inurba_marseille","lat":43.291927,"lon":5.357982,"is_reserved":false,"is_disabled":false,"rental_uris":{"android":"levelo://app?vid=c04ece00-56e9-45a8-a961-5fdd3fc649a4","ios":"levelo://app?vid=c04ece00-56e9-45a8-a961-5fdd3fc649a4"},"vehicle_type_id":"4","last_reported":1707109666,"current_range_meters":29600,"station_id":"ce4bhb12rcd13ifvqel0","pricing_plan_id":"free"},{"bike_id":"9a07d149-bc2b-4fc8-8eb5-e59f692a6495","system_id":"levelo_inurba_marseille","lat":43.309038,"lon":5.396546,"is_reserved":false,"is_disabled":false,"rental_uris":{"android":"levelo://app?vid=9a07d149-bc2b-4fc8-8eb5-e59f692a6495","ios":"levelo://app?vid=9a07d149-bc2b-4fc8-8eb5-e59f692a6495"},"vehicle_type_id":"4","last_reported":1707109666,"current_range_meters":5600,"station_id":"ce4bh012rcd13ifvqcv0","pricing_plan_id":"free"},{"bike_id":"a0c92d8c-bef3-44ad-bf0f-f18a01f28bb8","system_id":"levelo_inurba_marseille","lat":43.309047,"lon":5.396551,"is_reserved":false,"is_disabled":false,"rental_uris":{"android":"levelo://app?vid=a0c92d8c-bef3-44ad-bf0f-f18a01f28bb8","ios":"levelo://app?vid=a0c92d8c-bef3-44ad-bf0f-f18a01f28bb8"},"vehicle_type_id":"4","last_reported":1707109666,"current_range_meters":22000,"station_id":"ce4bh012rcd13ifvqcv0","pricing_plan_id":"free"},{"bike_id":"e50eee39-1574-49b7-b741-7f41ffa1f6da","system_id":"levelo_inurba_marseille","lat":43.309038,"lon":5.396546,"is_reserved":false,"is_disabled":false,"rental_uris":{"android":"levelo://app?vid=e50eee39-1574-49b7-b741-7f41ffa1f6da","ios":"levelo://app?vid=e50eee39-1574-49b7-b741-7f41ffa1f6da"},"vehicle_type_id":"4","last_reported":1707109666,"current_range_meters":7600,"station_id":"ce4bh012rcd13ifvqcv0","pricing_plan_id":"free"},{"bike_id":"8aa8ff21-5ba8-4c2a-b066-9f244dd3fe08","system_id":"levelo_inurba_marseille","lat":43.291994,"lon":5.357886,"is_reserved":false,"is_disabled":false,"rental_uris":{"android":"levelo://app?vid=8aa8ff21-5ba8-4c2a-b066-9f244dd3fe08","ios":"levelo://app?vid=8aa8ff21-5ba8-4c2a-b066-9f244dd3fe08"},"vehicle_type_id":"4","last_reported":1707109666,"current_range_meters":3600,"station_id":"ce4bhb12rcd13ifvqel0","pricing_plan_id":"free"},{"bike_id":"4e0f1de7-cdf6-4384-999d-3d088ad16848","system_id":"levelo_inurba_marseille","lat":43.309038,"lon":5.396546,"is_reserved":false,"is_disabled":false,"rental_uris":{"android":"levelo://app?vid=4e0f1de7-cdf6-4384-999d-3d088ad16848","ios":"levelo://app?vid=4e0f1de7-cdf6-4384-999d-3d088ad16848"},"vehicle_type_id":"4","last_reported":1707109666,"current_range_meters":10800,"station_id":"ce4bh012rcd13ifvqcv0","pricing_plan_id":"free"},{"bike_id":"f3a2864a-68bf-45cb-a563-c2398c508bec","system_id":"levelo_inurba_marseille","lat":43.3133,"lon":5.39692,"is_reserved":false,"is_disabled":false,"rental_uris":{"android":"levelo://app?vid=f3a2864a-68bf-45cb-a563-c2398c508bec","ios":"levelo://app?vid=f3a2864a-68bf-45cb-a563-c2398c508bec"},"vehicle_type_id":"4","last_reported":1707109666,"current_range_meters":23600,"station_id":"ce4bgvp2rcd13ifvqcu0","pricing_plan_id":"free"},{"bike_id":"c898ef4a-617f-46e2-8929-feaad6092a07","system_id":"levelo_inurba_marseille","lat":43.309038,"lon":5.396546,"is_reserved":false,"is_disabled":false,"rental_uris":{"android":"levelo://app?vid=c898ef4a-617f-46e2-8929-feaad6092a07","ios":"levelo://app?vid=c898ef4a-617f-46e2-8929-feaad6092a07"},"vehicle_type_id":"4","last_reported":1707109666,"current_range_meters":20800,"station_id":"ce4bh012rcd13ifvqcv0","pricing_plan_id":"free"},{"bike_id":"66edd7ba-de69-441c-9323-0a4b6c020232","system_id":"levelo_inurba_marseille","lat":43.313309,"lon":5.396922,"is_reserved":false,"is_disabled":false,"rental_uris":{"android":"levelo://app?vid=66edd7ba-de69-441c-9323-0a4b6c020232","ios":"levelo://app?vid=66edd7ba-de69-441c-9323-0a4b6c020232"},"vehicle_type_id":"4","last_reported":1707109666,"current_range_meters":26800,"station_id":"ce4bgvp2rcd13ifvqcu0","pricing_plan_id":"free"},{"bike_id":"f79b3125-7a67-4727-af67-06b004a67391","system_id":"levelo_inurba_marseille","lat":43.291901,"lon":5.357967,"is_reserved":false,"is_disabled":false,"rental_uris":{"android":"levelo://app?vid=f79b3125-7a67-4727-af67-06b004a67391","ios":"levelo://app?vid=f79b3125-7a67-4727-af67-06b004a67391"},"vehicle_type_id":"4","last_reported":1707109666,"current_range_meters":9200,"station_id":"ce4bhb12rcd13ifvqel0","pricing_plan_id":"free"},{"bike_id":"d1e8a7cd-20a2-4bb7-8268-0ed4acb27f0d","system_id":"levelo_inurba_marseille","lat":43.309047,"lon":5.396551,"is_reserved":false,"is_disabled":false,"rental_uris":{"android":"levelo://app?vid=d1e8a7cd-20a2-4bb7-8268-0ed4acb27f0d","ios":"levelo://app?vid=d1e8a7cd-20a2-4bb7-8268-0ed4acb27f0d"},"vehicle_type_id":"4","last_reported":1707109666,"current_range_meters":14800,"station_id":"ce4bh012rcd13ifvqcv0","pricing_plan_id":"free"},{"bike_id":"98fb478c-2c90-4367-b2fe-e3ba20dfacae","system_id":"levelo_inurba_marseille","lat":43.313291,"lon":5.396838,"is_reserved":false,"is_disabled":false,"rental_uris":{"android":"levelo://app?vid=98fb478c-2c90-4367-b2fe-e3ba20dfacae","ios":"levelo://app?vid=98fb478c-2c90-4367-b2fe-e3ba20dfacae"},"vehicle_type_id":"4","last_reported":1707109666,"current_range_meters":28000,"station_id":"ce4bgvp2rcd13ifvqcu0","pricing_plan_id":"free"},{"bike_id":"4845cbfe-3fb9-4027-95d1-539e814a3080","system_id":"levelo_inurba_marseille","lat":43.31326,"lon":5.39694,"is_reserved":false,"is_disabled":false,"rental_uris":{"android":"levelo://app?vid=4845cbfe-3fb9-4027-95d1-539e814a3080","ios":"levelo://app?vid=4845cbfe-3fb9-4027-95d1-539e814a3080"},"vehicle_type_id":"4","last_reported":1707109666,"current_range_meters":25200,"station_id":"ce4bgvp2rcd13ifvqcu0","pricing_plan_id":"free"},{"bike_id":"76debd98-f9f4-4ead-b7ea-f1cd59031c65","system_id":"levelo_inurba_marseille","lat":43.309038,"lon":5.396546,"is_reserved":false,"is_disabled":false,"rental_uris":{"android":"levelo://app?vid=76debd98-f9f4-4ead-b7ea-f1cd59031c65","ios":"levelo://app?vid=76debd98-f9f4-4ead-b7ea-f1cd59031c65"},"vehicle_type_id":"4","last_reported":1707109666,"current_range_meters":7200,"station_id":"ce4bh012rcd13ifvqcv0","pricing_plan_id":"free"},{"bike_id":"cfa0974d-e68b-4b27-aaa2-b93c84bd7044","system_id":"levelo_inurba_marseille","lat":43.31329,"lon":5.39694,"is_reserved":false,"is_disabled":false,"rental_uris":{"android":"levelo://app?vid=cfa0974d-e68b-4b27-aaa2-b93c84bd7044","ios":"levelo://app?vid=cfa0974d-e68b-4b27-aaa2-b93c84bd7044"},"vehicle_type_id":"4","last_reported":1707109666,"current_range_meters":23600,"station_id":"ce4bgvp2rcd13ifvqcu0","pricing_plan_id":"free"},{"bike_id":"3ea33bf4-a27b-4f80-9fe1-a0f87a1d2150","system_id":"levelo_inurba_marseille","lat":43.313339,"lon":5.396946,"is_reserved":false,"is_disabled":false,"rental_uris":{"android":"levelo://app?vid=3ea33bf4-a27b-4f80-9fe1-a0f87a1d2150","ios":"levelo://app?vid=3ea33bf4-a27b-4f80-9fe1-a0f87a1d2150"},"vehicle_type_id":"4","last_reported":1707109666,"current_range_meters":15200,"station_id":"ce4bgvp2rcd13ifvqcu0","pricing_plan_id":"free"},{"bike_id":"8c605089-0b47-4239-9a3f-eb622dc559d0","system_id":"levelo_inurba_marseille","lat":43.31332,"lon":5.39697,"is_reserved":false,"is_disabled":false,"rental_uris":{"android":"levelo://app?vid=8c605089-0b47-4239-9a3f-eb622dc559d0","ios":"levelo://app?vid=8c605089-0b47-4239-9a3f-eb622dc559d0"},"vehicle_type_id":"4","last_reported":1707109666,"current_range_meters":14000,"station_id":"ce4bgvp2rcd13ifvqcu0","pricing_plan_id":"free"},{"bike_id":"9d9534b4-a890-4d08-9bc6-c010182cbdf9","system_id":"levelo_inurba_marseille","lat":43.291994,"lon":5.357886,"is_reserved":false,"is_disabled":false,"rental_uris":{"android":"levelo://app?vid=9d9534b4-a890-4d08-9bc6-c010182cbdf9","ios":"levelo://app?vid=9d9534b4-a890-4d08-9bc6-c010182cbdf9"},"vehicle_type_id":"4","last_reported":1707109666,"current_range_meters":18400,"station_id":"ce4bhb12rcd13ifvqel0","pricing_plan_id":"free"},{"bike_id":"4419a724-5255-4916-9ab6-08c2c5ae2fc3","system_id":"levelo_inurba_marseille","lat":43.316334,"lon":5.396753,"is_reserved":false,"is_disabled":false,"rental_uris":{"android":"levelo://app?vid=4419a724-5255-4916-9ab6-08c2c5ae2fc3","ios":"levelo://app?vid=4419a724-5255-4916-9ab6-08c2c5ae2fc3"},"vehicle_type_id":"4","last_reported":1707109666,"current_range_meters":25600,"station_id":"","pricing_plan_id":"free"},{"bike_id":"44f4cdd2-bf2d-4be9-881f-34e4b95ae472","system_id":"levelo_inurba_marseille","lat":43.29533,"lon":5.38552,"is_reserved":false,"is_disabled":false,"rental_uris":{"android":"levelo://app?vid=44f4cdd2-bf2d-4be9-881f-34e4b95ae472","ios":"levelo://app?vid=44f4cdd2-bf2d-4be9-881f-34e4b95ae472"},"vehicle_type_id":"4","last_reported":1707109666,"current_range_meters":0,"station_id":"ce4bgih2rcd13ifvqba0","pricing_plan_id":"free"},{"bike_id":"33fdbb10-2a06-40b3-9fb1-452c526fd483","system_id":"levelo_inurba_marseille","lat":43.290779,"lon":5.371482,"is_reserved":false,"is_disabled":false,"rental_uris":{"android":"levelo://app?vid=33fdbb10-2a06-40b3-9fb1-452c526fd483","ios":"levelo://app?vid=33fdbb10-2a06-40b3-9fb1-452c526fd483"},"vehicle_type_id":"4","last_reported":1707109666,"current_range_meters":30000,"station_id":"ce4bh5p2rcd13ifvqe4g","pricing_plan_id":"free"},{"bike_id":"3fbf1e07-bed2-4ceb-94b0-b99cc7e05d64","system_id":"levelo_inurba_marseille","lat":43.29038,"lon":5.359176,"is_reserved":false,"is_disabled":false,"rental_uris":{"android":"levelo://app?vid=3fbf1e07-bed2-4ceb-94b0-b99cc7e05d64","ios":"levelo://app?vid=3fbf1e07-bed2-4ceb-94b0-b99cc7e05d64"},"vehicle_type_id":"4","last_reported":1707109666,"current_range_meters":23200,"station_id":"ce4bha92rcd13ifvqeg0","pricing_plan_id":"free"},{"bike_id":"4a848189-bd42-4e10-8699-d4f4e027ca65","system_id":"levelo_inurba_marseille","lat":43.290389,"lon":5.359128,"is_reserved":false,"is_disabled":false,"rental_uris":{"android":"levelo://app?vid=4a848189-bd42-4e10-8699-d4f4e027ca65","ios":"levelo://app?vid=4a848189-bd42-4e10-8699-d4f4e027ca65"},"vehicle_type_id":"4","last_reported":1707109666,"current_range_meters":25200,"station_id":"ce4bha92rcd13ifvqeg0","pricing_plan_id":"free"},{"bike_id":"023b2a6d-e263-440d-91bc-599f0116af19","system_id":"levelo_inurba_marseille","lat":43.290351,"lon":5.359186,"is_reserved":false,"is_disabled":false,"rental_uris":{"android":"levelo://app?vid=023b2a6d-e263-440d-91bc-599f0116af19","ios":"levelo://app?vid=023b2a6d-e263-440d-91bc-599f0116af19"},"vehicle_type_id":"4","last_reported":1707109666,"current_range_meters":24800,"station_id":"ce4bha92rcd13ifvqeg0","pricing_plan_id":"free"},{"bike_id":"de95af1e-cd11-4ba3-baa5-3d2b0753cee5","system_id":"levelo_inurba_marseille","lat":43.289184,"lon":5.366408,"is_reserved":false,"is_disabled":false,"rental_uris":{"android":"levelo://app?vid=de95af1e-cd11-4ba3-baa5-3d2b0753cee5","ios":"levelo://app?vid=de95af1e-cd11-4ba3-baa5-3d2b0753cee5"},"vehicle_type_id":"4","last_reported":1707109666,"current_range_meters":21200,"station_id":"ce4bhap2rcd13ifvqek0","pricing_plan_id":"free"},{"bike_id":"4aecde87-7433-4e30-b7bd-d266da6a8de2","system_id":"levelo_inurba_marseille","lat":43.289184,"lon":5.366408,"is_reserved":false,"is_disabled":false,"rental_uris":{"android":"levelo://app?vid=4aecde87-7433-4e30-b7bd-d266da6a8de2","ios":"levelo://app?vid=4aecde87-7433-4e30-b7bd-d266da6a8de2"},"vehicle_type_id":"4","last_reported":1707109666,"current_range_meters":30400,"station_id":"ce4bhap2rcd13ifvqek0","pricing_plan_id":"free"},{"bike_id":"97cd4f9f-b186-4329-a68f-7c1ac4daa1da","system_id":"levelo_inurba_marseille","lat":43.289468,"lon":5.363719,"is_reserved":false,"is_disabled":false,"rental_uris":{"android":"levelo://app?vid=97cd4f9f-b186-4329-a68f-7c1ac4daa1da","ios":"levelo://app?vid=97cd4f9f-b186-4329-a68f-7c1ac4daa1da"},"vehicle_type_id":"4","last_reported":1707109666,"current_range_meters":27200,"station_id":"ce4bhc92rcd13ifvqetg","pricing_plan_id":"free"},{"bike_id":"bec5da8c-ec2d-4b1e-b575-61883d48a903","system_id":"levelo_inurba_marseille","lat":43.30429,"lon":5.3975,"is_reserved":false,"is_disabled":false,"rental_uris":{"android":"levelo://app?vid=bec5da8c-ec2d-4b1e-b575-61883d48a903","ios":"levelo://app?vid=bec5da8c-ec2d-4b1e-b575-61883d48a903"},"vehicle_type_id":"4","last_reported":1707109666,"current_range_meters":21200,"station_id":"ce4bh092rcd13ifvqd20","pricing_plan_id":"free"},{"bike_id":"e6730351-d4ae-4663-8510-36085de7668d","system_id":"levelo_inurba_marseille","lat":43.290103,"lon":5.356114,"is_reserved":false,"is_disabled":false,"rental_uris":{"android":"levelo://app?vid=e6730351-d4ae-4663-8510-36085de7668d","ios":"levelo://app?vid=e6730351-d4ae-4663-8510-36085de7668d"},"vehicle_type_id":"4","last_reported":1707109666,"current_range_meters":22400,"station_id":"ce4bhb92rcd13ifvqen0","pricing_plan_id":"free"},{"bike_id":"9fd860ae-1365-408f-b143-b5e6a0e95d7e","system_id":"levelo_inurba_marseille","lat":43.297911,"lon":5.393475,"is_reserved":false,"is_disabled":false,"rental_uris":{"android":"levelo://app?vid=9fd860ae-1365-408f-b143-b5e6a0e95d7e","ios":"levelo://app?vid=9fd860ae-1365-408f-b143-b5e6a0e95d7e"},"vehicle_type_id":"4","last_reported":1707109666,"current_range_meters":21200,"station_id":"chh1huq6cuj3fo74tm60","pricing_plan_id":"free"},{"bike_id":"48bdcb4f-8d71-452e-99ff-6171ea5b9651","system_id":"levelo_inurba_marseille","lat":43.2979,"lon":5.39347,"is_reserved":false,"is_disabled":false,"rental_uris":{"android":"levelo://app?vid=48bdcb4f-8d71-452e-99ff-6171ea5b9651","ios":"levelo://app?vid=48bdcb4f-8d71-452e-99ff-6171ea5b9651"},"vehicle_type_id":"4","last_reported":1707109666,"current_range_meters":21600,"station_id":"chh1huq6cuj3fo74tm60","pricing_plan_id":"free"},{"bike_id":"b2d64768-2663-4e45-af21-b425e1e93f02","system_id":"levelo_inurba_marseille","lat":43.297861,"lon":5.393441,"is_reserved":false,"is_disabled":false,"rental_uris":{"android":"levelo://app?vid=b2d64768-2663-4e45-af21-b425e1e93f02","ios":"levelo://app?vid=b2d64768-2663-4e45-af21-b425e1e93f02"},"vehicle_type_id":"4","last_reported":1707109666,"current_range_meters":16000,"station_id":"chh1huq6cuj3fo74tm60","pricing_plan_id":"free"},{"bike_id":"f67c2884-1856-4159-a8c9-5fd4b83b0478","system_id":"levelo_inurba_marseille","lat":43.297909,"lon":5.393505,"is_reserved":false,"is_disabled":false,"rental_uris":{"android":"levelo://app?vid=f67c2884-1856-4159-a8c9-5fd4b83b0478","ios":"levelo://app?vid=f67c2884-1856-4159-a8c9-5fd4b83b0478"},"vehicle_type_id":"4","last_reported":1707109666,"current_range_meters":22800,"station_id":"chh1huq6cuj3fo74tm60","pricing_plan_id":"free"},{"bike_id":"70264658-2e92-4dd1-81e1-255da50e5aa3","system_id":"levelo_inurba_marseille","lat":43.297896,"lon":5.393506,"is_reserved":false,"is_disabled":false,"rental_uris":{"android":"levelo://app?vid=70264658-2e92-4dd1-81e1-255da50e5aa3","ios":"levelo://app?vid=70264658-2e92-4dd1-81e1-255da50e5aa3"},"vehicle_type_id":"4","last_reported":1707109666,"current_range_meters":22400,"station_id":"chh1huq6cuj3fo74tm60","pricing_plan_id":"free"},{"bike_id":"36dcf795-21eb-42cc-a480-af859cb90eab","system_id":"levelo_inurba_marseille","lat":43.330442,"lon":5.389148,"is_reserved":false,"is_disabled":false,"rental_uris":{"android":"levelo://app?vid=36dcf795-21eb-42cc-a480-af859cb90eab","ios":"levelo://app?vid=36dcf795-21eb-42cc-a480-af859cb90eab"},"vehicle_type_id":"4","last_reported":1707109666,"current_range_meters":30000,"station_id":"ce4bhr92rcd13ifvqhrg","pricing_plan_id":"free"},{"bike_id":"383724b6-bd12-4a20-b684-4d58d786ee6a","system_id":"levelo_inurba_marseille","lat":43.297861,"lon":5.393518,"is_reserved":false,"is_disabled":false,"rental_uris":{"android":"levelo://app?vid=383724b6-bd12-4a20-b684-4d58d786ee6a","ios":"levelo://app?vid=383724b6-bd12-4a20-b684-4d58d786ee6a"},"vehicle_type_id":"4","last_reported":1707109666,"current_range_meters":12400,"station_id":"chh1huq6cuj3fo74tm60","pricing_plan_id":"free"},{"bike_id":"fcfc6361-5024-4e2a-ae18-9e03ec4a09d2","system_id":"levelo_inurba_marseille","lat":43.297846,"lon":5.393509,"is_reserved":false,"is_disabled":false,"rental_uris":{"android":"levelo://app?vid=fcfc6361-5024-4e2a-ae18-9e03ec4a09d2","ios":"levelo://app?vid=fcfc6361-5024-4e2a-ae18-9e03ec4a09d2"},"vehicle_type_id":"4","last_reported":1707109666,"current_range_meters":7200,"station_id":"chh1huq6cuj3fo74tm60","pricing_plan_id":"free"},{"bike_id":"0c96d0b5-97db-4cc9-8a5a-d96ca1072be4","system_id":"levelo_inurba_marseille","lat":43.330206,"lon":5.390374,"is_reserved":false,"is_disabled":false,"rental_uris":{"android":"levelo://app?vid=0c96d0b5-97db-4cc9-8a5a-d96ca1072be4","ios":"levelo://app?vid=0c96d0b5-97db-4cc9-8a5a-d96ca1072be4"},"vehicle_type_id":"4","last_reported":1707109666,"current_range_meters":21200,"station_id":"ce4bhr92rcd13ifvqhrg","pricing_plan_id":"free"},{"bike_id":"4270893e-7646-43e8-9278-a14d6af412e0","system_id":"levelo_inurba_marseille","lat":43.330442,"lon":5.389148,"is_reserved":false,"is_disabled":false,"rental_uris":{"android":"levelo://app?vid=4270893e-7646-43e8-9278-a14d6af412e0","ios":"levelo://app?vid=4270893e-7646-43e8-9278-a14d6af412e0"},"vehicle_type_id":"4","last_reported":1707109666,"current_range_meters":26000,"station_id":"ce4bhr92rcd13ifvqhrg","pricing_plan_id":"free"},{"bike_id":"3f9872e9-f028-4264-aef5-adff0a350603","system_id":"levelo_inurba_marseille","lat":43.330442,"lon":5.389148,"is_reserved":false,"is_disabled":false,"rental_uris":{"android":"levelo://app?vid=3f9872e9-f028-4264-aef5-adff0a350603","ios":"levelo://app?vid=3f9872e9-f028-4264-aef5-adff0a350603"},"vehicle_type_id":"4","last_reported":1707109666,"current_range_meters":10400,"station_id":"ce4bhr92rcd13ifvqhrg","pricing_plan_id":"free"},{"bike_id":"73d0d8ef-9722-45f8-a8bf-dba8d7cfc223","system_id":"levelo_inurba_marseille","lat":43.295169,"lon":5.390426,"is_reserved":false,"is_disabled":false,"rental_uris":{"android":"levelo://app?vid=73d0d8ef-9722-45f8-a8bf-dba8d7cfc223","ios":"levelo://app?vid=73d0d8ef-9722-45f8-a8bf-dba8d7cfc223"},"vehicle_type_id":"4","last_reported":1707109666,"current_range_meters":28000,"station_id":"ce4bh3p2rcd13ifvqdp0","pricing_plan_id":"free"},{"bike_id":"afbd84a6-16b4-457e-a524-5916acf0d4ff","system_id":"levelo_inurba_marseille","lat":43.33027,"lon":5.390371,"is_reserved":false,"is_disabled":false,"rental_uris":{"android":"levelo://app?vid=afbd84a6-16b4-457e-a524-5916acf0d4ff","ios":"levelo://app?vid=afbd84a6-16b4-457e-a524-5916acf0d4ff"},"vehicle_type_id":"4","last_reported":1707109666,"current_range_meters":13600,"station_id":"ce4bhr92rcd13ifvqhrg","pricing_plan_id":"free"},{"bike_id":"291aaf63-a488-43b5-8680-f0c35b710160","system_id":"levelo_inurba_marseille","lat":43.330251,"lon":5.390449,"is_reserved":false,"is_disabled":false,"rental_uris":{"android":"levelo://app?vid=291aaf63-a488-43b5-8680-f0c35b710160","ios":"levelo://app?vid=291aaf63-a488-43b5-8680-f0c35b710160"},"vehicle_type_id":"4","last_reported":1707109666,"current_range_meters":20800,"station_id":"ce4bhr92rcd13ifvqhrg","pricing_plan_id":"free"},{"bike_id":"c98c5460-f278-4c49-a017-1ae7e2c04cac","system_id":"levelo_inurba_marseille","lat":43.28861,"lon":5.35845,"is_reserved":false,"is_disabled":false,"rental_uris":{"android":"levelo://app?vid=c98c5460-f278-4c49-a017-1ae7e2c04cac","ios":"levelo://app?vid=c98c5460-f278-4c49-a017-1ae7e2c04cac"},"vehicle_type_id":"4","last_reported":1707109666,"current_range_meters":28000,"station_id":"ce4bhb12rcd13ifvqem0","pricing_plan_id":"free"},{"bike_id":"ea172d19-2d5c-4082-b9ef-59136b303bc8","system_id":"levelo_inurba_marseille","lat":43.288504,"lon":5.358525,"is_reserved":false,"is_disabled":false,"rental_uris":{"android":"levelo://app?vid=ea172d19-2d5c-4082-b9ef-59136b303bc8","ios":"levelo://app?vid=ea172d19-2d5c-4082-b9ef-59136b303bc8"},"vehicle_type_id":"4","last_reported":1707109666,"current_range_meters":22800,"station_id":"ce4bhb12rcd13ifvqem0","pricing_plan_id":"free"},{"bike_id":"a5556570-14ec-4be7-8d01-526bca1510fb","system_id":"levelo_inurba_marseille","lat":43.28856,"lon":5.358371,"is_reserved":false,"is_disabled":false,"rental_uris":{"android":"levelo://app?vid=a5556570-14ec-4be7-8d01-526bca1510fb","ios":"levelo://app?vid=a5556570-14ec-4be7-8d01-526bca1510fb"},"vehicle_type_id":"4","last_reported":1707109666,"current_range_meters":16400,"station_id":"ce4bhb12rcd13ifvqem0","pricing_plan_id":"free"},{"bike_id":"777418ef-da6d-4b2f-ace9-42046b9d65e1","system_id":"levelo_inurba_marseille","lat":43.288461,"lon":5.358542,"is_reserved":false,"is_disabled":false,"rental_uris":{"android":"levelo://app?vid=777418ef-da6d-4b2f-ace9-42046b9d65e1","ios":"levelo://app?vid=777418ef-da6d-4b2f-ace9-42046b9d65e1"},"vehicle_type_id":"4","last_reported":1707109666,"current_range_meters":2400,"station_id":"ce4bhb12rcd13ifvqem0","pricing_plan_id":"free"},{"bike_id":"8a7c51c6-76bd-4081-b087-925e7f9ff946","system_id":"levelo_inurba_marseille","lat":43.28856,"lon":5.358371,"is_reserved":false,"is_disabled":false,"rental_uris":{"android":"levelo://app?vid=8a7c51c6-76bd-4081-b087-925e7f9ff946","ios":"levelo://app?vid=8a7c51c6-76bd-4081-b087-925e7f9ff946"},"vehicle_type_id":"4","last_reported":1707109666,"current_range_meters":1600,"station_id":"ce4bhb12rcd13ifvqem0","pricing_plan_id":"free"},{"bike_id":"2e4b6690-9593-4c7e-8432-1392ed63863f","system_id":"levelo_inurba_marseille","lat":43.28856,"lon":5.358371,"is_reserved":false,"is_disabled":false,"rental_uris":{"android":"levelo://app?vid=2e4b6690-9593-4c7e-8432-1392ed63863f","ios":"levelo://app?vid=2e4b6690-9593-4c7e-8432-1392ed63863f"},"vehicle_type_id":"4","last_reported":1707109666,"current_range_meters":400,"station_id":"ce4bhb12rcd13ifvqem0","pricing_plan_id":"free"},{"bike_id":"f2951341-0ece-40c7-bce9-a47dca65e09c","system_id":"levelo_inurba_marseille","lat":43.28856,"lon":5.358371,"is_reserved":false,"is_disabled":false,"rental_uris":{"android":"levelo://app?vid=f2951341-0ece-40c7-bce9-a47dca65e09c","ios":"levelo://app?vid=f2951341-0ece-40c7-bce9-a47dca65e09c"},"vehicle_type_id":"4","last_reported":1707109666,"current_range_meters":27200,"station_id":"ce4bhb12rcd13ifvqem0","pricing_plan_id":"free"},{"bike_id":"eb6c9c7c-a7a4-491d-a668-be71616a9703","system_id":"levelo_inurba_marseille","lat":43.288414,"lon":5.358416,"is_reserved":false,"is_disabled":false,"rental_uris":{"android":"levelo://app?vid=eb6c9c7c-a7a4-491d-a668-be71616a9703","ios":"levelo://app?vid=eb6c9c7c-a7a4-491d-a668-be71616a9703"},"vehicle_type_id":"4","last_reported":1707109666,"current_range_meters":24800,"station_id":"ce4bhb12rcd13ifvqem0","pricing_plan_id":"free"},{"bike_id":"a5669c53-0a26-4ba6-b086-36278082f5ba","system_id":"levelo_inurba_marseille","lat":43.288398,"lon":5.35841,"is_reserved":false,"is_disabled":false,"rental_uris":{"android":"levelo://app?vid=a5669c53-0a26-4ba6-b086-36278082f5ba","ios":"levelo://app?vid=a5669c53-0a26-4ba6-b086-36278082f5ba"},"vehicle_type_id":"4","last_reported":1707109666,"current_range_meters":22000,"station_id":"ce4bhb12rcd13ifvqem0","pricing_plan_id":"free"},{"bike_id":"8440e124-6ba5-462e-ac35-1ecd2f79562a","system_id":"levelo_inurba_marseille","lat":43.312609,"lon":5.401662,"is_reserved":false,"is_disabled":false,"rental_uris":{"android":"levelo://app?vid=8440e124-6ba5-462e-ac35-1ecd2f79562a","ios":"levelo://app?vid=8440e124-6ba5-462e-ac35-1ecd2f79562a"},"vehicle_type_id":"4","last_reported":1707109666,"current_range_meters":21600,"station_id":"ce4bh092rcd13ifvqd30","pricing_plan_id":"free"},{"bike_id":"3a883d8d-f107-4928-b873-0aa08c172b50","system_id":"levelo_inurba_marseille","lat":43.312609,"lon":5.401662,"is_reserved":false,"is_disabled":false,"rental_uris":{"android":"levelo://app?vid=3a883d8d-f107-4928-b873-0aa08c172b50","ios":"levelo://app?vid=3a883d8d-f107-4928-b873-0aa08c172b50"},"vehicle_type_id":"4","last_reported":1707109666,"current_range_meters":8000,"station_id":"ce4bh092rcd13ifvqd30","pricing_plan_id":"free"},{"bike_id":"83ba999c-e089-415f-b2d3-3e81da60599f","system_id":"levelo_inurba_marseille","lat":43.312609,"lon":5.401662,"is_reserved":false,"is_disabled":false,"rental_uris":{"android":"levelo://app?vid=83ba999c-e089-415f-b2d3-3e81da60599f","ios":"levelo://app?vid=83ba999c-e089-415f-b2d3-3e81da60599f"},"vehicle_type_id":"4","last_reported":1707109666,"current_range_meters":29200,"station_id":"ce4bh092rcd13ifvqd30","pricing_plan_id":"free"},{"bike_id":"d417c8e2-0918-4527-adbe-ffc6355f5f58","system_id":"levelo_inurba_marseille","lat":43.312609,"lon":5.401662,"is_reserved":false,"is_disabled":false,"rental_uris":{"android":"levelo://app?vid=d417c8e2-0918-4527-adbe-ffc6355f5f58","ios":"levelo://app?vid=d417c8e2-0918-4527-adbe-ffc6355f5f58"},"vehicle_type_id":"4","last_reported":1707109666,"current_range_meters":7600,"station_id":"ce4bh092rcd13ifvqd30","pricing_plan_id":"free"},{"bike_id":"f2e81707-ac8c-4a5b-99db-026cb037029a","system_id":"levelo_inurba_marseille","lat":43.309371,"lon":5.401449,"is_reserved":false,"is_disabled":false,"rental_uris":{"android":"levelo://app?vid=f2e81707-ac8c-4a5b-99db-026cb037029a","ios":"levelo://app?vid=f2e81707-ac8c-4a5b-99db-026cb037029a"},"vehicle_type_id":"4","last_reported":1707109666,"current_range_meters":22400,"station_id":"ce4bgvp2rcd13ifvqct0","pricing_plan_id":"free"},{"bike_id":"b299610c-95ba-4c3b-b64c-d90964227425","system_id":"levelo_inurba_marseille","lat":43.309371,"lon":5.401449,"is_reserved":false,"is_disabled":false,"rental_uris":{"android":"levelo://app?vid=b299610c-95ba-4c3b-b64c-d90964227425","ios":"levelo://app?vid=b299610c-95ba-4c3b-b64c-d90964227425"},"vehicle_type_id":"4","last_reported":1707109666,"current_range_meters":11200,"station_id":"ce4bgvp2rcd13ifvqct0","pricing_plan_id":"free"},{"bike_id":"749abfdf-7606-42aa-87a4-69f5859403ee","system_id":"levelo_inurba_marseille","lat":43.309371,"lon":5.401449,"is_reserved":false,"is_disabled":false,"rental_uris":{"android":"levelo://app?vid=749abfdf-7606-42aa-87a4-69f5859403ee","ios":"levelo://app?vid=749abfdf-7606-42aa-87a4-69f5859403ee"},"vehicle_type_id":"4","last_reported":1707109666,"current_range_meters":11600,"station_id":"ce4bgvp2rcd13ifvqct0","pricing_plan_id":"free"},{"bike_id":"c88b544a-7d5f-44cd-9e90-26ffcf31651a","system_id":"levelo_inurba_marseille","lat":43.32686,"lon":5.39586,"is_reserved":false,"is_disabled":false,"rental_uris":{"android":"levelo://app?vid=c88b544a-7d5f-44cd-9e90-26ffcf31651a","ios":"levelo://app?vid=c88b544a-7d5f-44cd-9e90-26ffcf31651a"},"vehicle_type_id":"4","last_reported":1707109666,"current_range_meters":11200,"station_id":"","pricing_plan_id":"free"},{"bike_id":"32258fa7-13e8-4e66-875e-93e46fd28aed","system_id":"levelo_inurba_marseille","lat":43.309267,"lon":5.401439,"is_reserved":false,"is_disabled":false,"rental_uris":{"android":"levelo://app?vid=32258fa7-13e8-4e66-875e-93e46fd28aed","ios":"levelo://app?vid=32258fa7-13e8-4e66-875e-93e46fd28aed"},"vehicle_type_id":"4","last_reported":1707109666,"current_range_meters":28400,"station_id":"ce4bgvp2rcd13ifvqct0","pricing_plan_id":"free"},{"bike_id":"d5dcde49-b4e7-46c7-a9fc-d5e75d6f184a","system_id":"levelo_inurba_marseille","lat":43.309371,"lon":5.401449,"is_reserved":false,"is_disabled":false,"rental_uris":{"android":"levelo://app?vid=d5dcde49-b4e7-46c7-a9fc-d5e75d6f184a","ios":"levelo://app?vid=d5dcde49-b4e7-46c7-a9fc-d5e75d6f184a"},"vehicle_type_id":"4","last_reported":1707109666,"current_range_meters":0,"station_id":"ce4bgvp2rcd13ifvqct0","pricing_plan_id":"free"},{"bike_id":"77808c9a-b998-4658-aedb-b25e3472d80a","system_id":"levelo_inurba_marseille","lat":43.309371,"lon":5.401449,"is_reserved":false,"is_disabled":false,"rental_uris":{"android":"levelo://app?vid=77808c9a-b998-4658-aedb-b25e3472d80a","ios":"levelo://app?vid=77808c9a-b998-4658-aedb-b25e3472d80a"},"vehicle_type_id":"4","last_reported":1707109666,"current_range_meters":27200,"station_id":"ce4bgvp2rcd13ifvqct0","pricing_plan_id":"free"},{"bike_id":"9f5165b7-7595-4b1c-ad15-8c6fd211ecbb","system_id":"levelo_inurba_marseille","lat":43.306412,"lon":5.401035,"is_reserved":false,"is_disabled":false,"rental_uris":{"android":"levelo://app?vid=9f5165b7-7595-4b1c-ad15-8c6fd211ecbb","ios":"levelo://app?vid=9f5165b7-7595-4b1c-ad15-8c6fd211ecbb"},"vehicle_type_id":"4","last_reported":1707109666,"current_range_meters":12800,"station_id":"ce4bh112rcd13ifvqda0","pricing_plan_id":"free"},{"bike_id":"0af38d84-b449-4fe9-8d3a-bb549e971224","system_id":"levelo_inurba_marseille","lat":43.309371,"lon":5.401449,"is_reserved":false,"is_disabled":false,"rental_uris":{"android":"levelo://app?vid=0af38d84-b449-4fe9-8d3a-bb549e971224","ios":"levelo://app?vid=0af38d84-b449-4fe9-8d3a-bb549e971224"},"vehicle_type_id":"4","last_reported":1707109666,"current_range_meters":4000,"station_id":"ce4bgvp2rcd13ifvqct0","pricing_plan_id":"free"},{"bike_id":"63fb55b5-1897-41e1-b3c4-3273acbbb106","system_id":"levelo_inurba_marseille","lat":43.30658,"lon":5.400876,"is_reserved":false,"is_disabled":false,"rental_uris":{"android":"levelo://app?vid=63fb55b5-1897-41e1-b3c4-3273acbbb106","ios":"levelo://app?vid=63fb55b5-1897-41e1-b3c4-3273acbbb106"},"vehicle_type_id":"4","last_reported":1707109666,"current_range_meters":30800,"station_id":"ce4bh112rcd13ifvqda0","pricing_plan_id":"free"},{"bike_id":"b5c8cd35-34dd-45ee-b3e7-3050ef3cbe6a","system_id":"levelo_inurba_marseille","lat":43.337673,"lon":5.374918,"is_reserved":false,"is_disabled":false,"rental_uris":{"android":"levelo://app?vid=b5c8cd35-34dd-45ee-b3e7-3050ef3cbe6a","ios":"levelo://app?vid=b5c8cd35-34dd-45ee-b3e7-3050ef3cbe6a"},"vehicle_type_id":"4","last_reported":1707109666,"current_range_meters":9600,"station_id":"","pricing_plan_id":"free"},{"bike_id":"08579ca5-dfe6-46e9-9901-a23ffe7b5f1a","system_id":"levelo_inurba_marseille","lat":43.28727,"lon":5.36078,"is_reserved":false,"is_disabled":false,"rental_uris":{"android":"levelo://app?vid=08579ca5-dfe6-46e9-9901-a23ffe7b5f1a","ios":"levelo://app?vid=08579ca5-dfe6-46e9-9901-a23ffe7b5f1a"},"vehicle_type_id":"4","last_reported":1707109666,"current_range_meters":25200,"station_id":"cki0cbj6b192h4jlfktg","pricing_plan_id":"free"},{"bike_id":"d2a41b9f-c931-456f-a83f-509625e088ba","system_id":"levelo_inurba_marseille","lat":43.28727,"lon":5.36078,"is_reserved":false,"is_disabled":false,"rental_uris":{"android":"levelo://app?vid=d2a41b9f-c931-456f-a83f-509625e088ba","ios":"levelo://app?vid=d2a41b9f-c931-456f-a83f-509625e088ba"},"vehicle_type_id":"4","last_reported":1707109666,"current_range_meters":13600,"station_id":"cki0cbj6b192h4jlfktg","pricing_plan_id":"free"},{"bike_id":"d3c77141-db99-4e33-9afb-da595021ea08","system_id":"levelo_inurba_marseille","lat":43.286961,"lon":5.373785,"is_reserved":false,"is_disabled":false,"rental_uris":{"android":"levelo://app?vid=d3c77141-db99-4e33-9afb-da595021ea08","ios":"levelo://app?vid=d3c77141-db99-4e33-9afb-da595021ea08"},"vehicle_type_id":"4","last_reported":1707109666,"current_range_meters":23200,"station_id":"ce4bh3p2rcd13ifvqdq0","pricing_plan_id":"free"},{"bike_id":"c36a99fa-99cc-469f-ae95-d0929973bab5","system_id":"levelo_inurba_marseille","lat":43.286591,"lon":5.363346,"is_reserved":false,"is_disabled":false,"rental_uris":{"android":"levelo://app?vid=c36a99fa-99cc-469f-ae95-d0929973bab5","ios":"levelo://app?vid=c36a99fa-99cc-469f-ae95-d0929973bab5"},"vehicle_type_id":"4","last_reported":1707109666,"current_range_meters":19600,"station_id":"ce4bhah2rcd13ifvqej0","pricing_plan_id":"free"},{"bike_id":"3d05157f-8eab-4058-ae67-73b578acaab1","system_id":"levelo_inurba_marseille","lat":43.298756,"lon":5.397373,"is_reserved":false,"is_disabled":false,"rental_uris":{"android":"levelo://app?vid=3d05157f-8eab-4058-ae67-73b578acaab1","ios":"levelo://app?vid=3d05157f-8eab-4058-ae67-73b578acaab1"},"vehicle_type_id":"4","last_reported":1707109666,"current_range_meters":29200,"station_id":"ce4bh0h2rcd13ifvqd50","pricing_plan_id":"free"},{"bike_id":"1e4a3793-1270-45e7-a544-55adbc7286d1","system_id":"levelo_inurba_marseille","lat":43.298689,"lon":5.397319,"is_reserved":false,"is_disabled":false,"rental_uris":{"android":"levelo://app?vid=1e4a3793-1270-45e7-a544-55adbc7286d1","ios":"levelo://app?vid=1e4a3793-1270-45e7-a544-55adbc7286d1"},"vehicle_type_id":"4","last_reported":1707109666,"current_range_meters":26000,"station_id":"ce4bh0h2rcd13ifvqd50","pricing_plan_id":"free"},{"bike_id":"0c2869af-56c9-43d6-9a59-38b28dacd238","system_id":"levelo_inurba_marseille","lat":43.286591,"lon":5.363346,"is_reserved":false,"is_disabled":false,"rental_uris":{"android":"levelo://app?vid=0c2869af-56c9-43d6-9a59-38b28dacd238","ios":"levelo://app?vid=0c2869af-56c9-43d6-9a59-38b28dacd238"},"vehicle_type_id":"4","last_reported":1707109666,"current_range_meters":29600,"station_id":"ce4bhah2rcd13ifvqej0","pricing_plan_id":"free"},{"bike_id":"f1ad9eb9-b72a-4c3e-ada6-a185e3c30c7c","system_id":"levelo_inurba_marseille","lat":43.286591,"lon":5.363346,"is_reserved":false,"is_disabled":false,"rental_uris":{"android":"levelo://app?vid=f1ad9eb9-b72a-4c3e-ada6-a185e3c30c7c","ios":"levelo://app?vid=f1ad9eb9-b72a-4c3e-ada6-a185e3c30c7c"},"vehicle_type_id":"4","last_reported":1707109666,"current_range_meters":31600,"station_id":"ce4bhah2rcd13ifvqej0","pricing_plan_id":"free"},{"bike_id":"101f063a-90c5-4dd9-89cf-18202b00ac9e","system_id":"levelo_inurba_marseille","lat":43.298681,"lon":5.397225,"is_reserved":false,"is_disabled":false,"rental_uris":{"android":"levelo://app?vid=101f063a-90c5-4dd9-89cf-18202b00ac9e","ios":"levelo://app?vid=101f063a-90c5-4dd9-89cf-18202b00ac9e"},"vehicle_type_id":"4","last_reported":1707109666,"current_range_meters":30000,"station_id":"ce4bh0h2rcd13ifvqd50","pricing_plan_id":"free"},{"bike_id":"6c7c5c93-ae95-4db7-8054-d4a8c05ca6f6","system_id":"levelo_inurba_marseille","lat":43.286591,"lon":5.363346,"is_reserved":false,"is_disabled":false,"rental_uris":{"android":"levelo://app?vid=6c7c5c93-ae95-4db7-8054-d4a8c05ca6f6","ios":"levelo://app?vid=6c7c5c93-ae95-4db7-8054-d4a8c05ca6f6"},"vehicle_type_id":"4","last_reported":1707109666,"current_range_meters":26400,"station_id":"ce4bhah2rcd13ifvqej0","pricing_plan_id":"free"},{"bike_id":"d305468d-3382-4123-b4a1-2a15b35d942c","system_id":"levelo_inurba_marseille","lat":43.28661,"lon":5.36356,"is_reserved":false,"is_disabled":false,"rental_uris":{"android":"levelo://app?vid=d305468d-3382-4123-b4a1-2a15b35d942c","ios":"levelo://app?vid=d305468d-3382-4123-b4a1-2a15b35d942c"},"vehicle_type_id":"4","last_reported":1707109666,"current_range_meters":8000,"station_id":"ce4bhah2rcd13ifvqej0","pricing_plan_id":"free"},{"bike_id":"a409a350-c4c6-49d8-af92-98f847538709","system_id":"levelo_inurba_marseille","lat":43.286961,"lon":5.373785,"is_reserved":false,"is_disabled":false,"rental_uris":{"android":"levelo://app?vid=a409a350-c4c6-49d8-af92-98f847538709","ios":"levelo://app?vid=a409a350-c4c6-49d8-af92-98f847538709"},"vehicle_type_id":"4","last_reported":1707109666,"current_range_meters":26800,"station_id":"ce4bh3p2rcd13ifvqdq0","pricing_plan_id":"free"},{"bike_id":"a59048d6-1d0b-45c9-82a8-2039ede15c14","system_id":"levelo_inurba_marseille","lat":43.286593,"lon":5.363346,"is_reserved":false,"is_disabled":false,"rental_uris":{"android":"levelo://app?vid=a59048d6-1d0b-45c9-82a8-2039ede15c14","ios":"levelo://app?vid=a59048d6-1d0b-45c9-82a8-2039ede15c14"},"vehicle_type_id":"4","last_reported":1707109666,"current_range_meters":25200,"station_id":"ce4bhah2rcd13ifvqej0","pricing_plan_id":"free"},{"bike_id":"682db7ed-5d95-4e21-8164-92cfb6eb0d26","system_id":"levelo_inurba_marseille","lat":43.286593,"lon":5.363346,"is_reserved":false,"is_disabled":false,"rental_uris":{"android":"levelo://app?vid=682db7ed-5d95-4e21-8164-92cfb6eb0d26","ios":"levelo://app?vid=682db7ed-5d95-4e21-8164-92cfb6eb0d26"},"vehicle_type_id":"4","last_reported":1707109666,"current_range_meters":31200,"station_id":"ce4bhah2rcd13ifvqej0","pricing_plan_id":"free"},{"bike_id":"e893ba87-ddae-4369-89e3-84ef6788b51e","system_id":"levelo_inurba_marseille","lat":43.295196,"lon":5.39397,"is_reserved":false,"is_disabled":false,"rental_uris":{"android":"levelo://app?vid=e893ba87-ddae-4369-89e3-84ef6788b51e","ios":"levelo://app?vid=e893ba87-ddae-4369-89e3-84ef6788b51e"},"vehicle_type_id":"4","last_reported":1707109666,"current_range_meters":31600,"station_id":"ce4bh292rcd13ifvqdf0","pricing_plan_id":"free"},{"bike_id":"d809d0e6-ab58-405c-9e3f-5833899b5a8b","system_id":"levelo_inurba_marseille","lat":43.295196,"lon":5.39397,"is_reserved":false,"is_disabled":false,"rental_uris":{"android":"levelo://app?vid=d809d0e6-ab58-405c-9e3f-5833899b5a8b","ios":"levelo://app?vid=d809d0e6-ab58-405c-9e3f-5833899b5a8b"},"vehicle_type_id":"4","last_reported":1707109666,"current_range_meters":31600,"station_id":"ce4bh292rcd13ifvqdf0","pricing_plan_id":"free"},{"bike_id":"76838ced-6c08-4a78-b6e6-dbb603fbe4b5","system_id":"levelo_inurba_marseille","lat":43.295196,"lon":5.39397,"is_reserved":false,"is_disabled":false,"rental_uris":{"android":"levelo://app?vid=76838ced-6c08-4a78-b6e6-dbb603fbe4b5","ios":"levelo://app?vid=76838ced-6c08-4a78-b6e6-dbb603fbe4b5"},"vehicle_type_id":"4","last_reported":1707109666,"current_range_meters":31600,"station_id":"ce4bh292rcd13ifvqdf0","pricing_plan_id":"free"},{"bike_id":"3468834e-403e-476a-96cc-b80fd9b608d9","system_id":"levelo_inurba_marseille","lat":43.295194,"lon":5.39397,"is_reserved":false,"is_disabled":false,"rental_uris":{"android":"levelo://app?vid=3468834e-403e-476a-96cc-b80fd9b608d9","ios":"levelo://app?vid=3468834e-403e-476a-96cc-b80fd9b608d9"},"vehicle_type_id":"4","last_reported":1707109666,"current_range_meters":13600,"station_id":"ce4bh292rcd13ifvqdf0","pricing_plan_id":"free"},{"bike_id":"d1b69e25-d8f1-470e-81ff-b377fd14d5a5","system_id":"levelo_inurba_marseille","lat":43.295196,"lon":5.39397,"is_reserved":false,"is_disabled":false,"rental_uris":{"android":"levelo://app?vid=d1b69e25-d8f1-470e-81ff-b377fd14d5a5","ios":"levelo://app?vid=d1b69e25-d8f1-470e-81ff-b377fd14d5a5"},"vehicle_type_id":"4","last_reported":1707109666,"current_range_meters":30400,"station_id":"ce4bh292rcd13ifvqdf0","pricing_plan_id":"free"},{"bike_id":"f41a6e5b-4469-491f-860e-31dac9707ff7","system_id":"levelo_inurba_marseille","lat":43.295196,"lon":5.39397,"is_reserved":false,"is_disabled":false,"rental_uris":{"android":"levelo://app?vid=f41a6e5b-4469-491f-860e-31dac9707ff7","ios":"levelo://app?vid=f41a6e5b-4469-491f-860e-31dac9707ff7"},"vehicle_type_id":"4","last_reported":1707109666,"current_range_meters":8400,"station_id":"ce4bh292rcd13ifvqdf0","pricing_plan_id":"free"},{"bike_id":"bbba2b8f-c1d1-45ac-a375-d30c44cb6746","system_id":"levelo_inurba_marseille","lat":43.289307,"lon":5.38406,"is_reserved":false,"is_disabled":false,"rental_uris":{"android":"levelo://app?vid=bbba2b8f-c1d1-45ac-a375-d30c44cb6746","ios":"levelo://app?vid=bbba2b8f-c1d1-45ac-a375-d30c44cb6746"},"vehicle_type_id":"4","last_reported":1707109666,"current_range_meters":28000,"station_id":"ce4bh612rcd13ifvqe6g","pricing_plan_id":"free"},{"bike_id":"7c9f45c5-e0c5-43da-a2b9-5232c4ae2b65","system_id":"levelo_inurba_marseille","lat":43.289307,"lon":5.38406,"is_reserved":false,"is_disabled":false,"rental_uris":{"android":"levelo://app?vid=7c9f45c5-e0c5-43da-a2b9-5232c4ae2b65","ios":"levelo://app?vid=7c9f45c5-e0c5-43da-a2b9-5232c4ae2b65"},"vehicle_type_id":"4","last_reported":1707109666,"current_range_meters":29200,"station_id":"ce4bh612rcd13ifvqe6g","pricing_plan_id":"free"},{"bike_id":"7e03d569-58fc-4e36-b728-553092a7d275","system_id":"levelo_inurba_marseille","lat":43.289307,"lon":5.38406,"is_reserved":false,"is_disabled":false,"rental_uris":{"android":"levelo://app?vid=7e03d569-58fc-4e36-b728-553092a7d275","ios":"levelo://app?vid=7e03d569-58fc-4e36-b728-553092a7d275"},"vehicle_type_id":"4","last_reported":1707109666,"current_range_meters":27200,"station_id":"ce4bh612rcd13ifvqe6g","pricing_plan_id":"free"},{"bike_id":"d9599ef4-5ba5-4e24-892e-9f31a5a79547","system_id":"levelo_inurba_marseille","lat":43.290336,"lon":5.386425,"is_reserved":false,"is_disabled":false,"rental_uris":{"android":"levelo://app?vid=d9599ef4-5ba5-4e24-892e-9f31a5a79547","ios":"levelo://app?vid=d9599ef4-5ba5-4e24-892e-9f31a5a79547"},"vehicle_type_id":"4","last_reported":1707109666,"current_range_meters":26000,"station_id":"ce4bh4p2rcd13ifvqe0g","pricing_plan_id":"free"},{"bike_id":"065b9089-8676-472b-82c1-3e8c470d539e","system_id":"levelo_inurba_marseille","lat":43.302759,"lon":5.400793,"is_reserved":false,"is_disabled":false,"rental_uris":{"android":"levelo://app?vid=065b9089-8676-472b-82c1-3e8c470d539e","ios":"levelo://app?vid=065b9089-8676-472b-82c1-3e8c470d539e"},"vehicle_type_id":"4","last_reported":1707109666,"current_range_meters":27600,"station_id":"ce4bgvh2rcd13ifvqcs0","pricing_plan_id":"free"},{"bike_id":"0a0d664a-d1cf-42ca-b14b-3770b445a3cf","system_id":"levelo_inurba_marseille","lat":43.302759,"lon":5.400793,"is_reserved":false,"is_disabled":false,"rental_uris":{"android":"levelo://app?vid=0a0d664a-d1cf-42ca-b14b-3770b445a3cf","ios":"levelo://app?vid=0a0d664a-d1cf-42ca-b14b-3770b445a3cf"},"vehicle_type_id":"4","last_reported":1707109666,"current_range_meters":31600,"station_id":"ce4bgvh2rcd13ifvqcs0","pricing_plan_id":"free"},{"bike_id":"d29f7fb4-9483-4a98-a7dd-cc2390d57391","system_id":"levelo_inurba_marseille","lat":43.29021,"lon":5.38649,"is_reserved":false,"is_disabled":false,"rental_uris":{"android":"levelo://app?vid=d29f7fb4-9483-4a98-a7dd-cc2390d57391","ios":"levelo://app?vid=d29f7fb4-9483-4a98-a7dd-cc2390d57391"},"vehicle_type_id":"4","last_reported":1707109666,"current_range_meters":30000,"station_id":"ce4bh4p2rcd13ifvqe0g","pricing_plan_id":"free"},{"bike_id":"1cec0f70-d817-41d7-a755-1cd9479fb343","system_id":"levelo_inurba_marseille","lat":43.302759,"lon":5.400793,"is_reserved":false,"is_disabled":false,"rental_uris":{"android":"levelo://app?vid=1cec0f70-d817-41d7-a755-1cd9479fb343","ios":"levelo://app?vid=1cec0f70-d817-41d7-a755-1cd9479fb343"},"vehicle_type_id":"4","last_reported":1707109666,"current_range_meters":10000,"station_id":"ce4bgvh2rcd13ifvqcs0","pricing_plan_id":"free"},{"bike_id":"eda151db-db85-4b6b-9e6f-3990b8f601a0","system_id":"levelo_inurba_marseille","lat":43.302759,"lon":5.400793,"is_reserved":false,"is_disabled":false,"rental_uris":{"android":"levelo://app?vid=eda151db-db85-4b6b-9e6f-3990b8f601a0","ios":"levelo://app?vid=eda151db-db85-4b6b-9e6f-3990b8f601a0"},"vehicle_type_id":"4","last_reported":1707109666,"current_range_meters":30000,"station_id":"ce4bgvh2rcd13ifvqcs0","pricing_plan_id":"free"},{"bike_id":"452a94b7-90d8-4334-8efc-8a9531a31d2d","system_id":"levelo_inurba_marseille","lat":43.287184,"lon":5.37937,"is_reserved":false,"is_disabled":false,"rental_uris":{"android":"levelo://app?vid=452a94b7-90d8-4334-8efc-8a9531a31d2d","ios":"levelo://app?vid=452a94b7-90d8-4334-8efc-8a9531a31d2d"},"vehicle_type_id":"4","last_reported":1707109666,"current_range_meters":30400,"station_id":"ce4bh9p2rcd13ifvqec0","pricing_plan_id":"free"},{"bike_id":"0d5537b7-a424-4c4e-bfdb-d0156d1aeb41","system_id":"levelo_inurba_marseille","lat":43.287185,"lon":5.379373,"is_reserved":false,"is_disabled":false,"rental_uris":{"android":"levelo://app?vid=0d5537b7-a424-4c4e-bfdb-d0156d1aeb41","ios":"levelo://app?vid=0d5537b7-a424-4c4e-bfdb-d0156d1aeb41"},"vehicle_type_id":"4","last_reported":1707109666,"current_range_meters":4800,"station_id":"ce4bh9p2rcd13ifvqec0","pricing_plan_id":"free"},{"bike_id":"4df05c58-52a4-4963-a060-11888b2e3c7b","system_id":"levelo_inurba_marseille","lat":43.287185,"lon":5.379373,"is_reserved":false,"is_disabled":false,"rental_uris":{"android":"levelo://app?vid=4df05c58-52a4-4963-a060-11888b2e3c7b","ios":"levelo://app?vid=4df05c58-52a4-4963-a060-11888b2e3c7b"},"vehicle_type_id":"4","last_reported":1707109666,"current_range_meters":0,"station_id":"ce4bh9p2rcd13ifvqec0","pricing_plan_id":"free"},{"bike_id":"e6a614c4-8030-4882-bdc0-0dda6d35d9b7","system_id":"levelo_inurba_marseille","lat":43.287185,"lon":5.379373,"is_reserved":false,"is_disabled":false,"rental_uris":{"android":"levelo://app?vid=e6a614c4-8030-4882-bdc0-0dda6d35d9b7","ios":"levelo://app?vid=e6a614c4-8030-4882-bdc0-0dda6d35d9b7"},"vehicle_type_id":"4","last_reported":1707109666,"current_range_meters":30000,"station_id":"ce4bh9p2rcd13ifvqec0","pricing_plan_id":"free"},{"bike_id":"0c2164e6-9270-4137-ab4d-a8f9ca4c5514","system_id":"levelo_inurba_marseille","lat":43.316828,"lon":5.404723,"is_reserved":false,"is_disabled":false,"rental_uris":{"android":"levelo://app?vid=0c2164e6-9270-4137-ab4d-a8f9ca4c5514","ios":"levelo://app?vid=0c2164e6-9270-4137-ab4d-a8f9ca4c5514"},"vehicle_type_id":"4","last_reported":1707109666,"current_range_meters":18800,"station_id":"ce4bh012rcd13ifvqd00","pricing_plan_id":"free"},{"bike_id":"a7cd7ba1-03f2-4e0f-8a65-6363fa717d53","system_id":"levelo_inurba_marseille","lat":43.316828,"lon":5.404723,"is_reserved":false,"is_disabled":false,"rental_uris":{"android":"levelo://app?vid=a7cd7ba1-03f2-4e0f-8a65-6363fa717d53","ios":"levelo://app?vid=a7cd7ba1-03f2-4e0f-8a65-6363fa717d53"},"vehicle_type_id":"4","last_reported":1707109666,"current_range_meters":11600,"station_id":"ce4bh012rcd13ifvqd00","pricing_plan_id":"free"},{"bike_id":"b1252978-b2d4-410e-815f-b83cd02c402b","system_id":"levelo_inurba_marseille","lat":43.317018,"lon":5.404697,"is_reserved":false,"is_disabled":false,"rental_uris":{"android":"levelo://app?vid=b1252978-b2d4-410e-815f-b83cd02c402b","ios":"levelo://app?vid=b1252978-b2d4-410e-815f-b83cd02c402b"},"vehicle_type_id":"4","last_reported":1707109666,"current_range_meters":29200,"station_id":"ce4bh012rcd13ifvqd00","pricing_plan_id":"free"},{"bike_id":"b4bd041e-12d0-4b2a-9246-5ab3ae89acc1","system_id":"levelo_inurba_marseille","lat":43.31697,"lon":5.4048,"is_reserved":false,"is_disabled":false,"rental_uris":{"android":"levelo://app?vid=b4bd041e-12d0-4b2a-9246-5ab3ae89acc1","ios":"levelo://app?vid=b4bd041e-12d0-4b2a-9246-5ab3ae89acc1"},"vehicle_type_id":"4","last_reported":1707109666,"current_range_meters":4000,"station_id":"ce4bh012rcd13ifvqd00","pricing_plan_id":"free"},{"bike_id":"d6941380-c7e7-4f5e-bb2f-f52b0b0176e0","system_id":"levelo_inurba_marseille","lat":43.291994,"lon":5.392907,"is_reserved":false,"is_disabled":false,"rental_uris":{"android":"levelo://app?vid=d6941380-c7e7-4f5e-bb2f-f52b0b0176e0","ios":"levelo://app?vid=d6941380-c7e7-4f5e-bb2f-f52b0b0176e0"},"vehicle_type_id":"4","last_reported":1707109666,"current_range_meters":30800,"station_id":"ce4bh192rcd13ifvqdd0","pricing_plan_id":"free"},{"bike_id":"3736f762-3495-441a-ae3b-406a2a664208","system_id":"levelo_inurba_marseille","lat":43.291994,"lon":5.392907,"is_reserved":false,"is_disabled":false,"rental_uris":{"android":"levelo://app?vid=3736f762-3495-441a-ae3b-406a2a664208","ios":"levelo://app?vid=3736f762-3495-441a-ae3b-406a2a664208"},"vehicle_type_id":"4","last_reported":1707109666,"current_range_meters":29600,"station_id":"ce4bh192rcd13ifvqdd0","pricing_plan_id":"free"},{"bike_id":"880c1adf-4dff-4872-befc-7c059d295e6c","system_id":"levelo_inurba_marseille","lat":43.291994,"lon":5.392907,"is_reserved":false,"is_disabled":false,"rental_uris":{"android":"levelo://app?vid=880c1adf-4dff-4872-befc-7c059d295e6c","ios":"levelo://app?vid=880c1adf-4dff-4872-befc-7c059d295e6c"},"vehicle_type_id":"4","last_reported":1707109666,"current_range_meters":31200,"station_id":"ce4bh192rcd13ifvqdd0","pricing_plan_id":"free"},{"bike_id":"c212c8c2-af5d-46ed-ae3a-dd84ef825d2e","system_id":"levelo_inurba_marseille","lat":43.291994,"lon":5.392907,"is_reserved":false,"is_disabled":false,"rental_uris":{"android":"levelo://app?vid=c212c8c2-af5d-46ed-ae3a-dd84ef825d2e","ios":"levelo://app?vid=c212c8c2-af5d-46ed-ae3a-dd84ef825d2e"},"vehicle_type_id":"4","last_reported":1707109666,"current_range_meters":24800,"station_id":"ce4bh192rcd13ifvqdd0","pricing_plan_id":"free"},{"bike_id":"799d91a4-4aa3-4677-9398-69c6644e1413","system_id":"levelo_inurba_marseille","lat":43.291994,"lon":5.392907,"is_reserved":false,"is_disabled":false,"rental_uris":{"android":"levelo://app?vid=799d91a4-4aa3-4677-9398-69c6644e1413","ios":"levelo://app?vid=799d91a4-4aa3-4677-9398-69c6644e1413"},"vehicle_type_id":"4","last_reported":1707109666,"current_range_meters":30400,"station_id":"ce4bh192rcd13ifvqdd0","pricing_plan_id":"free"},{"bike_id":"e8bd5e12-fbf4-4872-95ca-a621090b934b","system_id":"levelo_inurba_marseille","lat":43.291994,"lon":5.392907,"is_reserved":false,"is_disabled":false,"rental_uris":{"android":"levelo://app?vid=e8bd5e12-fbf4-4872-95ca-a621090b934b","ios":"levelo://app?vid=e8bd5e12-fbf4-4872-95ca-a621090b934b"},"vehicle_type_id":"4","last_reported":1707109666,"current_range_meters":6800,"station_id":"ce4bh192rcd13ifvqdd0","pricing_plan_id":"free"},{"bike_id":"fda0b6ae-3c71-4e21-90b3-71c1a3a19cdc","system_id":"levelo_inurba_marseille","lat":43.291994,"lon":5.392907,"is_reserved":false,"is_disabled":false,"rental_uris":{"android":"levelo://app?vid=fda0b6ae-3c71-4e21-90b3-71c1a3a19cdc","ios":"levelo://app?vid=fda0b6ae-3c71-4e21-90b3-71c1a3a19cdc"},"vehicle_type_id":"4","last_reported":1707109666,"current_range_meters":31600,"station_id":"ce4bh192rcd13ifvqdd0","pricing_plan_id":"free"},{"bike_id":"da081a0c-b851-4574-a6dc-9a25cfde35f2","system_id":"levelo_inurba_marseille","lat":43.291994,"lon":5.392907,"is_reserved":false,"is_disabled":false,"rental_uris":{"android":"levelo://app?vid=da081a0c-b851-4574-a6dc-9a25cfde35f2","ios":"levelo://app?vid=da081a0c-b851-4574-a6dc-9a25cfde35f2"},"vehicle_type_id":"4","last_reported":1707109666,"current_range_meters":4800,"station_id":"ce4bh192rcd13ifvqdd0","pricing_plan_id":"free"},{"bike_id":"346687b1-17dd-4c85-bc5d-c958884e2830","system_id":"levelo_inurba_marseille","lat":43.291994,"lon":5.392907,"is_reserved":false,"is_disabled":false,"rental_uris":{"android":"levelo://app?vid=346687b1-17dd-4c85-bc5d-c958884e2830","ios":"levelo://app?vid=346687b1-17dd-4c85-bc5d-c958884e2830"},"vehicle_type_id":"4","last_reported":1707109666,"current_range_meters":24000,"station_id":"ce4bh192rcd13ifvqdd0","pricing_plan_id":"free"},{"bike_id":"c1e285e2-3948-4987-86d5-4aeb6c544867","system_id":"levelo_inurba_marseille","lat":43.291994,"lon":5.392907,"is_reserved":false,"is_disabled":false,"rental_uris":{"android":"levelo://app?vid=c1e285e2-3948-4987-86d5-4aeb6c544867","ios":"levelo://app?vid=c1e285e2-3948-4987-86d5-4aeb6c544867"},"vehicle_type_id":"4","last_reported":1707109666,"current_range_meters":14000,"station_id":"ce4bh192rcd13ifvqdd0","pricing_plan_id":"free"},{"bike_id":"071e18bf-8e4c-4c51-8af5-eb700ced8e35","system_id":"levelo_inurba_marseille","lat":43.284534,"lon":5.358662,"is_reserved":false,"is_disabled":false,"rental_uris":{"android":"levelo://app?vid=071e18bf-8e4c-4c51-8af5-eb700ced8e35","ios":"levelo://app?vid=071e18bf-8e4c-4c51-8af5-eb700ced8e35"},"vehicle_type_id":"4","last_reported":1707109666,"current_range_meters":30000,"station_id":"ce4bhah2rcd13ifvqei0","pricing_plan_id":"free"},{"bike_id":"4cb451e5-0ff4-4207-bee9-6d1c879f377b","system_id":"levelo_inurba_marseille","lat":43.284628,"lon":5.35885,"is_reserved":false,"is_disabled":false,"rental_uris":{"android":"levelo://app?vid=4cb451e5-0ff4-4207-bee9-6d1c879f377b","ios":"levelo://app?vid=4cb451e5-0ff4-4207-bee9-6d1c879f377b"},"vehicle_type_id":"4","last_reported":1707109666,"current_range_meters":16800,"station_id":"ce4bhah2rcd13ifvqei0","pricing_plan_id":"free"},{"bike_id":"c3999725-2315-4e2d-ba0a-7a8fdee16ee8","system_id":"levelo_inurba_marseille","lat":43.284534,"lon":5.358662,"is_reserved":false,"is_disabled":false,"rental_uris":{"android":"levelo://app?vid=c3999725-2315-4e2d-ba0a-7a8fdee16ee8","ios":"levelo://app?vid=c3999725-2315-4e2d-ba0a-7a8fdee16ee8"},"vehicle_type_id":"4","last_reported":1707109666,"current_range_meters":24400,"station_id":"ce4bhah2rcd13ifvqei0","pricing_plan_id":"free"},{"bike_id":"a4e49e87-7256-43d5-ae03-39b932236b1b","system_id":"levelo_inurba_marseille","lat":43.284538,"lon":5.358657,"is_reserved":false,"is_disabled":false,"rental_uris":{"android":"levelo://app?vid=a4e49e87-7256-43d5-ae03-39b932236b1b","ios":"levelo://app?vid=a4e49e87-7256-43d5-ae03-39b932236b1b"},"vehicle_type_id":"4","last_reported":1707109666,"current_range_meters":30400,"station_id":"ce4bhah2rcd13ifvqei0","pricing_plan_id":"free"},