{"last_updated":1784826453,"ttl":60,"version":"2.2","data":{"bikes":[{"bike_id":"7ef36254-6bb3-448c-8d77-979d957d54b6","system_id":"levelo_inurba_marseille","lat":43.337444,"lon":5.374475,"is_reserved":false,"is_disabled":false,"rental_uris":{"android":"levelo://app?vid=7ef36254-6bb3-448c-8d77-979d957d54b6","ios":"levelo://app?vid=7ef36254-6bb3-448c-8d77-979d957d54b6"},"vehicle_type_id":"4","last_reported":1784826454,"current_range_meters":0,"station_id":"","pricing_plan_id":"cebpf4jnsgd1na2vs0mg"},{"bike_id":"21fe2e98-0432-4b40-a81f-10dd00b0f57d","system_id":"levelo_inurba_marseille","lat":43.337444,"lon":5.374475,"is_reserved":false,"is_disabled":false,"rental_uris":{"android":"levelo://app?vid=21fe2e98-0432-4b40-a81f-10dd00b0f57d","ios":"levelo://app?vid=21fe2e98-0432-4b40-a81f-10dd00b0f57d"},"vehicle_type_id":"4","last_reported":1784826454,"current_range_meters":0,"station_id":"","pricing_plan_id":"cebpf4jnsgd1na2vs0mg"},{"bike_id":"df7929a5-2b0c-4c4a-9607-4bd34960b2e8","system_id":"levelo_inurba_marseille","lat":43.21201,"lon":5.35072,"is_reserved":false,"is_disabled":false,"rental_uris":{"android":"levelo://app?vid=df7929a5-2b0c-4c4a-9607-4bd34960b2e8","ios":"levelo://app?vid=df7929a5-2b0c-4c4a-9607-4bd34960b2e8"},"vehicle_type_id":"4","last_reported":1784826454,"current_range_meters":8800,"station_id":"st_cvj6sg6p6f1abm77japg","pricing_plan_id":"cebpf4jnsgd1na2vs0mg"},{"bike_id":"7446e2dd-cf2a-448e-a013-708dd952d4de","system_id":"levelo_inurba_marseille","lat":43.29568,"lon":5.37496,"is_reserved":false,"is_disabled":false,"rental_uris":{"android":"levelo://app?vid=7446e2dd-cf2a-448e-a013-708dd952d4de","ios":"levelo://app?vid=7446e2dd-cf2a-448e-a013-708dd952d4de"},"vehicle_type_id":"4","last_reported":1784826454,"current_range_meters":30800,"station_id":"ce4bgh92rcd13ifvqb50","pricing_plan_id":"cebpf4jnsgd1na2vs0mg"},{"bike_id":"910edd9b-3f88-46ff-af53-0deba1c167b6","system_id":"levelo_inurba_marseille","lat":43.23961,"lon":5.36634,"is_reserved":false,"is_disabled":false,"rental_uris":{"android":"levelo://app?vid=910edd9b-3f88-46ff-af53-0deba1c167b6","ios":"levelo://app?vid=910edd9b-3f88-46ff-af53-0deba1c167b6"},"vehicle_type_id":"4","last_reported":1784826454,"current_range_meters":37600,"station_id":"ce4bhi12rcd13ifvqfp0","pricing_plan_id":"cebpf4jnsgd1na2vs0mg"},{"bike_id":"44d4d466-8955-40f1-be80-a41db56ac493","system_id":"levelo_inurba_marseille","lat":43.29011,"lon":5.35614,"is_reserved":false,"is_disabled":false,"rental_uris":{"android":"levelo://app?vid=44d4d466-8955-40f1-be80-a41db56ac493","ios":"levelo://app?vid=44d4d466-8955-40f1-be80-a41db56ac493"},"vehicle_type_id":"4","last_reported":1784826454,"current_range_meters":28400,"station_id":"ce4bhb92rcd13ifvqen0","pricing_plan_id":"cebpf4jnsgd1na2vs0mg"},{"bike_id":"fc10b006-d2c6-4298-a9f8-72bb9dd244cf","system_id":"levelo_inurba_marseille","lat":43.24542,"lon":5.39534,"is_reserved":false,"is_disabled":false,"rental_uris":{"android":"levelo://app?vid=fc10b006-d2c6-4298-a9f8-72bb9dd244cf","ios":"levelo://app?vid=fc10b006-d2c6-4298-a9f8-72bb9dd244cf"},"vehicle_type_id":"4","last_reported":1784826454,"current_range_meters":8800,"station_id":"ce4bhlp2rcd13ifvqgjg","pricing_plan_id":"cebpf4jnsgd1na2vs0mg"},{"bike_id":"f2c26268-2002-48c9-a2f8-8f76ed8a8540","system_id":"levelo_inurba_marseille","lat":43.23888,"lon":5.37461,"is_reserved":false,"is_disabled":false,"rental_uris":{"android":"levelo://app?vid=f2c26268-2002-48c9-a2f8-8f76ed8a8540","ios":"levelo://app?vid=f2c26268-2002-48c9-a2f8-8f76ed8a8540"},"vehicle_type_id":"4","last_reported":1784826454,"current_range_meters":36400,"station_id":"st_d6sm7csbq4hs73f8fpjg","pricing_plan_id":"cebpf4jnsgd1na2vs0mg"},{"bike_id":"8477422c-5b3a-4e98-a263-27560ff6237f","system_id":"levelo_inurba_marseille","lat":43.29293,"lon":5.37464,"is_reserved":false,"is_disabled":false,"rental_uris":{"android":"levelo://app?vid=8477422c-5b3a-4e98-a263-27560ff6237f","ios":"levelo://app?vid=8477422c-5b3a-4e98-a263-27560ff6237f"},"vehicle_type_id":"4","last_reported":1784826454,"current_range_meters":15200,"station_id":"ce4bgi12rcd13ifvqb70","pricing_plan_id":"cebpf4jnsgd1na2vs0mg"},{"bike_id":"72706276-fb69-4388-946e-2b4fb06a5929","system_id":"levelo_inurba_marseille","lat":43.33003,"lon":5.39021,"is_reserved":false,"is_disabled":false,"rental_uris":{"android":"levelo://app?vid=72706276-fb69-4388-946e-2b4fb06a5929","ios":"levelo://app?vid=72706276-fb69-4388-946e-2b4fb06a5929"},"vehicle_type_id":"4","last_reported":1784826454,"current_range_meters":38400,"station_id":"ce4bhr92rcd13ifvqhrg","pricing_plan_id":"cebpf4jnsgd1na2vs0mg"},{"bike_id":"3275e5ca-225b-44f6-b554-2e84ebf36240","system_id":"levelo_inurba_marseille","lat":43.32339,"lon":5.36741,"is_reserved":false,"is_disabled":false,"rental_uris":{"android":"levelo://app?vid=3275e5ca-225b-44f6-b554-2e84ebf36240","ios":"levelo://app?vid=3275e5ca-225b-44f6-b554-2e84ebf36240"},"vehicle_type_id":"4","last_reported":1784826454,"current_range_meters":39200,"station_id":"ce4bhsh2rcd13ifvqi2g","pricing_plan_id":"cebpf4jnsgd1na2vs0mg"},{"bike_id":"df1917d3-a30d-47dd-bbf5-1f007fd5b668","system_id":"levelo_inurba_marseille","lat":43.24392,"lon":5.3707,"is_reserved":false,"is_disabled":false,"rental_uris":{"android":"levelo://app?vid=df1917d3-a30d-47dd-bbf5-1f007fd5b668","ios":"levelo://app?vid=df1917d3-a30d-47dd-bbf5-1f007fd5b668"},"vehicle_type_id":"4","last_reported":1784826454,"current_range_meters":30800,"station_id":"ce4bhhh2rcd13ifvqfk0","pricing_plan_id":"cebpf4jnsgd1na2vs0mg"},{"bike_id":"ccbf7bf8-de9c-49ed-ad5d-fc28e652ae7a","system_id":"levelo_inurba_marseille","lat":43.26556,"lon":5.40338,"is_reserved":false,"is_disabled":false,"rental_uris":{"android":"levelo://app?vid=ccbf7bf8-de9c-49ed-ad5d-fc28e652ae7a","ios":"levelo://app?vid=ccbf7bf8-de9c-49ed-ad5d-fc28e652ae7a"},"vehicle_type_id":"4","last_reported":1784826454,"current_range_meters":39200,"station_id":"ce4bhmp2rcd13ifvqgng","pricing_plan_id":"cebpf4jnsgd1na2vs0mg"},{"bike_id":"a1550354-2d97-44b7-8224-d712a77cbb75","system_id":"levelo_inurba_marseille","lat":43.21722,"lon":5.34616,"is_reserved":false,"is_disabled":false,"rental_uris":{"android":"levelo://app?vid=a1550354-2d97-44b7-8224-d712a77cbb75","ios":"levelo://app?vid=a1550354-2d97-44b7-8224-d712a77cbb75"},"vehicle_type_id":"4","last_reported":1784826454,"current_range_meters":28400,"station_id":"st_cvj6r9ubvosntc0bgbag","pricing_plan_id":"cebpf4jnsgd1na2vs0mg"},{"bike_id":"3cc97a53-d102-483f-90b5-fca36af42d3a","system_id":"levelo_inurba_marseille","lat":43.2494,"lon":5.40512,"is_reserved":false,"is_disabled":false,"rental_uris":{"android":"levelo://app?vid=3cc97a53-d102-483f-90b5-fca36af42d3a","ios":"levelo://app?vid=3cc97a53-d102-483f-90b5-fca36af42d3a"},"vehicle_type_id":"4","last_reported":1784826454,"current_range_meters":9600,"station_id":"st_d2ngiaodas8pm72gd1h0","pricing_plan_id":"cebpf4jnsgd1na2vs0mg"},{"bike_id":"e40092d8-e809-444f-887b-ec2d97cdda0b","system_id":"levelo_inurba_marseille","lat":43.30301,"lon":5.39211,"is_reserved":false,"is_disabled":true,"rental_uris":{"android":"levelo://app?vid=e40092d8-e809-444f-887b-ec2d97cdda0b","ios":"levelo://app?vid=e40092d8-e809-444f-887b-ec2d97cdda0b"},"vehicle_type_id":"4","last_reported":1784826454,"current_range_meters":35200,"station_id":"ce4bgkh2rcd13ifvqbk0","pricing_plan_id":"cebpf4jnsgd1na2vs0mg"},{"bike_id":"cd5a00df-da64-4a0f-8575-682df166e1ba","system_id":"levelo_inurba_marseille","lat":43.30555,"lon":5.36529,"is_reserved":false,"is_disabled":false,"rental_uris":{"android":"levelo://app?vid=cd5a00df-da64-4a0f-8575-682df166e1ba","ios":"levelo://app?vid=cd5a00df-da64-4a0f-8575-682df166e1ba"},"vehicle_type_id":"4","last_reported":1784826454,"current_range_meters":30000,"station_id":"ce4bgs12rcd13ifvqcag","pricing_plan_id":"cebpf4jnsgd1na2vs0mg"},{"bike_id":"525ae73f-25bd-4405-b148-5e83f9439c4f","system_id":"levelo_inurba_marseille","lat":43.29005,"lon":5.35609,"is_reserved":false,"is_disabled":false,"rental_uris":{"android":"levelo://app?vid=525ae73f-25bd-4405-b148-5e83f9439c4f","ios":"levelo://app?vid=525ae73f-25bd-4405-b148-5e83f9439c4f"},"vehicle_type_id":"4","last_reported":1784826454,"current_range_meters":8000,"station_id":"ce4bhb92rcd13ifvqen0","pricing_plan_id":"cebpf4jnsgd1na2vs0mg"},{"bike_id":"242213bb-864e-4d09-97c6-4a2d8732de8f","system_id":"levelo_inurba_marseille","lat":43.24172,"lon":5.36401,"is_reserved":false,"is_disabled":false,"rental_uris":{"android":"levelo://app?vid=242213bb-864e-4d09-97c6-4a2d8732de8f","ios":"levelo://app?vid=242213bb-864e-4d09-97c6-4a2d8732de8f"},"vehicle_type_id":"4","last_reported":1784826454,"current_range_meters":24800,"station_id":"cpo36qri1sfpv3e86is0","pricing_plan_id":"cebpf4jnsgd1na2vs0mg"},{"bike_id":"60465e54-71b5-472a-9d3d-07a8ec42e4b7","system_id":"levelo_inurba_marseille","lat":43.29371,"lon":5.37855,"is_reserved":false,"is_disabled":false,"rental_uris":{"android":"levelo://app?vid=60465e54-71b5-472a-9d3d-07a8ec42e4b7","ios":"levelo://app?vid=60465e54-71b5-472a-9d3d-07a8ec42e4b7"},"vehicle_type_id":"4","last_reported":1784826454,"current_range_meters":6400,"station_id":"ce4bgjh2rcd13ifvqbf0","pricing_plan_id":"cebpf4jnsgd1na2vs0mg"},{"bike_id":"8d89ea51-cea5-4f8c-967f-6521cae298dc","system_id":"levelo_inurba_marseille","lat":43.29263,"lon":5.36834,"is_reserved":false,"is_disabled":false,"rental_uris":{"android":"levelo://app?vid=8d89ea51-cea5-4f8c-967f-6521cae298dc","ios":"levelo://app?vid=8d89ea51-cea5-4f8c-967f-6521cae298dc"},"vehicle_type_id":"4","last_reported":1784826454,"current_range_meters":33600,"station_id":"ce4bhbp2rcd13ifvqesg","pricing_plan_id":"cebpf4jnsgd1na2vs0mg"},{"bike_id":"9146b6cb-4d86-40b1-a0ae-b3b366653aed","system_id":"levelo_inurba_marseille","lat":43.27176,"lon":5.41,"is_reserved":false,"is_disabled":false,"rental_uris":{"android":"levelo://app?vid=9146b6cb-4d86-40b1-a0ae-b3b366653aed","ios":"levelo://app?vid=9146b6cb-4d86-40b1-a0ae-b3b366653aed"},"vehicle_type_id":"4","last_reported":1784826454,"current_range_meters":38800,"station_id":"ce4bhl12rcd13ifvqgf0","pricing_plan_id":"cebpf4jnsgd1na2vs0mg"},{"bike_id":"1b390009-7bfd-459d-88d7-03329f11fd18","system_id":"levelo_inurba_marseille","lat":43.24952,"lon":5.40488,"is_reserved":false,"is_disabled":false,"rental_uris":{"android":"levelo://app?vid=1b390009-7bfd-459d-88d7-03329f11fd18","ios":"levelo://app?vid=1b390009-7bfd-459d-88d7-03329f11fd18"},"vehicle_type_id":"4","last_reported":1784826454,"current_range_meters":27200,"station_id":"st_d2ngiaodas8pm72gd1h0","pricing_plan_id":"cebpf4jnsgd1na2vs0mg"},{"bike_id":"2154fcce-4dae-44fd-8c16-6859e119f377","system_id":"levelo_inurba_marseille","lat":43.23959,"lon":5.36628,"is_reserved":false,"is_disabled":false,"rental_uris":{"android":"levelo://app?vid=2154fcce-4dae-44fd-8c16-6859e119f377","ios":"levelo://app?vid=2154fcce-4dae-44fd-8c16-6859e119f377"},"vehicle_type_id":"4","last_reported":1784826454,"current_range_meters":19600,"station_id":"ce4bhi12rcd13ifvqfp0","pricing_plan_id":"cebpf4jnsgd1na2vs0mg"},{"bike_id":"7c466e5a-9599-4323-908b-b8b633cb44ee","system_id":"levelo_inurba_marseille","lat":43.284301,"lon":5.374962,"is_reserved":false,"is_disabled":false,"rental_uris":{"android":"levelo://app?vid=7c466e5a-9599-4323-908b-b8b633cb44ee","ios":"levelo://app?vid=7c466e5a-9599-4323-908b-b8b633cb44ee"},"vehicle_type_id":"4","last_reported":1784826454,"current_range_meters":36000,"station_id":"ce4bh412rcd13ifvqds0","pricing_plan_id":"cebpf4jnsgd1na2vs0mg"},{"bike_id":"a338cea5-f797-4d31-b718-3121663ee29c","system_id":"levelo_inurba_marseille","lat":43.30402,"lon":5.37903,"is_reserved":false,"is_disabled":false,"rental_uris":{"android":"levelo://app?vid=a338cea5-f797-4d31-b718-3121663ee29c","ios":"levelo://app?vid=a338cea5-f797-4d31-b718-3121663ee29c"},"vehicle_type_id":"4","last_reported":1784826454,"current_range_meters":29600,"station_id":"","pricing_plan_id":"cebpf4jnsgd1na2vs0mg"},{"bike_id":"ea40d3fe-4a5d-4157-a899-d683020cc49e","system_id":"levelo_inurba_marseille","lat":43.30137,"lon":5.37413,"is_reserved":false,"is_disabled":false,"rental_uris":{"android":"levelo://app?vid=ea40d3fe-4a5d-4157-a899-d683020cc49e","ios":"levelo://app?vid=ea40d3fe-4a5d-4157-a899-d683020cc49e"},"vehicle_type_id":"4","last_reported":1784826454,"current_range_meters":8400,"station_id":"ce4bgs92rcd13ifvqcc0","pricing_plan_id":"cebpf4jnsgd1na2vs0mg"},{"bike_id":"1b404e4c-b236-462e-ac7b-3e8d719e954b","system_id":"levelo_inurba_marseille","lat":43.258137,"lon":5.394366,"is_reserved":false,"is_disabled":false,"rental_uris":{"android":"levelo://app?vid=1b404e4c-b236-462e-ac7b-3e8d719e954b","ios":"levelo://app?vid=1b404e4c-b236-462e-ac7b-3e8d719e954b"},"vehicle_type_id":"4","last_reported":1784826454,"current_range_meters":40000,"station_id":"ce4bhip2rcd13ifvqft0","pricing_plan_id":"cebpf4jnsgd1na2vs0mg"},{"bike_id":"b2063a9f-4a93-48fa-bc9e-6656ac899629","system_id":"levelo_inurba_marseille","lat":43.28267,"lon":5.35062,"is_reserved":false,"is_disabled":false,"rental_uris":{"android":"levelo://app?vid=b2063a9f-4a93-48fa-bc9e-6656ac899629","ios":"levelo://app?vid=b2063a9f-4a93-48fa-bc9e-6656ac899629"},"vehicle_type_id":"4","last_reported":1784826454,"current_range_meters":13600,"station_id":"ce4bhbp2rcd13ifvqerg","pricing_plan_id":"cebpf4jnsgd1na2vs0mg"},{"bike_id":"a7c9489a-3c37-4218-bc38-92c335aa3a8a","system_id":"levelo_inurba_marseille","lat":43.28482,"lon":5.48389,"is_reserved":false,"is_disabled":false,"rental_uris":{"android":"levelo://app?vid=a7c9489a-3c37-4218-bc38-92c335aa3a8a","ios":"levelo://app?vid=a7c9489a-3c37-4218-bc38-92c335aa3a8a"},"vehicle_type_id":"4","last_reported":1784826454,"current_range_meters":39200,"station_id":"st_d3svhcjqgbts73a3dn0g","pricing_plan_id":"cebpf4jnsgd1na2vs0mg"},{"bike_id":"553ccaef-40d0-4918-9121-0aa87a48d4c7","system_id":"levelo_inurba_marseille","lat":43.26937,"lon":5.40254,"is_reserved":false,"is_disabled":false,"rental_uris":{"android":"levelo://app?vid=553ccaef-40d0-4918-9121-0aa87a48d4c7","ios":"levelo://app?vid=553ccaef-40d0-4918-9121-0aa87a48d4c7"},"vehicle_type_id":"4","last_reported":1784826454,"current_range_meters":39200,"station_id":"cjm6bp8fraef2m0cb0m0","pricing_plan_id":"cebpf4jnsgd1na2vs0mg"},{"bike_id":"68a1110a-8aa4-46ed-a7b1-8626bd403edb","system_id":"levelo_inurba_marseille","lat":43.23193,"lon":5.35553,"is_reserved":false,"is_disabled":false,"rental_uris":{"android":"levelo://app?vid=68a1110a-8aa4-46ed-a7b1-8626bd403edb","ios":"levelo://app?vid=68a1110a-8aa4-46ed-a7b1-8626bd403edb"},"vehicle_type_id":"4","last_reported":1784826454,"current_range_meters":6400,"station_id":"ce4bhu92rcd13ifvqi70","pricing_plan_id":"cebpf4jnsgd1na2vs0mg"},{"bike_id":"02bc1f6e-a93d-4c6f-8463-6b5ba3d4d3d8","system_id":"levelo_inurba_marseille","lat":43.25498,"lon":5.37656,"is_reserved":false,"is_disabled":false,"rental_uris":{"android":"levelo://app?vid=02bc1f6e-a93d-4c6f-8463-6b5ba3d4d3d8","ios":"levelo://app?vid=02bc1f6e-a93d-4c6f-8463-6b5ba3d4d3d8"},"vehicle_type_id":"4","last_reported":1784826454,"current_range_meters":39200,"station_id":"ce4bhh12rcd13ifvqff0","pricing_plan_id":"cebpf4jnsgd1na2vs0mg"},{"bike_id":"3d3363f1-b079-4e13-899e-dbc693f0dea6","system_id":"levelo_inurba_marseille","lat":43.27493,"lon":5.42454,"is_reserved":false,"is_disabled":true,"rental_uris":{"android":"levelo://app?vid=3d3363f1-b079-4e13-899e-dbc693f0dea6","ios":"levelo://app?vid=3d3363f1-b079-4e13-899e-dbc693f0dea6"},"vehicle_type_id":"4","last_reported":1784826454,"current_range_meters":0,"station_id":"ce4bhn92rcd13ifvqgrg","pricing_plan_id":"cebpf4jnsgd1na2vs0mg"},{"bike_id":"5aa3ca14-34f8-4cf6-bf98-84664ad40ed9","system_id":"levelo_inurba_marseille","lat":43.32366,"lon":5.38889,"is_reserved":false,"is_disabled":false,"rental_uris":{"android":"levelo://app?vid=5aa3ca14-34f8-4cf6-bf98-84664ad40ed9","ios":"levelo://app?vid=5aa3ca14-34f8-4cf6-bf98-84664ad40ed9"},"vehicle_type_id":"4","last_reported":1784826454,"current_range_meters":32800,"station_id":"ce4bhqp2rcd13ifvqhog","pricing_plan_id":"cebpf4jnsgd1na2vs0mg"},{"bike_id":"ad5546db-be31-4539-b959-cba3ca226aa3","system_id":"levelo_inurba_marseille","lat":43.24803,"lon":5.37461,"is_reserved":false,"is_disabled":false,"rental_uris":{"android":"levelo://app?vid=ad5546db-be31-4539-b959-cba3ca226aa3","ios":"levelo://app?vid=ad5546db-be31-4539-b959-cba3ca226aa3"},"vehicle_type_id":"4","last_reported":1784826454,"current_range_meters":18000,"station_id":"ce4bhgh2rcd13ifvqfb0","pricing_plan_id":"cebpf4jnsgd1na2vs0mg"},{"bike_id":"1d88b397-15cd-42bd-a0d2-5f1168270341","system_id":"levelo_inurba_marseille","lat":43.28025,"lon":5.36945,"is_reserved":false,"is_disabled":false,"rental_uris":{"android":"levelo://app?vid=1d88b397-15cd-42bd-a0d2-5f1168270341","ios":"levelo://app?vid=1d88b397-15cd-42bd-a0d2-5f1168270341"},"vehicle_type_id":"4","last_reported":1784826454,"current_range_meters":9200,"station_id":"ce4bha12rcd13ifvqef0","pricing_plan_id":"cebpf4jnsgd1na2vs0mg"},{"bike_id":"8b48f329-937d-4f33-bc8e-cc3992c67190","system_id":"levelo_inurba_marseille","lat":43.29628,"lon":5.37128,"is_reserved":false,"is_disabled":true,"rental_uris":{"android":"levelo://app?vid=8b48f329-937d-4f33-bc8e-cc3992c67190","ios":"levelo://app?vid=8b48f329-937d-4f33-bc8e-cc3992c67190"},"vehicle_type_id":"4","last_reported":1784826454,"current_range_meters":32000,"station_id":"","pricing_plan_id":"cebpf4jnsgd1na2vs0mg"},{"bike_id":"e6e21344-648f-488d-8781-975451a28089","system_id":"levelo_inurba_marseille","lat":43.27807,"lon":5.40707,"is_reserved":false,"is_disabled":false,"rental_uris":{"android":"levelo://app?vid=e6e21344-648f-488d-8781-975451a28089","ios":"levelo://app?vid=e6e21344-648f-488d-8781-975451a28089"},"vehicle_type_id":"4","last_reported":1784826454,"current_range_meters":12400,"station_id":"ce4bhnh2rcd13ifvqgtg","pricing_plan_id":"cebpf4jnsgd1na2vs0mg"},{"bike_id":"b223e852-34ec-442a-b8b7-ba250ad1fe10","system_id":"levelo_inurba_marseille","lat":43.31266,"lon":5.40166,"is_reserved":false,"is_disabled":false,"rental_uris":{"android":"levelo://app?vid=b223e852-34ec-442a-b8b7-ba250ad1fe10","ios":"levelo://app?vid=b223e852-34ec-442a-b8b7-ba250ad1fe10"},"vehicle_type_id":"4","last_reported":1784826454,"current_range_meters":27600,"station_id":"ce4bh092rcd13ifvqd30","pricing_plan_id":"cebpf4jnsgd1na2vs0mg"},{"bike_id":"b62c6f43-d381-4900-8a07-23d79aaa3392","system_id":"levelo_inurba_marseille","lat":43.29574,"lon":5.42361,"is_reserved":false,"is_disabled":false,"rental_uris":{"android":"levelo://app?vid=b62c6f43-d381-4900-8a07-23d79aaa3392","ios":"levelo://app?vid=b62c6f43-d381-4900-8a07-23d79aaa3392"},"vehicle_type_id":"4","last_reported":1784826454,"current_range_meters":11200,"station_id":"","pricing_plan_id":"cebpf4jnsgd1na2vs0mg"},{"bike_id":"a7ec2329-e28f-4371-82c4-a5dff216554e","system_id":"levelo_inurba_marseille","lat":43.29709,"lon":5.37698,"is_reserved":false,"is_disabled":false,"rental_uris":{"android":"levelo://app?vid=a7ec2329-e28f-4371-82c4-a5dff216554e","ios":"levelo://app?vid=a7ec2329-e28f-4371-82c4-a5dff216554e"},"vehicle_type_id":"4","last_reported":1784826454,"current_range_meters":22000,"station_id":"ce4bgkh2rcd13ifvqbl0","pricing_plan_id":"cebpf4jnsgd1na2vs0mg"},{"bike_id":"3a295aff-6816-4af7-ac5a-87a5bd41c1cd","system_id":"levelo_inurba_marseille","lat":43.28485,"lon":5.48388,"is_reserved":false,"is_disabled":false,"rental_uris":{"android":"levelo://app?vid=3a295aff-6816-4af7-ac5a-87a5bd41c1cd","ios":"levelo://app?vid=3a295aff-6816-4af7-ac5a-87a5bd41c1cd"},"vehicle_type_id":"4","last_reported":1784826454,"current_range_meters":23200,"station_id":"st_d3svhcjqgbts73a3dn0g","pricing_plan_id":"cebpf4jnsgd1na2vs0mg"},{"bike_id":"7b1a34a9-9772-429a-ac81-dbcf3805788e","system_id":"levelo_inurba_marseille","lat":43.27897,"lon":5.35542,"is_reserved":false,"is_disabled":false,"rental_uris":{"android":"levelo://app?vid=7b1a34a9-9772-429a-ac81-dbcf3805788e","ios":"levelo://app?vid=7b1a34a9-9772-429a-ac81-dbcf3805788e"},"vehicle_type_id":"4","last_reported":1784826454,"current_range_meters":12400,"station_id":"","pricing_plan_id":"cebpf4jnsgd1na2vs0mg"},{"bike_id":"6dea14eb-1fd5-4fb0-8678-f1f928da7d65","system_id":"levelo_inurba_marseille","lat":43.28611,"lon":5.35108,"is_reserved":false,"is_disabled":false,"rental_uris":{"android":"levelo://app?vid=6dea14eb-1fd5-4fb0-8678-f1f928da7d65","ios":"levelo://app?vid=6dea14eb-1fd5-4fb0-8678-f1f928da7d65"},"vehicle_type_id":"4","last_reported":1784826454,"current_range_meters":39200,"station_id":"ce4bhch2rcd13ifvqeug","pricing_plan_id":"cebpf4jnsgd1na2vs0mg"},{"bike_id":"6cd0b9a2-a893-4d86-a077-a039a6b6a0f1","system_id":"levelo_inurba_marseille","lat":43.28416,"lon":5.34978,"is_reserved":false,"is_disabled":true,"rental_uris":{"android":"levelo://app?vid=6cd0b9a2-a893-4d86-a077-a039a6b6a0f1","ios":"levelo://app?vid=6cd0b9a2-a893-4d86-a077-a039a6b6a0f1"},"vehicle_type_id":"4","last_reported":1784826454,"current_range_meters":19600,"station_id":"ce4bhbh2rcd13ifvqepg","pricing_plan_id":"cebpf4jnsgd1na2vs0mg"},{"bike_id":"b3615f38-9ae4-47b3-be0f-27da959fb130","system_id":"levelo_inurba_marseille","lat":43.26528,"lon":5.39673,"is_reserved":false,"is_disabled":false,"rental_uris":{"android":"levelo://app?vid=b3615f38-9ae4-47b3-be0f-27da959fb130","ios":"levelo://app?vid=b3615f38-9ae4-47b3-be0f-27da959fb130"},"vehicle_type_id":"4","last_reported":1784826454,"current_range_meters":10800,"station_id":"","pricing_plan_id":"cebpf4jnsgd1na2vs0mg"},{"bike_id":"0b3ca54f-5603-4c53-b666-db1cc1c2977e","system_id":"levelo_inurba_marseille","lat":43.27911,"lon":5.39586,"is_reserved":false,"is_disabled":false,"rental_uris":{"android":"levelo://app?vid=0b3ca54f-5603-4c53-b666-db1cc1c2977e","ios":"levelo://app?vid=0b3ca54f-5603-4c53-b666-db1cc1c2977e"},"vehicle_type_id":"4","last_reported":1784826454,"current_range_meters":22000,"station_id":"ce4bhf92rcd13ifvqf40","pricing_plan_id":"cebpf4jnsgd1na2vs0mg"},{"bike_id":"2b008bd4-fa09-4488-bc3a-aadf57687a0d","system_id":"levelo_inurba_marseille","lat":43.29923,"lon":5.37457,"is_reserved":false,"is_disabled":false,"rental_uris":{"android":"levelo://app?vid=2b008bd4-fa09-4488-bc3a-aadf57687a0d","ios":"levelo://app?vid=2b008bd4-fa09-4488-bc3a-aadf57687a0d"},"vehicle_type_id":"4","last_reported":1784826454,"current_range_meters":39200,"station_id":"ce4bgjh2rcd13ifvqbg0","pricing_plan_id":"cebpf4jnsgd1na2vs0mg"},{"bike_id":"f95849e3-ecc4-4a70-8bc6-ebfb18113894","system_id":"levelo_inurba_marseille","lat":43.27947,"lon":5.41063,"is_reserved":false,"is_disabled":false,"rental_uris":{"android":"levelo://app?vid=f95849e3-ecc4-4a70-8bc6-ebfb18113894","ios":"levelo://app?vid=f95849e3-ecc4-4a70-8bc6-ebfb18113894"},"vehicle_type_id":"4","last_reported":1784826454,"current_range_meters":38000,"station_id":"ce4bhnp2rcd13ifvqh0g","pricing_plan_id":"cebpf4jnsgd1na2vs0mg"},{"bike_id":"01d9a676-01f3-4b98-beb9-e0a1a490c722","system_id":"levelo_inurba_marseille","lat":43.28166,"lon":5.42643,"is_reserved":false,"is_disabled":false,"rental_uris":{"android":"levelo://app?vid=01d9a676-01f3-4b98-beb9-e0a1a490c722","ios":"levelo://app?vid=01d9a676-01f3-4b98-beb9-e0a1a490c722"},"vehicle_type_id":"4","last_reported":1784826454,"current_range_meters":24800,"station_id":"ce4bhnh2rcd13ifvqgug","pricing_plan_id":"cebpf4jnsgd1na2vs0mg"},{"bike_id":"f765bc46-853b-4f5f-a0cf-13f9a2c85881","system_id":"levelo_inurba_marseille","lat":43.32103,"lon":5.36789,"is_reserved":false,"is_disabled":false,"rental_uris":{"android":"levelo://app?vid=f765bc46-853b-4f5f-a0cf-13f9a2c85881","ios":"levelo://app?vid=f765bc46-853b-4f5f-a0cf-13f9a2c85881"},"vehicle_type_id":"4","last_reported":1784826454,"current_range_meters":28800,"station_id":"ce4bhrh2rcd13ifvqhug","pricing_plan_id":"cebpf4jnsgd1na2vs0mg"},{"bike_id":"0aaab04e-fbf4-4eb5-b726-87439b3409d4","system_id":"levelo_inurba_marseille","lat":43.31217,"lon":5.36854,"is_reserved":false,"is_disabled":true,"rental_uris":{"android":"levelo://app?vid=0aaab04e-fbf4-4eb5-b726-87439b3409d4","ios":"levelo://app?vid=0aaab04e-fbf4-4eb5-b726-87439b3409d4"},"vehicle_type_id":"4","last_reported":1784826454,"current_range_meters":32000,"station_id":"ce4bgl92rcd13ifvqbq0","pricing_plan_id":"cebpf4jnsgd1na2vs0mg"},{"bike_id":"c469d1f0-e1f3-4009-933d-1f7d58ff00a5","system_id":"levelo_inurba_marseille","lat":43.25858,"lon":5.3991,"is_reserved":false,"is_disabled":false,"rental_uris":{"android":"levelo://app?vid=c469d1f0-e1f3-4009-933d-1f7d58ff00a5","ios":"levelo://app?vid=c469d1f0-e1f3-4009-933d-1f7d58ff00a5"},"vehicle_type_id":"4","last_reported":1784826454,"current_range_meters":24000,"station_id":"ce4bhl92rcd13ifvqghg","pricing_plan_id":"cebpf4jnsgd1na2vs0mg"},{"bike_id":"ee10056c-3426-43d8-a600-37a47f26001b","system_id":"levelo_inurba_marseille","lat":43.28608,"lon":5.37059,"is_reserved":false,"is_disabled":true,"rental_uris":{"android":"levelo://app?vid=ee10056c-3426-43d8-a600-37a47f26001b","ios":"levelo://app?vid=ee10056c-3426-43d8-a600-37a47f26001b"},"vehicle_type_id":"4","last_reported":1784826454,"current_range_meters":0,"station_id":"ce4bht12rcd13ifvqi60","pricing_plan_id":"cebpf4jnsgd1na2vs0mg"},{"bike_id":"a13e16e4-e177-431d-8bef-33b38f696e96","system_id":"levelo_inurba_marseille","lat":43.26757,"lon":5.39978,"is_reserved":false,"is_disabled":false,"rental_uris":{"android":"levelo://app?vid=a13e16e4-e177-431d-8bef-33b38f696e96","ios":"levelo://app?vid=a13e16e4-e177-431d-8bef-33b38f696e96"},"vehicle_type_id":"4","last_reported":1784826454,"current_range_meters":27200,"station_id":"","pricing_plan_id":"cebpf4jnsgd1na2vs0mg"},{"bike_id":"95afa2c1-6059-411a-b01e-fbab5e71cd62","system_id":"levelo_inurba_marseille","lat":43.28415,"lon":5.34979,"is_reserved":false,"is_disabled":false,"rental_uris":{"android":"levelo://app?vid=95afa2c1-6059-411a-b01e-fbab5e71cd62","ios":"levelo://app?vid=95afa2c1-6059-411a-b01e-fbab5e71cd62"},"vehicle_type_id":"4","last_reported":1784826454,"current_range_meters":3600,"station_id":"ce4bhbh2rcd13ifvqepg","pricing_plan_id":"cebpf4jnsgd1na2vs0mg"},{"bike_id":"de84f93e-2efe-44dd-902e-99315be80f66","system_id":"levelo_inurba_marseille","lat":43.24707,"lon":5.40316,"is_reserved":false,"is_disabled":false,"rental_uris":{"android":"levelo://app?vid=de84f93e-2efe-44dd-902e-99315be80f66","ios":"levelo://app?vid=de84f93e-2efe-44dd-902e-99315be80f66"},"vehicle_type_id":"4","last_reported":1784826454,"current_range_meters":32400,"station_id":"","pricing_plan_id":"cebpf4jnsgd1na2vs0mg"},{"bike_id":"8c78291a-f0ed-4cfc-b241-d2ce79d8612f","system_id":"levelo_inurba_marseille","lat":43.25503,"lon":5.37661,"is_reserved":false,"is_disabled":false,"rental_uris":{"android":"levelo://app?vid=8c78291a-f0ed-4cfc-b241-d2ce79d8612f","ios":"levelo://app?vid=8c78291a-f0ed-4cfc-b241-d2ce79d8612f"},"vehicle_type_id":"4","last_reported":1784826454,"current_range_meters":32000,"station_id":"ce4bhh12rcd13ifvqff0","pricing_plan_id":"cebpf4jnsgd1na2vs0mg"},{"bike_id":"2205cfeb-55cf-45cb-b152-c06d46332a21","system_id":"levelo_inurba_marseille","lat":43.28611,"lon":5.35119,"is_reserved":false,"is_disabled":false,"rental_uris":{"android":"levelo://app?vid=2205cfeb-55cf-45cb-b152-c06d46332a21","ios":"levelo://app?vid=2205cfeb-55cf-45cb-b152-c06d46332a21"},"vehicle_type_id":"4","last_reported":1784826454,"current_range_meters":21600,"station_id":"ce4bhch2rcd13ifvqeug","pricing_plan_id":"cebpf4jnsgd1na2vs0mg"},{"bike_id":"c6e736fb-e232-45bf-a0ea-16cc4b6b67d6","system_id":"levelo_inurba_marseille","lat":43.24166,"lon":5.36391,"is_reserved":false,"is_disabled":true,"rental_uris":{"android":"levelo://app?vid=c6e736fb-e232-45bf-a0ea-16cc4b6b67d6","ios":"levelo://app?vid=c6e736fb-e232-45bf-a0ea-16cc4b6b67d6"},"vehicle_type_id":"4","last_reported":1784826454,"current_range_meters":38800,"station_id":"cpo36qri1sfpv3e86is0","pricing_plan_id":"cebpf4jnsgd1na2vs0mg"},{"bike_id":"fa9640ee-61f6-4525-9130-40af0af69129","system_id":"levelo_inurba_marseille","lat":43.33021,"lon":5.3903,"is_reserved":false,"is_disabled":false,"rental_uris":{"android":"levelo://app?vid=fa9640ee-61f6-4525-9130-40af0af69129","ios":"levelo://app?vid=fa9640ee-61f6-4525-9130-40af0af69129"},"vehicle_type_id":"4","last_reported":1784826454,"current_range_meters":25200,"station_id":"ce4bhr92rcd13ifvqhrg","pricing_plan_id":"cebpf4jnsgd1na2vs0mg"},{"bike_id":"524af406-001f-484d-b7db-e1b08e15e137","system_id":"levelo_inurba_marseille","lat":43.28416,"lon":5.3497,"is_reserved":false,"is_disabled":false,"rental_uris":{"android":"levelo://app?vid=524af406-001f-484d-b7db-e1b08e15e137","ios":"levelo://app?vid=524af406-001f-484d-b7db-e1b08e15e137"},"vehicle_type_id":"4","last_reported":1784826454,"current_range_meters":8800,"station_id":"ce4bhbh2rcd13ifvqepg","pricing_plan_id":"cebpf4jnsgd1na2vs0mg"},{"bike_id":"5b30b496-0a8f-48a7-a74b-feac792597ea","system_id":"levelo_inurba_marseille","lat":43.28424,"lon":5.37524,"is_reserved":false,"is_disabled":false,"rental_uris":{"android":"levelo://app?vid=5b30b496-0a8f-48a7-a74b-feac792597ea","ios":"levelo://app?vid=5b30b496-0a8f-48a7-a74b-feac792597ea"},"vehicle_type_id":"4","last_reported":1784826454,"current_range_meters":20800,"station_id":"ce4bh412rcd13ifvqds0","pricing_plan_id":"cebpf4jnsgd1na2vs0mg"},{"bike_id":"c037fd15-1fb4-4aa0-a4c6-442b2b874fab","system_id":"levelo_inurba_marseille","lat":43.29029,"lon":5.39966,"is_reserved":false,"is_disabled":true,"rental_uris":{"android":"levelo://app?vid=c037fd15-1fb4-4aa0-a4c6-442b2b874fab","ios":"levelo://app?vid=c037fd15-1fb4-4aa0-a4c6-442b2b874fab"},"vehicle_type_id":"4","last_reported":1784826454,"current_range_meters":25200,"station_id":"ce4bh392rcd13ifvqdm0","pricing_plan_id":"cebpf4jnsgd1na2vs0mg"},{"bike_id":"965b6bd4-eb48-41e3-b3e8-0bcdc52f3759","system_id":"levelo_inurba_marseille","lat":43.28934,"lon":5.38385,"is_reserved":false,"is_disabled":true,"rental_uris":{"android":"levelo://app?vid=965b6bd4-eb48-41e3-b3e8-0bcdc52f3759","ios":"levelo://app?vid=965b6bd4-eb48-41e3-b3e8-0bcdc52f3759"},"vehicle_type_id":"4","last_reported":1784826454,"current_range_meters":36800,"station_id":"ce4bh612rcd13ifvqe6g","pricing_plan_id":"cebpf4jnsgd1na2vs0mg"},{"bike_id":"bbe718e6-fa16-44e8-87a1-2141703d3341","system_id":"levelo_inurba_marseille","lat":43.28163,"lon":5.42345,"is_reserved":false,"is_disabled":false,"rental_uris":{"android":"levelo://app?vid=bbe718e6-fa16-44e8-87a1-2141703d3341","ios":"levelo://app?vid=bbe718e6-fa16-44e8-87a1-2141703d3341"},"vehicle_type_id":"4","last_reported":1784826454,"current_range_meters":12000,"station_id":"","pricing_plan_id":"cebpf4jnsgd1na2vs0mg"},{"bike_id":"49396ed3-ec03-4e36-bd0f-d012491b79e4","system_id":"levelo_inurba_marseille","lat":43.27079,"lon":5.38303,"is_reserved":false,"is_disabled":false,"rental_uris":{"android":"levelo://app?vid=49396ed3-ec03-4e36-bd0f-d012491b79e4","ios":"levelo://app?vid=49396ed3-ec03-4e36-bd0f-d012491b79e4"},"vehicle_type_id":"4","last_reported":1784826454,"current_range_meters":39200,"station_id":"st_d3n2fo6cfp8s73cte1j0","pricing_plan_id":"cebpf4jnsgd1na2vs0mg"},{"bike_id":"d14386dc-0b4a-4997-9862-d2e842bbcaa2","system_id":"levelo_inurba_marseille","lat":43.29041,"lon":5.35894,"is_reserved":false,"is_disabled":false,"rental_uris":{"android":"levelo://app?vid=d14386dc-0b4a-4997-9862-d2e842bbcaa2","ios":"levelo://app?vid=d14386dc-0b4a-4997-9862-d2e842bbcaa2"},"vehicle_type_id":"4","last_reported":1784826454,"current_range_meters":32400,"station_id":"ce4bha92rcd13ifvqeg0","pricing_plan_id":"cebpf4jnsgd1na2vs0mg"},{"bike_id":"d64dabc9-3811-48c8-8630-ed10d654c068","system_id":"levelo_inurba_marseille","lat":43.27376,"lon":5.36257,"is_reserved":false,"is_disabled":false,"rental_uris":{"android":"levelo://app?vid=d64dabc9-3811-48c8-8630-ed10d654c068","ios":"levelo://app?vid=d64dabc9-3811-48c8-8630-ed10d654c068"},"vehicle_type_id":"4","last_reported":1784826454,"current_range_meters":28400,"station_id":"ce4bhbh2rcd13ifvqeo0","pricing_plan_id":"cebpf4jnsgd1na2vs0mg"},{"bike_id":"f1288106-a8c3-4624-ad2a-44299213b3e2","system_id":"levelo_inurba_marseille","lat":43.29579,"lon":5.367466,"is_reserved":false,"is_disabled":true,"rental_uris":{"android":"levelo://app?vid=f1288106-a8c3-4624-ad2a-44299213b3e2","ios":"levelo://app?vid=f1288106-a8c3-4624-ad2a-44299213b3e2"},"vehicle_type_id":"4","last_reported":1784826454,"current_range_meters":38800,"station_id":"","pricing_plan_id":"cebpf4jnsgd1na2vs0mg"},{"bike_id":"ab907c16-2123-44c2-912f-95e0f2737c03","system_id":"levelo_inurba_marseille","lat":43.3038,"lon":5.4274,"is_reserved":false,"is_disabled":true,"rental_uris":{"android":"levelo://app?vid=ab907c16-2123-44c2-912f-95e0f2737c03","ios":"levelo://app?vid=ab907c16-2123-44c2-912f-95e0f2737c03"},"vehicle_type_id":"4","last_reported":1784826454,"current_range_meters":19600,"station_id":"","pricing_plan_id":"cebpf4jnsgd1na2vs0mg"},{"bike_id":"0f27047d-3cee-486f-bbfd-4e43b3a3a5db","system_id":"levelo_inurba_marseille","lat":43.32108,"lon":5.36776,"is_reserved":false,"is_disabled":false,"rental_uris":{"android":"levelo://app?vid=0f27047d-3cee-486f-bbfd-4e43b3a3a5db","ios":"levelo://app?vid=0f27047d-3cee-486f-bbfd-4e43b3a3a5db"},"vehicle_type_id":"4","last_reported":1784826454,"current_range_meters":30000,"station_id":"ce4bhrh2rcd13ifvqhug","pricing_plan_id":"cebpf4jnsgd1na2vs0mg"},{"bike_id":"aae5fbfe-3ac6-4d2c-ae38-5bcb40c70cdc","system_id":"levelo_inurba_marseille","lat":43.29619,"lon":5.37721,"is_reserved":false,"is_disabled":true,"rental_uris":{"android":"levelo://app?vid=aae5fbfe-3ac6-4d2c-ae38-5bcb40c70cdc","ios":"levelo://app?vid=aae5fbfe-3ac6-4d2c-ae38-5bcb40c70cdc"},"vehicle_type_id":"4","last_reported":1784826454,"current_range_meters":0,"station_id":"ce4bgi92rcd13ifvqb90","pricing_plan_id":"cebpf4jnsgd1na2vs0mg"},{"bike_id":"eea7360f-df93-451b-a39b-296a70f49fd5","system_id":"levelo_inurba_marseille","lat":43.28405,"lon":5.34975,"is_reserved":false,"is_disabled":false,"rental_uris":{"android":"levelo://app?vid=eea7360f-df93-451b-a39b-296a70f49fd5","ios":"levelo://app?vid=eea7360f-df93-451b-a39b-296a70f49fd5"},"vehicle_type_id":"4","last_reported":1784826454,"current_range_meters":34800,"station_id":"ce4bhbh2rcd13ifvqepg","pricing_plan_id":"cebpf4jnsgd1na2vs0mg"},{"bike_id":"6e527cff-443b-4d65-831b-45d71a3611b6","system_id":"levelo_inurba_marseille","lat":43.24158,"lon":5.364,"is_reserved":false,"is_disabled":false,"rental_uris":{"android":"levelo://app?vid=6e527cff-443b-4d65-831b-45d71a3611b6","ios":"levelo://app?vid=6e527cff-443b-4d65-831b-45d71a3611b6"},"vehicle_type_id":"4","last_reported":1784826454,"current_range_meters":18000,"station_id":"cpo36qri1sfpv3e86is0","pricing_plan_id":"cebpf4jnsgd1na2vs0mg"},{"bike_id":"c520161e-c250-4161-a55a-6b287776d8da","system_id":"levelo_inurba_marseille","lat":43.2848,"lon":5.4839,"is_reserved":false,"is_disabled":false,"rental_uris":{"android":"levelo://app?vid=c520161e-c250-4161-a55a-6b287776d8da","ios":"levelo://app?vid=c520161e-c250-4161-a55a-6b287776d8da"},"vehicle_type_id":"4","last_reported":1784826454,"current_range_meters":24800,"station_id":"st_d3svhcjqgbts73a3dn0g","pricing_plan_id":"cebpf4jnsgd1na2vs0mg"},{"bike_id":"1be16c68-4af1-419d-93d4-773b2af07f2a","system_id":"levelo_inurba_marseille","lat":43.28539,"lon":5.44107,"is_reserved":false,"is_disabled":false,"rental_uris":{"android":"levelo://app?vid=1be16c68-4af1-419d-93d4-773b2af07f2a","ios":"levelo://app?vid=1be16c68-4af1-419d-93d4-773b2af07f2a"},"vehicle_type_id":"4","last_reported":1784826454,"current_range_meters":40000,"station_id":"st_d3j3df2ikq2c7380ej80","pricing_plan_id":"cebpf4jnsgd1na2vs0mg"},{"bike_id":"7fbe5c88-35bb-4158-a860-6c19e0af6ee8","system_id":"levelo_inurba_marseille","lat":43.30781,"lon":5.37607,"is_reserved":false,"is_disabled":false,"rental_uris":{"android":"levelo://app?vid=7fbe5c88-35bb-4158-a860-6c19e0af6ee8","ios":"levelo://app?vid=7fbe5c88-35bb-4158-a860-6c19e0af6ee8"},"vehicle_type_id":"4","last_reported":1784826454,"current_range_meters":14400,"station_id":"ce4bgv92rcd13ifvqcq0","pricing_plan_id":"cebpf4jnsgd1na2vs0mg"},{"bike_id":"871b7acd-6bff-4f2c-9121-63b574d46de7","system_id":"levelo_inurba_marseille","lat":43.32554,"lon":5.41502,"is_reserved":false,"is_disabled":false,"rental_uris":{"android":"levelo://app?vid=871b7acd-6bff-4f2c-9121-63b574d46de7","ios":"levelo://app?vid=871b7acd-6bff-4f2c-9121-63b574d46de7"},"vehicle_type_id":"4","last_reported":1784826454,"current_range_meters":28000,"station_id":"","pricing_plan_id":"cebpf4jnsgd1na2vs0mg"},{"bike_id":"f0eda01d-4719-46dc-9e03-31b4b88cd7e0","system_id":"levelo_inurba_marseille","lat":43.31479,"lon":5.37286,"is_reserved":false,"is_disabled":false,"rental_uris":{"android":"levelo://app?vid=f0eda01d-4719-46dc-9e03-31b4b88cd7e0","ios":"levelo://app?vid=f0eda01d-4719-46dc-9e03-31b4b88cd7e0"},"vehicle_type_id":"4","last_reported":1784826454,"current_range_meters":36000,"station_id":"ce4bgt12rcd13ifvqcd0","pricing_plan_id":"cebpf4jnsgd1na2vs0mg"},{"bike_id":"c4599c29-f86a-45dc-be51-4124fda90118","system_id":"levelo_inurba_marseille","lat":43.23161,"lon":5.43698,"is_reserved":false,"is_disabled":true,"rental_uris":{"android":"levelo://app?vid=c4599c29-f86a-45dc-be51-4124fda90118","ios":"levelo://app?vid=c4599c29-f86a-45dc-be51-4124fda90118"},"vehicle_type_id":"4","last_reported":1784826454,"current_range_meters":0,"station_id":"ce4bhmp2rcd13ifvqgog","pricing_plan_id":"cebpf4jnsgd1na2vs0mg"},{"bike_id":"e6690841-7fb8-49b3-b188-1fddfe76c349","system_id":"levelo_inurba_marseille","lat":43.25327,"lon":5.4217,"is_reserved":false,"is_disabled":false,"rental_uris":{"android":"levelo://app?vid=e6690841-7fb8-49b3-b188-1fddfe76c349","ios":"levelo://app?vid=e6690841-7fb8-49b3-b188-1fddfe76c349"},"vehicle_type_id":"4","last_reported":1784826454,"current_range_meters":20800,"station_id":"st_d2m65c5bi1j21697t3ng","pricing_plan_id":"cebpf4jnsgd1na2vs0mg"},{"bike_id":"1060b8d8-eba1-4431-89df-df8ff4ab0488","system_id":"levelo_inurba_marseille","lat":43.27373,"lon":5.36254,"is_reserved":false,"is_disabled":false,"rental_uris":{"android":"levelo://app?vid=1060b8d8-eba1-4431-89df-df8ff4ab0488","ios":"levelo://app?vid=1060b8d8-eba1-4431-89df-df8ff4ab0488"},"vehicle_type_id":"4","last_reported":1784826454,"current_range_meters":9200,"station_id":"ce4bhbh2rcd13ifvqeo0","pricing_plan_id":"cebpf4jnsgd1na2vs0mg"},{"bike_id":"9ed82dcc-8694-4b66-8dd5-59f67c95e1d7","system_id":"levelo_inurba_marseille","lat":43.27618,"lon":5.36102,"is_reserved":false,"is_disabled":false,"rental_uris":{"android":"levelo://app?vid=9ed82dcc-8694-4b66-8dd5-59f67c95e1d7","ios":"levelo://app?vid=9ed82dcc-8694-4b66-8dd5-59f67c95e1d7"},"vehicle_type_id":"4","last_reported":1784826454,"current_range_meters":21600,"station_id":"ce4bgj92rcd13ifvqbe0","pricing_plan_id":"cebpf4jnsgd1na2vs0mg"},{"bike_id":"c31ea38b-cee9-41a1-93fb-85dd217b0cbd","system_id":"levelo_inurba_marseille","lat":43.33739,"lon":5.36717,"is_reserved":false,"is_disabled":false,"rental_uris":{"android":"levelo://app?vid=c31ea38b-cee9-41a1-93fb-85dd217b0cbd","ios":"levelo://app?vid=c31ea38b-cee9-41a1-93fb-85dd217b0cbd"},"vehicle_type_id":"4","last_reported":1784826454,"current_range_meters":28000,"station_id":"","pricing_plan_id":"cebpf4jnsgd1na2vs0mg"},{"bike_id":"0d14f77f-3617-4cd7-a85e-82ec9be93cf3","system_id":"levelo_inurba_marseille","lat":43.30425,"lon":5.3888,"is_reserved":false,"is_disabled":false,"rental_uris":{"android":"levelo://app?vid=0d14f77f-3617-4cd7-a85e-82ec9be93cf3","ios":"levelo://app?vid=0d14f77f-3617-4cd7-a85e-82ec9be93cf3"},"vehicle_type_id":"4","last_reported":1784826454,"current_range_meters":28800,"station_id":"ce4bgk12rcd13ifvqbi0","pricing_plan_id":"cebpf4jnsgd1na2vs0mg"},{"bike_id":"0353fca3-fbdd-4286-a9eb-ebce376c25fa","system_id":"levelo_inurba_marseille","lat":43.23384,"lon":5.41247,"is_reserved":false,"is_disabled":false,"rental_uris":{"android":"levelo://app?vid=0353fca3-fbdd-4286-a9eb-ebce376c25fa","ios":"levelo://app?vid=0353fca3-fbdd-4286-a9eb-ebce376c25fa"},"vehicle_type_id":"4","last_reported":1784826454,"current_range_meters":36000,"station_id":"st_d75pvndhf9lc73cqq3eg","pricing_plan_id":"cebpf4jnsgd1na2vs0mg"},{"bike_id":"b8e43a89-3bb1-4279-9cee-f7b093c9b703","system_id":"levelo_inurba_marseille","lat":43.33718,"lon":5.37415,"is_reserved":false,"is_disabled":false,"rental_uris":{"android":"levelo://app?vid=b8e43a89-3bb1-4279-9cee-f7b093c9b703","ios":"levelo://app?vid=b8e43a89-3bb1-4279-9cee-f7b093c9b703"},"vehicle_type_id":"4","last_reported":1784826454,"current_range_meters":9600,"station_id":"","pricing_plan_id":"cebpf4jnsgd1na2vs0mg"},{"bike_id":"d0e3d421-3232-4fe6-8914-f2fab6f9cce9","system_id":"levelo_inurba_marseille","lat":43.31029,"lon":5.38499,"is_reserved":false,"is_disabled":false,"rental_uris":{"android":"levelo://app?vid=d0e3d421-3232-4fe6-8914-f2fab6f9cce9","ios":"levelo://app?vid=d0e3d421-3232-4fe6-8914-f2fab6f9cce9"},"vehicle_type_id":"4","last_reported":1784826454,"current_range_meters":38000,"station_id":"","pricing_plan_id":"cebpf4jnsgd1na2vs0mg"},{"bike_id":"17ec69e9-f82e-42b7-8fd3-de92d2bea59d","system_id":"levelo_inurba_marseille","lat":43.25336,"lon":5.42166,"is_reserved":false,"is_disabled":false,"rental_uris":{"android":"levelo://app?vid=17ec69e9-f82e-42b7-8fd3-de92d2bea59d","ios":"levelo://app?vid=17ec69e9-f82e-42b7-8fd3-de92d2bea59d"},"vehicle_type_id":"4","last_reported":1784826454,"current_range_meters":19600,"station_id":"st_d2m65c5bi1j21697t3ng","pricing_plan_id":"cebpf4jnsgd1na2vs0mg"},{"bike_id":"c10e4e86-cbfc-4336-9213-685dbae6e1cf","system_id":"levelo_inurba_marseille","lat":43.29094,"lon":5.38127,"is_reserved":false,"is_disabled":false,"rental_uris":{"android":"levelo://app?vid=c10e4e86-cbfc-4336-9213-685dbae6e1cf","ios":"levelo://app?vid=c10e4e86-cbfc-4336-9213-685dbae6e1cf"},"vehicle_type_id":"4","last_reported":1784826454,"current_range_meters":30800,"station_id":"ce4bh512rcd13ifvqe2g","pricing_plan_id":"cebpf4jnsgd1na2vs0mg"},{"bike_id":"84c003e3-96b9-4596-83d1-42a99db83581","system_id":"levelo_inurba_marseille","lat":43.26201,"lon":5.3871,"is_reserved":false,"is_disabled":false,"rental_uris":{"android":"levelo://app?vid=84c003e3-96b9-4596-83d1-42a99db83581","ios":"levelo://app?vid=84c003e3-96b9-4596-83d1-42a99db83581"},"vehicle_type_id":"4","last_reported":1784826454,"current_range_meters":38000,"station_id":"st_d8gjfg747rts73coq3b0","pricing_plan_id":"cebpf4jnsgd1na2vs0mg"},{"bike_id":"a9fe7e57-4d84-423a-ab54-b335290a4b20","system_id":"levelo_inurba_marseille","lat":43.31081,"lon":5.42428,"is_reserved":false,"is_disabled":false,"rental_uris":{"android":"levelo://app?vid=a9fe7e57-4d84-423a-ab54-b335290a4b20","ios":"levelo://app?vid=a9fe7e57-4d84-423a-ab54-b335290a4b20"},"vehicle_type_id":"4","last_reported":1784826454,"current_range_meters":8800,"station_id":"ce4bhp92rcd13ifvqhag","pricing_plan_id":"cebpf4jnsgd1na2vs0mg"},{"bike_id":"ccef39f5-44a7-42ca-9605-7e62c9bb0005","system_id":"levelo_inurba_marseille","lat":43.28404,"lon":5.3499,"is_reserved":false,"is_disabled":false,"rental_uris":{"android":"levelo://app?vid=ccef39f5-44a7-42ca-9605-7e62c9bb0005","ios":"levelo://app?vid=ccef39f5-44a7-42ca-9605-7e62c9bb0005"},"vehicle_type_id":"4","last_reported":1784826454,"current_range_meters":23200,"station_id":"ce4bhbh2rcd13ifvqepg","pricing_plan_id":"cebpf4jnsgd1na2vs0mg"},{"bike_id":"6772e332-26aa-4530-86da-d14c0f48009d","system_id":"levelo_inurba_marseille","lat":43.24072,"lon":5.37749,"is_reserved":false,"is_disabled":false,"rental_uris":{"android":"levelo://app?vid=6772e332-26aa-4530-86da-d14c0f48009d","ios":"levelo://app?vid=6772e332-26aa-4530-86da-d14c0f48009d"},"vehicle_type_id":"4","last_reported":1784826454,"current_range_meters":38000,"station_id":"ce4bhnp2rcd13ifvqgvg","pricing_plan_id":"cebpf4jnsgd1na2vs0mg"},{"bike_id":"337792d3-8583-4998-ad86-2de28de34dee","system_id":"levelo_inurba_marseille","lat":43.21755,"lon":5.34587,"is_reserved":false,"is_disabled":false,"rental_uris":{"android":"levelo://app?vid=337792d3-8583-4998-ad86-2de28de34dee","ios":"levelo://app?vid=337792d3-8583-4998-ad86-2de28de34dee"},"vehicle_type_id":"4","last_reported":1784826454,"current_range_meters":39200,"station_id":"st_cvj6r9ubvosntc0bgbag","pricing_plan_id":"cebpf4jnsgd1na2vs0mg"},{"bike_id":"13bbfe3b-874b-44d7-9abb-922c8de23c11","system_id":"levelo_inurba_marseille","lat":43.23259,"lon":5.35392,"is_reserved":false,"is_disabled":false,"rental_uris":{"android":"levelo://app?vid=13bbfe3b-874b-44d7-9abb-922c8de23c11","ios":"levelo://app?vid=13bbfe3b-874b-44d7-9abb-922c8de23c11"},"vehicle_type_id":"4","last_reported":1784826454,"current_range_meters":18000,"station_id":"","pricing_plan_id":"cebpf4jnsgd1na2vs0mg"},{"bike_id":"dfb40c09-3e30-4de0-b1ad-df03875c3937","system_id":"levelo_inurba_marseille","lat":43.29187,"lon":5.35789,"is_reserved":false,"is_disabled":false,"rental_uris":{"android":"levelo://app?vid=dfb40c09-3e30-4de0-b1ad-df03875c3937","ios":"levelo://app?vid=dfb40c09-3e30-4de0-b1ad-df03875c3937"},"vehicle_type_id":"4","last_reported":1784826454,"current_range_meters":30000,"station_id":"","pricing_plan_id":"cebpf4jnsgd1na2vs0mg"},{"bike_id":"8e21ee79-d57b-4419-b319-fe3572505524","system_id":"levelo_inurba_marseille","lat":43.28402,"lon":5.37532,"is_reserved":false,"is_disabled":true,"rental_uris":{"android":"levelo://app?vid=8e21ee79-d57b-4419-b319-fe3572505524","ios":"levelo://app?vid=8e21ee79-d57b-4419-b319-fe3572505524"},"vehicle_type_id":"4","last_reported":1784826454,"current_range_meters":0,"station_id":"ce4bh412rcd13ifvqds0","pricing_plan_id":"cebpf4jnsgd1na2vs0mg"},{"bike_id":"4654cda6-6f65-4509-8bd8-bd73c4826f3e","system_id":"levelo_inurba_marseille","lat":43.29618,"lon":5.37166,"is_reserved":false,"is_disabled":false,"rental_uris":{"android":"levelo://app?vid=4654cda6-6f65-4509-8bd8-bd73c4826f3e","ios":"levelo://app?vid=4654cda6-6f65-4509-8bd8-bd73c4826f3e"},"vehicle_type_id":"4","last_reported":1784826454,"current_range_meters":37600,"station_id":"","pricing_plan_id":"cebpf4jnsgd1na2vs0mg"},{"bike_id":"6ed5f8c3-6da8-4cec-bfad-13253a432d70","system_id":"levelo_inurba_marseille","lat":43.2939,"lon":5.38578,"is_reserved":false,"is_disabled":true,"rental_uris":{"android":"levelo://app?vid=6ed5f8c3-6da8-4cec-bfad-13253a432d70","ios":"levelo://app?vid=6ed5f8c3-6da8-4cec-bfad-13253a432d70"},"vehicle_type_id":"4","last_reported":1784826454,"current_range_meters":28400,"station_id":"","pricing_plan_id":"cebpf4jnsgd1na2vs0mg"},{"bike_id":"2abfcdfb-2eb0-4480-932d-1071dc8638d6","system_id":"levelo_inurba_marseille","lat":43.33543,"lon":5.37465,"is_reserved":false,"is_disabled":false,"rental_uris":{"android":"levelo://app?vid=2abfcdfb-2eb0-4480-932d-1071dc8638d6","ios":"levelo://app?vid=2abfcdfb-2eb0-4480-932d-1071dc8638d6"},"vehicle_type_id":"4","last_reported":1784826454,"current_range_meters":38000,"station_id":"st_d46tts09ee8s73dlu43g","pricing_plan_id":"cebpf4jnsgd1na2vs0mg"},{"bike_id":"0dee0085-d5a5-4c48-b3f1-a323bb744f3d","system_id":"levelo_inurba_marseille","lat":43.22558,"lon":5.41624,"is_reserved":false,"is_disabled":false,"rental_uris":{"android":"levelo://app?vid=0dee0085-d5a5-4c48-b3f1-a323bb744f3d","ios":"levelo://app?vid=0dee0085-d5a5-4c48-b3f1-a323bb744f3d"},"vehicle_type_id":"4","last_reported":1784826454,"current_range_meters":27600,"station_id":"st_d2o4gvlbi1j2169b742g","pricing_plan_id":"cebpf4jnsgd1na2vs0mg"},{"bike_id":"11e18bd7-2687-4293-96dd-a1c046d73d17","system_id":"levelo_inurba_marseille","lat":43.2668,"lon":5.38262,"is_reserved":false,"is_disabled":false,"rental_uris":{"android":"levelo://app?vid=11e18bd7-2687-4293-96dd-a1c046d73d17","ios":"levelo://app?vid=11e18bd7-2687-4293-96dd-a1c046d73d17"},"vehicle_type_id":"4","last_reported":1784826454,"current_range_meters":6000,"station_id":"ce4bhg92rcd13ifvqf90","pricing_plan_id":"cebpf4jnsgd1na2vs0mg"},{"bike_id":"0b2c45f2-fdaa-45fe-9511-e6426cab85f6","system_id":"levelo_inurba_marseille","lat":43.27488,"lon":5.42449,"is_reserved":false,"is_disabled":false,"rental_uris":{"android":"levelo://app?vid=0b2c45f2-fdaa-45fe-9511-e6426cab85f6","ios":"levelo://app?vid=0b2c45f2-fdaa-45fe-9511-e6426cab85f6"},"vehicle_type_id":"4","last_reported":1784826454,"current_range_meters":16000,"station_id":"ce4bhn92rcd13ifvqgrg","pricing_plan_id":"cebpf4jnsgd1na2vs0mg"},{"bike_id":"030b0f17-e3f1-4e2c-8db4-ad5520bf3461","system_id":"levelo_inurba_marseille","lat":43.28252,"lon":5.35059,"is_reserved":false,"is_disabled":false,"rental_uris":{"android":"levelo://app?vid=030b0f17-e3f1-4e2c-8db4-ad5520bf3461","ios":"levelo://app?vid=030b0f17-e3f1-4e2c-8db4-ad5520bf3461"},"vehicle_type_id":"4","last_reported":1784826454,"current_range_meters":8400,"station_id":"ce4bhbp2rcd13ifvqerg","pricing_plan_id":"cebpf4jnsgd1na2vs0mg"},{"bike_id":"d5519981-ec73-4b1d-95f3-8a790eb5df05","system_id":"levelo_inurba_marseille","lat":43.2482,"lon":5.37441,"is_reserved":false,"is_disabled":false,"rental_uris":{"android":"levelo://app?vid=d5519981-ec73-4b1d-95f3-8a790eb5df05","ios":"levelo://app?vid=d5519981-ec73-4b1d-95f3-8a790eb5df05"},"vehicle_type_id":"4","last_reported":1784826454,"current_range_meters":38000,"station_id":"ce4bhgh2rcd13ifvqfb0","pricing_plan_id":"cebpf4jnsgd1na2vs0mg"},{"bike_id":"dad5eff3-cb3a-4459-ba39-741abe4a6c6c","system_id":"levelo_inurba_marseille","lat":43.3211,"lon":5.36793,"is_reserved":false,"is_disabled":false,"rental_uris":{"android":"levelo://app?vid=dad5eff3-cb3a-4459-ba39-741abe4a6c6c","ios":"levelo://app?vid=dad5eff3-cb3a-4459-ba39-741abe4a6c6c"},"vehicle_type_id":"4","last_reported":1784826454,"current_range_meters":4000,"station_id":"ce4bhrh2rcd13ifvqhug","pricing_plan_id":"cebpf4jnsgd1na2vs0mg"},{"bike_id":"2589f088-96e1-489b-b926-f3c90ec97e64","system_id":"levelo_inurba_marseille","lat":43.27373,"lon":5.36254,"is_reserved":false,"is_disabled":false,"rental_uris":{"android":"levelo://app?vid=2589f088-96e1-489b-b926-f3c90ec97e64","ios":"levelo://app?vid=2589f088-96e1-489b-b926-f3c90ec97e64"},"vehicle_type_id":"4","last_reported":1784826454,"current_range_meters":38800,"station_id":"ce4bhbh2rcd13ifvqeo0","pricing_plan_id":"cebpf4jnsgd1na2vs0mg"},{"bike_id":"2acd2ae5-3829-4d5e-b56f-1bb617133f9d","system_id":"levelo_inurba_marseille","lat":43.23193,"lon":5.35546,"is_reserved":false,"is_disabled":false,"rental_uris":{"android":"levelo://app?vid=2acd2ae5-3829-4d5e-b56f-1bb617133f9d","ios":"levelo://app?vid=2acd2ae5-3829-4d5e-b56f-1bb617133f9d"},"vehicle_type_id":"4","last_reported":1784826454,"current_range_meters":28000,"station_id":"ce4bhu92rcd13ifvqi70","pricing_plan_id":"cebpf4jnsgd1na2vs0mg"},{"bike_id":"60287aa5-6d46-4db5-9afb-75f080b10d48","system_id":"levelo_inurba_marseille","lat":43.24953,"lon":5.40502,"is_reserved":false,"is_disabled":false,"rental_uris":{"android":"levelo://app?vid=60287aa5-6d46-4db5-9afb-75f080b10d48","ios":"levelo://app?vid=60287aa5-6d46-4db5-9afb-75f080b10d48"},"vehicle_type_id":"4","last_reported":1784826454,"current_range_meters":11600,"station_id":"st_d2ngiaodas8pm72gd1h0","pricing_plan_id":"cebpf4jnsgd1na2vs0mg"},{"bike_id":"8d8673aa-a69c-4d74-931d-06b8f35221f4","system_id":"levelo_inurba_marseille","lat":43.26694,"lon":5.42004,"is_reserved":false,"is_disabled":false,"rental_uris":{"android":"levelo://app?vid=8d8673aa-a69c-4d74-931d-06b8f35221f4","ios":"levelo://app?vid=8d8673aa-a69c-4d74-931d-06b8f35221f4"},"vehicle_type_id":"4","last_reported":1784826454,"current_range_meters":24000,"station_id":"","pricing_plan_id":"cebpf4jnsgd1na2vs0mg"},{"bike_id":"fafef446-91dd-4676-92a7-98ee5a6f2e38","system_id":"levelo_inurba_marseille","lat":43.299828,"lon":5.371924,"is_reserved":false,"is_disabled":false,"rental_uris":{"android":"levelo://app?vid=fafef446-91dd-4676-92a7-98ee5a6f2e38","ios":"levelo://app?vid=fafef446-91dd-4676-92a7-98ee5a6f2e38"},"vehicle_type_id":"4","last_reported":1784826454,"current_range_meters":30800,"station_id":"ce4bh4p2rcd13ifvqe1g","pricing_plan_id":"cebpf4jnsgd1na2vs0mg"},{"bike_id":"bb6c1d94-b8a1-4d7e-8e26-2628675f7e1d","system_id":"levelo_inurba_marseille","lat":43.2962,"lon":5.37751,"is_reserved":false,"is_disabled":false,"rental_uris":{"android":"levelo://app?vid=bb6c1d94-b8a1-4d7e-8e26-2628675f7e1d","ios":"levelo://app?vid=bb6c1d94-b8a1-4d7e-8e26-2628675f7e1d"},"vehicle_type_id":"4","last_reported":1784826454,"current_range_meters":16800,"station_id":"ce4bgi92rcd13ifvqb90","pricing_plan_id":"cebpf4jnsgd1na2vs0mg"},{"bike_id":"0e9b0cff-0052-49cb-95a6-a28acd2c4d00","system_id":"levelo_inurba_marseille","lat":43.28618,"lon":5.35091,"is_reserved":false,"is_disabled":false,"rental_uris":{"android":"levelo://app?vid=0e9b0cff-0052-49cb-95a6-a28acd2c4d00","ios":"levelo://app?vid=0e9b0cff-0052-49cb-95a6-a28acd2c4d00"},"vehicle_type_id":"4","last_reported":1784826454,"current_range_meters":17600,"station_id":"ce4bhch2rcd13ifvqeug","pricing_plan_id":"cebpf4jnsgd1na2vs0mg"},{"bike_id":"1fade11d-8e73-4748-8586-d9741ca55ced","system_id":"levelo_inurba_marseille","lat":43.317152,"lon":5.437034,"is_reserved":false,"is_disabled":false,"rental_uris":{"android":"levelo://app?vid=1fade11d-8e73-4748-8586-d9741ca55ced","ios":"levelo://app?vid=1fade11d-8e73-4748-8586-d9741ca55ced"},"vehicle_type_id":"4","last_reported":1784826454,"current_range_meters":26000,"station_id":"ce4bhp92rcd13ifvqhcg","pricing_plan_id":"cebpf4jnsgd1na2vs0mg"},{"bike_id":"3b4b694d-9947-462a-9190-dac84103608c","system_id":"levelo_inurba_marseille","lat":43.29626,"lon":5.37176,"is_reserved":false,"is_disabled":false,"rental_uris":{"android":"levelo://app?vid=3b4b694d-9947-462a-9190-dac84103608c","ios":"levelo://app?vid=3b4b694d-9947-462a-9190-dac84103608c"},"vehicle_type_id":"4","last_reported":1784826454,"current_range_meters":37600,"station_id":"","pricing_plan_id":"cebpf4jnsgd1na2vs0mg"},{"bike_id":"2b5becdf-f8e2-49e5-a55c-775afd13da26","system_id":"levelo_inurba_marseille","lat":43.21179,"lon":5.35071,"is_reserved":false,"is_disabled":false,"rental_uris":{"android":"levelo://app?vid=2b5becdf-f8e2-49e5-a55c-775afd13da26","ios":"levelo://app?vid=2b5becdf-f8e2-49e5-a55c-775afd13da26"},"vehicle_type_id":"4","last_reported":1784826454,"current_range_meters":6400,"station_id":"st_cvj6sg6p6f1abm77japg","pricing_plan_id":"cebpf4jnsgd1na2vs0mg"},{"bike_id":"68625307-2c6a-4a09-af47-f44a01589715","system_id":"levelo_inurba_marseille","lat":43.28609,"lon":5.35106,"is_reserved":false,"is_disabled":false,"rental_uris":{"android":"levelo://app?vid=68625307-2c6a-4a09-af47-f44a01589715","ios":"levelo://app?vid=68625307-2c6a-4a09-af47-f44a01589715"},"vehicle_type_id":"4","last_reported":1784826454,"current_range_meters":4800,"station_id":"ce4bhch2rcd13ifvqeug","pricing_plan_id":"cebpf4jnsgd1na2vs0mg"},{"bike_id":"75146afd-6944-4808-9153-760cee29f303","system_id":"levelo_inurba_marseille","lat":43.24662,"lon":5.37864,"is_reserved":false,"is_disabled":false,"rental_uris":{"android":"levelo://app?vid=75146afd-6944-4808-9153-760cee29f303","ios":"levelo://app?vid=75146afd-6944-4808-9153-760cee29f303"},"vehicle_type_id":"4","last_reported":1784826454,"current_range_meters":20400,"station_id":"","pricing_plan_id":"cebpf4jnsgd1na2vs0mg"},{"bike_id":"6ccdb80e-0c8a-4f17-a34c-33ff437bd75c","system_id":"levelo_inurba_marseille","lat":43.28433,"lon":5.34993,"is_reserved":false,"is_disabled":false,"rental_uris":{"android":"levelo://app?vid=6ccdb80e-0c8a-4f17-a34c-33ff437bd75c","ios":"levelo://app?vid=6ccdb80e-0c8a-4f17-a34c-33ff437bd75c"},"vehicle_type_id":"4","last_reported":1784826454,"current_range_meters":36800,"station_id":"ce4bhbh2rcd13ifvqepg","pricing_plan_id":"cebpf4jnsgd1na2vs0mg"},{"bike_id":"0e8fba60-4666-4ec3-9dec-5f26362b5be6","system_id":"levelo_inurba_marseille","lat":43.263209,"lon":5.378209,"is_reserved":false,"is_disabled":false,"rental_uris":{"android":"levelo://app?vid=0e8fba60-4666-4ec3-9dec-5f26362b5be6","ios":"levelo://app?vid=0e8fba60-4666-4ec3-9dec-5f26362b5be6"},"vehicle_type_id":"4","last_reported":1784826454,"current_range_meters":26800,"station_id":"st_d163nis0mtpqnht9uue0","pricing_plan_id":"cebpf4jnsgd1na2vs0mg"},{"bike_id":"7b752e13-2ff9-4505-96ca-27ebb0549230","system_id":"levelo_inurba_marseille","lat":43.26328,"lon":5.37842,"is_reserved":false,"is_disabled":false,"rental_uris":{"android":"levelo://app?vid=7b752e13-2ff9-4505-96ca-27ebb0549230","ios":"levelo://app?vid=7b752e13-2ff9-4505-96ca-27ebb0549230"},"vehicle_type_id":"4","last_reported":1784826454,"current_range_meters":39200,"station_id":"","pricing_plan_id":"cebpf4jnsgd1na2vs0mg"},{"bike_id":"0e2bcac4-09cf-40a3-852c-33333ad54630","system_id":"levelo_inurba_marseille","lat":43.26697,"lon":5.38253,"is_reserved":false,"is_disabled":false,"rental_uris":{"android":"levelo://app?vid=0e2bcac4-09cf-40a3-852c-33333ad54630","ios":"levelo://app?vid=0e2bcac4-09cf-40a3-852c-33333ad54630"},"vehicle_type_id":"4","last_reported":1784826454,"current_range_meters":10000,"station_id":"ce4bhg92rcd13ifvqf90","pricing_plan_id":"cebpf4jnsgd1na2vs0mg"},{"bike_id":"e09a0d3c-5c28-40d5-a7a1-75caa3d70a37","system_id":"levelo_inurba_marseille","lat":43.25525,"lon":5.37641,"is_reserved":false,"is_disabled":false,"rental_uris":{"android":"levelo://app?vid=e09a0d3c-5c28-40d5-a7a1-75caa3d70a37","ios":"levelo://app?vid=e09a0d3c-5c28-40d5-a7a1-75caa3d70a37"},"vehicle_type_id":"4","last_reported":1784826454,"current_range_meters":39200,"station_id":"ce4bhh12rcd13ifvqff0","pricing_plan_id":"cebpf4jnsgd1na2vs0mg"},{"bike_id":"acb6c310-64e8-4ffb-9d0e-3645b38213aa","system_id":"levelo_inurba_marseille","lat":43.22554,"lon":5.41643,"is_reserved":false,"is_disabled":false,"rental_uris":{"android":"levelo://app?vid=acb6c310-64e8-4ffb-9d0e-3645b38213aa","ios":"levelo://app?vid=acb6c310-64e8-4ffb-9d0e-3645b38213aa"},"vehicle_type_id":"4","last_reported":1784826454,"current_range_meters":38400,"station_id":"st_d2o4gvlbi1j2169b742g","pricing_plan_id":"cebpf4jnsgd1na2vs0mg"},{"bike_id":"05f9bbe7-87b4-4363-9f8d-b13de0b4c647","system_id":"levelo_inurba_marseille","lat":43.29254,"lon":5.38448,"is_reserved":false,"is_disabled":false,"rental_uris":{"android":"levelo://app?vid=05f9bbe7-87b4-4363-9f8d-b13de0b4c647","ios":"levelo://app?vid=05f9bbe7-87b4-4363-9f8d-b13de0b4c647"},"vehicle_type_id":"4","last_reported":1784826454,"current_range_meters":25200,"station_id":"ce4bh692rcd13ifvqea0","pricing_plan_id":"cebpf4jnsgd1na2vs0mg"},{"bike_id":"9ee7f49e-e66a-4581-b0ca-bd08a3861bb9","system_id":"levelo_inurba_marseille","lat":43.24808,"lon":5.37459,"is_reserved":false,"is_disabled":false,"rental_uris":{"android":"levelo://app?vid=9ee7f49e-e66a-4581-b0ca-bd08a3861bb9","ios":"levelo://app?vid=9ee7f49e-e66a-4581-b0ca-bd08a3861bb9"},"vehicle_type_id":"4","last_reported":1784826454,"current_range_meters":35600,"station_id":"ce4bhgh2rcd13ifvqfb0","pricing_plan_id":"cebpf4jnsgd1na2vs0mg"},{"bike_id":"2b2d5806-a98a-4b6d-8666-219c96826a65","system_id":"levelo_inurba_marseille","lat":43.33022,"lon":5.3906,"is_reserved":false,"is_disabled":false,"rental_uris":{"android":"levelo://app?vid=2b2d5806-a98a-4b6d-8666-219c96826a65","ios":"levelo://app?vid=2b2d5806-a98a-4b6d-8666-219c96826a65"},"vehicle_type_id":"4","last_reported":1784826454,"current_range_meters":4800,"station_id":"ce4bhr92rcd13ifvqhrg","pricing_plan_id":"cebpf4jnsgd1na2vs0mg"},{"bike_id":"9d4b8430-c687-4ce9-b117-2b375d0afc9f","system_id":"levelo_inurba_marseille","lat":43.23129,"lon":5.43696,"is_reserved":false,"is_disabled":false,"rental_uris":{"android":"levelo://app?vid=9d4b8430-c687-4ce9-b117-2b375d0afc9f","ios":"levelo://app?vid=9d4b8430-c687-4ce9-b117-2b375d0afc9f"},"vehicle_type_id":"4","last_reported":1784826454,"current_range_meters":30800,"station_id":"ce4bhmp2rcd13ifvqgog","pricing_plan_id":"cebpf4jnsgd1na2vs0mg"},{"bike_id":"39803727-acc1-4fed-9576-2082925b69e1","system_id":"levelo_inurba_marseille","lat":43.31229,"lon":5.36835,"is_reserved":false,"is_disabled":false,"rental_uris":{"android":"levelo://app?vid=39803727-acc1-4fed-9576-2082925b69e1","ios":"levelo://app?vid=39803727-acc1-4fed-9576-2082925b69e1"},"vehicle_type_id":"4","last_reported":1784826454,"current_range_meters":14800,"station_id":"ce4bgl92rcd13ifvqbq0","pricing_plan_id":"cebpf4jnsgd1na2vs0mg"},{"bike_id":"0a871a81-21ca-4d16-9027-6abdf11c7eb4","system_id":"levelo_inurba_marseille","lat":43.28625,"lon":5.35093,"is_reserved":false,"is_disabled":false,"rental_uris":{"android":"levelo://app?vid=0a871a81-21ca-4d16-9027-6abdf11c7eb4","ios":"levelo://app?vid=0a871a81-21ca-4d16-9027-6abdf11c7eb4"},"vehicle_type_id":"4","last_reported":1784826454,"current_range_meters":39200,"station_id":"ce4bhch2rcd13ifvqeug","pricing_plan_id":"cebpf4jnsgd1na2vs0mg"},{"bike_id":"c2686afb-c5d9-4ab9-9821-66c67248a139","system_id":"levelo_inurba_marseille","lat":43.291563,"lon":5.353889,"is_reserved":false,"is_disabled":false,"rental_uris":{"android":"levelo://app?vid=c2686afb-c5d9-4ab9-9821-66c67248a139","ios":"levelo://app?vid=c2686afb-c5d9-4ab9-9821-66c67248a139"},"vehicle_type_id":"4","last_reported":1784826454,"current_range_meters":8400,"station_id":"ce4bhch2rcd13ifvqeug","pricing_plan_id":"cebpf4jnsgd1na2vs0mg"},{"bike_id":"3f2bdf31-c203-4712-8db4-3dc592b3612b","system_id":"levelo_inurba_marseille","lat":43.25575,"lon":5.38246,"is_reserved":false,"is_disabled":false,"rental_uris":{"android":"levelo://app?vid=3f2bdf31-c203-4712-8db4-3dc592b3612b","ios":"levelo://app?vid=3f2bdf31-c203-4712-8db4-3dc592b3612b"},"vehicle_type_id":"4","last_reported":1784826454,"current_range_meters":8400,"station_id":"ce4bhih2rcd13ifvqfs0","pricing_plan_id":"cebpf4jnsgd1na2vs0mg"},{"bike_id":"a83f6dd4-a966-4c48-9c5e-40cd101889e5","system_id":"levelo_inurba_marseille","lat":43.2866,"lon":5.36336,"is_reserved":false,"is_disabled":false,"rental_uris":{"android":"levelo://app?vid=a83f6dd4-a966-4c48-9c5e-40cd101889e5","ios":"levelo://app?vid=a83f6dd4-a966-4c48-9c5e-40cd101889e5"},"vehicle_type_id":"4","last_reported":1784826454,"current_range_meters":24400,"station_id":"ce4bhah2rcd13ifvqej0","pricing_plan_id":"cebpf4jnsgd1na2vs0mg"},{"bike_id":"429123e4-dc43-429b-abc2-42a83c22e46e","system_id":"levelo_inurba_marseille","lat":43.23229,"lon":5.35528,"is_reserved":false,"is_disabled":false,"rental_uris":{"android":"levelo://app?vid=429123e4-dc43-429b-abc2-42a83c22e46e","ios":"levelo://app?vid=429123e4-dc43-429b-abc2-42a83c22e46e"},"vehicle_type_id":"4","last_reported":1784826454,"current_range_meters":28000,"station_id":"ce4bhu92rcd13ifvqi70","pricing_plan_id":"cebpf4jnsgd1na2vs0mg"},{"bike_id":"a9500356-c19d-415e-81ed-a8d1baa0c959","system_id":"levelo_inurba_marseille","lat":43.30118,"lon":5.38801,"is_reserved":false,"is_disabled":true,"rental_uris":{"android":"levelo://app?vid=a9500356-c19d-415e-81ed-a8d1baa0c959","ios":"levelo://app?vid=a9500356-c19d-415e-81ed-a8d1baa0c959"},"vehicle_type_id":"4","last_reported":1784826454,"current_range_meters":26800,"station_id":"ce4bghh2rcd13ifvqb60","pricing_plan_id":"cebpf4jnsgd1na2vs0mg"},{"bike_id":"780d70f3-95c4-44fa-ba2a-f31e2ebd1bf6","system_id":"levelo_inurba_marseille","lat":43.29955,"lon":5.38499,"is_reserved":false,"is_disabled":true,"rental_uris":{"android":"levelo://app?vid=780d70f3-95c4-44fa-ba2a-f31e2ebd1bf6","ios":"levelo://app?vid=780d70f3-95c4-44fa-ba2a-f31e2ebd1bf6"},"vehicle_type_id":"4","last_reported":1784826454,"current_range_meters":28000,"station_id":"ce4bgj92rcd13ifvqbd0","pricing_plan_id":"cebpf4jnsgd1na2vs0mg"},{"bike_id":"bace381c-6258-4d80-80f1-070c343af026","system_id":"levelo_inurba_marseille","lat":43.33159,"lon":5.37704,"is_reserved":false,"is_disabled":false,"rental_uris":{"android":"levelo://app?vid=bace381c-6258-4d80-80f1-070c343af026","ios":"levelo://app?vid=bace381c-6258-4d80-80f1-070c343af026"},"vehicle_type_id":"4","last_reported":1784826454,"current_range_meters":6000,"station_id":"st_d46cu089ee8s73dldbu0","pricing_plan_id":"cebpf4jnsgd1na2vs0mg"},{"bike_id":"de305ce2-43f6-45f1-84ab-cb3874f588db","system_id":"levelo_inurba_marseille","lat":43.2407,"lon":5.3776,"is_reserved":false,"is_disabled":false,"rental_uris":{"android":"levelo://app?vid=de305ce2-43f6-45f1-84ab-cb3874f588db","ios":"levelo://app?vid=de305ce2-43f6-45f1-84ab-cb3874f588db"},"vehicle_type_id":"4","last_reported":1784826454,"current_range_meters":16800,"station_id":"ce4bhnp2rcd13ifvqgvg","pricing_plan_id":"cebpf4jnsgd1na2vs0mg"},{"bike_id":"87c24218-a80e-4bff-8d2b-65c3df8b24ac","system_id":"levelo_inurba_marseille","lat":43.287377,"lon":5.361139,"is_reserved":false,"is_disabled":false,"rental_uris":{"android":"levelo://app?vid=87c24218-a80e-4bff-8d2b-65c3df8b24ac","ios":"levelo://app?vid=87c24218-a80e-4bff-8d2b-65c3df8b24ac"},"vehicle_type_id":"4","last_reported":1784826454,"current_range_meters":24400,"station_id":"","pricing_plan_id":"cebpf4jnsgd1na2vs0mg"},{"bike_id":"b639ec23-9d54-4a1d-93f2-0d74c6c99807","system_id":"levelo_inurba_marseille","lat":43.26226,"lon":5.38778,"is_reserved":false,"is_disabled":false,"rental_uris":{"android":"levelo://app?vid=b639ec23-9d54-4a1d-93f2-0d74c6c99807","ios":"levelo://app?vid=b639ec23-9d54-4a1d-93f2-0d74c6c99807"},"vehicle_type_id":"4","last_reported":1784826454,"current_range_meters":36800,"station_id":"st_d8gjfg747rts73coq3b0","pricing_plan_id":"cebpf4jnsgd1na2vs0mg"},{"bike_id":"e9e543b0-8ca5-47a6-998c-4902ea53cdd4","system_id":"levelo_inurba_marseille","lat":43.25178,"lon":5.37323,"is_reserved":false,"is_disabled":true,"rental_uris":{"android":"levelo://app?vid=e9e543b0-8ca5-47a6-998c-4902ea53cdd4","ios":"levelo://app?vid=e9e543b0-8ca5-47a6-998c-4902ea53cdd4"},"vehicle_type_id":"4","last_reported":1784826454,"current_range_meters":8400,"station_id":"","pricing_plan_id":"cebpf4jnsgd1na2vs0mg"},{"bike_id":"2b7d3586-d06d-4c0f-a3a2-652f9ec8e3ae","system_id":"levelo_inurba_marseille","lat":43.248,"lon":5.37457,"is_reserved":false,"is_disabled":false,"rental_uris":{"android":"levelo://app?vid=2b7d3586-d06d-4c0f-a3a2-652f9ec8e3ae","ios":"levelo://app?vid=2b7d3586-d06d-4c0f-a3a2-652f9ec8e3ae"},"vehicle_type_id":"4","last_reported":1784826454,"current_range_meters":36800,"station_id":"ce4bhgh2rcd13ifvqfb0","pricing_plan_id":"cebpf4jnsgd1na2vs0mg"},{"bike_id":"74f75dec-8be0-4804-9118-bac5cfdccf76","system_id":"levelo_inurba_marseille","lat":43.27993,"lon":5.40013,"is_reserved":false,"is_disabled":false,"rental_uris":{"android":"levelo://app?vid=74f75dec-8be0-4804-9118-bac5cfdccf76","ios":"levelo://app?vid=74f75dec-8be0-4804-9118-bac5cfdccf76"},"vehicle_type_id":"4","last_reported":1784826454,"current_range_meters":16000,"station_id":"ce4bho92rcd13ifvqh4g","pricing_plan_id":"cebpf4jnsgd1na2vs0mg"},{"bike_id":"693c14b8-dea8-4bd6-9209-8f095362b343","system_id":"levelo_inurba_marseille","lat":43.25864,"lon":5.40437,"is_reserved":false,"is_disabled":false,"rental_uris":{"android":"levelo://app?vid=693c14b8-dea8-4bd6-9209-8f095362b343","ios":"levelo://app?vid=693c14b8-dea8-4bd6-9209-8f095362b343"},"vehicle_type_id":"4","last_reported":1784826454,"current_range_meters":26000,"station_id":"","pricing_plan_id":"cebpf4jnsgd1na2vs0mg"},{"bike_id":"be628a99-ea2e-46d6-b4ba-70afc469be32","system_id":"levelo_inurba_marseille","lat":43.28034,"lon":5.36936,"is_reserved":false,"is_disabled":false,"rental_uris":{"android":"levelo://app?vid=be628a99-ea2e-46d6-b4ba-70afc469be32","ios":"levelo://app?vid=be628a99-ea2e-46d6-b4ba-70afc469be32"},"vehicle_type_id":"4","last_reported":1784826454,"current_range_meters":22400,"station_id":"ce4bha12rcd13ifvqef0","pricing_plan_id":"cebpf4jnsgd1na2vs0mg"},{"bike_id":"a6e39fb0-f2e5-41d8-b4aa-b3071fa9ec56","system_id":"levelo_inurba_marseille","lat":43.23147,"lon":5.43709,"is_reserved":false,"is_disabled":false,"rental_uris":{"android":"levelo://app?vid=a6e39fb0-f2e5-41d8-b4aa-b3071fa9ec56","ios":"levelo://app?vid=a6e39fb0-f2e5-41d8-b4aa-b3071fa9ec56"},"vehicle_type_id":"4","last_reported":1784826454,"current_range_meters":22000,"station_id":"ce4bhmp2rcd13ifvqgog","pricing_plan_id":"cebpf4jnsgd1na2vs0mg"},{"bike_id":"a2c9fd6e-925c-4795-ba3f-b9c641931695","system_id":"levelo_inurba_marseille","lat":43.31425,"lon":5.3738,"is_reserved":false,"is_disabled":true,"rental_uris":{"android":"levelo://app?vid=a2c9fd6e-925c-4795-ba3f-b9c641931695","ios":"levelo://app?vid=a2c9fd6e-925c-4795-ba3f-b9c641931695"},"vehicle_type_id":"4","last_reported":1784826454,"current_range_meters":19200,"station_id":"","pricing_plan_id":"cebpf4jnsgd1na2vs0mg"},{"bike_id":"92876358-3916-42b7-ac6d-4744d2d15272","system_id":"levelo_inurba_marseille","lat":43.29004,"lon":5.35612,"is_reserved":false,"is_disabled":false,"rental_uris":{"android":"levelo://app?vid=92876358-3916-42b7-ac6d-4744d2d15272","ios":"levelo://app?vid=92876358-3916-42b7-ac6d-4744d2d15272"},"vehicle_type_id":"4","last_reported":1784826454,"current_range_meters":29600,"station_id":"ce4bhb92rcd13ifvqen0","pricing_plan_id":"cebpf4jnsgd1na2vs0mg"},{"bike_id":"d5bacd06-8390-4630-8a26-b07308e80e9a","system_id":"levelo_inurba_marseille","lat":43.29579,"lon":5.37495,"is_reserved":false,"is_disabled":false,"rental_uris":{"android":"levelo://app?vid=d5bacd06-8390-4630-8a26-b07308e80e9a","ios":"levelo://app?vid=d5bacd06-8390-4630-8a26-b07308e80e9a"},"vehicle_type_id":"4","last_reported":1784826454,"current_range_meters":37600,"station_id":"ce4bgh92rcd13ifvqb50","pricing_plan_id":"cebpf4jnsgd1na2vs0mg"},{"bike_id":"7b7c350c-7fa0-4260-b6c2-812c00fe7727","system_id":"levelo_inurba_marseille","lat":43.32102,"lon":5.36766,"is_reserved":false,"is_disabled":false,"rental_uris":{"android":"levelo://app?vid=7b7c350c-7fa0-4260-b6c2-812c00fe7727","ios":"levelo://app?vid=7b7c350c-7fa0-4260-b6c2-812c00fe7727"},"vehicle_type_id":"4","last_reported":1784826454,"current_range_meters":24400,"station_id":"ce4bhrh2rcd13ifvqhug","pricing_plan_id":"cebpf4jnsgd1na2vs0mg"},{"bike_id":"002b6de9-4906-4900-bd53-a26437451aab","system_id":"levelo_inurba_marseille","lat":43.33254,"lon":5.35892,"is_reserved":false,"is_disabled":false,"rental_uris":{"android":"levelo://app?vid=002b6de9-4906-4900-bd53-a26437451aab","ios":"levelo://app?vid=002b6de9-4906-4900-bd53-a26437451aab"},"vehicle_type_id":"4","last_reported":1784826454,"current_range_meters":9600,"station_id":"","pricing_plan_id":"cebpf4jnsgd1na2vs0mg"},{"bike_id":"12b6f1fd-fee1-4941-931a-df9867fb16ad","system_id":"levelo_inurba_marseille","lat":43.23185,"lon":5.35563,"is_reserved":false,"is_disabled":false,"rental_uris":{"android":"levelo://app?vid=12b6f1fd-fee1-4941-931a-df9867fb16ad","ios":"levelo://app?vid=12b6f1fd-fee1-4941-931a-df9867fb16ad"},"vehicle_type_id":"4","last_reported":1784826454,"current_range_meters":39200,"station_id":"ce4bhu92rcd13ifvqi70","pricing_plan_id":"cebpf4jnsgd1na2vs0mg"},{"bike_id":"94f1b0ad-aaa9-4b51-806c-9eae39355e9b","system_id":"levelo_inurba_marseille","lat":43.27378,"lon":5.36246,"is_reserved":false,"is_disabled":false,"rental_uris":{"android":"levelo://app?vid=94f1b0ad-aaa9-4b51-806c-9eae39355e9b","ios":"levelo://app?vid=94f1b0ad-aaa9-4b51-806c-9eae39355e9b"},"vehicle_type_id":"4","last_reported":1784826454,"current_range_meters":39200,"station_id":"ce4bhbh2rcd13ifvqeo0","pricing_plan_id":"cebpf4jnsgd1na2vs0mg"},{"bike_id":"735a1458-0d87-4257-920c-b013c606cc3d","system_id":"levelo_inurba_marseille","lat":43.27064,"lon":5.42282,"is_reserved":false,"is_disabled":false,"rental_uris":{"android":"levelo://app?vid=735a1458-0d87-4257-920c-b013c606cc3d","ios":"levelo://app?vid=735a1458-0d87-4257-920c-b013c606cc3d"},"vehicle_type_id":"4","last_reported":1784826454,"current_range_meters":38000,"station_id":"ce4bhk92rcd13ifvqgb0","pricing_plan_id":"cebpf4jnsgd1na2vs0mg"},{"bike_id":"79baa80f-6e10-4cca-a218-98b3cf27009f","system_id":"levelo_inurba_marseille","lat":43.25816,"lon":5.39418,"is_reserved":false,"is_disabled":false,"rental_uris":{"android":"levelo://app?vid=79baa80f-6e10-4cca-a218-98b3cf27009f","ios":"levelo://app?vid=79baa80f-6e10-4cca-a218-98b3cf27009f"},"vehicle_type_id":"4","last_reported":1784826454,"current_range_meters":40000,"station_id":"ce4bhip2rcd13ifvqft0","pricing_plan_id":"cebpf4jnsgd1na2vs0mg"},{"bike_id":"bd8b3369-74a8-4511-bee7-721b894466b2","system_id":"levelo_inurba_marseille","lat":43.23791,"lon":5.36625,"is_reserved":false,"is_disabled":false,"rental_uris":{"android":"levelo://app?vid=bd8b3369-74a8-4511-bee7-721b894466b2","ios":"levelo://app?vid=bd8b3369-74a8-4511-bee7-721b894466b2"},"vehicle_type_id":"4","last_reported":1784826454,"current_range_meters":36400,"station_id":"st_d3nk18o9ro0c73en2l3g","pricing_plan_id":"cebpf4jnsgd1na2vs0mg"},{"bike_id":"22e66e8b-f008-4d04-b17c-751d019a7a36","system_id":"levelo_inurba_marseille","lat":43.29802,"lon":5.44051,"is_reserved":false,"is_disabled":false,"rental_uris":{"android":"levelo://app?vid=22e66e8b-f008-4d04-b17c-751d019a7a36","ios":"levelo://app?vid=22e66e8b-f008-4d04-b17c-751d019a7a36"},"vehicle_type_id":"4","last_reported":1784826454,"current_range_meters":37600,"station_id":"st_d3jp68qikq2c7381ktn0","pricing_plan_id":"cebpf4jnsgd1na2vs0mg"},{"bike_id":"1981d3ef-d7ae-460e-a247-e2f1120f8322","system_id":"levelo_inurba_marseille","lat":43.24577,"lon":5.41949,"is_reserved":false,"is_disabled":false,"rental_uris":{"android":"levelo://app?vid=1981d3ef-d7ae-460e-a247-e2f1120f8322","ios":"levelo://app?vid=1981d3ef-d7ae-460e-a247-e2f1120f8322"},"vehicle_type_id":"4","last_reported":1784826454,"current_range_meters":12800,"station_id":"","pricing_plan_id":"cebpf4jnsgd1na2vs0mg"},{"bike_id":"bbb6d84d-52b2-4523-b78b-60cb354411ef","system_id":"levelo_inurba_marseille","lat":43.32106,"lon":5.36767,"is_reserved":false,"is_disabled":false,"rental_uris":{"android":"levelo://app?vid=bbb6d84d-52b2-4523-b78b-60cb354411ef","ios":"levelo://app?vid=bbb6d84d-52b2-4523-b78b-60cb354411ef"},"vehicle_type_id":"4","last_reported":1784826454,"current_range_meters":32400,"station_id":"ce4bhrh2rcd13ifvqhug","pricing_plan_id":"cebpf4jnsgd1na2vs0mg"},{"bike_id":"0fb69e68-2442-4daa-851f-442099ce438b","system_id":"levelo_inurba_marseille","lat":43.30193,"lon":5.40164,"is_reserved":false,"is_disabled":false,"rental_uris":{"android":"levelo://app?vid=0fb69e68-2442-4daa-851f-442099ce438b","ios":"levelo://app?vid=0fb69e68-2442-4daa-851f-442099ce438b"},"vehicle_type_id":"4","last_reported":1784826454,"current_range_meters":4000,"station_id":"","pricing_plan_id":"cebpf4jnsgd1na2vs0mg"},{"bike_id":"7c215944-6de0-44b9-b267-ecfcdb73eb11","system_id":"levelo_inurba_marseille","lat":43.2781,"lon":5.40717,"is_reserved":false,"is_disabled":true,"rental_uris":{"android":"levelo://app?vid=7c215944-6de0-44b9-b267-ecfcdb73eb11","ios":"levelo://app?vid=7c215944-6de0-44b9-b267-ecfcdb73eb11"},"vehicle_type_id":"4","last_reported":1784826454,"current_range_meters":38400,"station_id":"ce4bhnh2rcd13ifvqgtg","pricing_plan_id":"cebpf4jnsgd1na2vs0mg"},{"bike_id":"a9863fcb-8ca0-4220-b083-cb27e96475fe","system_id":"levelo_inurba_marseille","lat":43.23195,"lon":5.35548,"is_reserved":false,"is_disabled":false,"rental_uris":{"android":"levelo://app?vid=a9863fcb-8ca0-4220-b083-cb27e96475fe","ios":"levelo://app?vid=a9863fcb-8ca0-4220-b083-cb27e96475fe"},"vehicle_type_id":"4","last_reported":1784826454,"current_range_meters":39200,"station_id":"ce4bhu92rcd13ifvqi70","pricing_plan_id":"cebpf4jnsgd1na2vs0mg"},{"bike_id":"ab281852-d437-404c-8f35-11bd9af4ead8","system_id":"levelo_inurba_marseille","lat":43.29567,"lon":5.37513,"is_reserved":false,"is_disabled":true,"rental_uris":{"android":"levelo://app?vid=ab281852-d437-404c-8f35-11bd9af4ead8","ios":"levelo://app?vid=ab281852-d437-404c-8f35-11bd9af4ead8"},"vehicle_type_id":"4","last_reported":1784826454,"current_range_meters":0,"station_id":"ce4bgh92rcd13ifvqb50","pricing_plan_id":"cebpf4jnsgd1na2vs0mg"},{"bike_id":"61674bc5-3d8c-4b9b-8c77-0425a7e82dbc","system_id":"levelo_inurba_marseille","lat":43.26317,"lon":5.37828,"is_reserved":false,"is_disabled":false,"rental_uris":{"android":"levelo://app?vid=61674bc5-3d8c-4b9b-8c77-0425a7e82dbc","ios":"levelo://app?vid=61674bc5-3d8c-4b9b-8c77-0425a7e82dbc"},"vehicle_type_id":"4","last_reported":1784826454,"current_range_meters":30000,"station_id":"","pricing_plan_id":"cebpf4jnsgd1na2vs0mg"},{"bike_id":"6beb94b0-4283-4f7d-810d-b229619bc024","system_id":"levelo_inurba_marseille","lat":43.229591,"lon":5.444884,"is_reserved":false,"is_disabled":false,"rental_uris":{"android":"levelo://app?vid=6beb94b0-4283-4f7d-810d-b229619bc024","ios":"levelo://app?vid=6beb94b0-4283-4f7d-810d-b229619bc024"},"vehicle_type_id":"4","last_reported":1784826454,"current_range_meters":20000,"station_id":"","pricing_plan_id":"cebpf4jnsgd1na2vs0mg"},{"bike_id":"25d63c03-240b-4596-9842-ae7363543101","system_id":"levelo_inurba_marseille","lat":43.33158,"lon":5.37697,"is_reserved":false,"is_disabled":false,"rental_uris":{"android":"levelo://app?vid=25d63c03-240b-4596-9842-ae7363543101","ios":"levelo://app?vid=25d63c03-240b-4596-9842-ae7363543101"},"vehicle_type_id":"4","last_reported":1784826454,"current_range_meters":37600,"station_id":"st_d46cu089ee8s73dldbu0","pricing_plan_id":"cebpf4jnsgd1na2vs0mg"},{"bike_id":"d5ce1f70-45dd-47d5-a2a4-e8a19c2ad395","system_id":"levelo_inurba_marseille","lat":43.23793,"lon":5.36622,"is_reserved":false,"is_disabled":false,"rental_uris":{"android":"levelo://app?vid=d5ce1f70-45dd-47d5-a2a4-e8a19c2ad395","ios":"levelo://app?vid=d5ce1f70-45dd-47d5-a2a4-e8a19c2ad395"},"vehicle_type_id":"4","last_reported":1784826454,"current_range_meters":40000,"station_id":"st_d3nk18o9ro0c73en2l3g","pricing_plan_id":"cebpf4jnsgd1na2vs0mg"},{"bike_id":"2227fe95-0a72-4ced-9f02-31d32846fb4e","system_id":"levelo_inurba_marseille","lat":43.25085,"lon":5.39515,"is_reserved":false,"is_disabled":false,"rental_uris":{"android":"levelo://app?vid=2227fe95-0a72-4ced-9f02-31d32846fb4e","ios":"levelo://app?vid=2227fe95-0a72-4ced-9f02-31d32846fb4e"},"vehicle_type_id":"4","last_reported":1784826454,"current_range_meters":39200,"station_id":"ce4bhm12rcd13ifvqgkg","pricing_plan_id":"cebpf4jnsgd1na2vs0mg"},{"bike_id":"f8d90c4e-4908-4f03-845e-3c10c53cb1f4","system_id":"levelo_inurba_marseille","lat":43.30051,"lon":5.40939,"is_reserved":false,"is_disabled":false,"rental_uris":{"android":"levelo://app?vid=f8d90c4e-4908-4f03-845e-3c10c53cb1f4","ios":"levelo://app?vid=f8d90c4e-4908-4f03-845e-3c10c53cb1f4"},"vehicle_type_id":"4","last_reported":1784826454,"current_range_meters":18000,"station_id":"","pricing_plan_id":"cebpf4jnsgd1na2vs0mg"},{"bike_id":"6e848715-b818-4dcf-8988-80bc540ac54b","system_id":"levelo_inurba_marseille","lat":43.27712,"lon":5.38331,"is_reserved":false,"is_disabled":false,"rental_uris":{"android":"levelo://app?vid=6e848715-b818-4dcf-8988-80bc540ac54b","ios":"levelo://app?vid=6e848715-b818-4dcf-8988-80bc540ac54b"},"vehicle_type_id":"4","last_reported":1784826454,"current_range_meters":6800,"station_id":"","pricing_plan_id":"cebpf4jnsgd1na2vs0mg"},{"bike_id":"920e3d06-cc23-41b9-8527-a048259c2416","system_id":"levelo_inurba_marseille","lat":43.317,"lon":5.40465,"is_reserved":false,"is_disabled":false,"rental_uris":{"android":"levelo://app?vid=920e3d06-cc23-41b9-8527-a048259c2416","ios":"levelo://app?vid=920e3d06-cc23-41b9-8527-a048259c2416"},"vehicle_type_id":"4","last_reported":1784826454,"current_range_meters":19600,"station_id":"ce4bh012rcd13ifvqd00","pricing_plan_id":"cebpf4jnsgd1na2vs0mg"},{"bike_id":"60642e41-7846-4e52-970a-e341fc6335ee","system_id":"levelo_inurba_marseille","lat":43.29303,"lon":5.37373,"is_reserved":false,"is_disabled":false,"rental_uris":{"android":"levelo://app?vid=60642e41-7846-4e52-970a-e341fc6335ee","ios":"levelo://app?vid=60642e41-7846-4e52-970a-e341fc6335ee"},"vehicle_type_id":"4","last_reported":1784826454,"current_range_meters":19600,"station_id":"","pricing_plan_id":"cebpf4jnsgd1na2vs0mg"},{"bike_id":"27e1e4c5-a07c-4ba9-9e46-007cc925fb39","system_id":"levelo_inurba_marseille","lat":43.25436,"lon":5.41638,"is_reserved":false,"is_disabled":false,"rental_uris":{"android":"levelo://app?vid=27e1e4c5-a07c-4ba9-9e46-007cc925fb39","ios":"levelo://app?vid=27e1e4c5-a07c-4ba9-9e46-007cc925fb39"},"vehicle_type_id":"4","last_reported":1784826454,"current_range_meters":6800,"station_id":"","pricing_plan_id":"cebpf4jnsgd1na2vs0mg"},{"bike_id":"edf62b16-4006-4c81-9c57-20873a175b5a","system_id":"levelo_inurba_marseille","lat":43.2558,"lon":5.38229,"is_reserved":false,"is_disabled":false,"rental_uris":{"android":"levelo://app?vid=edf62b16-4006-4c81-9c57-20873a175b5a","ios":"levelo://app?vid=edf62b16-4006-4c81-9c57-20873a175b5a"},"vehicle_type_id":"4","last_reported":1784826454,"current_range_meters":35200,"station_id":"ce4bhih2rcd13ifvqfs0","pricing_plan_id":"cebpf4jnsgd1na2vs0mg"},{"bike_id":"033eab5e-4885-4e3e-a926-9530624df4e6","system_id":"levelo_inurba_marseille","lat":43.29304,"lon":5.37449,"is_reserved":false,"is_disabled":false,"rental_uris":{"android":"levelo://app?vid=033eab5e-4885-4e3e-a926-9530624df4e6","ios":"levelo://app?vid=033eab5e-4885-4e3e-a926-9530624df4e6"},"vehicle_type_id":"4","last_reported":1784826454,"current_range_meters":10000,"station_id":"ce4bgi12rcd13ifvqb70","pricing_plan_id":"cebpf4jnsgd1na2vs0mg"},{"bike_id":"cd288035-eddb-4f42-a73e-3fa03a084ed5","system_id":"levelo_inurba_marseille","lat":43.265732,"lon":5.390492,"is_reserved":false,"is_disabled":true,"rental_uris":{"android":"levelo://app?vid=cd288035-eddb-4f42-a73e-3fa03a084ed5","ios":"levelo://app?vid=cd288035-eddb-4f42-a73e-3fa03a084ed5"},"vehicle_type_id":"4","last_reported":1784826454,"current_range_meters":33200,"station_id":"cpo3532slgdg3j2ikp40","pricing_plan_id":"cebpf4jnsgd1na2vs0mg"},{"bike_id":"318129b4-c7a7-4d62-8daa-bf96cab18e20","system_id":"levelo_inurba_marseille","lat":43.28412,"lon":5.34977,"is_reserved":false,"is_disabled":true,"rental_uris":{"android":"levelo://app?vid=318129b4-c7a7-4d62-8daa-bf96cab18e20","ios":"levelo://app?vid=318129b4-c7a7-4d62-8daa-bf96cab18e20"},"vehicle_type_id":"4","last_reported":1784826454,"current_range_meters":19200,"station_id":"ce4bhbh2rcd13ifvqepg","pricing_plan_id":"cebpf4jnsgd1na2vs0mg"},{"bike_id":"2f3c08d1-4cdc-4610-bf4b-5e5ab3853cf7","system_id":"levelo_inurba_marseille","lat":43.31491,"lon":5.39602,"is_reserved":false,"is_disabled":false,"rental_uris":{"android":"levelo://app?vid=2f3c08d1-4cdc-4610-bf4b-5e5ab3853cf7","ios":"levelo://app?vid=2f3c08d1-4cdc-4610-bf4b-5e5ab3853cf7"},"vehicle_type_id":"4","last_reported":1784826454,"current_range_meters":17600,"station_id":"","pricing_plan_id":"cebpf4jnsgd1na2vs0mg"},{"bike_id":"34a1c55a-1102-48d3-a5dd-6f39d56079ab","system_id":"levelo_inurba_marseille","lat":43.21745,"lon":5.34593,"is_reserved":false,"is_disabled":false,"rental_uris":{"android":"levelo://app?vid=34a1c55a-1102-48d3-a5dd-6f39d56079ab","ios":"levelo://app?vid=34a1c55a-1102-48d3-a5dd-6f39d56079ab"},"vehicle_type_id":"4","last_reported":1784826454,"current_range_meters":6000,"station_id":"st_cvj6r9ubvosntc0bgbag","pricing_plan_id":"cebpf4jnsgd1na2vs0mg"},{"bike_id":"5fc7fc82-e463-4b30-8ddd-c9f6842f8468","system_id":"levelo_inurba_marseille","lat":43.25082,"lon":5.39529,"is_reserved":false,"is_disabled":false,"rental_uris":{"android":"levelo://app?vid=5fc7fc82-e463-4b30-8ddd-c9f6842f8468","ios":"levelo://app?vid=5fc7fc82-e463-4b30-8ddd-c9f6842f8468"},"vehicle_type_id":"4","last_reported":1784826454,"current_range_meters":39200,"station_id":"ce4bhm12rcd13ifvqgkg","pricing_plan_id":"cebpf4jnsgd1na2vs0mg"},{"bike_id":"f3119707-383c-45d4-a3de-ac51b621be5c","system_id":"levelo_inurba_marseille","lat":43.27059,"lon":5.38297,"is_reserved":false,"is_disabled":false,"rental_uris":{"android":"levelo://app?vid=f3119707-383c-45d4-a3de-ac51b621be5c","ios":"levelo://app?vid=f3119707-383c-45d4-a3de-ac51b621be5c"},"vehicle_type_id":"4","last_reported":1784826454,"current_range_meters":22000,"station_id":"st_d3n2fo6cfp8s73cte1j0","pricing_plan_id":"cebpf4jnsgd1na2vs0mg"},{"bike_id":"4871f915-bca7-49ea-9398-4e2a69e50f8c","system_id":"levelo_inurba_marseille","lat":43.28416,"lon":5.34983,"is_reserved":false,"is_disabled":false,"rental_uris":{"android":"levelo://app?vid=4871f915-bca7-49ea-9398-4e2a69e50f8c","ios":"levelo://app?vid=4871f915-bca7-49ea-9398-4e2a69e50f8c"},"vehicle_type_id":"4","last_reported":1784826454,"current_range_meters":39200,"station_id":"ce4bhbh2rcd13ifvqepg","pricing_plan_id":"cebpf4jnsgd1na2vs0mg"},{"bike_id":"d1b66825-c158-457e-a6ca-20015eb28f13","system_id":"levelo_inurba_marseille","lat":43.33764,"lon":5.37502,"is_reserved":false,"is_disabled":false,"rental_uris":{"android":"levelo://app?vid=d1b66825-c158-457e-a6ca-20015eb28f13","ios":"levelo://app?vid=d1b66825-c158-457e-a6ca-20015eb28f13"},"vehicle_type_id":"4","last_reported":1784826454,"current_range_meters":12000,"station_id":"","pricing_plan_id":"cebpf4jnsgd1na2vs0mg"},{"bike_id":"c5032ade-04c2-4ad9-acd6-0c757f219d04","system_id":"levelo_inurba_marseille","lat":43.31895,"lon":5.36809,"is_reserved":false,"is_disabled":false,"rental_uris":{"android":"levelo://app?vid=c5032ade-04c2-4ad9-acd6-0c757f219d04","ios":"levelo://app?vid=c5032ade-04c2-4ad9-acd6-0c757f219d04"},"vehicle_type_id":"4","last_reported":1784826454,"current_range_meters":8400,"station_id":"st_d6o2h0d0559c73evc1b0","pricing_plan_id":"cebpf4jnsgd1na2vs0mg"},{"bike_id":"479a25b1-c1db-4e38-9802-13b8f5b183f0","system_id":"levelo_inurba_marseille","lat":43.28475,"lon":5.48409,"is_reserved":false,"is_disabled":false,"rental_uris":{"android":"levelo://app?vid=479a25b1-c1db-4e38-9802-13b8f5b183f0","ios":"levelo://app?vid=479a25b1-c1db-4e38-9802-13b8f5b183f0"},"vehicle_type_id":"4","last_reported":1784826454,"current_range_meters":27200,"station_id":"st_d3svhcjqgbts73a3dn0g","pricing_plan_id":"cebpf4jnsgd1na2vs0mg"},{"bike_id":"5ba3de10-889b-4152-aef4-4bff1e010d26","system_id":"levelo_inurba_marseille","lat":43.321,"lon":5.368,"is_reserved":false,"is_disabled":false,"rental_uris":{"android":"levelo://app?vid=5ba3de10-889b-4152-aef4-4bff1e010d26","ios":"levelo://app?vid=5ba3de10-889b-4152-aef4-4bff1e010d26"},"vehicle_type_id":"4","last_reported":1784826454,"current_range_meters":8800,"station_id":"ce4bhrh2rcd13ifvqhug","pricing_plan_id":"cebpf4jnsgd1na2vs0mg"},{"bike_id":"0efcef29-102d-4c99-9588-0091c6994253","system_id":"levelo_inurba_marseille","lat":43.23399,"lon":5.41245,"is_reserved":false,"is_disabled":false,"rental_uris":{"android":"levelo://app?vid=0efcef29-102d-4c99-9588-0091c6994253","ios":"levelo://app?vid=0efcef29-102d-4c99-9588-0091c6994253"},"vehicle_type_id":"4","last_reported":1784826454,"current_range_meters":38800,"station_id":"st_d75pvndhf9lc73cqq3eg","pricing_plan_id":"cebpf4jnsgd1na2vs0mg"},{"bike_id":"5a9abbc8-0280-47d8-900a-029568d5f37c","system_id":"levelo_inurba_marseille","lat":43.324,"lon":5.42651,"is_reserved":false,"is_disabled":false,"rental_uris":{"android":"levelo://app?vid=5a9abbc8-0280-47d8-900a-029568d5f37c","ios":"levelo://app?vid=5a9abbc8-0280-47d8-900a-029568d5f37c"},"vehicle_type_id":"4","last_reported":1784826454,"current_range_meters":16800,"station_id":"","pricing_plan_id":"cebpf4jnsgd1na2vs0mg"},{"bike_id":"b74198f4-1d24-4fc2-97fc-08e148c570e0","system_id":"levelo_inurba_marseille","lat":43.29002,"lon":5.35594,"is_reserved":false,"is_disabled":false,"rental_uris":{"android":"levelo://app?vid=b74198f4-1d24-4fc2-97fc-08e148c570e0","ios":"levelo://app?vid=b74198f4-1d24-4fc2-97fc-08e148c570e0"},"vehicle_type_id":"4","last_reported":1784826454,"current_range_meters":30400,"station_id":"ce4bhb92rcd13ifvqen0","pricing_plan_id":"cebpf4jnsgd1na2vs0mg"},{"bike_id":"cc8568ab-2679-4305-9add-20ef1e360289","system_id":"levelo_inurba_marseille","lat":43.33784,"lon":5.37518,"is_reserved":false,"is_disabled":false,"rental_uris":{"android":"levelo://app?vid=cc8568ab-2679-4305-9add-20ef1e360289","ios":"levelo://app?vid=cc8568ab-2679-4305-9add-20ef1e360289"},"vehicle_type_id":"4","last_reported":1784826454,"current_range_meters":29600,"station_id":"","pricing_plan_id":"cebpf4jnsgd1na2vs0mg"},{"bike_id":"fd3f8303-f8d3-481a-a621-b95d7ff690c0","system_id":"levelo_inurba_marseille","lat":43.29005,"lon":5.35609,"is_reserved":false,"is_disabled":false,"rental_uris":{"android":"levelo://app?vid=fd3f8303-f8d3-481a-a621-b95d7ff690c0","ios":"levelo://app?vid=fd3f8303-f8d3-481a-a621-b95d7ff690c0"},"vehicle_type_id":"4","last_reported":1784826454,"current_range_meters":14000,"station_id":"ce4bhgp2rcd13ifvqfc0","pricing_plan_id":"cebpf4jnsgd1na2vs0mg"},{"bike_id":"57b59134-a1f3-4313-aa0a-330b2abbe731","system_id":"levelo_inurba_marseille","lat":43.27208,"lon":5.39193,"is_reserved":false,"is_disabled":false,"rental_uris":{"android":"levelo://app?vid=57b59134-a1f3-4313-aa0a-330b2abbe731","ios":"levelo://app?vid=57b59134-a1f3-4313-aa0a-330b2abbe731"},"vehicle_type_id":"4","last_reported":1784826454,"current_range_meters":39200,"station_id":"ce4bhhp2rcd13ifvqfm0","pricing_plan_id":"cebpf4jnsgd1na2vs0mg"},{"bike_id":"80f2fcef-357e-49cd-aa72-dbf1de6d4695","system_id":"levelo_inurba_marseille","lat":43.31873,"lon":5.36829,"is_reserved":false,"is_disabled":false,"rental_uris":{"android":"levelo://app?vid=80f2fcef-357e-49cd-aa72-dbf1de6d4695","ios":"levelo://app?vid=80f2fcef-357e-49cd-aa72-dbf1de6d4695"},"vehicle_type_id":"4","last_reported":1784826454,"current_range_meters":14400,"station_id":"st_d6o2h0d0559c73evc1b0","pricing_plan_id":"cebpf4jnsgd1na2vs0mg"},{"bike_id":"4e578ff6-0159-412c-8500-fcb671641af5","system_id":"levelo_inurba_marseille","lat":43.23966,"lon":5.36634,"is_reserved":false,"is_disabled":false,"rental_uris":{"android":"levelo://app?vid=4e578ff6-0159-412c-8500-fcb671641af5","ios":"levelo://app?vid=4e578ff6-0159-412c-8500-fcb671641af5"},"vehicle_type_id":"4","last_reported":1784826454,"current_range_meters":12800,"station_id":"ce4bhi12rcd13ifvqfp0","pricing_plan_id":"cebpf4jnsgd1na2vs0mg"},{"bike_id":"f8243129-26e3-4009-a678-84f35758802d","system_id":"levelo_inurba_marseille","lat":43.24093,"lon":5.37762,"is_reserved":false,"is_disabled":false,"rental_uris":{"android":"levelo://app?vid=f8243129-26e3-4009-a678-84f35758802d","ios":"levelo://app?vid=f8243129-26e3-4009-a678-84f35758802d"},"vehicle_type_id":"4","last_reported":1784826454,"current_range_meters":22800,"station_id":"ce4bhnp2rcd13ifvqgvg","pricing_plan_id":"cebpf4jnsgd1na2vs0mg"},{"bike_id":"4fa5a3ed-f2b3-4b70-8673-99b3b8c15218","system_id":"levelo_inurba_marseille","lat":43.26923,"lon":5.38917,"is_reserved":false,"is_disabled":true,"rental_uris":{"android":"levelo://app?vid=4fa5a3ed-f2b3-4b70-8673-99b3b8c15218","ios":"levelo://app?vid=4fa5a3ed-f2b3-4b70-8673-99b3b8c15218"},"vehicle_type_id":"4","last_reported":1784826454,"current_range_meters":2000,"station_id":"ce4bhhh2rcd13ifvqfl0","pricing_plan_id":"cebpf4jnsgd1na2vs0mg"},{"bike_id":"10e23603-ed51-4624-aea8-97b890fc56ee","system_id":"levelo_inurba_marseille","lat":43.29813,"lon":5.44068,"is_reserved":false,"is_disabled":false,"rental_uris":{"android":"levelo://app?vid=10e23603-ed51-4624-aea8-97b890fc56ee","ios":"levelo://app?vid=10e23603-ed51-4624-aea8-97b890fc56ee"},"vehicle_type_id":"4","last_reported":1784826454,"current_range_meters":4800,"station_id":"st_d3jp68qikq2c7381ktn0","pricing_plan_id":"cebpf4jnsgd1na2vs0mg"},{"bike_id":"24562537-d892-46b0-8d1f-b9806d00c57d","system_id":"levelo_inurba_marseille","lat":43.29623,"lon":5.37139,"is_reserved":false,"is_disabled":true,"rental_uris":{"android":"levelo://app?vid=24562537-d892-46b0-8d1f-b9806d00c57d","ios":"levelo://app?vid=24562537-d892-46b0-8d1f-b9806d00c57d"},"vehicle_type_id":"4","last_reported":1784826454,"current_range_meters":21600,"station_id":"","pricing_plan_id":"cebpf4jnsgd1na2vs0mg"},{"bike_id":"9b539b6d-7ab6-4c9d-8846-e1f6c02ea528","system_id":"levelo_inurba_marseille","lat":43.3018,"lon":5.36594,"is_reserved":false,"is_disabled":false,"rental_uris":{"android":"levelo://app?vid=9b539b6d-7ab6-4c9d-8846-e1f6c02ea528","ios":"levelo://app?vid=9b539b6d-7ab6-4c9d-8846-e1f6c02ea528"},"vehicle_type_id":"4","last_reported":1784826454,"current_range_meters":39200,"station_id":"ce4bgrh2rcd13ifvqc8g","pricing_plan_id":"cebpf4jnsgd1na2vs0mg"},{"bike_id":"e27fc7f4-c9a5-4e3f-bacf-0d33f4fcae01","system_id":"levelo_inurba_marseille","lat":43.28921,"lon":5.36622,"is_reserved":false,"is_disabled":false,"rental_uris":{"android":"levelo://app?vid=e27fc7f4-c9a5-4e3f-bacf-0d33f4fcae01","ios":"levelo://app?vid=e27fc7f4-c9a5-4e3f-bacf-0d33f4fcae01"},"vehicle_type_id":"4","last_reported":1784826454,"current_range_meters":14800,"station_id":"ce4bhap2rcd13ifvqek0","pricing_plan_id":"cebpf4jnsgd1na2vs0mg"},{"bike_id":"c6339b14-6408-4f1f-9334-32c118625fc1","system_id":"levelo_inurba_marseille","lat":43.29465,"lon":5.43313,"is_reserved":false,"is_disabled":false,"rental_uris":{"android":"levelo://app?vid=c6339b14-6408-4f1f-9334-32c118625fc1","ios":"levelo://app?vid=c6339b14-6408-4f1f-9334-32c118625fc1"},"vehicle_type_id":"4","last_reported":1784826454,"current_range_meters":16400,"station_id":"st_d3j5ugp08ojc73fj9d10","pricing_plan_id":"cebpf4jnsgd1na2vs0mg"},{"bike_id":"d38ebdde-0622-43e7-bed6-29e42a00bf22","system_id":"levelo_inurba_marseille","lat":43.3377,"lon":5.37493,"is_reserved":false,"is_disabled":false,"rental_uris":{"android":"levelo://app?vid=d38ebdde-0622-43e7-bed6-29e42a00bf22","ios":"levelo://app?vid=d38ebdde-0622-43e7-bed6-29e42a00bf22"},"vehicle_type_id":"4","last_reported":1784826454,"current_range_meters":39200,"station_id":"","pricing_plan_id":"cebpf4jnsgd1na2vs0mg"},{"bike_id":"3312530f-eabe-44ee-a4b7-74a07e2d1e57","system_id":"levelo_inurba_marseille","lat":43.2967,"lon":5.37275,"is_reserved":false,"is_disabled":true,"rental_uris":{"android":"levelo://app?vid=3312530f-eabe-44ee-a4b7-74a07e2d1e57","ios":"levelo://app?vid=3312530f-eabe-44ee-a4b7-74a07e2d1e57"},"vehicle_type_id":"4","last_reported":1784826454,"current_range_meters":38800,"station_id":"ce4bgk12rcd13ifvqbj0","pricing_plan_id":"cebpf4jnsgd1na2vs0mg"},{"bike_id":"7876f638-13f3-42ec-935b-856428d6d018","system_id":"levelo_inurba_marseille","lat":43.27959,"lon":5.3873,"is_reserved":false,"is_disabled":true,"rental_uris":{"android":"levelo://app?vid=7876f638-13f3-42ec-935b-856428d6d018","ios":"levelo://app?vid=7876f638-13f3-42ec-935b-856428d6d018"},"vehicle_type_id":"4","last_reported":1784826454,"current_range_meters":8400,"station_id":"ce4bhg12rcd13ifvqf80","pricing_plan_id":"cebpf4jnsgd1na2vs0mg"},{"bike_id":"b809a343-278b-440c-8bd3-1837080007bc","system_id":"levelo_inurba_marseille","lat":43.27843,"lon":5.35435,"is_reserved":false,"is_disabled":false,"rental_uris":{"android":"levelo://app?vid=b809a343-278b-440c-8bd3-1837080007bc","ios":"levelo://app?vid=b809a343-278b-440c-8bd3-1837080007bc"},"vehicle_type_id":"4","last_reported":1784826454,"current_range_meters":28800,"station_id":"","pricing_plan_id":"cebpf4jnsgd1na2vs0mg"},{"bike_id":"75324354-8015-4058-a8fa-e30b1364f6cd","system_id":"levelo_inurba_marseille","lat":43.28268,"lon":5.35059,"is_reserved":false,"is_disabled":false,"rental_uris":{"android":"levelo://app?vid=75324354-8015-4058-a8fa-e30b1364f6cd","ios":"levelo://app?vid=75324354-8015-4058-a8fa-e30b1364f6cd"},"vehicle_type_id":"4","last_reported":1784826454,"current_range_meters":30000,"station_id":"ce4bhbp2rcd13ifvqerg","pricing_plan_id":"cebpf4jnsgd1na2vs0mg"},{"bike_id":"8ff2cd14-8956-4c2b-b81e-f2705816eb22","system_id":"levelo_inurba_marseille","lat":43.22535,"lon":5.34833,"is_reserved":false,"is_disabled":false,"rental_uris":{"android":"levelo://app?vid=8ff2cd14-8956-4c2b-b81e-f2705816eb22","ios":"levelo://app?vid=8ff2cd14-8956-4c2b-b81e-f2705816eb22"},"vehicle_type_id":"4","last_reported":1784826454,"current_range_meters":19200,"station_id":"st_cvj5dfep6f1abm77gieg","pricing_plan_id":"cebpf4jnsgd1na2vs0mg"},{"bike_id":"dc997080-a2f9-462b-ae0d-cb12512b937b","system_id":"levelo_inurba_marseille","lat":43.2705,"lon":5.38307,"is_reserved":false,"is_disabled":false,"rental_uris":{"android":"levelo://app?vid=dc997080-a2f9-462b-ae0d-cb12512b937b","ios":"levelo://app?vid=dc997080-a2f9-462b-ae0d-cb12512b937b"},"vehicle_type_id":"4","last_reported":1784826454,"current_range_meters":39200,"station_id":"st_d3n2fo6cfp8s73cte1j0","pricing_plan_id":"cebpf4jnsgd1na2vs0mg"},{"bike_id":"c25b4364-6b67-47e5-8f46-8f8b7bb39c34","system_id":"levelo_inurba_marseille","lat":43.25864,"lon":5.39908,"is_reserved":false,"is_disabled":false,"rental_uris":{"android":"levelo://app?vid=c25b4364-6b67-47e5-8f46-8f8b7bb39c34","ios":"levelo://app?vid=c25b4364-6b67-47e5-8f46-8f8b7bb39c34"},"vehicle_type_id":"4","last_reported":1784826454,"current_range_meters":29600,"station_id":"ce4bhl92rcd13ifvqghg","pricing_plan_id":"cebpf4jnsgd1na2vs0mg"},{"bike_id":"44a6b67d-4d23-41ae-a1a4-e1b2bba1a25b","system_id":"levelo_inurba_marseille","lat":43.24548,"lon":5.3954,"is_reserved":false,"is_disabled":false,"rental_uris":{"android":"levelo://app?vid=44a6b67d-4d23-41ae-a1a4-e1b2bba1a25b","ios":"levelo://app?vid=44a6b67d-4d23-41ae-a1a4-e1b2bba1a25b"},"vehicle_type_id":"4","last_reported":1784826454,"current_range_meters":20000,"station_id":"ce4bhlp2rcd13ifvqgjg","pricing_plan_id":"cebpf4jnsgd1na2vs0mg"},{"bike_id":"7ce9fddc-0434-4205-847b-88ec0f5ac747","system_id":"levelo_inurba_marseille","lat":43.32105,"lon":5.36769,"is_reserved":false,"is_disabled":false,"rental_uris":{"android":"levelo://app?vid=7ce9fddc-0434-4205-847b-88ec0f5ac747","ios":"levelo://app?vid=7ce9fddc-0434-4205-847b-88ec0f5ac747"},"vehicle_type_id":"4","last_reported":1784826454,"current_range_meters":34000,"station_id":"ce4bhrh2rcd13ifvqhug","pricing_plan_id":"cebpf4jnsgd1na2vs0mg"},{"bike_id":"0f7fed87-9a2e-4266-8e97-d8b3e5beecc1","system_id":"levelo_inurba_marseille","lat":43.28433,"lon":5.39181,"is_reserved":false,"is_disabled":false,"rental_uris":{"android":"levelo://app?vid=0f7fed87-9a2e-4266-8e97-d8b3e5beecc1","ios":"levelo://app?vid=0f7fed87-9a2e-4266-8e97-d8b3e5beecc1"},"vehicle_type_id":"4","last_reported":1784826454,"current_range_meters":39200,"station_id":"ce4bhoh2rcd13ifvqh5g","pricing_plan_id":"cebpf4jnsgd1na2vs0mg"},{"bike_id":"a9ecf7f7-b0a7-4781-909d-7262df46af4c","system_id":"levelo_inurba_marseille","lat":43.29133,"lon":5.37744,"is_reserved":false,"is_disabled":false,"rental_uris":{"android":"levelo://app?vid=a9ecf7f7-b0a7-4781-909d-7262df46af4c","ios":"levelo://app?vid=a9ecf7f7-b0a7-4781-909d-7262df46af4c"},"vehicle_type_id":"4","last_reported":1784826454,"current_range_meters":18000,"station_id":"","pricing_plan_id":"cebpf4jnsgd1na2vs0mg"},{"bike_id":"edfcce8c-a9db-433f-938a-8d49e09eed07","system_id":"levelo_inurba_marseille","lat":43.31191,"lon":5.38521,"is_reserved":false,"is_disabled":false,"rental_uris":{"android":"levelo://app?vid=edfcce8c-a9db-433f-938a-8d49e09eed07","ios":"levelo://app?vid=edfcce8c-a9db-433f-938a-8d49e09eed07"},"vehicle_type_id":"4","last_reported":1784826454,"current_range_meters":2800,"station_id":"","pricing_plan_id":"cebpf4jnsgd1na2vs0mg"},{"bike_id":"f8fdde43-2a77-46f1-8157-cdad1454b27b","system_id":"levelo_inurba_marseille","lat":43.29855,"lon":5.36285,"is_reserved":false,"is_disabled":false,"rental_uris":{"android":"levelo://app?vid=f8fdde43-2a77-46f1-8157-cdad1454b27b","ios":"levelo://app?vid=f8fdde43-2a77-46f1-8157-cdad1454b27b"},"vehicle_type_id":"4","last_reported":1784826454,"current_range_meters":4000,"station_id":"ce4bgpp2rcd13ifvqc3g","pricing_plan_id":"cebpf4jnsgd1na2vs0mg"},{"bike_id":"b8f75fb0-ab2a-4052-9d80-af447bc999d5","system_id":"levelo_inurba_marseille","lat":43.30056,"lon":5.37245,"is_reserved":false,"is_disabled":false,"rental_uris":{"android":"levelo://app?vid=b8f75fb0-ab2a-4052-9d80-af447bc999d5","ios":"levelo://app?vid=b8f75fb0-ab2a-4052-9d80-af447bc999d5"},"vehicle_type_id":"4","last_reported":1784826454,"current_range_meters":2800,"station_id":"","pricing_plan_id":"cebpf4jnsgd1na2vs0mg"},{"bike_id":"6e9e9ca9-d6e6-44c9-aa41-c12f8260cff6","system_id":"levelo_inurba_marseille","lat":43.23969,"lon":5.36632,"is_reserved":false,"is_disabled":false,"rental_uris":{"android":"levelo://app?vid=6e9e9ca9-d6e6-44c9-aa41-c12f8260cff6","ios":"levelo://app?vid=6e9e9ca9-d6e6-44c9-aa41-c12f8260cff6"},"vehicle_type_id":"4","last_reported":1784826454,"current_range_meters":38000,"station_id":"ce4bhi12rcd13ifvqfp0","pricing_plan_id":"cebpf4jnsgd1na2vs0mg"},{"bike_id":"ed6b89c7-0c2b-4414-becc-2540ddf72a49","system_id":"levelo_inurba_marseille","lat":43.28933,"lon":5.36708,"is_reserved":false,"is_disabled":false,"rental_uris":{"android":"levelo://app?vid=ed6b89c7-0c2b-4414-becc-2540ddf72a49","ios":"levelo://app?vid=ed6b89c7-0c2b-4414-becc-2540ddf72a49"},