{"last_updated":1741799360,"ttl":60,"version":"2.2","data":{"bikes":[{"bike_id":"49b36329-826b-4087-9ae7-9a6b3a36291e","system_id":"levelo_inurba_marseille","lat":43.25869,"lon":5.39901,"is_reserved":false,"is_disabled":true,"rental_uris":{"android":"levelo://app?vid=49b36329-826b-4087-9ae7-9a6b3a36291e","ios":"levelo://app?vid=49b36329-826b-4087-9ae7-9a6b3a36291e"},"vehicle_type_id":"4","last_reported":1741799360,"current_range_meters":2800,"station_id":"ce4bhl92rcd13ifvqghg","pricing_plan_id":"cebpf4jnsgd1na2vs0mg"},{"bike_id":"5d237f54-1222-42f0-9cf9-d3b3f5cce44c","system_id":"levelo_inurba_marseille","lat":43.27325,"lon":5.39073,"is_reserved":false,"is_disabled":false,"rental_uris":{"android":"levelo://app?vid=5d237f54-1222-42f0-9cf9-d3b3f5cce44c","ios":"levelo://app?vid=5d237f54-1222-42f0-9cf9-d3b3f5cce44c"},"vehicle_type_id":"4","last_reported":1741799360,"current_range_meters":2800,"station_id":"ce4bhgp2rcd13ifvqfe0","pricing_plan_id":"cebpf4jnsgd1na2vs0mg"},{"bike_id":"7ce79d03-a550-48d9-981a-18b10a96a6c8","system_id":"levelo_inurba_marseille","lat":43.28672,"lon":5.3635,"is_reserved":false,"is_disabled":false,"rental_uris":{"android":"levelo://app?vid=7ce79d03-a550-48d9-981a-18b10a96a6c8","ios":"levelo://app?vid=7ce79d03-a550-48d9-981a-18b10a96a6c8"},"vehicle_type_id":"4","last_reported":1741799360,"current_range_meters":2800,"station_id":"ce4bhah2rcd13ifvqej0","pricing_plan_id":"cebpf4jnsgd1na2vs0mg"},{"bike_id":"3a9c5629-5290-408f-8fd7-296cf0bf4f00","system_id":"levelo_inurba_marseille","lat":43.284271,"lon":5.37518,"is_reserved":false,"is_disabled":false,"rental_uris":{"android":"levelo://app?vid=3a9c5629-5290-408f-8fd7-296cf0bf4f00","ios":"levelo://app?vid=3a9c5629-5290-408f-8fd7-296cf0bf4f00"},"vehicle_type_id":"4","last_reported":1741799360,"current_range_meters":2800,"station_id":"ce4bh412rcd13ifvqds0","pricing_plan_id":"cebpf4jnsgd1na2vs0mg"},{"bike_id":"d0e82441-1b9e-4701-8257-5c092287c645","system_id":"levelo_inurba_marseille","lat":43.28849,"lon":5.39298,"is_reserved":false,"is_disabled":false,"rental_uris":{"android":"levelo://app?vid=d0e82441-1b9e-4701-8257-5c092287c645","ios":"levelo://app?vid=d0e82441-1b9e-4701-8257-5c092287c645"},"vehicle_type_id":"4","last_reported":1741799360,"current_range_meters":2800,"station_id":"ce4bh2p2rcd13ifvqdi0","pricing_plan_id":"cebpf4jnsgd1na2vs0mg"},{"bike_id":"f92fc3e3-b71c-4831-8a27-a79b4b4b8065","system_id":"levelo_inurba_marseille","lat":43.27994,"lon":5.40004,"is_reserved":false,"is_disabled":false,"rental_uris":{"android":"levelo://app?vid=f92fc3e3-b71c-4831-8a27-a79b4b4b8065","ios":"levelo://app?vid=f92fc3e3-b71c-4831-8a27-a79b4b4b8065"},"vehicle_type_id":"4","last_reported":1741799360,"current_range_meters":2800,"station_id":"ce4bho92rcd13ifvqh4g","pricing_plan_id":"cebpf4jnsgd1na2vs0mg"},{"bike_id":"4c084d6f-cfb2-47a5-9650-69125ccb442e","system_id":"levelo_inurba_marseille","lat":43.26204,"lon":5.37921,"is_reserved":false,"is_disabled":true,"rental_uris":{"android":"levelo://app?vid=4c084d6f-cfb2-47a5-9650-69125ccb442e","ios":"levelo://app?vid=4c084d6f-cfb2-47a5-9650-69125ccb442e"},"vehicle_type_id":"4","last_reported":1741799360,"current_range_meters":3200,"station_id":"ce4bhjp2rcd13ifvqg90","pricing_plan_id":"cebpf4jnsgd1na2vs0mg"},{"bike_id":"74a50071-34de-466d-a50f-cf6f9c231f15","system_id":"levelo_inurba_marseille","lat":43.31365,"lon":5.38497,"is_reserved":false,"is_disabled":false,"rental_uris":{"android":"levelo://app?vid=74a50071-34de-466d-a50f-cf6f9c231f15","ios":"levelo://app?vid=74a50071-34de-466d-a50f-cf6f9c231f15"},"vehicle_type_id":"4","last_reported":1741799360,"current_range_meters":3200,"station_id":"ce4bgt92rcd13ifvqcf0","pricing_plan_id":"cebpf4jnsgd1na2vs0mg"},{"bike_id":"bf4e1181-2766-43b2-b067-602b1b4c5598","system_id":"levelo_inurba_marseille","lat":43.27991,"lon":5.41662,"is_reserved":false,"is_disabled":false,"rental_uris":{"android":"levelo://app?vid=bf4e1181-2766-43b2-b067-602b1b4c5598","ios":"levelo://app?vid=bf4e1181-2766-43b2-b067-602b1b4c5598"},"vehicle_type_id":"4","last_reported":1741799360,"current_range_meters":3200,"station_id":"ce4bho12rcd13ifvqh1g","pricing_plan_id":"cebpf4jnsgd1na2vs0mg"},{"bike_id":"d645efab-162b-4db0-a473-ababd918dc60","system_id":"levelo_inurba_marseille","lat":43.29898,"lon":5.43676,"is_reserved":false,"is_disabled":false,"rental_uris":{"android":"levelo://app?vid=d645efab-162b-4db0-a473-ababd918dc60","ios":"levelo://app?vid=d645efab-162b-4db0-a473-ababd918dc60"},"vehicle_type_id":"4","last_reported":1741799360,"current_range_meters":3200,"station_id":"ce4bhpp2rcd13ifvqhfg","pricing_plan_id":"cebpf4jnsgd1na2vs0mg"},{"bike_id":"4184e111-9c78-4a5b-acf6-e6023a3e17a9","system_id":"levelo_inurba_marseille","lat":43.23059,"lon":5.35505,"is_reserved":false,"is_disabled":false,"rental_uris":{"android":"levelo://app?vid=4184e111-9c78-4a5b-acf6-e6023a3e17a9","ios":"levelo://app?vid=4184e111-9c78-4a5b-acf6-e6023a3e17a9"},"vehicle_type_id":"4","last_reported":1741799360,"current_range_meters":3200,"station_id":"cpo3342slgdg3j2ifvpg","pricing_plan_id":"cebpf4jnsgd1na2vs0mg"},{"bike_id":"a3fdc806-1f08-42d5-86ba-6953b63afcdf","system_id":"levelo_inurba_marseille","lat":43.30431,"lon":5.38883,"is_reserved":false,"is_disabled":false,"rental_uris":{"android":"levelo://app?vid=a3fdc806-1f08-42d5-86ba-6953b63afcdf","ios":"levelo://app?vid=a3fdc806-1f08-42d5-86ba-6953b63afcdf"},"vehicle_type_id":"4","last_reported":1741799360,"current_range_meters":3200,"station_id":"ce4bgk12rcd13ifvqbi0","pricing_plan_id":"cebpf4jnsgd1na2vs0mg"},{"bike_id":"ba6a78d8-2dcb-4f16-983c-c4a73ce1e549","system_id":"levelo_inurba_marseille","lat":43.2892,"lon":5.38398,"is_reserved":false,"is_disabled":false,"rental_uris":{"android":"levelo://app?vid=ba6a78d8-2dcb-4f16-983c-c4a73ce1e549","ios":"levelo://app?vid=ba6a78d8-2dcb-4f16-983c-c4a73ce1e549"},"vehicle_type_id":"4","last_reported":1741799360,"current_range_meters":3200,"station_id":"ce4bh612rcd13ifvqe6g","pricing_plan_id":"cebpf4jnsgd1na2vs0mg"},{"bike_id":"c47abed3-463e-4702-b23e-85563cf7923d","system_id":"levelo_inurba_marseille","lat":43.31128,"lon":5.42423,"is_reserved":false,"is_disabled":false,"rental_uris":{"android":"levelo://app?vid=c47abed3-463e-4702-b23e-85563cf7923d","ios":"levelo://app?vid=c47abed3-463e-4702-b23e-85563cf7923d"},"vehicle_type_id":"4","last_reported":1741799360,"current_range_meters":3600,"station_id":"ce4bhp92rcd13ifvqhag","pricing_plan_id":"cebpf4jnsgd1na2vs0mg"},{"bike_id":"21c763d3-ed9d-428d-8a01-ae3af6de39fb","system_id":"levelo_inurba_marseille","lat":43.33061,"lon":5.41205,"is_reserved":false,"is_disabled":false,"rental_uris":{"android":"levelo://app?vid=21c763d3-ed9d-428d-8a01-ae3af6de39fb","ios":"levelo://app?vid=21c763d3-ed9d-428d-8a01-ae3af6de39fb"},"vehicle_type_id":"4","last_reported":1741799360,"current_range_meters":3600,"station_id":"ce4bhr92rcd13ifvqhrg","pricing_plan_id":"cebpf4jnsgd1na2vs0mg"},{"bike_id":"d5c6aead-0b4b-49f9-954e-22cf9b9962ba","system_id":"levelo_inurba_marseille","lat":43.31708,"lon":5.37745,"is_reserved":false,"is_disabled":false,"rental_uris":{"android":"levelo://app?vid=d5c6aead-0b4b-49f9-954e-22cf9b9962ba","ios":"levelo://app?vid=d5c6aead-0b4b-49f9-954e-22cf9b9962ba"},"vehicle_type_id":"4","last_reported":1741799360,"current_range_meters":3600,"station_id":"ce4bgth2rcd13ifvqch0","pricing_plan_id":"cebpf4jnsgd1na2vs0mg"},{"bike_id":"2d53a75d-876d-46ef-b452-e895eb247b89","system_id":"levelo_inurba_marseille","lat":43.302158,"lon":5.394691,"is_reserved":false,"is_disabled":false,"rental_uris":{"android":"levelo://app?vid=2d53a75d-876d-46ef-b452-e895eb247b89","ios":"levelo://app?vid=2d53a75d-876d-46ef-b452-e895eb247b89"},"vehicle_type_id":"4","last_reported":1741799360,"current_range_meters":3600,"station_id":"ce4bh0p2rcd13ifvqd70","pricing_plan_id":"cebpf4jnsgd1na2vs0mg"},{"bike_id":"bf2feb02-4272-4476-92f9-9420844c4078","system_id":"levelo_inurba_marseille","lat":43.31193,"lon":5.37749,"is_reserved":false,"is_disabled":false,"rental_uris":{"android":"levelo://app?vid=bf2feb02-4272-4476-92f9-9420844c4078","ios":"levelo://app?vid=bf2feb02-4272-4476-92f9-9420844c4078"},"vehicle_type_id":"4","last_reported":1741799360,"current_range_meters":3600,"station_id":"","pricing_plan_id":"cebpf4jnsgd1na2vs0mg"},{"bike_id":"1380f1a2-ccb3-4876-90b8-cf04ddf97c46","system_id":"levelo_inurba_marseille","lat":43.29233,"lon":5.3606,"is_reserved":false,"is_disabled":false,"rental_uris":{"android":"levelo://app?vid=1380f1a2-ccb3-4876-90b8-cf04ddf97c46","ios":"levelo://app?vid=1380f1a2-ccb3-4876-90b8-cf04ddf97c46"},"vehicle_type_id":"4","last_reported":1741799360,"current_range_meters":4000,"station_id":"ce4bhbh2rcd13ifvqeqg","pricing_plan_id":"cebpf4jnsgd1na2vs0mg"},{"bike_id":"ae4bd4ea-b5b5-435e-928c-c46718c2ab73","system_id":"levelo_inurba_marseille","lat":43.28411,"lon":5.37516,"is_reserved":false,"is_disabled":false,"rental_uris":{"android":"levelo://app?vid=ae4bd4ea-b5b5-435e-928c-c46718c2ab73","ios":"levelo://app?vid=ae4bd4ea-b5b5-435e-928c-c46718c2ab73"},"vehicle_type_id":"4","last_reported":1741799360,"current_range_meters":4000,"station_id":"ce4bh412rcd13ifvqds0","pricing_plan_id":"cebpf4jnsgd1na2vs0mg"},{"bike_id":"62d24b2a-7c9e-4c32-b913-1f5021808085","system_id":"levelo_inurba_marseille","lat":43.26787,"lon":5.39414,"is_reserved":false,"is_disabled":false,"rental_uris":{"android":"levelo://app?vid=62d24b2a-7c9e-4c32-b913-1f5021808085","ios":"levelo://app?vid=62d24b2a-7c9e-4c32-b913-1f5021808085"},"vehicle_type_id":"4","last_reported":1741799360,"current_range_meters":4000,"station_id":"ce4bhh12rcd13ifvqfg0","pricing_plan_id":"cebpf4jnsgd1na2vs0mg"},{"bike_id":"aa4f5b7c-589b-45cd-9e36-6edca26d21f4","system_id":"levelo_inurba_marseille","lat":43.28092,"lon":5.36773,"is_reserved":false,"is_disabled":false,"rental_uris":{"android":"levelo://app?vid=aa4f5b7c-589b-45cd-9e36-6edca26d21f4","ios":"levelo://app?vid=aa4f5b7c-589b-45cd-9e36-6edca26d21f4"},"vehicle_type_id":"4","last_reported":1741799360,"current_range_meters":4000,"station_id":"ce4bha12rcd13ifvqef0","pricing_plan_id":"cebpf4jnsgd1na2vs0mg"},{"bike_id":"c4df4535-7d31-495a-82fb-c042b3676ebe","system_id":"levelo_inurba_marseille","lat":43.32338,"lon":5.40621,"is_reserved":false,"is_disabled":false,"rental_uris":{"android":"levelo://app?vid=c4df4535-7d31-495a-82fb-c042b3676ebe","ios":"levelo://app?vid=c4df4535-7d31-495a-82fb-c042b3676ebe"},"vehicle_type_id":"4","last_reported":1741799360,"current_range_meters":4000,"station_id":"ce4bhq92rcd13ifvqhjg","pricing_plan_id":"cebpf4jnsgd1na2vs0mg"},{"bike_id":"8d148f9c-d435-4123-bd0e-8d7ebd73846f","system_id":"levelo_inurba_marseille","lat":43.27056,"lon":5.40257,"is_reserved":false,"is_disabled":true,"rental_uris":{"android":"levelo://app?vid=8d148f9c-d435-4123-bd0e-8d7ebd73846f","ios":"levelo://app?vid=8d148f9c-d435-4123-bd0e-8d7ebd73846f"},"vehicle_type_id":"4","last_reported":1741799360,"current_range_meters":4000,"station_id":"ce4bhk92rcd13ifvqgc0","pricing_plan_id":"cebpf4jnsgd1na2vs0mg"},{"bike_id":"5e00f0ce-9a99-4ea9-b598-54a5c3de7c83","system_id":"levelo_inurba_marseille","lat":43.28003,"lon":5.40015,"is_reserved":false,"is_disabled":false,"rental_uris":{"android":"levelo://app?vid=5e00f0ce-9a99-4ea9-b598-54a5c3de7c83","ios":"levelo://app?vid=5e00f0ce-9a99-4ea9-b598-54a5c3de7c83"},"vehicle_type_id":"4","last_reported":1741799360,"current_range_meters":4400,"station_id":"ce4bho92rcd13ifvqh4g","pricing_plan_id":"cebpf4jnsgd1na2vs0mg"},{"bike_id":"205b0c2b-b2d7-463b-ac73-89fbec64313f","system_id":"levelo_inurba_marseille","lat":43.29419,"lon":5.38623,"is_reserved":false,"is_disabled":false,"rental_uris":{"android":"levelo://app?vid=205b0c2b-b2d7-463b-ac73-89fbec64313f","ios":"levelo://app?vid=205b0c2b-b2d7-463b-ac73-89fbec64313f"},"vehicle_type_id":"4","last_reported":1741799360,"current_range_meters":3600,"station_id":"ce4bh2h2rcd13ifvqdh0","pricing_plan_id":"cebpf4jnsgd1na2vs0mg"},{"bike_id":"a5291727-d01e-49ba-aa48-19768eedbfd7","system_id":"levelo_inurba_marseille","lat":43.26562,"lon":5.390027,"is_reserved":false,"is_disabled":true,"rental_uris":{"android":"levelo://app?vid=a5291727-d01e-49ba-aa48-19768eedbfd7","ios":"levelo://app?vid=a5291727-d01e-49ba-aa48-19768eedbfd7"},"vehicle_type_id":"4","last_reported":1741799360,"current_range_meters":4400,"station_id":"ce4bh2h2rcd13ifvqdh0","pricing_plan_id":"cebpf4jnsgd1na2vs0mg"},{"bike_id":"80771939-f406-42f7-81c5-33180fd8a338","system_id":"levelo_inurba_marseille","lat":43.23202,"lon":5.35542,"is_reserved":false,"is_disabled":false,"rental_uris":{"android":"levelo://app?vid=80771939-f406-42f7-81c5-33180fd8a338","ios":"levelo://app?vid=80771939-f406-42f7-81c5-33180fd8a338"},"vehicle_type_id":"4","last_reported":1741799360,"current_range_meters":4400,"station_id":"ce4bhu92rcd13ifvqi70","pricing_plan_id":"cebpf4jnsgd1na2vs0mg"},{"bike_id":"68c0572e-d7cc-45e2-b77d-4cee19422d40","system_id":"levelo_inurba_marseille","lat":43.2842,"lon":5.37515,"is_reserved":false,"is_disabled":false,"rental_uris":{"android":"levelo://app?vid=68c0572e-d7cc-45e2-b77d-4cee19422d40","ios":"levelo://app?vid=68c0572e-d7cc-45e2-b77d-4cee19422d40"},"vehicle_type_id":"4","last_reported":1741799360,"current_range_meters":4400,"station_id":"ce4bh412rcd13ifvqds0","pricing_plan_id":"cebpf4jnsgd1na2vs0mg"},{"bike_id":"ed110e9d-5b50-49d7-8723-510ce3997f8d","system_id":"levelo_inurba_marseille","lat":43.25088,"lon":5.39522,"is_reserved":false,"is_disabled":false,"rental_uris":{"android":"levelo://app?vid=ed110e9d-5b50-49d7-8723-510ce3997f8d","ios":"levelo://app?vid=ed110e9d-5b50-49d7-8723-510ce3997f8d"},"vehicle_type_id":"4","last_reported":1741799360,"current_range_meters":4400,"station_id":"ce4bhm12rcd13ifvqgkg","pricing_plan_id":"cebpf4jnsgd1na2vs0mg"},{"bike_id":"5be62f5c-b4d5-490f-97d7-7d11c616d8af","system_id":"levelo_inurba_marseille","lat":43.23062,"lon":5.35486,"is_reserved":false,"is_disabled":false,"rental_uris":{"android":"levelo://app?vid=5be62f5c-b4d5-490f-97d7-7d11c616d8af","ios":"levelo://app?vid=5be62f5c-b4d5-490f-97d7-7d11c616d8af"},"vehicle_type_id":"4","last_reported":1741799360,"current_range_meters":4400,"station_id":"cpo3342slgdg3j2ifvpg","pricing_plan_id":"cebpf4jnsgd1na2vs0mg"},{"bike_id":"db8f65fc-41bb-487e-b3db-aab3e150f542","system_id":"levelo_inurba_marseille","lat":43.29887,"lon":5.38899,"is_reserved":false,"is_disabled":false,"rental_uris":{"android":"levelo://app?vid=db8f65fc-41bb-487e-b3db-aab3e150f542","ios":"levelo://app?vid=db8f65fc-41bb-487e-b3db-aab3e150f542"},"vehicle_type_id":"4","last_reported":1741799360,"current_range_meters":4800,"station_id":"ce4bh392rcd13ifvqdl0","pricing_plan_id":"cebpf4jnsgd1na2vs0mg"},{"bike_id":"0e561870-01d9-4dd6-bc22-032da9aae42e","system_id":"levelo_inurba_marseille","lat":43.30948,"lon":5.390288,"is_reserved":false,"is_disabled":false,"rental_uris":{"android":"levelo://app?vid=0e561870-01d9-4dd6-bc22-032da9aae42e","ios":"levelo://app?vid=0e561870-01d9-4dd6-bc22-032da9aae42e"},"vehicle_type_id":"4","last_reported":1741799360,"current_range_meters":4800,"station_id":"ce4bgjh2rcd13ifvqbf0","pricing_plan_id":"cebpf4jnsgd1na2vs0mg"},{"bike_id":"ee03fcf9-0509-462c-b001-3783ad845ca0","system_id":"levelo_inurba_marseille","lat":43.28702,"lon":5.374,"is_reserved":false,"is_disabled":false,"rental_uris":{"android":"levelo://app?vid=ee03fcf9-0509-462c-b001-3783ad845ca0","ios":"levelo://app?vid=ee03fcf9-0509-462c-b001-3783ad845ca0"},"vehicle_type_id":"4","last_reported":1741799360,"current_range_meters":4800,"station_id":"ce4bh3p2rcd13ifvqdq0","pricing_plan_id":"cebpf4jnsgd1na2vs0mg"},{"bike_id":"77ba4835-04c8-4ba4-9b92-1587468d51b3","system_id":"levelo_inurba_marseille","lat":43.24547,"lon":5.39524,"is_reserved":false,"is_disabled":false,"rental_uris":{"android":"levelo://app?vid=77ba4835-04c8-4ba4-9b92-1587468d51b3","ios":"levelo://app?vid=77ba4835-04c8-4ba4-9b92-1587468d51b3"},"vehicle_type_id":"4","last_reported":1741799360,"current_range_meters":4800,"station_id":"ce4bhlp2rcd13ifvqgjg","pricing_plan_id":"cebpf4jnsgd1na2vs0mg"},{"bike_id":"2714d703-0653-4f83-9f2f-5d24f5ce775b","system_id":"levelo_inurba_marseille","lat":43.2974,"lon":5.39391,"is_reserved":false,"is_disabled":false,"rental_uris":{"android":"levelo://app?vid=2714d703-0653-4f83-9f2f-5d24f5ce775b","ios":"levelo://app?vid=2714d703-0653-4f83-9f2f-5d24f5ce775b"},"vehicle_type_id":"4","last_reported":1741799360,"current_range_meters":4800,"station_id":"","pricing_plan_id":"cebpf4jnsgd1na2vs0mg"},{"bike_id":"2a39b02c-4f6a-4f35-af2e-e9fb7ada9487","system_id":"levelo_inurba_marseille","lat":43.2795,"lon":5.41047,"is_reserved":false,"is_disabled":false,"rental_uris":{"android":"levelo://app?vid=2a39b02c-4f6a-4f35-af2e-e9fb7ada9487","ios":"levelo://app?vid=2a39b02c-4f6a-4f35-af2e-e9fb7ada9487"},"vehicle_type_id":"4","last_reported":1741799360,"current_range_meters":4800,"station_id":"ce4bhnp2rcd13ifvqh0g","pricing_plan_id":"cebpf4jnsgd1na2vs0mg"},{"bike_id":"fb4a5fa2-8492-49e2-9c13-a80cbc8c33ee","system_id":"levelo_inurba_marseille","lat":43.30883,"lon":5.37196,"is_reserved":false,"is_disabled":false,"rental_uris":{"android":"levelo://app?vid=fb4a5fa2-8492-49e2-9c13-a80cbc8c33ee","ios":"levelo://app?vid=fb4a5fa2-8492-49e2-9c13-a80cbc8c33ee"},"vehicle_type_id":"4","last_reported":1741799360,"current_range_meters":4800,"station_id":"ce4bguh2rcd13ifvqckg","pricing_plan_id":"cebpf4jnsgd1na2vs0mg"},{"bike_id":"45d8d7b0-29eb-4eaf-9ec9-00efd0738f1e","system_id":"levelo_inurba_marseille","lat":43.31234,"lon":5.37473,"is_reserved":false,"is_disabled":false,"rental_uris":{"android":"levelo://app?vid=45d8d7b0-29eb-4eaf-9ec9-00efd0738f1e","ios":"levelo://app?vid=45d8d7b0-29eb-4eaf-9ec9-00efd0738f1e"},"vehicle_type_id":"4","last_reported":1741799360,"current_range_meters":4800,"station_id":"","pricing_plan_id":"cebpf4jnsgd1na2vs0mg"},{"bike_id":"e7e9663e-9874-419f-b148-32e275b808f7","system_id":"levelo_inurba_marseille","lat":43.28357,"lon":5.38642,"is_reserved":false,"is_disabled":false,"rental_uris":{"android":"levelo://app?vid=e7e9663e-9874-419f-b148-32e275b808f7","ios":"levelo://app?vid=e7e9663e-9874-419f-b148-32e275b808f7"},"vehicle_type_id":"4","last_reported":1741799360,"current_range_meters":5600,"station_id":"ce4bh492rcd13ifvqdvg","pricing_plan_id":"cebpf4jnsgd1na2vs0mg"},{"bike_id":"b1d059b1-3a5e-4931-aeaa-813397635fb3","system_id":"levelo_inurba_marseille","lat":43.29913,"lon":5.3815,"is_reserved":false,"is_disabled":false,"rental_uris":{"android":"levelo://app?vid=b1d059b1-3a5e-4931-aeaa-813397635fb3","ios":"levelo://app?vid=b1d059b1-3a5e-4931-aeaa-813397635fb3"},"vehicle_type_id":"4","last_reported":1741799360,"current_range_meters":5600,"station_id":"ce4bgj12rcd13ifvqbc0","pricing_plan_id":"cebpf4jnsgd1na2vs0mg"},{"bike_id":"fe56af25-4073-45f2-8cc0-389908b12584","system_id":"levelo_inurba_marseille","lat":43.25813,"lon":5.39431,"is_reserved":false,"is_disabled":false,"rental_uris":{"android":"levelo://app?vid=fe56af25-4073-45f2-8cc0-389908b12584","ios":"levelo://app?vid=fe56af25-4073-45f2-8cc0-389908b12584"},"vehicle_type_id":"4","last_reported":1741799360,"current_range_meters":5600,"station_id":"ce4bhip2rcd13ifvqft0","pricing_plan_id":"cebpf4jnsgd1na2vs0mg"},{"bike_id":"538a1d95-759c-4b0e-9a54-fa2aa4fef5d2","system_id":"levelo_inurba_marseille","lat":43.28408,"lon":5.37514,"is_reserved":false,"is_disabled":false,"rental_uris":{"android":"levelo://app?vid=538a1d95-759c-4b0e-9a54-fa2aa4fef5d2","ios":"levelo://app?vid=538a1d95-759c-4b0e-9a54-fa2aa4fef5d2"},"vehicle_type_id":"4","last_reported":1741799360,"current_range_meters":5600,"station_id":"ce4bh412rcd13ifvqds0","pricing_plan_id":"cebpf4jnsgd1na2vs0mg"},{"bike_id":"b3b87586-7f4e-4030-ba10-b7ebbf078b8d","system_id":"levelo_inurba_marseille","lat":43.2871,"lon":5.3792,"is_reserved":false,"is_disabled":false,"rental_uris":{"android":"levelo://app?vid=b3b87586-7f4e-4030-ba10-b7ebbf078b8d","ios":"levelo://app?vid=b3b87586-7f4e-4030-ba10-b7ebbf078b8d"},"vehicle_type_id":"4","last_reported":1741799360,"current_range_meters":5600,"station_id":"ce4bh9p2rcd13ifvqec0","pricing_plan_id":"cebpf4jnsgd1na2vs0mg"},{"bike_id":"e83fe258-c109-4362-a4e8-292a18525663","system_id":"levelo_inurba_marseille","lat":43.29198,"lon":5.39317,"is_reserved":false,"is_disabled":false,"rental_uris":{"android":"levelo://app?vid=e83fe258-c109-4362-a4e8-292a18525663","ios":"levelo://app?vid=e83fe258-c109-4362-a4e8-292a18525663"},"vehicle_type_id":"4","last_reported":1741799360,"current_range_meters":5600,"station_id":"ce4bh192rcd13ifvqdd0","pricing_plan_id":"cebpf4jnsgd1na2vs0mg"},{"bike_id":"4db736b9-68d3-4f2a-9431-002ce7a44183","system_id":"levelo_inurba_marseille","lat":43.23156,"lon":5.43704,"is_reserved":false,"is_disabled":false,"rental_uris":{"android":"levelo://app?vid=4db736b9-68d3-4f2a-9431-002ce7a44183","ios":"levelo://app?vid=4db736b9-68d3-4f2a-9431-002ce7a44183"},"vehicle_type_id":"4","last_reported":1741799360,"current_range_meters":5600,"station_id":"ce4bhmp2rcd13ifvqgog","pricing_plan_id":"cebpf4jnsgd1na2vs0mg"},{"bike_id":"7897ed63-4f21-4db4-b932-6ec1073d9ede","system_id":"levelo_inurba_marseille","lat":43.25008,"lon":5.38947,"is_reserved":false,"is_disabled":false,"rental_uris":{"android":"levelo://app?vid=7897ed63-4f21-4db4-b932-6ec1073d9ede","ios":"levelo://app?vid=7897ed63-4f21-4db4-b932-6ec1073d9ede"},"vehicle_type_id":"4","last_reported":1741799360,"current_range_meters":6000,"station_id":"ce4bhgp2rcd13ifvqfd0","pricing_plan_id":"cebpf4jnsgd1na2vs0mg"},{"bike_id":"fab5d3a8-c10a-4e69-8360-d850cc9f0881","system_id":"levelo_inurba_marseille","lat":43.33171,"lon":5.3945,"is_reserved":false,"is_disabled":false,"rental_uris":{"android":"levelo://app?vid=fab5d3a8-c10a-4e69-8360-d850cc9f0881","ios":"levelo://app?vid=fab5d3a8-c10a-4e69-8360-d850cc9f0881"},"vehicle_type_id":"4","last_reported":1741799360,"current_range_meters":6000,"station_id":"","pricing_plan_id":"cebpf4jnsgd1na2vs0mg"},{"bike_id":"58d1b5b3-d322-4418-97d0-3066ec3d9afc","system_id":"levelo_inurba_marseille","lat":43.23197,"lon":5.3555,"is_reserved":false,"is_disabled":false,"rental_uris":{"android":"levelo://app?vid=58d1b5b3-d322-4418-97d0-3066ec3d9afc","ios":"levelo://app?vid=58d1b5b3-d322-4418-97d0-3066ec3d9afc"},"vehicle_type_id":"4","last_reported":1741799360,"current_range_meters":6000,"station_id":"ce4bhu92rcd13ifvqi70","pricing_plan_id":"cebpf4jnsgd1na2vs0mg"},{"bike_id":"b9680ac6-d12e-4a12-9dd8-1396db5e067b","system_id":"levelo_inurba_marseille","lat":43.23154,"lon":5.43699,"is_reserved":false,"is_disabled":false,"rental_uris":{"android":"levelo://app?vid=b9680ac6-d12e-4a12-9dd8-1396db5e067b","ios":"levelo://app?vid=b9680ac6-d12e-4a12-9dd8-1396db5e067b"},"vehicle_type_id":"4","last_reported":1741799360,"current_range_meters":6400,"station_id":"ce4bhmp2rcd13ifvqgog","pricing_plan_id":"cebpf4jnsgd1na2vs0mg"},{"bike_id":"20869459-079c-43f0-86c9-6c13857ce746","system_id":"levelo_inurba_marseille","lat":43.24806,"lon":5.37455,"is_reserved":false,"is_disabled":false,"rental_uris":{"android":"levelo://app?vid=20869459-079c-43f0-86c9-6c13857ce746","ios":"levelo://app?vid=20869459-079c-43f0-86c9-6c13857ce746"},"vehicle_type_id":"4","last_reported":1741799360,"current_range_meters":6400,"station_id":"ce4bhgh2rcd13ifvqfb0","pricing_plan_id":"cebpf4jnsgd1na2vs0mg"},{"bike_id":"618989ce-2f96-451f-923d-7bd2a5b2e425","system_id":"levelo_inurba_marseille","lat":43.284637,"lon":5.384077,"is_reserved":false,"is_disabled":false,"rental_uris":{"android":"levelo://app?vid=618989ce-2f96-451f-923d-7bd2a5b2e425","ios":"levelo://app?vid=618989ce-2f96-451f-923d-7bd2a5b2e425"},"vehicle_type_id":"4","last_reported":1741799360,"current_range_meters":6800,"station_id":"ce4bh292rcd13ifvqdg0","pricing_plan_id":"cebpf4jnsgd1na2vs0mg"},{"bike_id":"7c25226e-9ca8-4a5f-af3f-246f6b1df853","system_id":"levelo_inurba_marseille","lat":43.23059,"lon":5.3549,"is_reserved":false,"is_disabled":false,"rental_uris":{"android":"levelo://app?vid=7c25226e-9ca8-4a5f-af3f-246f6b1df853","ios":"levelo://app?vid=7c25226e-9ca8-4a5f-af3f-246f6b1df853"},"vehicle_type_id":"4","last_reported":1741799360,"current_range_meters":6400,"station_id":"cpo3342slgdg3j2ifvpg","pricing_plan_id":"cebpf4jnsgd1na2vs0mg"},{"bike_id":"4cd8b4c9-a836-44a4-80f2-08f9cfad5843","system_id":"levelo_inurba_marseille","lat":43.26034,"lon":5.37548,"is_reserved":false,"is_disabled":false,"rental_uris":{"android":"levelo://app?vid=4cd8b4c9-a836-44a4-80f2-08f9cfad5843","ios":"levelo://app?vid=4cd8b4c9-a836-44a4-80f2-08f9cfad5843"},"vehicle_type_id":"4","last_reported":1741799360,"current_range_meters":6400,"station_id":"ce4bhgh2rcd13ifvqfa0","pricing_plan_id":"cebpf4jnsgd1na2vs0mg"},{"bike_id":"c70132ef-3937-4d43-8d24-d612e7122701","system_id":"levelo_inurba_marseille","lat":43.25871,"lon":5.39895,"is_reserved":false,"is_disabled":false,"rental_uris":{"android":"levelo://app?vid=c70132ef-3937-4d43-8d24-d612e7122701","ios":"levelo://app?vid=c70132ef-3937-4d43-8d24-d612e7122701"},"vehicle_type_id":"4","last_reported":1741799360,"current_range_meters":6400,"station_id":"ce4bhl92rcd13ifvqghg","pricing_plan_id":"cebpf4jnsgd1na2vs0mg"},{"bike_id":"733e4645-a103-411b-b794-f228b97d4a6e","system_id":"levelo_inurba_marseille","lat":43.29696,"lon":5.37274,"is_reserved":false,"is_disabled":false,"rental_uris":{"android":"levelo://app?vid=733e4645-a103-411b-b794-f228b97d4a6e","ios":"levelo://app?vid=733e4645-a103-411b-b794-f228b97d4a6e"},"vehicle_type_id":"4","last_reported":1741799360,"current_range_meters":6000,"station_id":"ce4bgk12rcd13ifvqbj0","pricing_plan_id":"cebpf4jnsgd1na2vs0mg"},{"bike_id":"5eef5338-ff8a-466a-999e-0f162b00ff22","system_id":"levelo_inurba_marseille","lat":43.24548,"lon":5.39535,"is_reserved":false,"is_disabled":false,"rental_uris":{"android":"levelo://app?vid=5eef5338-ff8a-466a-999e-0f162b00ff22","ios":"levelo://app?vid=5eef5338-ff8a-466a-999e-0f162b00ff22"},"vehicle_type_id":"4","last_reported":1741799360,"current_range_meters":6400,"station_id":"ce4bhlp2rcd13ifvqgjg","pricing_plan_id":"cebpf4jnsgd1na2vs0mg"},{"bike_id":"ae6d3460-59b8-4aa6-98ba-384f10fbdb4d","system_id":"levelo_inurba_marseille","lat":43.24661,"lon":5.38159,"is_reserved":false,"is_disabled":false,"rental_uris":{"android":"levelo://app?vid=ae6d3460-59b8-4aa6-98ba-384f10fbdb4d","ios":"levelo://app?vid=ae6d3460-59b8-4aa6-98ba-384f10fbdb4d"},"vehicle_type_id":"4","last_reported":1741799360,"current_range_meters":6800,"station_id":"ce4bhih2rcd13ifvqfr0","pricing_plan_id":"cebpf4jnsgd1na2vs0mg"},{"bike_id":"ed9bb56c-a813-41d5-af31-ff8bd72911d4","system_id":"levelo_inurba_marseille","lat":43.29277,"lon":5.40126,"is_reserved":false,"is_disabled":false,"rental_uris":{"android":"levelo://app?vid=ed9bb56c-a813-41d5-af31-ff8bd72911d4","ios":"levelo://app?vid=ed9bb56c-a813-41d5-af31-ff8bd72911d4"},"vehicle_type_id":"4","last_reported":1741799360,"current_range_meters":6800,"station_id":"ce4bh312rcd13ifvqdk0","pricing_plan_id":"cebpf4jnsgd1na2vs0mg"},{"bike_id":"f1c0d483-c580-4378-87bc-d11122fe1b18","system_id":"levelo_inurba_marseille","lat":43.29252,"lon":5.38434,"is_reserved":false,"is_disabled":true,"rental_uris":{"android":"levelo://app?vid=f1c0d483-c580-4378-87bc-d11122fe1b18","ios":"levelo://app?vid=f1c0d483-c580-4378-87bc-d11122fe1b18"},"vehicle_type_id":"4","last_reported":1741799360,"current_range_meters":6800,"station_id":"ce4bh692rcd13ifvqea0","pricing_plan_id":"cebpf4jnsgd1na2vs0mg"},{"bike_id":"bb661417-3631-4f80-a904-3d97965a812e","system_id":"levelo_inurba_marseille","lat":43.293,"lon":5.37455,"is_reserved":false,"is_disabled":false,"rental_uris":{"android":"levelo://app?vid=bb661417-3631-4f80-a904-3d97965a812e","ios":"levelo://app?vid=bb661417-3631-4f80-a904-3d97965a812e"},"vehicle_type_id":"4","last_reported":1741799360,"current_range_meters":6000,"station_id":"ce4bgi12rcd13ifvqb70","pricing_plan_id":"cebpf4jnsgd1na2vs0mg"},{"bike_id":"241d79a7-8164-4ee5-8d3f-2565e2e0b3e8","system_id":"levelo_inurba_marseille","lat":43.31363,"lon":5.37978,"is_reserved":false,"is_disabled":false,"rental_uris":{"android":"levelo://app?vid=241d79a7-8164-4ee5-8d3f-2565e2e0b3e8","ios":"levelo://app?vid=241d79a7-8164-4ee5-8d3f-2565e2e0b3e8"},"vehicle_type_id":"4","last_reported":1741799360,"current_range_meters":6800,"station_id":"","pricing_plan_id":"cebpf4jnsgd1na2vs0mg"},{"bike_id":"9c954ad7-15a8-4842-9312-78ef4af66b5e","system_id":"levelo_inurba_marseille","lat":43.26942,"lon":5.40255,"is_reserved":false,"is_disabled":false,"rental_uris":{"android":"levelo://app?vid=9c954ad7-15a8-4842-9312-78ef4af66b5e","ios":"levelo://app?vid=9c954ad7-15a8-4842-9312-78ef4af66b5e"},"vehicle_type_id":"4","last_reported":1741799360,"current_range_meters":6800,"station_id":"cjm6bp8fraef2m0cb0m0","pricing_plan_id":"cebpf4jnsgd1na2vs0mg"},{"bike_id":"89f5252d-ca6b-4c4a-8924-1e95cb6ec267","system_id":"levelo_inurba_marseille","lat":43.23965,"lon":5.36636,"is_reserved":false,"is_disabled":false,"rental_uris":{"android":"levelo://app?vid=89f5252d-ca6b-4c4a-8924-1e95cb6ec267","ios":"levelo://app?vid=89f5252d-ca6b-4c4a-8924-1e95cb6ec267"},"vehicle_type_id":"4","last_reported":1741799360,"current_range_meters":6800,"station_id":"ce4bhi12rcd13ifvqfp0","pricing_plan_id":"cebpf4jnsgd1na2vs0mg"},{"bike_id":"f94be5ee-396a-41bd-9d40-e9c06943b9d0","system_id":"levelo_inurba_marseille","lat":43.28852,"lon":5.35851,"is_reserved":false,"is_disabled":false,"rental_uris":{"android":"levelo://app?vid=f94be5ee-396a-41bd-9d40-e9c06943b9d0","ios":"levelo://app?vid=f94be5ee-396a-41bd-9d40-e9c06943b9d0"},"vehicle_type_id":"4","last_reported":1741799360,"current_range_meters":6800,"station_id":"ce4bhb12rcd13ifvqem0","pricing_plan_id":"cebpf4jnsgd1na2vs0mg"},{"bike_id":"1bb5dae5-2cdb-43ae-b04c-dad911982ded","system_id":"levelo_inurba_marseille","lat":43.25104,"lon":5.4032,"is_reserved":false,"is_disabled":false,"rental_uris":{"android":"levelo://app?vid=1bb5dae5-2cdb-43ae-b04c-dad911982ded","ios":"levelo://app?vid=1bb5dae5-2cdb-43ae-b04c-dad911982ded"},"vehicle_type_id":"4","last_reported":1741799360,"current_range_meters":6800,"station_id":"ce4bhlh2rcd13ifvqgig","pricing_plan_id":"cebpf4jnsgd1na2vs0mg"},{"bike_id":"548caab8-1d2c-4b84-963b-f8217af52e80","system_id":"levelo_inurba_marseille","lat":43.29031,"lon":5.37541,"is_reserved":false,"is_disabled":true,"rental_uris":{"android":"levelo://app?vid=548caab8-1d2c-4b84-963b-f8217af52e80","ios":"levelo://app?vid=548caab8-1d2c-4b84-963b-f8217af52e80"},"vehicle_type_id":"4","last_reported":1741799360,"current_range_meters":6800,"station_id":"ce4bh692rcd13ifvqe90","pricing_plan_id":"cebpf4jnsgd1na2vs0mg"},{"bike_id":"f640465e-8c9e-425a-8e36-08d8d5201bf6","system_id":"levelo_inurba_marseille","lat":43.23199,"lon":5.3556,"is_reserved":false,"is_disabled":false,"rental_uris":{"android":"levelo://app?vid=f640465e-8c9e-425a-8e36-08d8d5201bf6","ios":"levelo://app?vid=f640465e-8c9e-425a-8e36-08d8d5201bf6"},"vehicle_type_id":"4","last_reported":1741799360,"current_range_meters":6800,"station_id":"ce4bhu92rcd13ifvqi70","pricing_plan_id":"cebpf4jnsgd1na2vs0mg"},{"bike_id":"a26bb94d-a63d-4bfa-8032-83a7b4471386","system_id":"levelo_inurba_marseille","lat":43.27998,"lon":5.41661,"is_reserved":false,"is_disabled":false,"rental_uris":{"android":"levelo://app?vid=a26bb94d-a63d-4bfa-8032-83a7b4471386","ios":"levelo://app?vid=a26bb94d-a63d-4bfa-8032-83a7b4471386"},"vehicle_type_id":"4","last_reported":1741799360,"current_range_meters":6400,"station_id":"ce4bho12rcd13ifvqh1g","pricing_plan_id":"cebpf4jnsgd1na2vs0mg"},{"bike_id":"40a3c76c-cab4-4d36-a550-6db81ab2e241","system_id":"levelo_inurba_marseille","lat":43.29208,"lon":5.36064,"is_reserved":false,"is_disabled":false,"rental_uris":{"android":"levelo://app?vid=40a3c76c-cab4-4d36-a550-6db81ab2e241","ios":"levelo://app?vid=40a3c76c-cab4-4d36-a550-6db81ab2e241"},"vehicle_type_id":"4","last_reported":1741799360,"current_range_meters":6800,"station_id":"ce4bhbh2rcd13ifvqeqg","pricing_plan_id":"cebpf4jnsgd1na2vs0mg"},{"bike_id":"04b9f64a-82fd-4b6d-9cb5-6431e0e2868c","system_id":"levelo_inurba_marseille","lat":43.28153,"lon":5.42648,"is_reserved":false,"is_disabled":false,"rental_uris":{"android":"levelo://app?vid=04b9f64a-82fd-4b6d-9cb5-6431e0e2868c","ios":"levelo://app?vid=04b9f64a-82fd-4b6d-9cb5-6431e0e2868c"},"vehicle_type_id":"4","last_reported":1741799360,"current_range_meters":6800,"station_id":"ce4bhnh2rcd13ifvqgug","pricing_plan_id":"cebpf4jnsgd1na2vs0mg"},{"bike_id":"7f32d2cf-f30f-40ed-8bd7-86730efd469f","system_id":"levelo_inurba_marseille","lat":43.31755,"lon":5.39014,"is_reserved":false,"is_disabled":false,"rental_uris":{"android":"levelo://app?vid=7f32d2cf-f30f-40ed-8bd7-86730efd469f","ios":"levelo://app?vid=7f32d2cf-f30f-40ed-8bd7-86730efd469f"},"vehicle_type_id":"4","last_reported":1741799360,"current_range_meters":7200,"station_id":"ce4bhqp2rcd13ifvqhng","pricing_plan_id":"cebpf4jnsgd1na2vs0mg"},{"bike_id":"7e9b2197-b5e0-42c1-a849-3c0373cda753","system_id":"levelo_inurba_marseille","lat":43.31333,"lon":5.39694,"is_reserved":false,"is_disabled":false,"rental_uris":{"android":"levelo://app?vid=7e9b2197-b5e0-42c1-a849-3c0373cda753","ios":"levelo://app?vid=7e9b2197-b5e0-42c1-a849-3c0373cda753"},"vehicle_type_id":"4","last_reported":1741799360,"current_range_meters":7200,"station_id":"ce4bgvp2rcd13ifvqcu0","pricing_plan_id":"cebpf4jnsgd1na2vs0mg"},{"bike_id":"0413bf20-894d-4a93-a797-b6134ae0d72f","system_id":"levelo_inurba_marseille","lat":43.330223,"lon":5.390463,"is_reserved":false,"is_disabled":false,"rental_uris":{"android":"levelo://app?vid=0413bf20-894d-4a93-a797-b6134ae0d72f","ios":"levelo://app?vid=0413bf20-894d-4a93-a797-b6134ae0d72f"},"vehicle_type_id":"4","last_reported":1741799360,"current_range_meters":7200,"station_id":"ce4bhr92rcd13ifvqhrg","pricing_plan_id":"cebpf4jnsgd1na2vs0mg"},{"bike_id":"d087be54-17fb-47b6-adcc-5d73bcdb1e95","system_id":"levelo_inurba_marseille","lat":43.27177,"lon":5.40989,"is_reserved":false,"is_disabled":false,"rental_uris":{"android":"levelo://app?vid=d087be54-17fb-47b6-adcc-5d73bcdb1e95","ios":"levelo://app?vid=d087be54-17fb-47b6-adcc-5d73bcdb1e95"},"vehicle_type_id":"4","last_reported":1741799360,"current_range_meters":7200,"station_id":"ce4bhl12rcd13ifvqgf0","pricing_plan_id":"cebpf4jnsgd1na2vs0mg"},{"bike_id":"da440fc7-ae9a-4b21-83c8-a8e662a14c16","system_id":"levelo_inurba_marseille","lat":43.25493,"lon":5.3765,"is_reserved":false,"is_disabled":true,"rental_uris":{"android":"levelo://app?vid=da440fc7-ae9a-4b21-83c8-a8e662a14c16","ios":"levelo://app?vid=da440fc7-ae9a-4b21-83c8-a8e662a14c16"},"vehicle_type_id":"4","last_reported":1741799360,"current_range_meters":7200,"station_id":"ce4bhh12rcd13ifvqff0","pricing_plan_id":"cebpf4jnsgd1na2vs0mg"},{"bike_id":"158cfcee-18e0-4604-b111-0f8a759b1676","system_id":"levelo_inurba_marseille","lat":43.31331,"lon":5.39693,"is_reserved":false,"is_disabled":false,"rental_uris":{"android":"levelo://app?vid=158cfcee-18e0-4604-b111-0f8a759b1676","ios":"levelo://app?vid=158cfcee-18e0-4604-b111-0f8a759b1676"},"vehicle_type_id":"4","last_reported":1741799360,"current_range_meters":7200,"station_id":"ce4bgvp2rcd13ifvqcu0","pricing_plan_id":"cebpf4jnsgd1na2vs0mg"},{"bike_id":"8dd79aea-40cd-4b14-bd62-24eb98ee883f","system_id":"levelo_inurba_marseille","lat":43.26354,"lon":5.40147,"is_reserved":false,"is_disabled":false,"rental_uris":{"android":"levelo://app?vid=8dd79aea-40cd-4b14-bd62-24eb98ee883f","ios":"levelo://app?vid=8dd79aea-40cd-4b14-bd62-24eb98ee883f"},"vehicle_type_id":"4","last_reported":1741799360,"current_range_meters":7200,"station_id":"","pricing_plan_id":"cebpf4jnsgd1na2vs0mg"},{"bike_id":"985ba300-542a-4309-8532-765e28bc8981","system_id":"levelo_inurba_marseille","lat":43.3076,"lon":5.36935,"is_reserved":false,"is_disabled":false,"rental_uris":{"android":"levelo://app?vid=985ba300-542a-4309-8532-765e28bc8981","ios":"levelo://app?vid=985ba300-542a-4309-8532-765e28bc8981"},"vehicle_type_id":"4","last_reported":1741799360,"current_range_meters":7200,"station_id":"","pricing_plan_id":"cebpf4jnsgd1na2vs0mg"},{"bike_id":"6dfb60a6-ee54-47d6-8a1a-502799f99ca3","system_id":"levelo_inurba_marseille","lat":43.30028,"lon":5.40939,"is_reserved":false,"is_disabled":false,"rental_uris":{"android":"levelo://app?vid=6dfb60a6-ee54-47d6-8a1a-502799f99ca3","ios":"levelo://app?vid=6dfb60a6-ee54-47d6-8a1a-502799f99ca3"},"vehicle_type_id":"4","last_reported":1741799360,"current_range_meters":7200,"station_id":"","pricing_plan_id":"cebpf4jnsgd1na2vs0mg"},{"bike_id":"95c4f609-4057-4688-9b5c-93c1039e1099","system_id":"levelo_inurba_marseille","lat":43.24542,"lon":5.39539,"is_reserved":false,"is_disabled":false,"rental_uris":{"android":"levelo://app?vid=95c4f609-4057-4688-9b5c-93c1039e1099","ios":"levelo://app?vid=95c4f609-4057-4688-9b5c-93c1039e1099"},"vehicle_type_id":"4","last_reported":1741799360,"current_range_meters":7200,"station_id":"ce4bhlp2rcd13ifvqgjg","pricing_plan_id":"cebpf4jnsgd1na2vs0mg"},{"bike_id":"e92dbeeb-7a8e-43a1-babc-75d7796c1493","system_id":"levelo_inurba_marseille","lat":43.29249,"lon":5.3745,"is_reserved":false,"is_disabled":false,"rental_uris":{"android":"levelo://app?vid=e92dbeeb-7a8e-43a1-babc-75d7796c1493","ios":"levelo://app?vid=e92dbeeb-7a8e-43a1-babc-75d7796c1493"},"vehicle_type_id":"4","last_reported":1741799360,"current_range_meters":8000,"station_id":"ce4bgi12rcd13ifvqb70","pricing_plan_id":"cebpf4jnsgd1na2vs0mg"},{"bike_id":"fb34a484-872c-43ca-87c3-e65731015eb0","system_id":"levelo_inurba_marseille","lat":43.27181,"lon":5.40998,"is_reserved":false,"is_disabled":false,"rental_uris":{"android":"levelo://app?vid=fb34a484-872c-43ca-87c3-e65731015eb0","ios":"levelo://app?vid=fb34a484-872c-43ca-87c3-e65731015eb0"},"vehicle_type_id":"4","last_reported":1741799360,"current_range_meters":8000,"station_id":"ce4bhl12rcd13ifvqgf0","pricing_plan_id":"cebpf4jnsgd1na2vs0mg"},{"bike_id":"13c4d2f2-a7ca-4b5e-a3b4-dd6851043b1e","system_id":"levelo_inurba_marseille","lat":43.30649,"lon":5.40065,"is_reserved":false,"is_disabled":false,"rental_uris":{"android":"levelo://app?vid=13c4d2f2-a7ca-4b5e-a3b4-dd6851043b1e","ios":"levelo://app?vid=13c4d2f2-a7ca-4b5e-a3b4-dd6851043b1e"},"vehicle_type_id":"4","last_reported":1741799360,"current_range_meters":8000,"station_id":"ce4bh112rcd13ifvqda0","pricing_plan_id":"cebpf4jnsgd1na2vs0mg"},{"bike_id":"415e7a31-245d-4ead-9f33-dad092a04302","system_id":"levelo_inurba_marseille","lat":43.230636,"lon":5.354886,"is_reserved":false,"is_disabled":false,"rental_uris":{"android":"levelo://app?vid=415e7a31-245d-4ead-9f33-dad092a04302","ios":"levelo://app?vid=415e7a31-245d-4ead-9f33-dad092a04302"},"vehicle_type_id":"4","last_reported":1741799360,"current_range_meters":8000,"station_id":"cpo3342slgdg3j2ifvpg","pricing_plan_id":"cebpf4jnsgd1na2vs0mg"},{"bike_id":"ed596a7c-cda2-45ef-b25e-62c3bde0748a","system_id":"levelo_inurba_marseille","lat":43.24996,"lon":5.38927,"is_reserved":false,"is_disabled":false,"rental_uris":{"android":"levelo://app?vid=ed596a7c-cda2-45ef-b25e-62c3bde0748a","ios":"levelo://app?vid=ed596a7c-cda2-45ef-b25e-62c3bde0748a"},"vehicle_type_id":"4","last_reported":1741799360,"current_range_meters":8000,"station_id":"ce4bhgp2rcd13ifvqfd0","pricing_plan_id":"cebpf4jnsgd1na2vs0mg"},{"bike_id":"72de4c85-7223-490f-9219-5d9d46436df5","system_id":"levelo_inurba_marseille","lat":43.33185,"lon":5.39458,"is_reserved":false,"is_disabled":false,"rental_uris":{"android":"levelo://app?vid=72de4c85-7223-490f-9219-5d9d46436df5","ios":"levelo://app?vid=72de4c85-7223-490f-9219-5d9d46436df5"},"vehicle_type_id":"4","last_reported":1741799360,"current_range_meters":8000,"station_id":"","pricing_plan_id":"cebpf4jnsgd1na2vs0mg"},{"bike_id":"ee3470b0-a6a9-4f94-b140-463e351648db","system_id":"levelo_inurba_marseille","lat":43.24664,"lon":5.38919,"is_reserved":false,"is_disabled":false,"rental_uris":{"android":"levelo://app?vid=ee3470b0-a6a9-4f94-b140-463e351648db","ios":"levelo://app?vid=ee3470b0-a6a9-4f94-b140-463e351648db"},"vehicle_type_id":"4","last_reported":1741799360,"current_range_meters":8000,"station_id":"ce4bhg12rcd13ifvqf60","pricing_plan_id":"cebpf4jnsgd1na2vs0mg"},{"bike_id":"41bb7b37-947d-4906-8735-a2e496adc2e8","system_id":"levelo_inurba_marseille","lat":43.30264,"lon":5.40092,"is_reserved":false,"is_disabled":false,"rental_uris":{"android":"levelo://app?vid=41bb7b37-947d-4906-8735-a2e496adc2e8","ios":"levelo://app?vid=41bb7b37-947d-4906-8735-a2e496adc2e8"},"vehicle_type_id":"4","last_reported":1741799360,"current_range_meters":8000,"station_id":"ce4bgvh2rcd13ifvqcs0","pricing_plan_id":"cebpf4jnsgd1na2vs0mg"},{"bike_id":"c1d37297-c07c-47a9-a9ed-811ff879c0d8","system_id":"levelo_inurba_marseille","lat":43.26944,"lon":5.4025,"is_reserved":false,"is_disabled":false,"rental_uris":{"android":"levelo://app?vid=c1d37297-c07c-47a9-a9ed-811ff879c0d8","ios":"levelo://app?vid=c1d37297-c07c-47a9-a9ed-811ff879c0d8"},"vehicle_type_id":"4","last_reported":1741799360,"current_range_meters":8000,"station_id":"cjm6bp8fraef2m0cb0m0","pricing_plan_id":"cebpf4jnsgd1na2vs0mg"},{"bike_id":"80160602-9be5-4bff-ab04-8eb5a2c2a942","system_id":"levelo_inurba_marseille","lat":43.25856,"lon":5.39913,"is_reserved":false,"is_disabled":false,"rental_uris":{"android":"levelo://app?vid=80160602-9be5-4bff-ab04-8eb5a2c2a942","ios":"levelo://app?vid=80160602-9be5-4bff-ab04-8eb5a2c2a942"},"vehicle_type_id":"4","last_reported":1741799360,"current_range_meters":8000,"station_id":"ce4bhl92rcd13ifvqghg","pricing_plan_id":"cebpf4jnsgd1na2vs0mg"},{"bike_id":"05388ace-665a-4114-a828-939b708a2589","system_id":"levelo_inurba_marseille","lat":43.2321,"lon":5.3997,"is_reserved":false,"is_disabled":false,"rental_uris":{"android":"levelo://app?vid=05388ace-665a-4114-a828-939b708a2589","ios":"levelo://app?vid=05388ace-665a-4114-a828-939b708a2589"},"vehicle_type_id":"4","last_reported":1741799360,"current_range_meters":8000,"station_id":"ce4bhn12rcd13ifvqgqg","pricing_plan_id":"cebpf4jnsgd1na2vs0mg"},{"bike_id":"e12be538-6dde-4604-98c7-f66a323a5270","system_id":"levelo_inurba_marseille","lat":43.23054,"lon":5.35498,"is_reserved":false,"is_disabled":false,"rental_uris":{"android":"levelo://app?vid=e12be538-6dde-4604-98c7-f66a323a5270","ios":"levelo://app?vid=e12be538-6dde-4604-98c7-f66a323a5270"},"vehicle_type_id":"4","last_reported":1741799360,"current_range_meters":8000,"station_id":"cpo3342slgdg3j2ifvpg","pricing_plan_id":"cebpf4jnsgd1na2vs0mg"},{"bike_id":"feb4b9df-ca5a-441d-8892-405597e7da99","system_id":"levelo_inurba_marseille","lat":43.23059,"lon":5.35495,"is_reserved":false,"is_disabled":false,"rental_uris":{"android":"levelo://app?vid=feb4b9df-ca5a-441d-8892-405597e7da99","ios":"levelo://app?vid=feb4b9df-ca5a-441d-8892-405597e7da99"},"vehicle_type_id":"4","last_reported":1741799360,"current_range_meters":8000,"station_id":"cpo3342slgdg3j2ifvpg","pricing_plan_id":"cebpf4jnsgd1na2vs0mg"},{"bike_id":"20719e7d-e656-4d2f-a019-3cbf98c17c5e","system_id":"levelo_inurba_marseille","lat":43.28617,"lon":5.35101,"is_reserved":false,"is_disabled":false,"rental_uris":{"android":"levelo://app?vid=20719e7d-e656-4d2f-a019-3cbf98c17c5e","ios":"levelo://app?vid=20719e7d-e656-4d2f-a019-3cbf98c17c5e"},"vehicle_type_id":"4","last_reported":1741799360,"current_range_meters":8400,"station_id":"ce4bhch2rcd13ifvqeug","pricing_plan_id":"cebpf4jnsgd1na2vs0mg"},{"bike_id":"86f9f19c-681c-4714-b59d-f5798e2ac606","system_id":"levelo_inurba_marseille","lat":43.27184,"lon":5.40983,"is_reserved":false,"is_disabled":false,"rental_uris":{"android":"levelo://app?vid=86f9f19c-681c-4714-b59d-f5798e2ac606","ios":"levelo://app?vid=86f9f19c-681c-4714-b59d-f5798e2ac606"},"vehicle_type_id":"4","last_reported":1741799360,"current_range_meters":8400,"station_id":"ce4bhl12rcd13ifvqgf0","pricing_plan_id":"cebpf4jnsgd1na2vs0mg"},{"bike_id":"3be69007-9937-4482-98f0-896829ae51f1","system_id":"levelo_inurba_marseille","lat":43.27952,"lon":5.41048,"is_reserved":false,"is_disabled":false,"rental_uris":{"android":"levelo://app?vid=3be69007-9937-4482-98f0-896829ae51f1","ios":"levelo://app?vid=3be69007-9937-4482-98f0-896829ae51f1"},"vehicle_type_id":"4","last_reported":1741799360,"current_range_meters":8400,"station_id":"ce4bhnp2rcd13ifvqh0g","pricing_plan_id":"cebpf4jnsgd1na2vs0mg"},{"bike_id":"0d070053-bc57-4e19-a79e-34eca658d0c8","system_id":"levelo_inurba_marseille","lat":43.29271,"lon":5.36844,"is_reserved":false,"is_disabled":false,"rental_uris":{"android":"levelo://app?vid=0d070053-bc57-4e19-a79e-34eca658d0c8","ios":"levelo://app?vid=0d070053-bc57-4e19-a79e-34eca658d0c8"},"vehicle_type_id":"4","last_reported":1741799360,"current_range_meters":8400,"station_id":"ce4bhbp2rcd13ifvqesg","pricing_plan_id":"cebpf4jnsgd1na2vs0mg"},{"bike_id":"c1883f69-20d3-4090-b7ad-cadabe4aa4fd","system_id":"levelo_inurba_marseille","lat":43.25873,"lon":5.39903,"is_reserved":false,"is_disabled":false,"rental_uris":{"android":"levelo://app?vid=c1883f69-20d3-4090-b7ad-cadabe4aa4fd","ios":"levelo://app?vid=c1883f69-20d3-4090-b7ad-cadabe4aa4fd"},"vehicle_type_id":"4","last_reported":1741799360,"current_range_meters":8400,"station_id":"ce4bhl92rcd13ifvqghg","pricing_plan_id":"cebpf4jnsgd1na2vs0mg"},{"bike_id":"877911c3-20d5-4ead-9610-01cd657bdd4c","system_id":"levelo_inurba_marseille","lat":43.2945,"lon":5.39744,"is_reserved":false,"is_disabled":false,"rental_uris":{"android":"levelo://app?vid=877911c3-20d5-4ead-9610-01cd657bdd4c","ios":"levelo://app?vid=877911c3-20d5-4ead-9610-01cd657bdd4c"},"vehicle_type_id":"4","last_reported":1741799360,"current_range_meters":8800,"station_id":"ce4bh3h2rcd13ifvqdo0","pricing_plan_id":"cebpf4jnsgd1na2vs0mg"},{"bike_id":"8af925cc-02c8-4bb7-b4d3-96bc7ffa7398","system_id":"levelo_inurba_marseille","lat":43.26063,"lon":5.39398,"is_reserved":false,"is_disabled":false,"rental_uris":{"android":"levelo://app?vid=8af925cc-02c8-4bb7-b4d3-96bc7ffa7398","ios":"levelo://app?vid=8af925cc-02c8-4bb7-b4d3-96bc7ffa7398"},"vehicle_type_id":"4","last_reported":1741799360,"current_range_meters":8800,"station_id":"ce4bhh92rcd13ifvqfj0","pricing_plan_id":"cebpf4jnsgd1na2vs0mg"},{"bike_id":"de199535-7e09-4fc2-9769-872184cb305e","system_id":"levelo_inurba_marseille","lat":43.275738,"lon":5.38427,"is_reserved":false,"is_disabled":false,"rental_uris":{"android":"levelo://app?vid=de199535-7e09-4fc2-9769-872184cb305e","ios":"levelo://app?vid=de199535-7e09-4fc2-9769-872184cb305e"},"vehicle_type_id":"4","last_reported":1741799360,"current_range_meters":8800,"station_id":"ce4bh3p2rcd13ifvqdq0","pricing_plan_id":"cebpf4jnsgd1na2vs0mg"},{"bike_id":"2931d81f-abb3-45b8-9224-dc3fce2fae31","system_id":"levelo_inurba_marseille","lat":43.32386,"lon":5.36726,"is_reserved":false,"is_disabled":false,"rental_uris":{"android":"levelo://app?vid=2931d81f-abb3-45b8-9224-dc3fce2fae31","ios":"levelo://app?vid=2931d81f-abb3-45b8-9224-dc3fce2fae31"},"vehicle_type_id":"4","last_reported":1741799360,"current_range_meters":8800,"station_id":"ce4bhsh2rcd13ifvqi2g","pricing_plan_id":"cebpf4jnsgd1na2vs0mg"},{"bike_id":"9b9a2ee3-efd2-44e9-97ae-9a4b19ec3ff6","system_id":"levelo_inurba_marseille","lat":43.29285,"lon":5.3762,"is_reserved":false,"is_disabled":false,"rental_uris":{"android":"levelo://app?vid=9b9a2ee3-efd2-44e9-97ae-9a4b19ec3ff6","ios":"levelo://app?vid=9b9a2ee3-efd2-44e9-97ae-9a4b19ec3ff6"},"vehicle_type_id":"4","last_reported":1741799360,"current_range_meters":8800,"station_id":"ce4bgi12rcd13ifvqb80","pricing_plan_id":"cebpf4jnsgd1na2vs0mg"},{"bike_id":"02a180a1-758d-43f6-8224-e2a9ab434dd6","system_id":"levelo_inurba_marseille","lat":43.27078,"lon":5.4228,"is_reserved":false,"is_disabled":false,"rental_uris":{"android":"levelo://app?vid=02a180a1-758d-43f6-8224-e2a9ab434dd6","ios":"levelo://app?vid=02a180a1-758d-43f6-8224-e2a9ab434dd6"},"vehicle_type_id":"4","last_reported":1741799360,"current_range_meters":8800,"station_id":"ce4bhk92rcd13ifvqgb0","pricing_plan_id":"cebpf4jnsgd1na2vs0mg"},{"bike_id":"41d49d9b-c34c-4522-8ba2-645d735107fa","system_id":"levelo_inurba_marseille","lat":43.29711,"lon":5.36608,"is_reserved":false,"is_disabled":false,"rental_uris":{"android":"levelo://app?vid=41d49d9b-c34c-4522-8ba2-645d735107fa","ios":"levelo://app?vid=41d49d9b-c34c-4522-8ba2-645d735107fa"},"vehicle_type_id":"4","last_reported":1741799360,"current_range_meters":8400,"station_id":"ce4bgn12rcd13ifvqbt0","pricing_plan_id":"cebpf4jnsgd1na2vs0mg"},{"bike_id":"f076f6f7-e4b4-48be-92db-c2ec27c500f6","system_id":"levelo_inurba_marseille","lat":43.23193,"lon":5.39973,"is_reserved":false,"is_disabled":false,"rental_uris":{"android":"levelo://app?vid=f076f6f7-e4b4-48be-92db-c2ec27c500f6","ios":"levelo://app?vid=f076f6f7-e4b4-48be-92db-c2ec27c500f6"},"vehicle_type_id":"4","last_reported":1741799360,"current_range_meters":9200,"station_id":"ce4bhn12rcd13ifvqgqg","pricing_plan_id":"cebpf4jnsgd1na2vs0mg"},{"bike_id":"50263bf5-fe1f-465d-a097-c2e5d1d7e8a1","system_id":"levelo_inurba_marseille","lat":43.25003,"lon":5.38932,"is_reserved":false,"is_disabled":false,"rental_uris":{"android":"levelo://app?vid=50263bf5-fe1f-465d-a097-c2e5d1d7e8a1","ios":"levelo://app?vid=50263bf5-fe1f-465d-a097-c2e5d1d7e8a1"},"vehicle_type_id":"4","last_reported":1741799360,"current_range_meters":9200,"station_id":"ce4bhgp2rcd13ifvqfd0","pricing_plan_id":"cebpf4jnsgd1na2vs0mg"},{"bike_id":"fde8e75a-a47a-4a6d-a024-fa097cbf60ee","system_id":"levelo_inurba_marseille","lat":43.31067,"lon":5.38353,"is_reserved":false,"is_disabled":false,"rental_uris":{"android":"levelo://app?vid=fde8e75a-a47a-4a6d-a024-fa097cbf60ee","ios":"levelo://app?vid=fde8e75a-a47a-4a6d-a024-fa097cbf60ee"},"vehicle_type_id":"4","last_reported":1741799360,"current_range_meters":9200,"station_id":"ce4bgv92rcd13ifvqcr0","pricing_plan_id":"cebpf4jnsgd1na2vs0mg"},{"bike_id":"25fd7a49-256c-49cc-b5e3-34af23750b5b","system_id":"levelo_inurba_marseille","lat":43.28414,"lon":5.37502,"is_reserved":false,"is_disabled":false,"rental_uris":{"android":"levelo://app?vid=25fd7a49-256c-49cc-b5e3-34af23750b5b","ios":"levelo://app?vid=25fd7a49-256c-49cc-b5e3-34af23750b5b"},"vehicle_type_id":"4","last_reported":1741799360,"current_range_meters":9200,"station_id":"ce4bh412rcd13ifvqds0","pricing_plan_id":"cebpf4jnsgd1na2vs0mg"},{"bike_id":"385dd9cb-1d33-48e9-8250-88818c623a92","system_id":"levelo_inurba_marseille","lat":43.26067,"lon":5.39392,"is_reserved":false,"is_disabled":false,"rental_uris":{"android":"levelo://app?vid=385dd9cb-1d33-48e9-8250-88818c623a92","ios":"levelo://app?vid=385dd9cb-1d33-48e9-8250-88818c623a92"},"vehicle_type_id":"4","last_reported":1741799360,"current_range_meters":9200,"station_id":"ce4bhh92rcd13ifvqfj0","pricing_plan_id":"cebpf4jnsgd1na2vs0mg"},{"bike_id":"8dee66dd-a753-4e90-9df0-a75f60b0d66f","system_id":"levelo_inurba_marseille","lat":43.285744,"lon":5.424841,"is_reserved":false,"is_disabled":false,"rental_uris":{"android":"levelo://app?vid=8dee66dd-a753-4e90-9df0-a75f60b0d66f","ios":"levelo://app?vid=8dee66dd-a753-4e90-9df0-a75f60b0d66f"},"vehicle_type_id":"4","last_reported":1741799360,"current_range_meters":9200,"station_id":"","pricing_plan_id":"cebpf4jnsgd1na2vs0mg"},{"bike_id":"ef92f044-010c-4ee6-96b6-2d9f929604cb","system_id":"levelo_inurba_marseille","lat":43.30113,"lon":5.39856,"is_reserved":false,"is_disabled":false,"rental_uris":{"android":"levelo://app?vid=ef92f044-010c-4ee6-96b6-2d9f929604cb","ios":"levelo://app?vid=ef92f044-010c-4ee6-96b6-2d9f929604cb"},"vehicle_type_id":"4","last_reported":1741799360,"current_range_meters":9200,"station_id":"ce4bh0h2rcd13ifvqd40","pricing_plan_id":"cebpf4jnsgd1na2vs0mg"},{"bike_id":"03fcef79-f017-4d15-a10d-891c5cd96db2","system_id":"levelo_inurba_marseille","lat":43.2306,"lon":5.35487,"is_reserved":false,"is_disabled":false,"rental_uris":{"android":"levelo://app?vid=03fcef79-f017-4d15-a10d-891c5cd96db2","ios":"levelo://app?vid=03fcef79-f017-4d15-a10d-891c5cd96db2"},"vehicle_type_id":"4","last_reported":1741799360,"current_range_meters":9200,"station_id":"cpo3342slgdg3j2ifvpg","pricing_plan_id":"cebpf4jnsgd1na2vs0mg"},{"bike_id":"f829a819-671e-4b71-9c22-56c5f8047725","system_id":"levelo_inurba_marseille","lat":43.32394,"lon":5.3675,"is_reserved":false,"is_disabled":false,"rental_uris":{"android":"levelo://app?vid=f829a819-671e-4b71-9c22-56c5f8047725","ios":"levelo://app?vid=f829a819-671e-4b71-9c22-56c5f8047725"},"vehicle_type_id":"4","last_reported":1741799360,"current_range_meters":9200,"station_id":"","pricing_plan_id":"cebpf4jnsgd1na2vs0mg"},{"bike_id":"4d670c50-9f24-405f-8dd4-7d43d040c9b3","system_id":"levelo_inurba_marseille","lat":43.26496,"lon":5.3954,"is_reserved":false,"is_disabled":false,"rental_uris":{"android":"levelo://app?vid=4d670c50-9f24-405f-8dd4-7d43d040c9b3","ios":"levelo://app?vid=4d670c50-9f24-405f-8dd4-7d43d040c9b3"},"vehicle_type_id":"4","last_reported":1741799360,"current_range_meters":9200,"station_id":"ce4bhi12rcd13ifvqfq0","pricing_plan_id":"cebpf4jnsgd1na2vs0mg"},{"bike_id":"a4ce6389-69c8-41eb-a2cb-27e113df5153","system_id":"levelo_inurba_marseille","lat":43.28614,"lon":5.35098,"is_reserved":false,"is_disabled":false,"rental_uris":{"android":"levelo://app?vid=a4ce6389-69c8-41eb-a2cb-27e113df5153","ios":"levelo://app?vid=a4ce6389-69c8-41eb-a2cb-27e113df5153"},"vehicle_type_id":"4","last_reported":1741799360,"current_range_meters":9600,"station_id":"ce4bhch2rcd13ifvqeug","pricing_plan_id":"cebpf4jnsgd1na2vs0mg"},{"bike_id":"740ffee0-ad54-4189-ad03-acb002bcf503","system_id":"levelo_inurba_marseille","lat":43.31183,"lon":5.38717,"is_reserved":false,"is_disabled":false,"rental_uris":{"android":"levelo://app?vid=740ffee0-ad54-4189-ad03-acb002bcf503","ios":"levelo://app?vid=740ffee0-ad54-4189-ad03-acb002bcf503"},"vehicle_type_id":"4","last_reported":1741799360,"current_range_meters":9600,"station_id":"ce4bgv12rcd13ifvqcp0","pricing_plan_id":"cebpf4jnsgd1na2vs0mg"},{"bike_id":"d8fc7225-0157-4f46-bfde-5e8a21a4823b","system_id":"levelo_inurba_marseille","lat":43.25825,"lon":5.39434,"is_reserved":false,"is_disabled":false,"rental_uris":{"android":"levelo://app?vid=d8fc7225-0157-4f46-bfde-5e8a21a4823b","ios":"levelo://app?vid=d8fc7225-0157-4f46-bfde-5e8a21a4823b"},"vehicle_type_id":"4","last_reported":1741799360,"current_range_meters":9600,"station_id":"ce4bhip2rcd13ifvqft0","pricing_plan_id":"cebpf4jnsgd1na2vs0mg"},{"bike_id":"02980cc6-c099-4c32-8e52-9fc35d290043","system_id":"levelo_inurba_marseille","lat":43.27173,"lon":5.40989,"is_reserved":false,"is_disabled":false,"rental_uris":{"android":"levelo://app?vid=02980cc6-c099-4c32-8e52-9fc35d290043","ios":"levelo://app?vid=02980cc6-c099-4c32-8e52-9fc35d290043"},"vehicle_type_id":"4","last_reported":1741799360,"current_range_meters":9600,"station_id":"ce4bhl12rcd13ifvqgf0","pricing_plan_id":"cebpf4jnsgd1na2vs0mg"},{"bike_id":"de53ce6a-3cdf-484c-b489-5b488419e131","system_id":"levelo_inurba_marseille","lat":43.34143,"lon":5.40901,"is_reserved":false,"is_disabled":false,"rental_uris":{"android":"levelo://app?vid=de53ce6a-3cdf-484c-b489-5b488419e131","ios":"levelo://app?vid=de53ce6a-3cdf-484c-b489-5b488419e131"},"vehicle_type_id":"4","last_reported":1741799360,"current_range_meters":9600,"station_id":"ce4bhqh2rcd13ifvqhlg","pricing_plan_id":"cebpf4jnsgd1na2vs0mg"},{"bike_id":"aeca8d61-61f7-41ab-a0ef-f49a44bca5c8","system_id":"levelo_inurba_marseille","lat":43.29004,"lon":5.3561,"is_reserved":false,"is_disabled":true,"rental_uris":{"android":"levelo://app?vid=aeca8d61-61f7-41ab-a0ef-f49a44bca5c8","ios":"levelo://app?vid=aeca8d61-61f7-41ab-a0ef-f49a44bca5c8"},"vehicle_type_id":"4","last_reported":1741799360,"current_range_meters":9600,"station_id":"ce4bhb92rcd13ifvqen0","pricing_plan_id":"cebpf4jnsgd1na2vs0mg"},{"bike_id":"6190eac7-4d69-4aee-8885-569caf678aef","system_id":"levelo_inurba_marseille","lat":43.25723,"lon":5.41096,"is_reserved":false,"is_disabled":false,"rental_uris":{"android":"levelo://app?vid=6190eac7-4d69-4aee-8885-569caf678aef","ios":"levelo://app?vid=6190eac7-4d69-4aee-8885-569caf678aef"},"vehicle_type_id":"4","last_reported":1741799360,"current_range_meters":9600,"station_id":"ce4bhkp2rcd13ifvqgd0","pricing_plan_id":"cebpf4jnsgd1na2vs0mg"},{"bike_id":"89457dc8-a15c-4268-8164-60628d16a1f7","system_id":"levelo_inurba_marseille","lat":43.28463,"lon":5.35876,"is_reserved":false,"is_disabled":false,"rental_uris":{"android":"levelo://app?vid=89457dc8-a15c-4268-8164-60628d16a1f7","ios":"levelo://app?vid=89457dc8-a15c-4268-8164-60628d16a1f7"},"vehicle_type_id":"4","last_reported":1741799360,"current_range_meters":10000,"station_id":"ce4bhah2rcd13ifvqei0","pricing_plan_id":"cebpf4jnsgd1na2vs0mg"},{"bike_id":"efef432d-e33f-46ec-abc1-f54cf2a4d1b6","system_id":"levelo_inurba_marseille","lat":43.28613,"lon":5.35106,"is_reserved":false,"is_disabled":false,"rental_uris":{"android":"levelo://app?vid=efef432d-e33f-46ec-abc1-f54cf2a4d1b6","ios":"levelo://app?vid=efef432d-e33f-46ec-abc1-f54cf2a4d1b6"},"vehicle_type_id":"4","last_reported":1741799360,"current_range_meters":9600,"station_id":"ce4bhch2rcd13ifvqeug","pricing_plan_id":"cebpf4jnsgd1na2vs0mg"},{"bike_id":"0a4293a2-53c4-43b6-ab71-b6a6692af996","system_id":"levelo_inurba_marseille","lat":43.2953,"lon":5.39034,"is_reserved":false,"is_disabled":false,"rental_uris":{"android":"levelo://app?vid=0a4293a2-53c4-43b6-ab71-b6a6692af996","ios":"levelo://app?vid=0a4293a2-53c4-43b6-ab71-b6a6692af996"},"vehicle_type_id":"4","last_reported":1741799360,"current_range_meters":10000,"station_id":"ce4bh3p2rcd13ifvqdp0","pricing_plan_id":"cebpf4jnsgd1na2vs0mg"},{"bike_id":"67faeca7-7783-4ea2-9cdf-e350aa24e3aa","system_id":"levelo_inurba_marseille","lat":43.28629,"lon":5.35103,"is_reserved":false,"is_disabled":false,"rental_uris":{"android":"levelo://app?vid=67faeca7-7783-4ea2-9cdf-e350aa24e3aa","ios":"levelo://app?vid=67faeca7-7783-4ea2-9cdf-e350aa24e3aa"},"vehicle_type_id":"4","last_reported":1741799360,"current_range_meters":10000,"station_id":"ce4bhch2rcd13ifvqeug","pricing_plan_id":"cebpf4jnsgd1na2vs0mg"},{"bike_id":"485f1510-a973-46b6-8b2d-6d22ffc60cae","system_id":"levelo_inurba_marseille","lat":43.24175,"lon":5.36398,"is_reserved":false,"is_disabled":false,"rental_uris":{"android":"levelo://app?vid=485f1510-a973-46b6-8b2d-6d22ffc60cae","ios":"levelo://app?vid=485f1510-a973-46b6-8b2d-6d22ffc60cae"},"vehicle_type_id":"4","last_reported":1741799360,"current_range_meters":10000,"station_id":"cpo36qri1sfpv3e86is0","pricing_plan_id":"cebpf4jnsgd1na2vs0mg"},{"bike_id":"52b371ae-be21-4386-980c-2c67e6647e65","system_id":"levelo_inurba_marseille","lat":43.3107,"lon":5.38351,"is_reserved":false,"is_disabled":false,"rental_uris":{"android":"levelo://app?vid=52b371ae-be21-4386-980c-2c67e6647e65","ios":"levelo://app?vid=52b371ae-be21-4386-980c-2c67e6647e65"},"vehicle_type_id":"4","last_reported":1741799360,"current_range_meters":10000,"station_id":"ce4bgv92rcd13ifvqcr0","pricing_plan_id":"cebpf4jnsgd1na2vs0mg"},{"bike_id":"ec5d08ce-934d-49b5-9a73-c20b44942d11","system_id":"levelo_inurba_marseille","lat":43.31397,"lon":5.37553,"is_reserved":false,"is_disabled":false,"rental_uris":{"android":"levelo://app?vid=ec5d08ce-934d-49b5-9a73-c20b44942d11","ios":"levelo://app?vid=ec5d08ce-934d-49b5-9a73-c20b44942d11"},"vehicle_type_id":"4","last_reported":1741799360,"current_range_meters":10000,"station_id":"","pricing_plan_id":"cebpf4jnsgd1na2vs0mg"},{"bike_id":"65b3e6ee-260e-4a65-a75b-07984abceef3","system_id":"levelo_inurba_marseille","lat":43.33026,"lon":5.39051,"is_reserved":false,"is_disabled":false,"rental_uris":{"android":"levelo://app?vid=65b3e6ee-260e-4a65-a75b-07984abceef3","ios":"levelo://app?vid=65b3e6ee-260e-4a65-a75b-07984abceef3"},"vehicle_type_id":"4","last_reported":1741799360,"current_range_meters":10000,"station_id":"ce4bhr92rcd13ifvqhrg","pricing_plan_id":"cebpf4jnsgd1na2vs0mg"},{"bike_id":"29845dc5-37a0-4fe4-ad83-a244b4c5c8a7","system_id":"levelo_inurba_marseille","lat":43.28156,"lon":5.42648,"is_reserved":false,"is_disabled":false,"rental_uris":{"android":"levelo://app?vid=29845dc5-37a0-4fe4-ad83-a244b4c5c8a7","ios":"levelo://app?vid=29845dc5-37a0-4fe4-ad83-a244b4c5c8a7"},"vehicle_type_id":"4","last_reported":1741799360,"current_range_meters":10000,"station_id":"ce4bhnh2rcd13ifvqgug","pricing_plan_id":"cebpf4jnsgd1na2vs0mg"},{"bike_id":"f82b5a4a-3803-4ccc-a27e-93c32c4ac78b","system_id":"levelo_inurba_marseille","lat":43.30422,"lon":5.41277,"is_reserved":false,"is_disabled":false,"rental_uris":{"android":"levelo://app?vid=f82b5a4a-3803-4ccc-a27e-93c32c4ac78b","ios":"levelo://app?vid=f82b5a4a-3803-4ccc-a27e-93c32c4ac78b"},"vehicle_type_id":"4","last_reported":1741799360,"current_range_meters":10000,"station_id":"ce4bhop2rcd13ifvqh8g","pricing_plan_id":"cebpf4jnsgd1na2vs0mg"},{"bike_id":"2d16443d-ed2e-4c48-af94-4deffe2479f1","system_id":"levelo_inurba_marseille","lat":43.25027,"lon":5.38929,"is_reserved":false,"is_disabled":false,"rental_uris":{"android":"levelo://app?vid=2d16443d-ed2e-4c48-af94-4deffe2479f1","ios":"levelo://app?vid=2d16443d-ed2e-4c48-af94-4deffe2479f1"},"vehicle_type_id":"4","last_reported":1741799360,"current_range_meters":10000,"station_id":"ce4bhgp2rcd13ifvqfd0","pricing_plan_id":"cebpf4jnsgd1na2vs0mg"},{"bike_id":"12d8c0d4-6abc-4053-9c8c-690abca02735","system_id":"levelo_inurba_marseille","lat":43.3124,"lon":5.37469,"is_reserved":false,"is_disabled":false,"rental_uris":{"android":"levelo://app?vid=12d8c0d4-6abc-4053-9c8c-690abca02735","ios":"levelo://app?vid=12d8c0d4-6abc-4053-9c8c-690abca02735"},"vehicle_type_id":"4","last_reported":1741799360,"current_range_meters":10000,"station_id":"","pricing_plan_id":"cebpf4jnsgd1na2vs0mg"},{"bike_id":"0a995a9a-6122-4f4b-b298-a8b06cbca7e2","system_id":"levelo_inurba_marseille","lat":43.25009,"lon":5.38925,"is_reserved":false,"is_disabled":false,"rental_uris":{"android":"levelo://app?vid=0a995a9a-6122-4f4b-b298-a8b06cbca7e2","ios":"levelo://app?vid=0a995a9a-6122-4f4b-b298-a8b06cbca7e2"},"vehicle_type_id":"4","last_reported":1741799360,"current_range_meters":10800,"station_id":"ce4bhgp2rcd13ifvqfd0","pricing_plan_id":"cebpf4jnsgd1na2vs0mg"},{"bike_id":"fa7cbca1-85b3-4296-b8d7-b151db577a79","system_id":"levelo_inurba_marseille","lat":43.29569,"lon":5.39969,"is_reserved":false,"is_disabled":false,"rental_uris":{"android":"levelo://app?vid=fa7cbca1-85b3-4296-b8d7-b151db577a79","ios":"levelo://app?vid=fa7cbca1-85b3-4296-b8d7-b151db577a79"},"vehicle_type_id":"4","last_reported":1741799360,"current_range_meters":10800,"station_id":"ce4bh312rcd13ifvqdj0","pricing_plan_id":"cebpf4jnsgd1na2vs0mg"},{"bike_id":"d0f9148f-39d8-46e3-bc9e-2997e8529165","system_id":"levelo_inurba_marseille","lat":43.28939,"lon":5.36642,"is_reserved":false,"is_disabled":false,"rental_uris":{"android":"levelo://app?vid=d0f9148f-39d8-46e3-bc9e-2997e8529165","ios":"levelo://app?vid=d0f9148f-39d8-46e3-bc9e-2997e8529165"},"vehicle_type_id":"4","last_reported":1741799360,"current_range_meters":11200,"station_id":"ce4bhap2rcd13ifvqek0","pricing_plan_id":"cebpf4jnsgd1na2vs0mg"},{"bike_id":"4b7a2d81-ce82-46d8-89dc-2d3efebdf7b2","system_id":"levelo_inurba_marseille","lat":43.29538,"lon":5.39029,"is_reserved":false,"is_disabled":false,"rental_uris":{"android":"levelo://app?vid=4b7a2d81-ce82-46d8-89dc-2d3efebdf7b2","ios":"levelo://app?vid=4b7a2d81-ce82-46d8-89dc-2d3efebdf7b2"},"vehicle_type_id":"4","last_reported":1741799360,"current_range_meters":10800,"station_id":"ce4bh3p2rcd13ifvqdp0","pricing_plan_id":"cebpf4jnsgd1na2vs0mg"},{"bike_id":"9f25a6ad-433a-45b0-a0d0-4a619d769e26","system_id":"levelo_inurba_marseille","lat":43.23193,"lon":5.35552,"is_reserved":false,"is_disabled":false,"rental_uris":{"android":"levelo://app?vid=9f25a6ad-433a-45b0-a0d0-4a619d769e26","ios":"levelo://app?vid=9f25a6ad-433a-45b0-a0d0-4a619d769e26"},"vehicle_type_id":"4","last_reported":1741799360,"current_range_meters":10800,"station_id":"ce4bhu92rcd13ifvqi70","pricing_plan_id":"cebpf4jnsgd1na2vs0mg"},{"bike_id":"9d12a25d-8a2c-4449-87ad-e17d1c6f58d4","system_id":"levelo_inurba_marseille","lat":43.28261,"lon":5.35065,"is_reserved":false,"is_disabled":false,"rental_uris":{"android":"levelo://app?vid=9d12a25d-8a2c-4449-87ad-e17d1c6f58d4","ios":"levelo://app?vid=9d12a25d-8a2c-4449-87ad-e17d1c6f58d4"},"vehicle_type_id":"4","last_reported":1741799360,"current_range_meters":10800,"station_id":"ce4bhbp2rcd13ifvqerg","pricing_plan_id":"cebpf4jnsgd1na2vs0mg"},{"bike_id":"efadab65-8907-4f06-a35d-fba806b4a558","system_id":"levelo_inurba_marseille","lat":43.29969,"lon":5.38474,"is_reserved":false,"is_disabled":false,"rental_uris":{"android":"levelo://app?vid=efadab65-8907-4f06-a35d-fba806b4a558","ios":"levelo://app?vid=efadab65-8907-4f06-a35d-fba806b4a558"},"vehicle_type_id":"4","last_reported":1741799360,"current_range_meters":10800,"station_id":"ce4bgj92rcd13ifvqbd0","pricing_plan_id":"cebpf4jnsgd1na2vs0mg"},{"bike_id":"8df9bf78-e66c-4eb1-8e1c-084c459ada97","system_id":"levelo_inurba_marseille","lat":43.28456,"lon":5.35894,"is_reserved":false,"is_disabled":false,"rental_uris":{"android":"levelo://app?vid=8df9bf78-e66c-4eb1-8e1c-084c459ada97","ios":"levelo://app?vid=8df9bf78-e66c-4eb1-8e1c-084c459ada97"},"vehicle_type_id":"4","last_reported":1741799360,"current_range_meters":10800,"station_id":"ce4bhah2rcd13ifvqei0","pricing_plan_id":"cebpf4jnsgd1na2vs0mg"},{"bike_id":"7d4aedfe-c4d1-46e1-9530-386849f612f8","system_id":"levelo_inurba_marseille","lat":43.303753,"lon":5.42496,"is_reserved":false,"is_disabled":false,"rental_uris":{"android":"levelo://app?vid=7d4aedfe-c4d1-46e1-9530-386849f612f8","ios":"levelo://app?vid=7d4aedfe-c4d1-46e1-9530-386849f612f8"},"vehicle_type_id":"4","last_reported":1741799360,"current_range_meters":10800,"station_id":"ce4bghh2rcd13ifvqb60","pricing_plan_id":"cebpf4jnsgd1na2vs0mg"},{"bike_id":"4827f21a-a00c-4401-a015-50f749db831d","system_id":"levelo_inurba_marseille","lat":43.294154,"lon":5.386275,"is_reserved":false,"is_disabled":false,"rental_uris":{"android":"levelo://app?vid=4827f21a-a00c-4401-a015-50f749db831d","ios":"levelo://app?vid=4827f21a-a00c-4401-a015-50f749db831d"},"vehicle_type_id":"4","last_reported":1741799360,"current_range_meters":10800,"station_id":"ce4bho12rcd13ifvqh2g","pricing_plan_id":"cebpf4jnsgd1na2vs0mg"},{"bike_id":"3baf227d-0be9-4b96-8721-684a3fb14c35","system_id":"levelo_inurba_marseille","lat":43.3184,"lon":5.37312,"is_reserved":false,"is_disabled":false,"rental_uris":{"android":"levelo://app?vid=3baf227d-0be9-4b96-8721-684a3fb14c35","ios":"levelo://app?vid=3baf227d-0be9-4b96-8721-684a3fb14c35"},"vehicle_type_id":"4","last_reported":1741799360,"current_range_meters":11200,"station_id":"","pricing_plan_id":"cebpf4jnsgd1na2vs0mg"},{"bike_id":"6ae08d4a-2b0a-47c8-8255-40bb19422690","system_id":"levelo_inurba_marseille","lat":43.29548,"lon":5.39394,"is_reserved":false,"is_disabled":false,"rental_uris":{"android":"levelo://app?vid=6ae08d4a-2b0a-47c8-8255-40bb19422690","ios":"levelo://app?vid=6ae08d4a-2b0a-47c8-8255-40bb19422690"},"vehicle_type_id":"4","last_reported":1741799360,"current_range_meters":11200,"station_id":"ce4bh292rcd13ifvqdf0","pricing_plan_id":"cebpf4jnsgd1na2vs0mg"},{"bike_id":"1481641f-85da-4c4f-bb0e-a8903b681313","system_id":"levelo_inurba_marseille","lat":43.31526,"lon":5.38042,"is_reserved":false,"is_disabled":false,"rental_uris":{"android":"levelo://app?vid=1481641f-85da-4c4f-bb0e-a8903b681313","ios":"levelo://app?vid=1481641f-85da-4c4f-bb0e-a8903b681313"},"vehicle_type_id":"4","last_reported":1741799360,"current_range_meters":11200,"station_id":"ce4bhsp2rcd13ifvqi50","pricing_plan_id":"cebpf4jnsgd1na2vs0mg"},{"bike_id":"6dbc9b4a-c5a1-4dbf-a00f-5bb7462d2694","system_id":"levelo_inurba_marseille","lat":43.2811,"lon":5.39843,"is_reserved":false,"is_disabled":false,"rental_uris":{"android":"levelo://app?vid=6dbc9b4a-c5a1-4dbf-a00f-5bb7462d2694","ios":"levelo://app?vid=6dbc9b4a-c5a1-4dbf-a00f-5bb7462d2694"},"vehicle_type_id":"4","last_reported":1741799360,"current_range_meters":11200,"station_id":"","pricing_plan_id":"cebpf4jnsgd1na2vs0mg"},{"bike_id":"f89b9f3b-9595-4d0e-acf5-ac5f650bb50c","system_id":"levelo_inurba_marseille","lat":43.30414,"lon":5.42461,"is_reserved":false,"is_disabled":false,"rental_uris":{"android":"levelo://app?vid=f89b9f3b-9595-4d0e-acf5-ac5f650bb50c","ios":"levelo://app?vid=f89b9f3b-9595-4d0e-acf5-ac5f650bb50c"},"vehicle_type_id":"4","last_reported":1741799360,"current_range_meters":11200,"station_id":"ce4bghh2rcd13ifvqb60","pricing_plan_id":"cebpf4jnsgd1na2vs0mg"},{"bike_id":"531750a0-26a5-4273-a9d7-861dc00830f2","system_id":"levelo_inurba_marseille","lat":43.28466,"lon":5.35878,"is_reserved":false,"is_disabled":false,"rental_uris":{"android":"levelo://app?vid=531750a0-26a5-4273-a9d7-861dc00830f2","ios":"levelo://app?vid=531750a0-26a5-4273-a9d7-861dc00830f2"},"vehicle_type_id":"4","last_reported":1741799360,"current_range_meters":11200,"station_id":"ce4bhah2rcd13ifvqei0","pricing_plan_id":"cebpf4jnsgd1na2vs0mg"},{"bike_id":"6c83aba9-eb1e-4e35-add9-1ed6c49a74fd","system_id":"levelo_inurba_marseille","lat":43.28003,"lon":5.41664,"is_reserved":false,"is_disabled":false,"rental_uris":{"android":"levelo://app?vid=6c83aba9-eb1e-4e35-add9-1ed6c49a74fd","ios":"levelo://app?vid=6c83aba9-eb1e-4e35-add9-1ed6c49a74fd"},"vehicle_type_id":"4","last_reported":1741799360,"current_range_meters":11200,"station_id":"ce4bho12rcd13ifvqh1g","pricing_plan_id":"cebpf4jnsgd1na2vs0mg"},{"bike_id":"08b783ab-b502-4642-9e57-850fac289ece","system_id":"levelo_inurba_marseille","lat":43.28949,"lon":5.3816,"is_reserved":false,"is_disabled":false,"rental_uris":{"android":"levelo://app?vid=08b783ab-b502-4642-9e57-850fac289ece","ios":"levelo://app?vid=08b783ab-b502-4642-9e57-850fac289ece"},"vehicle_type_id":"4","last_reported":1741799360,"current_range_meters":11200,"station_id":"ce4bh292rcd13ifvqdg0","pricing_plan_id":"cebpf4jnsgd1na2vs0mg"},{"bike_id":"8c25ebae-476e-46e9-b505-692058b7ab14","system_id":"levelo_inurba_marseille","lat":43.29565,"lon":5.42287,"is_reserved":false,"is_disabled":false,"rental_uris":{"android":"levelo://app?vid=8c25ebae-476e-46e9-b505-692058b7ab14","ios":"levelo://app?vid=8c25ebae-476e-46e9-b505-692058b7ab14"},"vehicle_type_id":"4","last_reported":1741799360,"current_range_meters":11200,"station_id":"ce4bhph2rcd13ifvqhdg","pricing_plan_id":"cebpf4jnsgd1na2vs0mg"},{"bike_id":"9c9b4fe2-0c24-4e47-8858-2d4973e49f79","system_id":"levelo_inurba_marseille","lat":43.27555,"lon":5.38429,"is_reserved":false,"is_disabled":false,"rental_uris":{"android":"levelo://app?vid=9c9b4fe2-0c24-4e47-8858-2d4973e49f79","ios":"levelo://app?vid=9c9b4fe2-0c24-4e47-8858-2d4973e49f79"},"vehicle_type_id":"4","last_reported":1741799360,"current_range_meters":11600,"station_id":"ce4bhh92rcd13ifvqfi0","pricing_plan_id":"cebpf4jnsgd1na2vs0mg"},{"bike_id":"1a37f645-b58d-4c69-a895-8982d75bdfb3","system_id":"levelo_inurba_marseille","lat":43.26495,"lon":5.39549,"is_reserved":false,"is_disabled":false,"rental_uris":{"android":"levelo://app?vid=1a37f645-b58d-4c69-a895-8982d75bdfb3","ios":"levelo://app?vid=1a37f645-b58d-4c69-a895-8982d75bdfb3"},"vehicle_type_id":"4","last_reported":1741799360,"current_range_meters":11200,"station_id":"ce4bhi12rcd13ifvqfq0","pricing_plan_id":"cebpf4jnsgd1na2vs0mg"},{"bike_id":"d00b2824-6bff-4b67-a918-20ffcb7b7346","system_id":"levelo_inurba_marseille","lat":43.29054,"lon":5.35586,"is_reserved":false,"is_disabled":false,"rental_uris":{"android":"levelo://app?vid=d00b2824-6bff-4b67-a918-20ffcb7b7346","ios":"levelo://app?vid=d00b2824-6bff-4b67-a918-20ffcb7b7346"},"vehicle_type_id":"4","last_reported":1741799360,"current_range_meters":11600,"station_id":"","pricing_plan_id":"cebpf4jnsgd1na2vs0mg"},{"bike_id":"068d131d-aa6d-4783-ad81-5fc4d00f138f","system_id":"levelo_inurba_marseille","lat":43.28002,"lon":5.40003,"is_reserved":false,"is_disabled":false,"rental_uris":{"android":"levelo://app?vid=068d131d-aa6d-4783-ad81-5fc4d00f138f","ios":"levelo://app?vid=068d131d-aa6d-4783-ad81-5fc4d00f138f"},"vehicle_type_id":"4","last_reported":1741799360,"current_range_meters":11600,"station_id":"ce4bho92rcd13ifvqh4g","pricing_plan_id":"cebpf4jnsgd1na2vs0mg"},{"bike_id":"2e0be671-2414-447d-bd58-47dd3fdc7b86","system_id":"levelo_inurba_marseille","lat":43.27938,"lon":5.41049,"is_reserved":false,"is_disabled":false,"rental_uris":{"android":"levelo://app?vid=2e0be671-2414-447d-bd58-47dd3fdc7b86","ios":"levelo://app?vid=2e0be671-2414-447d-bd58-47dd3fdc7b86"},"vehicle_type_id":"4","last_reported":1741799360,"current_range_meters":11600,"station_id":"ce4bhnp2rcd13ifvqh0g","pricing_plan_id":"cebpf4jnsgd1na2vs0mg"},{"bike_id":"c2fdc035-3896-46f1-aee2-5294a5907071","system_id":"levelo_inurba_marseille","lat":43.25011,"lon":5.38937,"is_reserved":false,"is_disabled":false,"rental_uris":{"android":"levelo://app?vid=c2fdc035-3896-46f1-aee2-5294a5907071","ios":"levelo://app?vid=c2fdc035-3896-46f1-aee2-5294a5907071"},"vehicle_type_id":"4","last_reported":1741799360,"current_range_meters":11600,"station_id":"ce4bhgp2rcd13ifvqfd0","pricing_plan_id":"cebpf4jnsgd1na2vs0mg"},{"bike_id":"6f60b94f-9ebd-4b92-b5ab-5984d3ac22d9","system_id":"levelo_inurba_marseille","lat":43.2875,"lon":5.361846,"is_reserved":false,"is_disabled":false,"rental_uris":{"android":"levelo://app?vid=6f60b94f-9ebd-4b92-b5ab-5984d3ac22d9","ios":"levelo://app?vid=6f60b94f-9ebd-4b92-b5ab-5984d3ac22d9"},"vehicle_type_id":"4","last_reported":1741799360,"current_range_meters":12000,"station_id":"cki0cbj6b192h4jlfktg","pricing_plan_id":"cebpf4jnsgd1na2vs0mg"},{"bike_id":"dbcf751a-448b-48f2-a669-f34fb397e459","system_id":"levelo_inurba_marseille","lat":43.28037,"lon":5.3695,"is_reserved":false,"is_disabled":false,"rental_uris":{"android":"levelo://app?vid=dbcf751a-448b-48f2-a669-f34fb397e459","ios":"levelo://app?vid=dbcf751a-448b-48f2-a669-f34fb397e459"},"vehicle_type_id":"4","last_reported":1741799360,"current_range_meters":12400,"station_id":"ce4bha12rcd13ifvqef0","pricing_plan_id":"cebpf4jnsgd1na2vs0mg"},{"bike_id":"5870a04d-2c5e-4fd9-9da0-d14f5e87f59f","system_id":"levelo_inurba_marseille","lat":43.28942,"lon":5.36629,"is_reserved":false,"is_disabled":false,"rental_uris":{"android":"levelo://app?vid=5870a04d-2c5e-4fd9-9da0-d14f5e87f59f","ios":"levelo://app?vid=5870a04d-2c5e-4fd9-9da0-d14f5e87f59f"},"vehicle_type_id":"4","last_reported":1741799360,"current_range_meters":12400,"station_id":"ce4bhap2rcd13ifvqek0","pricing_plan_id":"cebpf4jnsgd1na2vs0mg"},{"bike_id":"acef2137-b5b2-4ebe-8cf6-75c7fa8ed63a","system_id":"levelo_inurba_marseille","lat":43.29282,"lon":5.36848,"is_reserved":false,"is_disabled":false,"rental_uris":{"android":"levelo://app?vid=acef2137-b5b2-4ebe-8cf6-75c7fa8ed63a","ios":"levelo://app?vid=acef2137-b5b2-4ebe-8cf6-75c7fa8ed63a"},"vehicle_type_id":"4","last_reported":1741799360,"current_range_meters":12400,"station_id":"ce4bhbp2rcd13ifvqesg","pricing_plan_id":"cebpf4jnsgd1na2vs0mg"},{"bike_id":"4ad9c640-704f-4648-a12d-b5105947d193","system_id":"levelo_inurba_marseille","lat":43.27823,"lon":5.40718,"is_reserved":false,"is_disabled":false,"rental_uris":{"android":"levelo://app?vid=4ad9c640-704f-4648-a12d-b5105947d193","ios":"levelo://app?vid=4ad9c640-704f-4648-a12d-b5105947d193"},"vehicle_type_id":"4","last_reported":1741799360,"current_range_meters":12400,"station_id":"ce4bhnh2rcd13ifvqgtg","pricing_plan_id":"cebpf4jnsgd1na2vs0mg"},{"bike_id":"79397302-4916-493d-9bc0-e5035ae3c476","system_id":"levelo_inurba_marseille","lat":43.22933,"lon":5.35369,"is_reserved":false,"is_disabled":false,"rental_uris":{"android":"levelo://app?vid=79397302-4916-493d-9bc0-e5035ae3c476","ios":"levelo://app?vid=79397302-4916-493d-9bc0-e5035ae3c476"},"vehicle_type_id":"4","last_reported":1741799360,"current_range_meters":12400,"station_id":"cpo3532slgdg3j2ikp40","pricing_plan_id":"cebpf4jnsgd1na2vs0mg"},{"bike_id":"c8f5a7aa-328f-49c1-a785-9624fa888d07","system_id":"levelo_inurba_marseille","lat":43.25005,"lon":5.38918,"is_reserved":false,"is_disabled":false,"rental_uris":{"android":"levelo://app?vid=c8f5a7aa-328f-49c1-a785-9624fa888d07","ios":"levelo://app?vid=c8f5a7aa-328f-49c1-a785-9624fa888d07"},"vehicle_type_id":"4","last_reported":1741799360,"current_range_meters":12400,"station_id":"ce4bhgp2rcd13ifvqfd0","pricing_plan_id":"cebpf4jnsgd1na2vs0mg"},{"bike_id":"9a37fa16-6c06-417b-a766-2635172aefdb","system_id":"levelo_inurba_marseille","lat":43.2816,"lon":5.42637,"is_reserved":false,"is_disabled":false,"rental_uris":{"android":"levelo://app?vid=9a37fa16-6c06-417b-a766-2635172aefdb","ios":"levelo://app?vid=9a37fa16-6c06-417b-a766-2635172aefdb"},"vehicle_type_id":"4","last_reported":1741799360,"current_range_meters":12400,"station_id":"ce4bhnh2rcd13ifvqgug","pricing_plan_id":"cebpf4jnsgd1na2vs0mg"},{"bike_id":"cb30bd3f-be42-4e42-9b87-66b72747a4ec","system_id":"levelo_inurba_marseille","lat":43.29522,"lon":5.39055,"is_reserved":false,"is_disabled":false,"rental_uris":{"android":"levelo://app?vid=cb30bd3f-be42-4e42-9b87-66b72747a4ec","ios":"levelo://app?vid=cb30bd3f-be42-4e42-9b87-66b72747a4ec"},"vehicle_type_id":"4","last_reported":1741799360,"current_range_meters":12800,"station_id":"ce4bh3p2rcd13ifvqdp0","pricing_plan_id":"cebpf4jnsgd1na2vs0mg"},{"bike_id":"fbf94043-5118-413d-8b56-164c59b2e8ba","system_id":"levelo_inurba_marseille","lat":43.24077,"lon":5.37758,"is_reserved":false,"is_disabled":false,"rental_uris":{"android":"levelo://app?vid=fbf94043-5118-413d-8b56-164c59b2e8ba","ios":"levelo://app?vid=fbf94043-5118-413d-8b56-164c59b2e8ba"},"vehicle_type_id":"4","last_reported":1741799360,"current_range_meters":12800,"station_id":"ce4bhnp2rcd13ifvqgvg","pricing_plan_id":"cebpf4jnsgd1na2vs0mg"},{"bike_id":"614fad4b-6502-494f-a7a0-83469c67f655","system_id":"levelo_inurba_marseille","lat":43.31428,"lon":5.37367,"is_reserved":false,"is_disabled":false,"rental_uris":{"android":"levelo://app?vid=614fad4b-6502-494f-a7a0-83469c67f655","ios":"levelo://app?vid=614fad4b-6502-494f-a7a0-83469c67f655"},"vehicle_type_id":"4","last_reported":1741799360,"current_range_meters":12800,"station_id":"","pricing_plan_id":"cebpf4jnsgd1na2vs0mg"},{"bike_id":"4c607265-c996-4d9b-81fd-daa80dd99e32","system_id":"levelo_inurba_marseille","lat":43.28763,"lon":5.38425,"is_reserved":false,"is_disabled":false,"rental_uris":{"android":"levelo://app?vid=4c607265-c996-4d9b-81fd-daa80dd99e32","ios":"levelo://app?vid=4c607265-c996-4d9b-81fd-daa80dd99e32"},"vehicle_type_id":"4","last_reported":1741799360,"current_range_meters":12800,"station_id":"","pricing_plan_id":"cebpf4jnsgd1na2vs0mg"},{"bike_id":"ec228551-df79-4e15-91d3-78a22b3b7155","system_id":"levelo_inurba_marseille","lat":43.31995,"lon":5.38163,"is_reserved":false,"is_disabled":false,"rental_uris":{"android":"levelo://app?vid=ec228551-df79-4e15-91d3-78a22b3b7155","ios":"levelo://app?vid=ec228551-df79-4e15-91d3-78a22b3b7155"},"vehicle_type_id":"4","last_reported":1741799360,"current_range_meters":12800,"station_id":"ce4bhr12rcd13ifvqhpg","pricing_plan_id":"cebpf4jnsgd1na2vs0mg"},{"bike_id":"9bdb7d26-7e2d-45dd-a1b7-0b36650de1c8","system_id":"levelo_inurba_marseille","lat":43.264894,"lon":5.395465,"is_reserved":false,"is_disabled":false,"rental_uris":{"android":"levelo://app?vid=9bdb7d26-7e2d-45dd-a1b7-0b36650de1c8","ios":"levelo://app?vid=9bdb7d26-7e2d-45dd-a1b7-0b36650de1c8"},"vehicle_type_id":"4","last_reported":1741799360,"current_range_meters":12800,"station_id":"","pricing_plan_id":"cebpf4jnsgd1na2vs0mg"},{"bike_id":"04b6b0f6-d318-40e6-a023-347d481d621c","system_id":"levelo_inurba_marseille","lat":43.29215,"lon":5.37547,"is_reserved":false,"is_disabled":false,"rental_uris":{"android":"levelo://app?vid=04b6b0f6-d318-40e6-a023-347d481d621c","ios":"levelo://app?vid=04b6b0f6-d318-40e6-a023-347d481d621c"},"vehicle_type_id":"4","last_reported":1741799360,"current_range_meters":13600,"station_id":"","pricing_plan_id":"cebpf4jnsgd1na2vs0mg"},{"bike_id":"a3d9d04c-bd6c-4a45-a72a-3a94bf640b19","system_id":"levelo_inurba_marseille","lat":43.2795,"lon":5.41035,"is_reserved":false,"is_disabled":false,"rental_uris":{"android":"levelo://app?vid=a3d9d04c-bd6c-4a45-a72a-3a94bf640b19","ios":"levelo://app?vid=a3d9d04c-bd6c-4a45-a72a-3a94bf640b19"},"vehicle_type_id":"4","last_reported":1741799360,"current_range_meters":13600,"station_id":"ce4bhnp2rcd13ifvqh0g","pricing_plan_id":"cebpf4jnsgd1na2vs0mg"},{"bike_id":"559d880c-413b-4bec-b478-ce00f72287ce","system_id":"levelo_inurba_marseille","lat":43.31713,"lon":5.37747,"is_reserved":false,"is_disabled":false,"rental_uris":{"android":"levelo://app?vid=559d880c-413b-4bec-b478-ce00f72287ce","ios":"levelo://app?vid=559d880c-413b-4bec-b478-ce00f72287ce"},"vehicle_type_id":"4","last_reported":1741799360,"current_range_meters":13600,"station_id":"ce4bgth2rcd13ifvqch0","pricing_plan_id":"cebpf4jnsgd1na2vs0mg"},{"bike_id":"86fc146c-4af9-49a2-9b65-b6b8fa03c722","system_id":"levelo_inurba_marseille","lat":43.29197,"lon":5.39327,"is_reserved":false,"is_disabled":false,"rental_uris":{"android":"levelo://app?vid=86fc146c-4af9-49a2-9b65-b6b8fa03c722","ios":"levelo://app?vid=86fc146c-4af9-49a2-9b65-b6b8fa03c722"},"vehicle_type_id":"4","last_reported":1741799360,"current_range_meters":13600,"station_id":"ce4bh192rcd13ifvqdd0","pricing_plan_id":"cebpf4jnsgd1na2vs0mg"},{"bike_id":"e7b25e36-0a83-4dda-88d0-c2926bc1cbb4","system_id":"levelo_inurba_marseille","lat":43.2986,"lon":5.36289,"is_reserved":false,"is_disabled":true,"rental_uris":{"android":"levelo://app?vid=e7b25e36-0a83-4dda-88d0-c2926bc1cbb4","ios":"levelo://app?vid=e7b25e36-0a83-4dda-88d0-c2926bc1cbb4"},"vehicle_type_id":"4","last_reported":1741799360,"current_range_meters":13600,"station_id":"ce4bgpp2rcd13ifvqc3g","pricing_plan_id":"cebpf4jnsgd1na2vs0mg"},{"bike_id":"6b34d349-de9d-4410-a877-7763f87e1e48","system_id":"levelo_inurba_marseille","lat":43.30102,"lon":5.3907,"is_reserved":false,"is_disabled":false,"rental_uris":{"android":"levelo://app?vid=6b34d349-de9d-4410-a877-7763f87e1e48","ios":"levelo://app?vid=6b34d349-de9d-4410-a877-7763f87e1e48"},"vehicle_type_id":"4","last_reported":1741799360,"current_range_meters":13600,"station_id":"ce4bh192rcd13ifvqdb0","pricing_plan_id":"cebpf4jnsgd1na2vs0mg"},{"bike_id":"3f828aee-4de0-4a25-a4e4-6457fb81e40e","system_id":"levelo_inurba_marseille","lat":43.31055,"lon":5.38343,"is_reserved":false,"is_disabled":false,"rental_uris":{"android":"levelo://app?vid=3f828aee-4de0-4a25-a4e4-6457fb81e40e","ios":"levelo://app?vid=3f828aee-4de0-4a25-a4e4-6457fb81e40e"},"vehicle_type_id":"4","last_reported":1741799360,"current_range_meters":13600,"station_id":"ce4bgv92rcd13ifvqcr0","pricing_plan_id":"cebpf4jnsgd1na2vs0mg"},{"bike_id":"70672d44-5bae-4e09-9a3c-c47ebdf8f55f","system_id":"levelo_inurba_marseille","lat":43.30563,"lon":5.36712,"is_reserved":false,"is_disabled":false,"rental_uris":{"android":"levelo://app?vid=70672d44-5bae-4e09-9a3c-c47ebdf8f55f","ios":"levelo://app?vid=70672d44-5bae-4e09-9a3c-c47ebdf8f55f"},"vehicle_type_id":"4","last_reported":1741799360,"current_range_meters":13600,"station_id":"ce4bgrp2rcd13ifvqc9g","pricing_plan_id":"cebpf4jnsgd1na2vs0mg"},{"bike_id":"2738320e-a422-47df-9c51-1588d0339812","system_id":"levelo_inurba_marseille","lat":43.31075,"lon":5.38347,"is_reserved":false,"is_disabled":false,"rental_uris":{"android":"levelo://app?vid=2738320e-a422-47df-9c51-1588d0339812","ios":"levelo://app?vid=2738320e-a422-47df-9c51-1588d0339812"},"vehicle_type_id":"4","last_reported":1741799360,"current_range_meters":14000,"station_id":"ce4bgv92rcd13ifvqcr0","pricing_plan_id":"cebpf4jnsgd1na2vs0mg"},{"bike_id":"0420ab90-0203-49bc-a76d-8a5003ef7a7e","system_id":"levelo_inurba_marseille","lat":43.29983,"lon":5.385,"is_reserved":false,"is_disabled":false,"rental_uris":{"android":"levelo://app?vid=0420ab90-0203-49bc-a76d-8a5003ef7a7e","ios":"levelo://app?vid=0420ab90-0203-49bc-a76d-8a5003ef7a7e"},"vehicle_type_id":"4","last_reported":1741799360,"current_range_meters":14000,"station_id":"ce4bgj92rcd13ifvqbd0","pricing_plan_id":"cebpf4jnsgd1na2vs0mg"},{"bike_id":"6df1e7f3-12c0-481c-9941-2246e17807ca","system_id":"levelo_inurba_marseille","lat":43.28483,"lon":5.36804,"is_reserved":false,"is_disabled":true,"rental_uris":{"android":"levelo://app?vid=6df1e7f3-12c0-481c-9941-2246e17807ca","ios":"levelo://app?vid=6df1e7f3-12c0-481c-9941-2246e17807ca"},"vehicle_type_id":"4","last_reported":1741799360,"current_range_meters":14000,"station_id":"","pricing_plan_id":"cebpf4jnsgd1na2vs0mg"},{"bike_id":"cc721c7a-2c5d-4356-a2b6-591ee2c610c1","system_id":"levelo_inurba_marseille","lat":43.29714,"lon":5.37687,"is_reserved":false,"is_disabled":false,"rental_uris":{"android":"levelo://app?vid=cc721c7a-2c5d-4356-a2b6-591ee2c610c1","ios":"levelo://app?vid=cc721c7a-2c5d-4356-a2b6-591ee2c610c1"},"vehicle_type_id":"4","last_reported":1741799360,"current_range_meters":14000,"station_id":"ce4bgkh2rcd13ifvqbl0","pricing_plan_id":"cebpf4jnsgd1na2vs0mg"},{"bike_id":"bc016238-32d8-42f6-99e1-597e69ff5001","system_id":"levelo_inurba_marseille","lat":43.29845,"lon":5.36276,"is_reserved":false,"is_disabled":false,"rental_uris":{"android":"levelo://app?vid=bc016238-32d8-42f6-99e1-597e69ff5001","ios":"levelo://app?vid=bc016238-32d8-42f6-99e1-597e69ff5001"},"vehicle_type_id":"4","last_reported":1741799360,"current_range_meters":13600,"station_id":"ce4bgpp2rcd13ifvqc3g","pricing_plan_id":"cebpf4jnsgd1na2vs0mg"},{"bike_id":"bbab5941-57a6-46bd-8342-cb936474b23a","system_id":"levelo_inurba_marseille","lat":43.29845,"lon":5.36276,"is_reserved":false,"is_disabled":false,"rental_uris":{"android":"levelo://app?vid=bbab5941-57a6-46bd-8342-cb936474b23a","ios":"levelo://app?vid=bbab5941-57a6-46bd-8342-cb936474b23a"},"vehicle_type_id":"4","last_reported":1741799360,"current_range_meters":14000,"station_id":"ce4bgpp2rcd13ifvqc3g","pricing_plan_id":"cebpf4jnsgd1na2vs0mg"},{"bike_id":"7382db7c-ea28-4d6b-a6ac-0a5dc179880b","system_id":"levelo_inurba_marseille","lat":43.33149,"lon":5.38181,"is_reserved":false,"is_disabled":false,"rental_uris":{"android":"levelo://app?vid=7382db7c-ea28-4d6b-a6ac-0a5dc179880b","ios":"levelo://app?vid=7382db7c-ea28-4d6b-a6ac-0a5dc179880b"},"vehicle_type_id":"4","last_reported":1741799360,"current_range_meters":14400,"station_id":"","pricing_plan_id":"cebpf4jnsgd1na2vs0mg"},{"bike_id":"3e862979-ba8d-4ed4-b151-d4fa6756f20c","system_id":"levelo_inurba_marseille","lat":43.33044,"lon":5.39046,"is_reserved":false,"is_disabled":false,"rental_uris":{"android":"levelo://app?vid=3e862979-ba8d-4ed4-b151-d4fa6756f20c","ios":"levelo://app?vid=3e862979-ba8d-4ed4-b151-d4fa6756f20c"},"vehicle_type_id":"4","last_reported":1741799360,"current_range_meters":14400,"station_id":"ce4bhr92rcd13ifvqhrg","pricing_plan_id":"cebpf4jnsgd1na2vs0mg"},{"bike_id":"8e76af42-ac1f-4a64-bde0-20b419030ddf","system_id":"levelo_inurba_marseille","lat":43.25004,"lon":5.38929,"is_reserved":false,"is_disabled":false,"rental_uris":{"android":"levelo://app?vid=8e76af42-ac1f-4a64-bde0-20b419030ddf","ios":"levelo://app?vid=8e76af42-ac1f-4a64-bde0-20b419030ddf"},"vehicle_type_id":"4","last_reported":1741799360,"current_range_meters":14400,"station_id":"ce4bhgp2rcd13ifvqfd0","pricing_plan_id":"cebpf4jnsgd1na2vs0mg"},{"bike_id":"ff15c491-400c-44a9-aa58-b428f737c569","system_id":"levelo_inurba_marseille","lat":43.33028,"lon":5.39053,"is_reserved":false,"is_disabled":false,"rental_uris":{"android":"levelo://app?vid=ff15c491-400c-44a9-aa58-b428f737c569","ios":"levelo://app?vid=ff15c491-400c-44a9-aa58-b428f737c569"},"vehicle_type_id":"4","last_reported":1741799360,"current_range_meters":14400,"station_id":"ce4bhr92rcd13ifvqhrg","pricing_plan_id":"cebpf4jnsgd1na2vs0mg"},{"bike_id":"551127b7-3887-427f-87dd-732a7b780507","system_id":"levelo_inurba_marseille","lat":43.28729,"lon":5.3608,"is_reserved":false,"is_disabled":false,"rental_uris":{"android":"levelo://app?vid=551127b7-3887-427f-87dd-732a7b780507","ios":"levelo://app?vid=551127b7-3887-427f-87dd-732a7b780507"},"vehicle_type_id":"4","last_reported":1741799360,"current_range_meters":14800,"station_id":"cki0cbj6b192h4jlfktg","pricing_plan_id":"cebpf4jnsgd1na2vs0mg"},{"bike_id":"7b8b288a-1263-4bb7-b082-b8cec0e2c2c0","system_id":"levelo_inurba_marseille","lat":43.32691,"lon":5.39173,"is_reserved":false,"is_disabled":false,"rental_uris":{"android":"levelo://app?vid=7b8b288a-1263-4bb7-b082-b8cec0e2c2c0","ios":"levelo://app?vid=7b8b288a-1263-4bb7-b082-b8cec0e2c2c0"},"vehicle_type_id":"4","last_reported":1741799360,"current_range_meters":14800,"station_id":"","pricing_plan_id":"cebpf4jnsgd1na2vs0mg"},{"bike_id":"e924fbcb-e555-43fd-95a0-ba5a64f4119a","system_id":"levelo_inurba_marseille","lat":43.27072,"lon":5.42282,"is_reserved":false,"is_disabled":false,"rental_uris":{"android":"levelo://app?vid=e924fbcb-e555-43fd-95a0-ba5a64f4119a","ios":"levelo://app?vid=e924fbcb-e555-43fd-95a0-ba5a64f4119a"},"vehicle_type_id":"4","last_reported":1741799360,"current_range_meters":15200,"station_id":"ce4bhk92rcd13ifvqgb0","pricing_plan_id":"cebpf4jnsgd1na2vs0mg"},{"bike_id":"e85e7281-8ded-4f9f-9074-cd43c73f5f32","system_id":"levelo_inurba_marseille","lat":43.31313,"lon":5.3733,"is_reserved":false,"is_disabled":false,"rental_uris":{"android":"levelo://app?vid=e85e7281-8ded-4f9f-9074-cd43c73f5f32","ios":"levelo://app?vid=e85e7281-8ded-4f9f-9074-cd43c73f5f32"},"vehicle_type_id":"4","last_reported":1741799360,"current_range_meters":15200,"station_id":"","pricing_plan_id":"cebpf4jnsgd1na2vs0mg"},{"bike_id":"d1235ce3-1007-4d2d-9e28-ea39398a63a8","system_id":"levelo_inurba_marseille","lat":43.23206,"lon":5.3555,"is_reserved":false,"is_disabled":false,"rental_uris":{"android":"levelo://app?vid=d1235ce3-1007-4d2d-9e28-ea39398a63a8","ios":"levelo://app?vid=d1235ce3-1007-4d2d-9e28-ea39398a63a8"},"vehicle_type_id":"4","last_reported":1741799360,"current_range_meters":15200,"station_id":"ce4bhu92rcd13ifvqi70","pricing_plan_id":"cebpf4jnsgd1na2vs0mg"},{"bike_id":"8e346a0b-ee7b-434a-a1e3-916413d1bb3f","system_id":"levelo_inurba_marseille","lat":43.30891,"lon":5.39651,"is_reserved":false,"is_disabled":false,"rental_uris":{"android":"levelo://app?vid=8e346a0b-ee7b-434a-a1e3-916413d1bb3f","ios":"levelo://app?vid=8e346a0b-ee7b-434a-a1e3-916413d1bb3f"},"vehicle_type_id":"4","last_reported":1741799360,"current_range_meters":15200,"station_id":"ce4bh012rcd13ifvqcv0","pricing_plan_id":"cebpf4jnsgd1na2vs0mg"},{"bike_id":"0118782e-a9be-4c57-a3c6-f989e8d3b9bf","system_id":"levelo_inurba_marseille","lat":43.24171,"lon":5.3971,"is_reserved":false,"is_disabled":false,"rental_uris":{"android":"levelo://app?vid=0118782e-a9be-4c57-a3c6-f989e8d3b9bf","ios":"levelo://app?vid=0118782e-a9be-4c57-a3c6-f989e8d3b9bf"},"vehicle_type_id":"4","last_reported":1741799360,"current_range_meters":15200,"station_id":"ce4bhn12rcd13ifvqgpg","pricing_plan_id":"cebpf4jnsgd1na2vs0mg"},{"bike_id":"674e6468-6229-4c5f-91d9-7ef427dc6445","system_id":"levelo_inurba_marseille","lat":43.29276,"lon":5.40116,"is_reserved":false,"is_disabled":false,"rental_uris":{"android":"levelo://app?vid=674e6468-6229-4c5f-91d9-7ef427dc6445","ios":"levelo://app?vid=674e6468-6229-4c5f-91d9-7ef427dc6445"},"vehicle_type_id":"4","last_reported":1741799360,"current_range_meters":15200,"station_id":"ce4bh312rcd13ifvqdk0","pricing_plan_id":"cebpf4jnsgd1na2vs0mg"},{"bike_id":"9ef94256-b8e0-4a76-a1e3-afc982ab50ce","system_id":"levelo_inurba_marseille","lat":43.2792,"lon":5.3958,"is_reserved":false,"is_disabled":false,"rental_uris":{"android":"levelo://app?vid=9ef94256-b8e0-4a76-a1e3-afc982ab50ce","ios":"levelo://app?vid=9ef94256-b8e0-4a76-a1e3-afc982ab50ce"},"vehicle_type_id":"4","last_reported":1741799360,"current_range_meters":15200,"station_id":"ce4bhf92rcd13ifvqf40","pricing_plan_id":"cebpf4jnsgd1na2vs0mg"},{"bike_id":"d7d48796-a752-485f-aed8-66be316574e3","system_id":"levelo_inurba_marseille","lat":43.313776,"lon":5.374449,"is_reserved":false,"is_disabled":false,"rental_uris":{"android":"levelo://app?vid=d7d48796-a752-485f-aed8-66be316574e3","ios":"levelo://app?vid=d7d48796-a752-485f-aed8-66be316574e3"},"vehicle_type_id":"4","last_reported":1741799360,"current_range_meters":15200,"station_id":"ce4bgt12rcd13ifvqcd0","pricing_plan_id":"cebpf4jnsgd1na2vs0mg"},{"bike_id":"d4cd9aa9-80b0-4b52-ae13-17ca8fcd65cc","system_id":"levelo_inurba_marseille","lat":43.29986,"lon":5.38509,"is_reserved":false,"is_disabled":false,"rental_uris":{"android":"levelo://app?vid=d4cd9aa9-80b0-4b52-ae13-17ca8fcd65cc","ios":"levelo://app?vid=d4cd9aa9-80b0-4b52-ae13-17ca8fcd65cc"},"vehicle_type_id":"4","last_reported":1741799360,"current_range_meters":16000,"station_id":"ce4bgj92rcd13ifvqbd0","pricing_plan_id":"cebpf4jnsgd1na2vs0mg"},{"bike_id":"94b30f95-19e8-4b24-809a-d279976d82ea","system_id":"levelo_inurba_marseille","lat":43.313726,"lon":5.396427,"is_reserved":false,"is_disabled":false,"rental_uris":{"android":"levelo://app?vid=94b30f95-19e8-4b24-809a-d279976d82ea","ios":"levelo://app?vid=94b30f95-19e8-4b24-809a-d279976d82ea"},"vehicle_type_id":"4","last_reported":1741799360,"current_range_meters":16000,"station_id":"","pricing_plan_id":"cebpf4jnsgd1na2vs0mg"},{"bike_id":"32ae317f-1772-467f-a998-186cb9946786","system_id":"levelo_inurba_marseille","lat":43.26955,"lon":5.38635,"is_reserved":false,"is_disabled":false,"rental_uris":{"android":"levelo://app?vid=32ae317f-1772-467f-a998-186cb9946786","ios":"levelo://app?vid=32ae317f-1772-467f-a998-186cb9946786"},"vehicle_type_id":"4","last_reported":1741799360,"current_range_meters":15200,"station_id":"ce4bhh92rcd13ifvqfh0","pricing_plan_id":"cebpf4jnsgd1na2vs0mg"},{"bike_id":"fd3ecd3c-9139-495e-8869-9a00fe6bccfe","system_id":"levelo_inurba_marseille","lat":43.29211,"lon":5.35804,"is_reserved":false,"is_disabled":false,"rental_uris":{"android":"levelo://app?vid=fd3ecd3c-9139-495e-8869-9a00fe6bccfe","ios":"levelo://app?vid=fd3ecd3c-9139-495e-8869-9a00fe6bccfe"},"vehicle_type_id":"4","last_reported":1741799360,"current_range_meters":16000,"station_id":"ce4bhb12rcd13ifvqel0","pricing_plan_id":"cebpf4jnsgd1na2vs0mg"},{"bike_id":"894adb72-eba3-4c31-be33-a34cdb918fbd","system_id":"levelo_inurba_marseille","lat":43.25491,"lon":5.41092,"is_reserved":false,"is_disabled":false,"rental_uris":{"android":"levelo://app?vid=894adb72-eba3-4c31-be33-a34cdb918fbd","ios":"levelo://app?vid=894adb72-eba3-4c31-be33-a34cdb918fbd"},"vehicle_type_id":"4","last_reported":1741799360,"current_range_meters":16000,"station_id":"","pricing_plan_id":"cebpf4jnsgd1na2vs0mg"},{"bike_id":"7a894507-965f-446c-85c2-b1caa0b0cb7a","system_id":"levelo_inurba_marseille","lat":43.29202,"lon":5.35801,"is_reserved":false,"is_disabled":false,"rental_uris":{"android":"levelo://app?vid=7a894507-965f-446c-85c2-b1caa0b0cb7a","ios":"levelo://app?vid=7a894507-965f-446c-85c2-b1caa0b0cb7a"},"vehicle_type_id":"4","last_reported":1741799360,"current_range_meters":16000,"station_id":"ce4bhb12rcd13ifvqel0","pricing_plan_id":"cebpf4jnsgd1na2vs0mg"},{"bike_id":"ddbee1c7-6e29-4e16-94af-4daab7205136","system_id":"levelo_inurba_marseille","lat":43.30545,"lon":5.3656,"is_reserved":false,"is_disabled":false,"rental_uris":{"android":"levelo://app?vid=ddbee1c7-6e29-4e16-94af-4daab7205136","ios":"levelo://app?vid=ddbee1c7-6e29-4e16-94af-4daab7205136"},"vehicle_type_id":"4","last_reported":1741799360,"current_range_meters":16000,"station_id":"ce4bgs12rcd13ifvqcag","pricing_plan_id":"cebpf4jnsgd1na2vs0mg"},{"bike_id":"a823fe98-0845-44f0-af70-a3e75e70ed04","system_id":"levelo_inurba_marseille","lat":43.25008,"lon":5.38918,"is_reserved":false,"is_disabled":false,"rental_uris":{"android":"levelo://app?vid=a823fe98-0845-44f0-af70-a3e75e70ed04","ios":"levelo://app?vid=a823fe98-0845-44f0-af70-a3e75e70ed04"},"vehicle_type_id":"4","last_reported":1741799360,"current_range_meters":16400,"station_id":"ce4bhgp2rcd13ifvqfd0","pricing_plan_id":"cebpf4jnsgd1na2vs0mg"},{"bike_id":"dea2dbbe-d14a-4257-a069-bf7f8501aada","system_id":"levelo_inurba_marseille","lat":43.30415,"lon":5.41292,"is_reserved":false,"is_disabled":false,"rental_uris":{"android":"levelo://app?vid=dea2dbbe-d14a-4257-a069-bf7f8501aada","ios":"levelo://app?vid=dea2dbbe-d14a-4257-a069-bf7f8501aada"},"vehicle_type_id":"4","last_reported":1741799360,"current_range_meters":16400,"station_id":"ce4bhop2rcd13ifvqh8g","pricing_plan_id":"cebpf4jnsgd1na2vs0mg"},{"bike_id":"b4b48ddb-d131-4692-9619-dd209e2389a6","system_id":"levelo_inurba_marseille","lat":43.2862,"lon":5.35102,"is_reserved":false,"is_disabled":false,"rental_uris":{"android":"levelo://app?vid=b4b48ddb-d131-4692-9619-dd209e2389a6","ios":"levelo://app?vid=b4b48ddb-d131-4692-9619-dd209e2389a6"},"vehicle_type_id":"4","last_reported":1741799360,"current_range_meters":16400,"station_id":"ce4bhch2rcd13ifvqeug","pricing_plan_id":"cebpf4jnsgd1na2vs0mg"},{"bike_id":"e0f9f38b-f5c0-4aef-bfe1-6b306ac43d2c","system_id":"levelo_inurba_marseille","lat":43.27997,"lon":5.40009,"is_reserved":false,"is_disabled":false,"rental_uris":{"android":"levelo://app?vid=e0f9f38b-f5c0-4aef-bfe1-6b306ac43d2c","ios":"levelo://app?vid=e0f9f38b-f5c0-4aef-bfe1-6b306ac43d2c"},"vehicle_type_id":"4","last_reported":1741799360,"current_range_meters":16400,"station_id":"ce4bho92rcd13ifvqh4g","pricing_plan_id":"cebpf4jnsgd1na2vs0mg"},{"bike_id":"4441cb2f-fcc8-48c5-9844-36aea5e37347","system_id":"levelo_inurba_marseille","lat":43.29975,"lon":5.38487,"is_reserved":false,"is_disabled":false,"rental_uris":{"android":"levelo://app?vid=4441cb2f-fcc8-48c5-9844-36aea5e37347","ios":"levelo://app?vid=4441cb2f-fcc8-48c5-9844-36aea5e37347"},"vehicle_type_id":"4","last_reported":1741799360,"current_range_meters":16400,"station_id":"ce4bgj92rcd13ifvqbd0","pricing_plan_id":"cebpf4jnsgd1na2vs0mg"},{"bike_id":"33129a94-bb92-44ae-b1b5-512706bf07e2","system_id":"levelo_inurba_marseille","lat":43.32488,"lon":5.36575,"is_reserved":false,"is_disabled":false,"rental_uris":{"android":"levelo://app?vid=33129a94-bb92-44ae-b1b5-512706bf07e2","ios":"levelo://app?vid=33129a94-bb92-44ae-b1b5-512706bf07e2"},"vehicle_type_id":"4","last_reported":1741799360,"current_range_meters":16400,"station_id":"ce4bhs12rcd13ifvqhvg","pricing_plan_id":"cebpf4jnsgd1na2vs0mg"},{"bike_id":"dcf5db51-c343-4ec4-88f1-5dacbc1936d1","system_id":"levelo_inurba_marseille","lat":43.24667,"lon":5.3816,"is_reserved":false,"is_disabled":false,"rental_uris":{"android":"levelo://app?vid=dcf5db51-c343-4ec4-88f1-5dacbc1936d1","ios":"levelo://app?vid=dcf5db51-c343-4ec4-88f1-5dacbc1936d1"},"vehicle_type_id":"4","last_reported":1741799360,"current_range_meters":16400,"station_id":"ce4bhih2rcd13ifvqfr0","pricing_plan_id":"cebpf4jnsgd1na2vs0mg"},{"bike_id":"dfc948f3-f0af-4dce-b9a0-dad1028aa2be","system_id":"levelo_inurba_marseille","lat":43.30332,"lon":5.40436,"is_reserved":false,"is_disabled":false,"rental_uris":{"android":"levelo://app?vid=dfc948f3-f0af-4dce-b9a0-dad1028aa2be","ios":"levelo://app?vid=dfc948f3-f0af-4dce-b9a0-dad1028aa2be"},"vehicle_type_id":"4","last_reported":1741799360,"current_range_meters":16400,"station_id":"ce4bh012rcd13ifvqd10","pricing_plan_id":"cebpf4jnsgd1na2vs0mg"},{"bike_id":"f550acae-a478-493d-8418-eb4ab17dc323","system_id":"levelo_inurba_marseille","lat":43.25012,"lon":5.38915,"is_reserved":false,"is_disabled":false,"rental_uris":{"android":"levelo://app?vid=f550acae-a478-493d-8418-eb4ab17dc323","ios":"levelo://app?vid=f550acae-a478-493d-8418-eb4ab17dc323"},"vehicle_type_id":"4","last_reported":1741799360,"current_range_meters":16400,"station_id":"ce4bhgp2rcd13ifvqfd0","pricing_plan_id":"cebpf4jnsgd1na2vs0mg"},{"bike_id":"71017f82-4ae5-4027-ba91-5a2d314d39ee","system_id":"levelo_inurba_marseille","lat":43.24081,"lon":5.37753,"is_reserved":false,"is_disabled":false,"rental_uris":{"android":"levelo://app?vid=71017f82-4ae5-4027-ba91-5a2d314d39ee","ios":"levelo://app?vid=71017f82-4ae5-4027-ba91-5a2d314d39ee"},"vehicle_type_id":"4","last_reported":1741799360,"current_range_meters":16800,"station_id":"ce4bhnp2rcd13ifvqgvg","pricing_plan_id":"cebpf4jnsgd1na2vs0mg"},{"bike_id":"0b78ddc6-c03d-48af-8f5c-ac8d86b0b38f","system_id":"levelo_inurba_marseille","lat":43.29525,"lon":5.39413,"is_reserved":false,"is_disabled":false,"rental_uris":{"android":"levelo://app?vid=0b78ddc6-c03d-48af-8f5c-ac8d86b0b38f","ios":"levelo://app?vid=0b78ddc6-c03d-48af-8f5c-ac8d86b0b38f"},"vehicle_type_id":"4","last_reported":1741799360,"current_range_meters":16400,"station_id":"ce4bh292rcd13ifvqdf0","pricing_plan_id":"cebpf4jnsgd1na2vs0mg"},