{"last_updated":1778790141,"ttl":60,"version":"2.2","data":{"bikes":[{"bike_id":"31c7b76d-e3da-4352-bb78-e643be9ae0e5","system_id":"levelo_inurba_marseille","lat":43.2783,"lon":5.40715,"is_reserved":false,"is_disabled":false,"rental_uris":{"android":"levelo://app?vid=31c7b76d-e3da-4352-bb78-e643be9ae0e5","ios":"levelo://app?vid=31c7b76d-e3da-4352-bb78-e643be9ae0e5"},"vehicle_type_id":"4","last_reported":1778790142,"current_range_meters":2800,"station_id":"ce4bhnh2rcd13ifvqgtg","pricing_plan_id":"cebpf4jnsgd1na2vs0mg"},{"bike_id":"e453326e-0a10-4085-a37a-ae8464e988c3","system_id":"levelo_inurba_marseille","lat":43.28451,"lon":5.35889,"is_reserved":false,"is_disabled":false,"rental_uris":{"android":"levelo://app?vid=e453326e-0a10-4085-a37a-ae8464e988c3","ios":"levelo://app?vid=e453326e-0a10-4085-a37a-ae8464e988c3"},"vehicle_type_id":"4","last_reported":1778790142,"current_range_meters":2800,"station_id":"ce4bhah2rcd13ifvqei0","pricing_plan_id":"cebpf4jnsgd1na2vs0mg"},{"bike_id":"bbc3c688-839a-4272-ba0f-bd3ff2fd5e51","system_id":"levelo_inurba_marseille","lat":43.29883,"lon":5.42078,"is_reserved":false,"is_disabled":false,"rental_uris":{"android":"levelo://app?vid=bbc3c688-839a-4272-ba0f-bd3ff2fd5e51","ios":"levelo://app?vid=bbc3c688-839a-4272-ba0f-bd3ff2fd5e51"},"vehicle_type_id":"4","last_reported":1778790142,"current_range_meters":2800,"station_id":"st_d6tc004otcvc738tfe70","pricing_plan_id":"cebpf4jnsgd1na2vs0mg"},{"bike_id":"4e7a2ecb-fc51-4546-b703-16f8f763e394","system_id":"levelo_inurba_marseille","lat":43.27021,"lon":5.38727,"is_reserved":false,"is_disabled":false,"rental_uris":{"android":"levelo://app?vid=4e7a2ecb-fc51-4546-b703-16f8f763e394","ios":"levelo://app?vid=4e7a2ecb-fc51-4546-b703-16f8f763e394"},"vehicle_type_id":"4","last_reported":1778790142,"current_range_meters":2800,"station_id":"","pricing_plan_id":"cebpf4jnsgd1na2vs0mg"},{"bike_id":"6d21e7ef-3ef9-4f0a-85e3-96eaf28ae7d3","system_id":"levelo_inurba_marseille","lat":43.22536,"lon":5.3483,"is_reserved":false,"is_disabled":true,"rental_uris":{"android":"levelo://app?vid=6d21e7ef-3ef9-4f0a-85e3-96eaf28ae7d3","ios":"levelo://app?vid=6d21e7ef-3ef9-4f0a-85e3-96eaf28ae7d3"},"vehicle_type_id":"4","last_reported":1778790142,"current_range_meters":2800,"station_id":"st_cvj5dfep6f1abm77gieg","pricing_plan_id":"cebpf4jnsgd1na2vs0mg"},{"bike_id":"18f7c39a-174e-4eed-9937-bef6cfb1b5c9","system_id":"levelo_inurba_marseille","lat":43.30622,"lon":5.37221,"is_reserved":false,"is_disabled":false,"rental_uris":{"android":"levelo://app?vid=18f7c39a-174e-4eed-9937-bef6cfb1b5c9","ios":"levelo://app?vid=18f7c39a-174e-4eed-9937-bef6cfb1b5c9"},"vehicle_type_id":"4","last_reported":1778790142,"current_range_meters":2800,"station_id":"ce4bgqh2rcd13ifvqc4g","pricing_plan_id":"cebpf4jnsgd1na2vs0mg"},{"bike_id":"31ece05a-75e8-496e-82f0-3b8d5b3a3ef3","system_id":"levelo_inurba_marseille","lat":43.28534,"lon":5.44093,"is_reserved":false,"is_disabled":false,"rental_uris":{"android":"levelo://app?vid=31ece05a-75e8-496e-82f0-3b8d5b3a3ef3","ios":"levelo://app?vid=31ece05a-75e8-496e-82f0-3b8d5b3a3ef3"},"vehicle_type_id":"4","last_reported":1778790142,"current_range_meters":2800,"station_id":"st_d3j3df2ikq2c7380ej80","pricing_plan_id":"cebpf4jnsgd1na2vs0mg"},{"bike_id":"f7e8b39b-bd7d-49e7-9aca-7ef663cdc315","system_id":"levelo_inurba_marseille","lat":43.28474,"lon":5.38427,"is_reserved":false,"is_disabled":true,"rental_uris":{"android":"levelo://app?vid=f7e8b39b-bd7d-49e7-9aca-7ef663cdc315","ios":"levelo://app?vid=f7e8b39b-bd7d-49e7-9aca-7ef663cdc315"},"vehicle_type_id":"4","last_reported":1778790142,"current_range_meters":2800,"station_id":"ce4bh512rcd13ifvqe3g","pricing_plan_id":"cebpf4jnsgd1na2vs0mg"},{"bike_id":"75dc1da9-5227-4074-9a90-b6aa56554c68","system_id":"levelo_inurba_marseille","lat":43.27835,"lon":5.4071,"is_reserved":false,"is_disabled":false,"rental_uris":{"android":"levelo://app?vid=75dc1da9-5227-4074-9a90-b6aa56554c68","ios":"levelo://app?vid=75dc1da9-5227-4074-9a90-b6aa56554c68"},"vehicle_type_id":"4","last_reported":1778790142,"current_range_meters":3200,"station_id":"ce4bhnh2rcd13ifvqgtg","pricing_plan_id":"cebpf4jnsgd1na2vs0mg"},{"bike_id":"dc773163-25b1-4f0a-8a7b-d4eef3789e6f","system_id":"levelo_inurba_marseille","lat":43.26682,"lon":5.38259,"is_reserved":false,"is_disabled":false,"rental_uris":{"android":"levelo://app?vid=dc773163-25b1-4f0a-8a7b-d4eef3789e6f","ios":"levelo://app?vid=dc773163-25b1-4f0a-8a7b-d4eef3789e6f"},"vehicle_type_id":"4","last_reported":1778790142,"current_range_meters":3200,"station_id":"ce4bhg92rcd13ifvqf90","pricing_plan_id":"cebpf4jnsgd1na2vs0mg"},{"bike_id":"e94014ef-5452-4741-a5b0-ed17b243c11c","system_id":"levelo_inurba_marseille","lat":43.2898,"lon":5.37833,"is_reserved":false,"is_disabled":false,"rental_uris":{"android":"levelo://app?vid=e94014ef-5452-4741-a5b0-ed17b243c11c","ios":"levelo://app?vid=e94014ef-5452-4741-a5b0-ed17b243c11c"},"vehicle_type_id":"4","last_reported":1778790142,"current_range_meters":3200,"station_id":"ce4bh9p2rcd13ifvqed0","pricing_plan_id":"cebpf4jnsgd1na2vs0mg"},{"bike_id":"0b4399d1-45a9-451f-8a8b-f88c81c70464","system_id":"levelo_inurba_marseille","lat":43.28694,"lon":5.37397,"is_reserved":false,"is_disabled":false,"rental_uris":{"android":"levelo://app?vid=0b4399d1-45a9-451f-8a8b-f88c81c70464","ios":"levelo://app?vid=0b4399d1-45a9-451f-8a8b-f88c81c70464"},"vehicle_type_id":"4","last_reported":1778790142,"current_range_meters":3200,"station_id":"ce4bh3p2rcd13ifvqdq0","pricing_plan_id":"cebpf4jnsgd1na2vs0mg"},{"bike_id":"adb84b81-83af-4b6f-a16b-fa780ab0c0f9","system_id":"levelo_inurba_marseille","lat":43.26224,"lon":5.40449,"is_reserved":false,"is_disabled":false,"rental_uris":{"android":"levelo://app?vid=adb84b81-83af-4b6f-a16b-fa780ab0c0f9","ios":"levelo://app?vid=adb84b81-83af-4b6f-a16b-fa780ab0c0f9"},"vehicle_type_id":"4","last_reported":1778790142,"current_range_meters":3200,"station_id":"ce4bhmh2rcd13ifvqgmg","pricing_plan_id":"cebpf4jnsgd1na2vs0mg"},{"bike_id":"a25fccba-9e68-479c-9ac1-81a44962ffbc","system_id":"levelo_inurba_marseille","lat":43.31217,"lon":5.37692,"is_reserved":false,"is_disabled":false,"rental_uris":{"android":"levelo://app?vid=a25fccba-9e68-479c-9ac1-81a44962ffbc","ios":"levelo://app?vid=a25fccba-9e68-479c-9ac1-81a44962ffbc"},"vehicle_type_id":"4","last_reported":1778790142,"current_range_meters":3600,"station_id":"","pricing_plan_id":"cebpf4jnsgd1na2vs0mg"},{"bike_id":"7493fdb6-7ba2-4b5a-b64f-a57d8e12d868","system_id":"levelo_inurba_marseille","lat":43.28432,"lon":5.3499,"is_reserved":false,"is_disabled":true,"rental_uris":{"android":"levelo://app?vid=7493fdb6-7ba2-4b5a-b64f-a57d8e12d868","ios":"levelo://app?vid=7493fdb6-7ba2-4b5a-b64f-a57d8e12d868"},"vehicle_type_id":"4","last_reported":1778790142,"current_range_meters":3600,"station_id":"ce4bhbh2rcd13ifvqepg","pricing_plan_id":"cebpf4jnsgd1na2vs0mg"},{"bike_id":"91af2437-7703-44e4-9ea1-cf08764c4a56","system_id":"levelo_inurba_marseille","lat":43.30434,"lon":5.38883,"is_reserved":false,"is_disabled":false,"rental_uris":{"android":"levelo://app?vid=91af2437-7703-44e4-9ea1-cf08764c4a56","ios":"levelo://app?vid=91af2437-7703-44e4-9ea1-cf08764c4a56"},"vehicle_type_id":"4","last_reported":1778790142,"current_range_meters":3600,"station_id":"ce4bgk12rcd13ifvqbi0","pricing_plan_id":"cebpf4jnsgd1na2vs0mg"},{"bike_id":"60ddcd58-ed5f-4c87-89df-4d116481dcfd","system_id":"levelo_inurba_marseille","lat":43.295703,"lon":5.397097,"is_reserved":false,"is_disabled":false,"rental_uris":{"android":"levelo://app?vid=60ddcd58-ed5f-4c87-89df-4d116481dcfd","ios":"levelo://app?vid=60ddcd58-ed5f-4c87-89df-4d116481dcfd"},"vehicle_type_id":"4","last_reported":1778790142,"current_range_meters":3600,"station_id":"ce4bh3p2rcd13ifvqdp0","pricing_plan_id":"cebpf4jnsgd1na2vs0mg"},{"bike_id":"e6af4dfe-7a13-4929-ac71-9d3454a95813","system_id":"levelo_inurba_marseille","lat":43.27208,"lon":5.39182,"is_reserved":false,"is_disabled":true,"rental_uris":{"android":"levelo://app?vid=e6af4dfe-7a13-4929-ac71-9d3454a95813","ios":"levelo://app?vid=e6af4dfe-7a13-4929-ac71-9d3454a95813"},"vehicle_type_id":"4","last_reported":1778790142,"current_range_meters":3600,"station_id":"ce4bhhp2rcd13ifvqfm0","pricing_plan_id":"cebpf4jnsgd1na2vs0mg"},{"bike_id":"50fb6a77-9b00-4b5e-bedc-9d74b728336e","system_id":"levelo_inurba_marseille","lat":43.22575,"lon":5.41632,"is_reserved":false,"is_disabled":false,"rental_uris":{"android":"levelo://app?vid=50fb6a77-9b00-4b5e-bedc-9d74b728336e","ios":"levelo://app?vid=50fb6a77-9b00-4b5e-bedc-9d74b728336e"},"vehicle_type_id":"4","last_reported":1778790142,"current_range_meters":3600,"station_id":"st_d2o4gvlbi1j2169b742g","pricing_plan_id":"cebpf4jnsgd1na2vs0mg"},{"bike_id":"5accd8a5-bf7c-4457-bbf7-f8614b62ee60","system_id":"levelo_inurba_marseille","lat":43.30156,"lon":5.37405,"is_reserved":false,"is_disabled":false,"rental_uris":{"android":"levelo://app?vid=5accd8a5-bf7c-4457-bbf7-f8614b62ee60","ios":"levelo://app?vid=5accd8a5-bf7c-4457-bbf7-f8614b62ee60"},"vehicle_type_id":"4","last_reported":1778790142,"current_range_meters":3600,"station_id":"ce4bgs92rcd13ifvqcc0","pricing_plan_id":"cebpf4jnsgd1na2vs0mg"},{"bike_id":"334fd89d-ca50-4066-bbb6-8c89b1ad5bfc","system_id":"levelo_inurba_marseille","lat":43.288503,"lon":5.393112,"is_reserved":false,"is_disabled":false,"rental_uris":{"android":"levelo://app?vid=334fd89d-ca50-4066-bbb6-8c89b1ad5bfc","ios":"levelo://app?vid=334fd89d-ca50-4066-bbb6-8c89b1ad5bfc"},"vehicle_type_id":"4","last_reported":1778790142,"current_range_meters":3600,"station_id":"ce4bh2p2rcd13ifvqdi0","pricing_plan_id":"cebpf4jnsgd1na2vs0mg"},{"bike_id":"0e1804ca-dccb-4098-accf-62174948ed0a","system_id":"levelo_inurba_marseille","lat":43.29458,"lon":5.38235,"is_reserved":false,"is_disabled":false,"rental_uris":{"android":"levelo://app?vid=0e1804ca-dccb-4098-accf-62174948ed0a","ios":"levelo://app?vid=0e1804ca-dccb-4098-accf-62174948ed0a"},"vehicle_type_id":"4","last_reported":1778790142,"current_range_meters":4000,"station_id":"","pricing_plan_id":"cebpf4jnsgd1na2vs0mg"},{"bike_id":"7eb8b468-b550-4a4e-9275-4d21e4453bef","system_id":"levelo_inurba_marseille","lat":43.24127,"lon":5.37705,"is_reserved":false,"is_disabled":false,"rental_uris":{"android":"levelo://app?vid=7eb8b468-b550-4a4e-9275-4d21e4453bef","ios":"levelo://app?vid=7eb8b468-b550-4a4e-9275-4d21e4453bef"},"vehicle_type_id":"4","last_reported":1778790142,"current_range_meters":4000,"station_id":"ce4bhnp2rcd13ifvqgvg","pricing_plan_id":"cebpf4jnsgd1na2vs0mg"},{"bike_id":"b1f85c10-3a72-4895-b4df-4b7782abd0b1","system_id":"levelo_inurba_marseille","lat":43.28538,"lon":5.44079,"is_reserved":false,"is_disabled":false,"rental_uris":{"android":"levelo://app?vid=b1f85c10-3a72-4895-b4df-4b7782abd0b1","ios":"levelo://app?vid=b1f85c10-3a72-4895-b4df-4b7782abd0b1"},"vehicle_type_id":"4","last_reported":1778790142,"current_range_meters":4000,"station_id":"st_d3j3df2ikq2c7380ej80","pricing_plan_id":"cebpf4jnsgd1na2vs0mg"},{"bike_id":"339c9f18-e8a9-4013-b0a1-1da45a13c042","system_id":"levelo_inurba_marseille","lat":43.30742,"lon":5.42437,"is_reserved":false,"is_disabled":false,"rental_uris":{"android":"levelo://app?vid=339c9f18-e8a9-4013-b0a1-1da45a13c042","ios":"levelo://app?vid=339c9f18-e8a9-4013-b0a1-1da45a13c042"},"vehicle_type_id":"4","last_reported":1778790142,"current_range_meters":4000,"station_id":"st_cvj6ca6bvosntc0bfgr0","pricing_plan_id":"cebpf4jnsgd1na2vs0mg"},{"bike_id":"212538f5-3914-4fb3-bc9a-359bdada843f","system_id":"levelo_inurba_marseille","lat":43.2907,"lon":5.37153,"is_reserved":false,"is_disabled":false,"rental_uris":{"android":"levelo://app?vid=212538f5-3914-4fb3-bc9a-359bdada843f","ios":"levelo://app?vid=212538f5-3914-4fb3-bc9a-359bdada843f"},"vehicle_type_id":"4","last_reported":1778790142,"current_range_meters":4000,"station_id":"ce4bh5p2rcd13ifvqe4g","pricing_plan_id":"cebpf4jnsgd1na2vs0mg"},{"bike_id":"9f655416-de88-49a7-8c5e-d6984bedf907","system_id":"levelo_inurba_marseille","lat":43.29255,"lon":5.38434,"is_reserved":false,"is_disabled":true,"rental_uris":{"android":"levelo://app?vid=9f655416-de88-49a7-8c5e-d6984bedf907","ios":"levelo://app?vid=9f655416-de88-49a7-8c5e-d6984bedf907"},"vehicle_type_id":"4","last_reported":1778790142,"current_range_meters":4000,"station_id":"ce4bh692rcd13ifvqea0","pricing_plan_id":"cebpf4jnsgd1na2vs0mg"},{"bike_id":"1c8551e7-65a0-49fa-ba5d-23c46f24083e","system_id":"levelo_inurba_marseille","lat":43.28711,"lon":5.46687,"is_reserved":false,"is_disabled":false,"rental_uris":{"android":"levelo://app?vid=1c8551e7-65a0-49fa-ba5d-23c46f24083e","ios":"levelo://app?vid=1c8551e7-65a0-49fa-ba5d-23c46f24083e"},"vehicle_type_id":"4","last_reported":1778790142,"current_range_meters":4000,"station_id":"st_d6tc3vkotcvc738tfjhg","pricing_plan_id":"cebpf4jnsgd1na2vs0mg"},{"bike_id":"94385a85-dc9b-4622-87de-e003859a2e74","system_id":"levelo_inurba_marseille","lat":43.28715,"lon":5.36092,"is_reserved":false,"is_disabled":false,"rental_uris":{"android":"levelo://app?vid=94385a85-dc9b-4622-87de-e003859a2e74","ios":"levelo://app?vid=94385a85-dc9b-4622-87de-e003859a2e74"},"vehicle_type_id":"4","last_reported":1778790142,"current_range_meters":4000,"station_id":"cki0cbj6b192h4jlfktg","pricing_plan_id":"cebpf4jnsgd1na2vs0mg"},{"bike_id":"86c7dff3-f11e-4c83-b6c5-405eb000e23d","system_id":"levelo_inurba_marseille","lat":43.30881,"lon":5.39611,"is_reserved":false,"is_disabled":false,"rental_uris":{"android":"levelo://app?vid=86c7dff3-f11e-4c83-b6c5-405eb000e23d","ios":"levelo://app?vid=86c7dff3-f11e-4c83-b6c5-405eb000e23d"},"vehicle_type_id":"4","last_reported":1778790142,"current_range_meters":4400,"station_id":"ce4bh012rcd13ifvqcv0","pricing_plan_id":"cebpf4jnsgd1na2vs0mg"},{"bike_id":"a6b24204-bd67-4594-b827-38e250cdf39d","system_id":"levelo_inurba_marseille","lat":43.29582,"lon":5.37493,"is_reserved":false,"is_disabled":false,"rental_uris":{"android":"levelo://app?vid=a6b24204-bd67-4594-b827-38e250cdf39d","ios":"levelo://app?vid=a6b24204-bd67-4594-b827-38e250cdf39d"},"vehicle_type_id":"4","last_reported":1778790142,"current_range_meters":4400,"station_id":"ce4bgh92rcd13ifvqb50","pricing_plan_id":"cebpf4jnsgd1na2vs0mg"},{"bike_id":"28ef638d-9f7f-490b-b81e-fcbf3794c651","system_id":"levelo_inurba_marseille","lat":43.25574,"lon":5.38252,"is_reserved":false,"is_disabled":false,"rental_uris":{"android":"levelo://app?vid=28ef638d-9f7f-490b-b81e-fcbf3794c651","ios":"levelo://app?vid=28ef638d-9f7f-490b-b81e-fcbf3794c651"},"vehicle_type_id":"4","last_reported":1778790142,"current_range_meters":4400,"station_id":"ce4bhih2rcd13ifvqfs0","pricing_plan_id":"cebpf4jnsgd1na2vs0mg"},{"bike_id":"05767840-e46d-4c3d-b8e5-cfc245de605e","system_id":"levelo_inurba_marseille","lat":43.31719,"lon":5.42389,"is_reserved":false,"is_disabled":false,"rental_uris":{"android":"levelo://app?vid=05767840-e46d-4c3d-b8e5-cfc245de605e","ios":"levelo://app?vid=05767840-e46d-4c3d-b8e5-cfc245de605e"},"vehicle_type_id":"4","last_reported":1778790142,"current_range_meters":4400,"station_id":"ce4bhp92rcd13ifvqhbg","pricing_plan_id":"cebpf4jnsgd1na2vs0mg"},{"bike_id":"af973e23-1f6c-48d1-8480-8fe313a942d0","system_id":"levelo_inurba_marseille","lat":43.29906,"lon":5.39716,"is_reserved":false,"is_disabled":false,"rental_uris":{"android":"levelo://app?vid=af973e23-1f6c-48d1-8480-8fe313a942d0","ios":"levelo://app?vid=af973e23-1f6c-48d1-8480-8fe313a942d0"},"vehicle_type_id":"4","last_reported":1778790142,"current_range_meters":4400,"station_id":"ce4bh0h2rcd13ifvqd50","pricing_plan_id":"cebpf4jnsgd1na2vs0mg"},{"bike_id":"18df3caf-e3cd-46b1-8a56-af0d8c09400e","system_id":"levelo_inurba_marseille","lat":43.24166,"lon":5.36399,"is_reserved":false,"is_disabled":false,"rental_uris":{"android":"levelo://app?vid=18df3caf-e3cd-46b1-8a56-af0d8c09400e","ios":"levelo://app?vid=18df3caf-e3cd-46b1-8a56-af0d8c09400e"},"vehicle_type_id":"4","last_reported":1778790142,"current_range_meters":4400,"station_id":"cpo36qri1sfpv3e86is0","pricing_plan_id":"cebpf4jnsgd1na2vs0mg"},{"bike_id":"4983e167-4d92-45a6-a742-688b9f61eef9","system_id":"levelo_inurba_marseille","lat":43.30327,"lon":5.40443,"is_reserved":false,"is_disabled":false,"rental_uris":{"android":"levelo://app?vid=4983e167-4d92-45a6-a742-688b9f61eef9","ios":"levelo://app?vid=4983e167-4d92-45a6-a742-688b9f61eef9"},"vehicle_type_id":"4","last_reported":1778790142,"current_range_meters":4400,"station_id":"ce4bh012rcd13ifvqd10","pricing_plan_id":"cebpf4jnsgd1na2vs0mg"},{"bike_id":"dd6e3688-69b6-419c-884f-b8d3491eb736","system_id":"levelo_inurba_marseille","lat":43.2464,"lon":5.38886,"is_reserved":false,"is_disabled":true,"rental_uris":{"android":"levelo://app?vid=dd6e3688-69b6-419c-884f-b8d3491eb736","ios":"levelo://app?vid=dd6e3688-69b6-419c-884f-b8d3491eb736"},"vehicle_type_id":"4","last_reported":1778790142,"current_range_meters":4400,"station_id":"ce4bhg12rcd13ifvqf60","pricing_plan_id":"cebpf4jnsgd1na2vs0mg"},{"bike_id":"ce864e76-007e-49ea-ae8d-5996f3dc6f3b","system_id":"levelo_inurba_marseille","lat":43.30277,"lon":5.4005,"is_reserved":false,"is_disabled":false,"rental_uris":{"android":"levelo://app?vid=ce864e76-007e-49ea-ae8d-5996f3dc6f3b","ios":"levelo://app?vid=ce864e76-007e-49ea-ae8d-5996f3dc6f3b"},"vehicle_type_id":"4","last_reported":1778790142,"current_range_meters":4400,"station_id":"ce4bgvh2rcd13ifvqcs0","pricing_plan_id":"cebpf4jnsgd1na2vs0mg"},{"bike_id":"5f7b9412-e0cd-42f7-b0d0-9f4eef390491","system_id":"levelo_inurba_marseille","lat":43.275,"lon":5.41581,"is_reserved":false,"is_disabled":false,"rental_uris":{"android":"levelo://app?vid=5f7b9412-e0cd-42f7-b0d0-9f4eef390491","ios":"levelo://app?vid=5f7b9412-e0cd-42f7-b0d0-9f4eef390491"},"vehicle_type_id":"4","last_reported":1778790142,"current_range_meters":4400,"station_id":"st_d6im8g6chgec73a5pndg","pricing_plan_id":"cebpf4jnsgd1na2vs0mg"},{"bike_id":"9cdcb8fd-6eed-4639-8fb3-c1e4eee34716","system_id":"levelo_inurba_marseille","lat":43.29045,"lon":5.3998,"is_reserved":false,"is_disabled":false,"rental_uris":{"android":"levelo://app?vid=9cdcb8fd-6eed-4639-8fb3-c1e4eee34716","ios":"levelo://app?vid=9cdcb8fd-6eed-4639-8fb3-c1e4eee34716"},"vehicle_type_id":"4","last_reported":1778790142,"current_range_meters":4400,"station_id":"ce4bh392rcd13ifvqdm0","pricing_plan_id":"cebpf4jnsgd1na2vs0mg"},{"bike_id":"32a7dfc8-58ef-4187-afb9-e7d1e73f3641","system_id":"levelo_inurba_marseille","lat":43.24801,"lon":5.37463,"is_reserved":false,"is_disabled":false,"rental_uris":{"android":"levelo://app?vid=32a7dfc8-58ef-4187-afb9-e7d1e73f3641","ios":"levelo://app?vid=32a7dfc8-58ef-4187-afb9-e7d1e73f3641"},"vehicle_type_id":"4","last_reported":1778790142,"current_range_meters":4400,"station_id":"ce4bhgh2rcd13ifvqfb0","pricing_plan_id":"cebpf4jnsgd1na2vs0mg"},{"bike_id":"c03d68a9-e9e2-4203-98a2-4e256d4f7b29","system_id":"levelo_inurba_marseille","lat":43.31233,"lon":5.36851,"is_reserved":false,"is_disabled":false,"rental_uris":{"android":"levelo://app?vid=c03d68a9-e9e2-4203-98a2-4e256d4f7b29","ios":"levelo://app?vid=c03d68a9-e9e2-4203-98a2-4e256d4f7b29"},"vehicle_type_id":"4","last_reported":1778790142,"current_range_meters":4400,"station_id":"ce4bgl92rcd13ifvqbq0","pricing_plan_id":"cebpf4jnsgd1na2vs0mg"},{"bike_id":"4066804f-6245-416c-a2b8-375581408be7","system_id":"levelo_inurba_marseille","lat":43.29133,"lon":5.42442,"is_reserved":false,"is_disabled":false,"rental_uris":{"android":"levelo://app?vid=4066804f-6245-416c-a2b8-375581408be7","ios":"levelo://app?vid=4066804f-6245-416c-a2b8-375581408be7"},"vehicle_type_id":"4","last_reported":1778790142,"current_range_meters":4800,"station_id":"","pricing_plan_id":"cebpf4jnsgd1na2vs0mg"},{"bike_id":"72179d6d-4306-495c-979e-7fc83e24d3fc","system_id":"levelo_inurba_marseille","lat":43.30187,"lon":5.36562,"is_reserved":false,"is_disabled":false,"rental_uris":{"android":"levelo://app?vid=72179d6d-4306-495c-979e-7fc83e24d3fc","ios":"levelo://app?vid=72179d6d-4306-495c-979e-7fc83e24d3fc"},"vehicle_type_id":"4","last_reported":1778790142,"current_range_meters":4800,"station_id":"","pricing_plan_id":"cebpf4jnsgd1na2vs0mg"},{"bike_id":"82913511-039f-4e4d-9000-49d891f4f2cb","system_id":"levelo_inurba_marseille","lat":43.30312,"lon":5.36903,"is_reserved":false,"is_disabled":false,"rental_uris":{"android":"levelo://app?vid=82913511-039f-4e4d-9000-49d891f4f2cb","ios":"levelo://app?vid=82913511-039f-4e4d-9000-49d891f4f2cb"},"vehicle_type_id":"4","last_reported":1778790142,"current_range_meters":4800,"station_id":"ce4bgqh2rcd13ifvqc5g","pricing_plan_id":"cebpf4jnsgd1na2vs0mg"},{"bike_id":"d42a7cf1-1fa2-40ee-b441-c73427ab11ef","system_id":"levelo_inurba_marseille","lat":43.23963,"lon":5.3663,"is_reserved":false,"is_disabled":false,"rental_uris":{"android":"levelo://app?vid=d42a7cf1-1fa2-40ee-b441-c73427ab11ef","ios":"levelo://app?vid=d42a7cf1-1fa2-40ee-b441-c73427ab11ef"},"vehicle_type_id":"4","last_reported":1778790142,"current_range_meters":4800,"station_id":"ce4bhi12rcd13ifvqfp0","pricing_plan_id":"cebpf4jnsgd1na2vs0mg"},{"bike_id":"03940a75-99f7-41c3-81fb-7f1e2366d314","system_id":"levelo_inurba_marseille","lat":43.30252,"lon":5.40051,"is_reserved":false,"is_disabled":false,"rental_uris":{"android":"levelo://app?vid=03940a75-99f7-41c3-81fb-7f1e2366d314","ios":"levelo://app?vid=03940a75-99f7-41c3-81fb-7f1e2366d314"},"vehicle_type_id":"4","last_reported":1778790142,"current_range_meters":4800,"station_id":"ce4bgvh2rcd13ifvqcs0","pricing_plan_id":"cebpf4jnsgd1na2vs0mg"},{"bike_id":"b50c4464-1f8c-441e-b3c0-9cb4f4fd437f","system_id":"levelo_inurba_marseille","lat":43.31125,"lon":5.37759,"is_reserved":false,"is_disabled":false,"rental_uris":{"android":"levelo://app?vid=b50c4464-1f8c-441e-b3c0-9cb4f4fd437f","ios":"levelo://app?vid=b50c4464-1f8c-441e-b3c0-9cb4f4fd437f"},"vehicle_type_id":"4","last_reported":1778790142,"current_range_meters":4800,"station_id":"ce4bgt92rcd13ifvqcg0","pricing_plan_id":"cebpf4jnsgd1na2vs0mg"},{"bike_id":"4ff6ac39-39f5-4e94-9558-40cdf8290da8","system_id":"levelo_inurba_marseille","lat":43.29862,"lon":5.36253,"is_reserved":false,"is_disabled":false,"rental_uris":{"android":"levelo://app?vid=4ff6ac39-39f5-4e94-9558-40cdf8290da8","ios":"levelo://app?vid=4ff6ac39-39f5-4e94-9558-40cdf8290da8"},"vehicle_type_id":"4","last_reported":1778790142,"current_range_meters":4800,"station_id":"ce4bgpp2rcd13ifvqc3g","pricing_plan_id":"cebpf4jnsgd1na2vs0mg"},{"bike_id":"b46acc34-7f59-4140-b631-19b816d3a683","system_id":"levelo_inurba_marseille","lat":43.28472,"lon":5.35069,"is_reserved":false,"is_disabled":false,"rental_uris":{"android":"levelo://app?vid=b46acc34-7f59-4140-b631-19b816d3a683","ios":"levelo://app?vid=b46acc34-7f59-4140-b631-19b816d3a683"},"vehicle_type_id":"4","last_reported":1778790142,"current_range_meters":4800,"station_id":"","pricing_plan_id":"cebpf4jnsgd1na2vs0mg"},{"bike_id":"1708bcfb-6900-4ce4-8f2f-40e64297f7b6","system_id":"levelo_inurba_marseille","lat":43.23188,"lon":5.39981,"is_reserved":false,"is_disabled":false,"rental_uris":{"android":"levelo://app?vid=1708bcfb-6900-4ce4-8f2f-40e64297f7b6","ios":"levelo://app?vid=1708bcfb-6900-4ce4-8f2f-40e64297f7b6"},"vehicle_type_id":"4","last_reported":1778790142,"current_range_meters":4800,"station_id":"ce4bhn12rcd13ifvqgqg","pricing_plan_id":"cebpf4jnsgd1na2vs0mg"},{"bike_id":"684d3a38-8682-49d5-b534-cc932694c5b9","system_id":"levelo_inurba_marseille","lat":43.29571,"lon":5.37512,"is_reserved":false,"is_disabled":false,"rental_uris":{"android":"levelo://app?vid=684d3a38-8682-49d5-b534-cc932694c5b9","ios":"levelo://app?vid=684d3a38-8682-49d5-b534-cc932694c5b9"},"vehicle_type_id":"4","last_reported":1778790142,"current_range_meters":4800,"station_id":"ce4bgh92rcd13ifvqb50","pricing_plan_id":"cebpf4jnsgd1na2vs0mg"},{"bike_id":"859e0d8c-81ef-4f57-b364-b6bc87160b0c","system_id":"levelo_inurba_marseille","lat":43.2849,"lon":5.48377,"is_reserved":false,"is_disabled":false,"rental_uris":{"android":"levelo://app?vid=859e0d8c-81ef-4f57-b364-b6bc87160b0c","ios":"levelo://app?vid=859e0d8c-81ef-4f57-b364-b6bc87160b0c"},"vehicle_type_id":"4","last_reported":1778790142,"current_range_meters":4800,"station_id":"st_d3svhcjqgbts73a3dn0g","pricing_plan_id":"cebpf4jnsgd1na2vs0mg"},{"bike_id":"b299766d-661b-4293-b516-1846fa5fb91f","system_id":"levelo_inurba_marseille","lat":43.28587,"lon":5.38606,"is_reserved":false,"is_disabled":false,"rental_uris":{"android":"levelo://app?vid=b299766d-661b-4293-b516-1846fa5fb91f","ios":"levelo://app?vid=b299766d-661b-4293-b516-1846fa5fb91f"},"vehicle_type_id":"4","last_reported":1778790142,"current_range_meters":4800,"station_id":"","pricing_plan_id":"cebpf4jnsgd1na2vs0mg"},{"bike_id":"b20ace63-57fb-4c54-9d95-302d036f8193","system_id":"levelo_inurba_marseille","lat":43.24469,"lon":5.42532,"is_reserved":false,"is_disabled":false,"rental_uris":{"android":"levelo://app?vid=b20ace63-57fb-4c54-9d95-302d036f8193","ios":"levelo://app?vid=b20ace63-57fb-4c54-9d95-302d036f8193"},"vehicle_type_id":"4","last_reported":1778790142,"current_range_meters":4800,"station_id":"st_d4a3vfp97mjs738cd8kg","pricing_plan_id":"cebpf4jnsgd1na2vs0mg"},{"bike_id":"9ebc84f8-1699-4a37-81b3-498c15787fd3","system_id":"levelo_inurba_marseille","lat":43.29934,"lon":5.36545,"is_reserved":false,"is_disabled":false,"rental_uris":{"android":"levelo://app?vid=9ebc84f8-1699-4a37-81b3-498c15787fd3","ios":"levelo://app?vid=9ebc84f8-1699-4a37-81b3-498c15787fd3"},"vehicle_type_id":"4","last_reported":1778790142,"current_range_meters":4800,"station_id":"ce4bgm92rcd13ifvqbr0","pricing_plan_id":"cebpf4jnsgd1na2vs0mg"},{"bike_id":"9a692f79-8a09-4f23-b8ea-84237349bfe2","system_id":"levelo_inurba_marseille","lat":43.25581,"lon":5.38236,"is_reserved":false,"is_disabled":false,"rental_uris":{"android":"levelo://app?vid=9a692f79-8a09-4f23-b8ea-84237349bfe2","ios":"levelo://app?vid=9a692f79-8a09-4f23-b8ea-84237349bfe2"},"vehicle_type_id":"4","last_reported":1778790142,"current_range_meters":5600,"station_id":"ce4bhih2rcd13ifvqfs0","pricing_plan_id":"cebpf4jnsgd1na2vs0mg"},{"bike_id":"71f79cad-e5ae-4f22-866f-036862fdd14b","system_id":"levelo_inurba_marseille","lat":43.25589,"lon":5.382282,"is_reserved":false,"is_disabled":false,"rental_uris":{"android":"levelo://app?vid=71f79cad-e5ae-4f22-866f-036862fdd14b","ios":"levelo://app?vid=71f79cad-e5ae-4f22-866f-036862fdd14b"},"vehicle_type_id":"4","last_reported":1778790142,"current_range_meters":5600,"station_id":"ce4bhih2rcd13ifvqfs0","pricing_plan_id":"cebpf4jnsgd1na2vs0mg"},{"bike_id":"be9da39c-5724-455b-8f0b-fd255257580a","system_id":"levelo_inurba_marseille","lat":43.29841,"lon":5.36244,"is_reserved":false,"is_disabled":false,"rental_uris":{"android":"levelo://app?vid=be9da39c-5724-455b-8f0b-fd255257580a","ios":"levelo://app?vid=be9da39c-5724-455b-8f0b-fd255257580a"},"vehicle_type_id":"4","last_reported":1778790142,"current_range_meters":5600,"station_id":"ce4bgpp2rcd13ifvqc3g","pricing_plan_id":"cebpf4jnsgd1na2vs0mg"},{"bike_id":"0405c01b-91bd-4c26-99f0-cf7d221b9821","system_id":"levelo_inurba_marseille","lat":43.27964,"lon":5.38716,"is_reserved":false,"is_disabled":false,"rental_uris":{"android":"levelo://app?vid=0405c01b-91bd-4c26-99f0-cf7d221b9821","ios":"levelo://app?vid=0405c01b-91bd-4c26-99f0-cf7d221b9821"},"vehicle_type_id":"4","last_reported":1778790142,"current_range_meters":5600,"station_id":"ce4bhg12rcd13ifvqf80","pricing_plan_id":"cebpf4jnsgd1na2vs0mg"},{"bike_id":"0b172664-bc54-46b5-be44-8f153963abfa","system_id":"levelo_inurba_marseille","lat":43.246523,"lon":5.388931,"is_reserved":false,"is_disabled":false,"rental_uris":{"android":"levelo://app?vid=0b172664-bc54-46b5-be44-8f153963abfa","ios":"levelo://app?vid=0b172664-bc54-46b5-be44-8f153963abfa"},"vehicle_type_id":"4","last_reported":1778790142,"current_range_meters":5600,"station_id":"ce4bhg12rcd13ifvqf60","pricing_plan_id":"cebpf4jnsgd1na2vs0mg"},{"bike_id":"00aae160-e9c4-418e-baa3-4a6ffdfa72a2","system_id":"levelo_inurba_marseille","lat":43.29516,"lon":5.39032,"is_reserved":false,"is_disabled":false,"rental_uris":{"android":"levelo://app?vid=00aae160-e9c4-418e-baa3-4a6ffdfa72a2","ios":"levelo://app?vid=00aae160-e9c4-418e-baa3-4a6ffdfa72a2"},"vehicle_type_id":"4","last_reported":1778790142,"current_range_meters":5600,"station_id":"ce4bh3p2rcd13ifvqdp0","pricing_plan_id":"cebpf4jnsgd1na2vs0mg"},{"bike_id":"232f025f-5f64-48f0-ba14-125f00a07b5b","system_id":"levelo_inurba_marseille","lat":43.2867,"lon":5.36352,"is_reserved":false,"is_disabled":false,"rental_uris":{"android":"levelo://app?vid=232f025f-5f64-48f0-ba14-125f00a07b5b","ios":"levelo://app?vid=232f025f-5f64-48f0-ba14-125f00a07b5b"},"vehicle_type_id":"4","last_reported":1778790142,"current_range_meters":5600,"station_id":"ce4bhah2rcd13ifvqej0","pricing_plan_id":"cebpf4jnsgd1na2vs0mg"},{"bike_id":"43dc5ec9-cce1-48fb-99af-2b40ca7b9483","system_id":"levelo_inurba_marseille","lat":43.21748,"lon":5.34612,"is_reserved":false,"is_disabled":false,"rental_uris":{"android":"levelo://app?vid=43dc5ec9-cce1-48fb-99af-2b40ca7b9483","ios":"levelo://app?vid=43dc5ec9-cce1-48fb-99af-2b40ca7b9483"},"vehicle_type_id":"4","last_reported":1778790142,"current_range_meters":6000,"station_id":"st_cvj6r9ubvosntc0bgbag","pricing_plan_id":"cebpf4jnsgd1na2vs0mg"},{"bike_id":"a2518e20-51b5-4d43-9502-eba82a1878b1","system_id":"levelo_inurba_marseille","lat":43.289286,"lon":5.384079,"is_reserved":false,"is_disabled":false,"rental_uris":{"android":"levelo://app?vid=a2518e20-51b5-4d43-9502-eba82a1878b1","ios":"levelo://app?vid=a2518e20-51b5-4d43-9502-eba82a1878b1"},"vehicle_type_id":"4","last_reported":1778790142,"current_range_meters":6000,"station_id":"ce4bh612rcd13ifvqe6g","pricing_plan_id":"cebpf4jnsgd1na2vs0mg"},{"bike_id":"22e972e2-e9eb-43fe-bbe7-54d311d8dfbf","system_id":"levelo_inurba_marseille","lat":43.2981,"lon":5.38087,"is_reserved":false,"is_disabled":false,"rental_uris":{"android":"levelo://app?vid=22e972e2-e9eb-43fe-bbe7-54d311d8dfbf","ios":"levelo://app?vid=22e972e2-e9eb-43fe-bbe7-54d311d8dfbf"},"vehicle_type_id":"4","last_reported":1778790142,"current_range_meters":6000,"station_id":"ce4bgip2rcd13ifvqbb0","pricing_plan_id":"cebpf4jnsgd1na2vs0mg"},{"bike_id":"f009bb4b-625b-4482-8ff8-5aeca90a33f4","system_id":"levelo_inurba_marseille","lat":43.26225,"lon":5.37425,"is_reserved":false,"is_disabled":false,"rental_uris":{"android":"levelo://app?vid=f009bb4b-625b-4482-8ff8-5aeca90a33f4","ios":"levelo://app?vid=f009bb4b-625b-4482-8ff8-5aeca90a33f4"},"vehicle_type_id":"4","last_reported":1778790142,"current_range_meters":6000,"station_id":"","pricing_plan_id":"cebpf4jnsgd1na2vs0mg"},{"bike_id":"3c9fd14c-8db8-479c-846c-f3dc1ab44fd4","system_id":"levelo_inurba_marseille","lat":43.24714,"lon":5.39299,"is_reserved":false,"is_disabled":false,"rental_uris":{"android":"levelo://app?vid=3c9fd14c-8db8-479c-846c-f3dc1ab44fd4","ios":"levelo://app?vid=3c9fd14c-8db8-479c-846c-f3dc1ab44fd4"},"vehicle_type_id":"4","last_reported":1778790142,"current_range_meters":6000,"station_id":"","pricing_plan_id":"cebpf4jnsgd1na2vs0mg"},{"bike_id":"f056594d-32bc-4ca5-b1a2-99688625d226","system_id":"levelo_inurba_marseille","lat":43.24667,"lon":5.38158,"is_reserved":false,"is_disabled":false,"rental_uris":{"android":"levelo://app?vid=f056594d-32bc-4ca5-b1a2-99688625d226","ios":"levelo://app?vid=f056594d-32bc-4ca5-b1a2-99688625d226"},"vehicle_type_id":"4","last_reported":1778790142,"current_range_meters":6000,"station_id":"ce4bhih2rcd13ifvqfr0","pricing_plan_id":"cebpf4jnsgd1na2vs0mg"},{"bike_id":"9ab268a0-a8ea-4091-be12-135023a9af46","system_id":"levelo_inurba_marseille","lat":43.30406,"lon":5.39724,"is_reserved":false,"is_disabled":false,"rental_uris":{"android":"levelo://app?vid=9ab268a0-a8ea-4091-be12-135023a9af46","ios":"levelo://app?vid=9ab268a0-a8ea-4091-be12-135023a9af46"},"vehicle_type_id":"4","last_reported":1778790142,"current_range_meters":6000,"station_id":"ce4bh092rcd13ifvqd20","pricing_plan_id":"cebpf4jnsgd1na2vs0mg"},{"bike_id":"1e03ea76-26bd-43eb-8acf-8a58fabdd7d2","system_id":"levelo_inurba_marseille","lat":43.28936,"lon":5.38376,"is_reserved":false,"is_disabled":false,"rental_uris":{"android":"levelo://app?vid=1e03ea76-26bd-43eb-8acf-8a58fabdd7d2","ios":"levelo://app?vid=1e03ea76-26bd-43eb-8acf-8a58fabdd7d2"},"vehicle_type_id":"4","last_reported":1778790142,"current_range_meters":6000,"station_id":"ce4bh612rcd13ifvqe6g","pricing_plan_id":"cebpf4jnsgd1na2vs0mg"},{"bike_id":"7e9cb24d-e99f-4ce7-ad8b-25f70f094f65","system_id":"levelo_inurba_marseille","lat":43.29534,"lon":5.38533,"is_reserved":false,"is_disabled":false,"rental_uris":{"android":"levelo://app?vid=7e9cb24d-e99f-4ce7-ad8b-25f70f094f65","ios":"levelo://app?vid=7e9cb24d-e99f-4ce7-ad8b-25f70f094f65"},"vehicle_type_id":"4","last_reported":1778790142,"current_range_meters":6000,"station_id":"ce4bgih2rcd13ifvqba0","pricing_plan_id":"cebpf4jnsgd1na2vs0mg"},{"bike_id":"136b13dc-9ec9-4913-af37-687902357274","system_id":"levelo_inurba_marseille","lat":43.27895,"lon":5.37996,"is_reserved":false,"is_disabled":false,"rental_uris":{"android":"levelo://app?vid=136b13dc-9ec9-4913-af37-687902357274","ios":"levelo://app?vid=136b13dc-9ec9-4913-af37-687902357274"},"vehicle_type_id":"4","last_reported":1778790142,"current_range_meters":6000,"station_id":"ce4bhf92rcd13ifvqf50","pricing_plan_id":"cebpf4jnsgd1na2vs0mg"},{"bike_id":"d1be613e-085b-4259-9861-d62c7bd1b056","system_id":"levelo_inurba_marseille","lat":43.31916,"lon":5.36824,"is_reserved":false,"is_disabled":false,"rental_uris":{"android":"levelo://app?vid=d1be613e-085b-4259-9861-d62c7bd1b056","ios":"levelo://app?vid=d1be613e-085b-4259-9861-d62c7bd1b056"},"vehicle_type_id":"4","last_reported":1778790142,"current_range_meters":6000,"station_id":"st_d6o2h0d0559c73evc1b0","pricing_plan_id":"cebpf4jnsgd1na2vs0mg"},{"bike_id":"65de59f3-98d1-400d-ab73-7c50b2aec084","system_id":"levelo_inurba_marseille","lat":43.28884,"lon":5.35835,"is_reserved":false,"is_disabled":false,"rental_uris":{"android":"levelo://app?vid=65de59f3-98d1-400d-ab73-7c50b2aec084","ios":"levelo://app?vid=65de59f3-98d1-400d-ab73-7c50b2aec084"},"vehicle_type_id":"4","last_reported":1778790142,"current_range_meters":6400,"station_id":"ce4bhb12rcd13ifvqem0","pricing_plan_id":"cebpf4jnsgd1na2vs0mg"},{"bike_id":"003baca3-1b51-47a6-bbf5-e479a5ad0ebd","system_id":"levelo_inurba_marseille","lat":43.33569,"lon":5.37455,"is_reserved":false,"is_disabled":false,"rental_uris":{"android":"levelo://app?vid=003baca3-1b51-47a6-bbf5-e479a5ad0ebd","ios":"levelo://app?vid=003baca3-1b51-47a6-bbf5-e479a5ad0ebd"},"vehicle_type_id":"4","last_reported":1778790142,"current_range_meters":6400,"station_id":"st_d46tts09ee8s73dlu43g","pricing_plan_id":"cebpf4jnsgd1na2vs0mg"},{"bike_id":"0d3ae179-e533-403e-a5c1-c244378d22fd","system_id":"levelo_inurba_marseille","lat":43.31359,"lon":5.36733,"is_reserved":false,"is_disabled":false,"rental_uris":{"android":"levelo://app?vid=0d3ae179-e533-403e-a5c1-c244378d22fd","ios":"levelo://app?vid=0d3ae179-e533-403e-a5c1-c244378d22fd"},"vehicle_type_id":"4","last_reported":1778790142,"current_range_meters":6400,"station_id":"ce4bgr92rcd13ifvqc6g","pricing_plan_id":"cebpf4jnsgd1na2vs0mg"},{"bike_id":"c38032f0-399c-4786-9920-7e551e1918e1","system_id":"levelo_inurba_marseille","lat":43.23145,"lon":5.43723,"is_reserved":false,"is_disabled":false,"rental_uris":{"android":"levelo://app?vid=c38032f0-399c-4786-9920-7e551e1918e1","ios":"levelo://app?vid=c38032f0-399c-4786-9920-7e551e1918e1"},"vehicle_type_id":"4","last_reported":1778790142,"current_range_meters":6400,"station_id":"ce4bhmp2rcd13ifvqgog","pricing_plan_id":"cebpf4jnsgd1na2vs0mg"},{"bike_id":"403abfca-db03-47e4-b8c9-06a6b97b58d4","system_id":"levelo_inurba_marseille","lat":43.33218,"lon":5.43052,"is_reserved":false,"is_disabled":false,"rental_uris":{"android":"levelo://app?vid=403abfca-db03-47e4-b8c9-06a6b97b58d4","ios":"levelo://app?vid=403abfca-db03-47e4-b8c9-06a6b97b58d4"},"vehicle_type_id":"4","last_reported":1778790142,"current_range_meters":6400,"station_id":"","pricing_plan_id":"cebpf4jnsgd1na2vs0mg"},{"bike_id":"e50c573c-9751-4628-a335-8ddb88801cf7","system_id":"levelo_inurba_marseille","lat":43.286,"lon":5.39888,"is_reserved":false,"is_disabled":false,"rental_uris":{"android":"levelo://app?vid=e50c573c-9751-4628-a335-8ddb88801cf7","ios":"levelo://app?vid=e50c573c-9751-4628-a335-8ddb88801cf7"},"vehicle_type_id":"4","last_reported":1778790142,"current_range_meters":6400,"station_id":"st_d4a7ka997mjs738ck50g","pricing_plan_id":"cebpf4jnsgd1na2vs0mg"},{"bike_id":"4408a6e3-ad7c-45c9-acc5-b3cf4f1b51d0","system_id":"levelo_inurba_marseille","lat":43.28716,"lon":5.37408,"is_reserved":false,"is_disabled":false,"rental_uris":{"android":"levelo://app?vid=4408a6e3-ad7c-45c9-acc5-b3cf4f1b51d0","ios":"levelo://app?vid=4408a6e3-ad7c-45c9-acc5-b3cf4f1b51d0"},"vehicle_type_id":"4","last_reported":1778790142,"current_range_meters":6400,"station_id":"ce4bh3p2rcd13ifvqdq0","pricing_plan_id":"cebpf4jnsgd1na2vs0mg"},{"bike_id":"0799ffbc-bb27-4016-b9cf-72f11653058a","system_id":"levelo_inurba_marseille","lat":43.29583,"lon":5.37489,"is_reserved":false,"is_disabled":true,"rental_uris":{"android":"levelo://app?vid=0799ffbc-bb27-4016-b9cf-72f11653058a","ios":"levelo://app?vid=0799ffbc-bb27-4016-b9cf-72f11653058a"},"vehicle_type_id":"4","last_reported":1778790142,"current_range_meters":6400,"station_id":"ce4bgh92rcd13ifvqb50","pricing_plan_id":"cebpf4jnsgd1na2vs0mg"},{"bike_id":"c535ec2c-19c1-44c4-a485-084a2cc5acd3","system_id":"levelo_inurba_marseille","lat":43.26624,"lon":5.3908,"is_reserved":false,"is_disabled":false,"rental_uris":{"android":"levelo://app?vid=c535ec2c-19c1-44c4-a485-084a2cc5acd3","ios":"levelo://app?vid=c535ec2c-19c1-44c4-a485-084a2cc5acd3"},"vehicle_type_id":"4","last_reported":1778790142,"current_range_meters":6400,"station_id":"","pricing_plan_id":"cebpf4jnsgd1na2vs0mg"},{"bike_id":"59ce20e6-0fed-4098-a70a-f441a25f5c2a","system_id":"levelo_inurba_marseille","lat":43.30094,"lon":5.39066,"is_reserved":false,"is_disabled":false,"rental_uris":{"android":"levelo://app?vid=59ce20e6-0fed-4098-a70a-f441a25f5c2a","ios":"levelo://app?vid=59ce20e6-0fed-4098-a70a-f441a25f5c2a"},"vehicle_type_id":"4","last_reported":1778790142,"current_range_meters":6400,"station_id":"ce4bh192rcd13ifvqdb0","pricing_plan_id":"cebpf4jnsgd1na2vs0mg"},{"bike_id":"5778586b-ec4b-4c38-8672-87a60783cca5","system_id":"levelo_inurba_marseille","lat":43.29609,"lon":5.38126,"is_reserved":false,"is_disabled":false,"rental_uris":{"android":"levelo://app?vid=5778586b-ec4b-4c38-8672-87a60783cca5","ios":"levelo://app?vid=5778586b-ec4b-4c38-8672-87a60783cca5"},"vehicle_type_id":"4","last_reported":1778790142,"current_range_meters":6400,"station_id":"ce4bgl12rcd13ifvqbo0","pricing_plan_id":"cebpf4jnsgd1na2vs0mg"},{"bike_id":"e6528395-0480-4be9-aad0-ea97b80c06b1","system_id":"levelo_inurba_marseille","lat":43.26559,"lon":5.37287,"is_reserved":false,"is_disabled":false,"rental_uris":{"android":"levelo://app?vid=e6528395-0480-4be9-aad0-ea97b80c06b1","ios":"levelo://app?vid=e6528395-0480-4be9-aad0-ea97b80c06b1"},"vehicle_type_id":"4","last_reported":1778790142,"current_range_meters":6400,"station_id":"ce4bhg12rcd13ifvqf70","pricing_plan_id":"cebpf4jnsgd1na2vs0mg"},{"bike_id":"8a82c602-8883-44f0-957f-001da4dff368","system_id":"levelo_inurba_marseille","lat":43.26229,"lon":5.38757,"is_reserved":false,"is_disabled":false,"rental_uris":{"android":"levelo://app?vid=8a82c602-8883-44f0-957f-001da4dff368","ios":"levelo://app?vid=8a82c602-8883-44f0-957f-001da4dff368"},"vehicle_type_id":"4","last_reported":1778790142,"current_range_meters":6400,"station_id":"","pricing_plan_id":"cebpf4jnsgd1na2vs0mg"},{"bike_id":"af705914-bb9c-47f1-9802-e7ff0d2548f0","system_id":"levelo_inurba_marseille","lat":43.25516,"lon":5.37672,"is_reserved":false,"is_disabled":false,"rental_uris":{"android":"levelo://app?vid=af705914-bb9c-47f1-9802-e7ff0d2548f0","ios":"levelo://app?vid=af705914-bb9c-47f1-9802-e7ff0d2548f0"},"vehicle_type_id":"4","last_reported":1778790142,"current_range_meters":6400,"station_id":"ce4bhh12rcd13ifvqff0","pricing_plan_id":"cebpf4jnsgd1na2vs0mg"},{"bike_id":"8de721ee-dc1a-4428-89d4-4036f8e90296","system_id":"levelo_inurba_marseille","lat":43.32103,"lon":5.36777,"is_reserved":false,"is_disabled":false,"rental_uris":{"android":"levelo://app?vid=8de721ee-dc1a-4428-89d4-4036f8e90296","ios":"levelo://app?vid=8de721ee-dc1a-4428-89d4-4036f8e90296"},"vehicle_type_id":"4","last_reported":1778790142,"current_range_meters":6400,"station_id":"ce4bhrh2rcd13ifvqhug","pricing_plan_id":"cebpf4jnsgd1na2vs0mg"},{"bike_id":"b05b1a21-06dc-462e-a3d0-a58a61ae9e80","system_id":"levelo_inurba_marseille","lat":43.29257,"lon":5.3843,"is_reserved":false,"is_disabled":false,"rental_uris":{"android":"levelo://app?vid=b05b1a21-06dc-462e-a3d0-a58a61ae9e80","ios":"levelo://app?vid=b05b1a21-06dc-462e-a3d0-a58a61ae9e80"},"vehicle_type_id":"4","last_reported":1778790142,"current_range_meters":6400,"station_id":"ce4bh692rcd13ifvqea0","pricing_plan_id":"cebpf4jnsgd1na2vs0mg"},{"bike_id":"6e83f73a-c3f1-4c64-9658-62af3e95c132","system_id":"levelo_inurba_marseille","lat":43.316879,"lon":5.404735,"is_reserved":false,"is_disabled":false,"rental_uris":{"android":"levelo://app?vid=6e83f73a-c3f1-4c64-9658-62af3e95c132","ios":"levelo://app?vid=6e83f73a-c3f1-4c64-9658-62af3e95c132"},"vehicle_type_id":"4","last_reported":1778790142,"current_range_meters":6400,"station_id":"ce4bh012rcd13ifvqd00","pricing_plan_id":"cebpf4jnsgd1na2vs0mg"},{"bike_id":"b2b4314a-5925-4700-bab3-038d34f53a7d","system_id":"levelo_inurba_marseille","lat":43.28704,"lon":5.46688,"is_reserved":false,"is_disabled":false,"rental_uris":{"android":"levelo://app?vid=b2b4314a-5925-4700-bab3-038d34f53a7d","ios":"levelo://app?vid=b2b4314a-5925-4700-bab3-038d34f53a7d"},"vehicle_type_id":"4","last_reported":1778790142,"current_range_meters":6800,"station_id":"st_d6tc3vkotcvc738tfjhg","pricing_plan_id":"cebpf4jnsgd1na2vs0mg"},{"bike_id":"11bfc38c-9d4c-45ee-b922-1948cd421490","system_id":"levelo_inurba_marseille","lat":43.24818,"lon":5.3745,"is_reserved":false,"is_disabled":false,"rental_uris":{"android":"levelo://app?vid=11bfc38c-9d4c-45ee-b922-1948cd421490","ios":"levelo://app?vid=11bfc38c-9d4c-45ee-b922-1948cd421490"},"vehicle_type_id":"4","last_reported":1778790142,"current_range_meters":6800,"station_id":"ce4bhgh2rcd13ifvqfb0","pricing_plan_id":"cebpf4jnsgd1na2vs0mg"},{"bike_id":"df1280df-d6c6-4479-a82c-7f3bd80f7823","system_id":"levelo_inurba_marseille","lat":43.26079,"lon":5.39437,"is_reserved":false,"is_disabled":false,"rental_uris":{"android":"levelo://app?vid=df1280df-d6c6-4479-a82c-7f3bd80f7823","ios":"levelo://app?vid=df1280df-d6c6-4479-a82c-7f3bd80f7823"},"vehicle_type_id":"4","last_reported":1778790142,"current_range_meters":6800,"station_id":"ce4bhh92rcd13ifvqfj0","pricing_plan_id":"cebpf4jnsgd1na2vs0mg"},{"bike_id":"7a55ff8f-14e8-4a32-bd52-0c57bcfdc3e3","system_id":"levelo_inurba_marseille","lat":43.31695,"lon":5.37746,"is_reserved":false,"is_disabled":false,"rental_uris":{"android":"levelo://app?vid=7a55ff8f-14e8-4a32-bd52-0c57bcfdc3e3","ios":"levelo://app?vid=7a55ff8f-14e8-4a32-bd52-0c57bcfdc3e3"},"vehicle_type_id":"4","last_reported":1778790142,"current_range_meters":6800,"station_id":"ce4bgth2rcd13ifvqch0","pricing_plan_id":"cebpf4jnsgd1na2vs0mg"},{"bike_id":"3eb17ea7-504c-4154-a442-3f77f9eb2f74","system_id":"levelo_inurba_marseille","lat":43.25496,"lon":5.37649,"is_reserved":false,"is_disabled":false,"rental_uris":{"android":"levelo://app?vid=3eb17ea7-504c-4154-a442-3f77f9eb2f74","ios":"levelo://app?vid=3eb17ea7-504c-4154-a442-3f77f9eb2f74"},"vehicle_type_id":"4","last_reported":1778790142,"current_range_meters":6800,"station_id":"ce4bhh12rcd13ifvqff0","pricing_plan_id":"cebpf4jnsgd1na2vs0mg"},{"bike_id":"11474f34-fb38-4fcd-9362-533b6f3c3c1f","system_id":"levelo_inurba_marseille","lat":43.26047,"lon":5.37521,"is_reserved":false,"is_disabled":false,"rental_uris":{"android":"levelo://app?vid=11474f34-fb38-4fcd-9362-533b6f3c3c1f","ios":"levelo://app?vid=11474f34-fb38-4fcd-9362-533b6f3c3c1f"},"vehicle_type_id":"4","last_reported":1778790142,"current_range_meters":6800,"station_id":"ce4bhgh2rcd13ifvqfa0","pricing_plan_id":"cebpf4jnsgd1na2vs0mg"},{"bike_id":"c1aea499-d26f-49bf-8367-447ce7aec604","system_id":"levelo_inurba_marseille","lat":43.25358,"lon":5.42165,"is_reserved":false,"is_disabled":false,"rental_uris":{"android":"levelo://app?vid=c1aea499-d26f-49bf-8367-447ce7aec604","ios":"levelo://app?vid=c1aea499-d26f-49bf-8367-447ce7aec604"},"vehicle_type_id":"4","last_reported":1778790142,"current_range_meters":6800,"station_id":"st_d2m65c5bi1j21697t3ng","pricing_plan_id":"cebpf4jnsgd1na2vs0mg"},{"bike_id":"358a01b2-4968-45f2-888f-e07bdd500aeb","system_id":"levelo_inurba_marseille","lat":43.23195,"lon":5.39991,"is_reserved":false,"is_disabled":false,"rental_uris":{"android":"levelo://app?vid=358a01b2-4968-45f2-888f-e07bdd500aeb","ios":"levelo://app?vid=358a01b2-4968-45f2-888f-e07bdd500aeb"},"vehicle_type_id":"4","last_reported":1778790142,"current_range_meters":6800,"station_id":"ce4bhn12rcd13ifvqgqg","pricing_plan_id":"cebpf4jnsgd1na2vs0mg"},{"bike_id":"f688244d-99ab-4a7c-a82f-a7c034c5e560","system_id":"levelo_inurba_marseille","lat":43.30167,"lon":5.39658,"is_reserved":false,"is_disabled":false,"rental_uris":{"android":"levelo://app?vid=f688244d-99ab-4a7c-a82f-a7c034c5e560","ios":"levelo://app?vid=f688244d-99ab-4a7c-a82f-a7c034c5e560"},"vehicle_type_id":"4","last_reported":1778790142,"current_range_meters":6800,"station_id":"","pricing_plan_id":"cebpf4jnsgd1na2vs0mg"},{"bike_id":"5ea16ace-200a-4769-a572-a6b6c11c33c9","system_id":"levelo_inurba_marseille","lat":43.29592,"lon":5.38083,"is_reserved":false,"is_disabled":false,"rental_uris":{"android":"levelo://app?vid=5ea16ace-200a-4769-a572-a6b6c11c33c9","ios":"levelo://app?vid=5ea16ace-200a-4769-a572-a6b6c11c33c9"},"vehicle_type_id":"4","last_reported":1778790142,"current_range_meters":6800,"station_id":"ce4bgl12rcd13ifvqbo0","pricing_plan_id":"cebpf4jnsgd1na2vs0mg"},{"bike_id":"fb6a4e03-6a4e-4ff2-aa3f-8e60f26d6bc9","system_id":"levelo_inurba_marseille","lat":43.28867,"lon":5.35855,"is_reserved":false,"is_disabled":false,"rental_uris":{"android":"levelo://app?vid=fb6a4e03-6a4e-4ff2-aa3f-8e60f26d6bc9","ios":"levelo://app?vid=fb6a4e03-6a4e-4ff2-aa3f-8e60f26d6bc9"},"vehicle_type_id":"4","last_reported":1778790142,"current_range_meters":6800,"station_id":"ce4bhb12rcd13ifvqem0","pricing_plan_id":"cebpf4jnsgd1na2vs0mg"},{"bike_id":"6c25a114-e337-49a3-96de-a1dece9ad10e","system_id":"levelo_inurba_marseille","lat":43.29251,"lon":5.38437,"is_reserved":false,"is_disabled":false,"rental_uris":{"android":"levelo://app?vid=6c25a114-e337-49a3-96de-a1dece9ad10e","ios":"levelo://app?vid=6c25a114-e337-49a3-96de-a1dece9ad10e"},"vehicle_type_id":"4","last_reported":1778790142,"current_range_meters":6800,"station_id":"ce4bh692rcd13ifvqea0","pricing_plan_id":"cebpf4jnsgd1na2vs0mg"},{"bike_id":"68daaae5-71f7-485d-8ef2-e5ea29ae2c11","system_id":"levelo_inurba_marseille","lat":43.33142,"lon":5.37697,"is_reserved":false,"is_disabled":false,"rental_uris":{"android":"levelo://app?vid=68daaae5-71f7-485d-8ef2-e5ea29ae2c11","ios":"levelo://app?vid=68daaae5-71f7-485d-8ef2-e5ea29ae2c11"},"vehicle_type_id":"4","last_reported":1778790142,"current_range_meters":6800,"station_id":"st_d46cu089ee8s73dldbu0","pricing_plan_id":"cebpf4jnsgd1na2vs0mg"},{"bike_id":"769c09de-6a13-4801-9007-d56fbc14cdf5","system_id":"levelo_inurba_marseille","lat":43.2989,"lon":5.38064,"is_reserved":false,"is_disabled":false,"rental_uris":{"android":"levelo://app?vid=769c09de-6a13-4801-9007-d56fbc14cdf5","ios":"levelo://app?vid=769c09de-6a13-4801-9007-d56fbc14cdf5"},"vehicle_type_id":"4","last_reported":1778790142,"current_range_meters":6800,"station_id":"","pricing_plan_id":"cebpf4jnsgd1na2vs0mg"},{"bike_id":"1d840a3e-6dd6-4d2b-85ce-dce4ef1cb912","system_id":"levelo_inurba_marseille","lat":43.28956,"lon":5.36435,"is_reserved":false,"is_disabled":false,"rental_uris":{"android":"levelo://app?vid=1d840a3e-6dd6-4d2b-85ce-dce4ef1cb912","ios":"levelo://app?vid=1d840a3e-6dd6-4d2b-85ce-dce4ef1cb912"},"vehicle_type_id":"4","last_reported":1778790142,"current_range_meters":6800,"station_id":"","pricing_plan_id":"cebpf4jnsgd1na2vs0mg"},{"bike_id":"8af38655-e65c-465e-83e2-1c3ed295a51f","system_id":"levelo_inurba_marseille","lat":43.24466,"lon":5.42506,"is_reserved":false,"is_disabled":false,"rental_uris":{"android":"levelo://app?vid=8af38655-e65c-465e-83e2-1c3ed295a51f","ios":"levelo://app?vid=8af38655-e65c-465e-83e2-1c3ed295a51f"},"vehicle_type_id":"4","last_reported":1778790142,"current_range_meters":7200,"station_id":"st_d4a3vfp97mjs738cd8kg","pricing_plan_id":"cebpf4jnsgd1na2vs0mg"},{"bike_id":"b4a4a92f-c37c-4c9a-8a8e-643fabd4a83f","system_id":"levelo_inurba_marseille","lat":43.23159,"lon":5.43731,"is_reserved":false,"is_disabled":false,"rental_uris":{"android":"levelo://app?vid=b4a4a92f-c37c-4c9a-8a8e-643fabd4a83f","ios":"levelo://app?vid=b4a4a92f-c37c-4c9a-8a8e-643fabd4a83f"},"vehicle_type_id":"4","last_reported":1778790142,"current_range_meters":7200,"station_id":"ce4bhmp2rcd13ifvqgog","pricing_plan_id":"cebpf4jnsgd1na2vs0mg"},{"bike_id":"b2024d45-24ab-4089-a5b4-c4288de6d597","system_id":"levelo_inurba_marseille","lat":43.29869,"lon":5.39746,"is_reserved":false,"is_disabled":false,"rental_uris":{"android":"levelo://app?vid=b2024d45-24ab-4089-a5b4-c4288de6d597","ios":"levelo://app?vid=b2024d45-24ab-4089-a5b4-c4288de6d597"},"vehicle_type_id":"4","last_reported":1778790142,"current_range_meters":7200,"station_id":"ce4bh0h2rcd13ifvqd50","pricing_plan_id":"cebpf4jnsgd1na2vs0mg"},{"bike_id":"bb1b101c-ac36-488b-8d45-73946554b566","system_id":"levelo_inurba_marseille","lat":43.26379,"lon":5.41051,"is_reserved":false,"is_disabled":false,"rental_uris":{"android":"levelo://app?vid=bb1b101c-ac36-488b-8d45-73946554b566","ios":"levelo://app?vid=bb1b101c-ac36-488b-8d45-73946554b566"},"vehicle_type_id":"4","last_reported":1778790142,"current_range_meters":7200,"station_id":"st_d4e5ca6na9uc73bfl5fg","pricing_plan_id":"cebpf4jnsgd1na2vs0mg"},{"bike_id":"249a07cb-1c5d-4dd6-a29a-0f7a8cc2de2b","system_id":"levelo_inurba_marseille","lat":43.29703,"lon":5.36598,"is_reserved":false,"is_disabled":false,"rental_uris":{"android":"levelo://app?vid=249a07cb-1c5d-4dd6-a29a-0f7a8cc2de2b","ios":"levelo://app?vid=249a07cb-1c5d-4dd6-a29a-0f7a8cc2de2b"},"vehicle_type_id":"4","last_reported":1778790142,"current_range_meters":7200,"station_id":"ce4bgn12rcd13ifvqbt0","pricing_plan_id":"cebpf4jnsgd1na2vs0mg"},{"bike_id":"1dca4bee-e819-43e2-ad84-7d34b2d8b393","system_id":"levelo_inurba_marseille","lat":43.30807,"lon":5.38144,"is_reserved":false,"is_disabled":false,"rental_uris":{"android":"levelo://app?vid=1dca4bee-e819-43e2-ad84-7d34b2d8b393","ios":"levelo://app?vid=1dca4bee-e819-43e2-ad84-7d34b2d8b393"},"vehicle_type_id":"4","last_reported":1778790142,"current_range_meters":7200,"station_id":"ce4bgt12rcd13ifvqce0","pricing_plan_id":"cebpf4jnsgd1na2vs0mg"},{"bike_id":"a805dd41-a9d9-4ba0-b517-cd11edd5e755","system_id":"levelo_inurba_marseille","lat":43.2853,"lon":5.44096,"is_reserved":false,"is_disabled":false,"rental_uris":{"android":"levelo://app?vid=a805dd41-a9d9-4ba0-b517-cd11edd5e755","ios":"levelo://app?vid=a805dd41-a9d9-4ba0-b517-cd11edd5e755"},"vehicle_type_id":"4","last_reported":1778790142,"current_range_meters":7200,"station_id":"st_d3j3df2ikq2c7380ej80","pricing_plan_id":"cebpf4jnsgd1na2vs0mg"},{"bike_id":"bffb634c-91ba-4f4a-b2db-6ccba08ac42e","system_id":"levelo_inurba_marseille","lat":43.2988,"lon":5.389,"is_reserved":false,"is_disabled":true,"rental_uris":{"android":"levelo://app?vid=bffb634c-91ba-4f4a-b2db-6ccba08ac42e","ios":"levelo://app?vid=bffb634c-91ba-4f4a-b2db-6ccba08ac42e"},"vehicle_type_id":"4","last_reported":1778790142,"current_range_meters":7200,"station_id":"ce4bh392rcd13ifvqdl0","pricing_plan_id":"cebpf4jnsgd1na2vs0mg"},{"bike_id":"88e8094a-0dbf-4e29-a61a-5b16de83c9d8","system_id":"levelo_inurba_marseille","lat":43.28485,"lon":5.38425,"is_reserved":false,"is_disabled":false,"rental_uris":{"android":"levelo://app?vid=88e8094a-0dbf-4e29-a61a-5b16de83c9d8","ios":"levelo://app?vid=88e8094a-0dbf-4e29-a61a-5b16de83c9d8"},"vehicle_type_id":"4","last_reported":1778790142,"current_range_meters":7200,"station_id":"ce4bh512rcd13ifvqe3g","pricing_plan_id":"cebpf4jnsgd1na2vs0mg"},{"bike_id":"3ed4e26c-260f-4ea9-80b3-3f11401a7ab5","system_id":"levelo_inurba_marseille","lat":43.26224,"lon":5.38767,"is_reserved":false,"is_disabled":false,"rental_uris":{"android":"levelo://app?vid=3ed4e26c-260f-4ea9-80b3-3f11401a7ab5","ios":"levelo://app?vid=3ed4e26c-260f-4ea9-80b3-3f11401a7ab5"},"vehicle_type_id":"4","last_reported":1778790142,"current_range_meters":7200,"station_id":"","pricing_plan_id":"cebpf4jnsgd1na2vs0mg"},{"bike_id":"d6adf282-33cc-4281-99d4-4a05d704eed4","system_id":"levelo_inurba_marseille","lat":43.25511,"lon":5.37638,"is_reserved":false,"is_disabled":false,"rental_uris":{"android":"levelo://app?vid=d6adf282-33cc-4281-99d4-4a05d704eed4","ios":"levelo://app?vid=d6adf282-33cc-4281-99d4-4a05d704eed4"},"vehicle_type_id":"4","last_reported":1778790142,"current_range_meters":7200,"station_id":"ce4bhh12rcd13ifvqff0","pricing_plan_id":"cebpf4jnsgd1na2vs0mg"},{"bike_id":"d4ced85a-7a37-4d9b-a950-3e8e76c8fd0f","system_id":"levelo_inurba_marseille","lat":43.31381,"lon":5.36713,"is_reserved":false,"is_disabled":false,"rental_uris":{"android":"levelo://app?vid=d4ced85a-7a37-4d9b-a950-3e8e76c8fd0f","ios":"levelo://app?vid=d4ced85a-7a37-4d9b-a950-3e8e76c8fd0f"},"vehicle_type_id":"4","last_reported":1778790142,"current_range_meters":7200,"station_id":"ce4bgr92rcd13ifvqc6g","pricing_plan_id":"cebpf4jnsgd1na2vs0mg"},{"bike_id":"9062255f-0238-4e6e-b972-b53f3708ba09","system_id":"levelo_inurba_marseille","lat":43.25339,"lon":5.42165,"is_reserved":false,"is_disabled":false,"rental_uris":{"android":"levelo://app?vid=9062255f-0238-4e6e-b972-b53f3708ba09","ios":"levelo://app?vid=9062255f-0238-4e6e-b972-b53f3708ba09"},"vehicle_type_id":"4","last_reported":1778790142,"current_range_meters":7200,"station_id":"st_d2m65c5bi1j21697t3ng","pricing_plan_id":"cebpf4jnsgd1na2vs0mg"},{"bike_id":"9f5121e8-2da6-4d8a-a916-526fb25481a1","system_id":"levelo_inurba_marseille","lat":43.305395,"lon":5.365543,"is_reserved":false,"is_disabled":false,"rental_uris":{"android":"levelo://app?vid=9f5121e8-2da6-4d8a-a916-526fb25481a1","ios":"levelo://app?vid=9f5121e8-2da6-4d8a-a916-526fb25481a1"},"vehicle_type_id":"4","last_reported":1778790142,"current_range_meters":7200,"station_id":"ce4bgs12rcd13ifvqcag","pricing_plan_id":"cebpf4jnsgd1na2vs0mg"},{"bike_id":"281dd0a4-7c34-4e10-a8a9-7ccf159dbb5c","system_id":"levelo_inurba_marseille","lat":43.26186,"lon":5.37447,"is_reserved":false,"is_disabled":false,"rental_uris":{"android":"levelo://app?vid=281dd0a4-7c34-4e10-a8a9-7ccf159dbb5c","ios":"levelo://app?vid=281dd0a4-7c34-4e10-a8a9-7ccf159dbb5c"},"vehicle_type_id":"4","last_reported":1778790142,"current_range_meters":7200,"station_id":"ce4bhgp2rcd13ifvqfc0","pricing_plan_id":"cebpf4jnsgd1na2vs0mg"},{"bike_id":"93874ed8-c72d-4022-b266-0c654c1d580d","system_id":"levelo_inurba_marseille","lat":43.27576,"lon":5.3955,"is_reserved":false,"is_disabled":false,"rental_uris":{"android":"levelo://app?vid=93874ed8-c72d-4022-b266-0c654c1d580d","ios":"levelo://app?vid=93874ed8-c72d-4022-b266-0c654c1d580d"},"vehicle_type_id":"4","last_reported":1778790142,"current_range_meters":7200,"station_id":"","pricing_plan_id":"cebpf4jnsgd1na2vs0mg"},{"bike_id":"74952cf9-053b-4a1e-b13d-4a7d61eadae6","system_id":"levelo_inurba_marseille","lat":43.30138,"lon":5.38773,"is_reserved":false,"is_disabled":false,"rental_uris":{"android":"levelo://app?vid=74952cf9-053b-4a1e-b13d-4a7d61eadae6","ios":"levelo://app?vid=74952cf9-053b-4a1e-b13d-4a7d61eadae6"},"vehicle_type_id":"4","last_reported":1778790142,"current_range_meters":7200,"station_id":"ce4bghh2rcd13ifvqb60","pricing_plan_id":"cebpf4jnsgd1na2vs0mg"},{"bike_id":"c010ab8b-93c3-415f-bee8-a7feae8dc6bd","system_id":"levelo_inurba_marseille","lat":43.31053,"lon":5.37124,"is_reserved":false,"is_disabled":false,"rental_uris":{"android":"levelo://app?vid=c010ab8b-93c3-415f-bee8-a7feae8dc6bd","ios":"levelo://app?vid=c010ab8b-93c3-415f-bee8-a7feae8dc6bd"},"vehicle_type_id":"4","last_reported":1778790142,"current_range_meters":7200,"station_id":"st_d4kl2rp97mjs73e7tdfg","pricing_plan_id":"cebpf4jnsgd1na2vs0mg"},{"bike_id":"56f10c3c-5d40-4146-aea1-bd5b16dc8ee8","system_id":"levelo_inurba_marseille","lat":43.33195,"lon":5.40627,"is_reserved":false,"is_disabled":false,"rental_uris":{"android":"levelo://app?vid=56f10c3c-5d40-4146-aea1-bd5b16dc8ee8","ios":"levelo://app?vid=56f10c3c-5d40-4146-aea1-bd5b16dc8ee8"},"vehicle_type_id":"4","last_reported":1778790142,"current_range_meters":7200,"station_id":"","pricing_plan_id":"cebpf4jnsgd1na2vs0mg"},{"bike_id":"df9143cd-9819-4dcc-a78a-2100efc91ad4","system_id":"levelo_inurba_marseille","lat":43.27071,"lon":5.42275,"is_reserved":false,"is_disabled":false,"rental_uris":{"android":"levelo://app?vid=df9143cd-9819-4dcc-a78a-2100efc91ad4","ios":"levelo://app?vid=df9143cd-9819-4dcc-a78a-2100efc91ad4"},"vehicle_type_id":"4","last_reported":1778790142,"current_range_meters":7200,"station_id":"ce4bhk92rcd13ifvqgb0","pricing_plan_id":"cebpf4jnsgd1na2vs0mg"},{"bike_id":"b81d82ce-c254-4a47-9f30-bc00cb5fc521","system_id":"levelo_inurba_marseille","lat":43.29633,"lon":5.38015,"is_reserved":false,"is_disabled":false,"rental_uris":{"android":"levelo://app?vid=b81d82ce-c254-4a47-9f30-bc00cb5fc521","ios":"levelo://app?vid=b81d82ce-c254-4a47-9f30-bc00cb5fc521"},"vehicle_type_id":"4","last_reported":1778790142,"current_range_meters":7200,"station_id":"","pricing_plan_id":"cebpf4jnsgd1na2vs0mg"},{"bike_id":"663c1f76-dfb6-4c61-90ad-902a08f3d5e1","system_id":"levelo_inurba_marseille","lat":43.29917,"lon":5.38144,"is_reserved":false,"is_disabled":false,"rental_uris":{"android":"levelo://app?vid=663c1f76-dfb6-4c61-90ad-902a08f3d5e1","ios":"levelo://app?vid=663c1f76-dfb6-4c61-90ad-902a08f3d5e1"},"vehicle_type_id":"4","last_reported":1778790142,"current_range_meters":7200,"station_id":"ce4bgj12rcd13ifvqbc0","pricing_plan_id":"cebpf4jnsgd1na2vs0mg"},{"bike_id":"3f0bf686-b414-433e-bcd0-538cd5b6add8","system_id":"levelo_inurba_marseille","lat":43.335935,"lon":5.41041,"is_reserved":false,"is_disabled":false,"rental_uris":{"android":"levelo://app?vid=3f0bf686-b414-433e-bcd0-538cd5b6add8","ios":"levelo://app?vid=3f0bf686-b414-433e-bcd0-538cd5b6add8"},"vehicle_type_id":"4","last_reported":1778790142,"current_range_meters":7200,"station_id":"ce4bhqh2rcd13ifvqhmg","pricing_plan_id":"cebpf4jnsgd1na2vs0mg"},{"bike_id":"1d02edc8-0afa-4a55-b8a7-edaae5a47512","system_id":"levelo_inurba_marseille","lat":43.28688,"lon":5.42657,"is_reserved":false,"is_disabled":false,"rental_uris":{"android":"levelo://app?vid=1d02edc8-0afa-4a55-b8a7-edaae5a47512","ios":"levelo://app?vid=1d02edc8-0afa-4a55-b8a7-edaae5a47512"},"vehicle_type_id":"4","last_reported":1778790142,"current_range_meters":7200,"station_id":"","pricing_plan_id":"cebpf4jnsgd1na2vs0mg"},{"bike_id":"0d1caba6-30f2-4854-b6ad-c86b6635f5e6","system_id":"levelo_inurba_marseille","lat":43.27512,"lon":5.41557,"is_reserved":false,"is_disabled":false,"rental_uris":{"android":"levelo://app?vid=0d1caba6-30f2-4854-b6ad-c86b6635f5e6","ios":"levelo://app?vid=0d1caba6-30f2-4854-b6ad-c86b6635f5e6"},"vehicle_type_id":"4","last_reported":1778790142,"current_range_meters":8000,"station_id":"st_d6im8g6chgec73a5pndg","pricing_plan_id":"cebpf4jnsgd1na2vs0mg"},{"bike_id":"e04b7b09-5afe-434d-a175-339fdabcfc1f","system_id":"levelo_inurba_marseille","lat":43.2857,"lon":5.39478,"is_reserved":false,"is_disabled":false,"rental_uris":{"android":"levelo://app?vid=e04b7b09-5afe-434d-a175-339fdabcfc1f","ios":"levelo://app?vid=e04b7b09-5afe-434d-a175-339fdabcfc1f"},"vehicle_type_id":"4","last_reported":1778790142,"current_range_meters":8000,"station_id":"ce4bh292rcd13ifvqdg0","pricing_plan_id":"cebpf4jnsgd1na2vs0mg"},{"bike_id":"5e37cae9-109e-43de-8cc5-07234775561b","system_id":"levelo_inurba_marseille","lat":43.28643,"lon":5.35089,"is_reserved":false,"is_disabled":false,"rental_uris":{"android":"levelo://app?vid=5e37cae9-109e-43de-8cc5-07234775561b","ios":"levelo://app?vid=5e37cae9-109e-43de-8cc5-07234775561b"},"vehicle_type_id":"4","last_reported":1778790142,"current_range_meters":8000,"station_id":"ce4bhch2rcd13ifvqeug","pricing_plan_id":"cebpf4jnsgd1na2vs0mg"},{"bike_id":"7ab4ae67-6681-42d6-ba71-37cc55561d1c","system_id":"levelo_inurba_marseille","lat":43.30477,"lon":5.37922,"is_reserved":false,"is_disabled":false,"rental_uris":{"android":"levelo://app?vid=7ab4ae67-6681-42d6-ba71-37cc55561d1c","ios":"levelo://app?vid=7ab4ae67-6681-42d6-ba71-37cc55561d1c"},"vehicle_type_id":"4","last_reported":1778790142,"current_range_meters":8000,"station_id":"ce4bgup2rcd13ifvqcn0","pricing_plan_id":"cebpf4jnsgd1na2vs0mg"},{"bike_id":"56679f2c-30e0-4805-96dc-c795b1684c8c","system_id":"levelo_inurba_marseille","lat":43.29257,"lon":5.38449,"is_reserved":false,"is_disabled":false,"rental_uris":{"android":"levelo://app?vid=56679f2c-30e0-4805-96dc-c795b1684c8c","ios":"levelo://app?vid=56679f2c-30e0-4805-96dc-c795b1684c8c"},"vehicle_type_id":"4","last_reported":1778790142,"current_range_meters":8000,"station_id":"ce4bh692rcd13ifvqea0","pricing_plan_id":"cebpf4jnsgd1na2vs0mg"},{"bike_id":"5eb0b80a-cdad-4426-9a8a-07687e4cbd6b","system_id":"levelo_inurba_marseille","lat":43.26206,"lon":5.37439,"is_reserved":false,"is_disabled":false,"rental_uris":{"android":"levelo://app?vid=5eb0b80a-cdad-4426-9a8a-07687e4cbd6b","ios":"levelo://app?vid=5eb0b80a-cdad-4426-9a8a-07687e4cbd6b"},"vehicle_type_id":"4","last_reported":1778790142,"current_range_meters":8000,"station_id":"ce4bhgp2rcd13ifvqfc0","pricing_plan_id":"cebpf4jnsgd1na2vs0mg"},{"bike_id":"17a81189-c077-4085-9b8d-61cdeb02252c","system_id":"levelo_inurba_marseille","lat":43.28504,"lon":5.48383,"is_reserved":false,"is_disabled":false,"rental_uris":{"android":"levelo://app?vid=17a81189-c077-4085-9b8d-61cdeb02252c","ios":"levelo://app?vid=17a81189-c077-4085-9b8d-61cdeb02252c"},"vehicle_type_id":"4","last_reported":1778790142,"current_range_meters":8000,"station_id":"st_d3svhcjqgbts73a3dn0g","pricing_plan_id":"cebpf4jnsgd1na2vs0mg"},{"bike_id":"9f6e7824-1010-4f16-a8cd-954164c5c00a","system_id":"levelo_inurba_marseille","lat":43.297972,"lon":5.380997,"is_reserved":false,"is_disabled":false,"rental_uris":{"android":"levelo://app?vid=9f6e7824-1010-4f16-a8cd-954164c5c00a","ios":"levelo://app?vid=9f6e7824-1010-4f16-a8cd-954164c5c00a"},"vehicle_type_id":"4","last_reported":1778790142,"current_range_meters":8000,"station_id":"ce4bgip2rcd13ifvqbb0","pricing_plan_id":"cebpf4jnsgd1na2vs0mg"},{"bike_id":"5e360434-c987-4796-baac-a41f6d54bfe8","system_id":"levelo_inurba_marseille","lat":43.25076,"lon":5.41212,"is_reserved":false,"is_disabled":false,"rental_uris":{"android":"levelo://app?vid=5e360434-c987-4796-baac-a41f6d54bfe8","ios":"levelo://app?vid=5e360434-c987-4796-baac-a41f6d54bfe8"},"vehicle_type_id":"4","last_reported":1778790142,"current_range_meters":8000,"station_id":"","pricing_plan_id":"cebpf4jnsgd1na2vs0mg"},{"bike_id":"0c9d69ce-898d-4b39-9867-0ecb8993b429","system_id":"levelo_inurba_marseille","lat":43.31714,"lon":5.43704,"is_reserved":false,"is_disabled":false,"rental_uris":{"android":"levelo://app?vid=0c9d69ce-898d-4b39-9867-0ecb8993b429","ios":"levelo://app?vid=0c9d69ce-898d-4b39-9867-0ecb8993b429"},"vehicle_type_id":"4","last_reported":1778790142,"current_range_meters":8000,"station_id":"ce4bhp92rcd13ifvqhcg","pricing_plan_id":"cebpf4jnsgd1na2vs0mg"},{"bike_id":"91e86cc3-e266-4335-9fd8-fec06fec5471","system_id":"levelo_inurba_marseille","lat":43.262106,"lon":5.374398,"is_reserved":false,"is_disabled":false,"rental_uris":{"android":"levelo://app?vid=91e86cc3-e266-4335-9fd8-fec06fec5471","ios":"levelo://app?vid=91e86cc3-e266-4335-9fd8-fec06fec5471"},"vehicle_type_id":"4","last_reported":1778790142,"current_range_meters":8000,"station_id":"ce4bhgp2rcd13ifvqfc0","pricing_plan_id":"cebpf4jnsgd1na2vs0mg"},{"bike_id":"f9bde28a-d296-41c0-b87d-5647e612caa4","system_id":"levelo_inurba_marseille","lat":43.30799,"lon":5.38157,"is_reserved":false,"is_disabled":false,"rental_uris":{"android":"levelo://app?vid=f9bde28a-d296-41c0-b87d-5647e612caa4","ios":"levelo://app?vid=f9bde28a-d296-41c0-b87d-5647e612caa4"},"vehicle_type_id":"4","last_reported":1778790142,"current_range_meters":8000,"station_id":"ce4bgt12rcd13ifvqce0","pricing_plan_id":"cebpf4jnsgd1na2vs0mg"},{"bike_id":"6171fa24-5cbb-4dd4-8a11-21768112000d","system_id":"levelo_inurba_marseille","lat":43.28534,"lon":5.4409,"is_reserved":false,"is_disabled":false,"rental_uris":{"android":"levelo://app?vid=6171fa24-5cbb-4dd4-8a11-21768112000d","ios":"levelo://app?vid=6171fa24-5cbb-4dd4-8a11-21768112000d"},"vehicle_type_id":"4","last_reported":1778790142,"current_range_meters":8000,"station_id":"st_d3j3df2ikq2c7380ej80","pricing_plan_id":"cebpf4jnsgd1na2vs0mg"},{"bike_id":"df71f8df-f01c-4408-8d5f-5efb2cb0d35e","system_id":"levelo_inurba_marseille","lat":43.26564,"lon":5.39037,"is_reserved":false,"is_disabled":false,"rental_uris":{"android":"levelo://app?vid=df71f8df-f01c-4408-8d5f-5efb2cb0d35e","ios":"levelo://app?vid=df71f8df-f01c-4408-8d5f-5efb2cb0d35e"},"vehicle_type_id":"4","last_reported":1778790142,"current_range_meters":8000,"station_id":"ce4bhe12rcd13ifvqf30","pricing_plan_id":"cebpf4jnsgd1na2vs0mg"},{"bike_id":"fd926cd8-f3e7-4ea0-9811-e5d39a863ccd","system_id":"levelo_inurba_marseille","lat":43.29057,"lon":5.40002,"is_reserved":false,"is_disabled":true,"rental_uris":{"android":"levelo://app?vid=fd926cd8-f3e7-4ea0-9811-e5d39a863ccd","ios":"levelo://app?vid=fd926cd8-f3e7-4ea0-9811-e5d39a863ccd"},"vehicle_type_id":"4","last_reported":1778790142,"current_range_meters":8000,"station_id":"ce4bh392rcd13ifvqdm0","pricing_plan_id":"cebpf4jnsgd1na2vs0mg"},{"bike_id":"4e92fe89-47b9-415c-89ab-3f23c4eb5032","system_id":"levelo_inurba_marseille","lat":43.311075,"lon":5.377722,"is_reserved":false,"is_disabled":false,"rental_uris":{"android":"levelo://app?vid=4e92fe89-47b9-415c-89ab-3f23c4eb5032","ios":"levelo://app?vid=4e92fe89-47b9-415c-89ab-3f23c4eb5032"},"vehicle_type_id":"4","last_reported":1778790142,"current_range_meters":8000,"station_id":"ce4bgt92rcd13ifvqcg0","pricing_plan_id":"cebpf4jnsgd1na2vs0mg"},{"bike_id":"00f7d40e-a416-4baf-b681-8c2e19464e7d","system_id":"levelo_inurba_marseille","lat":43.24079,"lon":5.37755,"is_reserved":false,"is_disabled":false,"rental_uris":{"android":"levelo://app?vid=00f7d40e-a416-4baf-b681-8c2e19464e7d","ios":"levelo://app?vid=00f7d40e-a416-4baf-b681-8c2e19464e7d"},"vehicle_type_id":"4","last_reported":1778790142,"current_range_meters":8400,"station_id":"ce4bhnp2rcd13ifvqgvg","pricing_plan_id":"cebpf4jnsgd1na2vs0mg"},{"bike_id":"c7036943-3c42-4746-baf7-d62407ba2346","system_id":"levelo_inurba_marseille","lat":43.2439,"lon":5.37054,"is_reserved":false,"is_disabled":false,"rental_uris":{"android":"levelo://app?vid=c7036943-3c42-4746-baf7-d62407ba2346","ios":"levelo://app?vid=c7036943-3c42-4746-baf7-d62407ba2346"},"vehicle_type_id":"4","last_reported":1778790142,"current_range_meters":8400,"station_id":"ce4bhhh2rcd13ifvqfk0","pricing_plan_id":"cebpf4jnsgd1na2vs0mg"},{"bike_id":"bad213e1-775c-4526-9199-e07ee68bfd65","system_id":"levelo_inurba_marseille","lat":43.29246,"lon":5.36052,"is_reserved":false,"is_disabled":false,"rental_uris":{"android":"levelo://app?vid=bad213e1-775c-4526-9199-e07ee68bfd65","ios":"levelo://app?vid=bad213e1-775c-4526-9199-e07ee68bfd65"},"vehicle_type_id":"4","last_reported":1778790142,"current_range_meters":8400,"station_id":"ce4bhbh2rcd13ifvqeqg","pricing_plan_id":"cebpf4jnsgd1na2vs0mg"},{"bike_id":"9e23fd4b-4b0e-4821-a5ef-14f79dc199fb","system_id":"levelo_inurba_marseille","lat":43.30434,"lon":5.38887,"is_reserved":false,"is_disabled":false,"rental_uris":{"android":"levelo://app?vid=9e23fd4b-4b0e-4821-a5ef-14f79dc199fb","ios":"levelo://app?vid=9e23fd4b-4b0e-4821-a5ef-14f79dc199fb"},"vehicle_type_id":"4","last_reported":1778790142,"current_range_meters":8400,"station_id":"ce4bgk12rcd13ifvqbi0","pricing_plan_id":"cebpf4jnsgd1na2vs0mg"},{"bike_id":"78f7e847-6df2-4d4a-90a0-eed9b092b4f2","system_id":"levelo_inurba_marseille","lat":43.27993,"lon":5.38747,"is_reserved":false,"is_disabled":false,"rental_uris":{"android":"levelo://app?vid=78f7e847-6df2-4d4a-90a0-eed9b092b4f2","ios":"levelo://app?vid=78f7e847-6df2-4d4a-90a0-eed9b092b4f2"},"vehicle_type_id":"4","last_reported":1778790142,"current_range_meters":8400,"station_id":"ce4bhg12rcd13ifvqf80","pricing_plan_id":"cebpf4jnsgd1na2vs0mg"},{"bike_id":"6f0eb0b4-cfe3-40e0-b66e-340c9d2c3e86","system_id":"levelo_inurba_marseille","lat":43.23147,"lon":5.43703,"is_reserved":false,"is_disabled":false,"rental_uris":{"android":"levelo://app?vid=6f0eb0b4-cfe3-40e0-b66e-340c9d2c3e86","ios":"levelo://app?vid=6f0eb0b4-cfe3-40e0-b66e-340c9d2c3e86"},"vehicle_type_id":"4","last_reported":1778790142,"current_range_meters":8400,"station_id":"ce4bhmp2rcd13ifvqgog","pricing_plan_id":"cebpf4jnsgd1na2vs0mg"},{"bike_id":"be5ec2e3-e51c-450e-b635-2e2a7b9f299b","system_id":"levelo_inurba_marseille","lat":43.2439,"lon":5.37059,"is_reserved":false,"is_disabled":false,"rental_uris":{"android":"levelo://app?vid=be5ec2e3-e51c-450e-b635-2e2a7b9f299b","ios":"levelo://app?vid=be5ec2e3-e51c-450e-b635-2e2a7b9f299b"},"vehicle_type_id":"4","last_reported":1778790142,"current_range_meters":8400,"station_id":"ce4bhhh2rcd13ifvqfk0","pricing_plan_id":"cebpf4jnsgd1na2vs0mg"},{"bike_id":"199aff18-7bf3-4b5f-a786-739bc9a3c6ac","system_id":"levelo_inurba_marseille","lat":43.26227,"lon":5.38767,"is_reserved":false,"is_disabled":false,"rental_uris":{"android":"levelo://app?vid=199aff18-7bf3-4b5f-a786-739bc9a3c6ac","ios":"levelo://app?vid=199aff18-7bf3-4b5f-a786-739bc9a3c6ac"},"vehicle_type_id":"4","last_reported":1778790142,"current_range_meters":8400,"station_id":"","pricing_plan_id":"cebpf4jnsgd1na2vs0mg"},{"bike_id":"b35b42df-1e5c-4e3c-be7f-d5351e008fb3","system_id":"levelo_inurba_marseille","lat":43.33546,"lon":5.37452,"is_reserved":false,"is_disabled":false,"rental_uris":{"android":"levelo://app?vid=b35b42df-1e5c-4e3c-be7f-d5351e008fb3","ios":"levelo://app?vid=b35b42df-1e5c-4e3c-be7f-d5351e008fb3"},"vehicle_type_id":"4","last_reported":1778790142,"current_range_meters":8400,"station_id":"st_d46tts09ee8s73dlu43g","pricing_plan_id":"cebpf4jnsgd1na2vs0mg"},{"bike_id":"4799b293-ee88-4858-80b4-b51e75e89aa3","system_id":"levelo_inurba_marseille","lat":43.29538,"lon":5.38509,"is_reserved":false,"is_disabled":false,"rental_uris":{"android":"levelo://app?vid=4799b293-ee88-4858-80b4-b51e75e89aa3","ios":"levelo://app?vid=4799b293-ee88-4858-80b4-b51e75e89aa3"},"vehicle_type_id":"4","last_reported":1778790142,"current_range_meters":8400,"station_id":"ce4bgih2rcd13ifvqba0","pricing_plan_id":"cebpf4jnsgd1na2vs0mg"},{"bike_id":"ccfefa36-b865-4a36-bab6-79213f961c34","system_id":"levelo_inurba_marseille","lat":43.29596,"lon":5.38674,"is_reserved":false,"is_disabled":false,"rental_uris":{"android":"levelo://app?vid=ccfefa36-b865-4a36-bab6-79213f961c34","ios":"levelo://app?vid=ccfefa36-b865-4a36-bab6-79213f961c34"},"vehicle_type_id":"4","last_reported":1778790142,"current_range_meters":8400,"station_id":"ce4bgih2rcd13ifvqba0","pricing_plan_id":"cebpf4jnsgd1na2vs0mg"},{"bike_id":"bdc1e4a6-6881-445e-add5-bdbe16bdea85","system_id":"levelo_inurba_marseille","lat":43.30551,"lon":5.36557,"is_reserved":false,"is_disabled":false,"rental_uris":{"android":"levelo://app?vid=bdc1e4a6-6881-445e-add5-bdbe16bdea85","ios":"levelo://app?vid=bdc1e4a6-6881-445e-add5-bdbe16bdea85"},"vehicle_type_id":"4","last_reported":1778790142,"current_range_meters":8400,"station_id":"ce4bgs12rcd13ifvqcag","pricing_plan_id":"cebpf4jnsgd1na2vs0mg"},{"bike_id":"f0fddcf7-5d98-4d8a-9bda-e27dac14a45c","system_id":"levelo_inurba_marseille","lat":43.33538,"lon":5.37486,"is_reserved":false,"is_disabled":false,"rental_uris":{"android":"levelo://app?vid=f0fddcf7-5d98-4d8a-9bda-e27dac14a45c","ios":"levelo://app?vid=f0fddcf7-5d98-4d8a-9bda-e27dac14a45c"},"vehicle_type_id":"4","last_reported":1778790142,"current_range_meters":8400,"station_id":"st_d46tts09ee8s73dlu43g","pricing_plan_id":"cebpf4jnsgd1na2vs0mg"},{"bike_id":"a8b55d6f-977b-4cfa-a9dc-bbb3b59e05ad","system_id":"levelo_inurba_marseille","lat":43.27936,"lon":5.38454,"is_reserved":false,"is_disabled":false,"rental_uris":{"android":"levelo://app?vid=a8b55d6f-977b-4cfa-a9dc-bbb3b59e05ad","ios":"levelo://app?vid=a8b55d6f-977b-4cfa-a9dc-bbb3b59e05ad"},"vehicle_type_id":"4","last_reported":1778790142,"current_range_meters":8400,"station_id":"","pricing_plan_id":"cebpf4jnsgd1na2vs0mg"},{"bike_id":"8d3f65dc-a597-45d1-befb-23bb7d8f49f5","system_id":"levelo_inurba_marseille","lat":43.3135,"lon":5.38487,"is_reserved":false,"is_disabled":false,"rental_uris":{"android":"levelo://app?vid=8d3f65dc-a597-45d1-befb-23bb7d8f49f5","ios":"levelo://app?vid=8d3f65dc-a597-45d1-befb-23bb7d8f49f5"},"vehicle_type_id":"4","last_reported":1778790142,"current_range_meters":8400,"station_id":"ce4bgt92rcd13ifvqcf0","pricing_plan_id":"cebpf4jnsgd1na2vs0mg"},{"bike_id":"443e8d2c-b047-4aab-ac43-8013af5a22fe","system_id":"levelo_inurba_marseille","lat":43.29881,"lon":5.38905,"is_reserved":false,"is_disabled":false,"rental_uris":{"android":"levelo://app?vid=443e8d2c-b047-4aab-ac43-8013af5a22fe","ios":"levelo://app?vid=443e8d2c-b047-4aab-ac43-8013af5a22fe"},"vehicle_type_id":"4","last_reported":1778790142,"current_range_meters":8400,"station_id":"ce4bh392rcd13ifvqdl0","pricing_plan_id":"cebpf4jnsgd1na2vs0mg"},{"bike_id":"52aa5820-35e5-4a94-b6f2-0aa234a1dbc0","system_id":"levelo_inurba_marseille","lat":43.29307,"lon":5.37459,"is_reserved":false,"is_disabled":false,"rental_uris":{"android":"levelo://app?vid=52aa5820-35e5-4a94-b6f2-0aa234a1dbc0","ios":"levelo://app?vid=52aa5820-35e5-4a94-b6f2-0aa234a1dbc0"},"vehicle_type_id":"4","last_reported":1778790142,"current_range_meters":8400,"station_id":"ce4bgi12rcd13ifvqb70","pricing_plan_id":"cebpf4jnsgd1na2vs0mg"},{"bike_id":"ab8ab8b7-6672-4291-869f-9c2c6454146e","system_id":"levelo_inurba_marseille","lat":43.30887,"lon":5.39651,"is_reserved":false,"is_disabled":false,"rental_uris":{"android":"levelo://app?vid=ab8ab8b7-6672-4291-869f-9c2c6454146e","ios":"levelo://app?vid=ab8ab8b7-6672-4291-869f-9c2c6454146e"},"vehicle_type_id":"4","last_reported":1778790142,"current_range_meters":8400,"station_id":"ce4bh012rcd13ifvqcv0","pricing_plan_id":"cebpf4jnsgd1na2vs0mg"},{"bike_id":"a904a36a-9a89-418d-909b-a6a6e0d8026f","system_id":"levelo_inurba_marseille","lat":43.2717,"lon":5.40997,"is_reserved":false,"is_disabled":false,"rental_uris":{"android":"levelo://app?vid=a904a36a-9a89-418d-909b-a6a6e0d8026f","ios":"levelo://app?vid=a904a36a-9a89-418d-909b-a6a6e0d8026f"},"vehicle_type_id":"4","last_reported":1778790142,"current_range_meters":8400,"station_id":"ce4bhl12rcd13ifvqgf0","pricing_plan_id":"cebpf4jnsgd1na2vs0mg"},{"bike_id":"95a2fae1-c05a-4dc6-ae51-de7c541bfe35","system_id":"levelo_inurba_marseille","lat":43.25345,"lon":5.42164,"is_reserved":false,"is_disabled":false,"rental_uris":{"android":"levelo://app?vid=95a2fae1-c05a-4dc6-ae51-de7c541bfe35","ios":"levelo://app?vid=95a2fae1-c05a-4dc6-ae51-de7c541bfe35"},"vehicle_type_id":"4","last_reported":1778790142,"current_range_meters":8400,"station_id":"st_d2m65c5bi1j21697t3ng","pricing_plan_id":"cebpf4jnsgd1na2vs0mg"},{"bike_id":"0df9fbae-3ec9-4cc5-a2e1-3a27f2b6f14b","system_id":"levelo_inurba_marseille","lat":43.28693,"lon":5.46683,"is_reserved":false,"is_disabled":false,"rental_uris":{"android":"levelo://app?vid=0df9fbae-3ec9-4cc5-a2e1-3a27f2b6f14b","ios":"levelo://app?vid=0df9fbae-3ec9-4cc5-a2e1-3a27f2b6f14b"},"vehicle_type_id":"4","last_reported":1778790142,"current_range_meters":8400,"station_id":"st_d6tc3vkotcvc738tfjhg","pricing_plan_id":"cebpf4jnsgd1na2vs0mg"},{"bike_id":"b37ed647-4cfb-46b3-a3d3-927d20145131","system_id":"levelo_inurba_marseille","lat":43.29253,"lon":5.38426,"is_reserved":false,"is_disabled":false,"rental_uris":{"android":"levelo://app?vid=b37ed647-4cfb-46b3-a3d3-927d20145131","ios":"levelo://app?vid=b37ed647-4cfb-46b3-a3d3-927d20145131"},"vehicle_type_id":"4","last_reported":1778790142,"current_range_meters":8400,"station_id":"ce4bh692rcd13ifvqea0","pricing_plan_id":"cebpf4jnsgd1na2vs0mg"},{"bike_id":"a749aa3e-52e5-43f2-aef2-449bb7bb45e8","system_id":"levelo_inurba_marseille","lat":43.31225,"lon":5.38496,"is_reserved":false,"is_disabled":false,"rental_uris":{"android":"levelo://app?vid=a749aa3e-52e5-43f2-aef2-449bb7bb45e8","ios":"levelo://app?vid=a749aa3e-52e5-43f2-aef2-449bb7bb45e8"},"vehicle_type_id":"4","last_reported":1778790142,"current_range_meters":8800,"station_id":"","pricing_plan_id":"cebpf4jnsgd1na2vs0mg"},{"bike_id":"7420d6b7-cb9f-4f8d-bf69-df3d319a8e38","system_id":"levelo_inurba_marseille","lat":43.29536,"lon":5.39044,"is_reserved":false,"is_disabled":false,"rental_uris":{"android":"levelo://app?vid=7420d6b7-cb9f-4f8d-bf69-df3d319a8e38","ios":"levelo://app?vid=7420d6b7-cb9f-4f8d-bf69-df3d319a8e38"},"vehicle_type_id":"4","last_reported":1778790142,"current_range_meters":8800,"station_id":"ce4bh3p2rcd13ifvqdp0","pricing_plan_id":"cebpf4jnsgd1na2vs0mg"},{"bike_id":"c0dd1698-75da-4b66-a5e6-3aaa787008a3","system_id":"levelo_inurba_marseille","lat":43.29967,"lon":5.38501,"is_reserved":false,"is_disabled":false,"rental_uris":{"android":"levelo://app?vid=c0dd1698-75da-4b66-a5e6-3aaa787008a3","ios":"levelo://app?vid=c0dd1698-75da-4b66-a5e6-3aaa787008a3"},"vehicle_type_id":"4","last_reported":1778790142,"current_range_meters":8800,"station_id":"ce4bgj92rcd13ifvqbd0","pricing_plan_id":"cebpf4jnsgd1na2vs0mg"},{"bike_id":"886084a3-c59c-41ea-9fcd-4b4181dd0410","system_id":"levelo_inurba_marseille","lat":43.29975,"lon":5.38511,"is_reserved":false,"is_disabled":false,"rental_uris":{"android":"levelo://app?vid=886084a3-c59c-41ea-9fcd-4b4181dd0410","ios":"levelo://app?vid=886084a3-c59c-41ea-9fcd-4b4181dd0410"},"vehicle_type_id":"4","last_reported":1778790142,"current_range_meters":8800,"station_id":"ce4bgj92rcd13ifvqbd0","pricing_plan_id":"cebpf4jnsgd1na2vs0mg"},{"bike_id":"49ac9ab0-63ad-464e-834f-718b6f150b38","system_id":"levelo_inurba_marseille","lat":43.25659,"lon":5.38509,"is_reserved":false,"is_disabled":false,"rental_uris":{"android":"levelo://app?vid=49ac9ab0-63ad-464e-834f-718b6f150b38","ios":"levelo://app?vid=49ac9ab0-63ad-464e-834f-718b6f150b38"},"vehicle_type_id":"4","last_reported":1778790142,"current_range_meters":8800,"station_id":"","pricing_plan_id":"cebpf4jnsgd1na2vs0mg"},{"bike_id":"e75ea773-5ccf-462b-8985-665d9c64622e","system_id":"levelo_inurba_marseille","lat":43.29537,"lon":5.375,"is_reserved":false,"is_disabled":false,"rental_uris":{"android":"levelo://app?vid=e75ea773-5ccf-462b-8985-665d9c64622e","ios":"levelo://app?vid=e75ea773-5ccf-462b-8985-665d9c64622e"},"vehicle_type_id":"4","last_reported":1778790142,"current_range_meters":8800,"station_id":"ce4bgkp2rcd13ifvqbmg","pricing_plan_id":"cebpf4jnsgd1na2vs0mg"},{"bike_id":"598f5f93-ffb4-4bfe-b5d1-30f9f37b55d1","system_id":"levelo_inurba_marseille","lat":43.29857,"lon":5.36282,"is_reserved":false,"is_disabled":false,"rental_uris":{"android":"levelo://app?vid=598f5f93-ffb4-4bfe-b5d1-30f9f37b55d1","ios":"levelo://app?vid=598f5f93-ffb4-4bfe-b5d1-30f9f37b55d1"},"vehicle_type_id":"4","last_reported":1778790142,"current_range_meters":8800,"station_id":"ce4bgpp2rcd13ifvqc3g","pricing_plan_id":"cebpf4jnsgd1na2vs0mg"},{"bike_id":"fbba4fb7-2c5a-4520-bc8e-d4b4a6d506e4","system_id":"levelo_inurba_marseille","lat":43.285,"lon":5.38441,"is_reserved":false,"is_disabled":false,"rental_uris":{"android":"levelo://app?vid=fbba4fb7-2c5a-4520-bc8e-d4b4a6d506e4","ios":"levelo://app?vid=fbba4fb7-2c5a-4520-bc8e-d4b4a6d506e4"},"vehicle_type_id":"4","last_reported":1778790142,"current_range_meters":8800,"station_id":"ce4bh512rcd13ifvqe3g","pricing_plan_id":"cebpf4jnsgd1na2vs0mg"},{"bike_id":"7510ff45-67cf-4fe1-ab5e-cd52fea4ec6c","system_id":"levelo_inurba_marseille","lat":43.29975,"lon":5.38478,"is_reserved":false,"is_disabled":false,"rental_uris":{"android":"levelo://app?vid=7510ff45-67cf-4fe1-ab5e-cd52fea4ec6c","ios":"levelo://app?vid=7510ff45-67cf-4fe1-ab5e-cd52fea4ec6c"},"vehicle_type_id":"4","last_reported":1778790142,"current_range_meters":8800,"station_id":"ce4bgj92rcd13ifvqbd0","pricing_plan_id":"cebpf4jnsgd1na2vs0mg"},{"bike_id":"473a5fff-b061-4219-a0eb-f338963cffe9","system_id":"levelo_inurba_marseille","lat":43.32357,"lon":5.36742,"is_reserved":false,"is_disabled":false,"rental_uris":{"android":"levelo://app?vid=473a5fff-b061-4219-a0eb-f338963cffe9","ios":"levelo://app?vid=473a5fff-b061-4219-a0eb-f338963cffe9"},"vehicle_type_id":"4","last_reported":1778790142,"current_range_meters":8800,"station_id":"ce4bhsh2rcd13ifvqi2g","pricing_plan_id":"cebpf4jnsgd1na2vs0mg"},{"bike_id":"a76be67c-ed20-4003-9861-97e7c513a0d1","system_id":"levelo_inurba_marseille","lat":43.29858,"lon":5.36285,"is_reserved":false,"is_disabled":false,"rental_uris":{"android":"levelo://app?vid=a76be67c-ed20-4003-9861-97e7c513a0d1","ios":"levelo://app?vid=a76be67c-ed20-4003-9861-97e7c513a0d1"},"vehicle_type_id":"4","last_reported":1778790142,"current_range_meters":8800,"station_id":"ce4bgpp2rcd13ifvqc3g","pricing_plan_id":"cebpf4jnsgd1na2vs0mg"},{"bike_id":"09c88a93-4e6a-4b36-8ce4-9029ab968f33","system_id":"levelo_inurba_marseille","lat":43.29926,"lon":5.38146,"is_reserved":false,"is_disabled":false,"rental_uris":{"android":"levelo://app?vid=09c88a93-4e6a-4b36-8ce4-9029ab968f33","ios":"levelo://app?vid=09c88a93-4e6a-4b36-8ce4-9029ab968f33"},"vehicle_type_id":"4","last_reported":1778790142,"current_range_meters":8800,"station_id":"ce4bgj12rcd13ifvqbc0","pricing_plan_id":"cebpf4jnsgd1na2vs0mg"},{"bike_id":"0d637d0d-5212-419a-b7d8-b124648d3455","system_id":"levelo_inurba_marseille","lat":43.27911,"lon":5.3956,"is_reserved":false,"is_disabled":false,"rental_uris":{"android":"levelo://app?vid=0d637d0d-5212-419a-b7d8-b124648d3455","ios":"levelo://app?vid=0d637d0d-5212-419a-b7d8-b124648d3455"},"vehicle_type_id":"4","last_reported":1778790142,"current_range_meters":8800,"station_id":"ce4bhf92rcd13ifvqf40","pricing_plan_id":"cebpf4jnsgd1na2vs0mg"},{"bike_id":"5b431f0b-d2ae-4f5b-b12e-028ad176a699","system_id":"levelo_inurba_marseille","lat":43.3054,"lon":5.38423,"is_reserved":false,"is_disabled":false,"rental_uris":{"android":"levelo://app?vid=5b431f0b-d2ae-4f5b-b12e-028ad176a699","ios":"levelo://app?vid=5b431f0b-d2ae-4f5b-b12e-028ad176a699"},"vehicle_type_id":"4","last_reported":1778790142,"current_range_meters":8800,"station_id":"ce4bgg92rcd13ifvqb30","pricing_plan_id":"cebpf4jnsgd1na2vs0mg"},{"bike_id":"250e9fb5-863a-47dd-9397-1cc20a4b2fc8","system_id":"levelo_inurba_marseille","lat":43.30167,"lon":5.38082,"is_reserved":false,"is_disabled":false,"rental_uris":{"android":"levelo://app?vid=250e9fb5-863a-47dd-9397-1cc20a4b2fc8","ios":"levelo://app?vid=250e9fb5-863a-47dd-9397-1cc20a4b2fc8"},"vehicle_type_id":"4","last_reported":1778790142,"current_range_meters":8800,"station_id":"ce4bgjp2rcd13ifvqbh0","pricing_plan_id":"cebpf4jnsgd1na2vs0mg"},{"bike_id":"de131c22-b1c1-4577-a2ab-5c9099fa2359","system_id":"levelo_inurba_marseille","lat":43.23182,"lon":5.3997,"is_reserved":false,"is_disabled":false,"rental_uris":{"android":"levelo://app?vid=de131c22-b1c1-4577-a2ab-5c9099fa2359","ios":"levelo://app?vid=de131c22-b1c1-4577-a2ab-5c9099fa2359"},"vehicle_type_id":"4","last_reported":1778790142,"current_range_meters":8800,"station_id":"ce4bhn12rcd13ifvqgqg","pricing_plan_id":"cebpf4jnsgd1na2vs0mg"},{"bike_id":"c3f467cc-d915-4946-88b3-c3f9194ed3b1","system_id":"levelo_inurba_marseille","lat":43.22584,"lon":5.41618,"is_reserved":false,"is_disabled":false,"rental_uris":{"android":"levelo://app?vid=c3f467cc-d915-4946-88b3-c3f9194ed3b1","ios":"levelo://app?vid=c3f467cc-d915-4946-88b3-c3f9194ed3b1"},"vehicle_type_id":"4","last_reported":1778790142,"current_range_meters":8800,"station_id":"st_d2o4gvlbi1j2169b742g","pricing_plan_id":"cebpf4jnsgd1na2vs0mg"},{"bike_id":"3f14f179-5931-49ed-b573-69feb29b515e","system_id":"levelo_inurba_marseille","lat":43.27373,"lon":5.36248,"is_reserved":false,"is_disabled":false,"rental_uris":{"android":"levelo://app?vid=3f14f179-5931-49ed-b573-69feb29b515e","ios":"levelo://app?vid=3f14f179-5931-49ed-b573-69feb29b515e"},"vehicle_type_id":"4","last_reported":1778790142,"current_range_meters":8800,"station_id":"ce4bhbh2rcd13ifvqeo0","pricing_plan_id":"cebpf4jnsgd1na2vs0mg"},{"bike_id":"303dcdaa-2f90-4812-a93e-2ceaa2c3cdb7","system_id":"levelo_inurba_marseille","lat":43.29826,"lon":5.38068,"is_reserved":false,"is_disabled":false,"rental_uris":{"android":"levelo://app?vid=303dcdaa-2f90-4812-a93e-2ceaa2c3cdb7","ios":"levelo://app?vid=303dcdaa-2f90-4812-a93e-2ceaa2c3cdb7"},"vehicle_type_id":"4","last_reported":1778790142,"current_range_meters":8800,"station_id":"ce4bgip2rcd13ifvqbb0","pricing_plan_id":"cebpf4jnsgd1na2vs0mg"},{"bike_id":"f6f8ab63-d98a-4942-9c52-332e88f4729a","system_id":"levelo_inurba_marseille","lat":43.29049,"lon":5.35915,"is_reserved":false,"is_disabled":false,"rental_uris":{"android":"levelo://app?vid=f6f8ab63-d98a-4942-9c52-332e88f4729a","ios":"levelo://app?vid=f6f8ab63-d98a-4942-9c52-332e88f4729a"},"vehicle_type_id":"4","last_reported":1778790142,"current_range_meters":8800,"station_id":"ce4bha92rcd13ifvqeg0","pricing_plan_id":"cebpf4jnsgd1na2vs0mg"},{"bike_id":"4194efe5-a4c7-4770-a0cd-116f911f5742","system_id":"levelo_inurba_marseille","lat":43.262002,"lon":5.37465,"is_reserved":false,"is_disabled":false,"rental_uris":{"android":"levelo://app?vid=4194efe5-a4c7-4770-a0cd-116f911f5742","ios":"levelo://app?vid=4194efe5-a4c7-4770-a0cd-116f911f5742"},"vehicle_type_id":"4","last_reported":1778790142,"current_range_meters":8800,"station_id":"ce4bhgp2rcd13ifvqfc0","pricing_plan_id":"cebpf4jnsgd1na2vs0mg"},{"bike_id":"4b116638-67d5-4baf-a145-594506b96acb","system_id":"levelo_inurba_marseille","lat":43.28704,"lon":5.46683,"is_reserved":false,"is_disabled":false,"rental_uris":{"android":"levelo://app?vid=4b116638-67d5-4baf-a145-594506b96acb","ios":"levelo://app?vid=4b116638-67d5-4baf-a145-594506b96acb"},"vehicle_type_id":"4","last_reported":1778790142,"current_range_meters":8800,"station_id":"st_d6tc3vkotcvc738tfjhg","pricing_plan_id":"cebpf4jnsgd1na2vs0mg"},{"bike_id":"c8ad20d5-9b09-4e78-8ea2-ae4d61e8e6fe","system_id":"levelo_inurba_marseille","lat":43.3046,"lon":5.37903,"is_reserved":false,"is_disabled":false,"rental_uris":{"android":"levelo://app?vid=c8ad20d5-9b09-4e78-8ea2-ae4d61e8e6fe","ios":"levelo://app?vid=c8ad20d5-9b09-4e78-8ea2-ae4d61e8e6fe"},"vehicle_type_id":"4","last_reported":1778790142,"current_range_meters":8800,"station_id":"ce4bgup2rcd13ifvqcn0","pricing_plan_id":"cebpf4jnsgd1na2vs0mg"},{"bike_id":"aa145ab7-e0fd-4fbd-92f4-784dbd0e77b3","system_id":"levelo_inurba_marseille","lat":43.29269,"lon":5.38427,"is_reserved":false,"is_disabled":false,"rental_uris":{"android":"levelo://app?vid=aa145ab7-e0fd-4fbd-92f4-784dbd0e77b3","ios":"levelo://app?vid=aa145ab7-e0fd-4fbd-92f4-784dbd0e77b3"},"vehicle_type_id":"4","last_reported":1778790142,"current_range_meters":8800,"station_id":"ce4bh692rcd13ifvqea0","pricing_plan_id":"cebpf4jnsgd1na2vs0mg"},{"bike_id":"111390c2-b711-460b-8437-bd49adb3615f","system_id":"levelo_inurba_marseille","lat":43.26564,"lon":5.39022,"is_reserved":false,"is_disabled":false,"rental_uris":{"android":"levelo://app?vid=111390c2-b711-460b-8437-bd49adb3615f","ios":"levelo://app?vid=111390c2-b711-460b-8437-bd49adb3615f"},"vehicle_type_id":"4","last_reported":1778790142,"current_range_meters":8800,"station_id":"ce4bhe12rcd13ifvqf30","pricing_plan_id":"cebpf4jnsgd1na2vs0mg"},{"bike_id":"260956b7-3881-4656-b67a-9e2aa9f1efd1","system_id":"levelo_inurba_marseille","lat":43.28501,"lon":5.38559,"is_reserved":false,"is_disabled":false,"rental_uris":{"android":"levelo://app?vid=260956b7-3881-4656-b67a-9e2aa9f1efd1","ios":"levelo://app?vid=260956b7-3881-4656-b67a-9e2aa9f1efd1"},"vehicle_type_id":"4","last_reported":1778790142,"current_range_meters":8800,"station_id":"ce4bh8p2rcd13ifvqeb0","pricing_plan_id":"cebpf4jnsgd1na2vs0mg"},{"bike_id":"ca3ff5ba-beb0-4730-ae3b-017407a047db","system_id":"levelo_inurba_marseille","lat":43.2639,"lon":5.40307,"is_reserved":false,"is_disabled":false,"rental_uris":{"android":"levelo://app?vid=ca3ff5ba-beb0-4730-ae3b-017407a047db","ios":"levelo://app?vid=ca3ff5ba-beb0-4730-ae3b-017407a047db"},"vehicle_type_id":"4","last_reported":1778790142,"current_range_meters":8800,"station_id":"","pricing_plan_id":"cebpf4jnsgd1na2vs0mg"},{"bike_id":"1b0e18cc-ca28-403c-a272-2afcd9b6100d","system_id":"levelo_inurba_marseille","lat":43.29949,"lon":5.38699,"is_reserved":false,"is_disabled":false,"rental_uris":{"android":"levelo://app?vid=1b0e18cc-ca28-403c-a272-2afcd9b6100d","ios":"levelo://app?vid=1b0e18cc-ca28-403c-a272-2afcd9b6100d"},"vehicle_type_id":"4","last_reported":1778790142,"current_range_meters":8800,"station_id":"","pricing_plan_id":"cebpf4jnsgd1na2vs0mg"},{"bike_id":"76d54235-f674-4c31-a555-6326d178a22e","system_id":"levelo_inurba_marseille","lat":43.28427,"lon":5.34984,"is_reserved":false,"is_disabled":false,"rental_uris":{"android":"levelo://app?vid=76d54235-f674-4c31-a555-6326d178a22e","ios":"levelo://app?vid=76d54235-f674-4c31-a555-6326d178a22e"},"vehicle_type_id":"4","last_reported":1778790142,"current_range_meters":8800,"station_id":"ce4bhbh2rcd13ifvqepg","pricing_plan_id":"cebpf4jnsgd1na2vs0mg"},{"bike_id":"99504aac-1fb1-42be-9031-13a3385d54c7","system_id":"levelo_inurba_marseille","lat":43.26574,"lon":5.39012,"is_reserved":false,"is_disabled":false,"rental_uris":{"android":"levelo://app?vid=99504aac-1fb1-42be-9031-13a3385d54c7","ios":"levelo://app?vid=99504aac-1fb1-42be-9031-13a3385d54c7"},"vehicle_type_id":"4","last_reported":1778790142,"current_range_meters":8800,"station_id":"ce4bhe12rcd13ifvqf30","pricing_plan_id":"cebpf4jnsgd1na2vs0mg"},{"bike_id":"5b626967-2e39-4c20-a1d8-3650b5a39c79","system_id":"levelo_inurba_marseille","lat":43.24092,"lon":5.37761,"is_reserved":false,"is_disabled":false,"rental_uris":{"android":"levelo://app?vid=5b626967-2e39-4c20-a1d8-3650b5a39c79","ios":"levelo://app?vid=5b626967-2e39-4c20-a1d8-3650b5a39c79"},"vehicle_type_id":"4","last_reported":1778790142,"current_range_meters":9200,"station_id":"ce4bhnp2rcd13ifvqgvg","pricing_plan_id":"cebpf4jnsgd1na2vs0mg"},{"bike_id":"9e14cf93-c2da-4ff6-a5dd-4b49777a18a0","system_id":"levelo_inurba_marseille","lat":43.2479,"lon":5.37453,"is_reserved":false,"is_disabled":false,"rental_uris":{"android":"levelo://app?vid=9e14cf93-c2da-4ff6-a5dd-4b49777a18a0","ios":"levelo://app?vid=9e14cf93-c2da-4ff6-a5dd-4b49777a18a0"},"vehicle_type_id":"4","last_reported":1778790142,"current_range_meters":9200,"station_id":"ce4bhgh2rcd13ifvqfb0","pricing_plan_id":"cebpf4jnsgd1na2vs0mg"},{"bike_id":"998f9cd8-99f2-4c73-91b0-204efe2ea1dc","system_id":"levelo_inurba_marseille","lat":43.23782,"lon":5.36626,"is_reserved":false,"is_disabled":false,"rental_uris":{"android":"levelo://app?vid=998f9cd8-99f2-4c73-91b0-204efe2ea1dc","ios":"levelo://app?vid=998f9cd8-99f2-4c73-91b0-204efe2ea1dc"},"vehicle_type_id":"4","last_reported":1778790142,"current_range_meters":9200,"station_id":"st_d3nk18o9ro0c73en2l3g","pricing_plan_id":"cebpf4jnsgd1na2vs0mg"},{"bike_id":"ca50eec0-c5a4-44d0-be42-20ffbafe062f","system_id":"levelo_inurba_marseille","lat":43.24183,"lon":5.39713,"is_reserved":false,"is_disabled":false,"rental_uris":{"android":"levelo://app?vid=ca50eec0-c5a4-44d0-be42-20ffbafe062f","ios":"levelo://app?vid=ca50eec0-c5a4-44d0-be42-20ffbafe062f"},"vehicle_type_id":"4","last_reported":1778790142,"current_range_meters":9200,"station_id":"ce4bhn12rcd13ifvqgpg","pricing_plan_id":"cebpf4jnsgd1na2vs0mg"},{"bike_id":"96fd033d-e7eb-4564-8148-6dcc83b2ed92","system_id":"levelo_inurba_marseille","lat":43.28832,"lon":5.39361,"is_reserved":false,"is_disabled":false,"rental_uris":{"android":"levelo://app?vid=96fd033d-e7eb-4564-8148-6dcc83b2ed92","ios":"levelo://app?vid=96fd033d-e7eb-4564-8148-6dcc83b2ed92"},"vehicle_type_id":"4","last_reported":1778790142,"current_range_meters":9200,"station_id":"ce4bh2p2rcd13ifvqdi0","pricing_plan_id":"cebpf4jnsgd1na2vs0mg"},{"bike_id":"72560541-def5-4210-8902-e0c7d10c0540","system_id":"levelo_inurba_marseille","lat":43.27919,"lon":5.39223,"is_reserved":false,"is_disabled":false,"rental_uris":{"android":"levelo://app?vid=72560541-def5-4210-8902-e0c7d10c0540","ios":"levelo://app?vid=72560541-def5-4210-8902-e0c7d10c0540"},"vehicle_type_id":"4","last_reported":1778790142,"current_range_meters":9200,"station_id":"","pricing_plan_id":"cebpf4jnsgd1na2vs0mg"},{"bike_id":"4febaeb4-e829-4537-87c4-3eafd40f28cd","system_id":"levelo_inurba_marseille","lat":43.26655,"lon":5.3725,"is_reserved":false,"is_disabled":false,"rental_uris":{"android":"levelo://app?vid=4febaeb4-e829-4537-87c4-3eafd40f28cd","ios":"levelo://app?vid=4febaeb4-e829-4537-87c4-3eafd40f28cd"},"vehicle_type_id":"4","last_reported":1778790142,"current_range_meters":9200,"station_id":"","pricing_plan_id":"cebpf4jnsgd1na2vs0mg"},{"bike_id":"7d8d0e26-eb0f-4158-94da-fe761f77960b","system_id":"levelo_inurba_marseille","lat":43.28892,"lon":5.36246,"is_reserved":false,"is_disabled":false,"rental_uris":{"android":"levelo://app?vid=7d8d0e26-eb0f-4158-94da-fe761f77960b","ios":"levelo://app?vid=7d8d0e26-eb0f-4158-94da-fe761f77960b"},"vehicle_type_id":"4","last_reported":1778790142,"current_range_meters":9200,"station_id":"ce4bhc92rcd13ifvqetg","pricing_plan_id":"cebpf4jnsgd1na2vs0mg"},{"bike_id":"b55559a4-44e2-4ad1-8f62-240ee8d1d7fc","system_id":"levelo_inurba_marseille","lat":43.26234,"lon":5.3744,"is_reserved":false,"is_disabled":false,"rental_uris":{"android":"levelo://app?vid=b55559a4-44e2-4ad1-8f62-240ee8d1d7fc","ios":"levelo://app?vid=b55559a4-44e2-4ad1-8f62-240ee8d1d7fc"},"vehicle_type_id":"4","last_reported":1778790142,"current_range_meters":9200,"station_id":"","pricing_plan_id":"cebpf4jnsgd1na2vs0mg"},{"bike_id":"b0bf8fca-463b-46e1-a641-f507fe34bb53","system_id":"levelo_inurba_marseille","lat":43.32022,"lon":5.38145,"is_reserved":false,"is_disabled":false,"rental_uris":{"android":"levelo://app?vid=b0bf8fca-463b-46e1-a641-f507fe34bb53","ios":"levelo://app?vid=b0bf8fca-463b-46e1-a641-f507fe34bb53"},"vehicle_type_id":"4","last_reported":1778790142,"current_range_meters":9200,"station_id":"ce4bhr12rcd13ifvqhpg","pricing_plan_id":"cebpf4jnsgd1na2vs0mg"},{"bike_id":"29012dfc-28a5-4c5d-a525-5c43c0b48565","system_id":"levelo_inurba_marseille","lat":43.29285,"lon":5.37626,"is_reserved":false,"is_disabled":true,"rental_uris":{"android":"levelo://app?vid=29012dfc-28a5-4c5d-a525-5c43c0b48565","ios":"levelo://app?vid=29012dfc-28a5-4c5d-a525-5c43c0b48565"},"vehicle_type_id":"4","last_reported":1778790142,"current_range_meters":9200,"station_id":"ce4bgi12rcd13ifvqb80","pricing_plan_id":"cebpf4jnsgd1na2vs0mg"},{"bike_id":"e9b80de5-8f44-4960-bae6-f8f4749d21b0","system_id":"levelo_inurba_marseille","lat":43.27373,"lon":5.36242,"is_reserved":false,"is_disabled":false,"rental_uris":{"android":"levelo://app?vid=e9b80de5-8f44-4960-bae6-f8f4749d21b0","ios":"levelo://app?vid=e9b80de5-8f44-4960-bae6-f8f4749d21b0"},"vehicle_type_id":"4","last_reported":1778790142,"current_range_meters":9200,"station_id":"ce4bhbh2rcd13ifvqeo0","pricing_plan_id":"cebpf4jnsgd1na2vs0mg"},{"bike_id":"22c598a6-5851-4e78-a890-c2cb69684438","system_id":"levelo_inurba_marseille","lat":43.28535,"lon":5.44078,"is_reserved":false,"is_disabled":false,"rental_uris":{"android":"levelo://app?vid=22c598a6-5851-4e78-a890-c2cb69684438","ios":"levelo://app?vid=22c598a6-5851-4e78-a890-c2cb69684438"},"vehicle_type_id":"4","last_reported":1778790142,"current_range_meters":9200,"station_id":"st_d3j3df2ikq2c7380ej80","pricing_plan_id":"cebpf4jnsgd1na2vs0mg"},{"bike_id":"8c63bd03-548d-420c-80da-8c9db1a6ac34","system_id":"levelo_inurba_marseille","lat":43.23963,"lon":5.3662,"is_reserved":false,"is_disabled":false,"rental_uris":{"android":"levelo://app?vid=8c63bd03-548d-420c-80da-8c9db1a6ac34","ios":"levelo://app?vid=8c63bd03-548d-420c-80da-8c9db1a6ac34"},"vehicle_type_id":"4","last_reported":1778790142,"current_range_meters":9200,"station_id":"ce4bhi12rcd13ifvqfp0","pricing_plan_id":"cebpf4jnsgd1na2vs0mg"},{"bike_id":"1863605f-83e3-45ee-b0f8-e7064d9423dd","system_id":"levelo_inurba_marseille","lat":43.2318,"lon":5.39987,"is_reserved":false,"is_disabled":false,"rental_uris":{"android":"levelo://app?vid=1863605f-83e3-45ee-b0f8-e7064d9423dd","ios":"levelo://app?vid=1863605f-83e3-45ee-b0f8-e7064d9423dd"},"vehicle_type_id":"4","last_reported":1778790142,"current_range_meters":9200,"station_id":"ce4bhn12rcd13ifvqgqg","pricing_plan_id":"cebpf4jnsgd1na2vs0mg"},{"bike_id":"c398ac9b-cec8-46e0-8dde-1a0c254ce82f","system_id":"levelo_inurba_marseille","lat":43.23154,"lon":5.43695,"is_reserved":false,"is_disabled":false,"rental_uris":{"android":"levelo://app?vid=c398ac9b-cec8-46e0-8dde-1a0c254ce82f","ios":"levelo://app?vid=c398ac9b-cec8-46e0-8dde-1a0c254ce82f"},"vehicle_type_id":"4","last_reported":1778790142,"current_range_meters":9200,"station_id":"ce4bhmp2rcd13ifvqgog","pricing_plan_id":"cebpf4jnsgd1na2vs0mg"},{"bike_id":"b36b5e88-fbb6-4cd2-b82d-a34d61abb710","system_id":"levelo_inurba_marseille","lat":43.26212,"lon":5.37437,"is_reserved":false,"is_disabled":false,"rental_uris":{"android":"levelo://app?vid=b36b5e88-fbb6-4cd2-b82d-a34d61abb710","ios":"levelo://app?vid=b36b5e88-fbb6-4cd2-b82d-a34d61abb710"},"vehicle_type_id":"4","last_reported":1778790142,"current_range_meters":9200,"station_id":"ce4bhgp2rcd13ifvqfc0","pricing_plan_id":"cebpf4jnsgd1na2vs0mg"},{"bike_id":"ac821609-9a41-4f85-b50a-75ccef48c4c9","system_id":"levelo_inurba_marseille","lat":43.27685,"lon":5.38897,"is_reserved":false,"is_disabled":false,"rental_uris":{"android":"levelo://app?vid=ac821609-9a41-4f85-b50a-75ccef48c4c9","ios":"levelo://app?vid=ac821609-9a41-4f85-b50a-75ccef48c4c9"},"vehicle_type_id":"4","last_reported":1778790142,"current_range_meters":9200,"station_id":"ce4bhi12rcd13ifvqfo0","pricing_plan_id":"cebpf4jnsgd1na2vs0mg"},{"bike_id":"c375f9a6-2772-4b89-8832-9b3acc596bb1","system_id":"levelo_inurba_marseille","lat":43.28717,"lon":5.36083,"is_reserved":false,"is_disabled":false,"rental_uris":{"android":"levelo://app?vid=c375f9a6-2772-4b89-8832-9b3acc596bb1","ios":"levelo://app?vid=c375f9a6-2772-4b89-8832-9b3acc596bb1"},"vehicle_type_id":"4","last_reported":1778790142,"current_range_meters":9200,"station_id":"cki0cbj6b192h4jlfktg","pricing_plan_id":"cebpf4jnsgd1na2vs0mg"},{"bike_id":"8e2caaad-2009-4aea-814b-5350daae3b1b","system_id":"levelo_inurba_marseille","lat":43.24332,"lon":5.38418,"is_reserved":false,"is_disabled":false,"rental_uris":{"android":"levelo://app?vid=8e2caaad-2009-4aea-814b-5350daae3b1b","ios":"levelo://app?vid=8e2caaad-2009-4aea-814b-5350daae3b1b"},"vehicle_type_id":"4","last_reported":1778790142,"current_range_meters":9200,"station_id":"","pricing_plan_id":"cebpf4jnsgd1na2vs0mg"},{"bike_id":"3e849c92-59a0-4fef-a13c-04223cce3eee","system_id":"levelo_inurba_marseille","lat":43.266,"lon":5.39039,"is_reserved":false,"is_disabled":false,"rental_uris":{"android":"levelo://app?vid=3e849c92-59a0-4fef-a13c-04223cce3eee","ios":"levelo://app?vid=3e849c92-59a0-4fef-a13c-04223cce3eee"},"vehicle_type_id":"4","last_reported":1778790142,"current_range_meters":9200,"station_id":"ce4bhe12rcd13ifvqf30","pricing_plan_id":"cebpf4jnsgd1na2vs0mg"},{"bike_id":"9d5cf12f-4e84-435a-b6de-697adf9da0fe","system_id":"levelo_inurba_marseille","lat":43.29247,"lon":5.38433,"is_reserved":false,"is_disabled":false,"rental_uris":{"android":"levelo://app?vid=9d5cf12f-4e84-435a-b6de-697adf9da0fe","ios":"levelo://app?vid=9d5cf12f-4e84-435a-b6de-697adf9da0fe"},"vehicle_type_id":"4","last_reported":1778790142,"current_range_meters":9200,"station_id":"ce4bh692rcd13ifvqea0","pricing_plan_id":"cebpf4jnsgd1na2vs0mg"},