{"last_updated":1724429449,"ttl":30,"version":"2.2","data":{"bikes":[{"bike_id":"1da6d07c-3272-49a8-82cf-5c5b7b642c4e","system_id":"levelo_inurba_marseille","lat":43.312239,"lon":5.368562,"is_reserved":false,"is_disabled":false,"rental_uris":{"android":"levelo://app?vid=1da6d07c-3272-49a8-82cf-5c5b7b642c4e","ios":"levelo://app?vid=1da6d07c-3272-49a8-82cf-5c5b7b642c4e"},"vehicle_type_id":"4","last_reported":1724429449,"current_range_meters":800,"station_id":"ce4bgl92rcd13ifvqbq0","pricing_plan_id":"cebpf4jnsgd1na2vs0mg"},{"bike_id":"eb381bc9-2571-4062-bdb4-2878c5be0b42","system_id":"levelo_inurba_marseille","lat":43.312239,"lon":5.368562,"is_reserved":false,"is_disabled":false,"rental_uris":{"android":"levelo://app?vid=eb381bc9-2571-4062-bdb4-2878c5be0b42","ios":"levelo://app?vid=eb381bc9-2571-4062-bdb4-2878c5be0b42"},"vehicle_type_id":"4","last_reported":1724429449,"current_range_meters":17600,"station_id":"ce4bgl92rcd13ifvqbq0","pricing_plan_id":"cebpf4jnsgd1na2vs0mg"},{"bike_id":"9d322dc7-bb1f-41fc-9844-9cf4fc6ba038","system_id":"levelo_inurba_marseille","lat":43.312239,"lon":5.368562,"is_reserved":false,"is_disabled":false,"rental_uris":{"android":"levelo://app?vid=9d322dc7-bb1f-41fc-9844-9cf4fc6ba038","ios":"levelo://app?vid=9d322dc7-bb1f-41fc-9844-9cf4fc6ba038"},"vehicle_type_id":"4","last_reported":1724429449,"current_range_meters":27600,"station_id":"ce4bgl92rcd13ifvqbq0","pricing_plan_id":"cebpf4jnsgd1na2vs0mg"},{"bike_id":"6eca0481-7dd8-4b20-b6a1-d886c14f13c7","system_id":"levelo_inurba_marseille","lat":43.312239,"lon":5.368562,"is_reserved":false,"is_disabled":false,"rental_uris":{"android":"levelo://app?vid=6eca0481-7dd8-4b20-b6a1-d886c14f13c7","ios":"levelo://app?vid=6eca0481-7dd8-4b20-b6a1-d886c14f13c7"},"vehicle_type_id":"4","last_reported":1724429449,"current_range_meters":0,"station_id":"ce4bgl92rcd13ifvqbq0","pricing_plan_id":"cebpf4jnsgd1na2vs0mg"},{"bike_id":"3818618b-d297-49f1-bd52-afee350e6f53","system_id":"levelo_inurba_marseille","lat":43.311983,"lon":5.368831,"is_reserved":false,"is_disabled":false,"rental_uris":{"android":"levelo://app?vid=3818618b-d297-49f1-bd52-afee350e6f53","ios":"levelo://app?vid=3818618b-d297-49f1-bd52-afee350e6f53"},"vehicle_type_id":"4","last_reported":1724429449,"current_range_meters":26000,"station_id":"ce4bgl92rcd13ifvqbq0","pricing_plan_id":"cebpf4jnsgd1na2vs0mg"},{"bike_id":"64ec4f9e-4728-439b-8d78-b484a842a065","system_id":"levelo_inurba_marseille","lat":43.309076,"lon":5.368465,"is_reserved":false,"is_disabled":false,"rental_uris":{"android":"levelo://app?vid=64ec4f9e-4728-439b-8d78-b484a842a065","ios":"levelo://app?vid=64ec4f9e-4728-439b-8d78-b484a842a065"},"vehicle_type_id":"4","last_reported":1724429449,"current_range_meters":14800,"station_id":"ce4bgn92rcd13ifvqbvg","pricing_plan_id":"cebpf4jnsgd1na2vs0mg"},{"bike_id":"7c24ff6f-04ba-4b99-943e-6fed8c4581ee","system_id":"levelo_inurba_marseille","lat":43.309076,"lon":5.368465,"is_reserved":false,"is_disabled":false,"rental_uris":{"android":"levelo://app?vid=7c24ff6f-04ba-4b99-943e-6fed8c4581ee","ios":"levelo://app?vid=7c24ff6f-04ba-4b99-943e-6fed8c4581ee"},"vehicle_type_id":"4","last_reported":1724429449,"current_range_meters":400,"station_id":"ce4bgn92rcd13ifvqbvg","pricing_plan_id":"cebpf4jnsgd1na2vs0mg"},{"bike_id":"6a79812e-b025-4753-ab17-701fbfd91a6a","system_id":"levelo_inurba_marseille","lat":43.314811,"lon":5.373103,"is_reserved":false,"is_disabled":false,"rental_uris":{"android":"levelo://app?vid=6a79812e-b025-4753-ab17-701fbfd91a6a","ios":"levelo://app?vid=6a79812e-b025-4753-ab17-701fbfd91a6a"},"vehicle_type_id":"4","last_reported":1724429449,"current_range_meters":14000,"station_id":"ce4bgt12rcd13ifvqcd0","pricing_plan_id":"cebpf4jnsgd1na2vs0mg"},{"bike_id":"e85ebb8f-430d-4c25-bcc7-97734885f311","system_id":"levelo_inurba_marseille","lat":43.31502,"lon":5.37308,"is_reserved":false,"is_disabled":false,"rental_uris":{"android":"levelo://app?vid=e85ebb8f-430d-4c25-bcc7-97734885f311","ios":"levelo://app?vid=e85ebb8f-430d-4c25-bcc7-97734885f311"},"vehicle_type_id":"4","last_reported":1724429449,"current_range_meters":0,"station_id":"ce4bgt12rcd13ifvqcd0","pricing_plan_id":"cebpf4jnsgd1na2vs0mg"},{"bike_id":"87e98e52-9bb7-4c1e-9f29-25b630f7743e","system_id":"levelo_inurba_marseille","lat":43.30537,"lon":5.367345,"is_reserved":false,"is_disabled":false,"rental_uris":{"android":"levelo://app?vid=87e98e52-9bb7-4c1e-9f29-25b630f7743e","ios":"levelo://app?vid=87e98e52-9bb7-4c1e-9f29-25b630f7743e"},"vehicle_type_id":"4","last_reported":1724429449,"current_range_meters":5600,"station_id":"ce4bgrp2rcd13ifvqc9g","pricing_plan_id":"cebpf4jnsgd1na2vs0mg"},{"bike_id":"e4fbcaaf-24b7-41c2-8c78-7e90ac92afec","system_id":"levelo_inurba_marseille","lat":43.30537,"lon":5.367345,"is_reserved":false,"is_disabled":false,"rental_uris":{"android":"levelo://app?vid=e4fbcaaf-24b7-41c2-8c78-7e90ac92afec","ios":"levelo://app?vid=e4fbcaaf-24b7-41c2-8c78-7e90ac92afec"},"vehicle_type_id":"4","last_reported":1724429449,"current_range_meters":19600,"station_id":"ce4bgrp2rcd13ifvqc9g","pricing_plan_id":"cebpf4jnsgd1na2vs0mg"},{"bike_id":"2e09cb0e-5798-478c-bd7f-9a6ed7929ad6","system_id":"levelo_inurba_marseille","lat":43.305712,"lon":5.365641,"is_reserved":false,"is_disabled":false,"rental_uris":{"android":"levelo://app?vid=2e09cb0e-5798-478c-bd7f-9a6ed7929ad6","ios":"levelo://app?vid=2e09cb0e-5798-478c-bd7f-9a6ed7929ad6"},"vehicle_type_id":"4","last_reported":1724429449,"current_range_meters":6800,"station_id":"ce4bgs12rcd13ifvqcag","pricing_plan_id":"cebpf4jnsgd1na2vs0mg"},{"bike_id":"94eb3381-0b4f-486d-84aa-c60c8017b313","system_id":"levelo_inurba_marseille","lat":43.305714,"lon":5.365633,"is_reserved":false,"is_disabled":false,"rental_uris":{"android":"levelo://app?vid=94eb3381-0b4f-486d-84aa-c60c8017b313","ios":"levelo://app?vid=94eb3381-0b4f-486d-84aa-c60c8017b313"},"vehicle_type_id":"4","last_reported":1724429449,"current_range_meters":30800,"station_id":"ce4bgs12rcd13ifvqcag","pricing_plan_id":"cebpf4jnsgd1na2vs0mg"},{"bike_id":"08413964-6015-4bda-ad33-a2d7983f60dc","system_id":"levelo_inurba_marseille","lat":43.30534,"lon":5.36544,"is_reserved":false,"is_disabled":false,"rental_uris":{"android":"levelo://app?vid=08413964-6015-4bda-ad33-a2d7983f60dc","ios":"levelo://app?vid=08413964-6015-4bda-ad33-a2d7983f60dc"},"vehicle_type_id":"4","last_reported":1724429449,"current_range_meters":30800,"station_id":"ce4bgs12rcd13ifvqcag","pricing_plan_id":"cebpf4jnsgd1na2vs0mg"},{"bike_id":"0bf9e6f0-963b-4070-b128-ee7d81c785ca","system_id":"levelo_inurba_marseille","lat":43.305706,"lon":5.365654,"is_reserved":false,"is_disabled":false,"rental_uris":{"android":"levelo://app?vid=0bf9e6f0-963b-4070-b128-ee7d81c785ca","ios":"levelo://app?vid=0bf9e6f0-963b-4070-b128-ee7d81c785ca"},"vehicle_type_id":"4","last_reported":1724429449,"current_range_meters":10800,"station_id":"ce4bgs12rcd13ifvqcag","pricing_plan_id":"cebpf4jnsgd1na2vs0mg"},{"bike_id":"02231a0e-0a2b-42e9-b9be-cf6e5743fea3","system_id":"levelo_inurba_marseille","lat":43.305706,"lon":5.365654,"is_reserved":false,"is_disabled":false,"rental_uris":{"android":"levelo://app?vid=02231a0e-0a2b-42e9-b9be-cf6e5743fea3","ios":"levelo://app?vid=02231a0e-0a2b-42e9-b9be-cf6e5743fea3"},"vehicle_type_id":"4","last_reported":1724429449,"current_range_meters":31600,"station_id":"ce4bgs12rcd13ifvqcag","pricing_plan_id":"cebpf4jnsgd1na2vs0mg"},{"bike_id":"19c14307-df52-4cfb-9710-c0b982fd29e2","system_id":"levelo_inurba_marseille","lat":43.311125,"lon":5.377624,"is_reserved":false,"is_disabled":false,"rental_uris":{"android":"levelo://app?vid=19c14307-df52-4cfb-9710-c0b982fd29e2","ios":"levelo://app?vid=19c14307-df52-4cfb-9710-c0b982fd29e2"},"vehicle_type_id":"4","last_reported":1724429449,"current_range_meters":2800,"station_id":"ce4bgt92rcd13ifvqcg0","pricing_plan_id":"cebpf4jnsgd1na2vs0mg"},{"bike_id":"91be07dc-f6cb-4c4a-b0c7-065010ea3cc2","system_id":"levelo_inurba_marseille","lat":43.305989,"lon":5.37225,"is_reserved":false,"is_disabled":false,"rental_uris":{"android":"levelo://app?vid=91be07dc-f6cb-4c4a-b0c7-065010ea3cc2","ios":"levelo://app?vid=91be07dc-f6cb-4c4a-b0c7-065010ea3cc2"},"vehicle_type_id":"4","last_reported":1724429449,"current_range_meters":30400,"station_id":"ce4bgqh2rcd13ifvqc4g","pricing_plan_id":"cebpf4jnsgd1na2vs0mg"},{"bike_id":"1ba0ca3a-990a-4fa3-9d63-d8dac8d89540","system_id":"levelo_inurba_marseille","lat":43.311178,"lon":5.377667,"is_reserved":false,"is_disabled":false,"rental_uris":{"android":"levelo://app?vid=1ba0ca3a-990a-4fa3-9d63-d8dac8d89540","ios":"levelo://app?vid=1ba0ca3a-990a-4fa3-9d63-d8dac8d89540"},"vehicle_type_id":"4","last_reported":1724429449,"current_range_meters":0,"station_id":"","pricing_plan_id":"cebpf4jnsgd1na2vs0mg"},{"bike_id":"174266b3-b7c3-4a2b-b89f-1c51b693b8c1","system_id":"levelo_inurba_marseille","lat":43.307945,"lon":5.376487,"is_reserved":false,"is_disabled":false,"rental_uris":{"android":"levelo://app?vid=174266b3-b7c3-4a2b-b89f-1c51b693b8c1","ios":"levelo://app?vid=174266b3-b7c3-4a2b-b89f-1c51b693b8c1"},"vehicle_type_id":"4","last_reported":1724429449,"current_range_meters":6400,"station_id":"ce4bgv92rcd13ifvqcq0","pricing_plan_id":"cebpf4jnsgd1na2vs0mg"},{"bike_id":"10483868-17e5-4f82-9639-c253734114f1","system_id":"levelo_inurba_marseille","lat":43.30792,"lon":5.37643,"is_reserved":false,"is_disabled":false,"rental_uris":{"android":"levelo://app?vid=10483868-17e5-4f82-9639-c253734114f1","ios":"levelo://app?vid=10483868-17e5-4f82-9639-c253734114f1"},"vehicle_type_id":"4","last_reported":1724429449,"current_range_meters":10000,"station_id":"ce4bgv92rcd13ifvqcq0","pricing_plan_id":"cebpf4jnsgd1na2vs0mg"},{"bike_id":"07b6a2e3-6fd5-4e04-bfe4-e59e8b02caf3","system_id":"levelo_inurba_marseille","lat":43.317075,"lon":5.377367,"is_reserved":false,"is_disabled":false,"rental_uris":{"android":"levelo://app?vid=07b6a2e3-6fd5-4e04-bfe4-e59e8b02caf3","ios":"levelo://app?vid=07b6a2e3-6fd5-4e04-bfe4-e59e8b02caf3"},"vehicle_type_id":"4","last_reported":1724429449,"current_range_meters":4400,"station_id":"ce4bgth2rcd13ifvqch0","pricing_plan_id":"cebpf4jnsgd1na2vs0mg"},{"bike_id":"aaa3673b-7dcd-449e-98a8-b6a0fdb1b16d","system_id":"levelo_inurba_marseille","lat":43.317075,"lon":5.377367,"is_reserved":false,"is_disabled":false,"rental_uris":{"android":"levelo://app?vid=aaa3673b-7dcd-449e-98a8-b6a0fdb1b16d","ios":"levelo://app?vid=aaa3673b-7dcd-449e-98a8-b6a0fdb1b16d"},"vehicle_type_id":"4","last_reported":1724429449,"current_range_meters":23600,"station_id":"ce4bgth2rcd13ifvqch0","pricing_plan_id":"cebpf4jnsgd1na2vs0mg"},{"bike_id":"26077774-4155-46c1-baff-3ecdb0384a8e","system_id":"levelo_inurba_marseille","lat":43.312047,"lon":5.379325,"is_reserved":false,"is_disabled":false,"rental_uris":{"android":"levelo://app?vid=26077774-4155-46c1-baff-3ecdb0384a8e","ios":"levelo://app?vid=26077774-4155-46c1-baff-3ecdb0384a8e"},"vehicle_type_id":"4","last_reported":1724429449,"current_range_meters":12400,"station_id":"","pricing_plan_id":"cebpf4jnsgd1na2vs0mg"},{"bike_id":"a25368e5-b9f9-4930-aff1-c09d6187daaf","system_id":"levelo_inurba_marseille","lat":43.30324,"lon":5.36896,"is_reserved":false,"is_disabled":false,"rental_uris":{"android":"levelo://app?vid=a25368e5-b9f9-4930-aff1-c09d6187daaf","ios":"levelo://app?vid=a25368e5-b9f9-4930-aff1-c09d6187daaf"},"vehicle_type_id":"4","last_reported":1724429449,"current_range_meters":31200,"station_id":"ce4bgqh2rcd13ifvqc5g","pricing_plan_id":"cebpf4jnsgd1na2vs0mg"},{"bike_id":"aedde132-0675-4b2f-b201-7643a759f67a","system_id":"levelo_inurba_marseille","lat":43.315289,"lon":5.380349,"is_reserved":false,"is_disabled":false,"rental_uris":{"android":"levelo://app?vid=aedde132-0675-4b2f-b201-7643a759f67a","ios":"levelo://app?vid=aedde132-0675-4b2f-b201-7643a759f67a"},"vehicle_type_id":"4","last_reported":1724429449,"current_range_meters":30000,"station_id":"ce4bhsp2rcd13ifvqi50","pricing_plan_id":"cebpf4jnsgd1na2vs0mg"},{"bike_id":"68344632-136a-43a5-8fbb-6ce844e909e6","system_id":"levelo_inurba_marseille","lat":43.315289,"lon":5.380349,"is_reserved":false,"is_disabled":false,"rental_uris":{"android":"levelo://app?vid=68344632-136a-43a5-8fbb-6ce844e909e6","ios":"levelo://app?vid=68344632-136a-43a5-8fbb-6ce844e909e6"},"vehicle_type_id":"4","last_reported":1724429449,"current_range_meters":23600,"station_id":"ce4bhsp2rcd13ifvqi50","pricing_plan_id":"cebpf4jnsgd1na2vs0mg"},{"bike_id":"295a55e9-eb69-4276-bc66-3037082350fc","system_id":"levelo_inurba_marseille","lat":43.315289,"lon":5.380349,"is_reserved":false,"is_disabled":false,"rental_uris":{"android":"levelo://app?vid=295a55e9-eb69-4276-bc66-3037082350fc","ios":"levelo://app?vid=295a55e9-eb69-4276-bc66-3037082350fc"},"vehicle_type_id":"4","last_reported":1724429449,"current_range_meters":17600,"station_id":"ce4bhsp2rcd13ifvqi50","pricing_plan_id":"cebpf4jnsgd1na2vs0mg"},{"bike_id":"24020371-fa6f-4ab0-93f8-0b25d844581f","system_id":"levelo_inurba_marseille","lat":43.301939,"lon":5.366286,"is_reserved":false,"is_disabled":false,"rental_uris":{"android":"levelo://app?vid=24020371-fa6f-4ab0-93f8-0b25d844581f","ios":"levelo://app?vid=24020371-fa6f-4ab0-93f8-0b25d844581f"},"vehicle_type_id":"4","last_reported":1724429449,"current_range_meters":14800,"station_id":"ce4bgrh2rcd13ifvqc8g","pricing_plan_id":"cebpf4jnsgd1na2vs0mg"},{"bike_id":"3b10f43f-f242-4f64-806a-7c94d6bee3a9","system_id":"levelo_inurba_marseille","lat":43.302784,"lon":5.377158,"is_reserved":false,"is_disabled":false,"rental_uris":{"android":"levelo://app?vid=3b10f43f-f242-4f64-806a-7c94d6bee3a9","ios":"levelo://app?vid=3b10f43f-f242-4f64-806a-7c94d6bee3a9"},"vehicle_type_id":"4","last_reported":1724429449,"current_range_meters":2400,"station_id":"ce4bguh2rcd13ifvqcj0","pricing_plan_id":"cebpf4jnsgd1na2vs0mg"},{"bike_id":"8ff15df4-e247-46e0-90f5-0f97019841be","system_id":"levelo_inurba_marseille","lat":43.308012,"lon":5.381511,"is_reserved":false,"is_disabled":false,"rental_uris":{"android":"levelo://app?vid=8ff15df4-e247-46e0-90f5-0f97019841be","ios":"levelo://app?vid=8ff15df4-e247-46e0-90f5-0f97019841be"},"vehicle_type_id":"4","last_reported":1724429449,"current_range_meters":10800,"station_id":"ce4bgt12rcd13ifvqce0","pricing_plan_id":"cebpf4jnsgd1na2vs0mg"},{"bike_id":"00bc541d-6b2e-4006-9f43-0ffc15b7decb","system_id":"levelo_inurba_marseille","lat":43.304606,"lon":5.379026,"is_reserved":false,"is_disabled":false,"rental_uris":{"android":"levelo://app?vid=00bc541d-6b2e-4006-9f43-0ffc15b7decb","ios":"levelo://app?vid=00bc541d-6b2e-4006-9f43-0ffc15b7decb"},"vehicle_type_id":"4","last_reported":1724429449,"current_range_meters":800,"station_id":"ce4bgup2rcd13ifvqcn0","pricing_plan_id":"cebpf4jnsgd1na2vs0mg"},{"bike_id":"fa4728c9-467b-4bdc-88d2-f56075148a06","system_id":"levelo_inurba_marseille","lat":43.324771,"lon":5.36557,"is_reserved":false,"is_disabled":false,"rental_uris":{"android":"levelo://app?vid=fa4728c9-467b-4bdc-88d2-f56075148a06","ios":"levelo://app?vid=fa4728c9-467b-4bdc-88d2-f56075148a06"},"vehicle_type_id":"4","last_reported":1724429449,"current_range_meters":17600,"station_id":"ce4bhs12rcd13ifvqhvg","pricing_plan_id":"cebpf4jnsgd1na2vs0mg"},{"bike_id":"a1ac0451-3398-4947-9ccd-6a7080d125c4","system_id":"levelo_inurba_marseille","lat":43.324771,"lon":5.36557,"is_reserved":false,"is_disabled":false,"rental_uris":{"android":"levelo://app?vid=a1ac0451-3398-4947-9ccd-6a7080d125c4","ios":"levelo://app?vid=a1ac0451-3398-4947-9ccd-6a7080d125c4"},"vehicle_type_id":"4","last_reported":1724429449,"current_range_meters":21200,"station_id":"ce4bhs12rcd13ifvqhvg","pricing_plan_id":"cebpf4jnsgd1na2vs0mg"},{"bike_id":"f59a6b16-6144-4e54-834b-189f23234a5e","system_id":"levelo_inurba_marseille","lat":43.324771,"lon":5.36557,"is_reserved":false,"is_disabled":false,"rental_uris":{"android":"levelo://app?vid=f59a6b16-6144-4e54-834b-189f23234a5e","ios":"levelo://app?vid=f59a6b16-6144-4e54-834b-189f23234a5e"},"vehicle_type_id":"4","last_reported":1724429449,"current_range_meters":18400,"station_id":"ce4bhs12rcd13ifvqhvg","pricing_plan_id":"cebpf4jnsgd1na2vs0mg"},{"bike_id":"f0e71938-9a91-4937-b3dc-ab0b06c637fe","system_id":"levelo_inurba_marseille","lat":43.324771,"lon":5.36557,"is_reserved":false,"is_disabled":false,"rental_uris":{"android":"levelo://app?vid=f0e71938-9a91-4937-b3dc-ab0b06c637fe","ios":"levelo://app?vid=f0e71938-9a91-4937-b3dc-ab0b06c637fe"},"vehicle_type_id":"4","last_reported":1724429449,"current_range_meters":24800,"station_id":"ce4bhs12rcd13ifvqhvg","pricing_plan_id":"cebpf4jnsgd1na2vs0mg"},{"bike_id":"06a8953f-e5fc-4af1-bc87-1cdafe4c2b99","system_id":"levelo_inurba_marseille","lat":43.324771,"lon":5.36557,"is_reserved":false,"is_disabled":false,"rental_uris":{"android":"levelo://app?vid=06a8953f-e5fc-4af1-bc87-1cdafe4c2b99","ios":"levelo://app?vid=06a8953f-e5fc-4af1-bc87-1cdafe4c2b99"},"vehicle_type_id":"4","last_reported":1724429449,"current_range_meters":11600,"station_id":"ce4bhs12rcd13ifvqhvg","pricing_plan_id":"cebpf4jnsgd1na2vs0mg"},{"bike_id":"9420d57f-f057-4eec-97c7-92f536e5ac23","system_id":"levelo_inurba_marseille","lat":43.324771,"lon":5.36557,"is_reserved":false,"is_disabled":false,"rental_uris":{"android":"levelo://app?vid=9420d57f-f057-4eec-97c7-92f536e5ac23","ios":"levelo://app?vid=9420d57f-f057-4eec-97c7-92f536e5ac23"},"vehicle_type_id":"4","last_reported":1724429449,"current_range_meters":7200,"station_id":"ce4bhs12rcd13ifvqhvg","pricing_plan_id":"cebpf4jnsgd1na2vs0mg"},{"bike_id":"7fcd07c3-b936-4ec9-9ed3-f193fcad5baf","system_id":"levelo_inurba_marseille","lat":43.324771,"lon":5.36557,"is_reserved":false,"is_disabled":false,"rental_uris":{"android":"levelo://app?vid=7fcd07c3-b936-4ec9-9ed3-f193fcad5baf","ios":"levelo://app?vid=7fcd07c3-b936-4ec9-9ed3-f193fcad5baf"},"vehicle_type_id":"4","last_reported":1724429449,"current_range_meters":19600,"station_id":"ce4bhs12rcd13ifvqhvg","pricing_plan_id":"cebpf4jnsgd1na2vs0mg"},{"bike_id":"059d6cf0-2185-4cc0-af5d-cddec0760f00","system_id":"levelo_inurba_marseille","lat":43.324771,"lon":5.36557,"is_reserved":false,"is_disabled":false,"rental_uris":{"android":"levelo://app?vid=059d6cf0-2185-4cc0-af5d-cddec0760f00","ios":"levelo://app?vid=059d6cf0-2185-4cc0-af5d-cddec0760f00"},"vehicle_type_id":"4","last_reported":1724429449,"current_range_meters":28800,"station_id":"ce4bhs12rcd13ifvqhvg","pricing_plan_id":"cebpf4jnsgd1na2vs0mg"},{"bike_id":"bdd677b9-680e-4388-ab92-7d9b5e677b0a","system_id":"levelo_inurba_marseille","lat":43.324771,"lon":5.36557,"is_reserved":false,"is_disabled":false,"rental_uris":{"android":"levelo://app?vid=bdd677b9-680e-4388-ab92-7d9b5e677b0a","ios":"levelo://app?vid=bdd677b9-680e-4388-ab92-7d9b5e677b0a"},"vehicle_type_id":"4","last_reported":1724429449,"current_range_meters":30800,"station_id":"ce4bhs12rcd13ifvqhvg","pricing_plan_id":"cebpf4jnsgd1na2vs0mg"},{"bike_id":"4b068ad2-1221-4476-9487-2b7eb5619d8a","system_id":"levelo_inurba_marseille","lat":43.31366,"lon":5.38364,"is_reserved":false,"is_disabled":false,"rental_uris":{"android":"levelo://app?vid=4b068ad2-1221-4476-9487-2b7eb5619d8a","ios":"levelo://app?vid=4b068ad2-1221-4476-9487-2b7eb5619d8a"},"vehicle_type_id":"4","last_reported":1724429449,"current_range_meters":9200,"station_id":"","pricing_plan_id":"cebpf4jnsgd1na2vs0mg"},{"bike_id":"f99b2185-04a7-4cb1-8a2d-633388de8c60","system_id":"levelo_inurba_marseille","lat":43.302784,"lon":5.377158,"is_reserved":false,"is_disabled":false,"rental_uris":{"android":"levelo://app?vid=f99b2185-04a7-4cb1-8a2d-633388de8c60","ios":"levelo://app?vid=f99b2185-04a7-4cb1-8a2d-633388de8c60"},"vehicle_type_id":"4","last_reported":1724429449,"current_range_meters":11200,"station_id":"ce4bguh2rcd13ifvqcj0","pricing_plan_id":"cebpf4jnsgd1na2vs0mg"},{"bike_id":"d7f58ef6-5aa5-4de0-a268-280d7ed47d80","system_id":"levelo_inurba_marseille","lat":43.30145,"lon":5.37412,"is_reserved":false,"is_disabled":false,"rental_uris":{"android":"levelo://app?vid=d7f58ef6-5aa5-4de0-a268-280d7ed47d80","ios":"levelo://app?vid=d7f58ef6-5aa5-4de0-a268-280d7ed47d80"},"vehicle_type_id":"4","last_reported":1724429449,"current_range_meters":31200,"station_id":"ce4bgs92rcd13ifvqcc0","pricing_plan_id":"cebpf4jnsgd1na2vs0mg"},{"bike_id":"7fb9c840-fd22-4574-81f0-28de008259e1","system_id":"levelo_inurba_marseille","lat":43.30143,"lon":5.37413,"is_reserved":false,"is_disabled":false,"rental_uris":{"android":"levelo://app?vid=7fb9c840-fd22-4574-81f0-28de008259e1","ios":"levelo://app?vid=7fb9c840-fd22-4574-81f0-28de008259e1"},"vehicle_type_id":"4","last_reported":1724429449,"current_range_meters":400,"station_id":"ce4bgs92rcd13ifvqcc0","pricing_plan_id":"cebpf4jnsgd1na2vs0mg"},{"bike_id":"adf1d840-d589-4f4f-a61c-3d9cd84a3a3a","system_id":"levelo_inurba_marseille","lat":43.30144,"lon":5.3742,"is_reserved":false,"is_disabled":false,"rental_uris":{"android":"levelo://app?vid=adf1d840-d589-4f4f-a61c-3d9cd84a3a3a","ios":"levelo://app?vid=adf1d840-d589-4f4f-a61c-3d9cd84a3a3a"},"vehicle_type_id":"4","last_reported":1724429449,"current_range_meters":6800,"station_id":"","pricing_plan_id":"cebpf4jnsgd1na2vs0mg"},{"bike_id":"62947500-869e-4407-8a02-fbe4dad13ecd","system_id":"levelo_inurba_marseille","lat":43.302784,"lon":5.377158,"is_reserved":false,"is_disabled":false,"rental_uris":{"android":"levelo://app?vid=62947500-869e-4407-8a02-fbe4dad13ecd","ios":"levelo://app?vid=62947500-869e-4407-8a02-fbe4dad13ecd"},"vehicle_type_id":"4","last_reported":1724429449,"current_range_meters":0,"station_id":"ce4bguh2rcd13ifvqcj0","pricing_plan_id":"cebpf4jnsgd1na2vs0mg"},{"bike_id":"2d472cc6-1696-4a97-926d-37a1efad8267","system_id":"levelo_inurba_marseille","lat":43.319935,"lon":5.381699,"is_reserved":false,"is_disabled":false,"rental_uris":{"android":"levelo://app?vid=2d472cc6-1696-4a97-926d-37a1efad8267","ios":"levelo://app?vid=2d472cc6-1696-4a97-926d-37a1efad8267"},"vehicle_type_id":"4","last_reported":1724429449,"current_range_meters":32000,"station_id":"ce4bhr12rcd13ifvqhpg","pricing_plan_id":"cebpf4jnsgd1na2vs0mg"},{"bike_id":"0158f74a-e2c5-4fcc-bc55-cb1fffa33530","system_id":"levelo_inurba_marseille","lat":43.319935,"lon":5.381699,"is_reserved":false,"is_disabled":false,"rental_uris":{"android":"levelo://app?vid=0158f74a-e2c5-4fcc-bc55-cb1fffa33530","ios":"levelo://app?vid=0158f74a-e2c5-4fcc-bc55-cb1fffa33530"},"vehicle_type_id":"4","last_reported":1724429449,"current_range_meters":400,"station_id":"ce4bhr12rcd13ifvqhpg","pricing_plan_id":"cebpf4jnsgd1na2vs0mg"},{"bike_id":"36e7de20-2447-41f8-a758-e6aba8a8ae96","system_id":"levelo_inurba_marseille","lat":43.319935,"lon":5.381699,"is_reserved":false,"is_disabled":false,"rental_uris":{"android":"levelo://app?vid=36e7de20-2447-41f8-a758-e6aba8a8ae96","ios":"levelo://app?vid=36e7de20-2447-41f8-a758-e6aba8a8ae96"},"vehicle_type_id":"4","last_reported":1724429449,"current_range_meters":9200,"station_id":"ce4bhr12rcd13ifvqhpg","pricing_plan_id":"cebpf4jnsgd1na2vs0mg"},{"bike_id":"0a5f85d4-364e-474e-b908-3a3703fabc7b","system_id":"levelo_inurba_marseille","lat":43.313571,"lon":5.384829,"is_reserved":false,"is_disabled":false,"rental_uris":{"android":"levelo://app?vid=0a5f85d4-364e-474e-b908-3a3703fabc7b","ios":"levelo://app?vid=0a5f85d4-364e-474e-b908-3a3703fabc7b"},"vehicle_type_id":"4","last_reported":1724429449,"current_range_meters":31200,"station_id":"ce4bgt92rcd13ifvqcf0","pricing_plan_id":"cebpf4jnsgd1na2vs0mg"},{"bike_id":"41265642-f369-415c-89ac-e4ea4b5801c5","system_id":"levelo_inurba_marseille","lat":43.299724,"lon":5.371829,"is_reserved":false,"is_disabled":false,"rental_uris":{"android":"levelo://app?vid=41265642-f369-415c-89ac-e4ea4b5801c5","ios":"levelo://app?vid=41265642-f369-415c-89ac-e4ea4b5801c5"},"vehicle_type_id":"4","last_reported":1724429449,"current_range_meters":12400,"station_id":"ce4bgr92rcd13ifvqc7g","pricing_plan_id":"cebpf4jnsgd1na2vs0mg"},{"bike_id":"8e4085ea-3555-4d08-b12a-0d79012281ec","system_id":"levelo_inurba_marseille","lat":43.299724,"lon":5.371829,"is_reserved":false,"is_disabled":false,"rental_uris":{"android":"levelo://app?vid=8e4085ea-3555-4d08-b12a-0d79012281ec","ios":"levelo://app?vid=8e4085ea-3555-4d08-b12a-0d79012281ec"},"vehicle_type_id":"4","last_reported":1724429449,"current_range_meters":5600,"station_id":"ce4bgr92rcd13ifvqc7g","pricing_plan_id":"cebpf4jnsgd1na2vs0mg"},{"bike_id":"92bbbab0-5cd1-4bd0-8887-5bed3c0c32b5","system_id":"levelo_inurba_marseille","lat":43.299222,"lon":5.365554,"is_reserved":false,"is_disabled":false,"rental_uris":{"android":"levelo://app?vid=92bbbab0-5cd1-4bd0-8887-5bed3c0c32b5","ios":"levelo://app?vid=92bbbab0-5cd1-4bd0-8887-5bed3c0c32b5"},"vehicle_type_id":"4","last_reported":1724429449,"current_range_meters":0,"station_id":"ce4bgm92rcd13ifvqbr0","pricing_plan_id":"cebpf4jnsgd1na2vs0mg"},{"bike_id":"41742b6e-8a4e-4b36-a571-e2ca7f0749a0","system_id":"levelo_inurba_marseille","lat":43.299724,"lon":5.371829,"is_reserved":false,"is_disabled":false,"rental_uris":{"android":"levelo://app?vid=41742b6e-8a4e-4b36-a571-e2ca7f0749a0","ios":"levelo://app?vid=41742b6e-8a4e-4b36-a571-e2ca7f0749a0"},"vehicle_type_id":"4","last_reported":1724429449,"current_range_meters":400,"station_id":"ce4bgr92rcd13ifvqc7g","pricing_plan_id":"cebpf4jnsgd1na2vs0mg"},{"bike_id":"1522dbe4-b614-40eb-919c-a3b75adfe1ba","system_id":"levelo_inurba_marseille","lat":43.299724,"lon":5.371829,"is_reserved":false,"is_disabled":false,"rental_uris":{"android":"levelo://app?vid=1522dbe4-b614-40eb-919c-a3b75adfe1ba","ios":"levelo://app?vid=1522dbe4-b614-40eb-919c-a3b75adfe1ba"},"vehicle_type_id":"4","last_reported":1724429449,"current_range_meters":400,"station_id":"ce4bgr92rcd13ifvqc7g","pricing_plan_id":"cebpf4jnsgd1na2vs0mg"},{"bike_id":"030436a2-71f7-4fcd-8ef9-8f2e6cffb8e0","system_id":"levelo_inurba_marseille","lat":43.299724,"lon":5.371829,"is_reserved":false,"is_disabled":false,"rental_uris":{"android":"levelo://app?vid=030436a2-71f7-4fcd-8ef9-8f2e6cffb8e0","ios":"levelo://app?vid=030436a2-71f7-4fcd-8ef9-8f2e6cffb8e0"},"vehicle_type_id":"4","last_reported":1724429449,"current_range_meters":16000,"station_id":"ce4bgr92rcd13ifvqc7g","pricing_plan_id":"cebpf4jnsgd1na2vs0mg"},{"bike_id":"8b256d11-a498-49d6-90b0-f5cb2bb8a4a5","system_id":"levelo_inurba_marseille","lat":43.299724,"lon":5.371829,"is_reserved":false,"is_disabled":false,"rental_uris":{"android":"levelo://app?vid=8b256d11-a498-49d6-90b0-f5cb2bb8a4a5","ios":"levelo://app?vid=8b256d11-a498-49d6-90b0-f5cb2bb8a4a5"},"vehicle_type_id":"4","last_reported":1724429449,"current_range_meters":1600,"station_id":"ce4bgr92rcd13ifvqc7g","pricing_plan_id":"cebpf4jnsgd1na2vs0mg"},{"bike_id":"b6778ee2-26c5-4bc5-a238-36d273dc1c76","system_id":"levelo_inurba_marseille","lat":43.307945,"lon":5.376487,"is_reserved":false,"is_disabled":false,"rental_uris":{"android":"levelo://app?vid=b6778ee2-26c5-4bc5-a238-36d273dc1c76","ios":"levelo://app?vid=b6778ee2-26c5-4bc5-a238-36d273dc1c76"},"vehicle_type_id":"4","last_reported":1724429449,"current_range_meters":0,"station_id":"ce4bgv92rcd13ifvqcq0","pricing_plan_id":"cebpf4jnsgd1na2vs0mg"},{"bike_id":"65bc2553-5dac-46de-b67b-4ab8db8f8dd3","system_id":"levelo_inurba_marseille","lat":43.305364,"lon":5.384119,"is_reserved":false,"is_disabled":false,"rental_uris":{"android":"levelo://app?vid=65bc2553-5dac-46de-b67b-4ab8db8f8dd3","ios":"levelo://app?vid=65bc2553-5dac-46de-b67b-4ab8db8f8dd3"},"vehicle_type_id":"4","last_reported":1724429449,"current_range_meters":5200,"station_id":"ce4bgg92rcd13ifvqb30","pricing_plan_id":"cebpf4jnsgd1na2vs0mg"},{"bike_id":"0b57bbd3-726c-4fc8-9892-ae0c4cf84c27","system_id":"levelo_inurba_marseille","lat":43.305364,"lon":5.384119,"is_reserved":false,"is_disabled":false,"rental_uris":{"android":"levelo://app?vid=0b57bbd3-726c-4fc8-9892-ae0c4cf84c27","ios":"levelo://app?vid=0b57bbd3-726c-4fc8-9892-ae0c4cf84c27"},"vehicle_type_id":"4","last_reported":1724429449,"current_range_meters":400,"station_id":"ce4bgg92rcd13ifvqb30","pricing_plan_id":"cebpf4jnsgd1na2vs0mg"},{"bike_id":"862a3666-7f7c-4ad9-9e59-5ba5ea1d6139","system_id":"levelo_inurba_marseille","lat":43.299243,"lon":5.37481,"is_reserved":false,"is_disabled":false,"rental_uris":{"android":"levelo://app?vid=862a3666-7f7c-4ad9-9e59-5ba5ea1d6139","ios":"levelo://app?vid=862a3666-7f7c-4ad9-9e59-5ba5ea1d6139"},"vehicle_type_id":"4","last_reported":1724429449,"current_range_meters":16400,"station_id":"ce4bgjh2rcd13ifvqbg0","pricing_plan_id":"cebpf4jnsgd1na2vs0mg"},{"bike_id":"34370a08-0bfe-4ea8-b99b-0d943384acf5","system_id":"levelo_inurba_marseille","lat":43.31178,"lon":5.38714,"is_reserved":false,"is_disabled":false,"rental_uris":{"android":"levelo://app?vid=34370a08-0bfe-4ea8-b99b-0d943384acf5","ios":"levelo://app?vid=34370a08-0bfe-4ea8-b99b-0d943384acf5"},"vehicle_type_id":"4","last_reported":1724429449,"current_range_meters":25200,"station_id":"ce4bgv12rcd13ifvqcp0","pricing_plan_id":"cebpf4jnsgd1na2vs0mg"},{"bike_id":"8f214252-924c-44ff-9e9c-594514ea44d7","system_id":"levelo_inurba_marseille","lat":43.311722,"lon":5.387247,"is_reserved":false,"is_disabled":false,"rental_uris":{"android":"levelo://app?vid=8f214252-924c-44ff-9e9c-594514ea44d7","ios":"levelo://app?vid=8f214252-924c-44ff-9e9c-594514ea44d7"},"vehicle_type_id":"4","last_reported":1724429449,"current_range_meters":5200,"station_id":"ce4bgv12rcd13ifvqcp0","pricing_plan_id":"cebpf4jnsgd1na2vs0mg"},{"bike_id":"51b4bba8-5a72-473f-b175-e9ed1dfddcfe","system_id":"levelo_inurba_marseille","lat":43.30141,"lon":5.38055,"is_reserved":false,"is_disabled":false,"rental_uris":{"android":"levelo://app?vid=51b4bba8-5a72-473f-b175-e9ed1dfddcfe","ios":"levelo://app?vid=51b4bba8-5a72-473f-b175-e9ed1dfddcfe"},"vehicle_type_id":"4","last_reported":1724429449,"current_range_meters":400,"station_id":"ce4bgjp2rcd13ifvqbh0","pricing_plan_id":"cebpf4jnsgd1na2vs0mg"},{"bike_id":"85bfc2dc-4c55-4fc6-8fea-1c43d58968f4","system_id":"levelo_inurba_marseille","lat":43.297794,"lon":5.370888,"is_reserved":false,"is_disabled":false,"rental_uris":{"android":"levelo://app?vid=85bfc2dc-4c55-4fc6-8fea-1c43d58968f4","ios":"levelo://app?vid=85bfc2dc-4c55-4fc6-8fea-1c43d58968f4"},"vehicle_type_id":"4","last_reported":1724429449,"current_range_meters":13200,"station_id":"ce4bgop2rcd13ifvqc1g","pricing_plan_id":"cebpf4jnsgd1na2vs0mg"},{"bike_id":"a3eb2b35-4178-49d0-a88b-8b3d0d87bef4","system_id":"levelo_inurba_marseille","lat":43.30148,"lon":5.38103,"is_reserved":false,"is_disabled":false,"rental_uris":{"android":"levelo://app?vid=a3eb2b35-4178-49d0-a88b-8b3d0d87bef4","ios":"levelo://app?vid=a3eb2b35-4178-49d0-a88b-8b3d0d87bef4"},"vehicle_type_id":"4","last_reported":1724429449,"current_range_meters":31200,"station_id":"ce4bgjp2rcd13ifvqbh0","pricing_plan_id":"cebpf4jnsgd1na2vs0mg"},{"bike_id":"61fec384-ec80-41df-b938-e88a8743942e","system_id":"levelo_inurba_marseille","lat":43.322872,"lon":5.382756,"is_reserved":false,"is_disabled":false,"rental_uris":{"android":"levelo://app?vid=61fec384-ec80-41df-b938-e88a8743942e","ios":"levelo://app?vid=61fec384-ec80-41df-b938-e88a8743942e"},"vehicle_type_id":"4","last_reported":1724429449,"current_range_meters":12400,"station_id":"ce4bhr12rcd13ifvqhqg","pricing_plan_id":"cebpf4jnsgd1na2vs0mg"},{"bike_id":"ff4cb462-0634-4797-98b7-18e6a000916f","system_id":"levelo_inurba_marseille","lat":43.297794,"lon":5.370888,"is_reserved":false,"is_disabled":false,"rental_uris":{"android":"levelo://app?vid=ff4cb462-0634-4797-98b7-18e6a000916f","ios":"levelo://app?vid=ff4cb462-0634-4797-98b7-18e6a000916f"},"vehicle_type_id":"4","last_reported":1724429449,"current_range_meters":16800,"station_id":"ce4bgop2rcd13ifvqc1g","pricing_plan_id":"cebpf4jnsgd1na2vs0mg"},{"bike_id":"952e339d-a983-44d5-ae1e-2b7415a888ba","system_id":"levelo_inurba_marseille","lat":43.32293,"lon":5.382606,"is_reserved":false,"is_disabled":false,"rental_uris":{"android":"levelo://app?vid=952e339d-a983-44d5-ae1e-2b7415a888ba","ios":"levelo://app?vid=952e339d-a983-44d5-ae1e-2b7415a888ba"},"vehicle_type_id":"4","last_reported":1724429449,"current_range_meters":21200,"station_id":"ce4bhr12rcd13ifvqhqg","pricing_plan_id":"cebpf4jnsgd1na2vs0mg"},{"bike_id":"19fa88a7-0105-417e-99b1-2b95d62efefa","system_id":"levelo_inurba_marseille","lat":43.32297,"lon":5.382608,"is_reserved":false,"is_disabled":false,"rental_uris":{"android":"levelo://app?vid=19fa88a7-0105-417e-99b1-2b95d62efefa","ios":"levelo://app?vid=19fa88a7-0105-417e-99b1-2b95d62efefa"},"vehicle_type_id":"4","last_reported":1724429449,"current_range_meters":26400,"station_id":"ce4bhr12rcd13ifvqhqg","pricing_plan_id":"cebpf4jnsgd1na2vs0mg"},{"bike_id":"718a5895-4b93-4213-a12a-a811b443a156","system_id":"levelo_inurba_marseille","lat":43.322872,"lon":5.382756,"is_reserved":false,"is_disabled":false,"rental_uris":{"android":"levelo://app?vid=718a5895-4b93-4213-a12a-a811b443a156","ios":"levelo://app?vid=718a5895-4b93-4213-a12a-a811b443a156"},"vehicle_type_id":"4","last_reported":1724429449,"current_range_meters":21200,"station_id":"ce4bhr12rcd13ifvqhqg","pricing_plan_id":"cebpf4jnsgd1na2vs0mg"},{"bike_id":"88838884-cd6a-4ab1-b1a4-2045376ff07c","system_id":"levelo_inurba_marseille","lat":43.322872,"lon":5.382756,"is_reserved":false,"is_disabled":false,"rental_uris":{"android":"levelo://app?vid=88838884-cd6a-4ab1-b1a4-2045376ff07c","ios":"levelo://app?vid=88838884-cd6a-4ab1-b1a4-2045376ff07c"},"vehicle_type_id":"4","last_reported":1724429449,"current_range_meters":20800,"station_id":"ce4bhr12rcd13ifvqhqg","pricing_plan_id":"cebpf4jnsgd1na2vs0mg"},{"bike_id":"9dffd2b7-08cb-4769-9fb3-725773c42299","system_id":"levelo_inurba_marseille","lat":43.322872,"lon":5.382756,"is_reserved":false,"is_disabled":false,"rental_uris":{"android":"levelo://app?vid=9dffd2b7-08cb-4769-9fb3-725773c42299","ios":"levelo://app?vid=9dffd2b7-08cb-4769-9fb3-725773c42299"},"vehicle_type_id":"4","last_reported":1724429449,"current_range_meters":14000,"station_id":"ce4bhr12rcd13ifvqhqg","pricing_plan_id":"cebpf4jnsgd1na2vs0mg"},{"bike_id":"ac53445e-db60-45dc-9bbb-849176bf5e51","system_id":"levelo_inurba_marseille","lat":43.29711,"lon":5.36598,"is_reserved":false,"is_disabled":false,"rental_uris":{"android":"levelo://app?vid=ac53445e-db60-45dc-9bbb-849176bf5e51","ios":"levelo://app?vid=ac53445e-db60-45dc-9bbb-849176bf5e51"},"vehicle_type_id":"4","last_reported":1724429449,"current_range_meters":20000,"station_id":"ce4bgn12rcd13ifvqbt0","pricing_plan_id":"cebpf4jnsgd1na2vs0mg"},{"bike_id":"fdfbf598-50fe-4e22-97f5-ccbcc2ccb6b0","system_id":"levelo_inurba_marseille","lat":43.297163,"lon":5.365866,"is_reserved":false,"is_disabled":false,"rental_uris":{"android":"levelo://app?vid=fdfbf598-50fe-4e22-97f5-ccbcc2ccb6b0","ios":"levelo://app?vid=fdfbf598-50fe-4e22-97f5-ccbcc2ccb6b0"},"vehicle_type_id":"4","last_reported":1724429449,"current_range_meters":400,"station_id":"ce4bgn12rcd13ifvqbt0","pricing_plan_id":"cebpf4jnsgd1na2vs0mg"},{"bike_id":"05fd0990-bcb2-416a-a146-0ada3f26030e","system_id":"levelo_inurba_marseille","lat":43.29672,"lon":5.36689,"is_reserved":false,"is_disabled":false,"rental_uris":{"android":"levelo://app?vid=05fd0990-bcb2-416a-a146-0ada3f26030e","ios":"levelo://app?vid=05fd0990-bcb2-416a-a146-0ada3f26030e"},"vehicle_type_id":"4","last_reported":1724429449,"current_range_meters":22000,"station_id":"","pricing_plan_id":"cebpf4jnsgd1na2vs0mg"},{"bike_id":"511f53b9-3514-4240-a2bf-c42edc7d7f16","system_id":"levelo_inurba_marseille","lat":43.2968,"lon":5.37291,"is_reserved":false,"is_disabled":false,"rental_uris":{"android":"levelo://app?vid=511f53b9-3514-4240-a2bf-c42edc7d7f16","ios":"levelo://app?vid=511f53b9-3514-4240-a2bf-c42edc7d7f16"},"vehicle_type_id":"4","last_reported":1724429449,"current_range_meters":9200,"station_id":"ce4bgk12rcd13ifvqbj0","pricing_plan_id":"cebpf4jnsgd1na2vs0mg"},{"bike_id":"0dd0b2a4-f253-49c2-8ae4-bea5951f7d6b","system_id":"levelo_inurba_marseille","lat":43.296131,"lon":5.370773,"is_reserved":false,"is_disabled":false,"rental_uris":{"android":"levelo://app?vid=0dd0b2a4-f253-49c2-8ae4-bea5951f7d6b","ios":"levelo://app?vid=0dd0b2a4-f253-49c2-8ae4-bea5951f7d6b"},"vehicle_type_id":"4","last_reported":1724429449,"current_range_meters":22000,"station_id":"ce4bgnh2rcd13ifvqc0g","pricing_plan_id":"cebpf4jnsgd1na2vs0mg"},{"bike_id":"1265cd59-510a-47af-aa9a-b7f22ddd7261","system_id":"levelo_inurba_marseille","lat":43.29573,"lon":5.367355,"is_reserved":false,"is_disabled":false,"rental_uris":{"android":"levelo://app?vid=1265cd59-510a-47af-aa9a-b7f22ddd7261","ios":"levelo://app?vid=1265cd59-510a-47af-aa9a-b7f22ddd7261"},"vehicle_type_id":"4","last_reported":1724429449,"current_range_meters":0,"station_id":"ce4bgph2rcd13ifvqc2g","pricing_plan_id":"cebpf4jnsgd1na2vs0mg"},{"bike_id":"6147ba47-4a0b-4464-b859-80da8ef4698b","system_id":"levelo_inurba_marseille","lat":43.29573,"lon":5.367355,"is_reserved":false,"is_disabled":false,"rental_uris":{"android":"levelo://app?vid=6147ba47-4a0b-4464-b859-80da8ef4698b","ios":"levelo://app?vid=6147ba47-4a0b-4464-b859-80da8ef4698b"},"vehicle_type_id":"4","last_reported":1724429449,"current_range_meters":6800,"station_id":"ce4bgph2rcd13ifvqc2g","pricing_plan_id":"cebpf4jnsgd1na2vs0mg"},{"bike_id":"d6d8db4a-3090-4da1-aef4-4c125e83ba47","system_id":"levelo_inurba_marseille","lat":43.299028,"lon":5.381509,"is_reserved":false,"is_disabled":false,"rental_uris":{"android":"levelo://app?vid=d6d8db4a-3090-4da1-aef4-4c125e83ba47","ios":"levelo://app?vid=d6d8db4a-3090-4da1-aef4-4c125e83ba47"},"vehicle_type_id":"4","last_reported":1724429449,"current_range_meters":14400,"station_id":"ce4bgj12rcd13ifvqbc0","pricing_plan_id":"cebpf4jnsgd1na2vs0mg"},{"bike_id":"6bfd2131-1f59-4422-be34-76a5ba25a015","system_id":"levelo_inurba_marseille","lat":43.317557,"lon":5.390173,"is_reserved":false,"is_disabled":false,"rental_uris":{"android":"levelo://app?vid=6bfd2131-1f59-4422-be34-76a5ba25a015","ios":"levelo://app?vid=6bfd2131-1f59-4422-be34-76a5ba25a015"},"vehicle_type_id":"4","last_reported":1724429449,"current_range_meters":4000,"station_id":"ce4bhqp2rcd13ifvqhng","pricing_plan_id":"cebpf4jnsgd1na2vs0mg"},{"bike_id":"26e18391-f4cc-4b1d-bb58-0a86c7246d95","system_id":"levelo_inurba_marseille","lat":43.299707,"lon":5.384859,"is_reserved":false,"is_disabled":false,"rental_uris":{"android":"levelo://app?vid=26e18391-f4cc-4b1d-bb58-0a86c7246d95","ios":"levelo://app?vid=26e18391-f4cc-4b1d-bb58-0a86c7246d95"},"vehicle_type_id":"4","last_reported":1724429449,"current_range_meters":400,"station_id":"ce4bgj92rcd13ifvqbd0","pricing_plan_id":"cebpf4jnsgd1na2vs0mg"},{"bike_id":"0f5d8844-5df8-42cf-b66a-53049d89f87e","system_id":"levelo_inurba_marseille","lat":43.30466,"lon":5.39006,"is_reserved":false,"is_disabled":false,"rental_uris":{"android":"levelo://app?vid=0f5d8844-5df8-42cf-b66a-53049d89f87e","ios":"levelo://app?vid=0f5d8844-5df8-42cf-b66a-53049d89f87e"},"vehicle_type_id":"4","last_reported":1724429449,"current_range_meters":3200,"station_id":"","pricing_plan_id":"cebpf4jnsgd1na2vs0mg"},{"bike_id":"f4efd6ab-6df6-4405-aba4-ae81c88a63ae","system_id":"levelo_inurba_marseille","lat":43.301396,"lon":5.387812,"is_reserved":false,"is_disabled":false,"rental_uris":{"android":"levelo://app?vid=f4efd6ab-6df6-4405-aba4-ae81c88a63ae","ios":"levelo://app?vid=f4efd6ab-6df6-4405-aba4-ae81c88a63ae"},"vehicle_type_id":"4","last_reported":1724429449,"current_range_meters":0,"station_id":"ce4bghh2rcd13ifvqb60","pricing_plan_id":"cebpf4jnsgd1na2vs0mg"},{"bike_id":"b706395f-e995-4f95-9986-f031332b4037","system_id":"levelo_inurba_marseille","lat":43.323464,"lon":5.406297,"is_reserved":false,"is_disabled":false,"rental_uris":{"android":"levelo://app?vid=b706395f-e995-4f95-9986-f031332b4037","ios":"levelo://app?vid=b706395f-e995-4f95-9986-f031332b4037"},"vehicle_type_id":"4","last_reported":1724429449,"current_range_meters":13600,"station_id":"ce4bhq92rcd13ifvqhjg","pricing_plan_id":"cebpf4jnsgd1na2vs0mg"},{"bike_id":"eb33d2ee-87d2-4f99-a0d6-43701e75b179","system_id":"levelo_inurba_marseille","lat":43.292749,"lon":5.368398,"is_reserved":false,"is_disabled":false,"rental_uris":{"android":"levelo://app?vid=eb33d2ee-87d2-4f99-a0d6-43701e75b179","ios":"levelo://app?vid=eb33d2ee-87d2-4f99-a0d6-43701e75b179"},"vehicle_type_id":"4","last_reported":1724429449,"current_range_meters":28400,"station_id":"ce4bhbp2rcd13ifvqesg","pricing_plan_id":"cebpf4jnsgd1na2vs0mg"},{"bike_id":"b22d5c35-d203-4219-938e-3748332f9d8e","system_id":"levelo_inurba_marseille","lat":43.3065,"lon":5.39281,"is_reserved":false,"is_disabled":false,"rental_uris":{"android":"levelo://app?vid=b22d5c35-d203-4219-938e-3748332f9d8e","ios":"levelo://app?vid=b22d5c35-d203-4219-938e-3748332f9d8e"},"vehicle_type_id":"4","last_reported":1724429449,"current_range_meters":31200,"station_id":"","pricing_plan_id":"cebpf4jnsgd1na2vs0mg"},{"bike_id":"a053cfde-6f7f-48d0-b4eb-b98b2bf679c4","system_id":"levelo_inurba_marseille","lat":43.293249,"lon":5.371578,"is_reserved":false,"is_disabled":false,"rental_uris":{"android":"levelo://app?vid=a053cfde-6f7f-48d0-b4eb-b98b2bf679c4","ios":"levelo://app?vid=a053cfde-6f7f-48d0-b4eb-b98b2bf679c4"},"vehicle_type_id":"4","last_reported":1724429449,"current_range_meters":0,"station_id":"ce4bgh92rcd13ifvqb40","pricing_plan_id":"cebpf4jnsgd1na2vs0mg"},{"bike_id":"519c9caf-1549-4698-b178-9a80eb7cc336","system_id":"levelo_inurba_marseille","lat":43.292749,"lon":5.368398,"is_reserved":false,"is_disabled":false,"rental_uris":{"android":"levelo://app?vid=519c9caf-1549-4698-b178-9a80eb7cc336","ios":"levelo://app?vid=519c9caf-1549-4698-b178-9a80eb7cc336"},"vehicle_type_id":"4","last_reported":1724429449,"current_range_meters":25600,"station_id":"ce4bhbp2rcd13ifvqesg","pricing_plan_id":"cebpf4jnsgd1na2vs0mg"},{"bike_id":"d1b0291e-69e8-46bc-af4d-f3938c2ec807","system_id":"levelo_inurba_marseille","lat":43.305994,"lon":5.393687,"is_reserved":false,"is_disabled":false,"rental_uris":{"android":"levelo://app?vid=d1b0291e-69e8-46bc-af4d-f3938c2ec807","ios":"levelo://app?vid=d1b0291e-69e8-46bc-af4d-f3938c2ec807"},"vehicle_type_id":"4","last_reported":1724429449,"current_range_meters":800,"station_id":"ce4bh0p2rcd13ifvqd80","pricing_plan_id":"cebpf4jnsgd1na2vs0mg"},{"bike_id":"43e17fbf-aa72-43f5-a9ee-b250c1b47295","system_id":"levelo_inurba_marseille","lat":43.305974,"lon":5.393694,"is_reserved":false,"is_disabled":false,"rental_uris":{"android":"levelo://app?vid=43e17fbf-aa72-43f5-a9ee-b250c1b47295","ios":"levelo://app?vid=43e17fbf-aa72-43f5-a9ee-b250c1b47295"},"vehicle_type_id":"4","last_reported":1724429449,"current_range_meters":0,"station_id":"ce4bh0p2rcd13ifvqd80","pricing_plan_id":"cebpf4jnsgd1na2vs0mg"},{"bike_id":"91bd8f01-9029-49d8-b280-9204a4ada5ac","system_id":"levelo_inurba_marseille","lat":43.29227,"lon":5.36281,"is_reserved":false,"is_disabled":false,"rental_uris":{"android":"levelo://app?vid=91bd8f01-9029-49d8-b280-9204a4ada5ac","ios":"levelo://app?vid=91bd8f01-9029-49d8-b280-9204a4ada5ac"},"vehicle_type_id":"4","last_reported":1724429449,"current_range_meters":31200,"station_id":"","pricing_plan_id":"cebpf4jnsgd1na2vs0mg"},{"bike_id":"3bd802ba-0328-48da-9be7-a9a6d542eb21","system_id":"levelo_inurba_marseille","lat":43.303002,"lon":5.392142,"is_reserved":false,"is_disabled":false,"rental_uris":{"android":"levelo://app?vid=3bd802ba-0328-48da-9be7-a9a6d542eb21","ios":"levelo://app?vid=3bd802ba-0328-48da-9be7-a9a6d542eb21"},"vehicle_type_id":"4","last_reported":1724429449,"current_range_meters":15600,"station_id":"ce4bgkh2rcd13ifvqbk0","pricing_plan_id":"cebpf4jnsgd1na2vs0mg"},{"bike_id":"5aa30777-a1bd-484b-855f-27e1824850ba","system_id":"levelo_inurba_marseille","lat":43.303,"lon":5.39213,"is_reserved":false,"is_disabled":false,"rental_uris":{"android":"levelo://app?vid=5aa30777-a1bd-484b-855f-27e1824850ba","ios":"levelo://app?vid=5aa30777-a1bd-484b-855f-27e1824850ba"},"vehicle_type_id":"4","last_reported":1724429449,"current_range_meters":6400,"station_id":"ce4bgkh2rcd13ifvqbk0","pricing_plan_id":"cebpf4jnsgd1na2vs0mg"},{"bike_id":"a25a417c-fe1b-4fb5-ae7f-7910fcdea291","system_id":"levelo_inurba_marseille","lat":43.2936,"lon":5.37835,"is_reserved":false,"is_disabled":false,"rental_uris":{"android":"levelo://app?vid=a25a417c-fe1b-4fb5-ae7f-7910fcdea291","ios":"levelo://app?vid=a25a417c-fe1b-4fb5-ae7f-7910fcdea291"},"vehicle_type_id":"4","last_reported":1724429449,"current_range_meters":0,"station_id":"ce4bgjh2rcd13ifvqbf0","pricing_plan_id":"cebpf4jnsgd1na2vs0mg"},{"bike_id":"f85ea2de-fa8d-4dd4-a0c3-f5bfb0b41b68","system_id":"levelo_inurba_marseille","lat":43.29373,"lon":5.37857,"is_reserved":false,"is_disabled":false,"rental_uris":{"android":"levelo://app?vid=f85ea2de-fa8d-4dd4-a0c3-f5bfb0b41b68","ios":"levelo://app?vid=f85ea2de-fa8d-4dd4-a0c3-f5bfb0b41b68"},"vehicle_type_id":"4","last_reported":1724429449,"current_range_meters":0,"station_id":"ce4bgjh2rcd13ifvqbf0","pricing_plan_id":"cebpf4jnsgd1na2vs0mg"},{"bike_id":"dee7bd86-9e58-47da-8dec-3d9ed903a839","system_id":"levelo_inurba_marseille","lat":43.29229,"lon":5.36073,"is_reserved":false,"is_disabled":false,"rental_uris":{"android":"levelo://app?vid=dee7bd86-9e58-47da-8dec-3d9ed903a839","ios":"levelo://app?vid=dee7bd86-9e58-47da-8dec-3d9ed903a839"},"vehicle_type_id":"4","last_reported":1724429449,"current_range_meters":4400,"station_id":"ce4bhbh2rcd13ifvqeqg","pricing_plan_id":"cebpf4jnsgd1na2vs0mg"},{"bike_id":"b5dafca9-2ee8-483f-8d61-c976bd77f5c2","system_id":"levelo_inurba_marseille","lat":43.292311,"lon":5.360731,"is_reserved":false,"is_disabled":false,"rental_uris":{"android":"levelo://app?vid=b5dafca9-2ee8-483f-8d61-c976bd77f5c2","ios":"levelo://app?vid=b5dafca9-2ee8-483f-8d61-c976bd77f5c2"},"vehicle_type_id":"4","last_reported":1724429449,"current_range_meters":6000,"station_id":"ce4bhbh2rcd13ifvqeqg","pricing_plan_id":"cebpf4jnsgd1na2vs0mg"},{"bike_id":"4f2503e3-e948-4985-b20f-6556ce3fd6e4","system_id":"levelo_inurba_marseille","lat":43.29229,"lon":5.36061,"is_reserved":false,"is_disabled":false,"rental_uris":{"android":"levelo://app?vid=4f2503e3-e948-4985-b20f-6556ce3fd6e4","ios":"levelo://app?vid=4f2503e3-e948-4985-b20f-6556ce3fd6e4"},"vehicle_type_id":"4","last_reported":1724429449,"current_range_meters":800,"station_id":"ce4bhbh2rcd13ifvqeqg","pricing_plan_id":"cebpf4jnsgd1na2vs0mg"},{"bike_id":"cfb481bc-59bd-4b72-8061-89a2e136fcd5","system_id":"levelo_inurba_marseille","lat":43.29228,"lon":5.36063,"is_reserved":false,"is_disabled":false,"rental_uris":{"android":"levelo://app?vid=cfb481bc-59bd-4b72-8061-89a2e136fcd5","ios":"levelo://app?vid=cfb481bc-59bd-4b72-8061-89a2e136fcd5"},"vehicle_type_id":"4","last_reported":1724429449,"current_range_meters":1600,"station_id":"ce4bhbh2rcd13ifvqeqg","pricing_plan_id":"cebpf4jnsgd1na2vs0mg"},{"bike_id":"4c21f3fa-d5c2-4c92-a490-64785ec2b596","system_id":"levelo_inurba_marseille","lat":43.300852,"lon":5.390859,"is_reserved":false,"is_disabled":false,"rental_uris":{"android":"levelo://app?vid=4c21f3fa-d5c2-4c92-a490-64785ec2b596","ios":"levelo://app?vid=4c21f3fa-d5c2-4c92-a490-64785ec2b596"},"vehicle_type_id":"4","last_reported":1724429449,"current_range_meters":30400,"station_id":"ce4bh192rcd13ifvqdb0","pricing_plan_id":"cebpf4jnsgd1na2vs0mg"},{"bike_id":"226baab9-6713-44c0-bed4-d4668e5d4331","system_id":"levelo_inurba_marseille","lat":43.292311,"lon":5.360731,"is_reserved":false,"is_disabled":false,"rental_uris":{"android":"levelo://app?vid=226baab9-6713-44c0-bed4-d4668e5d4331","ios":"levelo://app?vid=226baab9-6713-44c0-bed4-d4668e5d4331"},"vehicle_type_id":"4","last_reported":1724429449,"current_range_meters":0,"station_id":"ce4bhbh2rcd13ifvqeqg","pricing_plan_id":"cebpf4jnsgd1na2vs0mg"},{"bike_id":"f036d4ca-9b28-489f-9059-4569b1045fc2","system_id":"levelo_inurba_marseille","lat":43.292311,"lon":5.360731,"is_reserved":false,"is_disabled":false,"rental_uris":{"android":"levelo://app?vid=f036d4ca-9b28-489f-9059-4569b1045fc2","ios":"levelo://app?vid=f036d4ca-9b28-489f-9059-4569b1045fc2"},"vehicle_type_id":"4","last_reported":1724429449,"current_range_meters":8000,"station_id":"ce4bhbh2rcd13ifvqeqg","pricing_plan_id":"cebpf4jnsgd1na2vs0mg"},{"bike_id":"3c7b25c2-7907-4916-ae2f-8b5e9c394e69","system_id":"levelo_inurba_marseille","lat":43.30492,"lon":5.39373,"is_reserved":false,"is_disabled":false,"rental_uris":{"android":"levelo://app?vid=3c7b25c2-7907-4916-ae2f-8b5e9c394e69","ios":"levelo://app?vid=3c7b25c2-7907-4916-ae2f-8b5e9c394e69"},"vehicle_type_id":"4","last_reported":1724429449,"current_range_meters":7200,"station_id":"","pricing_plan_id":"cebpf4jnsgd1na2vs0mg"},{"bike_id":"bba0d891-b528-49fd-9dca-83b90f18ed2c","system_id":"levelo_inurba_marseille","lat":43.292311,"lon":5.360731,"is_reserved":false,"is_disabled":false,"rental_uris":{"android":"levelo://app?vid=bba0d891-b528-49fd-9dca-83b90f18ed2c","ios":"levelo://app?vid=bba0d891-b528-49fd-9dca-83b90f18ed2c"},"vehicle_type_id":"4","last_reported":1724429449,"current_range_meters":18400,"station_id":"ce4bhbh2rcd13ifvqeqg","pricing_plan_id":"cebpf4jnsgd1na2vs0mg"},{"bike_id":"8d3a6689-fd29-45a6-b604-9dd35a378f91","system_id":"levelo_inurba_marseille","lat":43.292311,"lon":5.360731,"is_reserved":false,"is_disabled":false,"rental_uris":{"android":"levelo://app?vid=8d3a6689-fd29-45a6-b604-9dd35a378f91","ios":"levelo://app?vid=8d3a6689-fd29-45a6-b604-9dd35a378f91"},"vehicle_type_id":"4","last_reported":1724429449,"current_range_meters":20400,"station_id":"ce4bhbh2rcd13ifvqeqg","pricing_plan_id":"cebpf4jnsgd1na2vs0mg"},{"bike_id":"ffae95d2-190b-425f-9b05-f0c64b48c7a6","system_id":"levelo_inurba_marseille","lat":43.292311,"lon":5.360731,"is_reserved":false,"is_disabled":false,"rental_uris":{"android":"levelo://app?vid=ffae95d2-190b-425f-9b05-f0c64b48c7a6","ios":"levelo://app?vid=ffae95d2-190b-425f-9b05-f0c64b48c7a6"},"vehicle_type_id":"4","last_reported":1724429449,"current_range_meters":30400,"station_id":"ce4bhbh2rcd13ifvqeqg","pricing_plan_id":"cebpf4jnsgd1na2vs0mg"},{"bike_id":"3736afb4-567d-4595-9ce5-5584303566bc","system_id":"levelo_inurba_marseille","lat":43.30085,"lon":5.390856,"is_reserved":false,"is_disabled":false,"rental_uris":{"android":"levelo://app?vid=3736afb4-567d-4595-9ce5-5584303566bc","ios":"levelo://app?vid=3736afb4-567d-4595-9ce5-5584303566bc"},"vehicle_type_id":"4","last_reported":1724429449,"current_range_meters":26000,"station_id":"ce4bh192rcd13ifvqdb0","pricing_plan_id":"cebpf4jnsgd1na2vs0mg"},{"bike_id":"53513755-fcff-4a2a-b1a2-17f58963f724","system_id":"levelo_inurba_marseille","lat":43.29219,"lon":5.36054,"is_reserved":false,"is_disabled":false,"rental_uris":{"android":"levelo://app?vid=53513755-fcff-4a2a-b1a2-17f58963f724","ios":"levelo://app?vid=53513755-fcff-4a2a-b1a2-17f58963f724"},"vehicle_type_id":"4","last_reported":1724429449,"current_range_meters":17200,"station_id":"ce4bhbh2rcd13ifvqeqg","pricing_plan_id":"cebpf4jnsgd1na2vs0mg"},{"bike_id":"04f3b4a1-b975-43cf-ab66-8592518a21d1","system_id":"levelo_inurba_marseille","lat":43.292311,"lon":5.360731,"is_reserved":false,"is_disabled":false,"rental_uris":{"android":"levelo://app?vid=04f3b4a1-b975-43cf-ab66-8592518a21d1","ios":"levelo://app?vid=04f3b4a1-b975-43cf-ab66-8592518a21d1"},"vehicle_type_id":"4","last_reported":1724429449,"current_range_meters":22000,"station_id":"ce4bhbh2rcd13ifvqeqg","pricing_plan_id":"cebpf4jnsgd1na2vs0mg"},{"bike_id":"32cb0846-697c-4bae-8f12-657cf24a7f3f","system_id":"levelo_inurba_marseille","lat":43.293009,"lon":5.374584,"is_reserved":false,"is_disabled":false,"rental_uris":{"android":"levelo://app?vid=32cb0846-697c-4bae-8f12-657cf24a7f3f","ios":"levelo://app?vid=32cb0846-697c-4bae-8f12-657cf24a7f3f"},"vehicle_type_id":"4","last_reported":1724429449,"current_range_meters":26400,"station_id":"ce4bgi12rcd13ifvqb70","pricing_plan_id":"cebpf4jnsgd1na2vs0mg"},{"bike_id":"c66b3424-4a29-4687-8802-5b1ea9d830dc","system_id":"levelo_inurba_marseille","lat":43.293009,"lon":5.374584,"is_reserved":false,"is_disabled":false,"rental_uris":{"android":"levelo://app?vid=c66b3424-4a29-4687-8802-5b1ea9d830dc","ios":"levelo://app?vid=c66b3424-4a29-4687-8802-5b1ea9d830dc"},"vehicle_type_id":"4","last_reported":1724429449,"current_range_meters":0,"station_id":"ce4bgi12rcd13ifvqb70","pricing_plan_id":"cebpf4jnsgd1na2vs0mg"},{"bike_id":"153bf072-fe22-4efb-b6d6-b15871e27e6e","system_id":"levelo_inurba_marseille","lat":43.291675,"lon":5.371583,"is_reserved":false,"is_disabled":false,"rental_uris":{"android":"levelo://app?vid=153bf072-fe22-4efb-b6d6-b15871e27e6e","ios":"levelo://app?vid=153bf072-fe22-4efb-b6d6-b15871e27e6e"},"vehicle_type_id":"4","last_reported":1724429449,"current_range_meters":7200,"station_id":"ce4bha92rcd13ifvqeh0","pricing_plan_id":"cebpf4jnsgd1na2vs0mg"},{"bike_id":"6ae68935-534d-4170-b739-5e513588831a","system_id":"levelo_inurba_marseille","lat":43.292005,"lon":5.357875,"is_reserved":false,"is_disabled":false,"rental_uris":{"android":"levelo://app?vid=6ae68935-534d-4170-b739-5e513588831a","ios":"levelo://app?vid=6ae68935-534d-4170-b739-5e513588831a"},"vehicle_type_id":"4","last_reported":1724429449,"current_range_meters":10800,"station_id":"ce4bhb12rcd13ifvqel0","pricing_plan_id":"cebpf4jnsgd1na2vs0mg"},{"bike_id":"d1625d41-cc11-4e34-8bba-d8a9ea39e3bf","system_id":"levelo_inurba_marseille","lat":43.292005,"lon":5.357875,"is_reserved":false,"is_disabled":false,"rental_uris":{"android":"levelo://app?vid=d1625d41-cc11-4e34-8bba-d8a9ea39e3bf","ios":"levelo://app?vid=d1625d41-cc11-4e34-8bba-d8a9ea39e3bf"},"vehicle_type_id":"4","last_reported":1724429449,"current_range_meters":12800,"station_id":"ce4bhb12rcd13ifvqel0","pricing_plan_id":"cebpf4jnsgd1na2vs0mg"},{"bike_id":"12abe463-7af7-4f0b-88b9-afcce6fd928c","system_id":"levelo_inurba_marseille","lat":43.292005,"lon":5.357875,"is_reserved":false,"is_disabled":false,"rental_uris":{"android":"levelo://app?vid=12abe463-7af7-4f0b-88b9-afcce6fd928c","ios":"levelo://app?vid=12abe463-7af7-4f0b-88b9-afcce6fd928c"},"vehicle_type_id":"4","last_reported":1724429449,"current_range_meters":18000,"station_id":"ce4bhb12rcd13ifvqel0","pricing_plan_id":"cebpf4jnsgd1na2vs0mg"},{"bike_id":"736556fc-8dda-48c9-8def-5c1a3949d29c","system_id":"levelo_inurba_marseille","lat":43.313291,"lon":5.396838,"is_reserved":false,"is_disabled":false,"rental_uris":{"android":"levelo://app?vid=736556fc-8dda-48c9-8def-5c1a3949d29c","ios":"levelo://app?vid=736556fc-8dda-48c9-8def-5c1a3949d29c"},"vehicle_type_id":"4","last_reported":1724429449,"current_range_meters":0,"station_id":"ce4bgvp2rcd13ifvqcu0","pricing_plan_id":"cebpf4jnsgd1na2vs0mg"},{"bike_id":"ee64e12a-b3a2-4bf4-ae5a-851032a9f6f5","system_id":"levelo_inurba_marseille","lat":43.292005,"lon":5.357875,"is_reserved":false,"is_disabled":false,"rental_uris":{"android":"levelo://app?vid=ee64e12a-b3a2-4bf4-ae5a-851032a9f6f5","ios":"levelo://app?vid=ee64e12a-b3a2-4bf4-ae5a-851032a9f6f5"},"vehicle_type_id":"4","last_reported":1724429449,"current_range_meters":16800,"station_id":"ce4bhb12rcd13ifvqel0","pricing_plan_id":"cebpf4jnsgd1na2vs0mg"},{"bike_id":"44c25c6a-43cc-4c33-95e6-414b978dde23","system_id":"levelo_inurba_marseille","lat":43.313291,"lon":5.396838,"is_reserved":false,"is_disabled":false,"rental_uris":{"android":"levelo://app?vid=44c25c6a-43cc-4c33-95e6-414b978dde23","ios":"levelo://app?vid=44c25c6a-43cc-4c33-95e6-414b978dde23"},"vehicle_type_id":"4","last_reported":1724429449,"current_range_meters":10800,"station_id":"ce4bgvp2rcd13ifvqcu0","pricing_plan_id":"cebpf4jnsgd1na2vs0mg"},{"bike_id":"6978e47c-d8d3-4554-a864-02f6176efe2f","system_id":"levelo_inurba_marseille","lat":43.292005,"lon":5.357875,"is_reserved":false,"is_disabled":false,"rental_uris":{"android":"levelo://app?vid=6978e47c-d8d3-4554-a864-02f6176efe2f","ios":"levelo://app?vid=6978e47c-d8d3-4554-a864-02f6176efe2f"},"vehicle_type_id":"4","last_reported":1724429449,"current_range_meters":22000,"station_id":"ce4bhb12rcd13ifvqel0","pricing_plan_id":"cebpf4jnsgd1na2vs0mg"},{"bike_id":"c9b07495-4396-49d4-958d-8acaf89bbbe6","system_id":"levelo_inurba_marseille","lat":43.313291,"lon":5.396838,"is_reserved":false,"is_disabled":false,"rental_uris":{"android":"levelo://app?vid=c9b07495-4396-49d4-958d-8acaf89bbbe6","ios":"levelo://app?vid=c9b07495-4396-49d4-958d-8acaf89bbbe6"},"vehicle_type_id":"4","last_reported":1724429449,"current_range_meters":400,"station_id":"ce4bgvp2rcd13ifvqcu0","pricing_plan_id":"cebpf4jnsgd1na2vs0mg"},{"bike_id":"411bd110-0f5e-4d15-b772-4d6bfc2e4801","system_id":"levelo_inurba_marseille","lat":43.313291,"lon":5.396838,"is_reserved":false,"is_disabled":false,"rental_uris":{"android":"levelo://app?vid=411bd110-0f5e-4d15-b772-4d6bfc2e4801","ios":"levelo://app?vid=411bd110-0f5e-4d15-b772-4d6bfc2e4801"},"vehicle_type_id":"4","last_reported":1724429449,"current_range_meters":24800,"station_id":"ce4bgvp2rcd13ifvqcu0","pricing_plan_id":"cebpf4jnsgd1na2vs0mg"},{"bike_id":"f0f02818-b5e7-4c1d-81a5-4bbb21cc4f5b","system_id":"levelo_inurba_marseille","lat":43.313291,"lon":5.396838,"is_reserved":false,"is_disabled":false,"rental_uris":{"android":"levelo://app?vid=f0f02818-b5e7-4c1d-81a5-4bbb21cc4f5b","ios":"levelo://app?vid=f0f02818-b5e7-4c1d-81a5-4bbb21cc4f5b"},"vehicle_type_id":"4","last_reported":1724429449,"current_range_meters":800,"station_id":"ce4bgvp2rcd13ifvqcu0","pricing_plan_id":"cebpf4jnsgd1na2vs0mg"},{"bike_id":"49c17802-8b82-4906-ae24-fdbac0f201cb","system_id":"levelo_inurba_marseille","lat":43.313291,"lon":5.396838,"is_reserved":false,"is_disabled":false,"rental_uris":{"android":"levelo://app?vid=49c17802-8b82-4906-ae24-fdbac0f201cb","ios":"levelo://app?vid=49c17802-8b82-4906-ae24-fdbac0f201cb"},"vehicle_type_id":"4","last_reported":1724429449,"current_range_meters":0,"station_id":"ce4bgvp2rcd13ifvqcu0","pricing_plan_id":"cebpf4jnsgd1na2vs0mg"},{"bike_id":"5200c73f-6d32-4d15-a9a4-c765971077c4","system_id":"levelo_inurba_marseille","lat":43.29529,"lon":5.385581,"is_reserved":false,"is_disabled":false,"rental_uris":{"android":"levelo://app?vid=5200c73f-6d32-4d15-a9a4-c765971077c4","ios":"levelo://app?vid=5200c73f-6d32-4d15-a9a4-c765971077c4"},"vehicle_type_id":"4","last_reported":1724429449,"current_range_meters":31200,"station_id":"ce4bgih2rcd13ifvqba0","pricing_plan_id":"cebpf4jnsgd1na2vs0mg"},{"bike_id":"1118c26f-9daa-4d1c-bf44-632ca24f439e","system_id":"levelo_inurba_marseille","lat":43.290779,"lon":5.371482,"is_reserved":false,"is_disabled":false,"rental_uris":{"android":"levelo://app?vid=1118c26f-9daa-4d1c-bf44-632ca24f439e","ios":"levelo://app?vid=1118c26f-9daa-4d1c-bf44-632ca24f439e"},"vehicle_type_id":"4","last_reported":1724429449,"current_range_meters":17200,"station_id":"ce4bh5p2rcd13ifvqe4g","pricing_plan_id":"cebpf4jnsgd1na2vs0mg"},{"bike_id":"3fd0008f-d92e-48a4-a3f3-8a7d11ff05c9","system_id":"levelo_inurba_marseille","lat":43.302008,"lon":5.394694,"is_reserved":false,"is_disabled":false,"rental_uris":{"android":"levelo://app?vid=3fd0008f-d92e-48a4-a3f3-8a7d11ff05c9","ios":"levelo://app?vid=3fd0008f-d92e-48a4-a3f3-8a7d11ff05c9"},"vehicle_type_id":"4","last_reported":1724429449,"current_range_meters":24400,"station_id":"ce4bh0p2rcd13ifvqd70","pricing_plan_id":"cebpf4jnsgd1na2vs0mg"},{"bike_id":"7b9a8d35-b15f-44b0-82e9-fc5f4e7f012a","system_id":"levelo_inurba_marseille","lat":43.29049,"lon":5.35914,"is_reserved":false,"is_disabled":false,"rental_uris":{"android":"levelo://app?vid=7b9a8d35-b15f-44b0-82e9-fc5f4e7f012a","ios":"levelo://app?vid=7b9a8d35-b15f-44b0-82e9-fc5f4e7f012a"},"vehicle_type_id":"4","last_reported":1724429449,"current_range_meters":17200,"station_id":"ce4bha92rcd13ifvqeg0","pricing_plan_id":"cebpf4jnsgd1na2vs0mg"},{"bike_id":"7608a603-4b2e-40fe-83f4-3986e28bd148","system_id":"levelo_inurba_marseille","lat":43.290486,"lon":5.359078,"is_reserved":false,"is_disabled":false,"rental_uris":{"android":"levelo://app?vid=7608a603-4b2e-40fe-83f4-3986e28bd148","ios":"levelo://app?vid=7608a603-4b2e-40fe-83f4-3986e28bd148"},"vehicle_type_id":"4","last_reported":1724429449,"current_range_meters":26400,"station_id":"ce4bha92rcd13ifvqeg0","pricing_plan_id":"cebpf4jnsgd1na2vs0mg"},{"bike_id":"de9943a3-bd88-441a-91d0-9bb287ef00f0","system_id":"levelo_inurba_marseille","lat":43.29051,"lon":5.35895,"is_reserved":false,"is_disabled":false,"rental_uris":{"android":"levelo://app?vid=de9943a3-bd88-441a-91d0-9bb287ef00f0","ios":"levelo://app?vid=de9943a3-bd88-441a-91d0-9bb287ef00f0"},"vehicle_type_id":"4","last_reported":1724429449,"current_range_meters":25600,"station_id":"ce4bha92rcd13ifvqeg0","pricing_plan_id":"cebpf4jnsgd1na2vs0mg"},{"bike_id":"51ff8533-df6e-4cc2-b8e8-a0056ce3358a","system_id":"levelo_inurba_marseille","lat":43.29045,"lon":5.359143,"is_reserved":false,"is_disabled":false,"rental_uris":{"android":"levelo://app?vid=51ff8533-df6e-4cc2-b8e8-a0056ce3358a","ios":"levelo://app?vid=51ff8533-df6e-4cc2-b8e8-a0056ce3358a"},"vehicle_type_id":"4","last_reported":1724429449,"current_range_meters":30000,"station_id":"ce4bha92rcd13ifvqeg0","pricing_plan_id":"cebpf4jnsgd1na2vs0mg"},{"bike_id":"c9d15c8c-af35-4a36-a1f7-1f29e22f97f4","system_id":"levelo_inurba_marseille","lat":43.290631,"lon":5.359244,"is_reserved":false,"is_disabled":false,"rental_uris":{"android":"levelo://app?vid=c9d15c8c-af35-4a36-a1f7-1f29e22f97f4","ios":"levelo://app?vid=c9d15c8c-af35-4a36-a1f7-1f29e22f97f4"},"vehicle_type_id":"4","last_reported":1724429449,"current_range_meters":19600,"station_id":"ce4bha92rcd13ifvqeg0","pricing_plan_id":"cebpf4jnsgd1na2vs0mg"},{"bike_id":"23ccc63d-aa82-48f3-a376-9295bdce2199","system_id":"levelo_inurba_marseille","lat":43.290631,"lon":5.359244,"is_reserved":false,"is_disabled":false,"rental_uris":{"android":"levelo://app?vid=23ccc63d-aa82-48f3-a376-9295bdce2199","ios":"levelo://app?vid=23ccc63d-aa82-48f3-a376-9295bdce2199"},"vehicle_type_id":"4","last_reported":1724429449,"current_range_meters":32000,"station_id":"ce4bha92rcd13ifvqeg0","pricing_plan_id":"cebpf4jnsgd1na2vs0mg"},{"bike_id":"cc3e0ef9-f4e8-4cf8-86c4-ed9544f81c13","system_id":"levelo_inurba_marseille","lat":43.290631,"lon":5.359244,"is_reserved":false,"is_disabled":false,"rental_uris":{"android":"levelo://app?vid=cc3e0ef9-f4e8-4cf8-86c4-ed9544f81c13","ios":"levelo://app?vid=cc3e0ef9-f4e8-4cf8-86c4-ed9544f81c13"},"vehicle_type_id":"4","last_reported":1724429449,"current_range_meters":14800,"station_id":"ce4bha92rcd13ifvqeg0","pricing_plan_id":"cebpf4jnsgd1na2vs0mg"},{"bike_id":"6318ce3f-f15b-4580-9fee-27c561a13742","system_id":"levelo_inurba_marseille","lat":43.29176,"lon":5.3805,"is_reserved":false,"is_disabled":false,"rental_uris":{"android":"levelo://app?vid=6318ce3f-f15b-4580-9fee-27c561a13742","ios":"levelo://app?vid=6318ce3f-f15b-4580-9fee-27c561a13742"},"vehicle_type_id":"4","last_reported":1724429449,"current_range_meters":18400,"station_id":"","pricing_plan_id":"cebpf4jnsgd1na2vs0mg"},{"bike_id":"370b4f12-f1cb-4a69-8058-46125183fd46","system_id":"levelo_inurba_marseille","lat":43.290327,"lon":5.375711,"is_reserved":false,"is_disabled":false,"rental_uris":{"android":"levelo://app?vid=370b4f12-f1cb-4a69-8058-46125183fd46","ios":"levelo://app?vid=370b4f12-f1cb-4a69-8058-46125183fd46"},"vehicle_type_id":"4","last_reported":1724429449,"current_range_meters":27200,"station_id":"ce4bh692rcd13ifvqe90","pricing_plan_id":"cebpf4jnsgd1na2vs0mg"},{"bike_id":"64dcd46e-c6d7-4888-8e67-022abd56f39b","system_id":"levelo_inurba_marseille","lat":43.294162,"lon":5.386292,"is_reserved":false,"is_disabled":false,"rental_uris":{"android":"levelo://app?vid=64dcd46e-c6d7-4888-8e67-022abd56f39b","ios":"levelo://app?vid=64dcd46e-c6d7-4888-8e67-022abd56f39b"},"vehicle_type_id":"4","last_reported":1724429449,"current_range_meters":800,"station_id":"ce4bh2h2rcd13ifvqdh0","pricing_plan_id":"cebpf4jnsgd1na2vs0mg"},{"bike_id":"8a3ea028-e341-4692-947c-e3da6131ecdf","system_id":"levelo_inurba_marseille","lat":43.294153,"lon":5.386305,"is_reserved":false,"is_disabled":false,"rental_uris":{"android":"levelo://app?vid=8a3ea028-e341-4692-947c-e3da6131ecdf","ios":"levelo://app?vid=8a3ea028-e341-4692-947c-e3da6131ecdf"},"vehicle_type_id":"4","last_reported":1724429449,"current_range_meters":10400,"station_id":"ce4bh2h2rcd13ifvqdh0","pricing_plan_id":"cebpf4jnsgd1na2vs0mg"},{"bike_id":"7c61efb3-e459-489b-af1e-cf1777d0bdbd","system_id":"levelo_inurba_marseille","lat":43.294153,"lon":5.386305,"is_reserved":false,"is_disabled":false,"rental_uris":{"android":"levelo://app?vid=7c61efb3-e459-489b-af1e-cf1777d0bdbd","ios":"levelo://app?vid=7c61efb3-e459-489b-af1e-cf1777d0bdbd"},"vehicle_type_id":"4","last_reported":1724429449,"current_range_meters":22400,"station_id":"ce4bh2h2rcd13ifvqdh0","pricing_plan_id":"cebpf4jnsgd1na2vs0mg"},{"bike_id":"e72de0d1-e614-4402-a173-88151bf426e5","system_id":"levelo_inurba_marseille","lat":43.290319,"lon":5.375732,"is_reserved":false,"is_disabled":false,"rental_uris":{"android":"levelo://app?vid=e72de0d1-e614-4402-a173-88151bf426e5","ios":"levelo://app?vid=e72de0d1-e614-4402-a173-88151bf426e5"},"vehicle_type_id":"4","last_reported":1724429449,"current_range_meters":3200,"station_id":"ce4bh692rcd13ifvqe90","pricing_plan_id":"cebpf4jnsgd1na2vs0mg"},{"bike_id":"6649cfd6-8601-4d5e-be11-f58a83f1956a","system_id":"levelo_inurba_marseille","lat":43.294162,"lon":5.386292,"is_reserved":false,"is_disabled":false,"rental_uris":{"android":"levelo://app?vid=6649cfd6-8601-4d5e-be11-f58a83f1956a","ios":"levelo://app?vid=6649cfd6-8601-4d5e-be11-f58a83f1956a"},"vehicle_type_id":"4","last_reported":1724429449,"current_range_meters":6000,"station_id":"ce4bh2h2rcd13ifvqdh0","pricing_plan_id":"cebpf4jnsgd1na2vs0mg"},{"bike_id":"d594254c-d261-477e-88b6-059073608f1c","system_id":"levelo_inurba_marseille","lat":43.289184,"lon":5.366408,"is_reserved":false,"is_disabled":false,"rental_uris":{"android":"levelo://app?vid=d594254c-d261-477e-88b6-059073608f1c","ios":"levelo://app?vid=d594254c-d261-477e-88b6-059073608f1c"},"vehicle_type_id":"4","last_reported":1724429449,"current_range_meters":29200,"station_id":"ce4bhap2rcd13ifvqek0","pricing_plan_id":"cebpf4jnsgd1na2vs0mg"},{"bike_id":"1b8f0ce4-6385-4b91-950c-cdc9cbf61fb2","system_id":"levelo_inurba_marseille","lat":43.290319,"lon":5.375732,"is_reserved":false,"is_disabled":false,"rental_uris":{"android":"levelo://app?vid=1b8f0ce4-6385-4b91-950c-cdc9cbf61fb2","ios":"levelo://app?vid=1b8f0ce4-6385-4b91-950c-cdc9cbf61fb2"},"vehicle_type_id":"4","last_reported":1724429449,"current_range_meters":0,"station_id":"ce4bh692rcd13ifvqe90","pricing_plan_id":"cebpf4jnsgd1na2vs0mg"},{"bike_id":"fbb75c8c-1ce8-422e-bf76-1c502d264fd0","system_id":"levelo_inurba_marseille","lat":43.29416,"lon":5.386223,"is_reserved":false,"is_disabled":false,"rental_uris":{"android":"levelo://app?vid=fbb75c8c-1ce8-422e-bf76-1c502d264fd0","ios":"levelo://app?vid=fbb75c8c-1ce8-422e-bf76-1c502d264fd0"},"vehicle_type_id":"4","last_reported":1724429449,"current_range_meters":0,"station_id":"ce4bh2h2rcd13ifvqdh0","pricing_plan_id":"cebpf4jnsgd1na2vs0mg"},{"bike_id":"6c217517-fe90-4420-9873-fa801c9672f1","system_id":"levelo_inurba_marseille","lat":43.289184,"lon":5.366408,"is_reserved":false,"is_disabled":false,"rental_uris":{"android":"levelo://app?vid=6c217517-fe90-4420-9873-fa801c9672f1","ios":"levelo://app?vid=6c217517-fe90-4420-9873-fa801c9672f1"},"vehicle_type_id":"4","last_reported":1724429449,"current_range_meters":16000,"station_id":"ce4bhap2rcd13ifvqek0","pricing_plan_id":"cebpf4jnsgd1na2vs0mg"},{"bike_id":"821e57ae-a66b-424b-9d88-cdc82313fdc6","system_id":"levelo_inurba_marseille","lat":43.289184,"lon":5.366408,"is_reserved":false,"is_disabled":false,"rental_uris":{"android":"levelo://app?vid=821e57ae-a66b-424b-9d88-cdc82313fdc6","ios":"levelo://app?vid=821e57ae-a66b-424b-9d88-cdc82313fdc6"},"vehicle_type_id":"4","last_reported":1724429449,"current_range_meters":1200,"station_id":"ce4bhap2rcd13ifvqek0","pricing_plan_id":"cebpf4jnsgd1na2vs0mg"},{"bike_id":"06220a62-053e-4891-ac16-2a6eee6bbdaf","system_id":"levelo_inurba_marseille","lat":43.289184,"lon":5.366408,"is_reserved":false,"is_disabled":false,"rental_uris":{"android":"levelo://app?vid=06220a62-053e-4891-ac16-2a6eee6bbdaf","ios":"levelo://app?vid=06220a62-053e-4891-ac16-2a6eee6bbdaf"},"vehicle_type_id":"4","last_reported":1724429449,"current_range_meters":400,"station_id":"ce4bhap2rcd13ifvqek0","pricing_plan_id":"cebpf4jnsgd1na2vs0mg"},{"bike_id":"c3ae2727-43a8-47f4-9c72-8cf14cacd392","system_id":"levelo_inurba_marseille","lat":43.289184,"lon":5.366408,"is_reserved":false,"is_disabled":false,"rental_uris":{"android":"levelo://app?vid=c3ae2727-43a8-47f4-9c72-8cf14cacd392","ios":"levelo://app?vid=c3ae2727-43a8-47f4-9c72-8cf14cacd392"},"vehicle_type_id":"4","last_reported":1724429449,"current_range_meters":7200,"station_id":"ce4bhap2rcd13ifvqek0","pricing_plan_id":"cebpf4jnsgd1na2vs0mg"},{"bike_id":"d04d6409-dc8e-4a46-8ed2-e43f69a02ba1","system_id":"levelo_inurba_marseille","lat":43.289184,"lon":5.366408,"is_reserved":false,"is_disabled":false,"rental_uris":{"android":"levelo://app?vid=d04d6409-dc8e-4a46-8ed2-e43f69a02ba1","ios":"levelo://app?vid=d04d6409-dc8e-4a46-8ed2-e43f69a02ba1"},"vehicle_type_id":"4","last_reported":1724429449,"current_range_meters":18800,"station_id":"ce4bhap2rcd13ifvqek0","pricing_plan_id":"cebpf4jnsgd1na2vs0mg"},{"bike_id":"fe3dfcda-1092-4c69-a31e-645e05d885e4","system_id":"levelo_inurba_marseille","lat":43.289184,"lon":5.366408,"is_reserved":false,"is_disabled":false,"rental_uris":{"android":"levelo://app?vid=fe3dfcda-1092-4c69-a31e-645e05d885e4","ios":"levelo://app?vid=fe3dfcda-1092-4c69-a31e-645e05d885e4"},"vehicle_type_id":"4","last_reported":1724429449,"current_range_meters":25600,"station_id":"ce4bhap2rcd13ifvqek0","pricing_plan_id":"cebpf4jnsgd1na2vs0mg"},{"bike_id":"fcfca196-f572-43a1-bea5-c1f9d96fa502","system_id":"levelo_inurba_marseille","lat":43.289184,"lon":5.366408,"is_reserved":false,"is_disabled":false,"rental_uris":{"android":"levelo://app?vid=fcfca196-f572-43a1-bea5-c1f9d96fa502","ios":"levelo://app?vid=fcfca196-f572-43a1-bea5-c1f9d96fa502"},"vehicle_type_id":"4","last_reported":1724429449,"current_range_meters":0,"station_id":"ce4bhap2rcd13ifvqek0","pricing_plan_id":"cebpf4jnsgd1na2vs0mg"},{"bike_id":"94cac5d5-425b-4482-8cb5-462a4dcf92f8","system_id":"levelo_inurba_marseille","lat":43.289184,"lon":5.366408,"is_reserved":false,"is_disabled":false,"rental_uris":{"android":"levelo://app?vid=94cac5d5-425b-4482-8cb5-462a4dcf92f8","ios":"levelo://app?vid=94cac5d5-425b-4482-8cb5-462a4dcf92f8"},"vehicle_type_id":"4","last_reported":1724429449,"current_range_meters":22800,"station_id":"ce4bhap2rcd13ifvqek0","pricing_plan_id":"cebpf4jnsgd1na2vs0mg"},{"bike_id":"173db417-6cb5-4d35-b7ad-ec2d0f55008e","system_id":"levelo_inurba_marseille","lat":43.289184,"lon":5.366408,"is_reserved":false,"is_disabled":false,"rental_uris":{"android":"levelo://app?vid=173db417-6cb5-4d35-b7ad-ec2d0f55008e","ios":"levelo://app?vid=173db417-6cb5-4d35-b7ad-ec2d0f55008e"},"vehicle_type_id":"4","last_reported":1724429449,"current_range_meters":31200,"station_id":"ce4bhap2rcd13ifvqek0","pricing_plan_id":"cebpf4jnsgd1na2vs0mg"},{"bike_id":"d58b9b25-60bf-4a34-8e42-b44c26de44a6","system_id":"levelo_inurba_marseille","lat":43.289184,"lon":5.366408,"is_reserved":false,"is_disabled":false,"rental_uris":{"android":"levelo://app?vid=d58b9b25-60bf-4a34-8e42-b44c26de44a6","ios":"levelo://app?vid=d58b9b25-60bf-4a34-8e42-b44c26de44a6"},"vehicle_type_id":"4","last_reported":1724429449,"current_range_meters":29600,"station_id":"ce4bhap2rcd13ifvqek0","pricing_plan_id":"cebpf4jnsgd1na2vs0mg"},{"bike_id":"9f1fb7a5-e427-4f54-98cd-1714ae476ce0","system_id":"levelo_inurba_marseille","lat":43.28941,"lon":5.36396,"is_reserved":false,"is_disabled":false,"rental_uris":{"android":"levelo://app?vid=9f1fb7a5-e427-4f54-98cd-1714ae476ce0","ios":"levelo://app?vid=9f1fb7a5-e427-4f54-98cd-1714ae476ce0"},"vehicle_type_id":"4","last_reported":1724429449,"current_range_meters":4400,"station_id":"ce4bhc92rcd13ifvqetg","pricing_plan_id":"cebpf4jnsgd1na2vs0mg"},{"bike_id":"0d390742-6ff7-4df3-a391-560d0a621a34","system_id":"levelo_inurba_marseille","lat":43.289468,"lon":5.363719,"is_reserved":false,"is_disabled":false,"rental_uris":{"android":"levelo://app?vid=0d390742-6ff7-4df3-a391-560d0a621a34","ios":"levelo://app?vid=0d390742-6ff7-4df3-a391-560d0a621a34"},"vehicle_type_id":"4","last_reported":1724429449,"current_range_meters":0,"station_id":"ce4bhc92rcd13ifvqetg","pricing_plan_id":"cebpf4jnsgd1na2vs0mg"},{"bike_id":"a81c431e-1246-4fc4-a9a9-1842df5c5602","system_id":"levelo_inurba_marseille","lat":43.289323,"lon":5.36392,"is_reserved":false,"is_disabled":false,"rental_uris":{"android":"levelo://app?vid=a81c431e-1246-4fc4-a9a9-1842df5c5602","ios":"levelo://app?vid=a81c431e-1246-4fc4-a9a9-1842df5c5602"},"vehicle_type_id":"4","last_reported":1724429449,"current_range_meters":0,"station_id":"ce4bhc92rcd13ifvqetg","pricing_plan_id":"cebpf4jnsgd1na2vs0mg"},{"bike_id":"ad7e569b-976c-490c-b68d-e9538aa5c4ba","system_id":"levelo_inurba_marseille","lat":43.289273,"lon":5.363981,"is_reserved":false,"is_disabled":false,"rental_uris":{"android":"levelo://app?vid=ad7e569b-976c-490c-b68d-e9538aa5c4ba","ios":"levelo://app?vid=ad7e569b-976c-490c-b68d-e9538aa5c4ba"},"vehicle_type_id":"4","last_reported":1724429449,"current_range_meters":24400,"station_id":"ce4bhc92rcd13ifvqetg","pricing_plan_id":"cebpf4jnsgd1na2vs0mg"},{"bike_id":"5da50358-42e1-46f1-b423-496aa8d867cf","system_id":"levelo_inurba_marseille","lat":43.292644,"lon":5.384257,"is_reserved":false,"is_disabled":false,"rental_uris":{"android":"levelo://app?vid=5da50358-42e1-46f1-b423-496aa8d867cf","ios":"levelo://app?vid=5da50358-42e1-46f1-b423-496aa8d867cf"},"vehicle_type_id":"4","last_reported":1724429449,"current_range_meters":21600,"station_id":"ce4bh692rcd13ifvqea0","pricing_plan_id":"cebpf4jnsgd1na2vs0mg"},{"bike_id":"4da76a66-239b-4261-baf4-de7242ad66b9","system_id":"levelo_inurba_marseille","lat":43.292644,"lon":5.384257,"is_reserved":false,"is_disabled":false,"rental_uris":{"android":"levelo://app?vid=4da76a66-239b-4261-baf4-de7242ad66b9","ios":"levelo://app?vid=4da76a66-239b-4261-baf4-de7242ad66b9"},"vehicle_type_id":"4","last_reported":1724429449,"current_range_meters":13600,"station_id":"ce4bh692rcd13ifvqea0","pricing_plan_id":"cebpf4jnsgd1na2vs0mg"},{"bike_id":"1535761d-1069-4071-be46-eccbb29bd493","system_id":"levelo_inurba_marseille","lat":43.29262,"lon":5.38431,"is_reserved":false,"is_disabled":false,"rental_uris":{"android":"levelo://app?vid=1535761d-1069-4071-be46-eccbb29bd493","ios":"levelo://app?vid=1535761d-1069-4071-be46-eccbb29bd493"},"vehicle_type_id":"4","last_reported":1724429449,"current_range_meters":0,"station_id":"ce4bh692rcd13ifvqea0","pricing_plan_id":"cebpf4jnsgd1na2vs0mg"},{"bike_id":"603785cb-9fb6-499e-807d-af3c4f8b452f","system_id":"levelo_inurba_marseille","lat":43.292644,"lon":5.384257,"is_reserved":false,"is_disabled":false,"rental_uris":{"android":"levelo://app?vid=603785cb-9fb6-499e-807d-af3c4f8b452f","ios":"levelo://app?vid=603785cb-9fb6-499e-807d-af3c4f8b452f"},"vehicle_type_id":"4","last_reported":1724429449,"current_range_meters":7200,"station_id":"ce4bh692rcd13ifvqea0","pricing_plan_id":"cebpf4jnsgd1na2vs0mg"},{"bike_id":"60eee950-7a83-40cd-980d-1920ec80409a","system_id":"levelo_inurba_marseille","lat":43.292644,"lon":5.384257,"is_reserved":false,"is_disabled":false,"rental_uris":{"android":"levelo://app?vid=60eee950-7a83-40cd-980d-1920ec80409a","ios":"levelo://app?vid=60eee950-7a83-40cd-980d-1920ec80409a"},"vehicle_type_id":"4","last_reported":1724429449,"current_range_meters":400,"station_id":"ce4bh692rcd13ifvqea0","pricing_plan_id":"cebpf4jnsgd1na2vs0mg"},{"bike_id":"a7ea4b0e-2143-4ed7-9cdb-670944fee586","system_id":"levelo_inurba_marseille","lat":43.290103,"lon":5.356114,"is_reserved":false,"is_disabled":false,"rental_uris":{"android":"levelo://app?vid=a7ea4b0e-2143-4ed7-9cdb-670944fee586","ios":"levelo://app?vid=a7ea4b0e-2143-4ed7-9cdb-670944fee586"},"vehicle_type_id":"4","last_reported":1724429449,"current_range_meters":16800,"station_id":"ce4bhb92rcd13ifvqen0","pricing_plan_id":"cebpf4jnsgd1na2vs0mg"},{"bike_id":"9bd28188-bb6b-470c-b0aa-84b6cad8102e","system_id":"levelo_inurba_marseille","lat":43.290103,"lon":5.356114,"is_reserved":false,"is_disabled":false,"rental_uris":{"android":"levelo://app?vid=9bd28188-bb6b-470c-b0aa-84b6cad8102e","ios":"levelo://app?vid=9bd28188-bb6b-470c-b0aa-84b6cad8102e"},"vehicle_type_id":"4","last_reported":1724429449,"current_range_meters":4800,"station_id":"ce4bhb92rcd13ifvqen0","pricing_plan_id":"cebpf4jnsgd1na2vs0mg"},{"bike_id":"dc93b32f-6060-481e-94d7-6c422efc0368","system_id":"levelo_inurba_marseille","lat":43.29011,"lon":5.35606,"is_reserved":false,"is_disabled":false,"rental_uris":{"android":"levelo://app?vid=dc93b32f-6060-481e-94d7-6c422efc0368","ios":"levelo://app?vid=dc93b32f-6060-481e-94d7-6c422efc0368"},"vehicle_type_id":"4","last_reported":1724429449,"current_range_meters":29600,"station_id":"ce4bhb92rcd13ifvqen0","pricing_plan_id":"cebpf4jnsgd1na2vs0mg"},{"bike_id":"e5242287-f426-445f-b1cb-cfbb266fd5f5","system_id":"levelo_inurba_marseille","lat":43.290104,"lon":5.356111,"is_reserved":false,"is_disabled":false,"rental_uris":{"android":"levelo://app?vid=e5242287-f426-445f-b1cb-cfbb266fd5f5","ios":"levelo://app?vid=e5242287-f426-445f-b1cb-cfbb266fd5f5"},"vehicle_type_id":"4","last_reported":1724429449,"current_range_meters":24000,"station_id":"ce4bhb92rcd13ifvqen0","pricing_plan_id":"cebpf4jnsgd1na2vs0mg"},{"bike_id":"94c8019c-2f1d-4912-9de7-a84bd8c87712","system_id":"levelo_inurba_marseille","lat":43.290104,"lon":5.356111,"is_reserved":false,"is_disabled":false,"rental_uris":{"android":"levelo://app?vid=94c8019c-2f1d-4912-9de7-a84bd8c87712","ios":"levelo://app?vid=94c8019c-2f1d-4912-9de7-a84bd8c87712"},"vehicle_type_id":"4","last_reported":1724429449,"current_range_meters":31200,"station_id":"ce4bhb92rcd13ifvqen0","pricing_plan_id":"cebpf4jnsgd1na2vs0mg"},{"bike_id":"2829b977-1d28-47a1-8e46-0f28df02a6cb","system_id":"levelo_inurba_marseille","lat":43.290083,"lon":5.3561,"is_reserved":false,"is_disabled":false,"rental_uris":{"android":"levelo://app?vid=2829b977-1d28-47a1-8e46-0f28df02a6cb","ios":"levelo://app?vid=2829b977-1d28-47a1-8e46-0f28df02a6cb"},"vehicle_type_id":"4","last_reported":1724429449,"current_range_meters":17600,"station_id":"ce4bhb92rcd13ifvqen0","pricing_plan_id":"cebpf4jnsgd1na2vs0mg"},{"bike_id":"3575b530-51a3-4689-9ff3-37d584766e15","system_id":"levelo_inurba_marseille","lat":43.290103,"lon":5.356114,"is_reserved":false,"is_disabled":false,"rental_uris":{"android":"levelo://app?vid=3575b530-51a3-4689-9ff3-37d584766e15","ios":"levelo://app?vid=3575b530-51a3-4689-9ff3-37d584766e15"},"vehicle_type_id":"4","last_reported":1724429449,"current_range_meters":3600,"station_id":"ce4bhb92rcd13ifvqen0","pricing_plan_id":"cebpf4jnsgd1na2vs0mg"},{"bike_id":"543813b9-dd3a-4142-8158-1911f2850d16","system_id":"levelo_inurba_marseille","lat":43.290047,"lon":5.356217,"is_reserved":false,"is_disabled":false,"rental_uris":{"android":"levelo://app?vid=543813b9-dd3a-4142-8158-1911f2850d16","ios":"levelo://app?vid=543813b9-dd3a-4142-8158-1911f2850d16"},"vehicle_type_id":"4","last_reported":1724429449,"current_range_meters":9200,"station_id":"ce4bhb92rcd13ifvqen0","pricing_plan_id":"cebpf4jnsgd1na2vs0mg"},{"bike_id":"b0d5b2df-2405-4aae-9e5a-b6071b68e7f2","system_id":"levelo_inurba_marseille","lat":43.290103,"lon":5.356114,"is_reserved":false,"is_disabled":false,"rental_uris":{"android":"levelo://app?vid=b0d5b2df-2405-4aae-9e5a-b6071b68e7f2","ios":"levelo://app?vid=b0d5b2df-2405-4aae-9e5a-b6071b68e7f2"},"vehicle_type_id":"4","last_reported":1724429449,"current_range_meters":8800,"station_id":"ce4bhb92rcd13ifvqen0","pricing_plan_id":"cebpf4jnsgd1na2vs0mg"},{"bike_id":"67df9140-da7d-4272-8ab8-a05d9f907fa3","system_id":"levelo_inurba_marseille","lat":43.290103,"lon":5.356114,"is_reserved":false,"is_disabled":false,"rental_uris":{"android":"levelo://app?vid=67df9140-da7d-4272-8ab8-a05d9f907fa3","ios":"levelo://app?vid=67df9140-da7d-4272-8ab8-a05d9f907fa3"},"vehicle_type_id":"4","last_reported":1724429449,"current_range_meters":10800,"station_id":"ce4bhb92rcd13ifvqen0","pricing_plan_id":"cebpf4jnsgd1na2vs0mg"},{"bike_id":"d94f5f60-1e7d-40c6-9517-919d51592f37","system_id":"levelo_inurba_marseille","lat":43.290103,"lon":5.356114,"is_reserved":false,"is_disabled":false,"rental_uris":{"android":"levelo://app?vid=d94f5f60-1e7d-40c6-9517-919d51592f37","ios":"levelo://app?vid=d94f5f60-1e7d-40c6-9517-919d51592f37"},"vehicle_type_id":"4","last_reported":1724429449,"current_range_meters":11200,"station_id":"ce4bhb92rcd13ifvqen0","pricing_plan_id":"cebpf4jnsgd1na2vs0mg"},{"bike_id":"c096b02d-1490-4037-a761-c5cc10248600","system_id":"levelo_inurba_marseille","lat":43.2889,"lon":5.36132,"is_reserved":false,"is_disabled":false,"rental_uris":{"android":"levelo://app?vid=c096b02d-1490-4037-a761-c5cc10248600","ios":"levelo://app?vid=c096b02d-1490-4037-a761-c5cc10248600"},"vehicle_type_id":"4","last_reported":1724429449,"current_range_meters":3200,"station_id":"","pricing_plan_id":"cebpf4jnsgd1na2vs0mg"},{"bike_id":"800e26f2-cc41-4323-8c3b-7e371f7d2799","system_id":"levelo_inurba_marseille","lat":43.297815,"lon":5.393548,"is_reserved":false,"is_disabled":false,"rental_uris":{"android":"levelo://app?vid=800e26f2-cc41-4323-8c3b-7e371f7d2799","ios":"levelo://app?vid=800e26f2-cc41-4323-8c3b-7e371f7d2799"},"vehicle_type_id":"4","last_reported":1724429449,"current_range_meters":15200,"station_id":"chh1huq6cuj3fo74tm60","pricing_plan_id":"cebpf4jnsgd1na2vs0mg"},{"bike_id":"f034617d-f9d2-45e1-a08e-dcf1295da44f","system_id":"levelo_inurba_marseille","lat":43.297815,"lon":5.393548,"is_reserved":false,"is_disabled":false,"rental_uris":{"android":"levelo://app?vid=f034617d-f9d2-45e1-a08e-dcf1295da44f","ios":"levelo://app?vid=f034617d-f9d2-45e1-a08e-dcf1295da44f"},"vehicle_type_id":"4","last_reported":1724429449,"current_range_meters":0,"station_id":"chh1huq6cuj3fo74tm60","pricing_plan_id":"cebpf4jnsgd1na2vs0mg"},{"bike_id":"fba3a06f-c69e-40f2-b886-3c4241645187","system_id":"levelo_inurba_marseille","lat":43.295169,"lon":5.390426,"is_reserved":false,"is_disabled":false,"rental_uris":{"android":"levelo://app?vid=fba3a06f-c69e-40f2-b886-3c4241645187","ios":"levelo://app?vid=fba3a06f-c69e-40f2-b886-3c4241645187"},"vehicle_type_id":"4","last_reported":1724429449,"current_range_meters":14800,"station_id":"ce4bh3p2rcd13ifvqdp0","pricing_plan_id":"cebpf4jnsgd1na2vs0mg"},{"bike_id":"163a5628-7698-4266-88dc-b680f0b353d6","system_id":"levelo_inurba_marseille","lat":43.33024,"lon":5.3903,"is_reserved":false,"is_disabled":false,"rental_uris":{"android":"levelo://app?vid=163a5628-7698-4266-88dc-b680f0b353d6","ios":"levelo://app?vid=163a5628-7698-4266-88dc-b680f0b353d6"},"vehicle_type_id":"4","last_reported":1724429449,"current_range_meters":4800,"station_id":"ce4bhr92rcd13ifvqhrg","pricing_plan_id":"cebpf4jnsgd1na2vs0mg"},{"bike_id":"047486e7-f863-4515-9ef9-1ec1226da197","system_id":"levelo_inurba_marseille","lat":43.33021,"lon":5.39035,"is_reserved":false,"is_disabled":false,"rental_uris":{"android":"levelo://app?vid=047486e7-f863-4515-9ef9-1ec1226da197","ios":"levelo://app?vid=047486e7-f863-4515-9ef9-1ec1226da197"},"vehicle_type_id":"4","last_reported":1724429449,"current_range_meters":4000,"station_id":"ce4bhr92rcd13ifvqhrg","pricing_plan_id":"cebpf4jnsgd1na2vs0mg"},{"bike_id":"b82fa450-7074-4845-9853-4743da79fa4d","system_id":"levelo_inurba_marseille","lat":43.295169,"lon":5.390426,"is_reserved":false,"is_disabled":false,"rental_uris":{"android":"levelo://app?vid=b82fa450-7074-4845-9853-4743da79fa4d","ios":"levelo://app?vid=b82fa450-7074-4845-9853-4743da79fa4d"},"vehicle_type_id":"4","last_reported":1724429449,"current_range_meters":0,"station_id":"ce4bh3p2rcd13ifvqdp0","pricing_plan_id":"cebpf4jnsgd1na2vs0mg"},{"bike_id":"d0205d13-52ae-4dad-ad88-f7cd247d6142","system_id":"levelo_inurba_marseille","lat":43.33025,"lon":5.39038,"is_reserved":false,"is_disabled":false,"rental_uris":{"android":"levelo://app?vid=d0205d13-52ae-4dad-ad88-f7cd247d6142","ios":"levelo://app?vid=d0205d13-52ae-4dad-ad88-f7cd247d6142"},"vehicle_type_id":"4","last_reported":1724429449,"current_range_meters":3200,"station_id":"ce4bhr92rcd13ifvqhrg","pricing_plan_id":"cebpf4jnsgd1na2vs0mg"},{"bike_id":"02a41900-f7cd-4739-93b6-4f7285de8e90","system_id":"levelo_inurba_marseille","lat":43.289741,"lon":5.378306,"is_reserved":false,"is_disabled":false,"rental_uris":{"android":"levelo://app?vid=02a41900-f7cd-4739-93b6-4f7285de8e90","ios":"levelo://app?vid=02a41900-f7cd-4739-93b6-4f7285de8e90"},"vehicle_type_id":"4","last_reported":1724429449,"current_range_meters":800,"station_id":"ce4bh9p2rcd13ifvqed0","pricing_plan_id":"cebpf4jnsgd1na2vs0mg"},{"bike_id":"483fcab1-ab24-4022-b11c-467d833835cc","system_id":"levelo_inurba_marseille","lat":43.33025,"lon":5.3904,"is_reserved":false,"is_disabled":false,"rental_uris":{"android":"levelo://app?vid=483fcab1-ab24-4022-b11c-467d833835cc","ios":"levelo://app?vid=483fcab1-ab24-4022-b11c-467d833835cc"},"vehicle_type_id":"4","last_reported":1724429449,"current_range_meters":31200,"station_id":"ce4bhr92rcd13ifvqhrg","pricing_plan_id":"cebpf4jnsgd1na2vs0mg"},{"bike_id":"a35eef6e-211c-4110-bc22-d6fc0325b155","system_id":"levelo_inurba_marseille","lat":43.289741,"lon":5.378306,"is_reserved":false,"is_disabled":false,"rental_uris":{"android":"levelo://app?vid=a35eef6e-211c-4110-bc22-d6fc0325b155","ios":"levelo://app?vid=a35eef6e-211c-4110-bc22-d6fc0325b155"},"vehicle_type_id":"4","last_reported":1724429449,"current_range_meters":8400,"station_id":"ce4bh9p2rcd13ifvqed0","pricing_plan_id":"cebpf4jnsgd1na2vs0mg"},{"bike_id":"06b10f8b-b158-4bf8-bb34-569b3b4c6ae9","system_id":"levelo_inurba_marseille","lat":43.295169,"lon":5.390426,"is_reserved":false,"is_disabled":false,"rental_uris":{"android":"levelo://app?vid=06b10f8b-b158-4bf8-bb34-569b3b4c6ae9","ios":"levelo://app?vid=06b10f8b-b158-4bf8-bb34-569b3b4c6ae9"},"vehicle_type_id":"4","last_reported":1724429449,"current_range_meters":22800,"station_id":"ce4bh3p2rcd13ifvqdp0","pricing_plan_id":"cebpf4jnsgd1na2vs0mg"},{"bike_id":"73151648-f058-47e1-ade1-af704e311243","system_id":"levelo_inurba_marseille","lat":43.2901,"lon":5.381269,"is_reserved":false,"is_disabled":false,"rental_uris":{"android":"levelo://app?vid=73151648-f058-47e1-ade1-af704e311243","ios":"levelo://app?vid=73151648-f058-47e1-ade1-af704e311243"},"vehicle_type_id":"4","last_reported":1724429449,"current_range_meters":0,"station_id":"ce4bh4p2rcd13ifvqe1g","pricing_plan_id":"cebpf4jnsgd1na2vs0mg"},{"bike_id":"dae28ddf-ea5f-495b-bd42-02159760c28c","system_id":"levelo_inurba_marseille","lat":43.28854,"lon":5.35849,"is_reserved":false,"is_disabled":false,"rental_uris":{"android":"levelo://app?vid=dae28ddf-ea5f-495b-bd42-02159760c28c","ios":"levelo://app?vid=dae28ddf-ea5f-495b-bd42-02159760c28c"},"vehicle_type_id":"4","last_reported":1724429449,"current_range_meters":28800,"station_id":"ce4bhb12rcd13ifvqem0","pricing_plan_id":"cebpf4jnsgd1na2vs0mg"},{"bike_id":"c05bd619-c686-49bc-97a7-b21de06ded95","system_id":"levelo_inurba_marseille","lat":43.28856,"lon":5.358371,"is_reserved":false,"is_disabled":false,"rental_uris":{"android":"levelo://app?vid=c05bd619-c686-49bc-97a7-b21de06ded95","ios":"levelo://app?vid=c05bd619-c686-49bc-97a7-b21de06ded95"},"vehicle_type_id":"4","last_reported":1724429449,"current_range_meters":24800,"station_id":"ce4bhb12rcd13ifvqem0","pricing_plan_id":"cebpf4jnsgd1na2vs0mg"},{"bike_id":"a5dc86d1-6db6-4a18-9a26-19f23cd073a1","system_id":"levelo_inurba_marseille","lat":43.28853,"lon":5.35847,"is_reserved":false,"is_disabled":false,"rental_uris":{"android":"levelo://app?vid=a5dc86d1-6db6-4a18-9a26-19f23cd073a1","ios":"levelo://app?vid=a5dc86d1-6db6-4a18-9a26-19f23cd073a1"},"vehicle_type_id":"4","last_reported":1724429449,"current_range_meters":2800,"station_id":"ce4bhb12rcd13ifvqem0","pricing_plan_id":"cebpf4jnsgd1na2vs0mg"},{"bike_id":"b4bd314a-ae21-44b4-92a4-34c05ce0df39","system_id":"levelo_inurba_marseille","lat":43.28856,"lon":5.358371,"is_reserved":false,"is_disabled":false,"rental_uris":{"android":"levelo://app?vid=b4bd314a-ae21-44b4-92a4-34c05ce0df39","ios":"levelo://app?vid=b4bd314a-ae21-44b4-92a4-34c05ce0df39"},"vehicle_type_id":"4","last_reported":1724429449,"current_range_meters":4800,"station_id":"ce4bhb12rcd13ifvqem0","pricing_plan_id":"cebpf4jnsgd1na2vs0mg"},{"bike_id":"d300bc4d-49c5-440b-b828-e789b90ed666","system_id":"levelo_inurba_marseille","lat":43.28852,"lon":5.35843,"is_reserved":false,"is_disabled":false,"rental_uris":{"android":"levelo://app?vid=d300bc4d-49c5-440b-b828-e789b90ed666","ios":"levelo://app?vid=d300bc4d-49c5-440b-b828-e789b90ed666"},"vehicle_type_id":"4","last_reported":1724429449,"current_range_meters":0,"station_id":"ce4bhb12rcd13ifvqem0","pricing_plan_id":"cebpf4jnsgd1na2vs0mg"},{"bike_id":"c0895c9c-737d-4071-b33d-1448934bd884","system_id":"levelo_inurba_marseille","lat":43.312609,"lon":5.401662,"is_reserved":false,"is_disabled":false,"rental_uris":{"android":"levelo://app?vid=c0895c9c-737d-4071-b33d-1448934bd884","ios":"levelo://app?vid=c0895c9c-737d-4071-b33d-1448934bd884"},"vehicle_type_id":"4","last_reported":1724429449,"current_range_meters":14800,"station_id":"ce4bh092rcd13ifvqd30","pricing_plan_id":"cebpf4jnsgd1na2vs0mg"},{"bike_id":"860c08c4-72b1-450f-b351-3478331d1305","system_id":"levelo_inurba_marseille","lat":43.28856,"lon":5.358371,"is_reserved":false,"is_disabled":false,"rental_uris":{"android":"levelo://app?vid=860c08c4-72b1-450f-b351-3478331d1305","ios":"levelo://app?vid=860c08c4-72b1-450f-b351-3478331d1305"},"vehicle_type_id":"4","last_reported":1724429449,"current_range_meters":22400,"station_id":"ce4bhb12rcd13ifvqem0","pricing_plan_id":"cebpf4jnsgd1na2vs0mg"},{"bike_id":"0ac09104-8b25-4368-9099-6f43031c21c4","system_id":"levelo_inurba_marseille","lat":43.28856,"lon":5.358371,"is_reserved":false,"is_disabled":false,"rental_uris":{"android":"levelo://app?vid=0ac09104-8b25-4368-9099-6f43031c21c4","ios":"levelo://app?vid=0ac09104-8b25-4368-9099-6f43031c21c4"},"vehicle_type_id":"4","last_reported":1724429449,"current_range_meters":22800,"station_id":"ce4bhb12rcd13ifvqem0","pricing_plan_id":"cebpf4jnsgd1na2vs0mg"},{"bike_id":"fcae240a-6c8d-4893-a080-3c7ff6311dab","system_id":"levelo_inurba_marseille","lat":43.28849,"lon":5.35845,"is_reserved":false,"is_disabled":false,"rental_uris":{"android":"levelo://app?vid=fcae240a-6c8d-4893-a080-3c7ff6311dab","ios":"levelo://app?vid=fcae240a-6c8d-4893-a080-3c7ff6311dab"},"vehicle_type_id":"4","last_reported":1724429449,"current_range_meters":15600,"station_id":"ce4bhb12rcd13ifvqem0","pricing_plan_id":"cebpf4jnsgd1na2vs0mg"},{"bike_id":"2753757a-f722-4bcc-b736-425995ff1438","system_id":"levelo_inurba_marseille","lat":43.28856,"lon":5.358371,"is_reserved":false,"is_disabled":false,"rental_uris":{"android":"levelo://app?vid=2753757a-f722-4bcc-b736-425995ff1438","ios":"levelo://app?vid=2753757a-f722-4bcc-b736-425995ff1438"},"vehicle_type_id":"4","last_reported":1724429449,"current_range_meters":30000,"station_id":"ce4bhb12rcd13ifvqem0","pricing_plan_id":"cebpf4jnsgd1na2vs0mg"},{"bike_id":"aa0aa1fd-3575-4e3b-be0a-e05e0de673ec","system_id":"levelo_inurba_marseille","lat":43.28839,"lon":5.35856,"is_reserved":false,"is_disabled":false,"rental_uris":{"android":"levelo://app?vid=aa0aa1fd-3575-4e3b-be0a-e05e0de673ec","ios":"levelo://app?vid=aa0aa1fd-3575-4e3b-be0a-e05e0de673ec"},"vehicle_type_id":"4","last_reported":1724429449,"current_range_meters":6000,"station_id":"ce4bhb12rcd13ifvqem0","pricing_plan_id":"cebpf4jnsgd1na2vs0mg"},{"bike_id":"cdc35d34-57e9-43e1-ac36-c0218dd5a9e1","system_id":"levelo_inurba_marseille","lat":43.33741,"lon":5.37476,"is_reserved":false,"is_disabled":false,"rental_uris":{"android":"levelo://app?vid=cdc35d34-57e9-43e1-ac36-c0218dd5a9e1","ios":"levelo://app?vid=cdc35d34-57e9-43e1-ac36-c0218dd5a9e1"},"vehicle_type_id":"4","last_reported":1724429449,"current_range_meters":24800,"station_id":"","pricing_plan_id":"cebpf4jnsgd1na2vs0mg"},{"bike_id":"660e9432-0344-4cb5-9933-430cb837fd0c","system_id":"levelo_inurba_marseille","lat":43.337448,"lon":5.374616,"is_reserved":false,"is_disabled":false,"rental_uris":{"android":"levelo://app?vid=660e9432-0344-4cb5-9933-430cb837fd0c","ios":"levelo://app?vid=660e9432-0344-4cb5-9933-430cb837fd0c"},"vehicle_type_id":"4","last_reported":1724429449,"current_range_meters":20800,"station_id":"","pricing_plan_id":"cebpf4jnsgd1na2vs0mg"},{"bike_id":"bbc718b4-d60b-46a4-9125-3a6a70faaff5","system_id":"levelo_inurba_marseille","lat":43.33754,"lon":5.3744,"is_reserved":false,"is_disabled":false,"rental_uris":{"android":"levelo://app?vid=bbc718b4-d60b-46a4-9125-3a6a70faaff5","ios":"levelo://app?vid=bbc718b4-d60b-46a4-9125-3a6a70faaff5"},"vehicle_type_id":"4","last_reported":1724429449,"current_range_meters":26000,"station_id":"","pricing_plan_id":"cebpf4jnsgd1na2vs0mg"},{"bike_id":"29ea26cc-0680-4164-abf4-870e2d146ccf","system_id":"levelo_inurba_marseille","lat":43.337558,"lon":5.374577,"is_reserved":false,"is_disabled":false,"rental_uris":{"android":"levelo://app?vid=29ea26cc-0680-4164-abf4-870e2d146ccf","ios":"levelo://app?vid=29ea26cc-0680-4164-abf4-870e2d146ccf"},"vehicle_type_id":"4","last_reported":1724429449,"current_range_meters":20800,"station_id":"","pricing_plan_id":"cebpf4jnsgd1na2vs0mg"},{"bike_id":"918cb1a9-6210-4e52-bb66-383836a14f2f","system_id":"levelo_inurba_marseille","lat":43.337621,"lon":5.374623,"is_reserved":false,"is_disabled":false,"rental_uris":{"android":"levelo://app?vid=918cb1a9-6210-4e52-bb66-383836a14f2f","ios":"levelo://app?vid=918cb1a9-6210-4e52-bb66-383836a14f2f"},"vehicle_type_id":"4","last_reported":1724429449,"current_range_meters":3600,"station_id":"","pricing_plan_id":"cebpf4jnsgd1na2vs0mg"},{"bike_id":"aae5d55c-5572-48da-8097-5814655d0a22","system_id":"levelo_inurba_marseille","lat":43.30642,"lon":5.401031,"is_reserved":false,"is_disabled":false,"rental_uris":{"android":"levelo://app?vid=aae5d55c-5572-48da-8097-5814655d0a22","ios":"levelo://app?vid=aae5d55c-5572-48da-8097-5814655d0a22"},"vehicle_type_id":"4","last_reported":1724429449,"current_range_meters":800,"station_id":"ce4bh112rcd13ifvqda0","pricing_plan_id":"cebpf4jnsgd1na2vs0mg"},{"bike_id":"1b635017-1f6d-4ccf-887c-5535d999fc49","system_id":"levelo_inurba_marseille","lat":43.33768,"lon":5.37436,"is_reserved":false,"is_disabled":false,"rental_uris":{"android":"levelo://app?vid=1b635017-1f6d-4ccf-887c-5535d999fc49","ios":"levelo://app?vid=1b635017-1f6d-4ccf-887c-5535d999fc49"},"vehicle_type_id":"4","last_reported":1724429449,"current_range_meters":18000,"station_id":"","pricing_plan_id":"cebpf4jnsgd1na2vs0mg"},{"bike_id":"cd968d92-faa2-4291-a319-b5869fcc51dc","system_id":"levelo_inurba_marseille","lat":43.30147,"lon":5.39847,"is_reserved":false,"is_disabled":false,"rental_uris":{"android":"levelo://app?vid=cd968d92-faa2-4291-a319-b5869fcc51dc","ios":"levelo://app?vid=cd968d92-faa2-4291-a319-b5869fcc51dc"},"vehicle_type_id":"4","last_reported":1724429449,"current_range_meters":0,"station_id":"ce4bh0h2rcd13ifvqd40","pricing_plan_id":"cebpf4jnsgd1na2vs0mg"},{"bike_id":"4e16afe9-03e1-456e-a501-6cebd7c11192","system_id":"levelo_inurba_marseille","lat":43.33778,"lon":5.3744,"is_reserved":false,"is_disabled":false,"rental_uris":{"android":"levelo://app?vid=4e16afe9-03e1-456e-a501-6cebd7c11192","ios":"levelo://app?vid=4e16afe9-03e1-456e-a501-6cebd7c11192"},"vehicle_type_id":"4","last_reported":1724429449,"current_range_meters":25600,"station_id":"","pricing_plan_id":"cebpf4jnsgd1na2vs0mg"},{"bike_id":"0a443459-83d8-4968-a54d-87a8fbe36a18","system_id":"levelo_inurba_marseille","lat":43.33774,"lon":5.37479,"is_reserved":false,"is_disabled":false,"rental_uris":{"android":"levelo://app?vid=0a443459-83d8-4968-a54d-87a8fbe36a18","ios":"levelo://app?vid=0a443459-83d8-4968-a54d-87a8fbe36a18"},"vehicle_type_id":"4","last_reported":1724429449,"current_range_meters":0,"station_id":"","pricing_plan_id":"cebpf4jnsgd1na2vs0mg"},{"bike_id":"2f2b256d-4d9d-4d27-8577-b2ef51b4648d","system_id":"levelo_inurba_marseille","lat":43.28727,"lon":5.36078,"is_reserved":false,"is_disabled":false,"rental_uris":{"android":"levelo://app?vid=2f2b256d-4d9d-4d27-8577-b2ef51b4648d","ios":"levelo://app?vid=2f2b256d-4d9d-4d27-8577-b2ef51b4648d"},"vehicle_type_id":"4","last_reported":1724429449,"current_range_meters":6000,"station_id":"cki0cbj6b192h4jlfktg","pricing_plan_id":"cebpf4jnsgd1na2vs0mg"},{"bike_id":"d5d8dd7e-d766-4e22-befa-22bf576fe6f2","system_id":"levelo_inurba_marseille","lat":43.28727,"lon":5.36078,"is_reserved":false,"is_disabled":false,"rental_uris":{"android":"levelo://app?vid=d5d8dd7e-d766-4e22-befa-22bf576fe6f2","ios":"levelo://app?vid=d5d8dd7e-d766-4e22-befa-22bf576fe6f2"},"vehicle_type_id":"4","last_reported":1724429449,"current_range_meters":4000,"station_id":"cki0cbj6b192h4jlfktg","pricing_plan_id":"cebpf4jnsgd1na2vs0mg"},{"bike_id":"ae946687-7eb3-433b-ba77-3cb2be91222e","system_id":"levelo_inurba_marseille","lat":43.28727,"lon":5.36078,"is_reserved":false,"is_disabled":false,"rental_uris":{"android":"levelo://app?vid=ae946687-7eb3-433b-ba77-3cb2be91222e","ios":"levelo://app?vid=ae946687-7eb3-433b-ba77-3cb2be91222e"},"vehicle_type_id":"4","last_reported":1724429449,"current_range_meters":3200,"station_id":"cki0cbj6b192h4jlfktg","pricing_plan_id":"cebpf4jnsgd1na2vs0mg"},{"bike_id":"8c8cec86-9437-4606-8ac1-d4bb7b4614b8","system_id":"levelo_inurba_marseille","lat":43.28729,"lon":5.36079,"is_reserved":false,"is_disabled":false,"rental_uris":{"android":"levelo://app?vid=8c8cec86-9437-4606-8ac1-d4bb7b4614b8","ios":"levelo://app?vid=8c8cec86-9437-4606-8ac1-d4bb7b4614b8"},"vehicle_type_id":"4","last_reported":1724429449,"current_range_meters":25600,"station_id":"cki0cbj6b192h4jlfktg","pricing_plan_id":"cebpf4jnsgd1na2vs0mg"},{"bike_id":"8ea0f646-2de4-4c26-9f1c-07a795f98406","system_id":"levelo_inurba_marseille","lat":43.28727,"lon":5.36078,"is_reserved":false,"is_disabled":false,"rental_uris":{"android":"levelo://app?vid=8ea0f646-2de4-4c26-9f1c-07a795f98406","ios":"levelo://app?vid=8ea0f646-2de4-4c26-9f1c-07a795f98406"},"vehicle_type_id":"4","last_reported":1724429449,"current_range_meters":10400,"station_id":"cki0cbj6b192h4jlfktg","pricing_plan_id":"cebpf4jnsgd1na2vs0mg"},{"bike_id":"1c2f8158-5bc1-4248-8b4a-8a2367506d54","system_id":"levelo_inurba_marseille","lat":43.286591,"lon":5.363346,"is_reserved":false,"is_disabled":false,"rental_uris":{"android":"levelo://app?vid=1c2f8158-5bc1-4248-8b4a-8a2367506d54","ios":"levelo://app?vid=1c2f8158-5bc1-4248-8b4a-8a2367506d54"},"vehicle_type_id":"4","last_reported":1724429449,"current_range_meters":30800,"station_id":"ce4bhah2rcd13ifvqej0","pricing_plan_id":"cebpf4jnsgd1na2vs0mg"},{"bike_id":"2a8241eb-edda-4e15-939e-ff533dcf7e79","system_id":"levelo_inurba_marseille","lat":43.286593,"lon":5.363346,"is_reserved":false,"is_disabled":false,"rental_uris":{"android":"levelo://app?vid=2a8241eb-edda-4e15-939e-ff533dcf7e79","ios":"levelo://app?vid=2a8241eb-edda-4e15-939e-ff533dcf7e79"},"vehicle_type_id":"4","last_reported":1724429449,"current_range_meters":18800,"station_id":"ce4bhah2rcd13ifvqej0","pricing_plan_id":"cebpf4jnsgd1na2vs0mg"},{"bike_id":"5c2164d2-4554-468f-b890-2c39502b4936","system_id":"levelo_inurba_marseille","lat":43.298681,"lon":5.397225,"is_reserved":false,"is_disabled":false,"rental_uris":{"android":"levelo://app?vid=5c2164d2-4554-468f-b890-2c39502b4936","ios":"levelo://app?vid=5c2164d2-4554-468f-b890-2c39502b4936"},"vehicle_type_id":"4","last_reported":1724429449,"current_range_meters":5200,"station_id":"ce4bh0h2rcd13ifvqd50","pricing_plan_id":"cebpf4jnsgd1na2vs0mg"},{"bike_id":"b5b87571-3d70-4a51-b4cc-be5afd1355f8","system_id":"levelo_inurba_marseille","lat":43.286591,"lon":5.363346,"is_reserved":false,"is_disabled":false,"rental_uris":{"android":"levelo://app?vid=b5b87571-3d70-4a51-b4cc-be5afd1355f8","ios":"levelo://app?vid=b5b87571-3d70-4a51-b4cc-be5afd1355f8"},"vehicle_type_id":"4","last_reported":1724429449,"current_range_meters":4800,"station_id":"ce4bhah2rcd13ifvqej0","pricing_plan_id":"cebpf4jnsgd1na2vs0mg"},