{"last_updated":1736867303,"ttl":60,"version":"2.2","data":{"bikes":[{"bike_id":"094f2b9d-982b-42a3-8932-981369abda5b","system_id":"levelo_inurba_marseille","lat":43.26931,"lon":5.40248,"is_reserved":false,"is_disabled":false,"rental_uris":{"android":"levelo://app?vid=094f2b9d-982b-42a3-8932-981369abda5b","ios":"levelo://app?vid=094f2b9d-982b-42a3-8932-981369abda5b"},"vehicle_type_id":"4","last_reported":1736867303,"current_range_meters":28800,"station_id":"cjm6bp8fraef2m0cb0m0","pricing_plan_id":"cebpf4jnsgd1na2vs0mg"},{"bike_id":"fc202dea-b0c2-4e7a-82c8-0912767c1570","system_id":"levelo_inurba_marseille","lat":43.29627,"lon":5.37148,"is_reserved":false,"is_disabled":false,"rental_uris":{"android":"levelo://app?vid=fc202dea-b0c2-4e7a-82c8-0912767c1570","ios":"levelo://app?vid=fc202dea-b0c2-4e7a-82c8-0912767c1570"},"vehicle_type_id":"4","last_reported":1736867303,"current_range_meters":37600,"station_id":"ce4bgnh2rcd13ifvqc0g","pricing_plan_id":"cebpf4jnsgd1na2vs0mg"},{"bike_id":"a2b4942c-7e75-4e10-93a6-be4433a5cdea","system_id":"levelo_inurba_marseille","lat":43.29688,"lon":5.37287,"is_reserved":false,"is_disabled":false,"rental_uris":{"android":"levelo://app?vid=a2b4942c-7e75-4e10-93a6-be4433a5cdea","ios":"levelo://app?vid=a2b4942c-7e75-4e10-93a6-be4433a5cdea"},"vehicle_type_id":"4","last_reported":1736867303,"current_range_meters":38000,"station_id":"ce4bgk12rcd13ifvqbj0","pricing_plan_id":"cebpf4jnsgd1na2vs0mg"},{"bike_id":"8d6311d7-b749-42c0-b0d2-27a05b9a6499","system_id":"levelo_inurba_marseille","lat":43.28365,"lon":5.38631,"is_reserved":false,"is_disabled":false,"rental_uris":{"android":"levelo://app?vid=8d6311d7-b749-42c0-b0d2-27a05b9a6499","ios":"levelo://app?vid=8d6311d7-b749-42c0-b0d2-27a05b9a6499"},"vehicle_type_id":"4","last_reported":1736867303,"current_range_meters":39200,"station_id":"ce4bh492rcd13ifvqdvg","pricing_plan_id":"cebpf4jnsgd1na2vs0mg"},{"bike_id":"177b67e5-9dc2-4ba5-a00e-1d44ec51fd9a","system_id":"levelo_inurba_marseille","lat":43.28925,"lon":5.3839,"is_reserved":false,"is_disabled":false,"rental_uris":{"android":"levelo://app?vid=177b67e5-9dc2-4ba5-a00e-1d44ec51fd9a","ios":"levelo://app?vid=177b67e5-9dc2-4ba5-a00e-1d44ec51fd9a"},"vehicle_type_id":"4","last_reported":1736867303,"current_range_meters":16800,"station_id":"ce4bh612rcd13ifvqe6g","pricing_plan_id":"cebpf4jnsgd1na2vs0mg"},{"bike_id":"a9caf45c-9b62-4fad-bb25-cf9cfd1dff86","system_id":"levelo_inurba_marseille","lat":43.33739,"lon":5.39178,"is_reserved":false,"is_disabled":false,"rental_uris":{"android":"levelo://app?vid=a9caf45c-9b62-4fad-bb25-cf9cfd1dff86","ios":"levelo://app?vid=a9caf45c-9b62-4fad-bb25-cf9cfd1dff86"},"vehicle_type_id":"4","last_reported":1736867303,"current_range_meters":39200,"station_id":"ce4bhr92rcd13ifvqhsg","pricing_plan_id":"cebpf4jnsgd1na2vs0mg"},{"bike_id":"83c05730-c74e-4333-98de-3397043b2b60","system_id":"levelo_inurba_marseille","lat":43.27614,"lon":5.36093,"is_reserved":false,"is_disabled":false,"rental_uris":{"android":"levelo://app?vid=83c05730-c74e-4333-98de-3397043b2b60","ios":"levelo://app?vid=83c05730-c74e-4333-98de-3397043b2b60"},"vehicle_type_id":"4","last_reported":1736867303,"current_range_meters":19600,"station_id":"ce4bgj92rcd13ifvqbe0","pricing_plan_id":"cebpf4jnsgd1na2vs0mg"},{"bike_id":"5e0b46d4-53a6-4a9b-81ed-42b3629948b7","system_id":"levelo_inurba_marseille","lat":43.32089,"lon":5.36751,"is_reserved":false,"is_disabled":false,"rental_uris":{"android":"levelo://app?vid=5e0b46d4-53a6-4a9b-81ed-42b3629948b7","ios":"levelo://app?vid=5e0b46d4-53a6-4a9b-81ed-42b3629948b7"},"vehicle_type_id":"4","last_reported":1736867303,"current_range_meters":37600,"station_id":"ce4bhrh2rcd13ifvqhug","pricing_plan_id":"cebpf4jnsgd1na2vs0mg"},{"bike_id":"8a45f352-1bd5-4ce5-830f-577b5a725b6f","system_id":"levelo_inurba_marseille","lat":43.2622,"lon":5.37437,"is_reserved":false,"is_disabled":true,"rental_uris":{"android":"levelo://app?vid=8a45f352-1bd5-4ce5-830f-577b5a725b6f","ios":"levelo://app?vid=8a45f352-1bd5-4ce5-830f-577b5a725b6f"},"vehicle_type_id":"4","last_reported":1736867303,"current_range_meters":0,"station_id":"ce4bhgp2rcd13ifvqfc0","pricing_plan_id":"cebpf4jnsgd1na2vs0mg"},{"bike_id":"90008e08-866e-46c3-96ff-04c849cafc46","system_id":"levelo_inurba_marseille","lat":43.28068,"lon":5.39634,"is_reserved":false,"is_disabled":false,"rental_uris":{"android":"levelo://app?vid=90008e08-866e-46c3-96ff-04c849cafc46","ios":"levelo://app?vid=90008e08-866e-46c3-96ff-04c849cafc46"},"vehicle_type_id":"4","last_reported":1736867303,"current_range_meters":27600,"station_id":"ce4bho12rcd13ifvqh2g","pricing_plan_id":"cebpf4jnsgd1na2vs0mg"},{"bike_id":"5bb5758f-37be-496e-ac0a-3712e6b43125","system_id":"levelo_inurba_marseille","lat":43.26213,"lon":5.37924,"is_reserved":false,"is_disabled":false,"rental_uris":{"android":"levelo://app?vid=5bb5758f-37be-496e-ac0a-3712e6b43125","ios":"levelo://app?vid=5bb5758f-37be-496e-ac0a-3712e6b43125"},"vehicle_type_id":"4","last_reported":1736867303,"current_range_meters":39200,"station_id":"ce4bhjp2rcd13ifvqg90","pricing_plan_id":"cebpf4jnsgd1na2vs0mg"},{"bike_id":"fc6e0326-6e10-4788-9698-0650bfe06d8d","system_id":"levelo_inurba_marseille","lat":43.2928,"lon":5.36851,"is_reserved":false,"is_disabled":false,"rental_uris":{"android":"levelo://app?vid=fc6e0326-6e10-4788-9698-0650bfe06d8d","ios":"levelo://app?vid=fc6e0326-6e10-4788-9698-0650bfe06d8d"},"vehicle_type_id":"4","last_reported":1736867303,"current_range_meters":6400,"station_id":"ce4bhbp2rcd13ifvqesg","pricing_plan_id":"cebpf4jnsgd1na2vs0mg"},{"bike_id":"b77af807-32ff-4258-8e87-7587c36aabda","system_id":"levelo_inurba_marseille","lat":43.23149,"lon":5.43718,"is_reserved":false,"is_disabled":false,"rental_uris":{"android":"levelo://app?vid=b77af807-32ff-4258-8e87-7587c36aabda","ios":"levelo://app?vid=b77af807-32ff-4258-8e87-7587c36aabda"},"vehicle_type_id":"4","last_reported":1736867303,"current_range_meters":6800,"station_id":"ce4bhmp2rcd13ifvqgog","pricing_plan_id":"cebpf4jnsgd1na2vs0mg"},{"bike_id":"f2ee1619-1c9f-4d06-ad7b-254050daeab7","system_id":"levelo_inurba_marseille","lat":43.27978,"lon":5.38738,"is_reserved":false,"is_disabled":false,"rental_uris":{"android":"levelo://app?vid=f2ee1619-1c9f-4d06-ad7b-254050daeab7","ios":"levelo://app?vid=f2ee1619-1c9f-4d06-ad7b-254050daeab7"},"vehicle_type_id":"4","last_reported":1736867303,"current_range_meters":39200,"station_id":"ce4bhg12rcd13ifvqf80","pricing_plan_id":"cebpf4jnsgd1na2vs0mg"},{"bike_id":"962cc5cc-fec7-46f8-84df-102fbfaf51f6","system_id":"levelo_inurba_marseille","lat":43.25937,"lon":5.40904,"is_reserved":false,"is_disabled":false,"rental_uris":{"android":"levelo://app?vid=962cc5cc-fec7-46f8-84df-102fbfaf51f6","ios":"levelo://app?vid=962cc5cc-fec7-46f8-84df-102fbfaf51f6"},"vehicle_type_id":"4","last_reported":1736867303,"current_range_meters":38000,"station_id":"ce4bhm92rcd13ifvqglg","pricing_plan_id":"cebpf4jnsgd1na2vs0mg"},{"bike_id":"9290931e-4a74-4545-bd24-e372dcbb1e87","system_id":"levelo_inurba_marseille","lat":43.29714,"lon":5.37654,"is_reserved":false,"is_disabled":false,"rental_uris":{"android":"levelo://app?vid=9290931e-4a74-4545-bd24-e372dcbb1e87","ios":"levelo://app?vid=9290931e-4a74-4545-bd24-e372dcbb1e87"},"vehicle_type_id":"4","last_reported":1736867303,"current_range_meters":38800,"station_id":"ce4bgkh2rcd13ifvqbl0","pricing_plan_id":"cebpf4jnsgd1na2vs0mg"},{"bike_id":"aa1840f4-7cb1-4d87-80f9-b4bcce18869b","system_id":"levelo_inurba_marseille","lat":43.31708,"lon":5.37774,"is_reserved":false,"is_disabled":false,"rental_uris":{"android":"levelo://app?vid=aa1840f4-7cb1-4d87-80f9-b4bcce18869b","ios":"levelo://app?vid=aa1840f4-7cb1-4d87-80f9-b4bcce18869b"},"vehicle_type_id":"4","last_reported":1736867303,"current_range_meters":35600,"station_id":"ce4bgth2rcd13ifvqch0","pricing_plan_id":"cebpf4jnsgd1na2vs0mg"},{"bike_id":"3a154d79-06d4-4814-bd52-2ebbe8926e69","system_id":"levelo_inurba_marseille","lat":43.2981,"lon":5.39334,"is_reserved":false,"is_disabled":true,"rental_uris":{"android":"levelo://app?vid=3a154d79-06d4-4814-bd52-2ebbe8926e69","ios":"levelo://app?vid=3a154d79-06d4-4814-bd52-2ebbe8926e69"},"vehicle_type_id":"4","last_reported":1736867303,"current_range_meters":37600,"station_id":"chh1huq6cuj3fo74tm60","pricing_plan_id":"cebpf4jnsgd1na2vs0mg"},{"bike_id":"a6aadfbc-8907-467e-8904-bf91410ba87a","system_id":"levelo_inurba_marseille","lat":43.32354,"lon":5.38878,"is_reserved":false,"is_disabled":false,"rental_uris":{"android":"levelo://app?vid=a6aadfbc-8907-467e-8904-bf91410ba87a","ios":"levelo://app?vid=a6aadfbc-8907-467e-8904-bf91410ba87a"},"vehicle_type_id":"4","last_reported":1736867303,"current_range_meters":3600,"station_id":"ce4bhqp2rcd13ifvqhog","pricing_plan_id":"cebpf4jnsgd1na2vs0mg"},{"bike_id":"dde99e90-f142-49d5-bda5-1d67ce639c58","system_id":"levelo_inurba_marseille","lat":43.281529,"lon":5.426447,"is_reserved":false,"is_disabled":false,"rental_uris":{"android":"levelo://app?vid=dde99e90-f142-49d5-bda5-1d67ce639c58","ios":"levelo://app?vid=dde99e90-f142-49d5-bda5-1d67ce639c58"},"vehicle_type_id":"4","last_reported":1736867303,"current_range_meters":37600,"station_id":"ce4bhnh2rcd13ifvqgug","pricing_plan_id":"cebpf4jnsgd1na2vs0mg"},{"bike_id":"29e2e54c-e09c-4874-814d-50b610769643","system_id":"levelo_inurba_marseille","lat":43.30142,"lon":5.37419,"is_reserved":false,"is_disabled":false,"rental_uris":{"android":"levelo://app?vid=29e2e54c-e09c-4874-814d-50b610769643","ios":"levelo://app?vid=29e2e54c-e09c-4874-814d-50b610769643"},"vehicle_type_id":"4","last_reported":1736867303,"current_range_meters":18800,"station_id":"ce4bgs92rcd13ifvqcc0","pricing_plan_id":"cebpf4jnsgd1na2vs0mg"},{"bike_id":"e9482188-e9f9-46f9-a613-ef8ebbea057b","system_id":"levelo_inurba_marseille","lat":43.30784,"lon":5.37642,"is_reserved":false,"is_disabled":false,"rental_uris":{"android":"levelo://app?vid=e9482188-e9f9-46f9-a613-ef8ebbea057b","ios":"levelo://app?vid=e9482188-e9f9-46f9-a613-ef8ebbea057b"},"vehicle_type_id":"4","last_reported":1736867303,"current_range_meters":19200,"station_id":"ce4bgv92rcd13ifvqcq0","pricing_plan_id":"cebpf4jnsgd1na2vs0mg"},{"bike_id":"ebc3987c-56a4-4f31-8c7b-d4f7d5ee23e1","system_id":"levelo_inurba_marseille","lat":43.29612,"lon":5.38096,"is_reserved":false,"is_disabled":false,"rental_uris":{"android":"levelo://app?vid=ebc3987c-56a4-4f31-8c7b-d4f7d5ee23e1","ios":"levelo://app?vid=ebc3987c-56a4-4f31-8c7b-d4f7d5ee23e1"},"vehicle_type_id":"4","last_reported":1736867303,"current_range_meters":38800,"station_id":"ce4bgl12rcd13ifvqbo0","pricing_plan_id":"cebpf4jnsgd1na2vs0mg"},{"bike_id":"46884546-5849-49c1-8129-a7978a36c969","system_id":"levelo_inurba_marseille","lat":43.25946,"lon":5.40903,"is_reserved":false,"is_disabled":false,"rental_uris":{"android":"levelo://app?vid=46884546-5849-49c1-8129-a7978a36c969","ios":"levelo://app?vid=46884546-5849-49c1-8129-a7978a36c969"},"vehicle_type_id":"4","last_reported":1736867303,"current_range_meters":12000,"station_id":"ce4bhm92rcd13ifvqglg","pricing_plan_id":"cebpf4jnsgd1na2vs0mg"},{"bike_id":"22ac1234-0178-4f8b-ac6c-ba87658c545c","system_id":"levelo_inurba_marseille","lat":43.28852,"lon":5.35861,"is_reserved":false,"is_disabled":false,"rental_uris":{"android":"levelo://app?vid=22ac1234-0178-4f8b-ac6c-ba87658c545c","ios":"levelo://app?vid=22ac1234-0178-4f8b-ac6c-ba87658c545c"},"vehicle_type_id":"4","last_reported":1736867303,"current_range_meters":39200,"station_id":"ce4bhb12rcd13ifvqem0","pricing_plan_id":"cebpf4jnsgd1na2vs0mg"},{"bike_id":"457a9158-7289-4988-b4cf-3716f170678b","system_id":"levelo_inurba_marseille","lat":43.27563,"lon":5.38406,"is_reserved":false,"is_disabled":false,"rental_uris":{"android":"levelo://app?vid=457a9158-7289-4988-b4cf-3716f170678b","ios":"levelo://app?vid=457a9158-7289-4988-b4cf-3716f170678b"},"vehicle_type_id":"4","last_reported":1736867303,"current_range_meters":22000,"station_id":"ce4bhh92rcd13ifvqfi0","pricing_plan_id":"cebpf4jnsgd1na2vs0mg"},{"bike_id":"eaab1b00-64ea-4375-99df-db172fb0e2ca","system_id":"levelo_inurba_marseille","lat":43.28553,"lon":5.39491,"is_reserved":false,"is_disabled":false,"rental_uris":{"android":"levelo://app?vid=eaab1b00-64ea-4375-99df-db172fb0e2ca","ios":"levelo://app?vid=eaab1b00-64ea-4375-99df-db172fb0e2ca"},"vehicle_type_id":"4","last_reported":1736867303,"current_range_meters":36400,"station_id":"ce4bh292rcd13ifvqdg0","pricing_plan_id":"cebpf4jnsgd1na2vs0mg"},{"bike_id":"a402044d-1041-4786-a63f-9d18af3bc82f","system_id":"levelo_inurba_marseille","lat":43.24176,"lon":5.36401,"is_reserved":false,"is_disabled":false,"rental_uris":{"android":"levelo://app?vid=a402044d-1041-4786-a63f-9d18af3bc82f","ios":"levelo://app?vid=a402044d-1041-4786-a63f-9d18af3bc82f"},"vehicle_type_id":"4","last_reported":1736867303,"current_range_meters":38800,"station_id":"cpo36qri1sfpv3e86is0","pricing_plan_id":"cebpf4jnsgd1na2vs0mg"},{"bike_id":"2116129f-3fa3-49d5-bbfd-29ee096160e6","system_id":"levelo_inurba_marseille","lat":43.30323,"lon":5.40434,"is_reserved":false,"is_disabled":false,"rental_uris":{"android":"levelo://app?vid=2116129f-3fa3-49d5-bbfd-29ee096160e6","ios":"levelo://app?vid=2116129f-3fa3-49d5-bbfd-29ee096160e6"},"vehicle_type_id":"4","last_reported":1736867303,"current_range_meters":37600,"station_id":"ce4bh012rcd13ifvqd10","pricing_plan_id":"cebpf4jnsgd1na2vs0mg"},{"bike_id":"6b93b291-0b00-4b9e-bfd0-9bfc27cb6c48","system_id":"levelo_inurba_marseille","lat":43.26212,"lon":5.37464,"is_reserved":false,"is_disabled":false,"rental_uris":{"android":"levelo://app?vid=6b93b291-0b00-4b9e-bfd0-9bfc27cb6c48","ios":"levelo://app?vid=6b93b291-0b00-4b9e-bfd0-9bfc27cb6c48"},"vehicle_type_id":"4","last_reported":1736867303,"current_range_meters":32000,"station_id":"ce4bhgp2rcd13ifvqfc0","pricing_plan_id":"cebpf4jnsgd1na2vs0mg"},{"bike_id":"e3455df3-80ec-4626-b051-9d27b3b0a5a1","system_id":"levelo_inurba_marseille","lat":43.28719,"lon":5.37948,"is_reserved":false,"is_disabled":true,"rental_uris":{"android":"levelo://app?vid=e3455df3-80ec-4626-b051-9d27b3b0a5a1","ios":"levelo://app?vid=e3455df3-80ec-4626-b051-9d27b3b0a5a1"},"vehicle_type_id":"4","last_reported":1736867303,"current_range_meters":0,"station_id":"ce4bh9p2rcd13ifvqec0","pricing_plan_id":"cebpf4jnsgd1na2vs0mg"},{"bike_id":"aac8885d-98ab-44b5-a5e4-7f098cde586b","system_id":"levelo_inurba_marseille","lat":43.27246,"lon":5.41012,"is_reserved":false,"is_disabled":false,"rental_uris":{"android":"levelo://app?vid=aac8885d-98ab-44b5-a5e4-7f098cde586b","ios":"levelo://app?vid=aac8885d-98ab-44b5-a5e4-7f098cde586b"},"vehicle_type_id":"4","last_reported":1736867303,"current_range_meters":39200,"station_id":"ce4bhl12rcd13ifvqgf0","pricing_plan_id":"cebpf4jnsgd1na2vs0mg"},{"bike_id":"c8e997c0-8580-4d0f-8d9f-0766596381e1","system_id":"levelo_inurba_marseille","lat":43.33926,"lon":5.37568,"is_reserved":false,"is_disabled":true,"rental_uris":{"android":"levelo://app?vid=c8e997c0-8580-4d0f-8d9f-0766596381e1","ios":"levelo://app?vid=c8e997c0-8580-4d0f-8d9f-0766596381e1"},"vehicle_type_id":"4","last_reported":1736867303,"current_range_meters":0,"station_id":"","pricing_plan_id":"cebpf4jnsgd1na2vs0mg"},{"bike_id":"3984e163-10a6-47bc-a2b5-b637005bf81a","system_id":"levelo_inurba_marseille","lat":43.26558,"lon":5.37285,"is_reserved":false,"is_disabled":false,"rental_uris":{"android":"levelo://app?vid=3984e163-10a6-47bc-a2b5-b637005bf81a","ios":"levelo://app?vid=3984e163-10a6-47bc-a2b5-b637005bf81a"},"vehicle_type_id":"4","last_reported":1736867303,"current_range_meters":31200,"station_id":"ce4bhg12rcd13ifvqf70","pricing_plan_id":"cebpf4jnsgd1na2vs0mg"},{"bike_id":"ba5df164-d25c-4a1c-8679-1bd1a1db0642","system_id":"levelo_inurba_marseille","lat":43.33726,"lon":5.39182,"is_reserved":false,"is_disabled":false,"rental_uris":{"android":"levelo://app?vid=ba5df164-d25c-4a1c-8679-1bd1a1db0642","ios":"levelo://app?vid=ba5df164-d25c-4a1c-8679-1bd1a1db0642"},"vehicle_type_id":"4","last_reported":1736867303,"current_range_meters":36000,"station_id":"ce4bhr92rcd13ifvqhsg","pricing_plan_id":"cebpf4jnsgd1na2vs0mg"},{"bike_id":"6362d3e0-a01a-4bdc-92e7-ded1023a0330","system_id":"levelo_inurba_marseille","lat":43.28661,"lon":5.37938,"is_reserved":false,"is_disabled":false,"rental_uris":{"android":"levelo://app?vid=6362d3e0-a01a-4bdc-92e7-ded1023a0330","ios":"levelo://app?vid=6362d3e0-a01a-4bdc-92e7-ded1023a0330"},"vehicle_type_id":"4","last_reported":1736867303,"current_range_meters":12000,"station_id":"ce4bhjp2rcd13ifvqga0","pricing_plan_id":"cebpf4jnsgd1na2vs0mg"},{"bike_id":"4b0c9a61-893d-44b2-8f86-22412d13dd7a","system_id":"levelo_inurba_marseille","lat":43.28271,"lon":5.35065,"is_reserved":false,"is_disabled":false,"rental_uris":{"android":"levelo://app?vid=4b0c9a61-893d-44b2-8f86-22412d13dd7a","ios":"levelo://app?vid=4b0c9a61-893d-44b2-8f86-22412d13dd7a"},"vehicle_type_id":"4","last_reported":1736867303,"current_range_meters":38800,"station_id":"ce4bhbp2rcd13ifvqerg","pricing_plan_id":"cebpf4jnsgd1na2vs0mg"},{"bike_id":"c0864203-b7cc-4899-90cd-4baf26325c05","system_id":"levelo_inurba_marseille","lat":43.26222,"lon":5.3747,"is_reserved":false,"is_disabled":false,"rental_uris":{"android":"levelo://app?vid=c0864203-b7cc-4899-90cd-4baf26325c05","ios":"levelo://app?vid=c0864203-b7cc-4899-90cd-4baf26325c05"},"vehicle_type_id":"4","last_reported":1736867303,"current_range_meters":24400,"station_id":"ce4bhgp2rcd13ifvqfc0","pricing_plan_id":"cebpf4jnsgd1na2vs0mg"},{"bike_id":"24096fbd-bb0a-41b0-83e0-5e64405cda45","system_id":"levelo_inurba_marseille","lat":43.31997,"lon":5.38149,"is_reserved":false,"is_disabled":false,"rental_uris":{"android":"levelo://app?vid=24096fbd-bb0a-41b0-83e0-5e64405cda45","ios":"levelo://app?vid=24096fbd-bb0a-41b0-83e0-5e64405cda45"},"vehicle_type_id":"4","last_reported":1736867303,"current_range_meters":38800,"station_id":"ce4bhr12rcd13ifvqhpg","pricing_plan_id":"cebpf4jnsgd1na2vs0mg"},{"bike_id":"3e76b52b-ae3b-4425-a3c6-32e8f560a2db","system_id":"levelo_inurba_marseille","lat":43.26683,"lon":5.38265,"is_reserved":false,"is_disabled":false,"rental_uris":{"android":"levelo://app?vid=3e76b52b-ae3b-4425-a3c6-32e8f560a2db","ios":"levelo://app?vid=3e76b52b-ae3b-4425-a3c6-32e8f560a2db"},"vehicle_type_id":"4","last_reported":1736867303,"current_range_meters":36400,"station_id":"ce4bhg92rcd13ifvqf90","pricing_plan_id":"cebpf4jnsgd1na2vs0mg"},{"bike_id":"04986ff4-3407-4fb3-9d06-5879f3834dbb","system_id":"levelo_inurba_marseille","lat":43.32483,"lon":5.36569,"is_reserved":false,"is_disabled":false,"rental_uris":{"android":"levelo://app?vid=04986ff4-3407-4fb3-9d06-5879f3834dbb","ios":"levelo://app?vid=04986ff4-3407-4fb3-9d06-5879f3834dbb"},"vehicle_type_id":"4","last_reported":1736867303,"current_range_meters":28000,"station_id":"ce4bhs12rcd13ifvqhvg","pricing_plan_id":"cebpf4jnsgd1na2vs0mg"},{"bike_id":"4c97236a-c75c-4110-ad92-8bd9b832d8f4","system_id":"levelo_inurba_marseille","lat":43.29808,"lon":5.40406,"is_reserved":false,"is_disabled":false,"rental_uris":{"android":"levelo://app?vid=4c97236a-c75c-4110-ad92-8bd9b832d8f4","ios":"levelo://app?vid=4c97236a-c75c-4110-ad92-8bd9b832d8f4"},"vehicle_type_id":"4","last_reported":1736867303,"current_range_meters":38800,"station_id":"ce4bh112rcd13ifvqd90","pricing_plan_id":"cebpf4jnsgd1na2vs0mg"},{"bike_id":"0d49f941-0838-4393-bbb8-6c685ac79728","system_id":"levelo_inurba_marseille","lat":43.30883,"lon":5.37193,"is_reserved":false,"is_disabled":false,"rental_uris":{"android":"levelo://app?vid=0d49f941-0838-4393-bbb8-6c685ac79728","ios":"levelo://app?vid=0d49f941-0838-4393-bbb8-6c685ac79728"},"vehicle_type_id":"4","last_reported":1736867303,"current_range_meters":38800,"station_id":"ce4bguh2rcd13ifvqckg","pricing_plan_id":"cebpf4jnsgd1na2vs0mg"},{"bike_id":"59d914a9-7941-4d0c-ad3f-66ae0befc663","system_id":"levelo_inurba_marseille","lat":43.280306,"lon":5.36959,"is_reserved":false,"is_disabled":false,"rental_uris":{"android":"levelo://app?vid=59d914a9-7941-4d0c-ad3f-66ae0befc663","ios":"levelo://app?vid=59d914a9-7941-4d0c-ad3f-66ae0befc663"},"vehicle_type_id":"4","last_reported":1736867303,"current_range_meters":8000,"station_id":"ce4bha12rcd13ifvqef0","pricing_plan_id":"cebpf4jnsgd1na2vs0mg"},{"bike_id":"e9ddb0fd-25b5-4380-b7cd-6db0463f30c2","system_id":"levelo_inurba_marseille","lat":43.25584,"lon":5.3823,"is_reserved":false,"is_disabled":false,"rental_uris":{"android":"levelo://app?vid=e9ddb0fd-25b5-4380-b7cd-6db0463f30c2","ios":"levelo://app?vid=e9ddb0fd-25b5-4380-b7cd-6db0463f30c2"},"vehicle_type_id":"4","last_reported":1736867303,"current_range_meters":12000,"station_id":"ce4bhih2rcd13ifvqfs0","pricing_plan_id":"cebpf4jnsgd1na2vs0mg"},{"bike_id":"426ee80e-06b0-4d0f-86a5-ea8ad64aaa11","system_id":"levelo_inurba_marseille","lat":43.28917,"lon":5.43754,"is_reserved":false,"is_disabled":false,"rental_uris":{"android":"levelo://app?vid=426ee80e-06b0-4d0f-86a5-ea8ad64aaa11","ios":"levelo://app?vid=426ee80e-06b0-4d0f-86a5-ea8ad64aaa11"},"vehicle_type_id":"4","last_reported":1736867303,"current_range_meters":5600,"station_id":"","pricing_plan_id":"cebpf4jnsgd1na2vs0mg"},{"bike_id":"ed9ac0a0-38f4-40b1-a971-7578505d6879","system_id":"levelo_inurba_marseille","lat":43.302,"lon":5.39466,"is_reserved":false,"is_disabled":false,"rental_uris":{"android":"levelo://app?vid=ed9ac0a0-38f4-40b1-a971-7578505d6879","ios":"levelo://app?vid=ed9ac0a0-38f4-40b1-a971-7578505d6879"},"vehicle_type_id":"4","last_reported":1736867303,"current_range_meters":36800,"station_id":"ce4bh0p2rcd13ifvqd70","pricing_plan_id":"cebpf4jnsgd1na2vs0mg"},{"bike_id":"192943ff-6579-4067-8b54-834fbf6d8760","system_id":"levelo_inurba_marseille","lat":43.27623,"lon":5.3612,"is_reserved":false,"is_disabled":false,"rental_uris":{"android":"levelo://app?vid=192943ff-6579-4067-8b54-834fbf6d8760","ios":"levelo://app?vid=192943ff-6579-4067-8b54-834fbf6d8760"},"vehicle_type_id":"4","last_reported":1736867303,"current_range_meters":38800,"station_id":"ce4bgj92rcd13ifvqbe0","pricing_plan_id":"cebpf4jnsgd1na2vs0mg"},{"bike_id":"fea1b24d-bbfb-474a-b028-8645483cd7e6","system_id":"levelo_inurba_marseille","lat":43.27377,"lon":5.36249,"is_reserved":false,"is_disabled":true,"rental_uris":{"android":"levelo://app?vid=fea1b24d-bbfb-474a-b028-8645483cd7e6","ios":"levelo://app?vid=fea1b24d-bbfb-474a-b028-8645483cd7e6"},"vehicle_type_id":"4","last_reported":1736867303,"current_range_meters":0,"station_id":"ce4bhbh2rcd13ifvqeo0","pricing_plan_id":"cebpf4jnsgd1na2vs0mg"},{"bike_id":"8f3bb94f-40ef-484c-aef4-e8e44b224894","system_id":"levelo_inurba_marseille","lat":43.31489,"lon":5.37305,"is_reserved":false,"is_disabled":false,"rental_uris":{"android":"levelo://app?vid=8f3bb94f-40ef-484c-aef4-e8e44b224894","ios":"levelo://app?vid=8f3bb94f-40ef-484c-aef4-e8e44b224894"},"vehicle_type_id":"4","last_reported":1736867303,"current_range_meters":25200,"station_id":"ce4bgt12rcd13ifvqcd0","pricing_plan_id":"cebpf4jnsgd1na2vs0mg"},{"bike_id":"53bddfd5-8eca-4bd7-8e12-0305c19464d8","system_id":"levelo_inurba_marseille","lat":43.28045,"lon":5.36947,"is_reserved":false,"is_disabled":false,"rental_uris":{"android":"levelo://app?vid=53bddfd5-8eca-4bd7-8e12-0305c19464d8","ios":"levelo://app?vid=53bddfd5-8eca-4bd7-8e12-0305c19464d8"},"vehicle_type_id":"4","last_reported":1736867303,"current_range_meters":28800,"station_id":"ce4bha12rcd13ifvqef0","pricing_plan_id":"cebpf4jnsgd1na2vs0mg"},{"bike_id":"35308051-0024-4acc-857e-6a6380a237b9","system_id":"levelo_inurba_marseille","lat":43.2953,"lon":5.37497,"is_reserved":false,"is_disabled":false,"rental_uris":{"android":"levelo://app?vid=35308051-0024-4acc-857e-6a6380a237b9","ios":"levelo://app?vid=35308051-0024-4acc-857e-6a6380a237b9"},"vehicle_type_id":"4","last_reported":1736867303,"current_range_meters":38800,"station_id":"ce4bgkp2rcd13ifvqbmg","pricing_plan_id":"cebpf4jnsgd1na2vs0mg"},{"bike_id":"c0c28c2a-168a-40f0-bd78-2ea6392233b5","system_id":"levelo_inurba_marseille","lat":43.28676,"lon":5.36348,"is_reserved":false,"is_disabled":false,"rental_uris":{"android":"levelo://app?vid=c0c28c2a-168a-40f0-bd78-2ea6392233b5","ios":"levelo://app?vid=c0c28c2a-168a-40f0-bd78-2ea6392233b5"},"vehicle_type_id":"4","last_reported":1736867303,"current_range_meters":36400,"station_id":"ce4bhah2rcd13ifvqej0","pricing_plan_id":"cebpf4jnsgd1na2vs0mg"},{"bike_id":"1774f8b0-c7aa-4f17-81a0-ace9f349859b","system_id":"levelo_inurba_marseille","lat":43.29636,"lon":5.37199,"is_reserved":false,"is_disabled":false,"rental_uris":{"android":"levelo://app?vid=1774f8b0-c7aa-4f17-81a0-ace9f349859b","ios":"levelo://app?vid=1774f8b0-c7aa-4f17-81a0-ace9f349859b"},"vehicle_type_id":"4","last_reported":1736867303,"current_range_meters":39200,"station_id":"ce4bgnh2rcd13ifvqc0g","pricing_plan_id":"cebpf4jnsgd1na2vs0mg"},{"bike_id":"33948cef-159b-4075-a8c4-dd4eee89856a","system_id":"levelo_inurba_marseille","lat":43.23179,"lon":5.39987,"is_reserved":false,"is_disabled":false,"rental_uris":{"android":"levelo://app?vid=33948cef-159b-4075-a8c4-dd4eee89856a","ios":"levelo://app?vid=33948cef-159b-4075-a8c4-dd4eee89856a"},"vehicle_type_id":"4","last_reported":1736867303,"current_range_meters":27200,"station_id":"ce4bhn12rcd13ifvqgqg","pricing_plan_id":"cebpf4jnsgd1na2vs0mg"},{"bike_id":"29898e07-553d-4513-9529-7f3246098919","system_id":"levelo_inurba_marseille","lat":43.29014,"lon":5.35605,"is_reserved":false,"is_disabled":false,"rental_uris":{"android":"levelo://app?vid=29898e07-553d-4513-9529-7f3246098919","ios":"levelo://app?vid=29898e07-553d-4513-9529-7f3246098919"},"vehicle_type_id":"4","last_reported":1736867303,"current_range_meters":38000,"station_id":"ce4bhb92rcd13ifvqen0","pricing_plan_id":"cebpf4jnsgd1na2vs0mg"},{"bike_id":"4f5f61c6-4d7b-4249-b6c7-8167fdeefc38","system_id":"levelo_inurba_marseille","lat":43.29031,"lon":5.37562,"is_reserved":false,"is_disabled":false,"rental_uris":{"android":"levelo://app?vid=4f5f61c6-4d7b-4249-b6c7-8167fdeefc38","ios":"levelo://app?vid=4f5f61c6-4d7b-4249-b6c7-8167fdeefc38"},"vehicle_type_id":"4","last_reported":1736867303,"current_range_meters":24400,"station_id":"ce4bh692rcd13ifvqe90","pricing_plan_id":"cebpf4jnsgd1na2vs0mg"},{"bike_id":"a85ab051-a849-4b97-9bdb-50a77d35ac94","system_id":"levelo_inurba_marseille","lat":43.25494,"lon":5.37651,"is_reserved":false,"is_disabled":false,"rental_uris":{"android":"levelo://app?vid=a85ab051-a849-4b97-9bdb-50a77d35ac94","ios":"levelo://app?vid=a85ab051-a849-4b97-9bdb-50a77d35ac94"},"vehicle_type_id":"4","last_reported":1736867303,"current_range_meters":22400,"station_id":"ce4bhh12rcd13ifvqff0","pricing_plan_id":"cebpf4jnsgd1na2vs0mg"},{"bike_id":"9f6f071c-7c59-4d08-9963-df26a1256e44","system_id":"levelo_inurba_marseille","lat":43.24649,"lon":5.38923,"is_reserved":false,"is_disabled":false,"rental_uris":{"android":"levelo://app?vid=9f6f071c-7c59-4d08-9963-df26a1256e44","ios":"levelo://app?vid=9f6f071c-7c59-4d08-9963-df26a1256e44"},"vehicle_type_id":"4","last_reported":1736867303,"current_range_meters":38800,"station_id":"ce4bhg12rcd13ifvqf60","pricing_plan_id":"cebpf4jnsgd1na2vs0mg"},{"bike_id":"7c66e748-739e-4a7c-8a36-5827340d5287","system_id":"levelo_inurba_marseille","lat":43.29804,"lon":5.3808,"is_reserved":false,"is_disabled":false,"rental_uris":{"android":"levelo://app?vid=7c66e748-739e-4a7c-8a36-5827340d5287","ios":"levelo://app?vid=7c66e748-739e-4a7c-8a36-5827340d5287"},"vehicle_type_id":"4","last_reported":1736867303,"current_range_meters":30800,"station_id":"ce4bgip2rcd13ifvqbb0","pricing_plan_id":"cebpf4jnsgd1na2vs0mg"},{"bike_id":"37fa7fa0-ff05-4067-ae08-29f3a1f9c50d","system_id":"levelo_inurba_marseille","lat":43.29799,"lon":5.38089,"is_reserved":false,"is_disabled":false,"rental_uris":{"android":"levelo://app?vid=37fa7fa0-ff05-4067-ae08-29f3a1f9c50d","ios":"levelo://app?vid=37fa7fa0-ff05-4067-ae08-29f3a1f9c50d"},"vehicle_type_id":"4","last_reported":1736867303,"current_range_meters":22000,"station_id":"ce4bgip2rcd13ifvqbb0","pricing_plan_id":"cebpf4jnsgd1na2vs0mg"},{"bike_id":"ade1ffd7-379f-44ee-93e1-8c261178e187","system_id":"levelo_inurba_marseille","lat":43.24798,"lon":5.37457,"is_reserved":false,"is_disabled":false,"rental_uris":{"android":"levelo://app?vid=ade1ffd7-379f-44ee-93e1-8c261178e187","ios":"levelo://app?vid=ade1ffd7-379f-44ee-93e1-8c261178e187"},"vehicle_type_id":"4","last_reported":1736867303,"current_range_meters":20000,"station_id":"ce4bhgh2rcd13ifvqfb0","pricing_plan_id":"cebpf4jnsgd1na2vs0mg"},{"bike_id":"cd25e19f-7a55-40f6-85a1-11e510ad9879","system_id":"levelo_inurba_marseille","lat":43.28566,"lon":5.39494,"is_reserved":false,"is_disabled":false,"rental_uris":{"android":"levelo://app?vid=cd25e19f-7a55-40f6-85a1-11e510ad9879","ios":"levelo://app?vid=cd25e19f-7a55-40f6-85a1-11e510ad9879"},"vehicle_type_id":"4","last_reported":1736867303,"current_range_meters":8000,"station_id":"ce4bh292rcd13ifvqdg0","pricing_plan_id":"cebpf4jnsgd1na2vs0mg"},{"bike_id":"5fb3f033-f227-4a16-8501-98b0bcd8d597","system_id":"levelo_inurba_marseille","lat":43.32668,"lon":5.40989,"is_reserved":false,"is_disabled":false,"rental_uris":{"android":"levelo://app?vid=5fb3f033-f227-4a16-8501-98b0bcd8d597","ios":"levelo://app?vid=5fb3f033-f227-4a16-8501-98b0bcd8d597"},"vehicle_type_id":"4","last_reported":1736867303,"current_range_meters":16000,"station_id":"ce4bhpp2rcd13ifvqhgg","pricing_plan_id":"cebpf4jnsgd1na2vs0mg"},{"bike_id":"755e5c0a-8de7-4ee5-9d4e-5ec609711170","system_id":"levelo_inurba_marseille","lat":43.29616,"lon":5.38102,"is_reserved":false,"is_disabled":true,"rental_uris":{"android":"levelo://app?vid=755e5c0a-8de7-4ee5-9d4e-5ec609711170","ios":"levelo://app?vid=755e5c0a-8de7-4ee5-9d4e-5ec609711170"},"vehicle_type_id":"4","last_reported":1736867303,"current_range_meters":30400,"station_id":"ce4bgl12rcd13ifvqbo0","pricing_plan_id":"cebpf4jnsgd1na2vs0mg"},{"bike_id":"6a6a47eb-e8fa-46dc-970a-58e9a1a1aec7","system_id":"levelo_inurba_marseille","lat":43.29356,"lon":5.3783,"is_reserved":false,"is_disabled":false,"rental_uris":{"android":"levelo://app?vid=6a6a47eb-e8fa-46dc-970a-58e9a1a1aec7","ios":"levelo://app?vid=6a6a47eb-e8fa-46dc-970a-58e9a1a1aec7"},"vehicle_type_id":"4","last_reported":1736867303,"current_range_meters":38800,"station_id":"ce4bgjh2rcd13ifvqbf0","pricing_plan_id":"cebpf4jnsgd1na2vs0mg"},{"bike_id":"cc9cf4e4-bd05-4828-9c34-27bb5e5951f4","system_id":"levelo_inurba_marseille","lat":43.25971,"lon":5.40985,"is_reserved":false,"is_disabled":false,"rental_uris":{"android":"levelo://app?vid=cc9cf4e4-bd05-4828-9c34-27bb5e5951f4","ios":"levelo://app?vid=cc9cf4e4-bd05-4828-9c34-27bb5e5951f4"},"vehicle_type_id":"4","last_reported":1736867303,"current_range_meters":3600,"station_id":"","pricing_plan_id":"cebpf4jnsgd1na2vs0mg"},{"bike_id":"a15980ac-c225-4e68-8982-6cc8c4cbfd79","system_id":"levelo_inurba_marseille","lat":43.231854,"lon":5.355611,"is_reserved":false,"is_disabled":false,"rental_uris":{"android":"levelo://app?vid=a15980ac-c225-4e68-8982-6cc8c4cbfd79","ios":"levelo://app?vid=a15980ac-c225-4e68-8982-6cc8c4cbfd79"},"vehicle_type_id":"4","last_reported":1736867303,"current_range_meters":6400,"station_id":"ce4bhu92rcd13ifvqi70","pricing_plan_id":"cebpf4jnsgd1na2vs0mg"},{"bike_id":"641b33d1-7188-42f2-bbd1-f10e2c1146fe","system_id":"levelo_inurba_marseille","lat":43.28672,"lon":5.36347,"is_reserved":false,"is_disabled":false,"rental_uris":{"android":"levelo://app?vid=641b33d1-7188-42f2-bbd1-f10e2c1146fe","ios":"levelo://app?vid=641b33d1-7188-42f2-bbd1-f10e2c1146fe"},"vehicle_type_id":"4","last_reported":1736867303,"current_range_meters":19600,"station_id":"ce4bhah2rcd13ifvqej0","pricing_plan_id":"cebpf4jnsgd1na2vs0mg"},{"bike_id":"665d259b-317d-40f1-b909-db8fa31f6b35","system_id":"levelo_inurba_marseille","lat":43.28436,"lon":5.39187,"is_reserved":false,"is_disabled":false,"rental_uris":{"android":"levelo://app?vid=665d259b-317d-40f1-b909-db8fa31f6b35","ios":"levelo://app?vid=665d259b-317d-40f1-b909-db8fa31f6b35"},"vehicle_type_id":"4","last_reported":1736867303,"current_range_meters":30000,"station_id":"ce4bhoh2rcd13ifvqh5g","pricing_plan_id":"cebpf4jnsgd1na2vs0mg"},{"bike_id":"58db1729-d720-429e-a5b0-01f841a4111b","system_id":"levelo_inurba_marseille","lat":43.29364,"lon":5.37833,"is_reserved":false,"is_disabled":false,"rental_uris":{"android":"levelo://app?vid=58db1729-d720-429e-a5b0-01f841a4111b","ios":"levelo://app?vid=58db1729-d720-429e-a5b0-01f841a4111b"},"vehicle_type_id":"4","last_reported":1736867303,"current_range_meters":38800,"station_id":"ce4bgjh2rcd13ifvqbf0","pricing_plan_id":"cebpf4jnsgd1na2vs0mg"},{"bike_id":"1553599e-6810-4423-9490-79f154d8a962","system_id":"levelo_inurba_marseille","lat":43.29716,"lon":5.37642,"is_reserved":false,"is_disabled":false,"rental_uris":{"android":"levelo://app?vid=1553599e-6810-4423-9490-79f154d8a962","ios":"levelo://app?vid=1553599e-6810-4423-9490-79f154d8a962"},"vehicle_type_id":"4","last_reported":1736867303,"current_range_meters":27600,"station_id":"ce4bgkh2rcd13ifvqbl0","pricing_plan_id":"cebpf4jnsgd1na2vs0mg"},{"bike_id":"3f404148-f2c7-44b8-a466-977741fe2f8d","system_id":"levelo_inurba_marseille","lat":43.27918,"lon":5.39576,"is_reserved":false,"is_disabled":false,"rental_uris":{"android":"levelo://app?vid=3f404148-f2c7-44b8-a466-977741fe2f8d","ios":"levelo://app?vid=3f404148-f2c7-44b8-a466-977741fe2f8d"},"vehicle_type_id":"4","last_reported":1736867303,"current_range_meters":28800,"station_id":"ce4bhf92rcd13ifvqf40","pricing_plan_id":"cebpf4jnsgd1na2vs0mg"},{"bike_id":"9616601e-4bf2-40cf-b683-7530143e1fa7","system_id":"levelo_inurba_marseille","lat":43.26952,"lon":5.38631,"is_reserved":false,"is_disabled":false,"rental_uris":{"android":"levelo://app?vid=9616601e-4bf2-40cf-b683-7530143e1fa7","ios":"levelo://app?vid=9616601e-4bf2-40cf-b683-7530143e1fa7"},"vehicle_type_id":"4","last_reported":1736867303,"current_range_meters":38800,"station_id":"ce4bhh92rcd13ifvqfh0","pricing_plan_id":"cebpf4jnsgd1na2vs0mg"},{"bike_id":"8bbee6d9-283a-4e88-8290-c90cf2dc52eb","system_id":"levelo_inurba_marseille","lat":43.28407,"lon":5.37504,"is_reserved":false,"is_disabled":false,"rental_uris":{"android":"levelo://app?vid=8bbee6d9-283a-4e88-8290-c90cf2dc52eb","ios":"levelo://app?vid=8bbee6d9-283a-4e88-8290-c90cf2dc52eb"},"vehicle_type_id":"4","last_reported":1736867303,"current_range_meters":24400,"station_id":"ce4bh412rcd13ifvqds0","pricing_plan_id":"cebpf4jnsgd1na2vs0mg"},{"bike_id":"e37b8d0a-fb99-491e-adfa-c0a2653cd732","system_id":"levelo_inurba_marseille","lat":43.2758,"lon":5.38438,"is_reserved":false,"is_disabled":false,"rental_uris":{"android":"levelo://app?vid=e37b8d0a-fb99-491e-adfa-c0a2653cd732","ios":"levelo://app?vid=e37b8d0a-fb99-491e-adfa-c0a2653cd732"},"vehicle_type_id":"4","last_reported":1736867303,"current_range_meters":39200,"station_id":"ce4bhh92rcd13ifvqfi0","pricing_plan_id":"cebpf4jnsgd1na2vs0mg"},{"bike_id":"51bb6953-dea8-4e82-96bf-52696267905f","system_id":"levelo_inurba_marseille","lat":43.23078,"lon":5.35508,"is_reserved":false,"is_disabled":false,"rental_uris":{"android":"levelo://app?vid=51bb6953-dea8-4e82-96bf-52696267905f","ios":"levelo://app?vid=51bb6953-dea8-4e82-96bf-52696267905f"},"vehicle_type_id":"4","last_reported":1736867303,"current_range_meters":8400,"station_id":"cpo3342slgdg3j2ifvpg","pricing_plan_id":"cebpf4jnsgd1na2vs0mg"},{"bike_id":"b4d2fb64-79fe-432f-80df-64b6718d9f84","system_id":"levelo_inurba_marseille","lat":43.24642,"lon":5.38912,"is_reserved":false,"is_disabled":false,"rental_uris":{"android":"levelo://app?vid=b4d2fb64-79fe-432f-80df-64b6718d9f84","ios":"levelo://app?vid=b4d2fb64-79fe-432f-80df-64b6718d9f84"},"vehicle_type_id":"4","last_reported":1736867303,"current_range_meters":6400,"station_id":"ce4bhg12rcd13ifvqf60","pricing_plan_id":"cebpf4jnsgd1na2vs0mg"},{"bike_id":"c1434ca4-858b-46bc-8b22-070234c392d0","system_id":"levelo_inurba_marseille","lat":43.2926,"lon":5.40901,"is_reserved":false,"is_disabled":false,"rental_uris":{"android":"levelo://app?vid=c1434ca4-858b-46bc-8b22-070234c392d0","ios":"levelo://app?vid=c1434ca4-858b-46bc-8b22-070234c392d0"},"vehicle_type_id":"4","last_reported":1736867303,"current_range_meters":38400,"station_id":"ce4bh192rcd13ifvqdc0","pricing_plan_id":"cebpf4jnsgd1na2vs0mg"},{"bike_id":"90cb212b-4e63-4dee-beed-1b9e172f9bf0","system_id":"levelo_inurba_marseille","lat":43.306471,"lon":5.400936,"is_reserved":false,"is_disabled":false,"rental_uris":{"android":"levelo://app?vid=90cb212b-4e63-4dee-beed-1b9e172f9bf0","ios":"levelo://app?vid=90cb212b-4e63-4dee-beed-1b9e172f9bf0"},"vehicle_type_id":"4","last_reported":1736867303,"current_range_meters":29600,"station_id":"ce4bh112rcd13ifvqda0","pricing_plan_id":"cebpf4jnsgd1na2vs0mg"},{"bike_id":"8d7c0853-4014-4978-9094-18f4b823cfce","system_id":"levelo_inurba_marseille","lat":43.28929,"lon":5.38381,"is_reserved":false,"is_disabled":false,"rental_uris":{"android":"levelo://app?vid=8d7c0853-4014-4978-9094-18f4b823cfce","ios":"levelo://app?vid=8d7c0853-4014-4978-9094-18f4b823cfce"},"vehicle_type_id":"4","last_reported":1736867303,"current_range_meters":30400,"station_id":"ce4bh612rcd13ifvqe6g","pricing_plan_id":"cebpf4jnsgd1na2vs0mg"},{"bike_id":"65cbab62-cd10-477d-9b20-6bec64440c10","system_id":"levelo_inurba_marseille","lat":43.29793,"lon":5.3934,"is_reserved":false,"is_disabled":false,"rental_uris":{"android":"levelo://app?vid=65cbab62-cd10-477d-9b20-6bec64440c10","ios":"levelo://app?vid=65cbab62-cd10-477d-9b20-6bec64440c10"},"vehicle_type_id":"4","last_reported":1736867303,"current_range_meters":34000,"station_id":"chh1huq6cuj3fo74tm60","pricing_plan_id":"cebpf4jnsgd1na2vs0mg"},{"bike_id":"3949fb0a-4091-4b98-b55c-cd98f515ad82","system_id":"levelo_inurba_marseille","lat":43.29298,"lon":5.36858,"is_reserved":false,"is_disabled":false,"rental_uris":{"android":"levelo://app?vid=3949fb0a-4091-4b98-b55c-cd98f515ad82","ios":"levelo://app?vid=3949fb0a-4091-4b98-b55c-cd98f515ad82"},"vehicle_type_id":"4","last_reported":1736867303,"current_range_meters":14400,"station_id":"ce4bhbp2rcd13ifvqesg","pricing_plan_id":"cebpf4jnsgd1na2vs0mg"},{"bike_id":"399477ae-0fdc-4fd6-a2ff-431430209881","system_id":"levelo_inurba_marseille","lat":43.25582,"lon":5.38232,"is_reserved":false,"is_disabled":false,"rental_uris":{"android":"levelo://app?vid=399477ae-0fdc-4fd6-a2ff-431430209881","ios":"levelo://app?vid=399477ae-0fdc-4fd6-a2ff-431430209881"},"vehicle_type_id":"4","last_reported":1736867303,"current_range_meters":6800,"station_id":"ce4bhih2rcd13ifvqfs0","pricing_plan_id":"cebpf4jnsgd1na2vs0mg"},{"bike_id":"ff72e976-1c75-4776-867b-f0f6a0ccfc1b","system_id":"levelo_inurba_marseille","lat":43.24805,"lon":5.37448,"is_reserved":false,"is_disabled":false,"rental_uris":{"android":"levelo://app?vid=ff72e976-1c75-4776-867b-f0f6a0ccfc1b","ios":"levelo://app?vid=ff72e976-1c75-4776-867b-f0f6a0ccfc1b"},"vehicle_type_id":"4","last_reported":1736867303,"current_range_meters":7200,"station_id":"ce4bhgh2rcd13ifvqfb0","pricing_plan_id":"cebpf4jnsgd1na2vs0mg"},{"bike_id":"015308f0-497d-4bb8-8fcb-ed1a4ee98542","system_id":"levelo_inurba_marseille","lat":43.24557,"lon":5.39525,"is_reserved":false,"is_disabled":false,"rental_uris":{"android":"levelo://app?vid=015308f0-497d-4bb8-8fcb-ed1a4ee98542","ios":"levelo://app?vid=015308f0-497d-4bb8-8fcb-ed1a4ee98542"},"vehicle_type_id":"4","last_reported":1736867303,"current_range_meters":37600,"station_id":"ce4bhlp2rcd13ifvqgjg","pricing_plan_id":"cebpf4jnsgd1na2vs0mg"},{"bike_id":"56a37990-c381-414a-8c27-59f20eae88ce","system_id":"levelo_inurba_marseille","lat":43.25017,"lon":5.38945,"is_reserved":false,"is_disabled":false,"rental_uris":{"android":"levelo://app?vid=56a37990-c381-414a-8c27-59f20eae88ce","ios":"levelo://app?vid=56a37990-c381-414a-8c27-59f20eae88ce"},"vehicle_type_id":"4","last_reported":1736867303,"current_range_meters":39200,"station_id":"ce4bhgp2rcd13ifvqfd0","pricing_plan_id":"cebpf4jnsgd1na2vs0mg"},{"bike_id":"db99ae73-f72a-4736-a520-3f4f930e38f6","system_id":"levelo_inurba_marseille","lat":43.32292,"lon":5.38269,"is_reserved":false,"is_disabled":false,"rental_uris":{"android":"levelo://app?vid=db99ae73-f72a-4736-a520-3f4f930e38f6","ios":"levelo://app?vid=db99ae73-f72a-4736-a520-3f4f930e38f6"},"vehicle_type_id":"4","last_reported":1736867303,"current_range_meters":25600,"station_id":"ce4bhr12rcd13ifvqhqg","pricing_plan_id":"cebpf4jnsgd1na2vs0mg"},{"bike_id":"b328758c-1306-4f48-9fa3-7f9b48fccfe1","system_id":"levelo_inurba_marseille","lat":43.23192,"lon":5.39971,"is_reserved":false,"is_disabled":false,"rental_uris":{"android":"levelo://app?vid=b328758c-1306-4f48-9fa3-7f9b48fccfe1","ios":"levelo://app?vid=b328758c-1306-4f48-9fa3-7f9b48fccfe1"},"vehicle_type_id":"4","last_reported":1736867303,"current_range_meters":18800,"station_id":"ce4bhn12rcd13ifvqgqg","pricing_plan_id":"cebpf4jnsgd1na2vs0mg"},{"bike_id":"a56bdef2-14b8-4e02-b3bc-538917283971","system_id":"levelo_inurba_marseille","lat":43.25088,"lon":5.39515,"is_reserved":false,"is_disabled":false,"rental_uris":{"android":"levelo://app?vid=a56bdef2-14b8-4e02-b3bc-538917283971","ios":"levelo://app?vid=a56bdef2-14b8-4e02-b3bc-538917283971"},"vehicle_type_id":"4","last_reported":1736867303,"current_range_meters":31200,"station_id":"ce4bhm12rcd13ifvqgkg","pricing_plan_id":"cebpf4jnsgd1na2vs0mg"},{"bike_id":"94b531fd-b9b9-4b9b-815c-cde89557e918","system_id":"levelo_inurba_marseille","lat":43.27682,"lon":5.38902,"is_reserved":false,"is_disabled":false,"rental_uris":{"android":"levelo://app?vid=94b531fd-b9b9-4b9b-815c-cde89557e918","ios":"levelo://app?vid=94b531fd-b9b9-4b9b-815c-cde89557e918"},"vehicle_type_id":"4","last_reported":1736867303,"current_range_meters":38800,"station_id":"ce4bhi12rcd13ifvqfo0","pricing_plan_id":"cebpf4jnsgd1na2vs0mg"},{"bike_id":"a4383266-3d03-4d52-8804-298b8beaefaf","system_id":"levelo_inurba_marseille","lat":43.23961,"lon":5.36628,"is_reserved":false,"is_disabled":false,"rental_uris":{"android":"levelo://app?vid=a4383266-3d03-4d52-8804-298b8beaefaf","ios":"levelo://app?vid=a4383266-3d03-4d52-8804-298b8beaefaf"},"vehicle_type_id":"4","last_reported":1736867303,"current_range_meters":24400,"station_id":"ce4bhi12rcd13ifvqfp0","pricing_plan_id":"cebpf4jnsgd1na2vs0mg"},{"bike_id":"755ed75e-09ba-4fca-a3aa-4c41fc89f622","system_id":"levelo_inurba_marseille","lat":43.29165,"lon":5.37153,"is_reserved":false,"is_disabled":false,"rental_uris":{"android":"levelo://app?vid=755ed75e-09ba-4fca-a3aa-4c41fc89f622","ios":"levelo://app?vid=755ed75e-09ba-4fca-a3aa-4c41fc89f622"},"vehicle_type_id":"4","last_reported":1736867303,"current_range_meters":28800,"station_id":"ce4bha92rcd13ifvqeh0","pricing_plan_id":"cebpf4jnsgd1na2vs0mg"},{"bike_id":"835aabc0-9c98-4d76-bb79-380bc69b249f","system_id":"levelo_inurba_marseille","lat":43.298921,"lon":5.436636,"is_reserved":false,"is_disabled":false,"rental_uris":{"android":"levelo://app?vid=835aabc0-9c98-4d76-bb79-380bc69b249f","ios":"levelo://app?vid=835aabc0-9c98-4d76-bb79-380bc69b249f"},"vehicle_type_id":"4","last_reported":1736867303,"current_range_meters":24000,"station_id":"ce4bhpp2rcd13ifvqhfg","pricing_plan_id":"cebpf4jnsgd1na2vs0mg"},{"bike_id":"b51b8509-c21e-40ac-802b-edd56e55cdd0","system_id":"levelo_inurba_marseille","lat":43.30367,"lon":5.41887,"is_reserved":false,"is_disabled":true,"rental_uris":{"android":"levelo://app?vid=b51b8509-c21e-40ac-802b-edd56e55cdd0","ios":"levelo://app?vid=b51b8509-c21e-40ac-802b-edd56e55cdd0"},"vehicle_type_id":"4","last_reported":1736867303,"current_range_meters":20000,"station_id":"ce4bhop2rcd13ifvqh7g","pricing_plan_id":"cebpf4jnsgd1na2vs0mg"},{"bike_id":"d030117a-329d-49a3-82e2-e3a7704fa15c","system_id":"levelo_inurba_marseille","lat":43.28266,"lon":5.35066,"is_reserved":false,"is_disabled":false,"rental_uris":{"android":"levelo://app?vid=d030117a-329d-49a3-82e2-e3a7704fa15c","ios":"levelo://app?vid=d030117a-329d-49a3-82e2-e3a7704fa15c"},"vehicle_type_id":"4","last_reported":1736867303,"current_range_meters":24400,"station_id":"ce4bhbp2rcd13ifvqerg","pricing_plan_id":"cebpf4jnsgd1na2vs0mg"},{"bike_id":"2ce28097-677d-4db6-8dd0-9821f77a743d","system_id":"levelo_inurba_marseille","lat":43.27825,"lon":5.40717,"is_reserved":false,"is_disabled":false,"rental_uris":{"android":"levelo://app?vid=2ce28097-677d-4db6-8dd0-9821f77a743d","ios":"levelo://app?vid=2ce28097-677d-4db6-8dd0-9821f77a743d"},"vehicle_type_id":"4","last_reported":1736867303,"current_range_meters":17600,"station_id":"ce4bhnh2rcd13ifvqgtg","pricing_plan_id":"cebpf4jnsgd1na2vs0mg"},{"bike_id":"c6b75558-26d2-4235-a36f-fe3afe453362","system_id":"levelo_inurba_marseille","lat":43.30546,"lon":5.36534,"is_reserved":false,"is_disabled":false,"rental_uris":{"android":"levelo://app?vid=c6b75558-26d2-4235-a36f-fe3afe453362","ios":"levelo://app?vid=c6b75558-26d2-4235-a36f-fe3afe453362"},"vehicle_type_id":"4","last_reported":1736867303,"current_range_meters":32000,"station_id":"ce4bgs12rcd13ifvqcag","pricing_plan_id":"cebpf4jnsgd1na2vs0mg"},{"bike_id":"31ec5fec-f9e3-409a-aebc-9d3841d2b4d3","system_id":"levelo_inurba_marseille","lat":43.29973,"lon":5.37178,"is_reserved":false,"is_disabled":false,"rental_uris":{"android":"levelo://app?vid=31ec5fec-f9e3-409a-aebc-9d3841d2b4d3","ios":"levelo://app?vid=31ec5fec-f9e3-409a-aebc-9d3841d2b4d3"},"vehicle_type_id":"4","last_reported":1736867303,"current_range_meters":26000,"station_id":"ce4bgr92rcd13ifvqc7g","pricing_plan_id":"cebpf4jnsgd1na2vs0mg"},{"bike_id":"9679fb69-98c5-4b1c-9f57-4dfe59cc31a4","system_id":"levelo_inurba_marseille","lat":43.26939,"lon":5.38642,"is_reserved":false,"is_disabled":false,"rental_uris":{"android":"levelo://app?vid=9679fb69-98c5-4b1c-9f57-4dfe59cc31a4","ios":"levelo://app?vid=9679fb69-98c5-4b1c-9f57-4dfe59cc31a4"},"vehicle_type_id":"4","last_reported":1736867303,"current_range_meters":37600,"station_id":"ce4bhh92rcd13ifvqfh0","pricing_plan_id":"cebpf4jnsgd1na2vs0mg"},{"bike_id":"446c15fe-c178-4a66-a753-a3c1d5c3afea","system_id":"levelo_inurba_marseille","lat":43.29095,"lon":5.381513,"is_reserved":false,"is_disabled":false,"rental_uris":{"android":"levelo://app?vid=446c15fe-c178-4a66-a753-a3c1d5c3afea","ios":"levelo://app?vid=446c15fe-c178-4a66-a753-a3c1d5c3afea"},"vehicle_type_id":"4","last_reported":1736867303,"current_range_meters":28800,"station_id":"ce4bh512rcd13ifvqe2g","pricing_plan_id":"cebpf4jnsgd1na2vs0mg"},{"bike_id":"1a9f1a12-ccea-4250-ba92-414fdd324d1e","system_id":"levelo_inurba_marseille","lat":43.27323,"lon":5.39123,"is_reserved":false,"is_disabled":false,"rental_uris":{"android":"levelo://app?vid=1a9f1a12-ccea-4250-ba92-414fdd324d1e","ios":"levelo://app?vid=1a9f1a12-ccea-4250-ba92-414fdd324d1e"},"vehicle_type_id":"4","last_reported":1736867303,"current_range_meters":26000,"station_id":"ce4bhgp2rcd13ifvqfe0","pricing_plan_id":"cebpf4jnsgd1na2vs0mg"},{"bike_id":"24017be9-d1a6-4333-9509-641e776c3c03","system_id":"levelo_inurba_marseille","lat":43.24647,"lon":5.38886,"is_reserved":false,"is_disabled":false,"rental_uris":{"android":"levelo://app?vid=24017be9-d1a6-4333-9509-641e776c3c03","ios":"levelo://app?vid=24017be9-d1a6-4333-9509-641e776c3c03"},"vehicle_type_id":"4","last_reported":1736867303,"current_range_meters":39200,"station_id":"ce4bhg12rcd13ifvqf60","pricing_plan_id":"cebpf4jnsgd1na2vs0mg"},{"bike_id":"055e443b-210e-4a52-b01e-1d020568226c","system_id":"levelo_inurba_marseille","lat":43.29075,"lon":5.37167,"is_reserved":false,"is_disabled":false,"rental_uris":{"android":"levelo://app?vid=055e443b-210e-4a52-b01e-1d020568226c","ios":"levelo://app?vid=055e443b-210e-4a52-b01e-1d020568226c"},"vehicle_type_id":"4","last_reported":1736867303,"current_range_meters":30400,"station_id":"ce4bh5p2rcd13ifvqe4g","pricing_plan_id":"cebpf4jnsgd1na2vs0mg"},{"bike_id":"c95373c8-f8c7-4815-a4e3-288fd91cd322","system_id":"levelo_inurba_marseille","lat":43.28468,"lon":5.38426,"is_reserved":false,"is_disabled":false,"rental_uris":{"android":"levelo://app?vid=c95373c8-f8c7-4815-a4e3-288fd91cd322","ios":"levelo://app?vid=c95373c8-f8c7-4815-a4e3-288fd91cd322"},"vehicle_type_id":"4","last_reported":1736867303,"current_range_meters":38000,"station_id":"ce4bh512rcd13ifvqe3g","pricing_plan_id":"cebpf4jnsgd1na2vs0mg"},{"bike_id":"45324790-abcf-4a91-8b9e-6b7c17eae013","system_id":"levelo_inurba_marseille","lat":43.27363,"lon":5.36265,"is_reserved":false,"is_disabled":false,"rental_uris":{"android":"levelo://app?vid=45324790-abcf-4a91-8b9e-6b7c17eae013","ios":"levelo://app?vid=45324790-abcf-4a91-8b9e-6b7c17eae013"},"vehicle_type_id":"4","last_reported":1736867303,"current_range_meters":4400,"station_id":"ce4bhbh2rcd13ifvqeo0","pricing_plan_id":"cebpf4jnsgd1na2vs0mg"},{"bike_id":"a67713fd-1e38-45c8-8717-2a60e9af5703","system_id":"levelo_inurba_marseille","lat":43.30895,"lon":5.39662,"is_reserved":false,"is_disabled":false,"rental_uris":{"android":"levelo://app?vid=a67713fd-1e38-45c8-8717-2a60e9af5703","ios":"levelo://app?vid=a67713fd-1e38-45c8-8717-2a60e9af5703"},"vehicle_type_id":"4","last_reported":1736867303,"current_range_meters":12400,"station_id":"ce4bh012rcd13ifvqcv0","pricing_plan_id":"cebpf4jnsgd1na2vs0mg"},{"bike_id":"81d5593a-d359-468e-93a0-1de6e76a9a28","system_id":"levelo_inurba_marseille","lat":43.23977,"lon":5.36622,"is_reserved":false,"is_disabled":false,"rental_uris":{"android":"levelo://app?vid=81d5593a-d359-468e-93a0-1de6e76a9a28","ios":"levelo://app?vid=81d5593a-d359-468e-93a0-1de6e76a9a28"},"vehicle_type_id":"4","last_reported":1736867303,"current_range_meters":38800,"station_id":"ce4bhi12rcd13ifvqfp0","pricing_plan_id":"cebpf4jnsgd1na2vs0mg"},{"bike_id":"f5b9f917-9830-4fbb-9cae-66fd3de964ee","system_id":"levelo_inurba_marseille","lat":43.26805,"lon":5.40271,"is_reserved":false,"is_disabled":false,"rental_uris":{"android":"levelo://app?vid=f5b9f917-9830-4fbb-9cae-66fd3de964ee","ios":"levelo://app?vid=f5b9f917-9830-4fbb-9cae-66fd3de964ee"},"vehicle_type_id":"4","last_reported":1736867303,"current_range_meters":6000,"station_id":"ce501612rcd8frsf0b60","pricing_plan_id":"cebpf4jnsgd1na2vs0mg"},{"bike_id":"c5169d46-d65e-4a77-b5cf-9efd52275de4","system_id":"levelo_inurba_marseille","lat":43.29533,"lon":5.39039,"is_reserved":false,"is_disabled":false,"rental_uris":{"android":"levelo://app?vid=c5169d46-d65e-4a77-b5cf-9efd52275de4","ios":"levelo://app?vid=c5169d46-d65e-4a77-b5cf-9efd52275de4"},"vehicle_type_id":"4","last_reported":1736867303,"current_range_meters":32800,"station_id":"ce4bh3p2rcd13ifvqdp0","pricing_plan_id":"cebpf4jnsgd1na2vs0mg"},{"bike_id":"c86bdb7d-ef84-4ca1-93a7-8ad886c79419","system_id":"levelo_inurba_marseille","lat":43.28954,"lon":5.36398,"is_reserved":false,"is_disabled":false,"rental_uris":{"android":"levelo://app?vid=c86bdb7d-ef84-4ca1-93a7-8ad886c79419","ios":"levelo://app?vid=c86bdb7d-ef84-4ca1-93a7-8ad886c79419"},"vehicle_type_id":"4","last_reported":1736867303,"current_range_meters":37600,"station_id":"ce4bhc92rcd13ifvqetg","pricing_plan_id":"cebpf4jnsgd1na2vs0mg"},{"bike_id":"a86fe1f4-7545-4b33-8097-0e91725c0bb3","system_id":"levelo_inurba_marseille","lat":43.32487,"lon":5.36572,"is_reserved":false,"is_disabled":false,"rental_uris":{"android":"levelo://app?vid=a86fe1f4-7545-4b33-8097-0e91725c0bb3","ios":"levelo://app?vid=a86fe1f4-7545-4b33-8097-0e91725c0bb3"},"vehicle_type_id":"4","last_reported":1736867303,"current_range_meters":38800,"station_id":"ce4bhs12rcd13ifvqhvg","pricing_plan_id":"cebpf4jnsgd1na2vs0mg"},{"bike_id":"96288e4c-2217-4363-a43b-27b3c199235a","system_id":"levelo_inurba_marseille","lat":43.28442,"lon":5.39193,"is_reserved":false,"is_disabled":false,"rental_uris":{"android":"levelo://app?vid=96288e4c-2217-4363-a43b-27b3c199235a","ios":"levelo://app?vid=96288e4c-2217-4363-a43b-27b3c199235a"},"vehicle_type_id":"4","last_reported":1736867303,"current_range_meters":38000,"station_id":"ce4bhoh2rcd13ifvqh5g","pricing_plan_id":"cebpf4jnsgd1na2vs0mg"},{"bike_id":"3d5f2d2b-3ba7-4503-96ca-ba1671f24e39","system_id":"levelo_inurba_marseille","lat":43.30413,"lon":5.41293,"is_reserved":false,"is_disabled":false,"rental_uris":{"android":"levelo://app?vid=3d5f2d2b-3ba7-4503-96ca-ba1671f24e39","ios":"levelo://app?vid=3d5f2d2b-3ba7-4503-96ca-ba1671f24e39"},"vehicle_type_id":"4","last_reported":1736867303,"current_range_meters":6800,"station_id":"ce4bhop2rcd13ifvqh8g","pricing_plan_id":"cebpf4jnsgd1na2vs0mg"},{"bike_id":"a4c108d4-411d-4a66-ac0a-33ca30029180","system_id":"levelo_inurba_marseille","lat":43.23974,"lon":5.36635,"is_reserved":false,"is_disabled":false,"rental_uris":{"android":"levelo://app?vid=a4c108d4-411d-4a66-ac0a-33ca30029180","ios":"levelo://app?vid=a4c108d4-411d-4a66-ac0a-33ca30029180"},"vehicle_type_id":"4","last_reported":1736867303,"current_range_meters":38400,"station_id":"ce4bhi12rcd13ifvqfp0","pricing_plan_id":"cebpf4jnsgd1na2vs0mg"},{"bike_id":"3f1871b0-62e6-472a-a371-7699a3389f00","system_id":"levelo_inurba_marseille","lat":43.25829,"lon":5.39444,"is_reserved":false,"is_disabled":false,"rental_uris":{"android":"levelo://app?vid=3f1871b0-62e6-472a-a371-7699a3389f00","ios":"levelo://app?vid=3f1871b0-62e6-472a-a371-7699a3389f00"},"vehicle_type_id":"4","last_reported":1736867303,"current_range_meters":38800,"station_id":"ce4bhip2rcd13ifvqft0","pricing_plan_id":"cebpf4jnsgd1na2vs0mg"},{"bike_id":"1769fb74-7b21-44da-83e5-34660f65f2f6","system_id":"levelo_inurba_marseille","lat":43.30575,"lon":5.36531,"is_reserved":false,"is_disabled":false,"rental_uris":{"android":"levelo://app?vid=1769fb74-7b21-44da-83e5-34660f65f2f6","ios":"levelo://app?vid=1769fb74-7b21-44da-83e5-34660f65f2f6"},"vehicle_type_id":"4","last_reported":1736867303,"current_range_meters":28000,"station_id":"ce4bgs12rcd13ifvqcag","pricing_plan_id":"cebpf4jnsgd1na2vs0mg"},{"bike_id":"161fa44b-11d4-4a31-83c8-0bd613731f54","system_id":"levelo_inurba_marseille","lat":43.2838,"lon":5.38632,"is_reserved":false,"is_disabled":false,"rental_uris":{"android":"levelo://app?vid=161fa44b-11d4-4a31-83c8-0bd613731f54","ios":"levelo://app?vid=161fa44b-11d4-4a31-83c8-0bd613731f54"},"vehicle_type_id":"4","last_reported":1736867303,"current_range_meters":38800,"station_id":"ce4bh492rcd13ifvqdvg","pricing_plan_id":"cebpf4jnsgd1na2vs0mg"},{"bike_id":"820b335e-07fe-4de9-b614-393670e44a0c","system_id":"levelo_inurba_marseille","lat":43.24998,"lon":5.38926,"is_reserved":false,"is_disabled":false,"rental_uris":{"android":"levelo://app?vid=820b335e-07fe-4de9-b614-393670e44a0c","ios":"levelo://app?vid=820b335e-07fe-4de9-b614-393670e44a0c"},"vehicle_type_id":"4","last_reported":1736867303,"current_range_meters":39200,"station_id":"ce4bhgp2rcd13ifvqfd0","pricing_plan_id":"cebpf4jnsgd1na2vs0mg"},{"bike_id":"df681a47-5a92-4f0f-af9b-479c2e163fbe","system_id":"levelo_inurba_marseille","lat":43.26215,"lon":5.37444,"is_reserved":false,"is_disabled":false,"rental_uris":{"android":"levelo://app?vid=df681a47-5a92-4f0f-af9b-479c2e163fbe","ios":"levelo://app?vid=df681a47-5a92-4f0f-af9b-479c2e163fbe"},"vehicle_type_id":"4","last_reported":1736867303,"current_range_meters":32800,"station_id":"ce4bhgp2rcd13ifvqfc0","pricing_plan_id":"cebpf4jnsgd1na2vs0mg"},{"bike_id":"36b7aa91-1a5b-4a32-b2b7-7706c6046910","system_id":"levelo_inurba_marseille","lat":43.28432,"lon":5.39187,"is_reserved":false,"is_disabled":false,"rental_uris":{"android":"levelo://app?vid=36b7aa91-1a5b-4a32-b2b7-7706c6046910","ios":"levelo://app?vid=36b7aa91-1a5b-4a32-b2b7-7706c6046910"},"vehicle_type_id":"4","last_reported":1736867303,"current_range_meters":39200,"station_id":"ce4bhoh2rcd13ifvqh5g","pricing_plan_id":"cebpf4jnsgd1na2vs0mg"},{"bike_id":"7cc8d864-1f61-4ffd-9942-1b46b5cfed0f","system_id":"levelo_inurba_marseille","lat":43.28618,"lon":5.35102,"is_reserved":false,"is_disabled":false,"rental_uris":{"android":"levelo://app?vid=7cc8d864-1f61-4ffd-9942-1b46b5cfed0f","ios":"levelo://app?vid=7cc8d864-1f61-4ffd-9942-1b46b5cfed0f"},"vehicle_type_id":"4","last_reported":1736867303,"current_range_meters":28000,"station_id":"ce4bhch2rcd13ifvqeug","pricing_plan_id":"cebpf4jnsgd1na2vs0mg"},{"bike_id":"0d092d55-4c4e-4280-af4f-158d5a950bca","system_id":"levelo_inurba_marseille","lat":43.30214,"lon":5.39464,"is_reserved":false,"is_disabled":false,"rental_uris":{"android":"levelo://app?vid=0d092d55-4c4e-4280-af4f-158d5a950bca","ios":"levelo://app?vid=0d092d55-4c4e-4280-af4f-158d5a950bca"},"vehicle_type_id":"4","last_reported":1736867303,"current_range_meters":22800,"station_id":"ce4bh0p2rcd13ifvqd70","pricing_plan_id":"cebpf4jnsgd1na2vs0mg"},{"bike_id":"062cf833-fcf0-4e8e-8624-6565b30f8720","system_id":"levelo_inurba_marseille","lat":43.29971,"lon":5.37176,"is_reserved":false,"is_disabled":false,"rental_uris":{"android":"levelo://app?vid=062cf833-fcf0-4e8e-8624-6565b30f8720","ios":"levelo://app?vid=062cf833-fcf0-4e8e-8624-6565b30f8720"},"vehicle_type_id":"4","last_reported":1736867303,"current_range_meters":14400,"station_id":"ce4bgr92rcd13ifvqc7g","pricing_plan_id":"cebpf4jnsgd1na2vs0mg"},{"bike_id":"7fcf9ecb-c6db-41bd-b27e-444d4ba09127","system_id":"levelo_inurba_marseille","lat":43.30642,"lon":5.40075,"is_reserved":false,"is_disabled":false,"rental_uris":{"android":"levelo://app?vid=7fcf9ecb-c6db-41bd-b27e-444d4ba09127","ios":"levelo://app?vid=7fcf9ecb-c6db-41bd-b27e-444d4ba09127"},"vehicle_type_id":"4","last_reported":1736867303,"current_range_meters":39200,"station_id":"ce4bh112rcd13ifvqda0","pricing_plan_id":"cebpf4jnsgd1na2vs0mg"},{"bike_id":"ae6a24c6-71f9-417a-adfe-c09c90280637","system_id":"levelo_inurba_marseille","lat":43.26554,"lon":5.37294,"is_reserved":false,"is_disabled":true,"rental_uris":{"android":"levelo://app?vid=ae6a24c6-71f9-417a-adfe-c09c90280637","ios":"levelo://app?vid=ae6a24c6-71f9-417a-adfe-c09c90280637"},"vehicle_type_id":"4","last_reported":1736867303,"current_range_meters":1600,"station_id":"ce4bhg12rcd13ifvqf70","pricing_plan_id":"cebpf4jnsgd1na2vs0mg"},{"bike_id":"8780406c-0f05-4389-a692-93042b8afc8b","system_id":"levelo_inurba_marseille","lat":43.29019,"lon":5.38126,"is_reserved":false,"is_disabled":false,"rental_uris":{"android":"levelo://app?vid=8780406c-0f05-4389-a692-93042b8afc8b","ios":"levelo://app?vid=8780406c-0f05-4389-a692-93042b8afc8b"},"vehicle_type_id":"4","last_reported":1736867303,"current_range_meters":22000,"station_id":"ce4bh4p2rcd13ifvqe1g","pricing_plan_id":"cebpf4jnsgd1na2vs0mg"},{"bike_id":"31ca8b0e-c72e-47d4-a59b-a2766db72931","system_id":"levelo_inurba_marseille","lat":43.2842,"lon":5.40932,"is_reserved":false,"is_disabled":true,"rental_uris":{"android":"levelo://app?vid=31ca8b0e-c72e-47d4-a59b-a2766db72931","ios":"levelo://app?vid=31ca8b0e-c72e-47d4-a59b-a2766db72931"},"vehicle_type_id":"4","last_reported":1736867303,"current_range_meters":34800,"station_id":"","pricing_plan_id":"cebpf4jnsgd1na2vs0mg"},{"bike_id":"3cc4f8d9-abe9-44eb-b280-5b30a4d3b388","system_id":"levelo_inurba_marseille","lat":43.26222,"lon":5.3747,"is_reserved":false,"is_disabled":false,"rental_uris":{"android":"levelo://app?vid=3cc4f8d9-abe9-44eb-b280-5b30a4d3b388","ios":"levelo://app?vid=3cc4f8d9-abe9-44eb-b280-5b30a4d3b388"},"vehicle_type_id":"4","last_reported":1736867303,"current_range_meters":38000,"station_id":"ce4bhgp2rcd13ifvqfc0","pricing_plan_id":"cebpf4jnsgd1na2vs0mg"},{"bike_id":"7d8ed26c-9217-4360-90d3-20b89c09317a","system_id":"levelo_inurba_marseille","lat":43.31783,"lon":5.38975,"is_reserved":false,"is_disabled":false,"rental_uris":{"android":"levelo://app?vid=7d8ed26c-9217-4360-90d3-20b89c09317a","ios":"levelo://app?vid=7d8ed26c-9217-4360-90d3-20b89c09317a"},"vehicle_type_id":"4","last_reported":1736867303,"current_range_meters":34000,"station_id":"ce4bhqp2rcd13ifvqhng","pricing_plan_id":"cebpf4jnsgd1na2vs0mg"},{"bike_id":"60c48e84-151f-4edd-83cd-789ff87c7f63","system_id":"levelo_inurba_marseille","lat":43.28705,"lon":5.37378,"is_reserved":false,"is_disabled":true,"rental_uris":{"android":"levelo://app?vid=60c48e84-151f-4edd-83cd-789ff87c7f63","ios":"levelo://app?vid=60c48e84-151f-4edd-83cd-789ff87c7f63"},"vehicle_type_id":"4","last_reported":1736867303,"current_range_meters":33200,"station_id":"ce4bh3p2rcd13ifvqdq0","pricing_plan_id":"cebpf4jnsgd1na2vs0mg"},{"bike_id":"171bee60-8200-4bb4-b2dd-6ab7fce75054","system_id":"levelo_inurba_marseille","lat":43.2885,"lon":5.35846,"is_reserved":false,"is_disabled":false,"rental_uris":{"android":"levelo://app?vid=171bee60-8200-4bb4-b2dd-6ab7fce75054","ios":"levelo://app?vid=171bee60-8200-4bb4-b2dd-6ab7fce75054"},"vehicle_type_id":"4","last_reported":1736867303,"current_range_meters":36800,"station_id":"ce4bhb12rcd13ifvqem0","pricing_plan_id":"cebpf4jnsgd1na2vs0mg"},{"bike_id":"d4bd3ca0-48a8-4b8f-8823-cc0d13d0ab16","system_id":"levelo_inurba_marseille","lat":43.28065,"lon":5.39649,"is_reserved":false,"is_disabled":false,"rental_uris":{"android":"levelo://app?vid=d4bd3ca0-48a8-4b8f-8823-cc0d13d0ab16","ios":"levelo://app?vid=d4bd3ca0-48a8-4b8f-8823-cc0d13d0ab16"},"vehicle_type_id":"4","last_reported":1736867303,"current_range_meters":36000,"station_id":"ce4bho12rcd13ifvqh2g","pricing_plan_id":"cebpf4jnsgd1na2vs0mg"},{"bike_id":"fa8a30c7-7295-4469-b66e-9b5a43015aac","system_id":"levelo_inurba_marseille","lat":43.33023,"lon":5.39049,"is_reserved":false,"is_disabled":false,"rental_uris":{"android":"levelo://app?vid=fa8a30c7-7295-4469-b66e-9b5a43015aac","ios":"levelo://app?vid=fa8a30c7-7295-4469-b66e-9b5a43015aac"},"vehicle_type_id":"4","last_reported":1736867303,"current_range_meters":39200,"station_id":"ce4bhr92rcd13ifvqhrg","pricing_plan_id":"cebpf4jnsgd1na2vs0mg"},{"bike_id":"625c08a6-0fc7-45cd-9466-296fa6fc3d5f","system_id":"levelo_inurba_marseille","lat":43.29446,"lon":5.39759,"is_reserved":false,"is_disabled":false,"rental_uris":{"android":"levelo://app?vid=625c08a6-0fc7-45cd-9466-296fa6fc3d5f","ios":"levelo://app?vid=625c08a6-0fc7-45cd-9466-296fa6fc3d5f"},"vehicle_type_id":"4","last_reported":1736867303,"current_range_meters":29600,"station_id":"ce4bh3h2rcd13ifvqdo0","pricing_plan_id":"cebpf4jnsgd1na2vs0mg"},{"bike_id":"e459271b-0d7a-49b4-bd91-d7462ead9879","system_id":"levelo_inurba_marseille","lat":43.28849,"lon":5.35855,"is_reserved":false,"is_disabled":false,"rental_uris":{"android":"levelo://app?vid=e459271b-0d7a-49b4-bd91-d7462ead9879","ios":"levelo://app?vid=e459271b-0d7a-49b4-bd91-d7462ead9879"},"vehicle_type_id":"4","last_reported":1736867303,"current_range_meters":32000,"station_id":"ce4bhb12rcd13ifvqem0","pricing_plan_id":"cebpf4jnsgd1na2vs0mg"},{"bike_id":"de05f028-7450-4792-8d5b-e268410faa9d","system_id":"levelo_inurba_marseille","lat":43.32084,"lon":5.36785,"is_reserved":false,"is_disabled":false,"rental_uris":{"android":"levelo://app?vid=de05f028-7450-4792-8d5b-e268410faa9d","ios":"levelo://app?vid=de05f028-7450-4792-8d5b-e268410faa9d"},"vehicle_type_id":"4","last_reported":1736867303,"current_range_meters":28400,"station_id":"ce4bhrh2rcd13ifvqhug","pricing_plan_id":"cebpf4jnsgd1na2vs0mg"},{"bike_id":"4218abb1-97a1-4e69-a779-b2859c95cf9a","system_id":"levelo_inurba_marseille","lat":43.23957,"lon":5.36634,"is_reserved":false,"is_disabled":false,"rental_uris":{"android":"levelo://app?vid=4218abb1-97a1-4e69-a779-b2859c95cf9a","ios":"levelo://app?vid=4218abb1-97a1-4e69-a779-b2859c95cf9a"},"vehicle_type_id":"4","last_reported":1736867303,"current_range_meters":14400,"station_id":"ce4bhi12rcd13ifvqfp0","pricing_plan_id":"cebpf4jnsgd1na2vs0mg"},{"bike_id":"12c84dc1-55d9-4869-8c9f-6a156dfc584a","system_id":"levelo_inurba_marseille","lat":43.27811,"lon":5.40718,"is_reserved":false,"is_disabled":false,"rental_uris":{"android":"levelo://app?vid=12c84dc1-55d9-4869-8c9f-6a156dfc584a","ios":"levelo://app?vid=12c84dc1-55d9-4869-8c9f-6a156dfc584a"},"vehicle_type_id":"4","last_reported":1736867303,"current_range_meters":23200,"station_id":"ce4bhnh2rcd13ifvqgtg","pricing_plan_id":"cebpf4jnsgd1na2vs0mg"},{"bike_id":"697e6ace-d673-4abf-ab6d-187906fe3096","system_id":"levelo_inurba_marseille","lat":43.29962,"lon":5.37167,"is_reserved":false,"is_disabled":false,"rental_uris":{"android":"levelo://app?vid=697e6ace-d673-4abf-ab6d-187906fe3096","ios":"levelo://app?vid=697e6ace-d673-4abf-ab6d-187906fe3096"},"vehicle_type_id":"4","last_reported":1736867303,"current_range_meters":22400,"station_id":"ce4bgr92rcd13ifvqc7g","pricing_plan_id":"cebpf4jnsgd1na2vs0mg"},{"bike_id":"d85168cd-cda5-48df-a191-5048004ec8d2","system_id":"levelo_inurba_marseille","lat":43.25088,"lon":5.39524,"is_reserved":false,"is_disabled":false,"rental_uris":{"android":"levelo://app?vid=d85168cd-cda5-48df-a191-5048004ec8d2","ios":"levelo://app?vid=d85168cd-cda5-48df-a191-5048004ec8d2"},"vehicle_type_id":"4","last_reported":1736867303,"current_range_meters":2800,"station_id":"ce4bhm12rcd13ifvqgkg","pricing_plan_id":"cebpf4jnsgd1na2vs0mg"},{"bike_id":"6b45a7a6-bca6-42a8-af1b-5915bb9c80dd","system_id":"levelo_inurba_marseille","lat":43.2481,"lon":5.37461,"is_reserved":false,"is_disabled":false,"rental_uris":{"android":"levelo://app?vid=6b45a7a6-bca6-42a8-af1b-5915bb9c80dd","ios":"levelo://app?vid=6b45a7a6-bca6-42a8-af1b-5915bb9c80dd"},"vehicle_type_id":"4","last_reported":1736867303,"current_range_meters":32800,"station_id":"ce4bhgh2rcd13ifvqfb0","pricing_plan_id":"cebpf4jnsgd1na2vs0mg"},{"bike_id":"34d1187a-0d2f-42da-8bcd-6376169d385a","system_id":"levelo_inurba_marseille","lat":43.25936,"lon":5.40877,"is_reserved":false,"is_disabled":false,"rental_uris":{"android":"levelo://app?vid=34d1187a-0d2f-42da-8bcd-6376169d385a","ios":"levelo://app?vid=34d1187a-0d2f-42da-8bcd-6376169d385a"},"vehicle_type_id":"4","last_reported":1736867303,"current_range_meters":36800,"station_id":"ce4bhm92rcd13ifvqglg","pricing_plan_id":"cebpf4jnsgd1na2vs0mg"},{"bike_id":"8f3d19ca-6788-4fa8-a3b9-31a1f06d17f5","system_id":"levelo_inurba_marseille","lat":43.28035,"lon":5.36942,"is_reserved":false,"is_disabled":true,"rental_uris":{"android":"levelo://app?vid=8f3d19ca-6788-4fa8-a3b9-31a1f06d17f5","ios":"levelo://app?vid=8f3d19ca-6788-4fa8-a3b9-31a1f06d17f5"},"vehicle_type_id":"4","last_reported":1736867303,"current_range_meters":0,"station_id":"ce4bha12rcd13ifvqef0","pricing_plan_id":"cebpf4jnsgd1na2vs0mg"},{"bike_id":"b7c0c42a-0df1-4696-9a0d-7a33860a7d5f","system_id":"levelo_inurba_marseille","lat":43.31331,"lon":5.39695,"is_reserved":false,"is_disabled":false,"rental_uris":{"android":"levelo://app?vid=b7c0c42a-0df1-4696-9a0d-7a33860a7d5f","ios":"levelo://app?vid=b7c0c42a-0df1-4696-9a0d-7a33860a7d5f"},"vehicle_type_id":"4","last_reported":1736867303,"current_range_meters":28800,"station_id":"ce4bgvp2rcd13ifvqcu0","pricing_plan_id":"cebpf4jnsgd1na2vs0mg"},{"bike_id":"a43739c9-34f8-4528-bc90-c6ded97f6129","system_id":"levelo_inurba_marseille","lat":43.30415,"lon":5.41283,"is_reserved":false,"is_disabled":false,"rental_uris":{"android":"levelo://app?vid=a43739c9-34f8-4528-bc90-c6ded97f6129","ios":"levelo://app?vid=a43739c9-34f8-4528-bc90-c6ded97f6129"},"vehicle_type_id":"4","last_reported":1736867303,"current_range_meters":39200,"station_id":"ce4bhop2rcd13ifvqh8g","pricing_plan_id":"cebpf4jnsgd1na2vs0mg"},{"bike_id":"6280e12b-8c99-470a-acaf-04cfe5b073d5","system_id":"levelo_inurba_marseille","lat":43.27187,"lon":5.40996,"is_reserved":false,"is_disabled":false,"rental_uris":{"android":"levelo://app?vid=6280e12b-8c99-470a-acaf-04cfe5b073d5","ios":"levelo://app?vid=6280e12b-8c99-470a-acaf-04cfe5b073d5"},"vehicle_type_id":"4","last_reported":1736867303,"current_range_meters":39200,"station_id":"ce4bhl12rcd13ifvqgf0","pricing_plan_id":"cebpf4jnsgd1na2vs0mg"},{"bike_id":"d8229401-36fd-48df-8282-2ee46cb7758d","system_id":"levelo_inurba_marseille","lat":43.30004,"lon":5.37195,"is_reserved":false,"is_disabled":false,"rental_uris":{"android":"levelo://app?vid=d8229401-36fd-48df-8282-2ee46cb7758d","ios":"levelo://app?vid=d8229401-36fd-48df-8282-2ee46cb7758d"},"vehicle_type_id":"4","last_reported":1736867303,"current_range_meters":26000,"station_id":"ce4bgjh2rcd13ifvqbf0","pricing_plan_id":"cebpf4jnsgd1na2vs0mg"},{"bike_id":"f62a7ed4-7c80-4ed8-9568-a4dea62069d1","system_id":"levelo_inurba_marseille","lat":43.28101,"lon":5.39665,"is_reserved":false,"is_disabled":false,"rental_uris":{"android":"levelo://app?vid=f62a7ed4-7c80-4ed8-9568-a4dea62069d1","ios":"levelo://app?vid=f62a7ed4-7c80-4ed8-9568-a4dea62069d1"},"vehicle_type_id":"4","last_reported":1736867303,"current_range_meters":24800,"station_id":"ce4bho12rcd13ifvqh2g","pricing_plan_id":"cebpf4jnsgd1na2vs0mg"},{"bike_id":"ddda7598-97c1-41e4-8980-d36ea2918dfb","system_id":"levelo_inurba_marseille","lat":43.30453,"lon":5.36721,"is_reserved":false,"is_disabled":false,"rental_uris":{"android":"levelo://app?vid=ddda7598-97c1-41e4-8980-d36ea2918dfb","ios":"levelo://app?vid=ddda7598-97c1-41e4-8980-d36ea2918dfb"},"vehicle_type_id":"4","last_reported":1736867303,"current_range_meters":20000,"station_id":"","pricing_plan_id":"cebpf4jnsgd1na2vs0mg"},{"bike_id":"c0febac9-8752-4183-bbca-7925f2eaa4cb","system_id":"levelo_inurba_marseille","lat":43.240709,"lon":5.377623,"is_reserved":false,"is_disabled":false,"rental_uris":{"android":"levelo://app?vid=c0febac9-8752-4183-bbca-7925f2eaa4cb","ios":"levelo://app?vid=c0febac9-8752-4183-bbca-7925f2eaa4cb"},"vehicle_type_id":"4","last_reported":1736867303,"current_range_meters":9200,"station_id":"ce4bhnp2rcd13ifvqgvg","pricing_plan_id":"cebpf4jnsgd1na2vs0mg"},{"bike_id":"cd0c1f7c-14c3-47fa-982d-a8cf7cbc461a","system_id":"levelo_inurba_marseille","lat":43.30239,"lon":5.40048,"is_reserved":false,"is_disabled":false,"rental_uris":{"android":"levelo://app?vid=cd0c1f7c-14c3-47fa-982d-a8cf7cbc461a","ios":"levelo://app?vid=cd0c1f7c-14c3-47fa-982d-a8cf7cbc461a"},"vehicle_type_id":"4","last_reported":1736867303,"current_range_meters":25200,"station_id":"ce4bgvh2rcd13ifvqcs0","pricing_plan_id":"cebpf4jnsgd1na2vs0mg"},{"bike_id":"2d299aa8-68d1-40ea-a1d0-c766b33ee2bf","system_id":"levelo_inurba_marseille","lat":43.26926,"lon":5.40189,"is_reserved":false,"is_disabled":false,"rental_uris":{"android":"levelo://app?vid=2d299aa8-68d1-40ea-a1d0-c766b33ee2bf","ios":"levelo://app?vid=2d299aa8-68d1-40ea-a1d0-c766b33ee2bf"},"vehicle_type_id":"4","last_reported":1736867303,"current_range_meters":38800,"station_id":"cjm6bp8fraef2m0cb0m0","pricing_plan_id":"cebpf4jnsgd1na2vs0mg"},{"bike_id":"96cbc6cc-5fab-45d6-ba6f-8e5cadc59be1","system_id":"levelo_inurba_marseille","lat":43.29972,"lon":5.37174,"is_reserved":false,"is_disabled":false,"rental_uris":{"android":"levelo://app?vid=96cbc6cc-5fab-45d6-ba6f-8e5cadc59be1","ios":"levelo://app?vid=96cbc6cc-5fab-45d6-ba6f-8e5cadc59be1"},"vehicle_type_id":"4","last_reported":1736867303,"current_range_meters":22800,"station_id":"ce4bgr92rcd13ifvqc7g","pricing_plan_id":"cebpf4jnsgd1na2vs0mg"},{"bike_id":"f6177651-4c7e-4ba0-902d-98fa687efeb5","system_id":"levelo_inurba_marseille","lat":43.29925,"lon":5.37485,"is_reserved":false,"is_disabled":false,"rental_uris":{"android":"levelo://app?vid=f6177651-4c7e-4ba0-902d-98fa687efeb5","ios":"levelo://app?vid=f6177651-4c7e-4ba0-902d-98fa687efeb5"},"vehicle_type_id":"4","last_reported":1736867303,"current_range_meters":38400,"station_id":"ce4bgjh2rcd13ifvqbg0","pricing_plan_id":"cebpf4jnsgd1na2vs0mg"},{"bike_id":"8534aaf4-535f-4db5-8998-0f97ef68ef36","system_id":"levelo_inurba_marseille","lat":43.24386,"lon":5.37058,"is_reserved":false,"is_disabled":false,"rental_uris":{"android":"levelo://app?vid=8534aaf4-535f-4db5-8998-0f97ef68ef36","ios":"levelo://app?vid=8534aaf4-535f-4db5-8998-0f97ef68ef36"},"vehicle_type_id":"4","last_reported":1736867303,"current_range_meters":19600,"station_id":"ce4bhhh2rcd13ifvqfk0","pricing_plan_id":"cebpf4jnsgd1na2vs0mg"},{"bike_id":"b2c33e7b-da8a-4cda-ab12-4bcf5000aca5","system_id":"levelo_inurba_marseille","lat":43.2762,"lon":5.3611,"is_reserved":false,"is_disabled":false,"rental_uris":{"android":"levelo://app?vid=b2c33e7b-da8a-4cda-ab12-4bcf5000aca5","ios":"levelo://app?vid=b2c33e7b-da8a-4cda-ab12-4bcf5000aca5"},"vehicle_type_id":"4","last_reported":1736867303,"current_range_meters":32000,"station_id":"ce4bgj92rcd13ifvqbe0","pricing_plan_id":"cebpf4jnsgd1na2vs0mg"},{"bike_id":"d8756689-0b5d-4720-8f00-f33f9ad2c418","system_id":"levelo_inurba_marseille","lat":43.29809,"lon":5.38078,"is_reserved":false,"is_disabled":false,"rental_uris":{"android":"levelo://app?vid=d8756689-0b5d-4720-8f00-f33f9ad2c418","ios":"levelo://app?vid=d8756689-0b5d-4720-8f00-f33f9ad2c418"},"vehicle_type_id":"4","last_reported":1736867303,"current_range_meters":39200,"station_id":"ce4bgip2rcd13ifvqbb0","pricing_plan_id":"cebpf4jnsgd1na2vs0mg"},{"bike_id":"84993ed4-8b4b-432e-a748-ebeba522351f","system_id":"levelo_inurba_marseille","lat":43.29617,"lon":5.37709,"is_reserved":false,"is_disabled":false,"rental_uris":{"android":"levelo://app?vid=84993ed4-8b4b-432e-a748-ebeba522351f","ios":"levelo://app?vid=84993ed4-8b4b-432e-a748-ebeba522351f"},"vehicle_type_id":"4","last_reported":1736867303,"current_range_meters":38000,"station_id":"ce4bgi92rcd13ifvqb90","pricing_plan_id":"cebpf4jnsgd1na2vs0mg"},{"bike_id":"e18ca637-0940-4ac9-84c4-c3ecffd5e4c4","system_id":"levelo_inurba_marseille","lat":43.26016,"lon":5.37562,"is_reserved":false,"is_disabled":false,"rental_uris":{"android":"levelo://app?vid=e18ca637-0940-4ac9-84c4-c3ecffd5e4c4","ios":"levelo://app?vid=e18ca637-0940-4ac9-84c4-c3ecffd5e4c4"},"vehicle_type_id":"4","last_reported":1736867303,"current_range_meters":36000,"station_id":"ce4bhgh2rcd13ifvqfa0","pricing_plan_id":"cebpf4jnsgd1na2vs0mg"},{"bike_id":"4fb4dc82-08e2-44e0-8553-9744dac835ca","system_id":"levelo_inurba_marseille","lat":43.25486,"lon":5.37637,"is_reserved":false,"is_disabled":false,"rental_uris":{"android":"levelo://app?vid=4fb4dc82-08e2-44e0-8553-9744dac835ca","ios":"levelo://app?vid=4fb4dc82-08e2-44e0-8553-9744dac835ca"},"vehicle_type_id":"4","last_reported":1736867303,"current_range_meters":39200,"station_id":"ce4bhh12rcd13ifvqff0","pricing_plan_id":"cebpf4jnsgd1na2vs0mg"},{"bike_id":"6749cc36-3616-4588-a142-27ed7a54bc7d","system_id":"levelo_inurba_marseille","lat":43.25579,"lon":5.38239,"is_reserved":false,"is_disabled":false,"rental_uris":{"android":"levelo://app?vid=6749cc36-3616-4588-a142-27ed7a54bc7d","ios":"levelo://app?vid=6749cc36-3616-4588-a142-27ed7a54bc7d"},"vehicle_type_id":"4","last_reported":1736867303,"current_range_meters":38000,"station_id":"ce4bhih2rcd13ifvqfs0","pricing_plan_id":"cebpf4jnsgd1na2vs0mg"},{"bike_id":"a836bbf6-cc30-4238-a0af-12e1dba6445b","system_id":"levelo_inurba_marseille","lat":43.2315,"lon":5.43684,"is_reserved":false,"is_disabled":false,"rental_uris":{"android":"levelo://app?vid=a836bbf6-cc30-4238-a0af-12e1dba6445b","ios":"levelo://app?vid=a836bbf6-cc30-4238-a0af-12e1dba6445b"},"vehicle_type_id":"4","last_reported":1736867303,"current_range_meters":24400,"station_id":"ce4bhmp2rcd13ifvqgog","pricing_plan_id":"cebpf4jnsgd1na2vs0mg"},{"bike_id":"2c8aa28b-b50b-46d1-a1ce-c6730e2ff8bd","system_id":"levelo_inurba_marseille","lat":43.29624,"lon":5.37151,"is_reserved":false,"is_disabled":false,"rental_uris":{"android":"levelo://app?vid=2c8aa28b-b50b-46d1-a1ce-c6730e2ff8bd","ios":"levelo://app?vid=2c8aa28b-b50b-46d1-a1ce-c6730e2ff8bd"},"vehicle_type_id":"4","last_reported":1736867303,"current_range_meters":36000,"station_id":"ce4bgnh2rcd13ifvqc0g","pricing_plan_id":"cebpf4jnsgd1na2vs0mg"},{"bike_id":"f12f0085-0d08-433e-9e1e-fad49550d898","system_id":"levelo_inurba_marseille","lat":43.2952,"lon":5.37497,"is_reserved":false,"is_disabled":false,"rental_uris":{"android":"levelo://app?vid=f12f0085-0d08-433e-9e1e-fad49550d898","ios":"levelo://app?vid=f12f0085-0d08-433e-9e1e-fad49550d898"},"vehicle_type_id":"4","last_reported":1736867303,"current_range_meters":20000,"station_id":"ce4bgkp2rcd13ifvqbmg","pricing_plan_id":"cebpf4jnsgd1na2vs0mg"},{"bike_id":"bd3c2a7e-c55b-4751-a49d-61f0b7fd6a89","system_id":"levelo_inurba_marseille","lat":43.25493,"lon":5.37646,"is_reserved":false,"is_disabled":false,"rental_uris":{"android":"levelo://app?vid=bd3c2a7e-c55b-4751-a49d-61f0b7fd6a89","ios":"levelo://app?vid=bd3c2a7e-c55b-4751-a49d-61f0b7fd6a89"},"vehicle_type_id":"4","last_reported":1736867303,"current_range_meters":18800,"station_id":"ce4bhh12rcd13ifvqff0","pricing_plan_id":"cebpf4jnsgd1na2vs0mg"},{"bike_id":"41922604-c7b8-4e93-9da5-3903771d7233","system_id":"levelo_inurba_marseille","lat":43.24813,"lon":5.37456,"is_reserved":false,"is_disabled":false,"rental_uris":{"android":"levelo://app?vid=41922604-c7b8-4e93-9da5-3903771d7233","ios":"levelo://app?vid=41922604-c7b8-4e93-9da5-3903771d7233"},"vehicle_type_id":"4","last_reported":1736867303,"current_range_meters":22000,"station_id":"ce4bhgh2rcd13ifvqfb0","pricing_plan_id":"cebpf4jnsgd1na2vs0mg"},{"bike_id":"4a052bef-d121-4854-82e0-1730db1a76d2","system_id":"levelo_inurba_marseille","lat":43.26212,"lon":5.37447,"is_reserved":false,"is_disabled":false,"rental_uris":{"android":"levelo://app?vid=4a052bef-d121-4854-82e0-1730db1a76d2","ios":"levelo://app?vid=4a052bef-d121-4854-82e0-1730db1a76d2"},"vehicle_type_id":"4","last_reported":1736867303,"current_range_meters":29600,"station_id":"ce4bhgp2rcd13ifvqfc0","pricing_plan_id":"cebpf4jnsgd1na2vs0mg"},{"bike_id":"306db636-fa13-4023-a4f6-43177835b6db","system_id":"levelo_inurba_marseille","lat":43.25932,"lon":5.40903,"is_reserved":false,"is_disabled":false,"rental_uris":{"android":"levelo://app?vid=306db636-fa13-4023-a4f6-43177835b6db","ios":"levelo://app?vid=306db636-fa13-4023-a4f6-43177835b6db"},"vehicle_type_id":"4","last_reported":1736867303,"current_range_meters":29600,"station_id":"ce4bhm92rcd13ifvqglg","pricing_plan_id":"cebpf4jnsgd1na2vs0mg"},{"bike_id":"e5be95a3-0eea-4494-8794-f157ff040fe7","system_id":"levelo_inurba_marseille","lat":43.28977,"lon":5.37831,"is_reserved":false,"is_disabled":false,"rental_uris":{"android":"levelo://app?vid=e5be95a3-0eea-4494-8794-f157ff040fe7","ios":"levelo://app?vid=e5be95a3-0eea-4494-8794-f157ff040fe7"},"vehicle_type_id":"4","last_reported":1736867303,"current_range_meters":16400,"station_id":"ce4bh9p2rcd13ifvqed0","pricing_plan_id":"cebpf4jnsgd1na2vs0mg"},{"bike_id":"501ae846-42ca-451e-a1b4-fa2bed5c6d77","system_id":"levelo_inurba_marseille","lat":43.29447,"lon":5.39747,"is_reserved":false,"is_disabled":false,"rental_uris":{"android":"levelo://app?vid=501ae846-42ca-451e-a1b4-fa2bed5c6d77","ios":"levelo://app?vid=501ae846-42ca-451e-a1b4-fa2bed5c6d77"},"vehicle_type_id":"4","last_reported":1736867303,"current_range_meters":36000,"station_id":"ce4bh3h2rcd13ifvqdo0","pricing_plan_id":"cebpf4jnsgd1na2vs0mg"},{"bike_id":"7b3e530d-852f-44a5-af31-190b6f397cc2","system_id":"levelo_inurba_marseille","lat":43.29707,"lon":5.3661,"is_reserved":false,"is_disabled":false,"rental_uris":{"android":"levelo://app?vid=7b3e530d-852f-44a5-af31-190b6f397cc2","ios":"levelo://app?vid=7b3e530d-852f-44a5-af31-190b6f397cc2"},"vehicle_type_id":"4","last_reported":1736867303,"current_range_meters":32800,"station_id":"ce4bgn12rcd13ifvqbt0","pricing_plan_id":"cebpf4jnsgd1na2vs0mg"},{"bike_id":"8832f1d0-2427-493b-8456-cac2b4047c3a","system_id":"levelo_inurba_marseille","lat":43.24553,"lon":5.39507,"is_reserved":false,"is_disabled":false,"rental_uris":{"android":"levelo://app?vid=8832f1d0-2427-493b-8456-cac2b4047c3a","ios":"levelo://app?vid=8832f1d0-2427-493b-8456-cac2b4047c3a"},"vehicle_type_id":"4","last_reported":1736867303,"current_range_meters":10800,"station_id":"ce4bhlp2rcd13ifvqgjg","pricing_plan_id":"cebpf4jnsgd1na2vs0mg"},{"bike_id":"70a4d228-2c41-4af9-a3eb-23abb00e4e21","system_id":"levelo_inurba_marseille","lat":43.26053,"lon":5.39392,"is_reserved":false,"is_disabled":false,"rental_uris":{"android":"levelo://app?vid=70a4d228-2c41-4af9-a3eb-23abb00e4e21","ios":"levelo://app?vid=70a4d228-2c41-4af9-a3eb-23abb00e4e21"},"vehicle_type_id":"4","last_reported":1736867303,"current_range_meters":13600,"station_id":"ce4bhh92rcd13ifvqfj0","pricing_plan_id":"cebpf4jnsgd1na2vs0mg"},{"bike_id":"a25392e2-6436-46c2-a3dd-fe1085ee0a37","system_id":"levelo_inurba_marseille","lat":43.297999,"lon":5.380826,"is_reserved":false,"is_disabled":false,"rental_uris":{"android":"levelo://app?vid=a25392e2-6436-46c2-a3dd-fe1085ee0a37","ios":"levelo://app?vid=a25392e2-6436-46c2-a3dd-fe1085ee0a37"},"vehicle_type_id":"4","last_reported":1736867303,"current_range_meters":22000,"station_id":"ce4bgip2rcd13ifvqbb0","pricing_plan_id":"cebpf4jnsgd1na2vs0mg"},{"bike_id":"caa43dea-c673-46fe-a97c-6d7cf0cbdb0f","system_id":"levelo_inurba_marseille","lat":43.26803,"lon":5.40265,"is_reserved":false,"is_disabled":false,"rental_uris":{"android":"levelo://app?vid=caa43dea-c673-46fe-a97c-6d7cf0cbdb0f","ios":"levelo://app?vid=caa43dea-c673-46fe-a97c-6d7cf0cbdb0f"},"vehicle_type_id":"4","last_reported":1736867303,"current_range_meters":37600,"station_id":"ce501612rcd8frsf0b60","pricing_plan_id":"cebpf4jnsgd1na2vs0mg"},{"bike_id":"4ca4be0a-6368-47fa-871a-914312f9653e","system_id":"levelo_inurba_marseille","lat":43.24551,"lon":5.39531,"is_reserved":false,"is_disabled":false,"rental_uris":{"android":"levelo://app?vid=4ca4be0a-6368-47fa-871a-914312f9653e","ios":"levelo://app?vid=4ca4be0a-6368-47fa-871a-914312f9653e"},"vehicle_type_id":"4","last_reported":1736867303,"current_range_meters":24800,"station_id":"ce4bhlp2rcd13ifvqgjg","pricing_plan_id":"cebpf4jnsgd1na2vs0mg"},{"bike_id":"c0d8b23d-d2e7-46ce-a092-7f8459dc28ce","system_id":"levelo_inurba_marseille","lat":43.27617,"lon":5.361,"is_reserved":false,"is_disabled":false,"rental_uris":{"android":"levelo://app?vid=c0d8b23d-d2e7-46ce-a092-7f8459dc28ce","ios":"levelo://app?vid=c0d8b23d-d2e7-46ce-a092-7f8459dc28ce"},"vehicle_type_id":"4","last_reported":1736867303,"current_range_meters":18000,"station_id":"ce4bgj92rcd13ifvqbe0","pricing_plan_id":"cebpf4jnsgd1na2vs0mg"},{"bike_id":"990fb564-2f9b-49b9-9f9a-11acc4c3b165","system_id":"levelo_inurba_marseille","lat":43.302851,"lon":5.400572,"is_reserved":false,"is_disabled":false,"rental_uris":{"android":"levelo://app?vid=990fb564-2f9b-49b9-9f9a-11acc4c3b165","ios":"levelo://app?vid=990fb564-2f9b-49b9-9f9a-11acc4c3b165"},"vehicle_type_id":"4","last_reported":1736867303,"current_range_meters":22400,"station_id":"ce4bgvh2rcd13ifvqcs0","pricing_plan_id":"cebpf4jnsgd1na2vs0mg"},{"bike_id":"5bb528b0-7ae2-48e6-ab60-167f85952f7b","system_id":"levelo_inurba_marseille","lat":43.28696,"lon":5.37381,"is_reserved":false,"is_disabled":false,"rental_uris":{"android":"levelo://app?vid=5bb528b0-7ae2-48e6-ab60-167f85952f7b","ios":"levelo://app?vid=5bb528b0-7ae2-48e6-ab60-167f85952f7b"},"vehicle_type_id":"4","last_reported":1736867303,"current_range_meters":38400,"station_id":"ce4bh3p2rcd13ifvqdq0","pricing_plan_id":"cebpf4jnsgd1na2vs0mg"},{"bike_id":"c6dddc2c-9891-4c8d-88a3-d3a998805ae3","system_id":"levelo_inurba_marseille","lat":43.27195,"lon":5.39161,"is_reserved":false,"is_disabled":false,"rental_uris":{"android":"levelo://app?vid=c6dddc2c-9891-4c8d-88a3-d3a998805ae3","ios":"levelo://app?vid=c6dddc2c-9891-4c8d-88a3-d3a998805ae3"},"vehicle_type_id":"4","last_reported":1736867303,"current_range_meters":9200,"station_id":"ce4bhhp2rcd13ifvqfm0","pricing_plan_id":"cebpf4jnsgd1na2vs0mg"},{"bike_id":"a02620a2-818b-4464-b2c4-016bf20c3041","system_id":"levelo_inurba_marseille","lat":43.28933,"lon":5.36621,"is_reserved":false,"is_disabled":false,"rental_uris":{"android":"levelo://app?vid=a02620a2-818b-4464-b2c4-016bf20c3041","ios":"levelo://app?vid=a02620a2-818b-4464-b2c4-016bf20c3041"},"vehicle_type_id":"4","last_reported":1736867303,"current_range_meters":24400,"station_id":"ce4bhap2rcd13ifvqek0","pricing_plan_id":"cebpf4jnsgd1na2vs0mg"},{"bike_id":"87339157-d961-4cf9-9dd5-00fb3246061f","system_id":"levelo_inurba_marseille","lat":43.25912,"lon":5.40849,"is_reserved":false,"is_disabled":false,"rental_uris":{"android":"levelo://app?vid=87339157-d961-4cf9-9dd5-00fb3246061f","ios":"levelo://app?vid=87339157-d961-4cf9-9dd5-00fb3246061f"},"vehicle_type_id":"4","last_reported":1736867303,"current_range_meters":27600,"station_id":"ce4bhm92rcd13ifvqglg","pricing_plan_id":"cebpf4jnsgd1na2vs0mg"},{"bike_id":"1dc64d76-fff0-460c-af84-eaea7614f529","system_id":"levelo_inurba_marseille","lat":43.26935,"lon":5.40257,"is_reserved":false,"is_disabled":false,"rental_uris":{"android":"levelo://app?vid=1dc64d76-fff0-460c-af84-eaea7614f529","ios":"levelo://app?vid=1dc64d76-fff0-460c-af84-eaea7614f529"},"vehicle_type_id":"4","last_reported":1736867303,"current_range_meters":38800,"station_id":"cjm6bp8fraef2m0cb0m0","pricing_plan_id":"cebpf4jnsgd1na2vs0mg"},{"bike_id":"a8750585-0715-4d02-92f4-12b0ba163807","system_id":"levelo_inurba_marseille","lat":43.29601,"lon":5.38088,"is_reserved":false,"is_disabled":false,"rental_uris":{"android":"levelo://app?vid=a8750585-0715-4d02-92f4-12b0ba163807","ios":"levelo://app?vid=a8750585-0715-4d02-92f4-12b0ba163807"},"vehicle_type_id":"4","last_reported":1736867303,"current_range_meters":28800,"station_id":"ce4bgl12rcd13ifvqbo0","pricing_plan_id":"cebpf4jnsgd1na2vs0mg"},{"bike_id":"70bb04f2-c235-469f-9b89-85336ba71383","system_id":"levelo_inurba_marseille","lat":43.27951,"lon":5.4104,"is_reserved":false,"is_disabled":false,"rental_uris":{"android":"levelo://app?vid=70bb04f2-c235-469f-9b89-85336ba71383","ios":"levelo://app?vid=70bb04f2-c235-469f-9b89-85336ba71383"},"vehicle_type_id":"4","last_reported":1736867303,"current_range_meters":36400,"station_id":"ce4bhnp2rcd13ifvqh0g","pricing_plan_id":"cebpf4jnsgd1na2vs0mg"},{"bike_id":"c0fd2063-31ae-4171-af17-771dbb4fa212","system_id":"levelo_inurba_marseille","lat":43.22937,"lon":5.35389,"is_reserved":false,"is_disabled":false,"rental_uris":{"android":"levelo://app?vid=c0fd2063-31ae-4171-af17-771dbb4fa212","ios":"levelo://app?vid=c0fd2063-31ae-4171-af17-771dbb4fa212"},"vehicle_type_id":"4","last_reported":1736867303,"current_range_meters":39200,"station_id":"cpo3532slgdg3j2ikp40","pricing_plan_id":"cebpf4jnsgd1na2vs0mg"},{"bike_id":"f0b2ff43-c111-44f5-aeac-ce95fe758fba","system_id":"levelo_inurba_marseille","lat":43.29605,"lon":5.38101,"is_reserved":false,"is_disabled":false,"rental_uris":{"android":"levelo://app?vid=f0b2ff43-c111-44f5-aeac-ce95fe758fba","ios":"levelo://app?vid=f0b2ff43-c111-44f5-aeac-ce95fe758fba"},"vehicle_type_id":"4","last_reported":1736867303,"current_range_meters":39200,"station_id":"ce4bgl12rcd13ifvqbo0","pricing_plan_id":"cebpf4jnsgd1na2vs0mg"},{"bike_id":"38b4d54b-92ce-4cb9-a7b2-7469cd49e939","system_id":"levelo_inurba_marseille","lat":43.29617,"lon":5.37719,"is_reserved":false,"is_disabled":false,"rental_uris":{"android":"levelo://app?vid=38b4d54b-92ce-4cb9-a7b2-7469cd49e939","ios":"levelo://app?vid=38b4d54b-92ce-4cb9-a7b2-7469cd49e939"},"vehicle_type_id":"4","last_reported":1736867303,"current_range_meters":32000,"station_id":"ce4bgi92rcd13ifvqb90","pricing_plan_id":"cebpf4jnsgd1na2vs0mg"},{"bike_id":"4b5e0a9e-afb5-4b54-a541-23f3477cd886","system_id":"levelo_inurba_marseille","lat":43.27205,"lon":5.39187,"is_reserved":false,"is_disabled":false,"rental_uris":{"android":"levelo://app?vid=4b5e0a9e-afb5-4b54-a541-23f3477cd886","ios":"levelo://app?vid=4b5e0a9e-afb5-4b54-a541-23f3477cd886"},"vehicle_type_id":"4","last_reported":1736867303,"current_range_meters":34000,"station_id":"ce4bhhp2rcd13ifvqfm0","pricing_plan_id":"cebpf4jnsgd1na2vs0mg"},{"bike_id":"00f2e16c-b5cf-4994-abfd-55dfb0e44d97","system_id":"levelo_inurba_marseille","lat":43.2549,"lon":5.37653,"is_reserved":false,"is_disabled":false,"rental_uris":{"android":"levelo://app?vid=00f2e16c-b5cf-4994-abfd-55dfb0e44d97","ios":"levelo://app?vid=00f2e16c-b5cf-4994-abfd-55dfb0e44d97"},"vehicle_type_id":"4","last_reported":1736867303,"current_range_meters":38800,"station_id":"ce4bhh12rcd13ifvqff0","pricing_plan_id":"cebpf4jnsgd1na2vs0mg"},{"bike_id":"df50f2f3-f29e-4ed4-8d0d-c9e3d0fef4c3","system_id":"levelo_inurba_marseille","lat":43.29264,"lon":5.40911,"is_reserved":false,"is_disabled":false,"rental_uris":{"android":"levelo://app?vid=df50f2f3-f29e-4ed4-8d0d-c9e3d0fef4c3","ios":"levelo://app?vid=df50f2f3-f29e-4ed4-8d0d-c9e3d0fef4c3"},"vehicle_type_id":"4","last_reported":1736867303,"current_range_meters":39200,"station_id":"ce4bh192rcd13ifvqdc0","pricing_plan_id":"cebpf4jnsgd1na2vs0mg"},{"bike_id":"35fd5a18-3aee-41f8-9a59-d08ac1a36a9a","system_id":"levelo_inurba_marseille","lat":43.26946,"lon":5.38638,"is_reserved":false,"is_disabled":false,"rental_uris":{"android":"levelo://app?vid=35fd5a18-3aee-41f8-9a59-d08ac1a36a9a","ios":"levelo://app?vid=35fd5a18-3aee-41f8-9a59-d08ac1a36a9a"},"vehicle_type_id":"4","last_reported":1736867303,"current_range_meters":27200,"station_id":"ce4bhh92rcd13ifvqfh0","pricing_plan_id":"cebpf4jnsgd1na2vs0mg"},{"bike_id":"8e1700e2-2825-47f3-9373-6fc227095b7d","system_id":"levelo_inurba_marseille","lat":43.24174,"lon":5.36396,"is_reserved":false,"is_disabled":false,"rental_uris":{"android":"levelo://app?vid=8e1700e2-2825-47f3-9373-6fc227095b7d","ios":"levelo://app?vid=8e1700e2-2825-47f3-9373-6fc227095b7d"},"vehicle_type_id":"4","last_reported":1736867303,"current_range_meters":38800,"station_id":"cpo36qri1sfpv3e86is0","pricing_plan_id":"cebpf4jnsgd1na2vs0mg"},{"bike_id":"e5573715-09fa-4dab-b1d8-e7410696aa39","system_id":"levelo_inurba_marseille","lat":43.323619,"lon":5.367562,"is_reserved":false,"is_disabled":false,"rental_uris":{"android":"levelo://app?vid=e5573715-09fa-4dab-b1d8-e7410696aa39","ios":"levelo://app?vid=e5573715-09fa-4dab-b1d8-e7410696aa39"},"vehicle_type_id":"4","last_reported":1736867303,"current_range_meters":24400,"station_id":"ce4bhsh2rcd13ifvqi2g","pricing_plan_id":"cebpf4jnsgd1na2vs0mg"},{"bike_id":"065e4cd0-50f7-4aa9-ae84-4166193516a6","system_id":"levelo_inurba_marseille","lat":43.23195,"lon":5.3556,"is_reserved":false,"is_disabled":false,"rental_uris":{"android":"levelo://app?vid=065e4cd0-50f7-4aa9-ae84-4166193516a6","ios":"levelo://app?vid=065e4cd0-50f7-4aa9-ae84-4166193516a6"},"vehicle_type_id":"4","last_reported":1736867303,"current_range_meters":29600,"station_id":"ce4bhu92rcd13ifvqi70","pricing_plan_id":"cebpf4jnsgd1na2vs0mg"},{"bike_id":"4a4d296c-e71a-4d73-8515-0b49a9079d8d","system_id":"levelo_inurba_marseille","lat":43.23198,"lon":5.39971,"is_reserved":false,"is_disabled":false,"rental_uris":{"android":"levelo://app?vid=4a4d296c-e71a-4d73-8515-0b49a9079d8d","ios":"levelo://app?vid=4a4d296c-e71a-4d73-8515-0b49a9079d8d"},"vehicle_type_id":"4","last_reported":1736867303,"current_range_meters":28800,"station_id":"ce4bhn12rcd13ifvqgqg","pricing_plan_id":"cebpf4jnsgd1na2vs0mg"},{"bike_id":"d28c64db-672d-4dc2-9aa8-36d7327fadae","system_id":"levelo_inurba_marseille","lat":43.31427,"lon":5.37404,"is_reserved":false,"is_disabled":false,"rental_uris":{"android":"levelo://app?vid=d28c64db-672d-4dc2-9aa8-36d7327fadae","ios":"levelo://app?vid=d28c64db-672d-4dc2-9aa8-36d7327fadae"},"vehicle_type_id":"4","last_reported":1736867303,"current_range_meters":10800,"station_id":"","pricing_plan_id":"cebpf4jnsgd1na2vs0mg"},{"bike_id":"12a77688-55d2-40a5-9210-63376f169f15","system_id":"levelo_inurba_marseille","lat":43.24999,"lon":5.38936,"is_reserved":false,"is_disabled":false,"rental_uris":{"android":"levelo://app?vid=12a77688-55d2-40a5-9210-63376f169f15","ios":"levelo://app?vid=12a77688-55d2-40a5-9210-63376f169f15"},"vehicle_type_id":"4","last_reported":1736867303,"current_range_meters":16400,"station_id":"ce4bhgp2rcd13ifvqfd0","pricing_plan_id":"cebpf4jnsgd1na2vs0mg"},{"bike_id":"6027163c-6e0b-44a2-bfed-3a477a83b455","system_id":"levelo_inurba_marseille","lat":43.31699,"lon":5.37757,"is_reserved":false,"is_disabled":true,"rental_uris":{"android":"levelo://app?vid=6027163c-6e0b-44a2-bfed-3a477a83b455","ios":"levelo://app?vid=6027163c-6e0b-44a2-bfed-3a477a83b455"},"vehicle_type_id":"4","last_reported":1736867303,"current_range_meters":38800,"station_id":"ce4bgth2rcd13ifvqch0","pricing_plan_id":"cebpf4jnsgd1na2vs0mg"},{"bike_id":"8794b6cf-e720-4eae-b632-a02c86f886af","system_id":"levelo_inurba_marseille","lat":43.31284,"lon":5.40173,"is_reserved":false,"is_disabled":false,"rental_uris":{"android":"levelo://app?vid=8794b6cf-e720-4eae-b632-a02c86f886af","ios":"levelo://app?vid=8794b6cf-e720-4eae-b632-a02c86f886af"},"vehicle_type_id":"4","last_reported":1736867303,"current_range_meters":24800,"station_id":"ce4bh092rcd13ifvqd30","pricing_plan_id":"cebpf4jnsgd1na2vs0mg"},{"bike_id":"899f1ec4-8cb9-4bae-96ba-9b1408d80c6d","system_id":"levelo_inurba_marseille","lat":43.255031,"lon":5.376574,"is_reserved":false,"is_disabled":false,"rental_uris":{"android":"levelo://app?vid=899f1ec4-8cb9-4bae-96ba-9b1408d80c6d","ios":"levelo://app?vid=899f1ec4-8cb9-4bae-96ba-9b1408d80c6d"},"vehicle_type_id":"4","last_reported":1736867303,"current_range_meters":38800,"station_id":"ce4bhh12rcd13ifvqff0","pricing_plan_id":"cebpf4jnsgd1na2vs0mg"},{"bike_id":"4725ae05-b600-47b7-ba70-7352c8181ea5","system_id":"levelo_inurba_marseille","lat":43.27417,"lon":5.39032,"is_reserved":false,"is_disabled":true,"rental_uris":{"android":"levelo://app?vid=4725ae05-b600-47b7-ba70-7352c8181ea5","ios":"levelo://app?vid=4725ae05-b600-47b7-ba70-7352c8181ea5"},"vehicle_type_id":"4","last_reported":1736867303,"current_range_meters":0,"station_id":"","pricing_plan_id":"cebpf4jnsgd1na2vs0mg"},{"bike_id":"149a0840-bbfd-48b2-84c9-2a791f3253b3","system_id":"levelo_inurba_marseille","lat":43.31722,"lon":5.37775,"is_reserved":false,"is_disabled":false,"rental_uris":{"android":"levelo://app?vid=149a0840-bbfd-48b2-84c9-2a791f3253b3","ios":"levelo://app?vid=149a0840-bbfd-48b2-84c9-2a791f3253b3"},"vehicle_type_id":"4","last_reported":1736867303,"current_range_meters":38800,"station_id":"ce4bgth2rcd13ifvqch0","pricing_plan_id":"cebpf4jnsgd1na2vs0mg"},{"bike_id":"3457e7a5-a6dc-4c97-a590-b9812466330e","system_id":"levelo_inurba_marseille","lat":43.28419,"lon":5.349903,"is_reserved":false,"is_disabled":false,"rental_uris":{"android":"levelo://app?vid=3457e7a5-a6dc-4c97-a590-b9812466330e","ios":"levelo://app?vid=3457e7a5-a6dc-4c97-a590-b9812466330e"},"vehicle_type_id":"4","last_reported":1736867303,"current_range_meters":35600,"station_id":"ce4bhbh2rcd13ifvqepg","pricing_plan_id":"cebpf4jnsgd1na2vs0mg"},{"bike_id":"1037ee1f-541f-4282-bc63-e8800ee1d0c4","system_id":"levelo_inurba_marseille","lat":43.24652,"lon":5.38915,"is_reserved":false,"is_disabled":false,"rental_uris":{"android":"levelo://app?vid=1037ee1f-541f-4282-bc63-e8800ee1d0c4","ios":"levelo://app?vid=1037ee1f-541f-4282-bc63-e8800ee1d0c4"},"vehicle_type_id":"4","last_reported":1736867303,"current_range_meters":38400,"station_id":"ce4bhg12rcd13ifvqf60","pricing_plan_id":"cebpf4jnsgd1na2vs0mg"},{"bike_id":"36348e1a-1dc7-4683-96e2-31f0b7986ae7","system_id":"levelo_inurba_marseille","lat":43.25572,"lon":5.38253,"is_reserved":false,"is_disabled":false,"rental_uris":{"android":"levelo://app?vid=36348e1a-1dc7-4683-96e2-31f0b7986ae7","ios":"levelo://app?vid=36348e1a-1dc7-4683-96e2-31f0b7986ae7"},"vehicle_type_id":"4","last_reported":1736867303,"current_range_meters":33600,"station_id":"ce4bhih2rcd13ifvqfs0","pricing_plan_id":"cebpf4jnsgd1na2vs0mg"},{"bike_id":"3436c689-3408-4332-81b0-a2ad61949f47","system_id":"levelo_inurba_marseille","lat":43.29989,"lon":5.37187,"is_reserved":false,"is_disabled":false,"rental_uris":{"android":"levelo://app?vid=3436c689-3408-4332-81b0-a2ad61949f47","ios":"levelo://app?vid=3436c689-3408-4332-81b0-a2ad61949f47"},"vehicle_type_id":"4","last_reported":1736867303,"current_range_meters":37600,"station_id":"ce4bgr92rcd13ifvqc7g","pricing_plan_id":"cebpf4jnsgd1na2vs0mg"},{"bike_id":"0df7ec32-d176-4bdd-9549-f03a018636e8","system_id":"levelo_inurba_marseille","lat":43.24681,"lon":5.38172,"is_reserved":false,"is_disabled":false,"rental_uris":{"android":"levelo://app?vid=0df7ec32-d176-4bdd-9549-f03a018636e8","ios":"levelo://app?vid=0df7ec32-d176-4bdd-9549-f03a018636e8"},"vehicle_type_id":"4","last_reported":1736867303,"current_range_meters":34000,"station_id":"ce4bhih2rcd13ifvqfr0","pricing_plan_id":"cebpf4jnsgd1na2vs0mg"},{"bike_id":"c73e3fe8-115f-4ee8-86d1-6132a2a1e88a","system_id":"levelo_inurba_marseille","lat":43.28361,"lon":5.3811,"is_reserved":false,"is_disabled":false,"rental_uris":{"android":"levelo://app?vid=c73e3fe8-115f-4ee8-86d1-6132a2a1e88a","ios":"levelo://app?vid=c73e3fe8-115f-4ee8-86d1-6132a2a1e88a"},"vehicle_type_id":"4","last_reported":1736867303,"current_range_meters":14000,"station_id":"ce4bh412rcd13ifvqdr0","pricing_plan_id":"cebpf4jnsgd1na2vs0mg"},{"bike_id":"92ddc2ae-b4d5-4fa4-b924-dbdbe92963df","system_id":"levelo_inurba_marseille","lat":43.23976,"lon":5.36622,"is_reserved":false,"is_disabled":false,"rental_uris":{"android":"levelo://app?vid=92ddc2ae-b4d5-4fa4-b924-dbdbe92963df","ios":"levelo://app?vid=92ddc2ae-b4d5-4fa4-b924-dbdbe92963df"},"vehicle_type_id":"4","last_reported":1736867303,"current_range_meters":24800,"station_id":"ce4bhi12rcd13ifvqfp0","pricing_plan_id":"cebpf4jnsgd1na2vs0mg"},{"bike_id":"8be4b701-254c-422d-83e2-6a5b59f144f0","system_id":"levelo_inurba_marseille","lat":43.29932,"lon":5.37466,"is_reserved":false,"is_disabled":false,"rental_uris":{"android":"levelo://app?vid=8be4b701-254c-422d-83e2-6a5b59f144f0","ios":"levelo://app?vid=8be4b701-254c-422d-83e2-6a5b59f144f0"},"vehicle_type_id":"4","last_reported":1736867303,"current_range_meters":8000,"station_id":"ce4bgjh2rcd13ifvqbg0","pricing_plan_id":"cebpf4jnsgd1na2vs0mg"},{"bike_id":"bb6d195e-f173-4196-aa74-3b46dca8c004","system_id":"levelo_inurba_marseille","lat":43.29177,"lon":5.37158,"is_reserved":false,"is_disabled":false,"rental_uris":{"android":"levelo://app?vid=bb6d195e-f173-4196-aa74-3b46dca8c004","ios":"levelo://app?vid=bb6d195e-f173-4196-aa74-3b46dca8c004"},"vehicle_type_id":"4","last_reported":1736867303,"current_range_meters":16800,"station_id":"ce4bha92rcd13ifvqeh0","pricing_plan_id":"cebpf4jnsgd1na2vs0mg"},{"bike_id":"0ad4cdd2-132c-4c1d-aad1-bff79c3d7950","system_id":"levelo_inurba_marseille","lat":43.30258,"lon":5.40075,"is_reserved":false,"is_disabled":false,"rental_uris":{"android":"levelo://app?vid=0ad4cdd2-132c-4c1d-aad1-bff79c3d7950","ios":"levelo://app?vid=0ad4cdd2-132c-4c1d-aad1-bff79c3d7950"},"vehicle_type_id":"4","last_reported":1736867303,"current_range_meters":30400,"station_id":"ce4bgvh2rcd13ifvqcs0","pricing_plan_id":"cebpf4jnsgd1na2vs0mg"},{"bike_id":"8aace502-ec3c-4e61-9ed0-00941632ce12","system_id":"levelo_inurba_marseille","lat":43.29029,"lon":5.38626,"is_reserved":false,"is_disabled":false,"rental_uris":{"android":"levelo://app?vid=8aace502-ec3c-4e61-9ed0-00941632ce12","ios":"levelo://app?vid=8aace502-ec3c-4e61-9ed0-00941632ce12"},"vehicle_type_id":"4","last_reported":1736867303,"current_range_meters":27600,"station_id":"ce4bh4p2rcd13ifvqe0g","pricing_plan_id":"cebpf4jnsgd1na2vs0mg"},{"bike_id":"b83e1677-b52b-47a0-baaa-e1e20bc54298","system_id":"levelo_inurba_marseille","lat":43.30161,"lon":5.36606,"is_reserved":false,"is_disabled":false,"rental_uris":{"android":"levelo://app?vid=b83e1677-b52b-47a0-baaa-e1e20bc54298","ios":"levelo://app?vid=b83e1677-b52b-47a0-baaa-e1e20bc54298"},"vehicle_type_id":"4","last_reported":1736867303,"current_range_meters":39200,"station_id":"ce4bgrh2rcd13ifvqc8g","pricing_plan_id":"cebpf4jnsgd1na2vs0mg"},{"bike_id":"5d6ee491-db6f-4a2a-8dad-1e433239109a","system_id":"levelo_inurba_marseille","lat":43.25565,"lon":5.38232,"is_reserved":false,"is_disabled":false,"rental_uris":{"android":"levelo://app?vid=5d6ee491-db6f-4a2a-8dad-1e433239109a","ios":"levelo://app?vid=5d6ee491-db6f-4a2a-8dad-1e433239109a"},"vehicle_type_id":"4","last_reported":1736867303,"current_range_meters":36800,"station_id":"ce4bhih2rcd13ifvqfs0","pricing_plan_id":"cebpf4jnsgd1na2vs0mg"},{"bike_id":"be7f67e2-9950-4c5a-8c00-578a0f2f1702","system_id":"levelo_inurba_marseille","lat":43.27684,"lon":5.38891,"is_reserved":false,"is_disabled":false,"rental_uris":{"android":"levelo://app?vid=be7f67e2-9950-4c5a-8c00-578a0f2f1702","ios":"levelo://app?vid=be7f67e2-9950-4c5a-8c00-578a0f2f1702"},"vehicle_type_id":"4","last_reported":1736867303,"current_range_meters":28400,"station_id":"ce4bhi12rcd13ifvqfo0","pricing_plan_id":"cebpf4jnsgd1na2vs0mg"},{"bike_id":"3499a5c7-66e0-4051-9e7f-7147a3724b43","system_id":"levelo_inurba_marseille","lat":43.28983,"lon":5.37833,"is_reserved":false,"is_disabled":false,"rental_uris":{"android":"levelo://app?vid=3499a5c7-66e0-4051-9e7f-7147a3724b43","ios":"levelo://app?vid=3499a5c7-66e0-4051-9e7f-7147a3724b43"},"vehicle_type_id":"4","last_reported":1736867303,"current_range_meters":33200,"station_id":"ce4bh9p2rcd13ifvqed0","pricing_plan_id":"cebpf4jnsgd1na2vs0mg"},