{"last_updated":1741450136,"ttl":60,"version":"2.2","data":{"bikes":[{"bike_id":"e3565dcf-4d34-49d7-919b-1234920ea466","system_id":"levelo_inurba_marseille","lat":43.33746,"lon":5.3745,"is_reserved":false,"is_disabled":false,"rental_uris":{"android":"levelo://app?vid=e3565dcf-4d34-49d7-919b-1234920ea466","ios":"levelo://app?vid=e3565dcf-4d34-49d7-919b-1234920ea466"},"vehicle_type_id":"4","last_reported":1741450136,"current_range_meters":35600,"station_id":"","pricing_plan_id":"cebpf4jnsgd1na2vs0mg"},{"bike_id":"de10dad3-cc48-400a-922c-cca5bf1a3a20","system_id":"levelo_inurba_marseille","lat":43.29301,"lon":5.36999,"is_reserved":false,"is_disabled":true,"rental_uris":{"android":"levelo://app?vid=de10dad3-cc48-400a-922c-cca5bf1a3a20","ios":"levelo://app?vid=de10dad3-cc48-400a-922c-cca5bf1a3a20"},"vehicle_type_id":"4","last_reported":1741450136,"current_range_meters":0,"station_id":"","pricing_plan_id":"cebpf4jnsgd1na2vs0mg"},{"bike_id":"84fd8a9d-d33c-4402-bbe4-001e62a7f660","system_id":"levelo_inurba_marseille","lat":43.26567,"lon":5.39882,"is_reserved":false,"is_disabled":true,"rental_uris":{"android":"levelo://app?vid=84fd8a9d-d33c-4402-bbe4-001e62a7f660","ios":"levelo://app?vid=84fd8a9d-d33c-4402-bbe4-001e62a7f660"},"vehicle_type_id":"4","last_reported":1741450136,"current_range_meters":0,"station_id":"","pricing_plan_id":"cebpf4jnsgd1na2vs0mg"},{"bike_id":"ee1d2ad1-36ca-49dd-a328-f2a9a9994ecb","system_id":"levelo_inurba_marseille","lat":43.310869,"lon":5.38131,"is_reserved":false,"is_disabled":true,"rental_uris":{"android":"levelo://app?vid=ee1d2ad1-36ca-49dd-a328-f2a9a9994ecb","ios":"levelo://app?vid=ee1d2ad1-36ca-49dd-a328-f2a9a9994ecb"},"vehicle_type_id":"4","last_reported":1741450136,"current_range_meters":0,"station_id":"","pricing_plan_id":"cebpf4jnsgd1na2vs0mg"},{"bike_id":"4a17d1b8-749f-4ead-8e77-3be80208c84b","system_id":"levelo_inurba_marseille","lat":43.28127,"lon":5.39887,"is_reserved":false,"is_disabled":true,"rental_uris":{"android":"levelo://app?vid=4a17d1b8-749f-4ead-8e77-3be80208c84b","ios":"levelo://app?vid=4a17d1b8-749f-4ead-8e77-3be80208c84b"},"vehicle_type_id":"4","last_reported":1741450136,"current_range_meters":0,"station_id":"","pricing_plan_id":"cebpf4jnsgd1na2vs0mg"},{"bike_id":"9c2a65ea-f853-4980-96dd-92ca8e872fcd","system_id":"levelo_inurba_marseille","lat":43.24895,"lon":5.4091,"is_reserved":false,"is_disabled":true,"rental_uris":{"android":"levelo://app?vid=9c2a65ea-f853-4980-96dd-92ca8e872fcd","ios":"levelo://app?vid=9c2a65ea-f853-4980-96dd-92ca8e872fcd"},"vehicle_type_id":"4","last_reported":1741450136,"current_range_meters":0,"station_id":"","pricing_plan_id":"cebpf4jnsgd1na2vs0mg"},{"bike_id":"b2ec9c0e-2031-4e3a-8297-4313a9eb84b1","system_id":"levelo_inurba_marseille","lat":43.30547,"lon":5.38419,"is_reserved":false,"is_disabled":true,"rental_uris":{"android":"levelo://app?vid=b2ec9c0e-2031-4e3a-8297-4313a9eb84b1","ios":"levelo://app?vid=b2ec9c0e-2031-4e3a-8297-4313a9eb84b1"},"vehicle_type_id":"4","last_reported":1741450136,"current_range_meters":0,"station_id":"ce4bgg92rcd13ifvqb30","pricing_plan_id":"cebpf4jnsgd1na2vs0mg"},{"bike_id":"6d6889ff-bdf9-4a23-9c55-3675a934c80f","system_id":"levelo_inurba_marseille","lat":43.2977,"lon":5.38124,"is_reserved":false,"is_disabled":true,"rental_uris":{"android":"levelo://app?vid=6d6889ff-bdf9-4a23-9c55-3675a934c80f","ios":"levelo://app?vid=6d6889ff-bdf9-4a23-9c55-3675a934c80f"},"vehicle_type_id":"4","last_reported":1741450136,"current_range_meters":0,"station_id":"ce4bgip2rcd13ifvqbb0","pricing_plan_id":"cebpf4jnsgd1na2vs0mg"},{"bike_id":"2071c777-f85a-4290-a41b-363a5d2b985b","system_id":"levelo_inurba_marseille","lat":43.30547,"lon":5.38425,"is_reserved":false,"is_disabled":true,"rental_uris":{"android":"levelo://app?vid=2071c777-f85a-4290-a41b-363a5d2b985b","ios":"levelo://app?vid=2071c777-f85a-4290-a41b-363a5d2b985b"},"vehicle_type_id":"4","last_reported":1741450136,"current_range_meters":0,"station_id":"ce4bgj92rcd13ifvqbd0","pricing_plan_id":"cebpf4jnsgd1na2vs0mg"},{"bike_id":"d0964a62-dfbd-4aea-865d-5acdc6fcfe0b","system_id":"levelo_inurba_marseille","lat":43.27611,"lon":5.36113,"is_reserved":false,"is_disabled":true,"rental_uris":{"android":"levelo://app?vid=d0964a62-dfbd-4aea-865d-5acdc6fcfe0b","ios":"levelo://app?vid=d0964a62-dfbd-4aea-865d-5acdc6fcfe0b"},"vehicle_type_id":"4","last_reported":1741450136,"current_range_meters":0,"station_id":"ce4bgj92rcd13ifvqbe0","pricing_plan_id":"cebpf4jnsgd1na2vs0mg"},{"bike_id":"7d431e15-4121-4a3f-a2df-ff25345a5e71","system_id":"levelo_inurba_marseille","lat":43.27615,"lon":5.36115,"is_reserved":false,"is_disabled":true,"rental_uris":{"android":"levelo://app?vid=7d431e15-4121-4a3f-a2df-ff25345a5e71","ios":"levelo://app?vid=7d431e15-4121-4a3f-a2df-ff25345a5e71"},"vehicle_type_id":"4","last_reported":1741450136,"current_range_meters":0,"station_id":"ce4bgj92rcd13ifvqbe0","pricing_plan_id":"cebpf4jnsgd1na2vs0mg"},{"bike_id":"a8903029-f560-4dba-a264-dbe8796cc6f4","system_id":"levelo_inurba_marseille","lat":43.29972,"lon":5.37176,"is_reserved":false,"is_disabled":true,"rental_uris":{"android":"levelo://app?vid=a8903029-f560-4dba-a264-dbe8796cc6f4","ios":"levelo://app?vid=a8903029-f560-4dba-a264-dbe8796cc6f4"},"vehicle_type_id":"4","last_reported":1741450136,"current_range_meters":0,"station_id":"ce4bgr92rcd13ifvqc7g","pricing_plan_id":"cebpf4jnsgd1na2vs0mg"},{"bike_id":"e25ff3e8-f48d-4004-9584-6e128b29874a","system_id":"levelo_inurba_marseille","lat":43.31075,"lon":5.38357,"is_reserved":false,"is_disabled":true,"rental_uris":{"android":"levelo://app?vid=e25ff3e8-f48d-4004-9584-6e128b29874a","ios":"levelo://app?vid=e25ff3e8-f48d-4004-9584-6e128b29874a"},"vehicle_type_id":"4","last_reported":1741450136,"current_range_meters":0,"station_id":"ce4bgv92rcd13ifvqcr0","pricing_plan_id":"cebpf4jnsgd1na2vs0mg"},{"bike_id":"f30f70e8-a9ad-4ec8-95dc-2c18bed54876","system_id":"levelo_inurba_marseille","lat":43.29874,"lon":5.39733,"is_reserved":false,"is_disabled":true,"rental_uris":{"android":"levelo://app?vid=f30f70e8-a9ad-4ec8-95dc-2c18bed54876","ios":"levelo://app?vid=f30f70e8-a9ad-4ec8-95dc-2c18bed54876"},"vehicle_type_id":"4","last_reported":1741450136,"current_range_meters":0,"station_id":"ce4bh0h2rcd13ifvqd50","pricing_plan_id":"cebpf4jnsgd1na2vs0mg"},{"bike_id":"31aef990-147c-4bf1-a83d-ab960faa5093","system_id":"levelo_inurba_marseille","lat":43.28676,"lon":5.38665,"is_reserved":false,"is_disabled":true,"rental_uris":{"android":"levelo://app?vid=31aef990-147c-4bf1-a83d-ab960faa5093","ios":"levelo://app?vid=31aef990-147c-4bf1-a83d-ab960faa5093"},"vehicle_type_id":"4","last_reported":1741450136,"current_range_meters":0,"station_id":"ce4bh492rcd13ifvqdug","pricing_plan_id":"cebpf4jnsgd1na2vs0mg"},{"bike_id":"7b99e9da-e0a5-4042-853a-7bf0e08f2b8e","system_id":"levelo_inurba_marseille","lat":43.28694,"lon":5.38657,"is_reserved":false,"is_disabled":true,"rental_uris":{"android":"levelo://app?vid=7b99e9da-e0a5-4042-853a-7bf0e08f2b8e","ios":"levelo://app?vid=7b99e9da-e0a5-4042-853a-7bf0e08f2b8e"},"vehicle_type_id":"4","last_reported":1741450136,"current_range_meters":0,"station_id":"ce4bh492rcd13ifvqdug","pricing_plan_id":"cebpf4jnsgd1na2vs0mg"},{"bike_id":"0c7b444f-8221-40f7-8f63-b0a9cbbe0038","system_id":"levelo_inurba_marseille","lat":43.27376,"lon":5.36244,"is_reserved":false,"is_disabled":true,"rental_uris":{"android":"levelo://app?vid=0c7b444f-8221-40f7-8f63-b0a9cbbe0038","ios":"levelo://app?vid=0c7b444f-8221-40f7-8f63-b0a9cbbe0038"},"vehicle_type_id":"4","last_reported":1741450136,"current_range_meters":0,"station_id":"ce4bhbh2rcd13ifvqeo0","pricing_plan_id":"cebpf4jnsgd1na2vs0mg"},{"bike_id":"ee7c5bcc-3970-47ff-994e-7c69e8119331","system_id":"levelo_inurba_marseille","lat":43.2606,"lon":5.394,"is_reserved":false,"is_disabled":true,"rental_uris":{"android":"levelo://app?vid=ee7c5bcc-3970-47ff-994e-7c69e8119331","ios":"levelo://app?vid=ee7c5bcc-3970-47ff-994e-7c69e8119331"},"vehicle_type_id":"4","last_reported":1741450136,"current_range_meters":0,"station_id":"ce4bhh92rcd13ifvqfj0","pricing_plan_id":"cebpf4jnsgd1na2vs0mg"},{"bike_id":"ab1b3a14-a35d-425e-9e62-5c3f319ca7d4","system_id":"levelo_inurba_marseille","lat":43.27669,"lon":5.38877,"is_reserved":false,"is_disabled":true,"rental_uris":{"android":"levelo://app?vid=ab1b3a14-a35d-425e-9e62-5c3f319ca7d4","ios":"levelo://app?vid=ab1b3a14-a35d-425e-9e62-5c3f319ca7d4"},"vehicle_type_id":"4","last_reported":1741450136,"current_range_meters":0,"station_id":"ce4bhi12rcd13ifvqfo0","pricing_plan_id":"cebpf4jnsgd1na2vs0mg"},{"bike_id":"1d90ed8f-26d1-46f9-9b6a-7166e914c6cd","system_id":"levelo_inurba_marseille","lat":43.23963,"lon":5.36626,"is_reserved":false,"is_disabled":true,"rental_uris":{"android":"levelo://app?vid=1d90ed8f-26d1-46f9-9b6a-7166e914c6cd","ios":"levelo://app?vid=1d90ed8f-26d1-46f9-9b6a-7166e914c6cd"},"vehicle_type_id":"4","last_reported":1741450136,"current_range_meters":0,"station_id":"ce4bhi12rcd13ifvqfp0","pricing_plan_id":"cebpf4jnsgd1na2vs0mg"},{"bike_id":"585a7e07-b3b0-4514-b64a-db3088923b0a","system_id":"levelo_inurba_marseille","lat":43.25576,"lon":5.38226,"is_reserved":false,"is_disabled":true,"rental_uris":{"android":"levelo://app?vid=585a7e07-b3b0-4514-b64a-db3088923b0a","ios":"levelo://app?vid=585a7e07-b3b0-4514-b64a-db3088923b0a"},"vehicle_type_id":"4","last_reported":1741450136,"current_range_meters":0,"station_id":"ce4bhih2rcd13ifvqfs0","pricing_plan_id":"cebpf4jnsgd1na2vs0mg"},{"bike_id":"77dcdfca-80a8-4cfc-b88b-a74838a65513","system_id":"levelo_inurba_marseille","lat":43.23151,"lon":5.43717,"is_reserved":false,"is_disabled":true,"rental_uris":{"android":"levelo://app?vid=77dcdfca-80a8-4cfc-b88b-a74838a65513","ios":"levelo://app?vid=77dcdfca-80a8-4cfc-b88b-a74838a65513"},"vehicle_type_id":"4","last_reported":1741450136,"current_range_meters":0,"station_id":"ce4bhmp2rcd13ifvqgog","pricing_plan_id":"cebpf4jnsgd1na2vs0mg"},{"bike_id":"20f3620b-23a3-4c4e-aeb2-39492a5bb3bb","system_id":"levelo_inurba_marseille","lat":43.24182,"lon":5.39724,"is_reserved":false,"is_disabled":true,"rental_uris":{"android":"levelo://app?vid=20f3620b-23a3-4c4e-aeb2-39492a5bb3bb","ios":"levelo://app?vid=20f3620b-23a3-4c4e-aeb2-39492a5bb3bb"},"vehicle_type_id":"4","last_reported":1741450136,"current_range_meters":0,"station_id":"ce4bhn12rcd13ifvqgpg","pricing_plan_id":"cebpf4jnsgd1na2vs0mg"},{"bike_id":"47271198-5c4d-41ed-8084-9dcbd0dc8f52","system_id":"levelo_inurba_marseille","lat":43.24071,"lon":5.37764,"is_reserved":false,"is_disabled":true,"rental_uris":{"android":"levelo://app?vid=47271198-5c4d-41ed-8084-9dcbd0dc8f52","ios":"levelo://app?vid=47271198-5c4d-41ed-8084-9dcbd0dc8f52"},"vehicle_type_id":"4","last_reported":1741450136,"current_range_meters":0,"station_id":"ce4bhnp2rcd13ifvqgvg","pricing_plan_id":"cebpf4jnsgd1na2vs0mg"},{"bike_id":"0db6c2f8-bf4c-4b07-9c27-b83e7fe99a58","system_id":"levelo_inurba_marseille","lat":43.28083,"lon":5.39665,"is_reserved":false,"is_disabled":true,"rental_uris":{"android":"levelo://app?vid=0db6c2f8-bf4c-4b07-9c27-b83e7fe99a58","ios":"levelo://app?vid=0db6c2f8-bf4c-4b07-9c27-b83e7fe99a58"},"vehicle_type_id":"4","last_reported":1741450136,"current_range_meters":0,"station_id":"ce4bho12rcd13ifvqh2g","pricing_plan_id":"cebpf4jnsgd1na2vs0mg"},{"bike_id":"d262983a-dfbe-40d7-94e2-8bbca71026af","system_id":"levelo_inurba_marseille","lat":43.29552,"lon":5.42288,"is_reserved":false,"is_disabled":true,"rental_uris":{"android":"levelo://app?vid=d262983a-dfbe-40d7-94e2-8bbca71026af","ios":"levelo://app?vid=d262983a-dfbe-40d7-94e2-8bbca71026af"},"vehicle_type_id":"4","last_reported":1741450136,"current_range_meters":0,"station_id":"ce4bhph2rcd13ifvqhdg","pricing_plan_id":"cebpf4jnsgd1na2vs0mg"},{"bike_id":"48ef5a26-2cf5-4f59-bbc9-838e09da7b8d","system_id":"levelo_inurba_marseille","lat":43.29782,"lon":5.38106,"is_reserved":false,"is_disabled":false,"rental_uris":{"android":"levelo://app?vid=48ef5a26-2cf5-4f59-bbc9-838e09da7b8d","ios":"levelo://app?vid=48ef5a26-2cf5-4f59-bbc9-838e09da7b8d"},"vehicle_type_id":"4","last_reported":1741450136,"current_range_meters":400,"station_id":"ce4bgip2rcd13ifvqbb0","pricing_plan_id":"cebpf4jnsgd1na2vs0mg"},{"bike_id":"db361612-8186-4e1c-a8a1-a778740c3e27","system_id":"levelo_inurba_marseille","lat":43.2606,"lon":5.39397,"is_reserved":false,"is_disabled":true,"rental_uris":{"android":"levelo://app?vid=db361612-8186-4e1c-a8a1-a778740c3e27","ios":"levelo://app?vid=db361612-8186-4e1c-a8a1-a778740c3e27"},"vehicle_type_id":"4","last_reported":1741450136,"current_range_meters":400,"station_id":"ce4bhh92rcd13ifvqfj0","pricing_plan_id":"cebpf4jnsgd1na2vs0mg"},{"bike_id":"496a3632-47d6-46a7-a671-529ce9f62709","system_id":"levelo_inurba_marseille","lat":43.28403,"lon":5.3752,"is_reserved":false,"is_disabled":true,"rental_uris":{"android":"levelo://app?vid=496a3632-47d6-46a7-a671-529ce9f62709","ios":"levelo://app?vid=496a3632-47d6-46a7-a671-529ce9f62709"},"vehicle_type_id":"4","last_reported":1741450136,"current_range_meters":800,"station_id":"ce4bh412rcd13ifvqds0","pricing_plan_id":"cebpf4jnsgd1na2vs0mg"},{"bike_id":"14359938-5fa4-4f71-ae84-7d8984c5c8df","system_id":"levelo_inurba_marseille","lat":43.2657,"lon":5.39027,"is_reserved":false,"is_disabled":true,"rental_uris":{"android":"levelo://app?vid=14359938-5fa4-4f71-ae84-7d8984c5c8df","ios":"levelo://app?vid=14359938-5fa4-4f71-ae84-7d8984c5c8df"},"vehicle_type_id":"4","last_reported":1741450136,"current_range_meters":800,"station_id":"ce4bhe12rcd13ifvqf30","pricing_plan_id":"cebpf4jnsgd1na2vs0mg"},{"bike_id":"019aa466-7b08-4e09-85f0-8d6cc685fa24","system_id":"levelo_inurba_marseille","lat":43.24997,"lon":5.38949,"is_reserved":false,"is_disabled":true,"rental_uris":{"android":"levelo://app?vid=019aa466-7b08-4e09-85f0-8d6cc685fa24","ios":"levelo://app?vid=019aa466-7b08-4e09-85f0-8d6cc685fa24"},"vehicle_type_id":"4","last_reported":1741450136,"current_range_meters":800,"station_id":"ce4bhgp2rcd13ifvqfd0","pricing_plan_id":"cebpf4jnsgd1na2vs0mg"},{"bike_id":"c734b18e-3d38-4047-ab87-df651dad596b","system_id":"levelo_inurba_marseille","lat":43.30417,"lon":5.41287,"is_reserved":false,"is_disabled":true,"rental_uris":{"android":"levelo://app?vid=c734b18e-3d38-4047-ab87-df651dad596b","ios":"levelo://app?vid=c734b18e-3d38-4047-ab87-df651dad596b"},"vehicle_type_id":"4","last_reported":1741450136,"current_range_meters":800,"station_id":"ce4bhop2rcd13ifvqh8g","pricing_plan_id":"cebpf4jnsgd1na2vs0mg"},{"bike_id":"914bbafb-3768-41ed-9924-1947bd4ab869","system_id":"levelo_inurba_marseille","lat":43.301418,"lon":5.383862,"is_reserved":false,"is_disabled":true,"rental_uris":{"android":"levelo://app?vid=914bbafb-3768-41ed-9924-1947bd4ab869","ios":"levelo://app?vid=914bbafb-3768-41ed-9924-1947bd4ab869"},"vehicle_type_id":"4","last_reported":1741450136,"current_range_meters":1200,"station_id":"","pricing_plan_id":"cebpf4jnsgd1na2vs0mg"},{"bike_id":"0166f9ac-3cc2-4227-9403-59ed2cf03119","system_id":"levelo_inurba_marseille","lat":43.296,"lon":5.38113,"is_reserved":false,"is_disabled":true,"rental_uris":{"android":"levelo://app?vid=0166f9ac-3cc2-4227-9403-59ed2cf03119","ios":"levelo://app?vid=0166f9ac-3cc2-4227-9403-59ed2cf03119"},"vehicle_type_id":"4","last_reported":1741450136,"current_range_meters":1200,"station_id":"ce4bgl12rcd13ifvqbo0","pricing_plan_id":"cebpf4jnsgd1na2vs0mg"},{"bike_id":"55073d6a-5020-4386-a6df-e02f7a3753cf","system_id":"levelo_inurba_marseille","lat":43.29088,"lon":5.37149,"is_reserved":false,"is_disabled":true,"rental_uris":{"android":"levelo://app?vid=55073d6a-5020-4386-a6df-e02f7a3753cf","ios":"levelo://app?vid=55073d6a-5020-4386-a6df-e02f7a3753cf"},"vehicle_type_id":"4","last_reported":1741450136,"current_range_meters":1200,"station_id":"ce4bh5p2rcd13ifvqe4g","pricing_plan_id":"cebpf4jnsgd1na2vs0mg"},{"bike_id":"21e5c655-e069-479c-a219-3a78cfd252cb","system_id":"levelo_inurba_marseille","lat":43.26562,"lon":5.39065,"is_reserved":false,"is_disabled":true,"rental_uris":{"android":"levelo://app?vid=21e5c655-e069-479c-a219-3a78cfd252cb","ios":"levelo://app?vid=21e5c655-e069-479c-a219-3a78cfd252cb"},"vehicle_type_id":"4","last_reported":1741450136,"current_range_meters":1200,"station_id":"ce4bhe12rcd13ifvqf30","pricing_plan_id":"cebpf4jnsgd1na2vs0mg"},{"bike_id":"8c4b62fc-8522-4520-ba87-fc96b3349e08","system_id":"levelo_inurba_marseille","lat":43.298759,"lon":5.397341,"is_reserved":false,"is_disabled":true,"rental_uris":{"android":"levelo://app?vid=8c4b62fc-8522-4520-ba87-fc96b3349e08","ios":"levelo://app?vid=8c4b62fc-8522-4520-ba87-fc96b3349e08"},"vehicle_type_id":"4","last_reported":1741450136,"current_range_meters":1600,"station_id":"ce4bh0h2rcd13ifvqd50","pricing_plan_id":"cebpf4jnsgd1na2vs0mg"},{"bike_id":"48868db1-6038-42b8-ab34-58a05bce2ca8","system_id":"levelo_inurba_marseille","lat":43.28426,"lon":5.34996,"is_reserved":false,"is_disabled":true,"rental_uris":{"android":"levelo://app?vid=48868db1-6038-42b8-ab34-58a05bce2ca8","ios":"levelo://app?vid=48868db1-6038-42b8-ab34-58a05bce2ca8"},"vehicle_type_id":"4","last_reported":1741450136,"current_range_meters":1600,"station_id":"ce4bhbh2rcd13ifvqepg","pricing_plan_id":"cebpf4jnsgd1na2vs0mg"},{"bike_id":"bfe16f13-cc2f-40ee-a5e9-fcaebd74641c","system_id":"levelo_inurba_marseille","lat":43.28616,"lon":5.35105,"is_reserved":false,"is_disabled":true,"rental_uris":{"android":"levelo://app?vid=bfe16f13-cc2f-40ee-a5e9-fcaebd74641c","ios":"levelo://app?vid=bfe16f13-cc2f-40ee-a5e9-fcaebd74641c"},"vehicle_type_id":"4","last_reported":1741450136,"current_range_meters":1600,"station_id":"ce4bhch2rcd13ifvqeug","pricing_plan_id":"cebpf4jnsgd1na2vs0mg"},{"bike_id":"72570870-22c3-4e02-b1fd-b9dfc842bb15","system_id":"levelo_inurba_marseille","lat":43.26787,"lon":5.39401,"is_reserved":false,"is_disabled":true,"rental_uris":{"android":"levelo://app?vid=72570870-22c3-4e02-b1fd-b9dfc842bb15","ios":"levelo://app?vid=72570870-22c3-4e02-b1fd-b9dfc842bb15"},"vehicle_type_id":"4","last_reported":1741450136,"current_range_meters":1600,"station_id":"ce4bhh12rcd13ifvqfg0","pricing_plan_id":"cebpf4jnsgd1na2vs0mg"},{"bike_id":"84b3c737-61d0-4039-84b0-05f4602be542","system_id":"levelo_inurba_marseille","lat":43.2808,"lon":5.39661,"is_reserved":false,"is_disabled":true,"rental_uris":{"android":"levelo://app?vid=84b3c737-61d0-4039-84b0-05f4602be542","ios":"levelo://app?vid=84b3c737-61d0-4039-84b0-05f4602be542"},"vehicle_type_id":"4","last_reported":1741450136,"current_range_meters":1600,"station_id":"ce4bho12rcd13ifvqh2g","pricing_plan_id":"cebpf4jnsgd1na2vs0mg"},{"bike_id":"1f09d40c-f6c3-4a49-9dd2-88cc001801bc","system_id":"levelo_inurba_marseille","lat":43.32653,"lon":5.40987,"is_reserved":false,"is_disabled":true,"rental_uris":{"android":"levelo://app?vid=1f09d40c-f6c3-4a49-9dd2-88cc001801bc","ios":"levelo://app?vid=1f09d40c-f6c3-4a49-9dd2-88cc001801bc"},"vehicle_type_id":"4","last_reported":1741450136,"current_range_meters":1600,"station_id":"ce4bhpp2rcd13ifvqhgg","pricing_plan_id":"cebpf4jnsgd1na2vs0mg"},{"bike_id":"96c9e3c1-2734-415f-89fc-7a1816344f5e","system_id":"levelo_inurba_marseille","lat":43.29624,"lon":5.37168,"is_reserved":false,"is_disabled":true,"rental_uris":{"android":"levelo://app?vid=96c9e3c1-2734-415f-89fc-7a1816344f5e","ios":"levelo://app?vid=96c9e3c1-2734-415f-89fc-7a1816344f5e"},"vehicle_type_id":"4","last_reported":1741450136,"current_range_meters":2000,"station_id":"ce4bgnh2rcd13ifvqc0g","pricing_plan_id":"cebpf4jnsgd1na2vs0mg"},{"bike_id":"ce82bddb-259c-4707-a0e9-42fdcd7eb496","system_id":"levelo_inurba_marseille","lat":43.30296,"lon":5.36882,"is_reserved":false,"is_disabled":true,"rental_uris":{"android":"levelo://app?vid=ce82bddb-259c-4707-a0e9-42fdcd7eb496","ios":"levelo://app?vid=ce82bddb-259c-4707-a0e9-42fdcd7eb496"},"vehicle_type_id":"4","last_reported":1741450136,"current_range_meters":2000,"station_id":"ce4bgqh2rcd13ifvqc5g","pricing_plan_id":"cebpf4jnsgd1na2vs0mg"},{"bike_id":"f8d8899c-a16b-474e-9113-0232a1c8ac16","system_id":"levelo_inurba_marseille","lat":43.29196,"lon":5.35806,"is_reserved":false,"is_disabled":true,"rental_uris":{"android":"levelo://app?vid=f8d8899c-a16b-474e-9113-0232a1c8ac16","ios":"levelo://app?vid=f8d8899c-a16b-474e-9113-0232a1c8ac16"},"vehicle_type_id":"4","last_reported":1741450136,"current_range_meters":2000,"station_id":"ce4bhb12rcd13ifvqel0","pricing_plan_id":"cebpf4jnsgd1na2vs0mg"},{"bike_id":"803f2ccb-292c-4540-96d8-23811a21d96e","system_id":"levelo_inurba_marseille","lat":43.2816,"lon":5.42634,"is_reserved":false,"is_disabled":true,"rental_uris":{"android":"levelo://app?vid=803f2ccb-292c-4540-96d8-23811a21d96e","ios":"levelo://app?vid=803f2ccb-292c-4540-96d8-23811a21d96e"},"vehicle_type_id":"4","last_reported":1741450136,"current_range_meters":2000,"station_id":"ce4bhnh2rcd13ifvqgug","pricing_plan_id":"cebpf4jnsgd1na2vs0mg"},{"bike_id":"8f60d7d0-7cdc-48b3-a763-4552a7d55ea3","system_id":"levelo_inurba_marseille","lat":43.26806,"lon":5.40269,"is_reserved":false,"is_disabled":true,"rental_uris":{"android":"levelo://app?vid=8f60d7d0-7cdc-48b3-a763-4552a7d55ea3","ios":"levelo://app?vid=8f60d7d0-7cdc-48b3-a763-4552a7d55ea3"},"vehicle_type_id":"4","last_reported":1741450136,"current_range_meters":2000,"station_id":"ce501612rcd8frsf0b60","pricing_plan_id":"cebpf4jnsgd1na2vs0mg"},{"bike_id":"43bc5e18-7bfb-4e30-b758-942e653f0d5a","system_id":"levelo_inurba_marseille","lat":43.24633,"lon":5.40262,"is_reserved":false,"is_disabled":false,"rental_uris":{"android":"levelo://app?vid=43bc5e18-7bfb-4e30-b758-942e653f0d5a","ios":"levelo://app?vid=43bc5e18-7bfb-4e30-b758-942e653f0d5a"},"vehicle_type_id":"4","last_reported":1741450136,"current_range_meters":2800,"station_id":"","pricing_plan_id":"cebpf4jnsgd1na2vs0mg"},{"bike_id":"a331a827-1545-4961-9de2-bdc8f14fdca7","system_id":"levelo_inurba_marseille","lat":43.27571,"lon":5.36057,"is_reserved":false,"is_disabled":false,"rental_uris":{"android":"levelo://app?vid=a331a827-1545-4961-9de2-bdc8f14fdca7","ios":"levelo://app?vid=a331a827-1545-4961-9de2-bdc8f14fdca7"},"vehicle_type_id":"4","last_reported":1741450136,"current_range_meters":2800,"station_id":"","pricing_plan_id":"cebpf4jnsgd1na2vs0mg"},{"bike_id":"d75e94ec-4691-4a45-a196-4e32a8363fe4","system_id":"levelo_inurba_marseille","lat":43.29248,"lon":5.40908,"is_reserved":false,"is_disabled":false,"rental_uris":{"android":"levelo://app?vid=d75e94ec-4691-4a45-a196-4e32a8363fe4","ios":"levelo://app?vid=d75e94ec-4691-4a45-a196-4e32a8363fe4"},"vehicle_type_id":"4","last_reported":1741450136,"current_range_meters":2800,"station_id":"ce4bh192rcd13ifvqdc0","pricing_plan_id":"cebpf4jnsgd1na2vs0mg"},{"bike_id":"3dddda9a-37dc-4e1c-89da-1be82cd22fb3","system_id":"levelo_inurba_marseille","lat":43.28403,"lon":5.34975,"is_reserved":false,"is_disabled":false,"rental_uris":{"android":"levelo://app?vid=3dddda9a-37dc-4e1c-89da-1be82cd22fb3","ios":"levelo://app?vid=3dddda9a-37dc-4e1c-89da-1be82cd22fb3"},"vehicle_type_id":"4","last_reported":1741450136,"current_range_meters":2800,"station_id":"ce4bhbh2rcd13ifvqepg","pricing_plan_id":"cebpf4jnsgd1na2vs0mg"},{"bike_id":"d66eb525-7aec-4395-8dcf-aa6884da1338","system_id":"levelo_inurba_marseille","lat":43.28278,"lon":5.35074,"is_reserved":false,"is_disabled":false,"rental_uris":{"android":"levelo://app?vid=d66eb525-7aec-4395-8dcf-aa6884da1338","ios":"levelo://app?vid=d66eb525-7aec-4395-8dcf-aa6884da1338"},"vehicle_type_id":"4","last_reported":1741450136,"current_range_meters":2800,"station_id":"ce4bhbp2rcd13ifvqerg","pricing_plan_id":"cebpf4jnsgd1na2vs0mg"},{"bike_id":"e5b6ae21-d700-4754-825b-0594cc6002a5","system_id":"levelo_inurba_marseille","lat":43.26682,"lon":5.38275,"is_reserved":false,"is_disabled":false,"rental_uris":{"android":"levelo://app?vid=e5b6ae21-d700-4754-825b-0594cc6002a5","ios":"levelo://app?vid=e5b6ae21-d700-4754-825b-0594cc6002a5"},"vehicle_type_id":"4","last_reported":1741450136,"current_range_meters":2800,"station_id":"ce4bhg92rcd13ifvqf90","pricing_plan_id":"cebpf4jnsgd1na2vs0mg"},{"bike_id":"f4399aa0-e148-4d68-badb-be06a81c0973","system_id":"levelo_inurba_marseille","lat":43.295775,"lon":5.3751,"is_reserved":false,"is_disabled":false,"rental_uris":{"android":"levelo://app?vid=f4399aa0-e148-4d68-badb-be06a81c0973","ios":"levelo://app?vid=f4399aa0-e148-4d68-badb-be06a81c0973"},"vehicle_type_id":"4","last_reported":1741450136,"current_range_meters":2800,"station_id":"ce4bhh92rcd13ifvqfi0","pricing_plan_id":"cebpf4jnsgd1na2vs0mg"},{"bike_id":"53ba06d6-3b6c-4f49-bc80-8f7e1937ded3","system_id":"levelo_inurba_marseille","lat":43.27899,"lon":5.41246,"is_reserved":false,"is_disabled":false,"rental_uris":{"android":"levelo://app?vid=53ba06d6-3b6c-4f49-bc80-8f7e1937ded3","ios":"levelo://app?vid=53ba06d6-3b6c-4f49-bc80-8f7e1937ded3"},"vehicle_type_id":"4","last_reported":1741450136,"current_range_meters":3200,"station_id":"","pricing_plan_id":"cebpf4jnsgd1na2vs0mg"},{"bike_id":"530c5bfd-af13-4712-80b8-65433e8c7e2e","system_id":"levelo_inurba_marseille","lat":43.295419,"lon":5.385678,"is_reserved":false,"is_disabled":false,"rental_uris":{"android":"levelo://app?vid=530c5bfd-af13-4712-80b8-65433e8c7e2e","ios":"levelo://app?vid=530c5bfd-af13-4712-80b8-65433e8c7e2e"},"vehicle_type_id":"4","last_reported":1741450136,"current_range_meters":3200,"station_id":"ce4bgih2rcd13ifvqba0","pricing_plan_id":"cebpf4jnsgd1na2vs0mg"},{"bike_id":"9a89490c-5781-4ba6-89ea-40672d1e42cd","system_id":"levelo_inurba_marseille","lat":43.29199,"lon":5.35796,"is_reserved":false,"is_disabled":false,"rental_uris":{"android":"levelo://app?vid=9a89490c-5781-4ba6-89ea-40672d1e42cd","ios":"levelo://app?vid=9a89490c-5781-4ba6-89ea-40672d1e42cd"},"vehicle_type_id":"4","last_reported":1741450136,"current_range_meters":3200,"station_id":"ce4bhb12rcd13ifvqel0","pricing_plan_id":"cebpf4jnsgd1na2vs0mg"},{"bike_id":"dcc49209-0e71-4c16-b5c1-4636ffaf7909","system_id":"levelo_inurba_marseille","lat":43.28287,"lon":5.35074,"is_reserved":false,"is_disabled":false,"rental_uris":{"android":"levelo://app?vid=dcc49209-0e71-4c16-b5c1-4636ffaf7909","ios":"levelo://app?vid=dcc49209-0e71-4c16-b5c1-4636ffaf7909"},"vehicle_type_id":"4","last_reported":1741450136,"current_range_meters":3200,"station_id":"ce4bhbp2rcd13ifvqerg","pricing_plan_id":"cebpf4jnsgd1na2vs0mg"},{"bike_id":"0923b54f-9b28-4c21-9766-7c3136229e80","system_id":"levelo_inurba_marseille","lat":43.24186,"lon":5.39742,"is_reserved":false,"is_disabled":false,"rental_uris":{"android":"levelo://app?vid=0923b54f-9b28-4c21-9766-7c3136229e80","ios":"levelo://app?vid=0923b54f-9b28-4c21-9766-7c3136229e80"},"vehicle_type_id":"4","last_reported":1741450136,"current_range_meters":3200,"station_id":"ce4bhn12rcd13ifvqgpg","pricing_plan_id":"cebpf4jnsgd1na2vs0mg"},{"bike_id":"bd0a6de7-c0dc-4606-b580-75f4fa207ebd","system_id":"levelo_inurba_marseille","lat":43.29303,"lon":5.37173,"is_reserved":false,"is_disabled":false,"rental_uris":{"android":"levelo://app?vid=bd0a6de7-c0dc-4606-b580-75f4fa207ebd","ios":"levelo://app?vid=bd0a6de7-c0dc-4606-b580-75f4fa207ebd"},"vehicle_type_id":"4","last_reported":1741450136,"current_range_meters":3600,"station_id":"ce4bgh92rcd13ifvqb40","pricing_plan_id":"cebpf4jnsgd1na2vs0mg"},{"bike_id":"6e4af3fc-b9d2-4a28-a601-6f234f414fd3","system_id":"levelo_inurba_marseille","lat":43.28421,"lon":5.34986,"is_reserved":false,"is_disabled":false,"rental_uris":{"android":"levelo://app?vid=6e4af3fc-b9d2-4a28-a601-6f234f414fd3","ios":"levelo://app?vid=6e4af3fc-b9d2-4a28-a601-6f234f414fd3"},"vehicle_type_id":"4","last_reported":1741450136,"current_range_meters":3600,"station_id":"ce4bhbh2rcd13ifvqepg","pricing_plan_id":"cebpf4jnsgd1na2vs0mg"},{"bike_id":"7bb4ee3f-7ffd-433d-9b19-744b4bb0e2fc","system_id":"levelo_inurba_marseille","lat":43.2844,"lon":5.39197,"is_reserved":false,"is_disabled":false,"rental_uris":{"android":"levelo://app?vid=7bb4ee3f-7ffd-433d-9b19-744b4bb0e2fc","ios":"levelo://app?vid=7bb4ee3f-7ffd-433d-9b19-744b4bb0e2fc"},"vehicle_type_id":"4","last_reported":1741450136,"current_range_meters":3600,"station_id":"ce4bhoh2rcd13ifvqh5g","pricing_plan_id":"cebpf4jnsgd1na2vs0mg"},{"bike_id":"d93553c5-00be-4208-b2e9-df8b8d4d61f8","system_id":"levelo_inurba_marseille","lat":43.22926,"lon":5.35384,"is_reserved":false,"is_disabled":false,"rental_uris":{"android":"levelo://app?vid=d93553c5-00be-4208-b2e9-df8b8d4d61f8","ios":"levelo://app?vid=d93553c5-00be-4208-b2e9-df8b8d4d61f8"},"vehicle_type_id":"4","last_reported":1741450136,"current_range_meters":3600,"station_id":"cpo3532slgdg3j2ikp40","pricing_plan_id":"cebpf4jnsgd1na2vs0mg"},{"bike_id":"bb09aed0-5712-4b75-9abf-57a7804b664c","system_id":"levelo_inurba_marseille","lat":43.31209,"lon":5.37678,"is_reserved":false,"is_disabled":false,"rental_uris":{"android":"levelo://app?vid=bb09aed0-5712-4b75-9abf-57a7804b664c","ios":"levelo://app?vid=bb09aed0-5712-4b75-9abf-57a7804b664c"},"vehicle_type_id":"4","last_reported":1741450136,"current_range_meters":4000,"station_id":"","pricing_plan_id":"cebpf4jnsgd1na2vs0mg"},{"bike_id":"c8fa9b9a-abad-41fe-bed0-cefe542d66e0","system_id":"levelo_inurba_marseille","lat":43.29371,"lon":5.37869,"is_reserved":false,"is_disabled":false,"rental_uris":{"android":"levelo://app?vid=c8fa9b9a-abad-41fe-bed0-cefe542d66e0","ios":"levelo://app?vid=c8fa9b9a-abad-41fe-bed0-cefe542d66e0"},"vehicle_type_id":"4","last_reported":1741450136,"current_range_meters":4000,"station_id":"ce4bgjh2rcd13ifvqbf0","pricing_plan_id":"cebpf4jnsgd1na2vs0mg"},{"bike_id":"6aabbbca-0782-4cd1-97dc-bb76b5bc45a9","system_id":"levelo_inurba_marseille","lat":43.29532,"lon":5.39038,"is_reserved":false,"is_disabled":false,"rental_uris":{"android":"levelo://app?vid=6aabbbca-0782-4cd1-97dc-bb76b5bc45a9","ios":"levelo://app?vid=6aabbbca-0782-4cd1-97dc-bb76b5bc45a9"},"vehicle_type_id":"4","last_reported":1741450136,"current_range_meters":4000,"station_id":"ce4bh3p2rcd13ifvqdp0","pricing_plan_id":"cebpf4jnsgd1na2vs0mg"},{"bike_id":"16a38d58-0606-4efa-b07e-f821dbcba192","system_id":"levelo_inurba_marseille","lat":43.28402,"lon":5.3752,"is_reserved":false,"is_disabled":false,"rental_uris":{"android":"levelo://app?vid=16a38d58-0606-4efa-b07e-f821dbcba192","ios":"levelo://app?vid=16a38d58-0606-4efa-b07e-f821dbcba192"},"vehicle_type_id":"4","last_reported":1741450136,"current_range_meters":4000,"station_id":"ce4bh412rcd13ifvqds0","pricing_plan_id":"cebpf4jnsgd1na2vs0mg"},{"bike_id":"9657879a-497e-4eae-af19-a5e4b85e8554","system_id":"levelo_inurba_marseille","lat":43.29609,"lon":5.37711,"is_reserved":false,"is_disabled":false,"rental_uris":{"android":"levelo://app?vid=9657879a-497e-4eae-af19-a5e4b85e8554","ios":"levelo://app?vid=9657879a-497e-4eae-af19-a5e4b85e8554"},"vehicle_type_id":"4","last_reported":1741450136,"current_range_meters":4400,"station_id":"ce4bgi92rcd13ifvqb90","pricing_plan_id":"cebpf4jnsgd1na2vs0mg"},{"bike_id":"41dc271d-fdf1-47c2-b992-7ce82b84d163","system_id":"levelo_inurba_marseille","lat":43.29615,"lon":5.3771,"is_reserved":false,"is_disabled":false,"rental_uris":{"android":"levelo://app?vid=41dc271d-fdf1-47c2-b992-7ce82b84d163","ios":"levelo://app?vid=41dc271d-fdf1-47c2-b992-7ce82b84d163"},"vehicle_type_id":"4","last_reported":1741450136,"current_range_meters":4400,"station_id":"ce4bgi92rcd13ifvqb90","pricing_plan_id":"cebpf4jnsgd1na2vs0mg"},{"bike_id":"e2ab4576-4182-481e-aa1d-0aa18194337c","system_id":"levelo_inurba_marseille","lat":43.2656,"lon":5.3728,"is_reserved":false,"is_disabled":false,"rental_uris":{"android":"levelo://app?vid=e2ab4576-4182-481e-aa1d-0aa18194337c","ios":"levelo://app?vid=e2ab4576-4182-481e-aa1d-0aa18194337c"},"vehicle_type_id":"4","last_reported":1741450136,"current_range_meters":4400,"station_id":"ce4bhg12rcd13ifvqf70","pricing_plan_id":"cebpf4jnsgd1na2vs0mg"},{"bike_id":"059b0135-8eb7-47ca-918b-f539e2609d6b","system_id":"levelo_inurba_marseille","lat":43.24392,"lon":5.37053,"is_reserved":false,"is_disabled":false,"rental_uris":{"android":"levelo://app?vid=059b0135-8eb7-47ca-918b-f539e2609d6b","ios":"levelo://app?vid=059b0135-8eb7-47ca-918b-f539e2609d6b"},"vehicle_type_id":"4","last_reported":1741450136,"current_range_meters":4400,"station_id":"ce4bhhh2rcd13ifvqfk0","pricing_plan_id":"cebpf4jnsgd1na2vs0mg"},{"bike_id":"6ff3455f-9456-471f-a20e-eea31d0be62e","system_id":"levelo_inurba_marseille","lat":43.32368,"lon":5.38881,"is_reserved":false,"is_disabled":false,"rental_uris":{"android":"levelo://app?vid=6ff3455f-9456-471f-a20e-eea31d0be62e","ios":"levelo://app?vid=6ff3455f-9456-471f-a20e-eea31d0be62e"},"vehicle_type_id":"4","last_reported":1741450136,"current_range_meters":4400,"station_id":"ce4bhqp2rcd13ifvqhog","pricing_plan_id":"cebpf4jnsgd1na2vs0mg"},{"bike_id":"ef841903-cdc0-4227-af7f-cb9f26dc3c9b","system_id":"levelo_inurba_marseille","lat":43.31412,"lon":5.3926,"is_reserved":false,"is_disabled":false,"rental_uris":{"android":"levelo://app?vid=ef841903-cdc0-4227-af7f-cb9f26dc3c9b","ios":"levelo://app?vid=ef841903-cdc0-4227-af7f-cb9f26dc3c9b"},"vehicle_type_id":"4","last_reported":1741450136,"current_range_meters":4800,"station_id":"","pricing_plan_id":"cebpf4jnsgd1na2vs0mg"},{"bike_id":"85e5c876-bed6-4b7d-9793-7e617eeb7ceb","system_id":"levelo_inurba_marseille","lat":43.3031,"lon":5.39178,"is_reserved":false,"is_disabled":false,"rental_uris":{"android":"levelo://app?vid=85e5c876-bed6-4b7d-9793-7e617eeb7ceb","ios":"levelo://app?vid=85e5c876-bed6-4b7d-9793-7e617eeb7ceb"},"vehicle_type_id":"4","last_reported":1741450136,"current_range_meters":4800,"station_id":"ce4bgkh2rcd13ifvqbk0","pricing_plan_id":"cebpf4jnsgd1na2vs0mg"},{"bike_id":"d53eefe1-18d0-4d08-9896-6cdb80247c35","system_id":"levelo_inurba_marseille","lat":43.28277,"lon":5.35081,"is_reserved":false,"is_disabled":false,"rental_uris":{"android":"levelo://app?vid=d53eefe1-18d0-4d08-9896-6cdb80247c35","ios":"levelo://app?vid=d53eefe1-18d0-4d08-9896-6cdb80247c35"},"vehicle_type_id":"4","last_reported":1741450136,"current_range_meters":5600,"station_id":"ce4bhbp2rcd13ifvqerg","pricing_plan_id":"cebpf4jnsgd1na2vs0mg"},{"bike_id":"e90a56e0-3e22-4ce3-a1db-7108562e08b3","system_id":"levelo_inurba_marseille","lat":43.2656,"lon":5.37281,"is_reserved":false,"is_disabled":false,"rental_uris":{"android":"levelo://app?vid=e90a56e0-3e22-4ce3-a1db-7108562e08b3","ios":"levelo://app?vid=e90a56e0-3e22-4ce3-a1db-7108562e08b3"},"vehicle_type_id":"4","last_reported":1741450136,"current_range_meters":5600,"station_id":"ce4bhg12rcd13ifvqf70","pricing_plan_id":"cebpf4jnsgd1na2vs0mg"},{"bike_id":"6692fe55-1825-43e3-9e87-adf928f1b6cf","system_id":"levelo_inurba_marseille","lat":43.23202,"lon":5.39972,"is_reserved":false,"is_disabled":false,"rental_uris":{"android":"levelo://app?vid=6692fe55-1825-43e3-9e87-adf928f1b6cf","ios":"levelo://app?vid=6692fe55-1825-43e3-9e87-adf928f1b6cf"},"vehicle_type_id":"4","last_reported":1741450136,"current_range_meters":5600,"station_id":"ce4bhn12rcd13ifvqgqg","pricing_plan_id":"cebpf4jnsgd1na2vs0mg"},{"bike_id":"0d8ff6dc-2062-4144-ba2b-e397eb78f5e1","system_id":"levelo_inurba_marseille","lat":43.23067,"lon":5.35492,"is_reserved":false,"is_disabled":false,"rental_uris":{"android":"levelo://app?vid=0d8ff6dc-2062-4144-ba2b-e397eb78f5e1","ios":"levelo://app?vid=0d8ff6dc-2062-4144-ba2b-e397eb78f5e1"},"vehicle_type_id":"4","last_reported":1741450136,"current_range_meters":5600,"station_id":"cpo3342slgdg3j2ifvpg","pricing_plan_id":"cebpf4jnsgd1na2vs0mg"},{"bike_id":"796daec8-d1f9-4958-add0-6c494574e8d2","system_id":"levelo_inurba_marseille","lat":43.29378,"lon":5.37835,"is_reserved":false,"is_disabled":false,"rental_uris":{"android":"levelo://app?vid=796daec8-d1f9-4958-add0-6c494574e8d2","ios":"levelo://app?vid=796daec8-d1f9-4958-add0-6c494574e8d2"},"vehicle_type_id":"4","last_reported":1741450136,"current_range_meters":6000,"station_id":"ce4bgjh2rcd13ifvqbf0","pricing_plan_id":"cebpf4jnsgd1na2vs0mg"},{"bike_id":"850f4b7d-67f9-4710-8cec-f74009f6f9d0","system_id":"levelo_inurba_marseille","lat":43.2929,"lon":5.3685,"is_reserved":false,"is_disabled":false,"rental_uris":{"android":"levelo://app?vid=850f4b7d-67f9-4710-8cec-f74009f6f9d0","ios":"levelo://app?vid=850f4b7d-67f9-4710-8cec-f74009f6f9d0"},"vehicle_type_id":"4","last_reported":1741450136,"current_range_meters":6000,"station_id":"ce4bhbp2rcd13ifvqesg","pricing_plan_id":"cebpf4jnsgd1na2vs0mg"},{"bike_id":"936e46b8-ae8f-4e92-9048-2a5d2229a1b9","system_id":"levelo_inurba_marseille","lat":43.26551,"lon":5.3729,"is_reserved":false,"is_disabled":false,"rental_uris":{"android":"levelo://app?vid=936e46b8-ae8f-4e92-9048-2a5d2229a1b9","ios":"levelo://app?vid=936e46b8-ae8f-4e92-9048-2a5d2229a1b9"},"vehicle_type_id":"4","last_reported":1741450136,"current_range_meters":6000,"station_id":"ce4bhg12rcd13ifvqf70","pricing_plan_id":"cebpf4jnsgd1na2vs0mg"},{"bike_id":"01f1ba53-5db4-4c57-a42f-491285c65098","system_id":"levelo_inurba_marseille","lat":43.27204,"lon":5.39189,"is_reserved":false,"is_disabled":false,"rental_uris":{"android":"levelo://app?vid=01f1ba53-5db4-4c57-a42f-491285c65098","ios":"levelo://app?vid=01f1ba53-5db4-4c57-a42f-491285c65098"},"vehicle_type_id":"4","last_reported":1741450136,"current_range_meters":6000,"station_id":"ce4bhhp2rcd13ifvqfm0","pricing_plan_id":"cebpf4jnsgd1na2vs0mg"},{"bike_id":"b736bc7f-0cef-4ceb-8731-5c7af6e67311","system_id":"levelo_inurba_marseille","lat":43.27059,"lon":5.40257,"is_reserved":false,"is_disabled":false,"rental_uris":{"android":"levelo://app?vid=b736bc7f-0cef-4ceb-8731-5c7af6e67311","ios":"levelo://app?vid=b736bc7f-0cef-4ceb-8731-5c7af6e67311"},"vehicle_type_id":"4","last_reported":1741450136,"current_range_meters":6000,"station_id":"ce4bhk92rcd13ifvqgc0","pricing_plan_id":"cebpf4jnsgd1na2vs0mg"},{"bike_id":"51510a95-54e3-4b84-9b22-bfa3391426f3","system_id":"levelo_inurba_marseille","lat":43.23198,"lon":5.35551,"is_reserved":false,"is_disabled":false,"rental_uris":{"android":"levelo://app?vid=51510a95-54e3-4b84-9b22-bfa3391426f3","ios":"levelo://app?vid=51510a95-54e3-4b84-9b22-bfa3391426f3"},"vehicle_type_id":"4","last_reported":1741450136,"current_range_meters":6000,"station_id":"ce4bhu92rcd13ifvqi70","pricing_plan_id":"cebpf4jnsgd1na2vs0mg"},{"bike_id":"be6c0c8a-2248-4784-ad70-9fb1421e5723","system_id":"levelo_inurba_marseille","lat":43.29302,"lon":5.3717,"is_reserved":false,"is_disabled":false,"rental_uris":{"android":"levelo://app?vid=be6c0c8a-2248-4784-ad70-9fb1421e5723","ios":"levelo://app?vid=be6c0c8a-2248-4784-ad70-9fb1421e5723"},"vehicle_type_id":"4","last_reported":1741450136,"current_range_meters":6400,"station_id":"ce4bgh92rcd13ifvqb40","pricing_plan_id":"cebpf4jnsgd1na2vs0mg"},{"bike_id":"0e52515d-43ae-4449-90a1-096a289213ab","system_id":"levelo_inurba_marseille","lat":43.297153,"lon":5.366057,"is_reserved":false,"is_disabled":false,"rental_uris":{"android":"levelo://app?vid=0e52515d-43ae-4449-90a1-096a289213ab","ios":"levelo://app?vid=0e52515d-43ae-4449-90a1-096a289213ab"},"vehicle_type_id":"4","last_reported":1741450136,"current_range_meters":6400,"station_id":"ce4bgn12rcd13ifvqbt0","pricing_plan_id":"cebpf4jnsgd1na2vs0mg"},{"bike_id":"d5806b00-ed1a-4023-b617-30681487a8c7","system_id":"levelo_inurba_marseille","lat":43.23197,"lon":5.3998,"is_reserved":false,"is_disabled":false,"rental_uris":{"android":"levelo://app?vid=d5806b00-ed1a-4023-b617-30681487a8c7","ios":"levelo://app?vid=d5806b00-ed1a-4023-b617-30681487a8c7"},"vehicle_type_id":"4","last_reported":1741450136,"current_range_meters":6400,"station_id":"ce4bhn12rcd13ifvqgqg","pricing_plan_id":"cebpf4jnsgd1na2vs0mg"},{"bike_id":"f0eeb91e-3215-485c-890e-25f7b866c077","system_id":"levelo_inurba_marseille","lat":43.28081,"lon":5.3966,"is_reserved":false,"is_disabled":false,"rental_uris":{"android":"levelo://app?vid=f0eeb91e-3215-485c-890e-25f7b866c077","ios":"levelo://app?vid=f0eeb91e-3215-485c-890e-25f7b866c077"},"vehicle_type_id":"4","last_reported":1741450136,"current_range_meters":6400,"station_id":"ce4bho12rcd13ifvqh2g","pricing_plan_id":"cebpf4jnsgd1na2vs0mg"},{"bike_id":"75dcdf07-532c-4d96-ac1e-de6015732c32","system_id":"levelo_inurba_marseille","lat":43.29716,"lon":5.37719,"is_reserved":false,"is_disabled":false,"rental_uris":{"android":"levelo://app?vid=75dcdf07-532c-4d96-ac1e-de6015732c32","ios":"levelo://app?vid=75dcdf07-532c-4d96-ac1e-de6015732c32"},"vehicle_type_id":"4","last_reported":1741450136,"current_range_meters":6800,"station_id":"ce4bgkh2rcd13ifvqbl0","pricing_plan_id":"cebpf4jnsgd1na2vs0mg"},{"bike_id":"b1ef6871-3f33-4a29-9a55-c69ca17311bb","system_id":"levelo_inurba_marseille","lat":43.31113,"lon":5.3777,"is_reserved":false,"is_disabled":false,"rental_uris":{"android":"levelo://app?vid=b1ef6871-3f33-4a29-9a55-c69ca17311bb","ios":"levelo://app?vid=b1ef6871-3f33-4a29-9a55-c69ca17311bb"},"vehicle_type_id":"4","last_reported":1741450136,"current_range_meters":6800,"station_id":"ce4bgt92rcd13ifvqcg0","pricing_plan_id":"cebpf4jnsgd1na2vs0mg"},{"bike_id":"327fa3f3-4682-435b-9a69-a3343aa5d8d8","system_id":"levelo_inurba_marseille","lat":43.29232,"lon":5.36055,"is_reserved":false,"is_disabled":false,"rental_uris":{"android":"levelo://app?vid=327fa3f3-4682-435b-9a69-a3343aa5d8d8","ios":"levelo://app?vid=327fa3f3-4682-435b-9a69-a3343aa5d8d8"},"vehicle_type_id":"4","last_reported":1741450136,"current_range_meters":6800,"station_id":"ce4bhbh2rcd13ifvqeqg","pricing_plan_id":"cebpf4jnsgd1na2vs0mg"},{"bike_id":"8fbf8087-974c-4dcd-90dc-14d38fc86abb","system_id":"levelo_inurba_marseille","lat":43.29274,"lon":5.36847,"is_reserved":false,"is_disabled":false,"rental_uris":{"android":"levelo://app?vid=8fbf8087-974c-4dcd-90dc-14d38fc86abb","ios":"levelo://app?vid=8fbf8087-974c-4dcd-90dc-14d38fc86abb"},"vehicle_type_id":"4","last_reported":1741450136,"current_range_meters":6800,"station_id":"ce4bhbp2rcd13ifvqesg","pricing_plan_id":"cebpf4jnsgd1na2vs0mg"},{"bike_id":"fefd6f4b-d006-4ccc-b956-d195f863ca54","system_id":"levelo_inurba_marseille","lat":43.25495,"lon":5.37648,"is_reserved":false,"is_disabled":false,"rental_uris":{"android":"levelo://app?vid=fefd6f4b-d006-4ccc-b956-d195f863ca54","ios":"levelo://app?vid=fefd6f4b-d006-4ccc-b956-d195f863ca54"},"vehicle_type_id":"4","last_reported":1741450136,"current_range_meters":6800,"station_id":"ce4bhh12rcd13ifvqff0","pricing_plan_id":"cebpf4jnsgd1na2vs0mg"},{"bike_id":"ee5a75e8-4465-45a1-96f9-934ae5fb1c3e","system_id":"levelo_inurba_marseille","lat":43.25583,"lon":5.38232,"is_reserved":false,"is_disabled":false,"rental_uris":{"android":"levelo://app?vid=ee5a75e8-4465-45a1-96f9-934ae5fb1c3e","ios":"levelo://app?vid=ee5a75e8-4465-45a1-96f9-934ae5fb1c3e"},"vehicle_type_id":"4","last_reported":1741450136,"current_range_meters":6800,"station_id":"ce4bhih2rcd13ifvqfs0","pricing_plan_id":"cebpf4jnsgd1na2vs0mg"},{"bike_id":"1ba04ccd-b7e7-4cc6-8959-dfce5b53763b","system_id":"levelo_inurba_marseille","lat":43.28442,"lon":5.39206,"is_reserved":false,"is_disabled":false,"rental_uris":{"android":"levelo://app?vid=1ba04ccd-b7e7-4cc6-8959-dfce5b53763b","ios":"levelo://app?vid=1ba04ccd-b7e7-4cc6-8959-dfce5b53763b"},"vehicle_type_id":"4","last_reported":1741450136,"current_range_meters":6800,"station_id":"ce4bhoh2rcd13ifvqh5g","pricing_plan_id":"cebpf4jnsgd1na2vs0mg"},{"bike_id":"e5c2f9a0-d065-4e10-9bff-a9a02c7dbc80","system_id":"levelo_inurba_marseille","lat":43.29886,"lon":5.43665,"is_reserved":false,"is_disabled":false,"rental_uris":{"android":"levelo://app?vid=e5c2f9a0-d065-4e10-9bff-a9a02c7dbc80","ios":"levelo://app?vid=e5c2f9a0-d065-4e10-9bff-a9a02c7dbc80"},"vehicle_type_id":"4","last_reported":1741450136,"current_range_meters":6800,"station_id":"ce4bhpp2rcd13ifvqhfg","pricing_plan_id":"cebpf4jnsgd1na2vs0mg"},{"bike_id":"bd1ca430-15b2-40f5-ab85-6f767aed8061","system_id":"levelo_inurba_marseille","lat":43.23065,"lon":5.35491,"is_reserved":false,"is_disabled":false,"rental_uris":{"android":"levelo://app?vid=bd1ca430-15b2-40f5-ab85-6f767aed8061","ios":"levelo://app?vid=bd1ca430-15b2-40f5-ab85-6f767aed8061"},"vehicle_type_id":"4","last_reported":1741450136,"current_range_meters":6800,"station_id":"cpo3342slgdg3j2ifvpg","pricing_plan_id":"cebpf4jnsgd1na2vs0mg"},{"bike_id":"7616b4c8-b03b-4ea6-8413-0b484b571599","system_id":"levelo_inurba_marseille","lat":43.29301,"lon":5.37176,"is_reserved":false,"is_disabled":false,"rental_uris":{"android":"levelo://app?vid=7616b4c8-b03b-4ea6-8413-0b484b571599","ios":"levelo://app?vid=7616b4c8-b03b-4ea6-8413-0b484b571599"},"vehicle_type_id":"4","last_reported":1741450136,"current_range_meters":7200,"station_id":"ce4bgh92rcd13ifvqb40","pricing_plan_id":"cebpf4jnsgd1na2vs0mg"},{"bike_id":"fd5e69ea-4706-4cd5-bde9-fddabe7e382c","system_id":"levelo_inurba_marseille","lat":43.290066,"lon":5.39964,"is_reserved":false,"is_disabled":false,"rental_uris":{"android":"levelo://app?vid=fd5e69ea-4706-4cd5-bde9-fddabe7e382c","ios":"levelo://app?vid=fd5e69ea-4706-4cd5-bde9-fddabe7e382c"},"vehicle_type_id":"4","last_reported":1741450136,"current_range_meters":7200,"station_id":"ce4bh392rcd13ifvqdm0","pricing_plan_id":"cebpf4jnsgd1na2vs0mg"},{"bike_id":"dac38407-a9f4-4612-875e-5c45f1ec6572","system_id":"levelo_inurba_marseille","lat":43.26788,"lon":5.39414,"is_reserved":false,"is_disabled":false,"rental_uris":{"android":"levelo://app?vid=dac38407-a9f4-4612-875e-5c45f1ec6572","ios":"levelo://app?vid=dac38407-a9f4-4612-875e-5c45f1ec6572"},"vehicle_type_id":"4","last_reported":1741450136,"current_range_meters":7200,"station_id":"ce4bhh12rcd13ifvqfg0","pricing_plan_id":"cebpf4jnsgd1na2vs0mg"},{"bike_id":"1bb2d184-3a4e-40f5-9d93-356c04b9aa82","system_id":"levelo_inurba_marseille","lat":43.26929,"lon":5.38929,"is_reserved":false,"is_disabled":false,"rental_uris":{"android":"levelo://app?vid=1bb2d184-3a4e-40f5-9d93-356c04b9aa82","ios":"levelo://app?vid=1bb2d184-3a4e-40f5-9d93-356c04b9aa82"},"vehicle_type_id":"4","last_reported":1741450136,"current_range_meters":7200,"station_id":"ce4bhhh2rcd13ifvqfl0","pricing_plan_id":"cebpf4jnsgd1na2vs0mg"},{"bike_id":"350241fd-51e7-41a7-b4fe-68afcf748c75","system_id":"levelo_inurba_marseille","lat":43.28143,"lon":5.42649,"is_reserved":false,"is_disabled":false,"rental_uris":{"android":"levelo://app?vid=350241fd-51e7-41a7-b4fe-68afcf748c75","ios":"levelo://app?vid=350241fd-51e7-41a7-b4fe-68afcf748c75"},"vehicle_type_id":"4","last_reported":1741450136,"current_range_meters":7200,"station_id":"ce4bhnh2rcd13ifvqgug","pricing_plan_id":"cebpf4jnsgd1na2vs0mg"},{"bike_id":"f0c23dfc-4d42-4bd4-8a81-edfd9da25875","system_id":"levelo_inurba_marseille","lat":43.28154,"lon":5.42643,"is_reserved":false,"is_disabled":false,"rental_uris":{"android":"levelo://app?vid=f0c23dfc-4d42-4bd4-8a81-edfd9da25875","ios":"levelo://app?vid=f0c23dfc-4d42-4bd4-8a81-edfd9da25875"},"vehicle_type_id":"4","last_reported":1741450136,"current_range_meters":7200,"station_id":"ce4bhnh2rcd13ifvqgug","pricing_plan_id":"cebpf4jnsgd1na2vs0mg"},{"bike_id":"7b62c62b-d961-49e1-afe1-b0b21a291801","system_id":"levelo_inurba_marseille","lat":43.278738,"lon":5.417408,"is_reserved":false,"is_disabled":false,"rental_uris":{"android":"levelo://app?vid=7b62c62b-d961-49e1-afe1-b0b21a291801","ios":"levelo://app?vid=7b62c62b-d961-49e1-afe1-b0b21a291801"},"vehicle_type_id":"4","last_reported":1741450136,"current_range_meters":8000,"station_id":"","pricing_plan_id":"cebpf4jnsgd1na2vs0mg"},{"bike_id":"60fba7df-4520-4d63-9c5b-9a7a002cedfb","system_id":"levelo_inurba_marseille","lat":43.28038,"lon":5.391378,"is_reserved":false,"is_disabled":false,"rental_uris":{"android":"levelo://app?vid=60fba7df-4520-4d63-9c5b-9a7a002cedfb","ios":"levelo://app?vid=60fba7df-4520-4d63-9c5b-9a7a002cedfb"},"vehicle_type_id":"4","last_reported":1741450136,"current_range_meters":8000,"station_id":"","pricing_plan_id":"cebpf4jnsgd1na2vs0mg"},{"bike_id":"23b3f759-dcaf-4da6-8b2c-03b0ba42d3ac","system_id":"levelo_inurba_marseille","lat":43.29711,"lon":5.37694,"is_reserved":false,"is_disabled":false,"rental_uris":{"android":"levelo://app?vid=23b3f759-dcaf-4da6-8b2c-03b0ba42d3ac","ios":"levelo://app?vid=23b3f759-dcaf-4da6-8b2c-03b0ba42d3ac"},"vehicle_type_id":"4","last_reported":1741450136,"current_range_meters":8000,"station_id":"ce4bgkh2rcd13ifvqbl0","pricing_plan_id":"cebpf4jnsgd1na2vs0mg"},{"bike_id":"76e3d365-ec87-4e2c-8c3d-ce7b2ad99baf","system_id":"levelo_inurba_marseille","lat":43.29708,"lon":5.36602,"is_reserved":false,"is_disabled":false,"rental_uris":{"android":"levelo://app?vid=76e3d365-ec87-4e2c-8c3d-ce7b2ad99baf","ios":"levelo://app?vid=76e3d365-ec87-4e2c-8c3d-ce7b2ad99baf"},"vehicle_type_id":"4","last_reported":1741450136,"current_range_meters":8000,"station_id":"ce4bgn12rcd13ifvqbt0","pricing_plan_id":"cebpf4jnsgd1na2vs0mg"},{"bike_id":"aaec28b1-7b9d-48b1-807c-09e21c04dc3d","system_id":"levelo_inurba_marseille","lat":43.28347,"lon":5.38103,"is_reserved":false,"is_disabled":false,"rental_uris":{"android":"levelo://app?vid=aaec28b1-7b9d-48b1-807c-09e21c04dc3d","ios":"levelo://app?vid=aaec28b1-7b9d-48b1-807c-09e21c04dc3d"},"vehicle_type_id":"4","last_reported":1741450136,"current_range_meters":8000,"station_id":"ce4bh412rcd13ifvqdr0","pricing_plan_id":"cebpf4jnsgd1na2vs0mg"},{"bike_id":"4ed48b06-6230-4554-a6db-0ca8551207e7","system_id":"levelo_inurba_marseille","lat":43.29175,"lon":5.37148,"is_reserved":false,"is_disabled":false,"rental_uris":{"android":"levelo://app?vid=4ed48b06-6230-4554-a6db-0ca8551207e7","ios":"levelo://app?vid=4ed48b06-6230-4554-a6db-0ca8551207e7"},"vehicle_type_id":"4","last_reported":1741450136,"current_range_meters":8000,"station_id":"ce4bha92rcd13ifvqeh0","pricing_plan_id":"cebpf4jnsgd1na2vs0mg"},{"bike_id":"f77329cd-5f07-4275-8e11-3c08440680bc","system_id":"levelo_inurba_marseille","lat":43.26792,"lon":5.39408,"is_reserved":false,"is_disabled":false,"rental_uris":{"android":"levelo://app?vid=f77329cd-5f07-4275-8e11-3c08440680bc","ios":"levelo://app?vid=f77329cd-5f07-4275-8e11-3c08440680bc"},"vehicle_type_id":"4","last_reported":1741450136,"current_range_meters":8000,"station_id":"ce4bhh12rcd13ifvqfg0","pricing_plan_id":"cebpf4jnsgd1na2vs0mg"},{"bike_id":"de13f7fc-ab40-4a24-9a71-4ad0af841bcf","system_id":"levelo_inurba_marseille","lat":43.23073,"lon":5.3547,"is_reserved":false,"is_disabled":false,"rental_uris":{"android":"levelo://app?vid=de13f7fc-ab40-4a24-9a71-4ad0af841bcf","ios":"levelo://app?vid=de13f7fc-ab40-4a24-9a71-4ad0af841bcf"},"vehicle_type_id":"4","last_reported":1741450136,"current_range_meters":8000,"station_id":"cpo3342slgdg3j2ifvpg","pricing_plan_id":"cebpf4jnsgd1na2vs0mg"},{"bike_id":"1136d6ad-8022-4708-9078-6cbccf791b18","system_id":"levelo_inurba_marseille","lat":43.24167,"lon":5.36392,"is_reserved":false,"is_disabled":false,"rental_uris":{"android":"levelo://app?vid=1136d6ad-8022-4708-9078-6cbccf791b18","ios":"levelo://app?vid=1136d6ad-8022-4708-9078-6cbccf791b18"},"vehicle_type_id":"4","last_reported":1741450136,"current_range_meters":8000,"station_id":"cpo36qri1sfpv3e86is0","pricing_plan_id":"cebpf4jnsgd1na2vs0mg"},{"bike_id":"c81c573b-da45-42e3-a87a-742c823da527","system_id":"levelo_inurba_marseille","lat":43.27612,"lon":5.36115,"is_reserved":false,"is_disabled":false,"rental_uris":{"android":"levelo://app?vid=c81c573b-da45-42e3-a87a-742c823da527","ios":"levelo://app?vid=c81c573b-da45-42e3-a87a-742c823da527"},"vehicle_type_id":"4","last_reported":1741450136,"current_range_meters":8400,"station_id":"ce4bgj92rcd13ifvqbe0","pricing_plan_id":"cebpf4jnsgd1na2vs0mg"},{"bike_id":"84ed18d2-5946-43d1-8db8-2686b864ad13","system_id":"levelo_inurba_marseille","lat":43.30335,"lon":5.40423,"is_reserved":false,"is_disabled":false,"rental_uris":{"android":"levelo://app?vid=84ed18d2-5946-43d1-8db8-2686b864ad13","ios":"levelo://app?vid=84ed18d2-5946-43d1-8db8-2686b864ad13"},"vehicle_type_id":"4","last_reported":1741450136,"current_range_meters":8400,"station_id":"ce4bh012rcd13ifvqd10","pricing_plan_id":"cebpf4jnsgd1na2vs0mg"},{"bike_id":"0c0cf4ee-7f2d-490c-b2df-1579fb1f433c","system_id":"levelo_inurba_marseille","lat":43.2964,"lon":5.4059,"is_reserved":false,"is_disabled":false,"rental_uris":{"android":"levelo://app?vid=0c0cf4ee-7f2d-490c-b2df-1579fb1f433c","ios":"levelo://app?vid=0c0cf4ee-7f2d-490c-b2df-1579fb1f433c"},"vehicle_type_id":"4","last_reported":1741450136,"current_range_meters":8400,"station_id":"ce4bh0h2rcd13ifvqd60","pricing_plan_id":"cebpf4jnsgd1na2vs0mg"},{"bike_id":"d47e2e42-389c-461c-9e25-db61c4dc8c97","system_id":"levelo_inurba_marseille","lat":43.29031,"lon":5.38123,"is_reserved":false,"is_disabled":false,"rental_uris":{"android":"levelo://app?vid=d47e2e42-389c-461c-9e25-db61c4dc8c97","ios":"levelo://app?vid=d47e2e42-389c-461c-9e25-db61c4dc8c97"},"vehicle_type_id":"4","last_reported":1741450136,"current_range_meters":8400,"station_id":"ce4bh4p2rcd13ifvqe1g","pricing_plan_id":"cebpf4jnsgd1na2vs0mg"},{"bike_id":"683eb7a4-69ef-489a-a9bc-6ecd848026c4","system_id":"levelo_inurba_marseille","lat":43.24808,"lon":5.37455,"is_reserved":false,"is_disabled":false,"rental_uris":{"android":"levelo://app?vid=683eb7a4-69ef-489a-a9bc-6ecd848026c4","ios":"levelo://app?vid=683eb7a4-69ef-489a-a9bc-6ecd848026c4"},"vehicle_type_id":"4","last_reported":1741450136,"current_range_meters":8400,"station_id":"ce4bhgh2rcd13ifvqfb0","pricing_plan_id":"cebpf4jnsgd1na2vs0mg"},{"bike_id":"c3196ee3-ee84-42d0-9716-8d62b60518b3","system_id":"levelo_inurba_marseille","lat":43.24653,"lon":5.38162,"is_reserved":false,"is_disabled":false,"rental_uris":{"android":"levelo://app?vid=c3196ee3-ee84-42d0-9716-8d62b60518b3","ios":"levelo://app?vid=c3196ee3-ee84-42d0-9716-8d62b60518b3"},"vehicle_type_id":"4","last_reported":1741450136,"current_range_meters":8400,"station_id":"ce4bhih2rcd13ifvqfr0","pricing_plan_id":"cebpf4jnsgd1na2vs0mg"},{"bike_id":"3aa91c8d-a1d8-41d6-a615-5ee65bd9b93c","system_id":"levelo_inurba_marseille","lat":43.262003,"lon":5.379333,"is_reserved":false,"is_disabled":false,"rental_uris":{"android":"levelo://app?vid=3aa91c8d-a1d8-41d6-a615-5ee65bd9b93c","ios":"levelo://app?vid=3aa91c8d-a1d8-41d6-a615-5ee65bd9b93c"},"vehicle_type_id":"4","last_reported":1741450136,"current_range_meters":8400,"station_id":"ce4bhjp2rcd13ifvqg90","pricing_plan_id":"cebpf4jnsgd1na2vs0mg"},{"bike_id":"87033e22-3b7e-4b6d-a055-3d91775a8232","system_id":"levelo_inurba_marseille","lat":43.29777,"lon":5.39317,"is_reserved":false,"is_disabled":false,"rental_uris":{"android":"levelo://app?vid=87033e22-3b7e-4b6d-a055-3d91775a8232","ios":"levelo://app?vid=87033e22-3b7e-4b6d-a055-3d91775a8232"},"vehicle_type_id":"4","last_reported":1741450136,"current_range_meters":8400,"station_id":"chh1huq6cuj3fo74tm60","pricing_plan_id":"cebpf4jnsgd1na2vs0mg"},{"bike_id":"4c63458e-2db0-4cb3-bfc1-7ab137c5f028","system_id":"levelo_inurba_marseille","lat":43.269435,"lon":5.40255,"is_reserved":false,"is_disabled":false,"rental_uris":{"android":"levelo://app?vid=4c63458e-2db0-4cb3-bfc1-7ab137c5f028","ios":"levelo://app?vid=4c63458e-2db0-4cb3-bfc1-7ab137c5f028"},"vehicle_type_id":"4","last_reported":1741450136,"current_range_meters":8400,"station_id":"cjm6bp8fraef2m0cb0m0","pricing_plan_id":"cebpf4jnsgd1na2vs0mg"},{"bike_id":"0e674cb4-f37d-4bd5-aaff-7ec953d386c6","system_id":"levelo_inurba_marseille","lat":43.24173,"lon":5.36395,"is_reserved":false,"is_disabled":false,"rental_uris":{"android":"levelo://app?vid=0e674cb4-f37d-4bd5-aaff-7ec953d386c6","ios":"levelo://app?vid=0e674cb4-f37d-4bd5-aaff-7ec953d386c6"},"vehicle_type_id":"4","last_reported":1741450136,"current_range_meters":8400,"station_id":"cpo36qri1sfpv3e86is0","pricing_plan_id":"cebpf4jnsgd1na2vs0mg"},{"bike_id":"7ff904ae-1c74-4a9c-b503-dd5d9cbf9a6a","system_id":"levelo_inurba_marseille","lat":43.29602,"lon":5.3811,"is_reserved":false,"is_disabled":false,"rental_uris":{"android":"levelo://app?vid=7ff904ae-1c74-4a9c-b503-dd5d9cbf9a6a","ios":"levelo://app?vid=7ff904ae-1c74-4a9c-b503-dd5d9cbf9a6a"},"vehicle_type_id":"4","last_reported":1741450136,"current_range_meters":8800,"station_id":"ce4bgl12rcd13ifvqbo0","pricing_plan_id":"cebpf4jnsgd1na2vs0mg"},{"bike_id":"abb5f956-cb43-4dbd-82ab-780c075f8ae7","system_id":"levelo_inurba_marseille","lat":43.29968,"lon":5.37178,"is_reserved":false,"is_disabled":false,"rental_uris":{"android":"levelo://app?vid=abb5f956-cb43-4dbd-82ab-780c075f8ae7","ios":"levelo://app?vid=abb5f956-cb43-4dbd-82ab-780c075f8ae7"},"vehicle_type_id":"4","last_reported":1741450136,"current_range_meters":8800,"station_id":"ce4bgr92rcd13ifvqc7g","pricing_plan_id":"cebpf4jnsgd1na2vs0mg"},{"bike_id":"3e350ef3-08d4-46b6-8ced-58e5e20f00f4","system_id":"levelo_inurba_marseille","lat":43.28278,"lon":5.35083,"is_reserved":false,"is_disabled":false,"rental_uris":{"android":"levelo://app?vid=3e350ef3-08d4-46b6-8ced-58e5e20f00f4","ios":"levelo://app?vid=3e350ef3-08d4-46b6-8ced-58e5e20f00f4"},"vehicle_type_id":"4","last_reported":1741450136,"current_range_meters":8800,"station_id":"ce4bhbp2rcd13ifvqerg","pricing_plan_id":"cebpf4jnsgd1na2vs0mg"},{"bike_id":"8d7de8aa-854a-4510-9931-ef9aea16ecb1","system_id":"levelo_inurba_marseille","lat":43.24388,"lon":5.37061,"is_reserved":false,"is_disabled":false,"rental_uris":{"android":"levelo://app?vid=8d7de8aa-854a-4510-9931-ef9aea16ecb1","ios":"levelo://app?vid=8d7de8aa-854a-4510-9931-ef9aea16ecb1"},"vehicle_type_id":"4","last_reported":1741450136,"current_range_meters":8800,"station_id":"ce4bhhh2rcd13ifvqfk0","pricing_plan_id":"cebpf4jnsgd1na2vs0mg"},{"bike_id":"e524bcef-a391-41b2-bad2-673eae53ea51","system_id":"levelo_inurba_marseille","lat":43.317168,"lon":5.437105,"is_reserved":false,"is_disabled":false,"rental_uris":{"android":"levelo://app?vid=e524bcef-a391-41b2-bad2-673eae53ea51","ios":"levelo://app?vid=e524bcef-a391-41b2-bad2-673eae53ea51"},"vehicle_type_id":"4","last_reported":1741450136,"current_range_meters":8800,"station_id":"ce4bhp92rcd13ifvqhcg","pricing_plan_id":"cebpf4jnsgd1na2vs0mg"},{"bike_id":"95eb3c48-f5ed-426e-ba5a-64c3da70725e","system_id":"levelo_inurba_marseille","lat":43.29023,"lon":5.38121,"is_reserved":false,"is_disabled":false,"rental_uris":{"android":"levelo://app?vid=95eb3c48-f5ed-426e-ba5a-64c3da70725e","ios":"levelo://app?vid=95eb3c48-f5ed-426e-ba5a-64c3da70725e"},"vehicle_type_id":"4","last_reported":1741450136,"current_range_meters":9200,"station_id":"ce4bh4p2rcd13ifvqe1g","pricing_plan_id":"cebpf4jnsgd1na2vs0mg"},{"bike_id":"55db1f86-39e3-431c-bc7d-0fd33a02a58c","system_id":"levelo_inurba_marseille","lat":43.28474,"lon":5.38414,"is_reserved":false,"is_disabled":false,"rental_uris":{"android":"levelo://app?vid=55db1f86-39e3-431c-bc7d-0fd33a02a58c","ios":"levelo://app?vid=55db1f86-39e3-431c-bc7d-0fd33a02a58c"},"vehicle_type_id":"4","last_reported":1741450136,"current_range_meters":9200,"station_id":"ce4bh512rcd13ifvqe3g","pricing_plan_id":"cebpf4jnsgd1na2vs0mg"},{"bike_id":"6f12e26a-7028-4f2e-bc11-1d9c329fa663","system_id":"levelo_inurba_marseille","lat":43.29271,"lon":5.38443,"is_reserved":false,"is_disabled":false,"rental_uris":{"android":"levelo://app?vid=6f12e26a-7028-4f2e-bc11-1d9c329fa663","ios":"levelo://app?vid=6f12e26a-7028-4f2e-bc11-1d9c329fa663"},"vehicle_type_id":"4","last_reported":1741450136,"current_range_meters":9200,"station_id":"ce4bh692rcd13ifvqea0","pricing_plan_id":"cebpf4jnsgd1na2vs0mg"},{"bike_id":"3a888d23-297b-423b-acb2-e88350dfbd99","system_id":"levelo_inurba_marseille","lat":43.28409,"lon":5.34977,"is_reserved":false,"is_disabled":false,"rental_uris":{"android":"levelo://app?vid=3a888d23-297b-423b-acb2-e88350dfbd99","ios":"levelo://app?vid=3a888d23-297b-423b-acb2-e88350dfbd99"},"vehicle_type_id":"4","last_reported":1741450136,"current_range_meters":9200,"station_id":"ce4bhbh2rcd13ifvqepg","pricing_plan_id":"cebpf4jnsgd1na2vs0mg"},{"bike_id":"4e36af2e-cb10-477c-9e18-984e7fd0c0bb","system_id":"levelo_inurba_marseille","lat":43.29231,"lon":5.36061,"is_reserved":false,"is_disabled":false,"rental_uris":{"android":"levelo://app?vid=4e36af2e-cb10-477c-9e18-984e7fd0c0bb","ios":"levelo://app?vid=4e36af2e-cb10-477c-9e18-984e7fd0c0bb"},"vehicle_type_id":"4","last_reported":1741450136,"current_range_meters":9200,"station_id":"ce4bhbh2rcd13ifvqeqg","pricing_plan_id":"cebpf4jnsgd1na2vs0mg"},{"bike_id":"16ceefdd-2bae-459c-8b32-f1c943adcfc6","system_id":"levelo_inurba_marseille","lat":43.26191,"lon":5.3746,"is_reserved":false,"is_disabled":false,"rental_uris":{"android":"levelo://app?vid=16ceefdd-2bae-459c-8b32-f1c943adcfc6","ios":"levelo://app?vid=16ceefdd-2bae-459c-8b32-f1c943adcfc6"},"vehicle_type_id":"4","last_reported":1741450136,"current_range_meters":9200,"station_id":"ce4bhgp2rcd13ifvqfc0","pricing_plan_id":"cebpf4jnsgd1na2vs0mg"},{"bike_id":"cb0d4d15-0ce0-4061-8a04-93bcbe80bd0f","system_id":"levelo_inurba_marseille","lat":43.25939,"lon":5.40898,"is_reserved":false,"is_disabled":false,"rental_uris":{"android":"levelo://app?vid=cb0d4d15-0ce0-4061-8a04-93bcbe80bd0f","ios":"levelo://app?vid=cb0d4d15-0ce0-4061-8a04-93bcbe80bd0f"},"vehicle_type_id":"4","last_reported":1741450136,"current_range_meters":9200,"station_id":"ce4bhm92rcd13ifvqglg","pricing_plan_id":"cebpf4jnsgd1na2vs0mg"},{"bike_id":"1a2bd6ce-febc-4ff5-bafb-86a9b5cd0232","system_id":"levelo_inurba_marseille","lat":43.23159,"lon":5.43701,"is_reserved":false,"is_disabled":false,"rental_uris":{"android":"levelo://app?vid=1a2bd6ce-febc-4ff5-bafb-86a9b5cd0232","ios":"levelo://app?vid=1a2bd6ce-febc-4ff5-bafb-86a9b5cd0232"},"vehicle_type_id":"4","last_reported":1741450136,"current_range_meters":9200,"station_id":"ce4bhmp2rcd13ifvqgog","pricing_plan_id":"cebpf4jnsgd1na2vs0mg"},{"bike_id":"e617155d-9b64-4a04-ad61-c2ca2f4fb408","system_id":"levelo_inurba_marseille","lat":43.23071,"lon":5.35489,"is_reserved":false,"is_disabled":false,"rental_uris":{"android":"levelo://app?vid=e617155d-9b64-4a04-ad61-c2ca2f4fb408","ios":"levelo://app?vid=e617155d-9b64-4a04-ad61-c2ca2f4fb408"},"vehicle_type_id":"4","last_reported":1741450136,"current_range_meters":9200,"station_id":"cpo3342slgdg3j2ifvpg","pricing_plan_id":"cebpf4jnsgd1na2vs0mg"},{"bike_id":"6e5c1ec0-55c7-428f-ab14-fe8ef478e880","system_id":"levelo_inurba_marseille","lat":43.32685,"lon":5.40251,"is_reserved":false,"is_disabled":false,"rental_uris":{"android":"levelo://app?vid=6e5c1ec0-55c7-428f-ab14-fe8ef478e880","ios":"levelo://app?vid=6e5c1ec0-55c7-428f-ab14-fe8ef478e880"},"vehicle_type_id":"4","last_reported":1741450136,"current_range_meters":9600,"station_id":"","pricing_plan_id":"cebpf4jnsgd1na2vs0mg"},{"bike_id":"ddacc789-4712-486f-b653-d412fe3a2dd1","system_id":"levelo_inurba_marseille","lat":43.29964,"lon":5.38498,"is_reserved":false,"is_disabled":false,"rental_uris":{"android":"levelo://app?vid=ddacc789-4712-486f-b653-d412fe3a2dd1","ios":"levelo://app?vid=ddacc789-4712-486f-b653-d412fe3a2dd1"},"vehicle_type_id":"4","last_reported":1741450136,"current_range_meters":9600,"station_id":"ce4bgj92rcd13ifvqbd0","pricing_plan_id":"cebpf4jnsgd1na2vs0mg"},{"bike_id":"c5ba8431-04ba-436b-a682-d74753f16630","system_id":"levelo_inurba_marseille","lat":43.28108,"lon":5.37847,"is_reserved":false,"is_disabled":false,"rental_uris":{"android":"levelo://app?vid=c5ba8431-04ba-436b-a682-d74753f16630","ios":"levelo://app?vid=c5ba8431-04ba-436b-a682-d74753f16630"},"vehicle_type_id":"4","last_reported":1741450136,"current_range_meters":9600,"station_id":"ce4bha12rcd13ifvqee0","pricing_plan_id":"cebpf4jnsgd1na2vs0mg"},{"bike_id":"9e2a9734-63cc-4a01-8102-7cc50f45d2cf","system_id":"levelo_inurba_marseille","lat":43.28412,"lon":5.34991,"is_reserved":false,"is_disabled":false,"rental_uris":{"android":"levelo://app?vid=9e2a9734-63cc-4a01-8102-7cc50f45d2cf","ios":"levelo://app?vid=9e2a9734-63cc-4a01-8102-7cc50f45d2cf"},"vehicle_type_id":"4","last_reported":1741450136,"current_range_meters":9600,"station_id":"ce4bhbh2rcd13ifvqepg","pricing_plan_id":"cebpf4jnsgd1na2vs0mg"},{"bike_id":"049fb279-0f85-4d71-9946-2c1f9d5cd1a0","system_id":"levelo_inurba_marseille","lat":43.23195,"lon":5.39997,"is_reserved":false,"is_disabled":false,"rental_uris":{"android":"levelo://app?vid=049fb279-0f85-4d71-9946-2c1f9d5cd1a0","ios":"levelo://app?vid=049fb279-0f85-4d71-9946-2c1f9d5cd1a0"},"vehicle_type_id":"4","last_reported":1741450136,"current_range_meters":9600,"station_id":"ce4bhn12rcd13ifvqgqg","pricing_plan_id":"cebpf4jnsgd1na2vs0mg"},{"bike_id":"7f30f073-98c0-4e37-a13f-31f1ea2a88c8","system_id":"levelo_inurba_marseille","lat":43.29302,"lon":5.37173,"is_reserved":false,"is_disabled":false,"rental_uris":{"android":"levelo://app?vid=7f30f073-98c0-4e37-a13f-31f1ea2a88c8","ios":"levelo://app?vid=7f30f073-98c0-4e37-a13f-31f1ea2a88c8"},"vehicle_type_id":"4","last_reported":1741450136,"current_range_meters":10000,"station_id":"ce4bgh92rcd13ifvqb40","pricing_plan_id":"cebpf4jnsgd1na2vs0mg"},{"bike_id":"665a3654-eec4-441e-95ae-9d2ff0ac8b1a","system_id":"levelo_inurba_marseille","lat":43.2972,"lon":5.37677,"is_reserved":false,"is_disabled":false,"rental_uris":{"android":"levelo://app?vid=665a3654-eec4-441e-95ae-9d2ff0ac8b1a","ios":"levelo://app?vid=665a3654-eec4-441e-95ae-9d2ff0ac8b1a"},"vehicle_type_id":"4","last_reported":1741450136,"current_range_meters":10000,"station_id":"ce4bgkh2rcd13ifvqbl0","pricing_plan_id":"cebpf4jnsgd1na2vs0mg"},{"bike_id":"867f1ac9-cab3-4a24-b605-21a2cfb1cc74","system_id":"levelo_inurba_marseille","lat":43.31322,"lon":5.39701,"is_reserved":false,"is_disabled":false,"rental_uris":{"android":"levelo://app?vid=867f1ac9-cab3-4a24-b605-21a2cfb1cc74","ios":"levelo://app?vid=867f1ac9-cab3-4a24-b605-21a2cfb1cc74"},"vehicle_type_id":"4","last_reported":1741450136,"current_range_meters":10000,"station_id":"ce4bgvp2rcd13ifvqcu0","pricing_plan_id":"cebpf4jnsgd1na2vs0mg"},{"bike_id":"83ec3b51-45aa-457c-a548-881215e776e2","system_id":"levelo_inurba_marseille","lat":43.262015,"lon":5.379353,"is_reserved":false,"is_disabled":false,"rental_uris":{"android":"levelo://app?vid=83ec3b51-45aa-457c-a548-881215e776e2","ios":"levelo://app?vid=83ec3b51-45aa-457c-a548-881215e776e2"},"vehicle_type_id":"4","last_reported":1741450136,"current_range_meters":10000,"station_id":"ce4bh292rcd13ifvqdg0","pricing_plan_id":"cebpf4jnsgd1na2vs0mg"},{"bike_id":"c9887d98-f0fc-458c-94c6-4e7a805ff5a2","system_id":"levelo_inurba_marseille","lat":43.28418,"lon":5.349798,"is_reserved":false,"is_disabled":false,"rental_uris":{"android":"levelo://app?vid=c9887d98-f0fc-458c-94c6-4e7a805ff5a2","ios":"levelo://app?vid=c9887d98-f0fc-458c-94c6-4e7a805ff5a2"},"vehicle_type_id":"4","last_reported":1741450136,"current_range_meters":10000,"station_id":"ce4bhah2rcd13ifvqej0","pricing_plan_id":"cebpf4jnsgd1na2vs0mg"},{"bike_id":"e1ceadcb-2a40-427b-82a7-7ef618688175","system_id":"levelo_inurba_marseille","lat":43.26572,"lon":5.39003,"is_reserved":false,"is_disabled":false,"rental_uris":{"android":"levelo://app?vid=e1ceadcb-2a40-427b-82a7-7ef618688175","ios":"levelo://app?vid=e1ceadcb-2a40-427b-82a7-7ef618688175"},"vehicle_type_id":"4","last_reported":1741450136,"current_range_meters":10000,"station_id":"ce4bhe12rcd13ifvqf30","pricing_plan_id":"cebpf4jnsgd1na2vs0mg"},{"bike_id":"7b72f05a-33ae-45f0-b189-48d025972aa9","system_id":"levelo_inurba_marseille","lat":43.23196,"lon":5.35547,"is_reserved":false,"is_disabled":false,"rental_uris":{"android":"levelo://app?vid=7b72f05a-33ae-45f0-b189-48d025972aa9","ios":"levelo://app?vid=7b72f05a-33ae-45f0-b189-48d025972aa9"},"vehicle_type_id":"4","last_reported":1741450136,"current_range_meters":10000,"station_id":"ce4bhu92rcd13ifvqi70","pricing_plan_id":"cebpf4jnsgd1na2vs0mg"},{"bike_id":"4cc143b9-48de-48e5-8f0e-906ef28bf84e","system_id":"levelo_inurba_marseille","lat":43.29273,"lon":5.376,"is_reserved":false,"is_disabled":false,"rental_uris":{"android":"levelo://app?vid=4cc143b9-48de-48e5-8f0e-906ef28bf84e","ios":"levelo://app?vid=4cc143b9-48de-48e5-8f0e-906ef28bf84e"},"vehicle_type_id":"4","last_reported":1741450136,"current_range_meters":10800,"station_id":"ce4bgi12rcd13ifvqb80","pricing_plan_id":"cebpf4jnsgd1na2vs0mg"},{"bike_id":"436bcdbb-61d6-407c-bb12-7dc81cb26c80","system_id":"levelo_inurba_marseille","lat":43.29262,"lon":5.37611,"is_reserved":false,"is_disabled":false,"rental_uris":{"android":"levelo://app?vid=436bcdbb-61d6-407c-bb12-7dc81cb26c80","ios":"levelo://app?vid=436bcdbb-61d6-407c-bb12-7dc81cb26c80"},"vehicle_type_id":"4","last_reported":1741450136,"current_range_meters":10800,"station_id":"ce4bgi12rcd13ifvqb80","pricing_plan_id":"cebpf4jnsgd1na2vs0mg"},{"bike_id":"ffcaba7f-6444-472a-b4b7-54198e1dbf32","system_id":"levelo_inurba_marseille","lat":43.30303,"lon":5.3689,"is_reserved":false,"is_disabled":false,"rental_uris":{"android":"levelo://app?vid=ffcaba7f-6444-472a-b4b7-54198e1dbf32","ios":"levelo://app?vid=ffcaba7f-6444-472a-b4b7-54198e1dbf32"},"vehicle_type_id":"4","last_reported":1741450136,"current_range_meters":10800,"station_id":"ce4bgqh2rcd13ifvqc5g","pricing_plan_id":"cebpf4jnsgd1na2vs0mg"},{"bike_id":"04544d5d-6bb8-4737-bc5d-b7b510811443","system_id":"levelo_inurba_marseille","lat":43.29193,"lon":5.35801,"is_reserved":false,"is_disabled":false,"rental_uris":{"android":"levelo://app?vid=04544d5d-6bb8-4737-bc5d-b7b510811443","ios":"levelo://app?vid=04544d5d-6bb8-4737-bc5d-b7b510811443"},"vehicle_type_id":"4","last_reported":1741450136,"current_range_meters":10800,"station_id":"ce4bhb12rcd13ifvqel0","pricing_plan_id":"cebpf4jnsgd1na2vs0mg"},{"bike_id":"bf045f8d-0972-4d42-b094-4e9b33e92278","system_id":"levelo_inurba_marseille","lat":43.27369,"lon":5.36261,"is_reserved":false,"is_disabled":false,"rental_uris":{"android":"levelo://app?vid=bf045f8d-0972-4d42-b094-4e9b33e92278","ios":"levelo://app?vid=bf045f8d-0972-4d42-b094-4e9b33e92278"},"vehicle_type_id":"4","last_reported":1741450136,"current_range_meters":10800,"station_id":"ce4bhbh2rcd13ifvqeo0","pricing_plan_id":"cebpf4jnsgd1na2vs0mg"},{"bike_id":"98e06aa5-060c-4634-b637-08a2775f4c24","system_id":"levelo_inurba_marseille","lat":43.26577,"lon":5.39035,"is_reserved":false,"is_disabled":false,"rental_uris":{"android":"levelo://app?vid=98e06aa5-060c-4634-b637-08a2775f4c24","ios":"levelo://app?vid=98e06aa5-060c-4634-b637-08a2775f4c24"},"vehicle_type_id":"4","last_reported":1741450136,"current_range_meters":10800,"station_id":"ce4bhe12rcd13ifvqf30","pricing_plan_id":"cebpf4jnsgd1na2vs0mg"},{"bike_id":"16a2e177-c6d7-4c95-9513-2490218fc0eb","system_id":"levelo_inurba_marseille","lat":43.28063,"lon":5.3958,"is_reserved":false,"is_disabled":false,"rental_uris":{"android":"levelo://app?vid=16a2e177-c6d7-4c95-9513-2490218fc0eb","ios":"levelo://app?vid=16a2e177-c6d7-4c95-9513-2490218fc0eb"},"vehicle_type_id":"4","last_reported":1741450136,"current_range_meters":10800,"station_id":"ce4bho12rcd13ifvqh2g","pricing_plan_id":"cebpf4jnsgd1na2vs0mg"},{"bike_id":"b2c2514d-58df-4080-9acc-0a3325c87525","system_id":"levelo_inurba_marseille","lat":43.3235,"lon":5.36763,"is_reserved":false,"is_disabled":false,"rental_uris":{"android":"levelo://app?vid=b2c2514d-58df-4080-9acc-0a3325c87525","ios":"levelo://app?vid=b2c2514d-58df-4080-9acc-0a3325c87525"},"vehicle_type_id":"4","last_reported":1741450136,"current_range_meters":10800,"station_id":"ce4bhsh2rcd13ifvqi2g","pricing_plan_id":"cebpf4jnsgd1na2vs0mg"},{"bike_id":"1b4ddce1-0766-46df-95d4-f32d97217fc0","system_id":"levelo_inurba_marseille","lat":43.30545,"lon":5.38408,"is_reserved":false,"is_disabled":false,"rental_uris":{"android":"levelo://app?vid=1b4ddce1-0766-46df-95d4-f32d97217fc0","ios":"levelo://app?vid=1b4ddce1-0766-46df-95d4-f32d97217fc0"},"vehicle_type_id":"4","last_reported":1741450136,"current_range_meters":11200,"station_id":"ce4bgg92rcd13ifvqb30","pricing_plan_id":"cebpf4jnsgd1na2vs0mg"},{"bike_id":"65f047ab-ec07-440a-8847-ca6c8e676e9e","system_id":"levelo_inurba_marseille","lat":43.29578,"lon":5.375,"is_reserved":false,"is_disabled":false,"rental_uris":{"android":"levelo://app?vid=65f047ab-ec07-440a-8847-ca6c8e676e9e","ios":"levelo://app?vid=65f047ab-ec07-440a-8847-ca6c8e676e9e"},"vehicle_type_id":"4","last_reported":1741450136,"current_range_meters":11200,"station_id":"ce4bgh92rcd13ifvqb50","pricing_plan_id":"cebpf4jnsgd1na2vs0mg"},{"bike_id":"d6cd6aa3-25c8-4aa5-8670-ea677701758e","system_id":"levelo_inurba_marseille","lat":43.28035,"lon":5.36943,"is_reserved":false,"is_disabled":false,"rental_uris":{"android":"levelo://app?vid=d6cd6aa3-25c8-4aa5-8670-ea677701758e","ios":"levelo://app?vid=d6cd6aa3-25c8-4aa5-8670-ea677701758e"},"vehicle_type_id":"4","last_reported":1741450136,"current_range_meters":11200,"station_id":"ce4bha12rcd13ifvqef0","pricing_plan_id":"cebpf4jnsgd1na2vs0mg"},{"bike_id":"65d2271a-97b5-4913-95aa-cf77a293f0eb","system_id":"levelo_inurba_marseille","lat":43.26023,"lon":5.37556,"is_reserved":false,"is_disabled":false,"rental_uris":{"android":"levelo://app?vid=65d2271a-97b5-4913-95aa-cf77a293f0eb","ios":"levelo://app?vid=65d2271a-97b5-4913-95aa-cf77a293f0eb"},"vehicle_type_id":"4","last_reported":1741450136,"current_range_meters":11200,"station_id":"ce4bhgh2rcd13ifvqfa0","pricing_plan_id":"cebpf4jnsgd1na2vs0mg"},{"bike_id":"080f2947-5ae2-4d50-8845-2d82a0251f6c","system_id":"levelo_inurba_marseille","lat":43.29333,"lon":5.37419,"is_reserved":false,"is_disabled":false,"rental_uris":{"android":"levelo://app?vid=080f2947-5ae2-4d50-8845-2d82a0251f6c","ios":"levelo://app?vid=080f2947-5ae2-4d50-8845-2d82a0251f6c"},"vehicle_type_id":"4","last_reported":1741450136,"current_range_meters":11600,"station_id":"ce4bgi12rcd13ifvqb70","pricing_plan_id":"cebpf4jnsgd1na2vs0mg"},{"bike_id":"fd82bd80-09eb-4038-8be4-4352c25d4661","system_id":"levelo_inurba_marseille","lat":43.28159,"lon":5.42641,"is_reserved":false,"is_disabled":false,"rental_uris":{"android":"levelo://app?vid=fd82bd80-09eb-4038-8be4-4352c25d4661","ios":"levelo://app?vid=fd82bd80-09eb-4038-8be4-4352c25d4661"},"vehicle_type_id":"4","last_reported":1741450136,"current_range_meters":11600,"station_id":"ce4bhnh2rcd13ifvqgug","pricing_plan_id":"cebpf4jnsgd1na2vs0mg"},{"bike_id":"cf6e3e2a-8582-401c-a204-b822486dce98","system_id":"levelo_inurba_marseille","lat":43.29297,"lon":5.37136,"is_reserved":false,"is_disabled":false,"rental_uris":{"android":"levelo://app?vid=cf6e3e2a-8582-401c-a204-b822486dce98","ios":"levelo://app?vid=cf6e3e2a-8582-401c-a204-b822486dce98"},"vehicle_type_id":"4","last_reported":1741450136,"current_range_meters":12000,"station_id":"ce4bgh92rcd13ifvqb40","pricing_plan_id":"cebpf4jnsgd1na2vs0mg"},{"bike_id":"612b2981-b72e-4f6e-a17a-9729b40cbc06","system_id":"levelo_inurba_marseille","lat":43.29363,"lon":5.37847,"is_reserved":false,"is_disabled":false,"rental_uris":{"android":"levelo://app?vid=612b2981-b72e-4f6e-a17a-9729b40cbc06","ios":"levelo://app?vid=612b2981-b72e-4f6e-a17a-9729b40cbc06"},"vehicle_type_id":"4","last_reported":1741450136,"current_range_meters":12000,"station_id":"ce4bgjh2rcd13ifvqbf0","pricing_plan_id":"cebpf4jnsgd1na2vs0mg"},{"bike_id":"0ff0e34e-f235-4131-bd9f-ebfe9e7aff52","system_id":"levelo_inurba_marseille","lat":43.29735,"lon":5.37723,"is_reserved":false,"is_disabled":false,"rental_uris":{"android":"levelo://app?vid=0ff0e34e-f235-4131-bd9f-ebfe9e7aff52","ios":"levelo://app?vid=0ff0e34e-f235-4131-bd9f-ebfe9e7aff52"},"vehicle_type_id":"4","last_reported":1741450136,"current_range_meters":12000,"station_id":"ce4bgkh2rcd13ifvqbl0","pricing_plan_id":"cebpf4jnsgd1na2vs0mg"},{"bike_id":"24735a56-ae7a-4f1c-b08f-44b68b6d07ce","system_id":"levelo_inurba_marseille","lat":43.29531,"lon":5.37453,"is_reserved":false,"is_disabled":false,"rental_uris":{"android":"levelo://app?vid=24735a56-ae7a-4f1c-b08f-44b68b6d07ce","ios":"levelo://app?vid=24735a56-ae7a-4f1c-b08f-44b68b6d07ce"},"vehicle_type_id":"4","last_reported":1741450136,"current_range_meters":12000,"station_id":"ce4bgkp2rcd13ifvqbmg","pricing_plan_id":"cebpf4jnsgd1na2vs0mg"},{"bike_id":"a06250c2-c43c-481d-ac44-00369fa2bd5b","system_id":"levelo_inurba_marseille","lat":43.29967,"lon":5.37175,"is_reserved":false,"is_disabled":false,"rental_uris":{"android":"levelo://app?vid=a06250c2-c43c-481d-ac44-00369fa2bd5b","ios":"levelo://app?vid=a06250c2-c43c-481d-ac44-00369fa2bd5b"},"vehicle_type_id":"4","last_reported":1741450136,"current_range_meters":12000,"station_id":"ce4bgr92rcd13ifvqc7g","pricing_plan_id":"cebpf4jnsgd1na2vs0mg"},{"bike_id":"dcef3fdb-6b47-4ace-bdea-c0b2665712dc","system_id":"levelo_inurba_marseille","lat":43.2958,"lon":5.3998,"is_reserved":false,"is_disabled":false,"rental_uris":{"android":"levelo://app?vid=dcef3fdb-6b47-4ace-bdea-c0b2665712dc","ios":"levelo://app?vid=dcef3fdb-6b47-4ace-bdea-c0b2665712dc"},"vehicle_type_id":"4","last_reported":1741450136,"current_range_meters":12000,"station_id":"ce4bh312rcd13ifvqdj0","pricing_plan_id":"cebpf4jnsgd1na2vs0mg"},{"bike_id":"9e117c7e-6f96-4de1-a95d-fddf0ad26058","system_id":"levelo_inurba_marseille","lat":43.26554,"lon":5.37285,"is_reserved":false,"is_disabled":false,"rental_uris":{"android":"levelo://app?vid=9e117c7e-6f96-4de1-a95d-fddf0ad26058","ios":"levelo://app?vid=9e117c7e-6f96-4de1-a95d-fddf0ad26058"},"vehicle_type_id":"4","last_reported":1741450136,"current_range_meters":12000,"station_id":"ce4bhg12rcd13ifvqf70","pricing_plan_id":"cebpf4jnsgd1na2vs0mg"},{"bike_id":"8c69e245-c6dd-4cf4-a8a4-3890fd965e75","system_id":"levelo_inurba_marseille","lat":43.2396,"lon":5.36655,"is_reserved":false,"is_disabled":false,"rental_uris":{"android":"levelo://app?vid=8c69e245-c6dd-4cf4-a8a4-3890fd965e75","ios":"levelo://app?vid=8c69e245-c6dd-4cf4-a8a4-3890fd965e75"},"vehicle_type_id":"4","last_reported":1741450136,"current_range_meters":12000,"station_id":"ce4bhi12rcd13ifvqfp0","pricing_plan_id":"cebpf4jnsgd1na2vs0mg"},{"bike_id":"9d69f9c8-0b0b-4a78-8ab0-3079b5db611e","system_id":"levelo_inurba_marseille","lat":43.27492,"lon":5.42468,"is_reserved":false,"is_disabled":false,"rental_uris":{"android":"levelo://app?vid=9d69f9c8-0b0b-4a78-8ab0-3079b5db611e","ios":"levelo://app?vid=9d69f9c8-0b0b-4a78-8ab0-3079b5db611e"},"vehicle_type_id":"4","last_reported":1741450136,"current_range_meters":12000,"station_id":"ce4bhn92rcd13ifvqgrg","pricing_plan_id":"cebpf4jnsgd1na2vs0mg"},{"bike_id":"5d6044a9-d3f6-46ef-b144-3e4bf8bdbbe3","system_id":"levelo_inurba_marseille","lat":43.28598,"lon":5.37076,"is_reserved":false,"is_disabled":false,"rental_uris":{"android":"levelo://app?vid=5d6044a9-d3f6-46ef-b144-3e4bf8bdbbe3","ios":"levelo://app?vid=5d6044a9-d3f6-46ef-b144-3e4bf8bdbbe3"},"vehicle_type_id":"4","last_reported":1741450136,"current_range_meters":12000,"station_id":"ce4bht12rcd13ifvqi60","pricing_plan_id":"cebpf4jnsgd1na2vs0mg"},{"bike_id":"19bbe8da-d7df-496e-a677-cbaab925cf5e","system_id":"levelo_inurba_marseille","lat":43.24874,"lon":5.4252,"is_reserved":false,"is_disabled":false,"rental_uris":{"android":"levelo://app?vid=19bbe8da-d7df-496e-a677-cbaab925cf5e","ios":"levelo://app?vid=19bbe8da-d7df-496e-a677-cbaab925cf5e"},"vehicle_type_id":"4","last_reported":1741450136,"current_range_meters":12400,"station_id":"","pricing_plan_id":"cebpf4jnsgd1na2vs0mg"},{"bike_id":"12c1005e-9aa5-4861-acf5-347e305f0359","system_id":"levelo_inurba_marseille","lat":43.28335,"lon":5.38107,"is_reserved":false,"is_disabled":false,"rental_uris":{"android":"levelo://app?vid=12c1005e-9aa5-4861-acf5-347e305f0359","ios":"levelo://app?vid=12c1005e-9aa5-4861-acf5-347e305f0359"},"vehicle_type_id":"4","last_reported":1741450136,"current_range_meters":12400,"station_id":"ce4bh412rcd13ifvqdr0","pricing_plan_id":"cebpf4jnsgd1na2vs0mg"},{"bike_id":"18cc0b1a-75f6-4f1e-a890-b2b8a7979999","system_id":"levelo_inurba_marseille","lat":43.282807,"lon":5.350873,"is_reserved":false,"is_disabled":false,"rental_uris":{"android":"levelo://app?vid=18cc0b1a-75f6-4f1e-a890-b2b8a7979999","ios":"levelo://app?vid=18cc0b1a-75f6-4f1e-a890-b2b8a7979999"},"vehicle_type_id":"4","last_reported":1741450136,"current_range_meters":12400,"station_id":"ce4bhbp2rcd13ifvqerg","pricing_plan_id":"cebpf4jnsgd1na2vs0mg"},{"bike_id":"6c485f93-9e83-4140-93de-021196d87cfa","system_id":"levelo_inurba_marseille","lat":43.27319,"lon":5.39106,"is_reserved":false,"is_disabled":false,"rental_uris":{"android":"levelo://app?vid=6c485f93-9e83-4140-93de-021196d87cfa","ios":"levelo://app?vid=6c485f93-9e83-4140-93de-021196d87cfa"},"vehicle_type_id":"4","last_reported":1741450136,"current_range_meters":12400,"station_id":"ce4bhgp2rcd13ifvqfe0","pricing_plan_id":"cebpf4jnsgd1na2vs0mg"},{"bike_id":"b18b886b-2f3b-44c3-bf76-bd0fbc795c5b","system_id":"levelo_inurba_marseille","lat":43.28182,"lon":5.42647,"is_reserved":false,"is_disabled":false,"rental_uris":{"android":"levelo://app?vid=b18b886b-2f3b-44c3-bf76-bd0fbc795c5b","ios":"levelo://app?vid=b18b886b-2f3b-44c3-bf76-bd0fbc795c5b"},"vehicle_type_id":"4","last_reported":1741450136,"current_range_meters":12400,"station_id":"ce4bhnh2rcd13ifvqgug","pricing_plan_id":"cebpf4jnsgd1na2vs0mg"},{"bike_id":"b98bfd7c-a7f3-4811-9410-b4ed0300f592","system_id":"levelo_inurba_marseille","lat":43.24069,"lon":5.37759,"is_reserved":false,"is_disabled":false,"rental_uris":{"android":"levelo://app?vid=b98bfd7c-a7f3-4811-9410-b4ed0300f592","ios":"levelo://app?vid=b98bfd7c-a7f3-4811-9410-b4ed0300f592"},"vehicle_type_id":"4","last_reported":1741450136,"current_range_meters":12400,"station_id":"ce4bhnp2rcd13ifvqgvg","pricing_plan_id":"cebpf4jnsgd1na2vs0mg"},{"bike_id":"682b78e0-47fc-4b47-bd13-9a65763fa3e9","system_id":"levelo_inurba_marseille","lat":43.30297,"lon":5.39212,"is_reserved":false,"is_disabled":false,"rental_uris":{"android":"levelo://app?vid=682b78e0-47fc-4b47-bd13-9a65763fa3e9","ios":"levelo://app?vid=682b78e0-47fc-4b47-bd13-9a65763fa3e9"},"vehicle_type_id":"4","last_reported":1741450136,"current_range_meters":12800,"station_id":"ce4bgkh2rcd13ifvqbk0","pricing_plan_id":"cebpf4jnsgd1na2vs0mg"},{"bike_id":"ac2d134d-7c67-47c9-a347-717113c8ae48","system_id":"levelo_inurba_marseille","lat":43.29593,"lon":5.38119,"is_reserved":false,"is_disabled":false,"rental_uris":{"android":"levelo://app?vid=ac2d134d-7c67-47c9-a347-717113c8ae48","ios":"levelo://app?vid=ac2d134d-7c67-47c9-a347-717113c8ae48"},"vehicle_type_id":"4","last_reported":1741450136,"current_range_meters":12800,"station_id":"ce4bgl12rcd13ifvqbo0","pricing_plan_id":"cebpf4jnsgd1na2vs0mg"},{"bike_id":"bcfd987e-4925-4bc0-a2c6-1cce4b073733","system_id":"levelo_inurba_marseille","lat":43.29048,"lon":5.37142,"is_reserved":false,"is_disabled":false,"rental_uris":{"android":"levelo://app?vid=bcfd987e-4925-4bc0-a2c6-1cce4b073733","ios":"levelo://app?vid=bcfd987e-4925-4bc0-a2c6-1cce4b073733"},"vehicle_type_id":"4","last_reported":1741450136,"current_range_meters":12800,"station_id":"ce4bh5p2rcd13ifvqe4g","pricing_plan_id":"cebpf4jnsgd1na2vs0mg"},{"bike_id":"aceb09ee-62c1-440d-a376-89c899a152f2","system_id":"levelo_inurba_marseille","lat":43.29002,"lon":5.35608,"is_reserved":false,"is_disabled":false,"rental_uris":{"android":"levelo://app?vid=aceb09ee-62c1-440d-a376-89c899a152f2","ios":"levelo://app?vid=aceb09ee-62c1-440d-a376-89c899a152f2"},"vehicle_type_id":"4","last_reported":1741450136,"current_range_meters":12800,"station_id":"ce4bhb92rcd13ifvqen0","pricing_plan_id":"cebpf4jnsgd1na2vs0mg"},{"bike_id":"a6359ddc-0ba8-46fc-9d4b-b2ee3946491e","system_id":"levelo_inurba_marseille","lat":43.2695,"lon":5.38635,"is_reserved":false,"is_disabled":false,"rental_uris":{"android":"levelo://app?vid=a6359ddc-0ba8-46fc-9d4b-b2ee3946491e","ios":"levelo://app?vid=a6359ddc-0ba8-46fc-9d4b-b2ee3946491e"},"vehicle_type_id":"4","last_reported":1741450136,"current_range_meters":12800,"station_id":"ce4bhh92rcd13ifvqfh0","pricing_plan_id":"cebpf4jnsgd1na2vs0mg"},{"bike_id":"d93c39e4-5dc3-464e-bd75-531f55c8dbf0","system_id":"levelo_inurba_marseille","lat":43.23967,"lon":5.36631,"is_reserved":false,"is_disabled":false,"rental_uris":{"android":"levelo://app?vid=d93c39e4-5dc3-464e-bd75-531f55c8dbf0","ios":"levelo://app?vid=d93c39e4-5dc3-464e-bd75-531f55c8dbf0"},"vehicle_type_id":"4","last_reported":1741450136,"current_range_meters":12800,"station_id":"ce4bhi12rcd13ifvqfp0","pricing_plan_id":"cebpf4jnsgd1na2vs0mg"},{"bike_id":"dc77e428-64a6-48f8-9795-5a11a2e7d2f7","system_id":"levelo_inurba_marseille","lat":43.33607,"lon":5.41028,"is_reserved":false,"is_disabled":false,"rental_uris":{"android":"levelo://app?vid=dc77e428-64a6-48f8-9795-5a11a2e7d2f7","ios":"levelo://app?vid=dc77e428-64a6-48f8-9795-5a11a2e7d2f7"},"vehicle_type_id":"4","last_reported":1741450136,"current_range_meters":12800,"station_id":"ce4bhqh2rcd13ifvqhmg","pricing_plan_id":"cebpf4jnsgd1na2vs0mg"},{"bike_id":"913cf932-b5c9-40ec-9bd5-a6567b9766f2","system_id":"levelo_inurba_marseille","lat":43.29296,"lon":5.37442,"is_reserved":false,"is_disabled":false,"rental_uris":{"android":"levelo://app?vid=913cf932-b5c9-40ec-9bd5-a6567b9766f2","ios":"levelo://app?vid=913cf932-b5c9-40ec-9bd5-a6567b9766f2"},"vehicle_type_id":"4","last_reported":1741450136,"current_range_meters":13600,"station_id":"ce4bgi12rcd13ifvqb70","pricing_plan_id":"cebpf4jnsgd1na2vs0mg"},{"bike_id":"9d9df3d4-53ab-4cb2-a30c-3b53b334345d","system_id":"levelo_inurba_marseille","lat":43.2937,"lon":5.37842,"is_reserved":false,"is_disabled":false,"rental_uris":{"android":"levelo://app?vid=9d9df3d4-53ab-4cb2-a30c-3b53b334345d","ios":"levelo://app?vid=9d9df3d4-53ab-4cb2-a30c-3b53b334345d"},"vehicle_type_id":"4","last_reported":1741450136,"current_range_meters":13600,"station_id":"ce4bgjh2rcd13ifvqbf0","pricing_plan_id":"cebpf4jnsgd1na2vs0mg"},{"bike_id":"914a7fa7-76f9-413a-ae51-d8b68867b37a","system_id":"levelo_inurba_marseille","lat":43.2953,"lon":5.39027,"is_reserved":false,"is_disabled":false,"rental_uris":{"android":"levelo://app?vid=914a7fa7-76f9-413a-ae51-d8b68867b37a","ios":"levelo://app?vid=914a7fa7-76f9-413a-ae51-d8b68867b37a"},"vehicle_type_id":"4","last_reported":1741450136,"current_range_meters":13600,"station_id":"ce4bh3p2rcd13ifvqdp0","pricing_plan_id":"cebpf4jnsgd1na2vs0mg"},{"bike_id":"6b3bc287-46f1-425c-821e-dd069ef80e17","system_id":"levelo_inurba_marseille","lat":43.2439,"lon":5.3706,"is_reserved":false,"is_disabled":false,"rental_uris":{"android":"levelo://app?vid=6b3bc287-46f1-425c-821e-dd069ef80e17","ios":"levelo://app?vid=6b3bc287-46f1-425c-821e-dd069ef80e17"},"vehicle_type_id":"4","last_reported":1741450136,"current_range_meters":13600,"station_id":"ce4bhhh2rcd13ifvqfk0","pricing_plan_id":"cebpf4jnsgd1na2vs0mg"},{"bike_id":"8dbdb15a-50a5-44cf-9f70-4654343fc729","system_id":"levelo_inurba_marseille","lat":43.28001,"lon":5.41664,"is_reserved":false,"is_disabled":false,"rental_uris":{"android":"levelo://app?vid=8dbdb15a-50a5-44cf-9f70-4654343fc729","ios":"levelo://app?vid=8dbdb15a-50a5-44cf-9f70-4654343fc729"},"vehicle_type_id":"4","last_reported":1741450136,"current_range_meters":13600,"station_id":"ce4bho12rcd13ifvqh1g","pricing_plan_id":"cebpf4jnsgd1na2vs0mg"},{"bike_id":"b3951b8f-8388-46e0-9060-ee008a75aea1","system_id":"levelo_inurba_marseille","lat":43.29598,"lon":5.37757,"is_reserved":false,"is_disabled":false,"rental_uris":{"android":"levelo://app?vid=b3951b8f-8388-46e0-9060-ee008a75aea1","ios":"levelo://app?vid=b3951b8f-8388-46e0-9060-ee008a75aea1"},"vehicle_type_id":"4","last_reported":1741450136,"current_range_meters":14000,"station_id":"ce4bgi92rcd13ifvqb90","pricing_plan_id":"cebpf4jnsgd1na2vs0mg"},{"bike_id":"e82817bd-63f2-4e18-b317-5d3a5242da22","system_id":"levelo_inurba_marseille","lat":43.29784,"lon":5.37095,"is_reserved":false,"is_disabled":false,"rental_uris":{"android":"levelo://app?vid=e82817bd-63f2-4e18-b317-5d3a5242da22","ios":"levelo://app?vid=e82817bd-63f2-4e18-b317-5d3a5242da22"},"vehicle_type_id":"4","last_reported":1741450136,"current_range_meters":14000,"station_id":"ce4bgop2rcd13ifvqc1g","pricing_plan_id":"cebpf4jnsgd1na2vs0mg"},{"bike_id":"1e2c6d47-ed1a-4f10-8e64-94987c38cb3c","system_id":"levelo_inurba_marseille","lat":43.29795,"lon":5.40403,"is_reserved":false,"is_disabled":false,"rental_uris":{"android":"levelo://app?vid=1e2c6d47-ed1a-4f10-8e64-94987c38cb3c","ios":"levelo://app?vid=1e2c6d47-ed1a-4f10-8e64-94987c38cb3c"},"vehicle_type_id":"4","last_reported":1741450136,"current_range_meters":14000,"station_id":"ce4bh112rcd13ifvqd90","pricing_plan_id":"cebpf4jnsgd1na2vs0mg"},{"bike_id":"c4ad9438-b92e-402e-82e0-e7d498cc7d70","system_id":"levelo_inurba_marseille","lat":43.29194,"lon":5.35807,"is_reserved":false,"is_disabled":false,"rental_uris":{"android":"levelo://app?vid=c4ad9438-b92e-402e-82e0-e7d498cc7d70","ios":"levelo://app?vid=c4ad9438-b92e-402e-82e0-e7d498cc7d70"},"vehicle_type_id":"4","last_reported":1741450136,"current_range_meters":14000,"station_id":"ce4bhb12rcd13ifvqel0","pricing_plan_id":"cebpf4jnsgd1na2vs0mg"},{"bike_id":"d921a1a1-ce19-4e97-bf8e-0c7e108a571b","system_id":"levelo_inurba_marseille","lat":43.26571,"lon":5.39,"is_reserved":false,"is_disabled":false,"rental_uris":{"android":"levelo://app?vid=d921a1a1-ce19-4e97-bf8e-0c7e108a571b","ios":"levelo://app?vid=d921a1a1-ce19-4e97-bf8e-0c7e108a571b"},"vehicle_type_id":"4","last_reported":1741450136,"current_range_meters":14000,"station_id":"ce4bhe12rcd13ifvqf30","pricing_plan_id":"cebpf4jnsgd1na2vs0mg"},{"bike_id":"e02223b7-b928-48e5-9ef3-88f47ffc8668","system_id":"levelo_inurba_marseille","lat":43.26566,"lon":5.39027,"is_reserved":false,"is_disabled":false,"rental_uris":{"android":"levelo://app?vid=e02223b7-b928-48e5-9ef3-88f47ffc8668","ios":"levelo://app?vid=e02223b7-b928-48e5-9ef3-88f47ffc8668"},"vehicle_type_id":"4","last_reported":1741450136,"current_range_meters":14000,"station_id":"ce4bhe12rcd13ifvqf30","pricing_plan_id":"cebpf4jnsgd1na2vs0mg"},{"bike_id":"3c9f4767-bdc9-4cf9-bb4f-dcaf9789a866","system_id":"levelo_inurba_marseille","lat":43.28437,"lon":5.39198,"is_reserved":false,"is_disabled":false,"rental_uris":{"android":"levelo://app?vid=3c9f4767-bdc9-4cf9-bb4f-dcaf9789a866","ios":"levelo://app?vid=3c9f4767-bdc9-4cf9-bb4f-dcaf9789a866"},"vehicle_type_id":"4","last_reported":1741450136,"current_range_meters":14000,"station_id":"ce4bhoh2rcd13ifvqh5g","pricing_plan_id":"cebpf4jnsgd1na2vs0mg"},{"bike_id":"30b8733a-ae27-42bf-883f-50cdead7fa82","system_id":"levelo_inurba_marseille","lat":43.29741,"lon":5.37692,"is_reserved":false,"is_disabled":false,"rental_uris":{"android":"levelo://app?vid=30b8733a-ae27-42bf-883f-50cdead7fa82","ios":"levelo://app?vid=30b8733a-ae27-42bf-883f-50cdead7fa82"},"vehicle_type_id":"4","last_reported":1741450136,"current_range_meters":14400,"station_id":"ce4bgkh2rcd13ifvqbl0","pricing_plan_id":"cebpf4jnsgd1na2vs0mg"},{"bike_id":"cdcbc769-c3bb-4022-b249-ef3c175950b4","system_id":"levelo_inurba_marseille","lat":43.28509,"lon":5.38421,"is_reserved":false,"is_disabled":false,"rental_uris":{"android":"levelo://app?vid=cdcbc769-c3bb-4022-b249-ef3c175950b4","ios":"levelo://app?vid=cdcbc769-c3bb-4022-b249-ef3c175950b4"},"vehicle_type_id":"4","last_reported":1741450136,"current_range_meters":14400,"station_id":"ce4bh512rcd13ifvqe3g","pricing_plan_id":"cebpf4jnsgd1na2vs0mg"},{"bike_id":"f03521b0-62bb-4198-915b-4e4481afb4df","system_id":"levelo_inurba_marseille","lat":43.29199,"lon":5.35802,"is_reserved":false,"is_disabled":false,"rental_uris":{"android":"levelo://app?vid=f03521b0-62bb-4198-915b-4e4481afb4df","ios":"levelo://app?vid=f03521b0-62bb-4198-915b-4e4481afb4df"},"vehicle_type_id":"4","last_reported":1741450136,"current_range_meters":14400,"station_id":"ce4bhb12rcd13ifvqel0","pricing_plan_id":"cebpf4jnsgd1na2vs0mg"},{"bike_id":"863c28ef-dd3f-4742-aa5e-75cadac078b0","system_id":"levelo_inurba_marseille","lat":43.26554,"lon":5.37284,"is_reserved":false,"is_disabled":false,"rental_uris":{"android":"levelo://app?vid=863c28ef-dd3f-4742-aa5e-75cadac078b0","ios":"levelo://app?vid=863c28ef-dd3f-4742-aa5e-75cadac078b0"},"vehicle_type_id":"4","last_reported":1741450136,"current_range_meters":14400,"station_id":"ce4bhg12rcd13ifvqf70","pricing_plan_id":"cebpf4jnsgd1na2vs0mg"},{"bike_id":"0e698c9d-47bc-4045-944d-ecfd6b2414bc","system_id":"levelo_inurba_marseille","lat":43.31081,"lon":5.42422,"is_reserved":false,"is_disabled":false,"rental_uris":{"android":"levelo://app?vid=0e698c9d-47bc-4045-944d-ecfd6b2414bc","ios":"levelo://app?vid=0e698c9d-47bc-4045-944d-ecfd6b2414bc"},"vehicle_type_id":"4","last_reported":1741450136,"current_range_meters":14400,"station_id":"ce4bhp92rcd13ifvqhag","pricing_plan_id":"cebpf4jnsgd1na2vs0mg"},{"bike_id":"be3c5a73-204d-49b0-ac09-e2a8b33eb09c","system_id":"levelo_inurba_marseille","lat":43.267306,"lon":5.382743,"is_reserved":false,"is_disabled":false,"rental_uris":{"android":"levelo://app?vid=be3c5a73-204d-49b0-ac09-e2a8b33eb09c","ios":"levelo://app?vid=be3c5a73-204d-49b0-ac09-e2a8b33eb09c"},"vehicle_type_id":"4","last_reported":1741450136,"current_range_meters":14800,"station_id":"ce4bhg92rcd13ifvqf90","pricing_plan_id":"cebpf4jnsgd1na2vs0mg"},{"bike_id":"6bc8b371-2391-429b-9115-d67704771790","system_id":"levelo_inurba_marseille","lat":43.27211,"lon":5.39182,"is_reserved":false,"is_disabled":false,"rental_uris":{"android":"levelo://app?vid=6bc8b371-2391-429b-9115-d67704771790","ios":"levelo://app?vid=6bc8b371-2391-429b-9115-d67704771790"},"vehicle_type_id":"4","last_reported":1741450136,"current_range_meters":14800,"station_id":"ce4bhhp2rcd13ifvqfm0","pricing_plan_id":"cebpf4jnsgd1na2vs0mg"},{"bike_id":"7758ed75-5f25-4863-b21b-fc212239a75b","system_id":"levelo_inurba_marseille","lat":43.25714,"lon":5.41101,"is_reserved":false,"is_disabled":false,"rental_uris":{"android":"levelo://app?vid=7758ed75-5f25-4863-b21b-fc212239a75b","ios":"levelo://app?vid=7758ed75-5f25-4863-b21b-fc212239a75b"},"vehicle_type_id":"4","last_reported":1741450136,"current_range_meters":14800,"station_id":"ce4bhkp2rcd13ifvqgd0","pricing_plan_id":"cebpf4jnsgd1na2vs0mg"},{"bike_id":"18dea8c5-b4c7-4c5b-8784-c072a2eaf383","system_id":"levelo_inurba_marseille","lat":43.29367,"lon":5.3778,"is_reserved":false,"is_disabled":false,"rental_uris":{"android":"levelo://app?vid=18dea8c5-b4c7-4c5b-8784-c072a2eaf383","ios":"levelo://app?vid=18dea8c5-b4c7-4c5b-8784-c072a2eaf383"},"vehicle_type_id":"4","last_reported":1741450136,"current_range_meters":15200,"station_id":"","pricing_plan_id":"cebpf4jnsgd1na2vs0mg"},{"bike_id":"08fe59c1-5ece-4d88-aae4-f0ac9c18ca21","system_id":"levelo_inurba_marseille","lat":43.25585,"lon":5.38238,"is_reserved":false,"is_disabled":false,"rental_uris":{"android":"levelo://app?vid=08fe59c1-5ece-4d88-aae4-f0ac9c18ca21","ios":"levelo://app?vid=08fe59c1-5ece-4d88-aae4-f0ac9c18ca21"},"vehicle_type_id":"4","last_reported":1741450136,"current_range_meters":15200,"station_id":"ce4bhih2rcd13ifvqfs0","pricing_plan_id":"cebpf4jnsgd1na2vs0mg"},{"bike_id":"b7a9655e-2dcb-40e5-bcd2-16514c74cfa3","system_id":"levelo_inurba_marseille","lat":43.27373,"lon":5.36262,"is_reserved":false,"is_disabled":false,"rental_uris":{"android":"levelo://app?vid=b7a9655e-2dcb-40e5-bcd2-16514c74cfa3","ios":"levelo://app?vid=b7a9655e-2dcb-40e5-bcd2-16514c74cfa3"},"vehicle_type_id":"4","last_reported":1741450136,"current_range_meters":16000,"station_id":"ce4bhbh2rcd13ifvqeo0","pricing_plan_id":"cebpf4jnsgd1na2vs0mg"},{"bike_id":"4c5d8bb4-3d1e-4689-9d72-361d8d376cce","system_id":"levelo_inurba_marseille","lat":43.24817,"lon":5.37455,"is_reserved":false,"is_disabled":false,"rental_uris":{"android":"levelo://app?vid=4c5d8bb4-3d1e-4689-9d72-361d8d376cce","ios":"levelo://app?vid=4c5d8bb4-3d1e-4689-9d72-361d8d376cce"},"vehicle_type_id":"4","last_reported":1741450136,"current_range_meters":16000,"station_id":"ce4bhgh2rcd13ifvqfb0","pricing_plan_id":"cebpf4jnsgd1na2vs0mg"},{"bike_id":"eb1d40a8-baf2-4e63-8e88-070507726f04","system_id":"levelo_inurba_marseille","lat":43.23183,"lon":5.39983,"is_reserved":false,"is_disabled":false,"rental_uris":{"android":"levelo://app?vid=eb1d40a8-baf2-4e63-8e88-070507726f04","ios":"levelo://app?vid=eb1d40a8-baf2-4e63-8e88-070507726f04"},"vehicle_type_id":"4","last_reported":1741450136,"current_range_meters":16000,"station_id":"ce4bhn12rcd13ifvqgqg","pricing_plan_id":"cebpf4jnsgd1na2vs0mg"},{"bike_id":"f9281329-57ed-4697-9fea-a8cb21fd0368","system_id":"levelo_inurba_marseille","lat":43.28611,"lon":5.37058,"is_reserved":false,"is_disabled":false,"rental_uris":{"android":"levelo://app?vid=f9281329-57ed-4697-9fea-a8cb21fd0368","ios":"levelo://app?vid=f9281329-57ed-4697-9fea-a8cb21fd0368"},"vehicle_type_id":"4","last_reported":1741450136,"current_range_meters":16000,"station_id":"ce4bht12rcd13ifvqi60","pricing_plan_id":"cebpf4jnsgd1na2vs0mg"},{"bike_id":"36c23e2a-2af6-498a-9dc8-bf2793fc6e3d","system_id":"levelo_inurba_marseille","lat":43.2981,"lon":5.38037,"is_reserved":false,"is_disabled":false,"rental_uris":{"android":"levelo://app?vid=36c23e2a-2af6-498a-9dc8-bf2793fc6e3d","ios":"levelo://app?vid=36c23e2a-2af6-498a-9dc8-bf2793fc6e3d"},"vehicle_type_id":"4","last_reported":1741450136,"current_range_meters":16400,"station_id":"","pricing_plan_id":"cebpf4jnsgd1na2vs0mg"},{"bike_id":"1c6668dc-1aac-44b2-b2b6-c540f30941a7","system_id":"levelo_inurba_marseille","lat":43.29934,"lon":5.36554,"is_reserved":false,"is_disabled":false,"rental_uris":{"android":"levelo://app?vid=1c6668dc-1aac-44b2-b2b6-c540f30941a7","ios":"levelo://app?vid=1c6668dc-1aac-44b2-b2b6-c540f30941a7"},"vehicle_type_id":"4","last_reported":1741450136,"current_range_meters":16400,"station_id":"ce4bgm92rcd13ifvqbr0","pricing_plan_id":"cebpf4jnsgd1na2vs0mg"},{"bike_id":"33937193-0707-47a4-ad72-0dd87f1cd31f","system_id":"levelo_inurba_marseille","lat":43.30937,"lon":5.40142,"is_reserved":false,"is_disabled":false,"rental_uris":{"android":"levelo://app?vid=33937193-0707-47a4-ad72-0dd87f1cd31f","ios":"levelo://app?vid=33937193-0707-47a4-ad72-0dd87f1cd31f"},"vehicle_type_id":"4","last_reported":1741450136,"current_range_meters":16400,"station_id":"ce4bgvp2rcd13ifvqct0","pricing_plan_id":"cebpf4jnsgd1na2vs0mg"},{"bike_id":"9a725903-8c24-4620-89dc-eb7e64194f1b","system_id":"levelo_inurba_marseille","lat":43.26556,"lon":5.37285,"is_reserved":false,"is_disabled":false,"rental_uris":{"android":"levelo://app?vid=9a725903-8c24-4620-89dc-eb7e64194f1b","ios":"levelo://app?vid=9a725903-8c24-4620-89dc-eb7e64194f1b"},"vehicle_type_id":"4","last_reported":1741450136,"current_range_meters":16400,"station_id":"ce4bhg12rcd13ifvqf70","pricing_plan_id":"cebpf4jnsgd1na2vs0mg"},{"bike_id":"22253ec9-dc27-4967-ad42-a7af9a95143f","system_id":"levelo_inurba_marseille","lat":43.25585,"lon":5.38238,"is_reserved":false,"is_disabled":false,"rental_uris":{"android":"levelo://app?vid=22253ec9-dc27-4967-ad42-a7af9a95143f","ios":"levelo://app?vid=22253ec9-dc27-4967-ad42-a7af9a95143f"},"vehicle_type_id":"4","last_reported":1741450136,"current_range_meters":16400,"station_id":"ce4bhih2rcd13ifvqfs0","pricing_plan_id":"cebpf4jnsgd1na2vs0mg"},{"bike_id":"e9dab2ce-7c7d-40d2-82aa-ed5c703d86fd","system_id":"levelo_inurba_marseille","lat":43.3212,"lon":5.36766,"is_reserved":false,"is_disabled":false,"rental_uris":{"android":"levelo://app?vid=e9dab2ce-7c7d-40d2-82aa-ed5c703d86fd","ios":"levelo://app?vid=e9dab2ce-7c7d-40d2-82aa-ed5c703d86fd"},"vehicle_type_id":"4","last_reported":1741450136,"current_range_meters":16400,"station_id":"ce4bhrh2rcd13ifvqhug","pricing_plan_id":"cebpf4jnsgd1na2vs0mg"},{"bike_id":"deb81f77-c6e9-45d2-b680-8c00a5704cb4","system_id":"levelo_inurba_marseille","lat":43.321215,"lon":5.367706,"is_reserved":false,"is_disabled":false,"rental_uris":{"android":"levelo://app?vid=deb81f77-c6e9-45d2-b680-8c00a5704cb4","ios":"levelo://app?vid=deb81f77-c6e9-45d2-b680-8c00a5704cb4"},"vehicle_type_id":"4","last_reported":1741450136,"current_range_meters":16400,"station_id":"ce4bhrh2rcd13ifvqhug","pricing_plan_id":"cebpf4jnsgd1na2vs0mg"},{"bike_id":"99e69bf6-dc57-4127-a1aa-9a36825d1a88","system_id":"levelo_inurba_marseille","lat":43.32353,"lon":5.36736,"is_reserved":false,"is_disabled":false,"rental_uris":{"android":"levelo://app?vid=99e69bf6-dc57-4127-a1aa-9a36825d1a88","ios":"levelo://app?vid=99e69bf6-dc57-4127-a1aa-9a36825d1a88"},"vehicle_type_id":"4","last_reported":1741450136,"current_range_meters":16800,"station_id":"ce4bhsh2rcd13ifvqi2g","pricing_plan_id":"cebpf4jnsgd1na2vs0mg"},{"bike_id":"3a664454-50d4-42f2-9222-7f2d6618aa17","system_id":"levelo_inurba_marseille","lat":43.26933,"lon":5.40256,"is_reserved":false,"is_disabled":false,"rental_uris":{"android":"levelo://app?vid=3a664454-50d4-42f2-9222-7f2d6618aa17","ios":"levelo://app?vid=3a664454-50d4-42f2-9222-7f2d6618aa17"},"vehicle_type_id":"4","last_reported":1741450136,"current_range_meters":16800,"station_id":"cjm6bp8fraef2m0cb0m0","pricing_plan_id":"cebpf4jnsgd1na2vs0mg"},