{"last_updated":1728904109,"ttl":60,"version":"2.2","data":{"bikes":[{"bike_id":"79d6d2a6-01c8-46e7-8618-793d521dfaaf","system_id":"levelo_inurba_marseille","lat":43.23151,"lon":5.43717,"is_reserved":false,"is_disabled":false,"rental_uris":{"android":"levelo://app?vid=79d6d2a6-01c8-46e7-8618-793d521dfaaf","ios":"levelo://app?vid=79d6d2a6-01c8-46e7-8618-793d521dfaaf"},"vehicle_type_id":"4","last_reported":1728904110,"current_range_meters":10000,"station_id":"ce4bhmp2rcd13ifvqgog","pricing_plan_id":"cebpf4jnsgd1na2vs0mg"},{"bike_id":"6e1cb97b-e9e4-4ed1-a364-8ef7c47fee18","system_id":"levelo_inurba_marseille","lat":43.29376,"lon":5.37856,"is_reserved":false,"is_disabled":false,"rental_uris":{"android":"levelo://app?vid=6e1cb97b-e9e4-4ed1-a364-8ef7c47fee18","ios":"levelo://app?vid=6e1cb97b-e9e4-4ed1-a364-8ef7c47fee18"},"vehicle_type_id":"4","last_reported":1728904110,"current_range_meters":36800,"station_id":"ce4bgjh2rcd13ifvqbf0","pricing_plan_id":"cebpf4jnsgd1na2vs0mg"},{"bike_id":"60e9cae9-bf97-467b-a80d-c0e9153f37f3","system_id":"levelo_inurba_marseille","lat":43.30301,"lon":5.39213,"is_reserved":false,"is_disabled":false,"rental_uris":{"android":"levelo://app?vid=60e9cae9-bf97-467b-a80d-c0e9153f37f3","ios":"levelo://app?vid=60e9cae9-bf97-467b-a80d-c0e9153f37f3"},"vehicle_type_id":"4","last_reported":1728904110,"current_range_meters":28400,"station_id":"ce4bgkh2rcd13ifvqbk0","pricing_plan_id":"cebpf4jnsgd1na2vs0mg"},{"bike_id":"892da6b4-f2bc-4606-a2c7-d17cff5d2193","system_id":"levelo_inurba_marseille","lat":43.26497,"lon":5.39549,"is_reserved":false,"is_disabled":false,"rental_uris":{"android":"levelo://app?vid=892da6b4-f2bc-4606-a2c7-d17cff5d2193","ios":"levelo://app?vid=892da6b4-f2bc-4606-a2c7-d17cff5d2193"},"vehicle_type_id":"4","last_reported":1728904110,"current_range_meters":16000,"station_id":"ce4bhi12rcd13ifvqfq0","pricing_plan_id":"cebpf4jnsgd1na2vs0mg"},{"bike_id":"599c09fe-085f-4c4d-bcb2-98da69515aba","system_id":"levelo_inurba_marseille","lat":43.23065,"lon":5.35492,"is_reserved":false,"is_disabled":false,"rental_uris":{"android":"levelo://app?vid=599c09fe-085f-4c4d-bcb2-98da69515aba","ios":"levelo://app?vid=599c09fe-085f-4c4d-bcb2-98da69515aba"},"vehicle_type_id":"4","last_reported":1728904110,"current_range_meters":37600,"station_id":"cpo3342slgdg3j2ifvpg","pricing_plan_id":"cebpf4jnsgd1na2vs0mg"},{"bike_id":"061b4f62-a050-4073-ac7c-7cb91ade7c64","system_id":"levelo_inurba_marseille","lat":43.28613,"lon":5.37065,"is_reserved":false,"is_disabled":false,"rental_uris":{"android":"levelo://app?vid=061b4f62-a050-4073-ac7c-7cb91ade7c64","ios":"levelo://app?vid=061b4f62-a050-4073-ac7c-7cb91ade7c64"},"vehicle_type_id":"4","last_reported":1728904110,"current_range_meters":9600,"station_id":"ce4bht12rcd13ifvqi60","pricing_plan_id":"cebpf4jnsgd1na2vs0mg"},{"bike_id":"dc7f4af5-abdd-4a39-a1ba-d549194eaee2","system_id":"levelo_inurba_marseille","lat":43.30598,"lon":5.37209,"is_reserved":false,"is_disabled":false,"rental_uris":{"android":"levelo://app?vid=dc7f4af5-abdd-4a39-a1ba-d549194eaee2","ios":"levelo://app?vid=dc7f4af5-abdd-4a39-a1ba-d549194eaee2"},"vehicle_type_id":"4","last_reported":1728904110,"current_range_meters":39200,"station_id":"ce4bgqh2rcd13ifvqc4g","pricing_plan_id":"cebpf4jnsgd1na2vs0mg"},{"bike_id":"1e40c924-b558-4f9c-a85c-45c5615aa1a5","system_id":"levelo_inurba_marseille","lat":43.30157,"lon":5.38778,"is_reserved":false,"is_disabled":false,"rental_uris":{"android":"levelo://app?vid=1e40c924-b558-4f9c-a85c-45c5615aa1a5","ios":"levelo://app?vid=1e40c924-b558-4f9c-a85c-45c5615aa1a5"},"vehicle_type_id":"4","last_reported":1728904110,"current_range_meters":22000,"station_id":"ce4bghh2rcd13ifvqb60","pricing_plan_id":"cebpf4jnsgd1na2vs0mg"},{"bike_id":"ee460dbb-bf6a-4d3c-a3db-17eb77dc7563","system_id":"levelo_inurba_marseille","lat":43.28667,"lon":5.36349,"is_reserved":false,"is_disabled":false,"rental_uris":{"android":"levelo://app?vid=ee460dbb-bf6a-4d3c-a3db-17eb77dc7563","ios":"levelo://app?vid=ee460dbb-bf6a-4d3c-a3db-17eb77dc7563"},"vehicle_type_id":"4","last_reported":1728904110,"current_range_meters":9200,"station_id":"ce4bhah2rcd13ifvqej0","pricing_plan_id":"cebpf4jnsgd1na2vs0mg"},{"bike_id":"272e2069-a627-42da-80eb-a798563eeb9a","system_id":"levelo_inurba_marseille","lat":43.30464,"lon":5.37898,"is_reserved":false,"is_disabled":false,"rental_uris":{"android":"levelo://app?vid=272e2069-a627-42da-80eb-a798563eeb9a","ios":"levelo://app?vid=272e2069-a627-42da-80eb-a798563eeb9a"},"vehicle_type_id":"4","last_reported":1728904110,"current_range_meters":24800,"station_id":"ce4bgup2rcd13ifvqcn0","pricing_plan_id":"cebpf4jnsgd1na2vs0mg"},{"bike_id":"8cd4b8a8-1dc1-4efe-9280-ed07311dc495","system_id":"levelo_inurba_marseille","lat":43.30094,"lon":5.39076,"is_reserved":false,"is_disabled":false,"rental_uris":{"android":"levelo://app?vid=8cd4b8a8-1dc1-4efe-9280-ed07311dc495","ios":"levelo://app?vid=8cd4b8a8-1dc1-4efe-9280-ed07311dc495"},"vehicle_type_id":"4","last_reported":1728904110,"current_range_meters":25200,"station_id":"ce4bh192rcd13ifvqdb0","pricing_plan_id":"cebpf4jnsgd1na2vs0mg"},{"bike_id":"325b4918-7c4d-4e51-a158-a9e1cdf71451","system_id":"levelo_inurba_marseille","lat":43.23148,"lon":5.43714,"is_reserved":false,"is_disabled":false,"rental_uris":{"android":"levelo://app?vid=325b4918-7c4d-4e51-a158-a9e1cdf71451","ios":"levelo://app?vid=325b4918-7c4d-4e51-a158-a9e1cdf71451"},"vehicle_type_id":"4","last_reported":1728904110,"current_range_meters":22000,"station_id":"ce4bhmp2rcd13ifvqgog","pricing_plan_id":"cebpf4jnsgd1na2vs0mg"},{"bike_id":"8811fbb8-02d4-4732-9b66-fae28cb9a250","system_id":"levelo_inurba_marseille","lat":43.31451,"lon":5.37384,"is_reserved":false,"is_disabled":false,"rental_uris":{"android":"levelo://app?vid=8811fbb8-02d4-4732-9b66-fae28cb9a250","ios":"levelo://app?vid=8811fbb8-02d4-4732-9b66-fae28cb9a250"},"vehicle_type_id":"4","last_reported":1728904110,"current_range_meters":2000,"station_id":"","pricing_plan_id":"cebpf4jnsgd1na2vs0mg"},{"bike_id":"e1f4b29f-0958-4116-8ebb-8949e1bf248f","system_id":"levelo_inurba_marseille","lat":43.30465,"lon":5.37907,"is_reserved":false,"is_disabled":false,"rental_uris":{"android":"levelo://app?vid=e1f4b29f-0958-4116-8ebb-8949e1bf248f","ios":"levelo://app?vid=e1f4b29f-0958-4116-8ebb-8949e1bf248f"},"vehicle_type_id":"4","last_reported":1728904110,"current_range_meters":30400,"station_id":"ce4bgup2rcd13ifvqcn0","pricing_plan_id":"cebpf4jnsgd1na2vs0mg"},{"bike_id":"14607a95-e9a1-4e3c-88f1-d8f0fc34f152","system_id":"levelo_inurba_marseille","lat":43.28658,"lon":5.36359,"is_reserved":false,"is_disabled":false,"rental_uris":{"android":"levelo://app?vid=14607a95-e9a1-4e3c-88f1-d8f0fc34f152","ios":"levelo://app?vid=14607a95-e9a1-4e3c-88f1-d8f0fc34f152"},"vehicle_type_id":"4","last_reported":1728904110,"current_range_meters":38800,"station_id":"ce4bhah2rcd13ifvqej0","pricing_plan_id":"cebpf4jnsgd1na2vs0mg"},{"bike_id":"eae96539-121f-4822-8cf1-cd925c328939","system_id":"levelo_inurba_marseille","lat":43.2749,"lon":5.42449,"is_reserved":false,"is_disabled":false,"rental_uris":{"android":"levelo://app?vid=eae96539-121f-4822-8cf1-cd925c328939","ios":"levelo://app?vid=eae96539-121f-4822-8cf1-cd925c328939"},"vehicle_type_id":"4","last_reported":1728904110,"current_range_meters":6800,"station_id":"ce4bhn92rcd13ifvqgrg","pricing_plan_id":"cebpf4jnsgd1na2vs0mg"},{"bike_id":"e6b412fe-cd9b-47e4-9fc9-79bafabd52c2","system_id":"levelo_inurba_marseille","lat":43.24072,"lon":5.37764,"is_reserved":false,"is_disabled":false,"rental_uris":{"android":"levelo://app?vid=e6b412fe-cd9b-47e4-9fc9-79bafabd52c2","ios":"levelo://app?vid=e6b412fe-cd9b-47e4-9fc9-79bafabd52c2"},"vehicle_type_id":"4","last_reported":1728904110,"current_range_meters":26000,"station_id":"ce4bhnp2rcd13ifvqgvg","pricing_plan_id":"cebpf4jnsgd1na2vs0mg"},{"bike_id":"f99c518c-0540-46bf-a94b-5743aeff6ede","system_id":"levelo_inurba_marseille","lat":43.33767,"lon":5.37451,"is_reserved":false,"is_disabled":false,"rental_uris":{"android":"levelo://app?vid=f99c518c-0540-46bf-a94b-5743aeff6ede","ios":"levelo://app?vid=f99c518c-0540-46bf-a94b-5743aeff6ede"},"vehicle_type_id":"4","last_reported":1728904110,"current_range_meters":36800,"station_id":"","pricing_plan_id":"cebpf4jnsgd1na2vs0mg"},{"bike_id":"2f8fc6aa-c270-475f-aec6-01aaf9742c38","system_id":"levelo_inurba_marseille","lat":43.25827,"lon":5.39437,"is_reserved":false,"is_disabled":false,"rental_uris":{"android":"levelo://app?vid=2f8fc6aa-c270-475f-aec6-01aaf9742c38","ios":"levelo://app?vid=2f8fc6aa-c270-475f-aec6-01aaf9742c38"},"vehicle_type_id":"4","last_reported":1728904110,"current_range_meters":36800,"station_id":"ce4bhip2rcd13ifvqft0","pricing_plan_id":"cebpf4jnsgd1na2vs0mg"},{"bike_id":"6241cb41-1661-4596-8c6d-d1ceb7df3af9","system_id":"levelo_inurba_marseille","lat":43.341457,"lon":5.409025,"is_reserved":false,"is_disabled":false,"rental_uris":{"android":"levelo://app?vid=6241cb41-1661-4596-8c6d-d1ceb7df3af9","ios":"levelo://app?vid=6241cb41-1661-4596-8c6d-d1ceb7df3af9"},"vehicle_type_id":"4","last_reported":1728904110,"current_range_meters":38400,"station_id":"ce4bhqh2rcd13ifvqhlg","pricing_plan_id":"cebpf4jnsgd1na2vs0mg"},{"bike_id":"2e9f64b3-5de0-4e9b-aca4-b7bfbcf02421","system_id":"levelo_inurba_marseille","lat":43.23152,"lon":5.43717,"is_reserved":false,"is_disabled":false,"rental_uris":{"android":"levelo://app?vid=2e9f64b3-5de0-4e9b-aca4-b7bfbcf02421","ios":"levelo://app?vid=2e9f64b3-5de0-4e9b-aca4-b7bfbcf02421"},"vehicle_type_id":"4","last_reported":1728904110,"current_range_meters":4000,"station_id":"ce4bhmp2rcd13ifvqgog","pricing_plan_id":"cebpf4jnsgd1na2vs0mg"},{"bike_id":"6b2daff3-9851-4dff-9081-e0ec010599e4","system_id":"levelo_inurba_marseille","lat":43.314515,"lon":5.37384,"is_reserved":false,"is_disabled":false,"rental_uris":{"android":"levelo://app?vid=6b2daff3-9851-4dff-9081-e0ec010599e4","ios":"levelo://app?vid=6b2daff3-9851-4dff-9081-e0ec010599e4"},"vehicle_type_id":"4","last_reported":1728904110,"current_range_meters":28000,"station_id":"","pricing_plan_id":"cebpf4jnsgd1na2vs0mg"},{"bike_id":"faad763f-47ed-40fb-b7dd-dc96bd4e3ba9","system_id":"levelo_inurba_marseille","lat":43.25939,"lon":5.40903,"is_reserved":false,"is_disabled":false,"rental_uris":{"android":"levelo://app?vid=faad763f-47ed-40fb-b7dd-dc96bd4e3ba9","ios":"levelo://app?vid=faad763f-47ed-40fb-b7dd-dc96bd4e3ba9"},"vehicle_type_id":"4","last_reported":1728904110,"current_range_meters":17600,"station_id":"ce4bhm92rcd13ifvqglg","pricing_plan_id":"cebpf4jnsgd1na2vs0mg"},{"bike_id":"5e0de4fb-33d2-4725-b108-7e789f95d7a5","system_id":"levelo_inurba_marseille","lat":43.30177,"lon":5.36599,"is_reserved":false,"is_disabled":false,"rental_uris":{"android":"levelo://app?vid=5e0de4fb-33d2-4725-b108-7e789f95d7a5","ios":"levelo://app?vid=5e0de4fb-33d2-4725-b108-7e789f95d7a5"},"vehicle_type_id":"4","last_reported":1728904110,"current_range_meters":0,"station_id":"ce4bgrh2rcd13ifvqc8g","pricing_plan_id":"cebpf4jnsgd1na2vs0mg"},{"bike_id":"610f1ba5-1af1-4052-8331-ade5cfc94332","system_id":"levelo_inurba_marseille","lat":43.27985,"lon":5.41661,"is_reserved":false,"is_disabled":false,"rental_uris":{"android":"levelo://app?vid=610f1ba5-1af1-4052-8331-ade5cfc94332","ios":"levelo://app?vid=610f1ba5-1af1-4052-8331-ade5cfc94332"},"vehicle_type_id":"4","last_reported":1728904110,"current_range_meters":3600,"station_id":"ce4bho12rcd13ifvqh1g","pricing_plan_id":"cebpf4jnsgd1na2vs0mg"},{"bike_id":"283c3885-68a8-4e1f-96ed-a564d33260a4","system_id":"levelo_inurba_marseille","lat":43.27813,"lon":5.40719,"is_reserved":false,"is_disabled":false,"rental_uris":{"android":"levelo://app?vid=283c3885-68a8-4e1f-96ed-a564d33260a4","ios":"levelo://app?vid=283c3885-68a8-4e1f-96ed-a564d33260a4"},"vehicle_type_id":"4","last_reported":1728904110,"current_range_meters":12800,"station_id":"ce4bhnh2rcd13ifvqgtg","pricing_plan_id":"cebpf4jnsgd1na2vs0mg"},{"bike_id":"5e8ebb36-11bc-4284-b2fa-e0a1ff728c3a","system_id":"levelo_inurba_marseille","lat":43.32658,"lon":5.40993,"is_reserved":false,"is_disabled":false,"rental_uris":{"android":"levelo://app?vid=5e8ebb36-11bc-4284-b2fa-e0a1ff728c3a","ios":"levelo://app?vid=5e8ebb36-11bc-4284-b2fa-e0a1ff728c3a"},"vehicle_type_id":"4","last_reported":1728904110,"current_range_meters":32400,"station_id":"ce4bhpp2rcd13ifvqhgg","pricing_plan_id":"cebpf4jnsgd1na2vs0mg"},{"bike_id":"8613c145-39a0-41b0-adad-9ccfa1be764e","system_id":"levelo_inurba_marseille","lat":43.30952,"lon":5.39046,"is_reserved":false,"is_disabled":false,"rental_uris":{"android":"levelo://app?vid=8613c145-39a0-41b0-adad-9ccfa1be764e","ios":"levelo://app?vid=8613c145-39a0-41b0-adad-9ccfa1be764e"},"vehicle_type_id":"4","last_reported":1728904110,"current_range_meters":20400,"station_id":"ce4bgup2rcd13ifvqco0","pricing_plan_id":"cebpf4jnsgd1na2vs0mg"},{"bike_id":"9648659a-8227-4af3-9ae8-cfa84a4594af","system_id":"levelo_inurba_marseille","lat":43.2835,"lon":5.38091,"is_reserved":false,"is_disabled":false,"rental_uris":{"android":"levelo://app?vid=9648659a-8227-4af3-9ae8-cfa84a4594af","ios":"levelo://app?vid=9648659a-8227-4af3-9ae8-cfa84a4594af"},"vehicle_type_id":"4","last_reported":1728904110,"current_range_meters":24000,"station_id":"ce4bh412rcd13ifvqdr0","pricing_plan_id":"cebpf4jnsgd1na2vs0mg"},{"bike_id":"2651f8e5-e279-4329-be5c-b2437cbbb1f0","system_id":"levelo_inurba_marseille","lat":43.28612,"lon":5.37063,"is_reserved":false,"is_disabled":false,"rental_uris":{"android":"levelo://app?vid=2651f8e5-e279-4329-be5c-b2437cbbb1f0","ios":"levelo://app?vid=2651f8e5-e279-4329-be5c-b2437cbbb1f0"},"vehicle_type_id":"4","last_reported":1728904110,"current_range_meters":38800,"station_id":"ce4bht12rcd13ifvqi60","pricing_plan_id":"cebpf4jnsgd1na2vs0mg"},{"bike_id":"a4142176-d744-4f40-806b-41379a6431a4","system_id":"levelo_inurba_marseille","lat":43.29961,"lon":5.38503,"is_reserved":false,"is_disabled":false,"rental_uris":{"android":"levelo://app?vid=a4142176-d744-4f40-806b-41379a6431a4","ios":"levelo://app?vid=a4142176-d744-4f40-806b-41379a6431a4"},"vehicle_type_id":"4","last_reported":1728904110,"current_range_meters":7200,"station_id":"ce4bgj92rcd13ifvqbd0","pricing_plan_id":"cebpf4jnsgd1na2vs0mg"},{"bike_id":"16874117-de72-47a4-a24c-32638b4e8299","system_id":"levelo_inurba_marseille","lat":43.27813,"lon":5.40714,"is_reserved":false,"is_disabled":false,"rental_uris":{"android":"levelo://app?vid=16874117-de72-47a4-a24c-32638b4e8299","ios":"levelo://app?vid=16874117-de72-47a4-a24c-32638b4e8299"},"vehicle_type_id":"4","last_reported":1728904110,"current_range_meters":24400,"station_id":"ce4bhnh2rcd13ifvqgtg","pricing_plan_id":"cebpf4jnsgd1na2vs0mg"},{"bike_id":"f501b8a4-3cf6-44c2-882e-960d67b61d66","system_id":"levelo_inurba_marseille","lat":43.26681,"lon":5.3826,"is_reserved":false,"is_disabled":false,"rental_uris":{"android":"levelo://app?vid=f501b8a4-3cf6-44c2-882e-960d67b61d66","ios":"levelo://app?vid=f501b8a4-3cf6-44c2-882e-960d67b61d66"},"vehicle_type_id":"4","last_reported":1728904110,"current_range_meters":7200,"station_id":"ce4bhg92rcd13ifvqf90","pricing_plan_id":"cebpf4jnsgd1na2vs0mg"},{"bike_id":"70ada520-aeaf-478f-b5dc-28c9b33a1fa2","system_id":"levelo_inurba_marseille","lat":43.292725,"lon":5.368455,"is_reserved":false,"is_disabled":false,"rental_uris":{"android":"levelo://app?vid=70ada520-aeaf-478f-b5dc-28c9b33a1fa2","ios":"levelo://app?vid=70ada520-aeaf-478f-b5dc-28c9b33a1fa2"},"vehicle_type_id":"4","last_reported":1728904110,"current_range_meters":14800,"station_id":"ce4bhbp2rcd13ifvqesg","pricing_plan_id":"cebpf4jnsgd1na2vs0mg"},{"bike_id":"844bf2ea-d3f6-47e6-bdf5-1e1909814a7d","system_id":"levelo_inurba_marseille","lat":43.30542,"lon":5.36531,"is_reserved":false,"is_disabled":false,"rental_uris":{"android":"levelo://app?vid=844bf2ea-d3f6-47e6-bdf5-1e1909814a7d","ios":"levelo://app?vid=844bf2ea-d3f6-47e6-bdf5-1e1909814a7d"},"vehicle_type_id":"4","last_reported":1728904110,"current_range_meters":39200,"station_id":"ce4bgs12rcd13ifvqcag","pricing_plan_id":"cebpf4jnsgd1na2vs0mg"},{"bike_id":"8c290f37-a5ca-45e1-b937-fd1b184b0a72","system_id":"levelo_inurba_marseille","lat":43.25,"lon":5.38935,"is_reserved":false,"is_disabled":false,"rental_uris":{"android":"levelo://app?vid=8c290f37-a5ca-45e1-b937-fd1b184b0a72","ios":"levelo://app?vid=8c290f37-a5ca-45e1-b937-fd1b184b0a72"},"vehicle_type_id":"4","last_reported":1728904110,"current_range_meters":33600,"station_id":"ce4bhgp2rcd13ifvqfd0","pricing_plan_id":"cebpf4jnsgd1na2vs0mg"},{"bike_id":"00df6dff-e62c-4178-894c-798338a7c07a","system_id":"levelo_inurba_marseille","lat":43.24387,"lon":5.37051,"is_reserved":false,"is_disabled":false,"rental_uris":{"android":"levelo://app?vid=00df6dff-e62c-4178-894c-798338a7c07a","ios":"levelo://app?vid=00df6dff-e62c-4178-894c-798338a7c07a"},"vehicle_type_id":"4","last_reported":1728904110,"current_range_meters":30000,"station_id":"ce4bhhh2rcd13ifvqfk0","pricing_plan_id":"cebpf4jnsgd1na2vs0mg"},{"bike_id":"541f59f2-7d99-4e86-ab62-3454e6dbd4db","system_id":"levelo_inurba_marseille","lat":43.30557,"lon":5.36542,"is_reserved":false,"is_disabled":false,"rental_uris":{"android":"levelo://app?vid=541f59f2-7d99-4e86-ab62-3454e6dbd4db","ios":"levelo://app?vid=541f59f2-7d99-4e86-ab62-3454e6dbd4db"},"vehicle_type_id":"4","last_reported":1728904110,"current_range_meters":8000,"station_id":"ce4bgs12rcd13ifvqcag","pricing_plan_id":"cebpf4jnsgd1na2vs0mg"},{"bike_id":"fa11655a-b5fb-48b9-9229-f36cfaf2f156","system_id":"levelo_inurba_marseille","lat":43.29793,"lon":5.38102,"is_reserved":false,"is_disabled":false,"rental_uris":{"android":"levelo://app?vid=fa11655a-b5fb-48b9-9229-f36cfaf2f156","ios":"levelo://app?vid=fa11655a-b5fb-48b9-9229-f36cfaf2f156"},"vehicle_type_id":"4","last_reported":1728904110,"current_range_meters":39200,"station_id":"ce4bgip2rcd13ifvqbb0","pricing_plan_id":"cebpf4jnsgd1na2vs0mg"},{"bike_id":"702b7be2-78dd-4b05-98d8-4cb467a22ddf","system_id":"levelo_inurba_marseille","lat":43.3059,"lon":5.37216,"is_reserved":false,"is_disabled":false,"rental_uris":{"android":"levelo://app?vid=702b7be2-78dd-4b05-98d8-4cb467a22ddf","ios":"levelo://app?vid=702b7be2-78dd-4b05-98d8-4cb467a22ddf"},"vehicle_type_id":"4","last_reported":1728904110,"current_range_meters":24000,"station_id":"ce4bgqh2rcd13ifvqc4g","pricing_plan_id":"cebpf4jnsgd1na2vs0mg"},{"bike_id":"ee4c595d-ed0b-423f-9688-53d3795c2f62","system_id":"levelo_inurba_marseille","lat":43.2971,"lon":5.36619,"is_reserved":false,"is_disabled":false,"rental_uris":{"android":"levelo://app?vid=ee4c595d-ed0b-423f-9688-53d3795c2f62","ios":"levelo://app?vid=ee4c595d-ed0b-423f-9688-53d3795c2f62"},"vehicle_type_id":"4","last_reported":1728904110,"current_range_meters":20800,"station_id":"ce4bgn12rcd13ifvqbt0","pricing_plan_id":"cebpf4jnsgd1na2vs0mg"},{"bike_id":"5026dbf1-037a-427c-a6bf-5644f90830b8","system_id":"levelo_inurba_marseille","lat":43.29895,"lon":5.43669,"is_reserved":false,"is_disabled":false,"rental_uris":{"android":"levelo://app?vid=5026dbf1-037a-427c-a6bf-5644f90830b8","ios":"levelo://app?vid=5026dbf1-037a-427c-a6bf-5644f90830b8"},"vehicle_type_id":"4","last_reported":1728904110,"current_range_meters":31200,"station_id":"ce4bhpp2rcd13ifvqhfg","pricing_plan_id":"cebpf4jnsgd1na2vs0mg"},{"bike_id":"4355f064-bf24-4192-98d3-02d0a1a75f4f","system_id":"levelo_inurba_marseille","lat":43.29584,"lon":5.36735,"is_reserved":false,"is_disabled":false,"rental_uris":{"android":"levelo://app?vid=4355f064-bf24-4192-98d3-02d0a1a75f4f","ios":"levelo://app?vid=4355f064-bf24-4192-98d3-02d0a1a75f4f"},"vehicle_type_id":"4","last_reported":1728904110,"current_range_meters":38800,"station_id":"ce4bgph2rcd13ifvqc2g","pricing_plan_id":"cebpf4jnsgd1na2vs0mg"},{"bike_id":"6ce73df6-8fdf-448a-8d89-a897b7d19ace","system_id":"levelo_inurba_marseille","lat":43.33763,"lon":5.37431,"is_reserved":false,"is_disabled":false,"rental_uris":{"android":"levelo://app?vid=6ce73df6-8fdf-448a-8d89-a897b7d19ace","ios":"levelo://app?vid=6ce73df6-8fdf-448a-8d89-a897b7d19ace"},"vehicle_type_id":"4","last_reported":1728904110,"current_range_meters":36000,"station_id":"","pricing_plan_id":"cebpf4jnsgd1na2vs0mg"},{"bike_id":"1e325d94-90c3-47ff-a1b9-58d4e2d3f8ba","system_id":"levelo_inurba_marseille","lat":43.29261,"lon":5.409,"is_reserved":false,"is_disabled":false,"rental_uris":{"android":"levelo://app?vid=1e325d94-90c3-47ff-a1b9-58d4e2d3f8ba","ios":"levelo://app?vid=1e325d94-90c3-47ff-a1b9-58d4e2d3f8ba"},"vehicle_type_id":"4","last_reported":1728904110,"current_range_meters":38800,"station_id":"ce4bh192rcd13ifvqdc0","pricing_plan_id":"cebpf4jnsgd1na2vs0mg"},{"bike_id":"a4bf3cf0-d7d0-4e04-9089-dbd75f8be87c","system_id":"levelo_inurba_marseille","lat":43.2903,"lon":5.38659,"is_reserved":false,"is_disabled":false,"rental_uris":{"android":"levelo://app?vid=a4bf3cf0-d7d0-4e04-9089-dbd75f8be87c","ios":"levelo://app?vid=a4bf3cf0-d7d0-4e04-9089-dbd75f8be87c"},"vehicle_type_id":"4","last_reported":1728904110,"current_range_meters":25200,"station_id":"ce4bh4p2rcd13ifvqe0g","pricing_plan_id":"cebpf4jnsgd1na2vs0mg"},{"bike_id":"ef0e5abb-1b3c-41d6-9c8e-9033ea01ddbc","system_id":"levelo_inurba_marseille","lat":43.23194,"lon":5.35543,"is_reserved":false,"is_disabled":false,"rental_uris":{"android":"levelo://app?vid=ef0e5abb-1b3c-41d6-9c8e-9033ea01ddbc","ios":"levelo://app?vid=ef0e5abb-1b3c-41d6-9c8e-9033ea01ddbc"},"vehicle_type_id":"4","last_reported":1728904110,"current_range_meters":6400,"station_id":"ce4bhu92rcd13ifvqi70","pricing_plan_id":"cebpf4jnsgd1na2vs0mg"},{"bike_id":"c54593a5-a0f1-4ea5-b49f-9cee72b16abf","system_id":"levelo_inurba_marseille","lat":43.28358,"lon":5.38096,"is_reserved":false,"is_disabled":false,"rental_uris":{"android":"levelo://app?vid=c54593a5-a0f1-4ea5-b49f-9cee72b16abf","ios":"levelo://app?vid=c54593a5-a0f1-4ea5-b49f-9cee72b16abf"},"vehicle_type_id":"4","last_reported":1728904110,"current_range_meters":30400,"station_id":"ce4bh412rcd13ifvqdr0","pricing_plan_id":"cebpf4jnsgd1na2vs0mg"},{"bike_id":"0fe7050f-7e89-40b4-a933-4d4cf1f67677","system_id":"levelo_inurba_marseille","lat":43.28459,"lon":5.35883,"is_reserved":false,"is_disabled":false,"rental_uris":{"android":"levelo://app?vid=0fe7050f-7e89-40b4-a933-4d4cf1f67677","ios":"levelo://app?vid=0fe7050f-7e89-40b4-a933-4d4cf1f67677"},"vehicle_type_id":"4","last_reported":1728904110,"current_range_meters":38400,"station_id":"ce4bhah2rcd13ifvqei0","pricing_plan_id":"cebpf4jnsgd1na2vs0mg"},{"bike_id":"b310bc7f-8542-46c8-863b-b1c5d9b0205d","system_id":"levelo_inurba_marseille","lat":43.2931,"lon":5.37176,"is_reserved":false,"is_disabled":false,"rental_uris":{"android":"levelo://app?vid=b310bc7f-8542-46c8-863b-b1c5d9b0205d","ios":"levelo://app?vid=b310bc7f-8542-46c8-863b-b1c5d9b0205d"},"vehicle_type_id":"4","last_reported":1728904110,"current_range_meters":36400,"station_id":"ce4bgh92rcd13ifvqb40","pricing_plan_id":"cebpf4jnsgd1na2vs0mg"},{"bike_id":"bc433b0c-de6e-47a2-aebd-058f97dccf66","system_id":"levelo_inurba_marseille","lat":43.239563,"lon":5.366431,"is_reserved":false,"is_disabled":false,"rental_uris":{"android":"levelo://app?vid=bc433b0c-de6e-47a2-aebd-058f97dccf66","ios":"levelo://app?vid=bc433b0c-de6e-47a2-aebd-058f97dccf66"},"vehicle_type_id":"4","last_reported":1728904110,"current_range_meters":38800,"station_id":"ce4bhi12rcd13ifvqfp0","pricing_plan_id":"cebpf4jnsgd1na2vs0mg"},{"bike_id":"7f1371a1-22f6-4626-8c29-07b4d7e1953c","system_id":"levelo_inurba_marseille","lat":43.29375,"lon":5.3784,"is_reserved":false,"is_disabled":false,"rental_uris":{"android":"levelo://app?vid=7f1371a1-22f6-4626-8c29-07b4d7e1953c","ios":"levelo://app?vid=7f1371a1-22f6-4626-8c29-07b4d7e1953c"},"vehicle_type_id":"4","last_reported":1728904110,"current_range_meters":34000,"station_id":"ce4bgjh2rcd13ifvqbf0","pricing_plan_id":"cebpf4jnsgd1na2vs0mg"},{"bike_id":"26ef0f82-778d-44d7-ad89-5daefc08a1a4","system_id":"levelo_inurba_marseille","lat":43.314578,"lon":5.373792,"is_reserved":false,"is_disabled":false,"rental_uris":{"android":"levelo://app?vid=26ef0f82-778d-44d7-ad89-5daefc08a1a4","ios":"levelo://app?vid=26ef0f82-778d-44d7-ad89-5daefc08a1a4"},"vehicle_type_id":"4","last_reported":1728904110,"current_range_meters":16400,"station_id":"","pricing_plan_id":"cebpf4jnsgd1na2vs0mg"},{"bike_id":"97f339d9-f590-4400-9c77-7132e88e81cb","system_id":"levelo_inurba_marseille","lat":43.28078,"lon":5.39661,"is_reserved":false,"is_disabled":false,"rental_uris":{"android":"levelo://app?vid=97f339d9-f590-4400-9c77-7132e88e81cb","ios":"levelo://app?vid=97f339d9-f590-4400-9c77-7132e88e81cb"},"vehicle_type_id":"4","last_reported":1728904110,"current_range_meters":38800,"station_id":"ce4bho12rcd13ifvqh2g","pricing_plan_id":"cebpf4jnsgd1na2vs0mg"},{"bike_id":"dd56f152-3d24-4964-8294-96aaf213e366","system_id":"levelo_inurba_marseille","lat":43.292851,"lon":5.368404,"is_reserved":false,"is_disabled":false,"rental_uris":{"android":"levelo://app?vid=dd56f152-3d24-4964-8294-96aaf213e366","ios":"levelo://app?vid=dd56f152-3d24-4964-8294-96aaf213e366"},"vehicle_type_id":"4","last_reported":1728904110,"current_range_meters":14800,"station_id":"","pricing_plan_id":"cebpf4jnsgd1na2vs0mg"},{"bike_id":"6775debe-3572-4de6-be18-c3de80cd7673","system_id":"levelo_inurba_marseille","lat":43.28729,"lon":5.36079,"is_reserved":false,"is_disabled":false,"rental_uris":{"android":"levelo://app?vid=6775debe-3572-4de6-be18-c3de80cd7673","ios":"levelo://app?vid=6775debe-3572-4de6-be18-c3de80cd7673"},"vehicle_type_id":"4","last_reported":1728904110,"current_range_meters":35600,"station_id":"cki0cbj6b192h4jlfktg","pricing_plan_id":"cebpf4jnsgd1na2vs0mg"},{"bike_id":"db7a7a12-87d4-4c29-8ee2-0eed5338d26b","system_id":"levelo_inurba_marseille","lat":43.28448,"lon":5.39197,"is_reserved":false,"is_disabled":false,"rental_uris":{"android":"levelo://app?vid=db7a7a12-87d4-4c29-8ee2-0eed5338d26b","ios":"levelo://app?vid=db7a7a12-87d4-4c29-8ee2-0eed5338d26b"},"vehicle_type_id":"4","last_reported":1728904110,"current_range_meters":26800,"station_id":"ce4bhoh2rcd13ifvqh5g","pricing_plan_id":"cebpf4jnsgd1na2vs0mg"},{"bike_id":"25ed2710-8c35-44e6-81fd-8fc7cf6b54a8","system_id":"levelo_inurba_marseille","lat":43.274948,"lon":5.424466,"is_reserved":false,"is_disabled":false,"rental_uris":{"android":"levelo://app?vid=25ed2710-8c35-44e6-81fd-8fc7cf6b54a8","ios":"levelo://app?vid=25ed2710-8c35-44e6-81fd-8fc7cf6b54a8"},"vehicle_type_id":"4","last_reported":1728904110,"current_range_meters":17200,"station_id":"ce4bhn92rcd13ifvqgrg","pricing_plan_id":"cebpf4jnsgd1na2vs0mg"},{"bike_id":"71d3f488-c925-46a2-93e5-07e6faaba818","system_id":"levelo_inurba_marseille","lat":43.30537,"lon":5.36535,"is_reserved":false,"is_disabled":false,"rental_uris":{"android":"levelo://app?vid=71d3f488-c925-46a2-93e5-07e6faaba818","ios":"levelo://app?vid=71d3f488-c925-46a2-93e5-07e6faaba818"},"vehicle_type_id":"4","last_reported":1728904110,"current_range_meters":39200,"station_id":"ce4bgs12rcd13ifvqcag","pricing_plan_id":"cebpf4jnsgd1na2vs0mg"},{"bike_id":"b9b18d1e-08b0-4d2d-ae4b-c6ff6e5bb0fe","system_id":"levelo_inurba_marseille","lat":43.29647,"lon":5.37258,"is_reserved":false,"is_disabled":false,"rental_uris":{"android":"levelo://app?vid=b9b18d1e-08b0-4d2d-ae4b-c6ff6e5bb0fe","ios":"levelo://app?vid=b9b18d1e-08b0-4d2d-ae4b-c6ff6e5bb0fe"},"vehicle_type_id":"4","last_reported":1728904110,"current_range_meters":11200,"station_id":"ce4bgk12rcd13ifvqbj0","pricing_plan_id":"cebpf4jnsgd1na2vs0mg"},{"bike_id":"e4e0987f-a018-4652-bb73-d4cddb161e8c","system_id":"levelo_inurba_marseille","lat":43.3254,"lon":5.4145,"is_reserved":false,"is_disabled":false,"rental_uris":{"android":"levelo://app?vid=e4e0987f-a018-4652-bb73-d4cddb161e8c","ios":"levelo://app?vid=e4e0987f-a018-4652-bb73-d4cddb161e8c"},"vehicle_type_id":"4","last_reported":1728904110,"current_range_meters":2800,"station_id":"ce4bhq12rcd13ifvqhhg","pricing_plan_id":"cebpf4jnsgd1na2vs0mg"},{"bike_id":"aea1d7d9-ad77-4f63-b2e5-d880d881127f","system_id":"levelo_inurba_marseille","lat":43.34241,"lon":5.44571,"is_reserved":false,"is_disabled":false,"rental_uris":{"android":"levelo://app?vid=aea1d7d9-ad77-4f63-b2e5-d880d881127f","ios":"levelo://app?vid=aea1d7d9-ad77-4f63-b2e5-d880d881127f"},"vehicle_type_id":"4","last_reported":1728904110,"current_range_meters":28400,"station_id":"","pricing_plan_id":"cebpf4jnsgd1na2vs0mg"},{"bike_id":"2e3584bd-e026-49e2-ad1b-15dd53441bf4","system_id":"levelo_inurba_marseille","lat":43.29619,"lon":5.37721,"is_reserved":false,"is_disabled":false,"rental_uris":{"android":"levelo://app?vid=2e3584bd-e026-49e2-ad1b-15dd53441bf4","ios":"levelo://app?vid=2e3584bd-e026-49e2-ad1b-15dd53441bf4"},"vehicle_type_id":"4","last_reported":1728904110,"current_range_meters":18000,"station_id":"ce4bgi92rcd13ifvqb90","pricing_plan_id":"cebpf4jnsgd1na2vs0mg"},{"bike_id":"c3b02345-8b86-4cb1-934d-641acf65d5ea","system_id":"levelo_inurba_marseille","lat":43.23151,"lon":5.43705,"is_reserved":false,"is_disabled":false,"rental_uris":{"android":"levelo://app?vid=c3b02345-8b86-4cb1-934d-641acf65d5ea","ios":"levelo://app?vid=c3b02345-8b86-4cb1-934d-641acf65d5ea"},"vehicle_type_id":"4","last_reported":1728904110,"current_range_meters":4400,"station_id":"ce4bhmp2rcd13ifvqgog","pricing_plan_id":"cebpf4jnsgd1na2vs0mg"},{"bike_id":"bccd9c74-8aba-474c-9101-4f818ec40cad","system_id":"levelo_inurba_marseille","lat":43.23154,"lon":5.43698,"is_reserved":false,"is_disabled":false,"rental_uris":{"android":"levelo://app?vid=bccd9c74-8aba-474c-9101-4f818ec40cad","ios":"levelo://app?vid=bccd9c74-8aba-474c-9101-4f818ec40cad"},"vehicle_type_id":"4","last_reported":1728904110,"current_range_meters":38800,"station_id":"ce4bhmp2rcd13ifvqgog","pricing_plan_id":"cebpf4jnsgd1na2vs0mg"},{"bike_id":"728e5743-fccb-4504-a254-ccfb50f0b6f1","system_id":"levelo_inurba_marseille","lat":43.24078,"lon":5.37754,"is_reserved":false,"is_disabled":false,"rental_uris":{"android":"levelo://app?vid=728e5743-fccb-4504-a254-ccfb50f0b6f1","ios":"levelo://app?vid=728e5743-fccb-4504-a254-ccfb50f0b6f1"},"vehicle_type_id":"4","last_reported":1728904110,"current_range_meters":9600,"station_id":"ce4bhnp2rcd13ifvqgvg","pricing_plan_id":"cebpf4jnsgd1na2vs0mg"},{"bike_id":"e6c83f09-41e5-4a20-b7b5-695bce8d1553","system_id":"levelo_inurba_marseille","lat":43.30302,"lon":5.39216,"is_reserved":false,"is_disabled":false,"rental_uris":{"android":"levelo://app?vid=e6c83f09-41e5-4a20-b7b5-695bce8d1553","ios":"levelo://app?vid=e6c83f09-41e5-4a20-b7b5-695bce8d1553"},"vehicle_type_id":"4","last_reported":1728904110,"current_range_meters":36800,"station_id":"ce4bgkh2rcd13ifvqbk0","pricing_plan_id":"cebpf4jnsgd1na2vs0mg"},{"bike_id":"5ec895c4-5f4f-46bf-85ae-0a310c091293","system_id":"levelo_inurba_marseille","lat":43.29405,"lon":5.37856,"is_reserved":false,"is_disabled":false,"rental_uris":{"android":"levelo://app?vid=5ec895c4-5f4f-46bf-85ae-0a310c091293","ios":"levelo://app?vid=5ec895c4-5f4f-46bf-85ae-0a310c091293"},"vehicle_type_id":"4","last_reported":1728904110,"current_range_meters":8800,"station_id":"ce4bgjh2rcd13ifvqbf0","pricing_plan_id":"cebpf4jnsgd1na2vs0mg"},{"bike_id":"973f5952-b499-4964-a9ee-985981cb8929","system_id":"levelo_inurba_marseille","lat":43.31995,"lon":5.38151,"is_reserved":false,"is_disabled":false,"rental_uris":{"android":"levelo://app?vid=973f5952-b499-4964-a9ee-985981cb8929","ios":"levelo://app?vid=973f5952-b499-4964-a9ee-985981cb8929"},"vehicle_type_id":"4","last_reported":1728904110,"current_range_meters":18000,"station_id":"ce4bhr12rcd13ifvqhpg","pricing_plan_id":"cebpf4jnsgd1na2vs0mg"},{"bike_id":"e5f91dc3-0e40-408f-8509-b0735e863443","system_id":"levelo_inurba_marseille","lat":43.29846,"lon":5.36277,"is_reserved":false,"is_disabled":false,"rental_uris":{"android":"levelo://app?vid=e5f91dc3-0e40-408f-8509-b0735e863443","ios":"levelo://app?vid=e5f91dc3-0e40-408f-8509-b0735e863443"},"vehicle_type_id":"4","last_reported":1728904110,"current_range_meters":39200,"station_id":"ce4bgpp2rcd13ifvqc3g","pricing_plan_id":"cebpf4jnsgd1na2vs0mg"},{"bike_id":"bd5d6f1f-a57e-4374-b302-3b2cf506ad31","system_id":"levelo_inurba_marseille","lat":43.28573,"lon":5.3949,"is_reserved":false,"is_disabled":false,"rental_uris":{"android":"levelo://app?vid=bd5d6f1f-a57e-4374-b302-3b2cf506ad31","ios":"levelo://app?vid=bd5d6f1f-a57e-4374-b302-3b2cf506ad31"},"vehicle_type_id":"4","last_reported":1728904110,"current_range_meters":20400,"station_id":"ce4bh292rcd13ifvqdg0","pricing_plan_id":"cebpf4jnsgd1na2vs0mg"},{"bike_id":"b0e0e5c8-9525-466f-a475-84c2d8425be8","system_id":"levelo_inurba_marseille","lat":43.23146,"lon":5.43712,"is_reserved":false,"is_disabled":false,"rental_uris":{"android":"levelo://app?vid=b0e0e5c8-9525-466f-a475-84c2d8425be8","ios":"levelo://app?vid=b0e0e5c8-9525-466f-a475-84c2d8425be8"},"vehicle_type_id":"4","last_reported":1728904110,"current_range_meters":38800,"station_id":"ce4bhmp2rcd13ifvqgog","pricing_plan_id":"cebpf4jnsgd1na2vs0mg"},{"bike_id":"621b7c4e-8aa0-41dd-814b-66770078b276","system_id":"levelo_inurba_marseille","lat":43.33723,"lon":5.39179,"is_reserved":false,"is_disabled":false,"rental_uris":{"android":"levelo://app?vid=621b7c4e-8aa0-41dd-814b-66770078b276","ios":"levelo://app?vid=621b7c4e-8aa0-41dd-814b-66770078b276"},"vehicle_type_id":"4","last_reported":1728904110,"current_range_meters":38000,"station_id":"ce4bhr92rcd13ifvqhsg","pricing_plan_id":"cebpf4jnsgd1na2vs0mg"},{"bike_id":"2134320a-afe2-4859-bf45-5f050b5d237e","system_id":"levelo_inurba_marseille","lat":43.30543,"lon":5.36528,"is_reserved":false,"is_disabled":false,"rental_uris":{"android":"levelo://app?vid=2134320a-afe2-4859-bf45-5f050b5d237e","ios":"levelo://app?vid=2134320a-afe2-4859-bf45-5f050b5d237e"},"vehicle_type_id":"4","last_reported":1728904110,"current_range_meters":38800,"station_id":"ce4bgs12rcd13ifvqcag","pricing_plan_id":"cebpf4jnsgd1na2vs0mg"},{"bike_id":"b1f8e419-d161-45ce-93a5-5f11ad24f915","system_id":"levelo_inurba_marseille","lat":43.3059,"lon":5.37218,"is_reserved":false,"is_disabled":false,"rental_uris":{"android":"levelo://app?vid=b1f8e419-d161-45ce-93a5-5f11ad24f915","ios":"levelo://app?vid=b1f8e419-d161-45ce-93a5-5f11ad24f915"},"vehicle_type_id":"4","last_reported":1728904110,"current_range_meters":19200,"station_id":"ce4bgqh2rcd13ifvqc4g","pricing_plan_id":"cebpf4jnsgd1na2vs0mg"},{"bike_id":"5f007cfe-fdec-4293-be02-d6ca68a9f716","system_id":"levelo_inurba_marseille","lat":43.29276,"lon":5.36839,"is_reserved":false,"is_disabled":false,"rental_uris":{"android":"levelo://app?vid=5f007cfe-fdec-4293-be02-d6ca68a9f716","ios":"levelo://app?vid=5f007cfe-fdec-4293-be02-d6ca68a9f716"},"vehicle_type_id":"4","last_reported":1728904110,"current_range_meters":12800,"station_id":"ce4bhbp2rcd13ifvqesg","pricing_plan_id":"cebpf4jnsgd1na2vs0mg"},{"bike_id":"8e50ff98-d405-439b-935b-392d2a407cac","system_id":"levelo_inurba_marseille","lat":43.32368,"lon":5.38887,"is_reserved":false,"is_disabled":false,"rental_uris":{"android":"levelo://app?vid=8e50ff98-d405-439b-935b-392d2a407cac","ios":"levelo://app?vid=8e50ff98-d405-439b-935b-392d2a407cac"},"vehicle_type_id":"4","last_reported":1728904110,"current_range_meters":22000,"station_id":"ce4bhqp2rcd13ifvqhog","pricing_plan_id":"cebpf4jnsgd1na2vs0mg"},{"bike_id":"71925ec5-4dc0-450a-91d0-42081f72132c","system_id":"levelo_inurba_marseille","lat":43.29713,"lon":5.3768,"is_reserved":false,"is_disabled":false,"rental_uris":{"android":"levelo://app?vid=71925ec5-4dc0-450a-91d0-42081f72132c","ios":"levelo://app?vid=71925ec5-4dc0-450a-91d0-42081f72132c"},"vehicle_type_id":"4","last_reported":1728904110,"current_range_meters":38800,"station_id":"ce4bgkh2rcd13ifvqbl0","pricing_plan_id":"cebpf4jnsgd1na2vs0mg"},{"bike_id":"e084f833-022f-4cea-bf4e-fc335d17dd46","system_id":"levelo_inurba_marseille","lat":43.30528,"lon":5.36537,"is_reserved":false,"is_disabled":false,"rental_uris":{"android":"levelo://app?vid=e084f833-022f-4cea-bf4e-fc335d17dd46","ios":"levelo://app?vid=e084f833-022f-4cea-bf4e-fc335d17dd46"},"vehicle_type_id":"4","last_reported":1728904110,"current_range_meters":35200,"station_id":"ce4bgs12rcd13ifvqcag","pricing_plan_id":"cebpf4jnsgd1na2vs0mg"},{"bike_id":"a07b6a56-5896-40dc-8808-e8d13409c4c1","system_id":"levelo_inurba_marseille","lat":43.30539,"lon":5.36524,"is_reserved":false,"is_disabled":false,"rental_uris":{"android":"levelo://app?vid=a07b6a56-5896-40dc-8808-e8d13409c4c1","ios":"levelo://app?vid=a07b6a56-5896-40dc-8808-e8d13409c4c1"},"vehicle_type_id":"4","last_reported":1728904110,"current_range_meters":8400,"station_id":"ce4bgs12rcd13ifvqcag","pricing_plan_id":"cebpf4jnsgd1na2vs0mg"},{"bike_id":"b6e970f8-433d-44f4-a412-2b67a836145e","system_id":"levelo_inurba_marseille","lat":43.25827,"lon":5.39434,"is_reserved":false,"is_disabled":false,"rental_uris":{"android":"levelo://app?vid=b6e970f8-433d-44f4-a412-2b67a836145e","ios":"levelo://app?vid=b6e970f8-433d-44f4-a412-2b67a836145e"},"vehicle_type_id":"4","last_reported":1728904110,"current_range_meters":38800,"station_id":"ce4bhip2rcd13ifvqft0","pricing_plan_id":"cebpf4jnsgd1na2vs0mg"},{"bike_id":"f12908d0-ba3c-4c85-8ac2-b2356c599b6e","system_id":"levelo_inurba_marseille","lat":43.24657,"lon":5.38889,"is_reserved":false,"is_disabled":false,"rental_uris":{"android":"levelo://app?vid=f12908d0-ba3c-4c85-8ac2-b2356c599b6e","ios":"levelo://app?vid=f12908d0-ba3c-4c85-8ac2-b2356c599b6e"},"vehicle_type_id":"4","last_reported":1728904110,"current_range_meters":39200,"station_id":"ce4bhg12rcd13ifvqf60","pricing_plan_id":"cebpf4jnsgd1na2vs0mg"},{"bike_id":"ab010cfe-247e-4175-80b0-b79856da378c","system_id":"levelo_inurba_marseille","lat":43.30094,"lon":5.39078,"is_reserved":false,"is_disabled":false,"rental_uris":{"android":"levelo://app?vid=ab010cfe-247e-4175-80b0-b79856da378c","ios":"levelo://app?vid=ab010cfe-247e-4175-80b0-b79856da378c"},"vehicle_type_id":"4","last_reported":1728904110,"current_range_meters":40000,"station_id":"ce4bh192rcd13ifvqdb0","pricing_plan_id":"cebpf4jnsgd1na2vs0mg"},{"bike_id":"fbe3a36f-8564-4373-b966-82a5e735c59a","system_id":"levelo_inurba_marseille","lat":43.28484,"lon":5.38565,"is_reserved":false,"is_disabled":false,"rental_uris":{"android":"levelo://app?vid=fbe3a36f-8564-4373-b966-82a5e735c59a","ios":"levelo://app?vid=fbe3a36f-8564-4373-b966-82a5e735c59a"},"vehicle_type_id":"4","last_reported":1728904110,"current_range_meters":32800,"station_id":"ce4bh8p2rcd13ifvqeb0","pricing_plan_id":"cebpf4jnsgd1na2vs0mg"},{"bike_id":"ce15096a-034f-4a1e-8e59-441745631fbe","system_id":"levelo_inurba_marseille","lat":43.25857,"lon":5.39905,"is_reserved":false,"is_disabled":false,"rental_uris":{"android":"levelo://app?vid=ce15096a-034f-4a1e-8e59-441745631fbe","ios":"levelo://app?vid=ce15096a-034f-4a1e-8e59-441745631fbe"},"vehicle_type_id":"4","last_reported":1728904110,"current_range_meters":35600,"station_id":"ce4bhl92rcd13ifvqghg","pricing_plan_id":"cebpf4jnsgd1na2vs0mg"},{"bike_id":"ad9c5125-2869-46bb-aaef-342aebc9bc00","system_id":"levelo_inurba_marseille","lat":43.31109,"lon":5.38064,"is_reserved":false,"is_disabled":false,"rental_uris":{"android":"levelo://app?vid=ad9c5125-2869-46bb-aaef-342aebc9bc00","ios":"levelo://app?vid=ad9c5125-2869-46bb-aaef-342aebc9bc00"},"vehicle_type_id":"4","last_reported":1728904110,"current_range_meters":20000,"station_id":"ce4bgt92rcd13ifvqcf0","pricing_plan_id":"cebpf4jnsgd1na2vs0mg"},{"bike_id":"3f26715f-c82a-46e8-8b0e-15523624ffc7","system_id":"levelo_inurba_marseille","lat":43.23194,"lon":5.3555,"is_reserved":false,"is_disabled":false,"rental_uris":{"android":"levelo://app?vid=3f26715f-c82a-46e8-8b0e-15523624ffc7","ios":"levelo://app?vid=3f26715f-c82a-46e8-8b0e-15523624ffc7"},"vehicle_type_id":"4","last_reported":1728904110,"current_range_meters":8400,"station_id":"ce4bhu92rcd13ifvqi70","pricing_plan_id":"cebpf4jnsgd1na2vs0mg"},{"bike_id":"38a41a3f-6e56-4eb4-a7fd-256765f769ee","system_id":"levelo_inurba_marseille","lat":43.24655,"lon":5.38891,"is_reserved":false,"is_disabled":false,"rental_uris":{"android":"levelo://app?vid=38a41a3f-6e56-4eb4-a7fd-256765f769ee","ios":"levelo://app?vid=38a41a3f-6e56-4eb4-a7fd-256765f769ee"},"vehicle_type_id":"4","last_reported":1728904110,"current_range_meters":38800,"station_id":"ce4bhg12rcd13ifvqf60","pricing_plan_id":"cebpf4jnsgd1na2vs0mg"},{"bike_id":"69563718-4bc2-40ef-855e-a5d3318b6758","system_id":"levelo_inurba_marseille","lat":43.28151,"lon":5.42637,"is_reserved":false,"is_disabled":false,"rental_uris":{"android":"levelo://app?vid=69563718-4bc2-40ef-855e-a5d3318b6758","ios":"levelo://app?vid=69563718-4bc2-40ef-855e-a5d3318b6758"},"vehicle_type_id":"4","last_reported":1728904110,"current_range_meters":38800,"station_id":"ce4bhnh2rcd13ifvqgug","pricing_plan_id":"cebpf4jnsgd1na2vs0mg"},{"bike_id":"91bf7418-d30b-4703-8999-0f5cc334e406","system_id":"levelo_inurba_marseille","lat":43.25929,"lon":5.40914,"is_reserved":false,"is_disabled":false,"rental_uris":{"android":"levelo://app?vid=91bf7418-d30b-4703-8999-0f5cc334e406","ios":"levelo://app?vid=91bf7418-d30b-4703-8999-0f5cc334e406"},"vehicle_type_id":"4","last_reported":1728904110,"current_range_meters":28000,"station_id":"ce4bhm92rcd13ifvqglg","pricing_plan_id":"cebpf4jnsgd1na2vs0mg"},{"bike_id":"d45282d0-12f2-4dad-aea9-fb041f8ecf60","system_id":"levelo_inurba_marseille","lat":43.2668,"lon":5.38271,"is_reserved":false,"is_disabled":false,"rental_uris":{"android":"levelo://app?vid=d45282d0-12f2-4dad-aea9-fb041f8ecf60","ios":"levelo://app?vid=d45282d0-12f2-4dad-aea9-fb041f8ecf60"},"vehicle_type_id":"4","last_reported":1728904110,"current_range_meters":2000,"station_id":"ce4bhg92rcd13ifvqf90","pricing_plan_id":"cebpf4jnsgd1na2vs0mg"},{"bike_id":"aa74f49a-6fe0-46e8-8f6a-25a9f1956a7f","system_id":"levelo_inurba_marseille","lat":43.28367,"lon":5.3864,"is_reserved":false,"is_disabled":false,"rental_uris":{"android":"levelo://app?vid=aa74f49a-6fe0-46e8-8f6a-25a9f1956a7f","ios":"levelo://app?vid=aa74f49a-6fe0-46e8-8f6a-25a9f1956a7f"},"vehicle_type_id":"4","last_reported":1728904110,"current_range_meters":12800,"station_id":"ce4bh492rcd13ifvqdvg","pricing_plan_id":"cebpf4jnsgd1na2vs0mg"},{"bike_id":"7d77f729-90ca-4a5e-9ca6-88301f21e21e","system_id":"levelo_inurba_marseille","lat":43.30531,"lon":5.36534,"is_reserved":false,"is_disabled":false,"rental_uris":{"android":"levelo://app?vid=7d77f729-90ca-4a5e-9ca6-88301f21e21e","ios":"levelo://app?vid=7d77f729-90ca-4a5e-9ca6-88301f21e21e"},"vehicle_type_id":"4","last_reported":1728904110,"current_range_meters":35600,"station_id":"ce4bgs12rcd13ifvqcag","pricing_plan_id":"cebpf4jnsgd1na2vs0mg"},{"bike_id":"1bd954b5-82cc-4ed8-81c9-6fee4b9e034c","system_id":"levelo_inurba_marseille","lat":43.30149,"lon":5.381,"is_reserved":false,"is_disabled":false,"rental_uris":{"android":"levelo://app?vid=1bd954b5-82cc-4ed8-81c9-6fee4b9e034c","ios":"levelo://app?vid=1bd954b5-82cc-4ed8-81c9-6fee4b9e034c"},"vehicle_type_id":"4","last_reported":1728904110,"current_range_meters":37600,"station_id":"ce4bgjp2rcd13ifvqbh0","pricing_plan_id":"cebpf4jnsgd1na2vs0mg"},{"bike_id":"11702197-bd9c-4164-8c2e-badf381d0ff3","system_id":"levelo_inurba_marseille","lat":43.33746,"lon":5.3745,"is_reserved":false,"is_disabled":false,"rental_uris":{"android":"levelo://app?vid=11702197-bd9c-4164-8c2e-badf381d0ff3","ios":"levelo://app?vid=11702197-bd9c-4164-8c2e-badf381d0ff3"},"vehicle_type_id":"4","last_reported":1728904110,"current_range_meters":36000,"station_id":"","pricing_plan_id":"cebpf4jnsgd1na2vs0mg"},{"bike_id":"5ae6444a-8fd0-4022-8378-f9e3a29a7aad","system_id":"levelo_inurba_marseille","lat":43.23149,"lon":5.43715,"is_reserved":false,"is_disabled":false,"rental_uris":{"android":"levelo://app?vid=5ae6444a-8fd0-4022-8378-f9e3a29a7aad","ios":"levelo://app?vid=5ae6444a-8fd0-4022-8378-f9e3a29a7aad"},"vehicle_type_id":"4","last_reported":1728904110,"current_range_meters":24800,"station_id":"ce4bhmp2rcd13ifvqgog","pricing_plan_id":"cebpf4jnsgd1na2vs0mg"},{"bike_id":"6dacac7a-5bb2-4074-8580-3af844c4219f","system_id":"levelo_inurba_marseille","lat":43.24646,"lon":5.38888,"is_reserved":false,"is_disabled":false,"rental_uris":{"android":"levelo://app?vid=6dacac7a-5bb2-4074-8580-3af844c4219f","ios":"levelo://app?vid=6dacac7a-5bb2-4074-8580-3af844c4219f"},"vehicle_type_id":"4","last_reported":1728904110,"current_range_meters":25600,"station_id":"ce4bhg12rcd13ifvqf60","pricing_plan_id":"cebpf4jnsgd1na2vs0mg"},{"bike_id":"dee3f50f-c93b-45b4-8e4a-dbdb45f55e9d","system_id":"levelo_inurba_marseille","lat":43.29554,"lon":5.42291,"is_reserved":false,"is_disabled":false,"rental_uris":{"android":"levelo://app?vid=dee3f50f-c93b-45b4-8e4a-dbdb45f55e9d","ios":"levelo://app?vid=dee3f50f-c93b-45b4-8e4a-dbdb45f55e9d"},"vehicle_type_id":"4","last_reported":1728904110,"current_range_meters":9600,"station_id":"ce4bhph2rcd13ifvqhdg","pricing_plan_id":"cebpf4jnsgd1na2vs0mg"},{"bike_id":"1c94ff14-4bcc-4ed8-8e57-0a7150d10498","system_id":"levelo_inurba_marseille","lat":43.29305,"lon":5.37169,"is_reserved":false,"is_disabled":false,"rental_uris":{"android":"levelo://app?vid=1c94ff14-4bcc-4ed8-8e57-0a7150d10498","ios":"levelo://app?vid=1c94ff14-4bcc-4ed8-8e57-0a7150d10498"},"vehicle_type_id":"4","last_reported":1728904110,"current_range_meters":13600,"station_id":"ce4bgh92rcd13ifvqb40","pricing_plan_id":"cebpf4jnsgd1na2vs0mg"},{"bike_id":"36a5e6db-c005-4177-83d0-b6769ca2ea87","system_id":"levelo_inurba_marseille","lat":43.24081,"lon":5.37753,"is_reserved":false,"is_disabled":false,"rental_uris":{"android":"levelo://app?vid=36a5e6db-c005-4177-83d0-b6769ca2ea87","ios":"levelo://app?vid=36a5e6db-c005-4177-83d0-b6769ca2ea87"},"vehicle_type_id":"4","last_reported":1728904110,"current_range_meters":20400,"station_id":"ce4bhnp2rcd13ifvqgvg","pricing_plan_id":"cebpf4jnsgd1na2vs0mg"},{"bike_id":"402e2b18-2493-4b09-a5dd-0f549fefaf7a","system_id":"levelo_inurba_marseille","lat":43.24166,"lon":5.3639,"is_reserved":false,"is_disabled":false,"rental_uris":{"android":"levelo://app?vid=402e2b18-2493-4b09-a5dd-0f549fefaf7a","ios":"levelo://app?vid=402e2b18-2493-4b09-a5dd-0f549fefaf7a"},"vehicle_type_id":"4","last_reported":1728904110,"current_range_meters":38000,"station_id":"cpo36qri1sfpv3e86is0","pricing_plan_id":"cebpf4jnsgd1na2vs0mg"},{"bike_id":"d8a5ada8-5849-431a-a869-d042f252d905","system_id":"levelo_inurba_marseille","lat":43.23192,"lon":5.35554,"is_reserved":false,"is_disabled":false,"rental_uris":{"android":"levelo://app?vid=d8a5ada8-5849-431a-a869-d042f252d905","ios":"levelo://app?vid=d8a5ada8-5849-431a-a869-d042f252d905"},"vehicle_type_id":"4","last_reported":1728904110,"current_range_meters":36000,"station_id":"ce4bhu92rcd13ifvqi70","pricing_plan_id":"cebpf4jnsgd1na2vs0mg"},{"bike_id":"329166fa-fa97-4cf7-88ed-17857feb732b","system_id":"levelo_inurba_marseille","lat":43.29618,"lon":5.3772,"is_reserved":false,"is_disabled":false,"rental_uris":{"android":"levelo://app?vid=329166fa-fa97-4cf7-88ed-17857feb732b","ios":"levelo://app?vid=329166fa-fa97-4cf7-88ed-17857feb732b"},"vehicle_type_id":"4","last_reported":1728904110,"current_range_meters":25200,"station_id":"ce4bgi92rcd13ifvqb90","pricing_plan_id":"cebpf4jnsgd1na2vs0mg"},{"bike_id":"5bc9b78b-9615-45c0-a888-79c429dfa74a","system_id":"levelo_inurba_marseille","lat":43.33724,"lon":5.39177,"is_reserved":false,"is_disabled":false,"rental_uris":{"android":"levelo://app?vid=5bc9b78b-9615-45c0-a888-79c429dfa74a","ios":"levelo://app?vid=5bc9b78b-9615-45c0-a888-79c429dfa74a"},"vehicle_type_id":"4","last_reported":1728904110,"current_range_meters":11200,"station_id":"ce4bhr92rcd13ifvqhsg","pricing_plan_id":"cebpf4jnsgd1na2vs0mg"},{"bike_id":"2d0b1af5-7eb4-49fc-98eb-273d59f85731","system_id":"levelo_inurba_marseille","lat":43.30136,"lon":5.37417,"is_reserved":false,"is_disabled":false,"rental_uris":{"android":"levelo://app?vid=2d0b1af5-7eb4-49fc-98eb-273d59f85731","ios":"levelo://app?vid=2d0b1af5-7eb4-49fc-98eb-273d59f85731"},"vehicle_type_id":"4","last_reported":1728904110,"current_range_meters":25600,"station_id":"ce4bgs92rcd13ifvqcc0","pricing_plan_id":"cebpf4jnsgd1na2vs0mg"},{"bike_id":"7ea4bb04-7728-44e5-a260-964220663982","system_id":"levelo_inurba_marseille","lat":43.31366,"lon":5.38485,"is_reserved":false,"is_disabled":false,"rental_uris":{"android":"levelo://app?vid=7ea4bb04-7728-44e5-a260-964220663982","ios":"levelo://app?vid=7ea4bb04-7728-44e5-a260-964220663982"},"vehicle_type_id":"4","last_reported":1728904110,"current_range_meters":2800,"station_id":"ce4bgt92rcd13ifvqcf0","pricing_plan_id":"cebpf4jnsgd1na2vs0mg"},{"bike_id":"85dbe4b2-5dcc-42b9-a822-d3f165ff2bb2","system_id":"levelo_inurba_marseille","lat":43.26808,"lon":5.40268,"is_reserved":false,"is_disabled":false,"rental_uris":{"android":"levelo://app?vid=85dbe4b2-5dcc-42b9-a822-d3f165ff2bb2","ios":"levelo://app?vid=85dbe4b2-5dcc-42b9-a822-d3f165ff2bb2"},"vehicle_type_id":"4","last_reported":1728904110,"current_range_meters":38000,"station_id":"ce501612rcd8frsf0b60","pricing_plan_id":"cebpf4jnsgd1na2vs0mg"},{"bike_id":"fdc7adbe-9ba9-431d-a1ee-a5dc9d233109","system_id":"levelo_inurba_marseille","lat":43.30597,"lon":5.37235,"is_reserved":false,"is_disabled":false,"rental_uris":{"android":"levelo://app?vid=fdc7adbe-9ba9-431d-a1ee-a5dc9d233109","ios":"levelo://app?vid=fdc7adbe-9ba9-431d-a1ee-a5dc9d233109"},"vehicle_type_id":"4","last_reported":1728904110,"current_range_meters":19600,"station_id":"ce4bgqh2rcd13ifvqc4g","pricing_plan_id":"cebpf4jnsgd1na2vs0mg"},{"bike_id":"199fe7c1-8636-4300-8bcd-0d660239ac5f","system_id":"levelo_inurba_marseille","lat":43.24656,"lon":5.38888,"is_reserved":false,"is_disabled":false,"rental_uris":{"android":"levelo://app?vid=199fe7c1-8636-4300-8bcd-0d660239ac5f","ios":"levelo://app?vid=199fe7c1-8636-4300-8bcd-0d660239ac5f"},"vehicle_type_id":"4","last_reported":1728904110,"current_range_meters":24000,"station_id":"ce4bhg12rcd13ifvqf60","pricing_plan_id":"cebpf4jnsgd1na2vs0mg"},{"bike_id":"8e79ae3e-178d-4e39-bcf5-6669ebf576d6","system_id":"levelo_inurba_marseille","lat":43.29571,"lon":5.37499,"is_reserved":false,"is_disabled":false,"rental_uris":{"android":"levelo://app?vid=8e79ae3e-178d-4e39-bcf5-6669ebf576d6","ios":"levelo://app?vid=8e79ae3e-178d-4e39-bcf5-6669ebf576d6"},"vehicle_type_id":"4","last_reported":1728904110,"current_range_meters":17600,"station_id":"ce4bgh92rcd13ifvqb50","pricing_plan_id":"cebpf4jnsgd1na2vs0mg"},{"bike_id":"9aa56691-39c1-4bc5-8418-21b055c4e7a4","system_id":"levelo_inurba_marseille","lat":43.25109,"lon":5.4033,"is_reserved":false,"is_disabled":false,"rental_uris":{"android":"levelo://app?vid=9aa56691-39c1-4bc5-8418-21b055c4e7a4","ios":"levelo://app?vid=9aa56691-39c1-4bc5-8418-21b055c4e7a4"},"vehicle_type_id":"4","last_reported":1728904110,"current_range_meters":2800,"station_id":"ce4bhlh2rcd13ifvqgig","pricing_plan_id":"cebpf4jnsgd1na2vs0mg"},{"bike_id":"dc5f317f-b2d0-4a32-9392-ed507e0764b4","system_id":"levelo_inurba_marseille","lat":43.28603,"lon":5.37063,"is_reserved":false,"is_disabled":false,"rental_uris":{"android":"levelo://app?vid=dc5f317f-b2d0-4a32-9392-ed507e0764b4","ios":"levelo://app?vid=dc5f317f-b2d0-4a32-9392-ed507e0764b4"},"vehicle_type_id":"4","last_reported":1728904110,"current_range_meters":32000,"station_id":"ce4bht12rcd13ifvqi60","pricing_plan_id":"cebpf4jnsgd1na2vs0mg"},{"bike_id":"d79b8e32-1629-4e68-b9e1-a2658a2be07f","system_id":"levelo_inurba_marseille","lat":43.26059,"lon":5.39396,"is_reserved":false,"is_disabled":false,"rental_uris":{"android":"levelo://app?vid=d79b8e32-1629-4e68-b9e1-a2658a2be07f","ios":"levelo://app?vid=d79b8e32-1629-4e68-b9e1-a2658a2be07f"},"vehicle_type_id":"4","last_reported":1728904110,"current_range_meters":38800,"station_id":"ce4bhh92rcd13ifvqfj0","pricing_plan_id":"cebpf4jnsgd1na2vs0mg"},{"bike_id":"4fdfaa7a-4bec-44d4-ac22-71fe2f35bddb","system_id":"levelo_inurba_marseille","lat":43.30457,"lon":5.37911,"is_reserved":false,"is_disabled":false,"rental_uris":{"android":"levelo://app?vid=4fdfaa7a-4bec-44d4-ac22-71fe2f35bddb","ios":"levelo://app?vid=4fdfaa7a-4bec-44d4-ac22-71fe2f35bddb"},"vehicle_type_id":"4","last_reported":1728904110,"current_range_meters":22400,"station_id":"ce4bgup2rcd13ifvqcn0","pricing_plan_id":"cebpf4jnsgd1na2vs0mg"},{"bike_id":"98613095-e49f-40ec-8a33-9ea04055a29d","system_id":"levelo_inurba_marseille","lat":43.3029,"lon":5.37705,"is_reserved":false,"is_disabled":false,"rental_uris":{"android":"levelo://app?vid=98613095-e49f-40ec-8a33-9ea04055a29d","ios":"levelo://app?vid=98613095-e49f-40ec-8a33-9ea04055a29d"},"vehicle_type_id":"4","last_reported":1728904110,"current_range_meters":32000,"station_id":"ce4bguh2rcd13ifvqcj0","pricing_plan_id":"cebpf4jnsgd1na2vs0mg"},{"bike_id":"fdab60e8-7d33-47aa-8ad8-5875dde1ed1f","system_id":"levelo_inurba_marseille","lat":43.30118,"lon":5.39198,"is_reserved":false,"is_disabled":false,"rental_uris":{"android":"levelo://app?vid=fdab60e8-7d33-47aa-8ad8-5875dde1ed1f","ios":"levelo://app?vid=fdab60e8-7d33-47aa-8ad8-5875dde1ed1f"},"vehicle_type_id":"4","last_reported":1728904110,"current_range_meters":30400,"station_id":"ce4bh192rcd13ifvqdb0","pricing_plan_id":"cebpf4jnsgd1na2vs0mg"},{"bike_id":"729b5747-2745-44f4-8e45-767e543cac8a","system_id":"levelo_inurba_marseille","lat":43.33034,"lon":5.38936,"is_reserved":false,"is_disabled":false,"rental_uris":{"android":"levelo://app?vid=729b5747-2745-44f4-8e45-767e543cac8a","ios":"levelo://app?vid=729b5747-2745-44f4-8e45-767e543cac8a"},"vehicle_type_id":"4","last_reported":1728904110,"current_range_meters":33600,"station_id":"","pricing_plan_id":"cebpf4jnsgd1na2vs0mg"},{"bike_id":"c70a4cce-8309-468e-9123-15a27c4f6b84","system_id":"levelo_inurba_marseille","lat":43.27941,"lon":5.41047,"is_reserved":false,"is_disabled":false,"rental_uris":{"android":"levelo://app?vid=c70a4cce-8309-468e-9123-15a27c4f6b84","ios":"levelo://app?vid=c70a4cce-8309-468e-9123-15a27c4f6b84"},"vehicle_type_id":"4","last_reported":1728904110,"current_range_meters":7200,"station_id":"ce4bhnp2rcd13ifvqh0g","pricing_plan_id":"cebpf4jnsgd1na2vs0mg"},{"bike_id":"ef8ca209-cd40-422d-8003-75930ecde9da","system_id":"levelo_inurba_marseille","lat":43.33603,"lon":5.41031,"is_reserved":false,"is_disabled":false,"rental_uris":{"android":"levelo://app?vid=ef8ca209-cd40-422d-8003-75930ecde9da","ios":"levelo://app?vid=ef8ca209-cd40-422d-8003-75930ecde9da"},"vehicle_type_id":"4","last_reported":1728904110,"current_range_meters":12400,"station_id":"ce4bhqh2rcd13ifvqhmg","pricing_plan_id":"cebpf4jnsgd1na2vs0mg"},{"bike_id":"7d2ed4c9-1b2a-4e33-b71d-124bf455a204","system_id":"levelo_inurba_marseille","lat":43.33722,"lon":5.3744,"is_reserved":false,"is_disabled":false,"rental_uris":{"android":"levelo://app?vid=7d2ed4c9-1b2a-4e33-b71d-124bf455a204","ios":"levelo://app?vid=7d2ed4c9-1b2a-4e33-b71d-124bf455a204"},"vehicle_type_id":"4","last_reported":1728904110,"current_range_meters":38800,"station_id":"","pricing_plan_id":"cebpf4jnsgd1na2vs0mg"},{"bike_id":"46fc1db5-bdd6-4713-9ba1-444190443c8b","system_id":"levelo_inurba_marseille","lat":43.30535,"lon":5.36533,"is_reserved":false,"is_disabled":false,"rental_uris":{"android":"levelo://app?vid=46fc1db5-bdd6-4713-9ba1-444190443c8b","ios":"levelo://app?vid=46fc1db5-bdd6-4713-9ba1-444190443c8b"},"vehicle_type_id":"4","last_reported":1728904110,"current_range_meters":21600,"station_id":"ce4bgs12rcd13ifvqcag","pricing_plan_id":"cebpf4jnsgd1na2vs0mg"},{"bike_id":"a93c941f-c461-439a-a5d6-6dd4b27e55e3","system_id":"levelo_inurba_marseille","lat":43.27176,"lon":5.40996,"is_reserved":false,"is_disabled":false,"rental_uris":{"android":"levelo://app?vid=a93c941f-c461-439a-a5d6-6dd4b27e55e3","ios":"levelo://app?vid=a93c941f-c461-439a-a5d6-6dd4b27e55e3"},"vehicle_type_id":"4","last_reported":1728904110,"current_range_meters":24000,"station_id":"ce4bhl12rcd13ifvqgf0","pricing_plan_id":"cebpf4jnsgd1na2vs0mg"},{"bike_id":"106a6694-d3d8-48a0-b826-63ed23870a2d","system_id":"levelo_inurba_marseille","lat":43.27976,"lon":5.3874,"is_reserved":false,"is_disabled":false,"rental_uris":{"android":"levelo://app?vid=106a6694-d3d8-48a0-b826-63ed23870a2d","ios":"levelo://app?vid=106a6694-d3d8-48a0-b826-63ed23870a2d"},"vehicle_type_id":"4","last_reported":1728904110,"current_range_meters":36400,"station_id":"ce4bhg12rcd13ifvqf80","pricing_plan_id":"cebpf4jnsgd1na2vs0mg"},{"bike_id":"684473bd-6e6e-45b0-94db-b3e70cb41371","system_id":"levelo_inurba_marseille","lat":43.28405,"lon":5.37503,"is_reserved":false,"is_disabled":false,"rental_uris":{"android":"levelo://app?vid=684473bd-6e6e-45b0-94db-b3e70cb41371","ios":"levelo://app?vid=684473bd-6e6e-45b0-94db-b3e70cb41371"},"vehicle_type_id":"4","last_reported":1728904110,"current_range_meters":29600,"station_id":"ce4bh412rcd13ifvqds0","pricing_plan_id":"cebpf4jnsgd1na2vs0mg"},{"bike_id":"1ce2f3c9-12c5-49ed-8fe1-59019a741bbc","system_id":"levelo_inurba_marseille","lat":43.28149,"lon":5.42642,"is_reserved":false,"is_disabled":false,"rental_uris":{"android":"levelo://app?vid=1ce2f3c9-12c5-49ed-8fe1-59019a741bbc","ios":"levelo://app?vid=1ce2f3c9-12c5-49ed-8fe1-59019a741bbc"},"vehicle_type_id":"4","last_reported":1728904110,"current_range_meters":8400,"station_id":"ce4bhnh2rcd13ifvqgug","pricing_plan_id":"cebpf4jnsgd1na2vs0mg"},{"bike_id":"a015dbe3-496c-4c3f-a272-39e96dcb57cb","system_id":"levelo_inurba_marseille","lat":43.28846,"lon":5.35847,"is_reserved":false,"is_disabled":false,"rental_uris":{"android":"levelo://app?vid=a015dbe3-496c-4c3f-a272-39e96dcb57cb","ios":"levelo://app?vid=a015dbe3-496c-4c3f-a272-39e96dcb57cb"},"vehicle_type_id":"4","last_reported":1728904110,"current_range_meters":4800,"station_id":"ce4bhb12rcd13ifvqem0","pricing_plan_id":"cebpf4jnsgd1na2vs0mg"},{"bike_id":"9c51286d-9bc1-4462-bb96-fd77d911114d","system_id":"levelo_inurba_marseille","lat":43.23148,"lon":5.43718,"is_reserved":false,"is_disabled":false,"rental_uris":{"android":"levelo://app?vid=9c51286d-9bc1-4462-bb96-fd77d911114d","ios":"levelo://app?vid=9c51286d-9bc1-4462-bb96-fd77d911114d"},"vehicle_type_id":"4","last_reported":1728904110,"current_range_meters":36800,"station_id":"ce4bhmp2rcd13ifvqgog","pricing_plan_id":"cebpf4jnsgd1na2vs0mg"},{"bike_id":"047f2f9e-caf0-484d-9e91-fc7175bf5b18","system_id":"levelo_inurba_marseille","lat":43.28151,"lon":5.42636,"is_reserved":false,"is_disabled":false,"rental_uris":{"android":"levelo://app?vid=047f2f9e-caf0-484d-9e91-fc7175bf5b18","ios":"levelo://app?vid=047f2f9e-caf0-484d-9e91-fc7175bf5b18"},"vehicle_type_id":"4","last_reported":1728904110,"current_range_meters":38800,"station_id":"ce4bhnh2rcd13ifvqgug","pricing_plan_id":"cebpf4jnsgd1na2vs0mg"},{"bike_id":"520553a7-fec8-4ae0-98d6-520c575480b8","system_id":"levelo_inurba_marseille","lat":43.30543,"lon":5.36725,"is_reserved":false,"is_disabled":false,"rental_uris":{"android":"levelo://app?vid=520553a7-fec8-4ae0-98d6-520c575480b8","ios":"levelo://app?vid=520553a7-fec8-4ae0-98d6-520c575480b8"},"vehicle_type_id":"4","last_reported":1728904110,"current_range_meters":20000,"station_id":"ce4bgrp2rcd13ifvqc9g","pricing_plan_id":"cebpf4jnsgd1na2vs0mg"},{"bike_id":"987f85c2-039f-4128-9cfb-157c435d4bbf","system_id":"levelo_inurba_marseille","lat":43.28716,"lon":5.37937,"is_reserved":false,"is_disabled":false,"rental_uris":{"android":"levelo://app?vid=987f85c2-039f-4128-9cfb-157c435d4bbf","ios":"levelo://app?vid=987f85c2-039f-4128-9cfb-157c435d4bbf"},"vehicle_type_id":"4","last_reported":1728904110,"current_range_meters":24800,"station_id":"ce4bh9p2rcd13ifvqec0","pricing_plan_id":"cebpf4jnsgd1na2vs0mg"},{"bike_id":"f6d528c7-d1a1-4dc7-820d-e6578d4d4889","system_id":"levelo_inurba_marseille","lat":43.26945,"lon":5.40235,"is_reserved":false,"is_disabled":false,"rental_uris":{"android":"levelo://app?vid=f6d528c7-d1a1-4dc7-820d-e6578d4d4889","ios":"levelo://app?vid=f6d528c7-d1a1-4dc7-820d-e6578d4d4889"},"vehicle_type_id":"4","last_reported":1728904110,"current_range_meters":37600,"station_id":"cjm6bp8fraef2m0cb0m0","pricing_plan_id":"cebpf4jnsgd1na2vs0mg"},{"bike_id":"58821253-536d-48f0-9016-f878c99d9361","system_id":"levelo_inurba_marseille","lat":43.23055,"lon":5.35491,"is_reserved":false,"is_disabled":false,"rental_uris":{"android":"levelo://app?vid=58821253-536d-48f0-9016-f878c99d9361","ios":"levelo://app?vid=58821253-536d-48f0-9016-f878c99d9361"},"vehicle_type_id":"4","last_reported":1728904110,"current_range_meters":38000,"station_id":"cpo3342slgdg3j2ifvpg","pricing_plan_id":"cebpf4jnsgd1na2vs0mg"},{"bike_id":"9e557752-17c7-4264-a3ad-c69c3addc72b","system_id":"levelo_inurba_marseille","lat":43.25938,"lon":5.40905,"is_reserved":false,"is_disabled":false,"rental_uris":{"android":"levelo://app?vid=9e557752-17c7-4264-a3ad-c69c3addc72b","ios":"levelo://app?vid=9e557752-17c7-4264-a3ad-c69c3addc72b"},"vehicle_type_id":"4","last_reported":1728904110,"current_range_meters":24000,"station_id":"ce4bhm92rcd13ifvqglg","pricing_plan_id":"cebpf4jnsgd1na2vs0mg"},{"bike_id":"b8470661-5778-428f-b7f8-1eba52a61d8d","system_id":"levelo_inurba_marseille","lat":43.29618,"lon":5.37162,"is_reserved":false,"is_disabled":false,"rental_uris":{"android":"levelo://app?vid=b8470661-5778-428f-b7f8-1eba52a61d8d","ios":"levelo://app?vid=b8470661-5778-428f-b7f8-1eba52a61d8d"},"vehicle_type_id":"4","last_reported":1728904110,"current_range_meters":25200,"station_id":"ce4bgnh2rcd13ifvqc0g","pricing_plan_id":"cebpf4jnsgd1na2vs0mg"},{"bike_id":"f2dc4197-138f-4ef6-be2c-0ad86cfc7e38","system_id":"levelo_inurba_marseille","lat":43.301971,"lon":5.382061,"is_reserved":false,"is_disabled":false,"rental_uris":{"android":"levelo://app?vid=f2dc4197-138f-4ef6-be2c-0ad86cfc7e38","ios":"levelo://app?vid=f2dc4197-138f-4ef6-be2c-0ad86cfc7e38"},"vehicle_type_id":"4","last_reported":1728904110,"current_range_meters":20400,"station_id":"ce4bgpp2rcd13ifvqc3g","pricing_plan_id":"cebpf4jnsgd1na2vs0mg"},{"bike_id":"cdcaf3ce-b547-45df-833a-9b631dcf4c2c","system_id":"levelo_inurba_marseille","lat":43.27962,"lon":5.38715,"is_reserved":false,"is_disabled":false,"rental_uris":{"android":"levelo://app?vid=cdcaf3ce-b547-45df-833a-9b631dcf4c2c","ios":"levelo://app?vid=cdcaf3ce-b547-45df-833a-9b631dcf4c2c"},"vehicle_type_id":"4","last_reported":1728904110,"current_range_meters":25200,"station_id":"ce4bhg12rcd13ifvqf80","pricing_plan_id":"cebpf4jnsgd1na2vs0mg"},{"bike_id":"c2cba13f-6b31-4f57-96d8-8d97a85ec968","system_id":"levelo_inurba_marseille","lat":43.2743,"lon":5.39411,"is_reserved":false,"is_disabled":false,"rental_uris":{"android":"levelo://app?vid=c2cba13f-6b31-4f57-96d8-8d97a85ec968","ios":"levelo://app?vid=c2cba13f-6b31-4f57-96d8-8d97a85ec968"},"vehicle_type_id":"4","last_reported":1728904110,"current_range_meters":16800,"station_id":"ce4bhdp2rcd13ifvqf20","pricing_plan_id":"cebpf4jnsgd1na2vs0mg"},{"bike_id":"0f7f3009-7205-4fbf-9e55-7d6d2d4c5c90","system_id":"levelo_inurba_marseille","lat":43.2944,"lon":5.39736,"is_reserved":false,"is_disabled":false,"rental_uris":{"android":"levelo://app?vid=0f7f3009-7205-4fbf-9e55-7d6d2d4c5c90","ios":"levelo://app?vid=0f7f3009-7205-4fbf-9e55-7d6d2d4c5c90"},"vehicle_type_id":"4","last_reported":1728904110,"current_range_meters":33200,"station_id":"ce4bh3h2rcd13ifvqdo0","pricing_plan_id":"cebpf4jnsgd1na2vs0mg"},{"bike_id":"7c095d3c-604a-4602-b927-64e3a8b70e01","system_id":"levelo_inurba_marseille","lat":43.29032,"lon":5.37567,"is_reserved":false,"is_disabled":false,"rental_uris":{"android":"levelo://app?vid=7c095d3c-604a-4602-b927-64e3a8b70e01","ios":"levelo://app?vid=7c095d3c-604a-4602-b927-64e3a8b70e01"},"vehicle_type_id":"4","last_reported":1728904110,"current_range_meters":30800,"station_id":"ce4bh692rcd13ifvqe90","pricing_plan_id":"cebpf4jnsgd1na2vs0mg"},{"bike_id":"cdde71fa-933f-47ef-8a23-39142a076aea","system_id":"levelo_inurba_marseille","lat":43.29551,"lon":5.42283,"is_reserved":false,"is_disabled":false,"rental_uris":{"android":"levelo://app?vid=cdde71fa-933f-47ef-8a23-39142a076aea","ios":"levelo://app?vid=cdde71fa-933f-47ef-8a23-39142a076aea"},"vehicle_type_id":"4","last_reported":1728904110,"current_range_meters":36800,"station_id":"ce4bhph2rcd13ifvqhdg","pricing_plan_id":"cebpf4jnsgd1na2vs0mg"},{"bike_id":"aae33064-4853-4bd5-9ae9-1d2a4ee45368","system_id":"levelo_inurba_marseille","lat":43.24166,"lon":5.36402,"is_reserved":false,"is_disabled":false,"rental_uris":{"android":"levelo://app?vid=aae33064-4853-4bd5-9ae9-1d2a4ee45368","ios":"levelo://app?vid=aae33064-4853-4bd5-9ae9-1d2a4ee45368"},"vehicle_type_id":"4","last_reported":1728904110,"current_range_meters":30800,"station_id":"cpo36qri1sfpv3e86is0","pricing_plan_id":"cebpf4jnsgd1na2vs0mg"},{"bike_id":"c79a1507-9724-43bc-a363-9243c25b2fc9","system_id":"levelo_inurba_marseille","lat":43.24808,"lon":5.37456,"is_reserved":false,"is_disabled":false,"rental_uris":{"android":"levelo://app?vid=c79a1507-9724-43bc-a363-9243c25b2fc9","ios":"levelo://app?vid=c79a1507-9724-43bc-a363-9243c25b2fc9"},"vehicle_type_id":"4","last_reported":1728904110,"current_range_meters":6400,"station_id":"ce4bhgh2rcd13ifvqfb0","pricing_plan_id":"cebpf4jnsgd1na2vs0mg"},{"bike_id":"3ebc8614-7122-4477-a27c-b50ee26fcca2","system_id":"levelo_inurba_marseille","lat":43.23193,"lon":5.35545,"is_reserved":false,"is_disabled":false,"rental_uris":{"android":"levelo://app?vid=3ebc8614-7122-4477-a27c-b50ee26fcca2","ios":"levelo://app?vid=3ebc8614-7122-4477-a27c-b50ee26fcca2"},"vehicle_type_id":"4","last_reported":1728904110,"current_range_meters":3200,"station_id":"ce4bhu92rcd13ifvqi70","pricing_plan_id":"cebpf4jnsgd1na2vs0mg"},{"bike_id":"aad69708-28ac-43e6-945e-619f5a7c6bfd","system_id":"levelo_inurba_marseille","lat":43.33781,"lon":5.37443,"is_reserved":false,"is_disabled":false,"rental_uris":{"android":"levelo://app?vid=aad69708-28ac-43e6-945e-619f5a7c6bfd","ios":"levelo://app?vid=aad69708-28ac-43e6-945e-619f5a7c6bfd"},"vehicle_type_id":"4","last_reported":1728904110,"current_range_meters":29600,"station_id":"","pricing_plan_id":"cebpf4jnsgd1na2vs0mg"},{"bike_id":"fdd134d9-cb0c-4b9e-9621-faa0284f21aa","system_id":"levelo_inurba_marseille","lat":43.29893,"lon":5.43669,"is_reserved":false,"is_disabled":false,"rental_uris":{"android":"levelo://app?vid=fdd134d9-cb0c-4b9e-9621-faa0284f21aa","ios":"levelo://app?vid=fdd134d9-cb0c-4b9e-9621-faa0284f21aa"},"vehicle_type_id":"4","last_reported":1728904110,"current_range_meters":36400,"station_id":"ce4bhpp2rcd13ifvqhfg","pricing_plan_id":"cebpf4jnsgd1na2vs0mg"},{"bike_id":"4a3a48a1-2504-4052-9f2f-cd518035a423","system_id":"levelo_inurba_marseille","lat":43.28491,"lon":5.38558,"is_reserved":false,"is_disabled":false,"rental_uris":{"android":"levelo://app?vid=4a3a48a1-2504-4052-9f2f-cd518035a423","ios":"levelo://app?vid=4a3a48a1-2504-4052-9f2f-cd518035a423"},"vehicle_type_id":"4","last_reported":1728904110,"current_range_meters":4400,"station_id":"ce4bh8p2rcd13ifvqeb0","pricing_plan_id":"cebpf4jnsgd1na2vs0mg"},{"bike_id":"db0d0fce-dbaa-4f90-bcdb-161e28b76351","system_id":"levelo_inurba_marseille","lat":43.33772,"lon":5.37432,"is_reserved":false,"is_disabled":false,"rental_uris":{"android":"levelo://app?vid=db0d0fce-dbaa-4f90-bcdb-161e28b76351","ios":"levelo://app?vid=db0d0fce-dbaa-4f90-bcdb-161e28b76351"},"vehicle_type_id":"4","last_reported":1728904110,"current_range_meters":37600,"station_id":"","pricing_plan_id":"cebpf4jnsgd1na2vs0mg"},{"bike_id":"c083d8ee-ca41-4b36-a2b4-9c1d4dd96c88","system_id":"levelo_inurba_marseille","lat":43.30935,"lon":5.39024,"is_reserved":false,"is_disabled":false,"rental_uris":{"android":"levelo://app?vid=c083d8ee-ca41-4b36-a2b4-9c1d4dd96c88","ios":"levelo://app?vid=c083d8ee-ca41-4b36-a2b4-9c1d4dd96c88"},"vehicle_type_id":"4","last_reported":1728904110,"current_range_meters":16800,"station_id":"ce4bgup2rcd13ifvqco0","pricing_plan_id":"cebpf4jnsgd1na2vs0mg"},{"bike_id":"35983d65-e7a5-415a-b102-7f0aac4b39f7","system_id":"levelo_inurba_marseille","lat":43.23191,"lon":5.35554,"is_reserved":false,"is_disabled":false,"rental_uris":{"android":"levelo://app?vid=35983d65-e7a5-415a-b102-7f0aac4b39f7","ios":"levelo://app?vid=35983d65-e7a5-415a-b102-7f0aac4b39f7"},"vehicle_type_id":"4","last_reported":1728904110,"current_range_meters":38000,"station_id":"ce4bhu92rcd13ifvqi70","pricing_plan_id":"cebpf4jnsgd1na2vs0mg"},{"bike_id":"9b15d330-75b2-4224-bd71-9b100e546ae4","system_id":"levelo_inurba_marseille","lat":43.30583,"lon":5.384,"is_reserved":false,"is_disabled":false,"rental_uris":{"android":"levelo://app?vid=9b15d330-75b2-4224-bd71-9b100e546ae4","ios":"levelo://app?vid=9b15d330-75b2-4224-bd71-9b100e546ae4"},"vehicle_type_id":"4","last_reported":1728904110,"current_range_meters":33200,"station_id":"ce4bgup2rcd13ifvqcn0","pricing_plan_id":"cebpf4jnsgd1na2vs0mg"},{"bike_id":"ff76f3ad-c456-4a65-9896-2545c591afd0","system_id":"levelo_inurba_marseille","lat":43.30303,"lon":5.39226,"is_reserved":false,"is_disabled":false,"rental_uris":{"android":"levelo://app?vid=ff76f3ad-c456-4a65-9896-2545c591afd0","ios":"levelo://app?vid=ff76f3ad-c456-4a65-9896-2545c591afd0"},"vehicle_type_id":"4","last_reported":1728904110,"current_range_meters":34800,"station_id":"ce4bgkh2rcd13ifvqbk0","pricing_plan_id":"cebpf4jnsgd1na2vs0mg"},{"bike_id":"81b3b8c9-fa1b-49bf-8d7b-5c4711bbdedb","system_id":"levelo_inurba_marseille","lat":43.3019,"lon":5.36611,"is_reserved":false,"is_disabled":false,"rental_uris":{"android":"levelo://app?vid=81b3b8c9-fa1b-49bf-8d7b-5c4711bbdedb","ios":"levelo://app?vid=81b3b8c9-fa1b-49bf-8d7b-5c4711bbdedb"},"vehicle_type_id":"4","last_reported":1728904110,"current_range_meters":38800,"station_id":"ce4bgrh2rcd13ifvqc8g","pricing_plan_id":"cebpf4jnsgd1na2vs0mg"},{"bike_id":"1ea618d6-2b90-4a0c-b462-6fc22d02503d","system_id":"levelo_inurba_marseille","lat":43.28154,"lon":5.42642,"is_reserved":false,"is_disabled":false,"rental_uris":{"android":"levelo://app?vid=1ea618d6-2b90-4a0c-b462-6fc22d02503d","ios":"levelo://app?vid=1ea618d6-2b90-4a0c-b462-6fc22d02503d"},"vehicle_type_id":"4","last_reported":1728904110,"current_range_meters":14800,"station_id":"ce4bhnh2rcd13ifvqgug","pricing_plan_id":"cebpf4jnsgd1na2vs0mg"},{"bike_id":"df483c6e-82bc-40c8-a28a-bfef06b7a31b","system_id":"levelo_inurba_marseille","lat":43.25499,"lon":5.37647,"is_reserved":false,"is_disabled":false,"rental_uris":{"android":"levelo://app?vid=df483c6e-82bc-40c8-a28a-bfef06b7a31b","ios":"levelo://app?vid=df483c6e-82bc-40c8-a28a-bfef06b7a31b"},"vehicle_type_id":"4","last_reported":1728904110,"current_range_meters":24000,"station_id":"ce4bhh12rcd13ifvqff0","pricing_plan_id":"cebpf4jnsgd1na2vs0mg"},{"bike_id":"d0d45b58-a0e0-4c05-8c00-d6b985e35416","system_id":"levelo_inurba_marseille","lat":43.30138,"lon":5.38776,"is_reserved":false,"is_disabled":false,"rental_uris":{"android":"levelo://app?vid=d0d45b58-a0e0-4c05-8c00-d6b985e35416","ios":"levelo://app?vid=d0d45b58-a0e0-4c05-8c00-d6b985e35416"},"vehicle_type_id":"4","last_reported":1728904110,"current_range_meters":31200,"station_id":"ce4bghh2rcd13ifvqb60","pricing_plan_id":"cebpf4jnsgd1na2vs0mg"},{"bike_id":"27311a75-ebb6-43d6-9fb5-f3ba72a10e0e","system_id":"levelo_inurba_marseille","lat":43.29902,"lon":5.43656,"is_reserved":false,"is_disabled":false,"rental_uris":{"android":"levelo://app?vid=27311a75-ebb6-43d6-9fb5-f3ba72a10e0e","ios":"levelo://app?vid=27311a75-ebb6-43d6-9fb5-f3ba72a10e0e"},"vehicle_type_id":"4","last_reported":1728904110,"current_range_meters":16000,"station_id":"ce4bhpp2rcd13ifvqhfg","pricing_plan_id":"cebpf4jnsgd1na2vs0mg"},{"bike_id":"56c64ebb-0dbf-4dd0-b910-54f5e671ab0c","system_id":"levelo_inurba_marseille","lat":43.24801,"lon":5.37458,"is_reserved":false,"is_disabled":false,"rental_uris":{"android":"levelo://app?vid=56c64ebb-0dbf-4dd0-b910-54f5e671ab0c","ios":"levelo://app?vid=56c64ebb-0dbf-4dd0-b910-54f5e671ab0c"},"vehicle_type_id":"4","last_reported":1728904110,"current_range_meters":37600,"station_id":"ce4bhgh2rcd13ifvqfb0","pricing_plan_id":"cebpf4jnsgd1na2vs0mg"},{"bike_id":"4494da15-2325-47a4-9a45-d9df2119707a","system_id":"levelo_inurba_marseille","lat":43.250214,"lon":5.388771,"is_reserved":false,"is_disabled":false,"rental_uris":{"android":"levelo://app?vid=4494da15-2325-47a4-9a45-d9df2119707a","ios":"levelo://app?vid=4494da15-2325-47a4-9a45-d9df2119707a"},"vehicle_type_id":"4","last_reported":1728904110,"current_range_meters":17200,"station_id":"ce4bhgp2rcd13ifvqfd0","pricing_plan_id":"cebpf4jnsgd1na2vs0mg"},{"bike_id":"0d0b6181-0512-44b3-bf56-4da2c70bde53","system_id":"levelo_inurba_marseille","lat":43.26494,"lon":5.39543,"is_reserved":false,"is_disabled":false,"rental_uris":{"android":"levelo://app?vid=0d0b6181-0512-44b3-bf56-4da2c70bde53","ios":"levelo://app?vid=0d0b6181-0512-44b3-bf56-4da2c70bde53"},"vehicle_type_id":"4","last_reported":1728904110,"current_range_meters":6400,"station_id":"ce4bhi12rcd13ifvqfq0","pricing_plan_id":"cebpf4jnsgd1na2vs0mg"},{"bike_id":"674a2a28-cf85-4d95-a619-930b81cfd421","system_id":"levelo_inurba_marseille","lat":43.23147,"lon":5.4371,"is_reserved":false,"is_disabled":false,"rental_uris":{"android":"levelo://app?vid=674a2a28-cf85-4d95-a619-930b81cfd421","ios":"levelo://app?vid=674a2a28-cf85-4d95-a619-930b81cfd421"},"vehicle_type_id":"4","last_reported":1728904110,"current_range_meters":25600,"station_id":"ce4bhmp2rcd13ifvqgog","pricing_plan_id":"cebpf4jnsgd1na2vs0mg"},{"bike_id":"465036fb-bb31-449f-b7fe-fceee93e94f0","system_id":"levelo_inurba_marseille","lat":43.29961,"lon":5.41324,"is_reserved":false,"is_disabled":false,"rental_uris":{"android":"levelo://app?vid=465036fb-bb31-449f-b7fe-fceee93e94f0","ios":"levelo://app?vid=465036fb-bb31-449f-b7fe-fceee93e94f0"},"vehicle_type_id":"4","last_reported":1728904110,"current_range_meters":35200,"station_id":"ce4bhp12rcd13ifvqh9g","pricing_plan_id":"cebpf4jnsgd1na2vs0mg"},{"bike_id":"f7e68a45-d5ab-4a3b-b40b-aa1cbc84816c","system_id":"levelo_inurba_marseille","lat":43.27176,"lon":5.40996,"is_reserved":false,"is_disabled":false,"rental_uris":{"android":"levelo://app?vid=f7e68a45-d5ab-4a3b-b40b-aa1cbc84816c","ios":"levelo://app?vid=f7e68a45-d5ab-4a3b-b40b-aa1cbc84816c"},"vehicle_type_id":"4","last_reported":1728904110,"current_range_meters":16400,"station_id":"ce4bhl12rcd13ifvqgf0","pricing_plan_id":"cebpf4jnsgd1na2vs0mg"},{"bike_id":"551a20ed-cb9d-4a60-adf6-4348d5c063e9","system_id":"levelo_inurba_marseille","lat":43.23152,"lon":5.43703,"is_reserved":false,"is_disabled":false,"rental_uris":{"android":"levelo://app?vid=551a20ed-cb9d-4a60-adf6-4348d5c063e9","ios":"levelo://app?vid=551a20ed-cb9d-4a60-adf6-4348d5c063e9"},"vehicle_type_id":"4","last_reported":1728904110,"current_range_meters":16000,"station_id":"ce4bhmp2rcd13ifvqgog","pricing_plan_id":"cebpf4jnsgd1na2vs0mg"},{"bike_id":"87e5b82b-1978-49bf-92bf-413ec779c074","system_id":"levelo_inurba_marseille","lat":43.30177,"lon":5.36605,"is_reserved":false,"is_disabled":false,"rental_uris":{"android":"levelo://app?vid=87e5b82b-1978-49bf-92bf-413ec779c074","ios":"levelo://app?vid=87e5b82b-1978-49bf-92bf-413ec779c074"},"vehicle_type_id":"4","last_reported":1728904110,"current_range_meters":27200,"station_id":"ce4bgrh2rcd13ifvqc8g","pricing_plan_id":"cebpf4jnsgd1na2vs0mg"},{"bike_id":"2993ba69-446f-46d9-a918-957297771566","system_id":"levelo_inurba_marseille","lat":43.30907,"lon":5.36844,"is_reserved":false,"is_disabled":false,"rental_uris":{"android":"levelo://app?vid=2993ba69-446f-46d9-a918-957297771566","ios":"levelo://app?vid=2993ba69-446f-46d9-a918-957297771566"},"vehicle_type_id":"4","last_reported":1728904110,"current_range_meters":33600,"station_id":"ce4bgn92rcd13ifvqbvg","pricing_plan_id":"cebpf4jnsgd1na2vs0mg"},{"bike_id":"03412e9f-e5af-44a8-940e-a098b1ec2875","system_id":"levelo_inurba_marseille","lat":43.22936,"lon":5.35378,"is_reserved":false,"is_disabled":false,"rental_uris":{"android":"levelo://app?vid=03412e9f-e5af-44a8-940e-a098b1ec2875","ios":"levelo://app?vid=03412e9f-e5af-44a8-940e-a098b1ec2875"},"vehicle_type_id":"4","last_reported":1728904110,"current_range_meters":36400,"station_id":"cpo3532slgdg3j2ikp40","pricing_plan_id":"cebpf4jnsgd1na2vs0mg"},{"bike_id":"50318d90-2168-4373-9d50-f39e5ad7003a","system_id":"levelo_inurba_marseille","lat":43.33762,"lon":5.37435,"is_reserved":false,"is_disabled":false,"rental_uris":{"android":"levelo://app?vid=50318d90-2168-4373-9d50-f39e5ad7003a","ios":"levelo://app?vid=50318d90-2168-4373-9d50-f39e5ad7003a"},"vehicle_type_id":"4","last_reported":1728904110,"current_range_meters":36000,"station_id":"","pricing_plan_id":"cebpf4jnsgd1na2vs0mg"},{"bike_id":"b6a8a7dc-0481-4502-889b-630ddc223424","system_id":"levelo_inurba_marseille","lat":43.27811,"lon":5.40711,"is_reserved":false,"is_disabled":false,"rental_uris":{"android":"levelo://app?vid=b6a8a7dc-0481-4502-889b-630ddc223424","ios":"levelo://app?vid=b6a8a7dc-0481-4502-889b-630ddc223424"},"vehicle_type_id":"4","last_reported":1728904110,"current_range_meters":38800,"station_id":"ce4bhnh2rcd13ifvqgtg","pricing_plan_id":"cebpf4jnsgd1na2vs0mg"},{"bike_id":"5d76c7d2-8dda-4754-ad37-53cce9e36808","system_id":"levelo_inurba_marseille","lat":43.23193,"lon":5.35554,"is_reserved":false,"is_disabled":false,"rental_uris":{"android":"levelo://app?vid=5d76c7d2-8dda-4754-ad37-53cce9e36808","ios":"levelo://app?vid=5d76c7d2-8dda-4754-ad37-53cce9e36808"},"vehicle_type_id":"4","last_reported":1728904110,"current_range_meters":30000,"station_id":"ce4bhu92rcd13ifvqi70","pricing_plan_id":"cebpf4jnsgd1na2vs0mg"},{"bike_id":"80231ab1-9ab6-4645-912f-19937fb337a6","system_id":"levelo_inurba_marseille","lat":43.28727,"lon":5.37944,"is_reserved":false,"is_disabled":false,"rental_uris":{"android":"levelo://app?vid=80231ab1-9ab6-4645-912f-19937fb337a6","ios":"levelo://app?vid=80231ab1-9ab6-4645-912f-19937fb337a6"},"vehicle_type_id":"4","last_reported":1728904110,"current_range_meters":33200,"station_id":"ce4bh9p2rcd13ifvqec0","pricing_plan_id":"cebpf4jnsgd1na2vs0mg"},{"bike_id":"d6d9aff7-0494-4ee8-a34f-704315315246","system_id":"levelo_inurba_marseille","lat":43.30533,"lon":5.3671,"is_reserved":false,"is_disabled":false,"rental_uris":{"android":"levelo://app?vid=d6d9aff7-0494-4ee8-a34f-704315315246","ios":"levelo://app?vid=d6d9aff7-0494-4ee8-a34f-704315315246"},"vehicle_type_id":"4","last_reported":1728904110,"current_range_meters":24800,"station_id":"ce4bgrp2rcd13ifvqc9g","pricing_plan_id":"cebpf4jnsgd1na2vs0mg"},{"bike_id":"e906a35f-b63e-46ab-8763-10ae5f0d8a76","system_id":"levelo_inurba_marseille","lat":43.29195,"lon":5.39325,"is_reserved":false,"is_disabled":false,"rental_uris":{"android":"levelo://app?vid=e906a35f-b63e-46ab-8763-10ae5f0d8a76","ios":"levelo://app?vid=e906a35f-b63e-46ab-8763-10ae5f0d8a76"},"vehicle_type_id":"4","last_reported":1728904110,"current_range_meters":38400,"station_id":"ce4bh192rcd13ifvqdd0","pricing_plan_id":"cebpf4jnsgd1na2vs0mg"},{"bike_id":"cba59919-95e6-42ff-83c9-6bcf45674d60","system_id":"levelo_inurba_marseille","lat":43.32336,"lon":5.38328,"is_reserved":false,"is_disabled":false,"rental_uris":{"android":"levelo://app?vid=cba59919-95e6-42ff-83c9-6bcf45674d60","ios":"levelo://app?vid=cba59919-95e6-42ff-83c9-6bcf45674d60"},"vehicle_type_id":"4","last_reported":1728904110,"current_range_meters":35600,"station_id":"","pricing_plan_id":"cebpf4jnsgd1na2vs0mg"},{"bike_id":"85562e0c-6e65-40ec-82d1-2f4aa69e9a86","system_id":"levelo_inurba_marseille","lat":43.23151,"lon":5.43701,"is_reserved":false,"is_disabled":false,"rental_uris":{"android":"levelo://app?vid=85562e0c-6e65-40ec-82d1-2f4aa69e9a86","ios":"levelo://app?vid=85562e0c-6e65-40ec-82d1-2f4aa69e9a86"},"vehicle_type_id":"4","last_reported":1728904110,"current_range_meters":25600,"station_id":"ce4bhmp2rcd13ifvqgog","pricing_plan_id":"cebpf4jnsgd1na2vs0mg"},{"bike_id":"92a29d71-48b4-4930-9f60-84bf16af29a6","system_id":"levelo_inurba_marseille","lat":43.26027,"lon":5.37548,"is_reserved":false,"is_disabled":false,"rental_uris":{"android":"levelo://app?vid=92a29d71-48b4-4930-9f60-84bf16af29a6","ios":"levelo://app?vid=92a29d71-48b4-4930-9f60-84bf16af29a6"},"vehicle_type_id":"4","last_reported":1728904110,"current_range_meters":38000,"station_id":"ce4bhgh2rcd13ifvqfa0","pricing_plan_id":"cebpf4jnsgd1na2vs0mg"},{"bike_id":"e12fdd08-b894-4adf-a38f-f84561d81ecb","system_id":"levelo_inurba_marseille","lat":43.25488,"lon":5.37647,"is_reserved":false,"is_disabled":false,"rental_uris":{"android":"levelo://app?vid=e12fdd08-b894-4adf-a38f-f84561d81ecb","ios":"levelo://app?vid=e12fdd08-b894-4adf-a38f-f84561d81ecb"},"vehicle_type_id":"4","last_reported":1728904110,"current_range_meters":35600,"station_id":"ce4bhh12rcd13ifvqff0","pricing_plan_id":"cebpf4jnsgd1na2vs0mg"},{"bike_id":"b4b8986d-1cb5-4c70-b13d-9e2e4154bfac","system_id":"levelo_inurba_marseille","lat":43.28342,"lon":5.38097,"is_reserved":false,"is_disabled":false,"rental_uris":{"android":"levelo://app?vid=b4b8986d-1cb5-4c70-b13d-9e2e4154bfac","ios":"levelo://app?vid=b4b8986d-1cb5-4c70-b13d-9e2e4154bfac"},"vehicle_type_id":"4","last_reported":1728904110,"current_range_meters":38800,"station_id":"ce4bh412rcd13ifvqdr0","pricing_plan_id":"cebpf4jnsgd1na2vs0mg"},{"bike_id":"fff1b94f-1529-479d-84a1-1c0c949b8b28","system_id":"levelo_inurba_marseille","lat":43.30555,"lon":5.3654,"is_reserved":false,"is_disabled":false,"rental_uris":{"android":"levelo://app?vid=fff1b94f-1529-479d-84a1-1c0c949b8b28","ios":"levelo://app?vid=fff1b94f-1529-479d-84a1-1c0c949b8b28"},"vehicle_type_id":"4","last_reported":1728904110,"current_range_meters":38800,"station_id":"ce4bgs12rcd13ifvqcag","pricing_plan_id":"cebpf4jnsgd1na2vs0mg"},{"bike_id":"a467464a-3cf2-4a0d-b34d-eb155a9ba689","system_id":"levelo_inurba_marseille","lat":43.30538,"lon":5.36527,"is_reserved":false,"is_disabled":false,"rental_uris":{"android":"levelo://app?vid=a467464a-3cf2-4a0d-b34d-eb155a9ba689","ios":"levelo://app?vid=a467464a-3cf2-4a0d-b34d-eb155a9ba689"},"vehicle_type_id":"4","last_reported":1728904110,"current_range_meters":38800,"station_id":"ce4bgs12rcd13ifvqcag","pricing_plan_id":"cebpf4jnsgd1na2vs0mg"},{"bike_id":"4139540e-ba21-43f0-8151-5a98e8a5542f","system_id":"levelo_inurba_marseille","lat":43.29036,"lon":5.37569,"is_reserved":false,"is_disabled":false,"rental_uris":{"android":"levelo://app?vid=4139540e-ba21-43f0-8151-5a98e8a5542f","ios":"levelo://app?vid=4139540e-ba21-43f0-8151-5a98e8a5542f"},"vehicle_type_id":"4","last_reported":1728904110,"current_range_meters":28800,"station_id":"ce4bh692rcd13ifvqe90","pricing_plan_id":"cebpf4jnsgd1na2vs0mg"},{"bike_id":"620cbee8-c89a-4c1c-96e3-c5d8933cdf50","system_id":"levelo_inurba_marseille","lat":43.33743,"lon":5.37454,"is_reserved":false,"is_disabled":false,"rental_uris":{"android":"levelo://app?vid=620cbee8-c89a-4c1c-96e3-c5d8933cdf50","ios":"levelo://app?vid=620cbee8-c89a-4c1c-96e3-c5d8933cdf50"},"vehicle_type_id":"4","last_reported":1728904110,"current_range_meters":37600,"station_id":"","pricing_plan_id":"cebpf4jnsgd1na2vs0mg"},{"bike_id":"be71524c-c160-4a3c-bc47-54911860fe00","system_id":"levelo_inurba_marseille","lat":43.29579,"lon":5.36732,"is_reserved":false,"is_disabled":false,"rental_uris":{"android":"levelo://app?vid=be71524c-c160-4a3c-bc47-54911860fe00","ios":"levelo://app?vid=be71524c-c160-4a3c-bc47-54911860fe00"},"vehicle_type_id":"4","last_reported":1728904110,"current_range_meters":6800,"station_id":"ce4bgph2rcd13ifvqc2g","pricing_plan_id":"cebpf4jnsgd1na2vs0mg"},{"bike_id":"a08e7f55-109a-4cdc-8129-863736352a10","system_id":"levelo_inurba_marseille","lat":43.28032,"lon":5.36956,"is_reserved":false,"is_disabled":false,"rental_uris":{"android":"levelo://app?vid=a08e7f55-109a-4cdc-8129-863736352a10","ios":"levelo://app?vid=a08e7f55-109a-4cdc-8129-863736352a10"},"vehicle_type_id":"4","last_reported":1728904110,"current_range_meters":38800,"station_id":"ce4bha12rcd13ifvqef0","pricing_plan_id":"cebpf4jnsgd1na2vs0mg"},{"bike_id":"63ae7358-dbda-41fe-9fb5-790671004175","system_id":"levelo_inurba_marseille","lat":43.2693,"lon":5.3891,"is_reserved":false,"is_disabled":false,"rental_uris":{"android":"levelo://app?vid=63ae7358-dbda-41fe-9fb5-790671004175","ios":"levelo://app?vid=63ae7358-dbda-41fe-9fb5-790671004175"},"vehicle_type_id":"4","last_reported":1728904110,"current_range_meters":32400,"station_id":"ce4bhhh2rcd13ifvqfl0","pricing_plan_id":"cebpf4jnsgd1na2vs0mg"},{"bike_id":"863511eb-36e4-4567-89d1-e1f3149b3364","system_id":"levelo_inurba_marseille","lat":43.2655,"lon":5.37287,"is_reserved":false,"is_disabled":false,"rental_uris":{"android":"levelo://app?vid=863511eb-36e4-4567-89d1-e1f3149b3364","ios":"levelo://app?vid=863511eb-36e4-4567-89d1-e1f3149b3364"},"vehicle_type_id":"4","last_reported":1728904110,"current_range_meters":38000,"station_id":"ce4bhg12rcd13ifvqf70","pricing_plan_id":"cebpf4jnsgd1na2vs0mg"},{"bike_id":"2b673d26-bed8-4f51-bda3-68135456366b","system_id":"levelo_inurba_marseille","lat":43.30104,"lon":5.39074,"is_reserved":false,"is_disabled":false,"rental_uris":{"android":"levelo://app?vid=2b673d26-bed8-4f51-bda3-68135456366b","ios":"levelo://app?vid=2b673d26-bed8-4f51-bda3-68135456366b"},"vehicle_type_id":"4","last_reported":1728904110,"current_range_meters":20800,"station_id":"ce4bh192rcd13ifvqdb0","pricing_plan_id":"cebpf4jnsgd1na2vs0mg"},{"bike_id":"4677b78e-9629-4da7-a448-0a6f0febcb1d","system_id":"levelo_inurba_marseille","lat":43.25002,"lon":5.38923,"is_reserved":false,"is_disabled":false,"rental_uris":{"android":"levelo://app?vid=4677b78e-9629-4da7-a448-0a6f0febcb1d","ios":"levelo://app?vid=4677b78e-9629-4da7-a448-0a6f0febcb1d"},"vehicle_type_id":"4","last_reported":1728904110,"current_range_meters":40000,"station_id":"ce4bhgp2rcd13ifvqfd0","pricing_plan_id":"cebpf4jnsgd1na2vs0mg"},{"bike_id":"d89dd1c0-ea63-4649-ac9f-e928d44fe51c","system_id":"levelo_inurba_marseille","lat":43.30589,"lon":5.39352,"is_reserved":false,"is_disabled":false,"rental_uris":{"android":"levelo://app?vid=d89dd1c0-ea63-4649-ac9f-e928d44fe51c","ios":"levelo://app?vid=d89dd1c0-ea63-4649-ac9f-e928d44fe51c"},"vehicle_type_id":"4","last_reported":1728904110,"current_range_meters":38800,"station_id":"ce4bh0p2rcd13ifvqd80","pricing_plan_id":"cebpf4jnsgd1na2vs0mg"},{"bike_id":"f10b7889-9551-4c91-a77d-06558790d9f3","system_id":"levelo_inurba_marseille","lat":43.29529,"lon":5.38543,"is_reserved":false,"is_disabled":false,"rental_uris":{"android":"levelo://app?vid=f10b7889-9551-4c91-a77d-06558790d9f3","ios":"levelo://app?vid=f10b7889-9551-4c91-a77d-06558790d9f3"},"vehicle_type_id":"4","last_reported":1728904110,"current_range_meters":16800,"station_id":"ce4bgih2rcd13ifvqba0","pricing_plan_id":"cebpf4jnsgd1na2vs0mg"},{"bike_id":"519c32cb-8940-418c-8e74-b3ffe2174797","system_id":"levelo_inurba_marseille","lat":43.24388,"lon":5.37052,"is_reserved":false,"is_disabled":false,"rental_uris":{"android":"levelo://app?vid=519c32cb-8940-418c-8e74-b3ffe2174797","ios":"levelo://app?vid=519c32cb-8940-418c-8e74-b3ffe2174797"},"vehicle_type_id":"4","last_reported":1728904110,"current_range_meters":38800,"station_id":"ce4bhhh2rcd13ifvqfk0","pricing_plan_id":"cebpf4jnsgd1na2vs0mg"},{"bike_id":"5bd7ef04-ea8a-45be-9fde-cb0c32839683","system_id":"levelo_inurba_marseille","lat":43.24651,"lon":5.38896,"is_reserved":false,"is_disabled":false,"rental_uris":{"android":"levelo://app?vid=5bd7ef04-ea8a-45be-9fde-cb0c32839683","ios":"levelo://app?vid=5bd7ef04-ea8a-45be-9fde-cb0c32839683"},"vehicle_type_id":"4","last_reported":1728904110,"current_range_meters":30000,"station_id":"ce4bhg12rcd13ifvqf60","pricing_plan_id":"cebpf4jnsgd1na2vs0mg"},{"bike_id":"40c9c677-9817-462d-96a8-85ae963c99c0","system_id":"levelo_inurba_marseille","lat":43.30601,"lon":5.39372,"is_reserved":false,"is_disabled":false,"rental_uris":{"android":"levelo://app?vid=40c9c677-9817-462d-96a8-85ae963c99c0","ios":"levelo://app?vid=40c9c677-9817-462d-96a8-85ae963c99c0"},"vehicle_type_id":"4","last_reported":1728904110,"current_range_meters":8000,"station_id":"ce4bh0p2rcd13ifvqd80","pricing_plan_id":"cebpf4jnsgd1na2vs0mg"},{"bike_id":"07dba4ee-40a5-4f14-9e5f-1c35d64b865c","system_id":"levelo_inurba_marseille","lat":43.30353,"lon":5.41881,"is_reserved":false,"is_disabled":false,"rental_uris":{"android":"levelo://app?vid=07dba4ee-40a5-4f14-9e5f-1c35d64b865c","ios":"levelo://app?vid=07dba4ee-40a5-4f14-9e5f-1c35d64b865c"},"vehicle_type_id":"4","last_reported":1728904110,"current_range_meters":22400,"station_id":"ce4bhop2rcd13ifvqh7g","pricing_plan_id":"cebpf4jnsgd1na2vs0mg"},{"bike_id":"84b0f6bd-e05d-4957-9ce0-eefb1b5fb5d2","system_id":"levelo_inurba_marseille","lat":43.25833,"lon":5.39431,"is_reserved":false,"is_disabled":false,"rental_uris":{"android":"levelo://app?vid=84b0f6bd-e05d-4957-9ce0-eefb1b5fb5d2","ios":"levelo://app?vid=84b0f6bd-e05d-4957-9ce0-eefb1b5fb5d2"},"vehicle_type_id":"4","last_reported":1728904110,"current_range_meters":36800,"station_id":"ce4bhip2rcd13ifvqft0","pricing_plan_id":"cebpf4jnsgd1na2vs0mg"},{"bike_id":"0cc79c14-2714-4b9f-ab7a-1836965cf5c3","system_id":"levelo_inurba_marseille","lat":43.23194,"lon":5.35554,"is_reserved":false,"is_disabled":false,"rental_uris":{"android":"levelo://app?vid=0cc79c14-2714-4b9f-ab7a-1836965cf5c3","ios":"levelo://app?vid=0cc79c14-2714-4b9f-ab7a-1836965cf5c3"},"vehicle_type_id":"4","last_reported":1728904110,"current_range_meters":37600,"station_id":"ce4bhu92rcd13ifvqi70","pricing_plan_id":"cebpf4jnsgd1na2vs0mg"},{"bike_id":"956f6570-6f77-45ce-ba87-1d670b2599ea","system_id":"levelo_inurba_marseille","lat":43.29615,"lon":5.37723,"is_reserved":false,"is_disabled":false,"rental_uris":{"android":"levelo://app?vid=956f6570-6f77-45ce-ba87-1d670b2599ea","ios":"levelo://app?vid=956f6570-6f77-45ce-ba87-1d670b2599ea"},"vehicle_type_id":"4","last_reported":1728904110,"current_range_meters":38800,"station_id":"ce4bgi92rcd13ifvqb90","pricing_plan_id":"cebpf4jnsgd1na2vs0mg"},{"bike_id":"2e2eb544-597d-43c7-80e3-f49f74279469","system_id":"levelo_inurba_marseille","lat":43.32484,"lon":5.36561,"is_reserved":false,"is_disabled":false,"rental_uris":{"android":"levelo://app?vid=2e2eb544-597d-43c7-80e3-f49f74279469","ios":"levelo://app?vid=2e2eb544-597d-43c7-80e3-f49f74279469"},"vehicle_type_id":"4","last_reported":1728904110,"current_range_meters":39200,"station_id":"ce4bhs12rcd13ifvqhvg","pricing_plan_id":"cebpf4jnsgd1na2vs0mg"},{"bike_id":"462178b4-dd42-4bf6-9bd3-3aa60aa35a9b","system_id":"levelo_inurba_marseille","lat":43.26202,"lon":5.37928,"is_reserved":false,"is_disabled":false,"rental_uris":{"android":"levelo://app?vid=462178b4-dd42-4bf6-9bd3-3aa60aa35a9b","ios":"levelo://app?vid=462178b4-dd42-4bf6-9bd3-3aa60aa35a9b"},"vehicle_type_id":"4","last_reported":1728904110,"current_range_meters":38000,"station_id":"ce4bhjp2rcd13ifvqg90","pricing_plan_id":"cebpf4jnsgd1na2vs0mg"},{"bike_id":"84eaf695-30fc-4c35-b763-f0876c3c0dc3","system_id":"levelo_inurba_marseille","lat":43.30305,"lon":5.39221,"is_reserved":false,"is_disabled":false,"rental_uris":{"android":"levelo://app?vid=84eaf695-30fc-4c35-b763-f0876c3c0dc3","ios":"levelo://app?vid=84eaf695-30fc-4c35-b763-f0876c3c0dc3"},"vehicle_type_id":"4","last_reported":1728904110,"current_range_meters":36400,"station_id":"ce4bgkh2rcd13ifvqbk0","pricing_plan_id":"cebpf4jnsgd1na2vs0mg"},{"bike_id":"e282bd8d-433a-4fae-90d8-d7904fb90ba6","system_id":"levelo_inurba_marseille","lat":43.290009,"lon":5.398861,"is_reserved":false,"is_disabled":false,"rental_uris":{"android":"levelo://app?vid=e282bd8d-433a-4fae-90d8-d7904fb90ba6","ios":"levelo://app?vid=e282bd8d-433a-4fae-90d8-d7904fb90ba6"},"vehicle_type_id":"4","last_reported":1728904110,"current_range_meters":28400,"station_id":"ce4bh392rcd13ifvqdm0","pricing_plan_id":"cebpf4jnsgd1na2vs0mg"},{"bike_id":"050670eb-673b-4c90-860e-a3a18a5c2072","system_id":"levelo_inurba_marseille","lat":43.2992,"lon":5.37465,"is_reserved":false,"is_disabled":false,"rental_uris":{"android":"levelo://app?vid=050670eb-673b-4c90-860e-a3a18a5c2072","ios":"levelo://app?vid=050670eb-673b-4c90-860e-a3a18a5c2072"},"vehicle_type_id":"4","last_reported":1728904110,"current_range_meters":39200,"station_id":"ce4bgjh2rcd13ifvqbg0","pricing_plan_id":"cebpf4jnsgd1na2vs0mg"},{"bike_id":"1df9c010-d1d2-48e5-9d21-dffb4ea4079f","system_id":"levelo_inurba_marseille","lat":43.30591,"lon":5.39356,"is_reserved":false,"is_disabled":false,"rental_uris":{"android":"levelo://app?vid=1df9c010-d1d2-48e5-9d21-dffb4ea4079f","ios":"levelo://app?vid=1df9c010-d1d2-48e5-9d21-dffb4ea4079f"},"vehicle_type_id":"4","last_reported":1728904110,"current_range_meters":9600,"station_id":"ce4bh0p2rcd13ifvqd80","pricing_plan_id":"cebpf4jnsgd1na2vs0mg"},{"bike_id":"15f2a272-313b-4ce7-9724-0f235ef9481a","system_id":"levelo_inurba_marseille","lat":43.29627,"lon":5.37162,"is_reserved":false,"is_disabled":false,"rental_uris":{"android":"levelo://app?vid=15f2a272-313b-4ce7-9724-0f235ef9481a","ios":"levelo://app?vid=15f2a272-313b-4ce7-9724-0f235ef9481a"},"vehicle_type_id":"4","last_reported":1728904110,"current_range_meters":36800,"station_id":"ce4bgnh2rcd13ifvqc0g","pricing_plan_id":"cebpf4jnsgd1na2vs0mg"},{"bike_id":"434918c0-1748-4eda-865e-05a517db1508","system_id":"levelo_inurba_marseille","lat":43.30546,"lon":5.38429,"is_reserved":false,"is_disabled":false,"rental_uris":{"android":"levelo://app?vid=434918c0-1748-4eda-865e-05a517db1508","ios":"levelo://app?vid=434918c0-1748-4eda-865e-05a517db1508"},"vehicle_type_id":"4","last_reported":1728904110,"current_range_meters":16400,"station_id":"ce4bgg92rcd13ifvqb30","pricing_plan_id":"cebpf4jnsgd1na2vs0mg"},{"bike_id":"1499fb12-bb1b-44f9-a413-61dbe127cb36","system_id":"levelo_inurba_marseille","lat":43.28944,"lon":5.36638,"is_reserved":false,"is_disabled":false,"rental_uris":{"android":"levelo://app?vid=1499fb12-bb1b-44f9-a413-61dbe127cb36","ios":"levelo://app?vid=1499fb12-bb1b-44f9-a413-61dbe127cb36"},"vehicle_type_id":"4","last_reported":1728904110,"current_range_meters":27600,"station_id":"ce4bhap2rcd13ifvqek0","pricing_plan_id":"cebpf4jnsgd1na2vs0mg"},{"bike_id":"8da24e57-c682-4b67-a0e2-05126be3666e","system_id":"levelo_inurba_marseille","lat":43.23955,"lon":5.36639,"is_reserved":false,"is_disabled":false,"rental_uris":{"android":"levelo://app?vid=8da24e57-c682-4b67-a0e2-05126be3666e","ios":"levelo://app?vid=8da24e57-c682-4b67-a0e2-05126be3666e"},"vehicle_type_id":"4","last_reported":1728904110,"current_range_meters":30000,"station_id":"ce4bhi12rcd13ifvqfp0","pricing_plan_id":"cebpf4jnsgd1na2vs0mg"},{"bike_id":"8992bca7-a9a3-45c1-ad15-5aaf3710211b","system_id":"levelo_inurba_marseille","lat":43.30957,"lon":5.39039,"is_reserved":false,"is_disabled":false,"rental_uris":{"android":"levelo://app?vid=8992bca7-a9a3-45c1-ad15-5aaf3710211b","ios":"levelo://app?vid=8992bca7-a9a3-45c1-ad15-5aaf3710211b"},"vehicle_type_id":"4","last_reported":1728904110,"current_range_meters":32000,"station_id":"ce4bgup2rcd13ifvqco0","pricing_plan_id":"cebpf4jnsgd1na2vs0mg"},{"bike_id":"fdbf6aae-7eee-4330-8a46-6be6fff9b643","system_id":"levelo_inurba_marseille","lat":43.25929,"lon":5.40906,"is_reserved":false,"is_disabled":false,"rental_uris":{"android":"levelo://app?vid=fdbf6aae-7eee-4330-8a46-6be6fff9b643","ios":"levelo://app?vid=fdbf6aae-7eee-4330-8a46-6be6fff9b643"},"vehicle_type_id":"4","last_reported":1728904110,"current_range_meters":28000,"station_id":"ce4bhm92rcd13ifvqglg","pricing_plan_id":"cebpf4jnsgd1na2vs0mg"},{"bike_id":"fa20b585-9b04-4e8f-8584-75d88cdbe381","system_id":"levelo_inurba_marseille","lat":43.30527,"lon":5.3671,"is_reserved":false,"is_disabled":false,"rental_uris":{"android":"levelo://app?vid=fa20b585-9b04-4e8f-8584-75d88cdbe381","ios":"levelo://app?vid=fa20b585-9b04-4e8f-8584-75d88cdbe381"},"vehicle_type_id":"4","last_reported":1728904110,"current_range_meters":35600,"station_id":"ce4bgrp2rcd13ifvqc9g","pricing_plan_id":"cebpf4jnsgd1na2vs0mg"},{"bike_id":"02d4e5e8-ea78-4a89-bcc2-387afb0615ff","system_id":"levelo_inurba_marseille","lat":43.30296,"lon":5.39211,"is_reserved":false,"is_disabled":false,"rental_uris":{"android":"levelo://app?vid=02d4e5e8-ea78-4a89-bcc2-387afb0615ff","ios":"levelo://app?vid=02d4e5e8-ea78-4a89-bcc2-387afb0615ff"},"vehicle_type_id":"4","last_reported":1728904110,"current_range_meters":32000,"station_id":"ce4bgkh2rcd13ifvqbk0","pricing_plan_id":"cebpf4jnsgd1na2vs0mg"},{"bike_id":"7e512396-4889-4e33-818e-8b1dad755e9f","system_id":"levelo_inurba_marseille","lat":43.29964,"lon":5.38497,"is_reserved":false,"is_disabled":false,"rental_uris":{"android":"levelo://app?vid=7e512396-4889-4e33-818e-8b1dad755e9f","ios":"levelo://app?vid=7e512396-4889-4e33-818e-8b1dad755e9f"},"vehicle_type_id":"4","last_reported":1728904110,"current_range_meters":36400,"station_id":"ce4bgj92rcd13ifvqbd0","pricing_plan_id":"cebpf4jnsgd1na2vs0mg"},{"bike_id":"de1ffdef-e558-481e-ad67-db2acd906b38","system_id":"levelo_inurba_marseille","lat":43.30096,"lon":5.39071,"is_reserved":false,"is_disabled":false,"rental_uris":{"android":"levelo://app?vid=de1ffdef-e558-481e-ad67-db2acd906b38","ios":"levelo://app?vid=de1ffdef-e558-481e-ad67-db2acd906b38"},"vehicle_type_id":"4","last_reported":1728904110,"current_range_meters":26000,"station_id":"ce4bh192rcd13ifvqdb0","pricing_plan_id":"cebpf4jnsgd1na2vs0mg"},{"bike_id":"152aa3c1-a458-470c-81da-2a0d5cfe02d8","system_id":"levelo_inurba_marseille","lat":43.29622,"lon":5.37723,"is_reserved":false,"is_disabled":false,"rental_uris":{"android":"levelo://app?vid=152aa3c1-a458-470c-81da-2a0d5cfe02d8","ios":"levelo://app?vid=152aa3c1-a458-470c-81da-2a0d5cfe02d8"},"vehicle_type_id":"4","last_reported":1728904110,"current_range_meters":38800,"station_id":"ce4bgi92rcd13ifvqb90","pricing_plan_id":"cebpf4jnsgd1na2vs0mg"},{"bike_id":"1b498f95-9af9-425b-9874-8ca3e4b26de1","system_id":"levelo_inurba_marseille","lat":43.23061,"lon":5.3549,"is_reserved":false,"is_disabled":false,"rental_uris":{"android":"levelo://app?vid=1b498f95-9af9-425b-9874-8ca3e4b26de1","ios":"levelo://app?vid=1b498f95-9af9-425b-9874-8ca3e4b26de1"},"vehicle_type_id":"4","last_reported":1728904110,"current_range_meters":36800,"station_id":"cpo3342slgdg3j2ifvpg","pricing_plan_id":"cebpf4jnsgd1na2vs0mg"},{"bike_id":"72f9c9e2-3c89-42c8-8368-0011826f6ca4","system_id":"levelo_inurba_marseille","lat":43.29528,"lon":5.37498,"is_reserved":false,"is_disabled":false,"rental_uris":{"android":"levelo://app?vid=72f9c9e2-3c89-42c8-8368-0011826f6ca4","ios":"levelo://app?vid=72f9c9e2-3c89-42c8-8368-0011826f6ca4"},"vehicle_type_id":"4","last_reported":1728904110,"current_range_meters":26000,"station_id":"ce4bgr92rcd13ifvqc7g","pricing_plan_id":"cebpf4jnsgd1na2vs0mg"},{"bike_id":"606f2d26-8979-42fb-bd40-7a4213233cae","system_id":"levelo_inurba_marseille","lat":43.32484,"lon":5.36562,"is_reserved":false,"is_disabled":false,"rental_uris":{"android":"levelo://app?vid=606f2d26-8979-42fb-bd40-7a4213233cae","ios":"levelo://app?vid=606f2d26-8979-42fb-bd40-7a4213233cae"},"vehicle_type_id":"4","last_reported":1728904110,"current_range_meters":28800,"station_id":"ce4bhs12rcd13ifvqhvg","pricing_plan_id":"cebpf4jnsgd1na2vs0mg"},{"bike_id":"da2f5ffc-0814-4c85-93d6-c39d67177797","system_id":"levelo_inurba_marseille","lat":43.25932,"lon":5.40913,"is_reserved":false,"is_disabled":false,"rental_uris":{"android":"levelo://app?vid=da2f5ffc-0814-4c85-93d6-c39d67177797","ios":"levelo://app?vid=da2f5ffc-0814-4c85-93d6-c39d67177797"},"vehicle_type_id":"4","last_reported":1728904110,"current_range_meters":38800,"station_id":"ce4bhm92rcd13ifvqglg","pricing_plan_id":"cebpf4jnsgd1na2vs0mg"},{"bike_id":"b7a368a6-b222-482f-ad97-ff67603a8768","system_id":"levelo_inurba_marseille","lat":43.33753,"lon":5.37458,"is_reserved":false,"is_disabled":false,"rental_uris":{"android":"levelo://app?vid=b7a368a6-b222-482f-ad97-ff67603a8768","ios":"levelo://app?vid=b7a368a6-b222-482f-ad97-ff67603a8768"},"vehicle_type_id":"4","last_reported":1728904110,"current_range_meters":14400,"station_id":"","pricing_plan_id":"cebpf4jnsgd1na2vs0mg"},{"bike_id":"3c9d18b4-99e8-4f8b-8cbb-380dfecbe4e7","system_id":"levelo_inurba_marseille","lat":43.28469,"lon":5.38408,"is_reserved":false,"is_disabled":false,"rental_uris":{"android":"levelo://app?vid=3c9d18b4-99e8-4f8b-8cbb-380dfecbe4e7","ios":"levelo://app?vid=3c9d18b4-99e8-4f8b-8cbb-380dfecbe4e7"},"vehicle_type_id":"4","last_reported":1728904110,"current_range_meters":7200,"station_id":"ce4bh512rcd13ifvqe3g","pricing_plan_id":"cebpf4jnsgd1na2vs0mg"},