{"last_updated":1739862559,"ttl":60,"version":"2.2","data":{"bikes":[{"bike_id":"a4413d93-aceb-47df-9edf-870ce631380e","system_id":"levelo_inurba_marseille","lat":43.24398,"lon":5.37066,"is_reserved":false,"is_disabled":true,"rental_uris":{"android":"levelo://app?vid=a4413d93-aceb-47df-9edf-870ce631380e","ios":"levelo://app?vid=a4413d93-aceb-47df-9edf-870ce631380e"},"vehicle_type_id":"4","last_reported":1739862560,"current_range_meters":3200,"station_id":"ce4bhhh2rcd13ifvqfk0","pricing_plan_id":"cebpf4jnsgd1na2vs0mg"},{"bike_id":"7119608b-2862-4402-8f59-c43fbf7e9dba","system_id":"levelo_inurba_marseille","lat":43.2883,"lon":5.35837,"is_reserved":false,"is_disabled":true,"rental_uris":{"android":"levelo://app?vid=7119608b-2862-4402-8f59-c43fbf7e9dba","ios":"levelo://app?vid=7119608b-2862-4402-8f59-c43fbf7e9dba"},"vehicle_type_id":"4","last_reported":1739862560,"current_range_meters":3200,"station_id":"ce4bhb12rcd13ifvqem0","pricing_plan_id":"cebpf4jnsgd1na2vs0mg"},{"bike_id":"1d6f5a5a-bf78-4d12-91e4-6dc8a2b7ed98","system_id":"levelo_inurba_marseille","lat":43.27495,"lon":5.42459,"is_reserved":false,"is_disabled":true,"rental_uris":{"android":"levelo://app?vid=1d6f5a5a-bf78-4d12-91e4-6dc8a2b7ed98","ios":"levelo://app?vid=1d6f5a5a-bf78-4d12-91e4-6dc8a2b7ed98"},"vehicle_type_id":"4","last_reported":1739862560,"current_range_meters":3200,"station_id":"ce4bhn92rcd13ifvqgrg","pricing_plan_id":"cebpf4jnsgd1na2vs0mg"},{"bike_id":"b5d51719-c1bb-48d2-8389-d66332973310","system_id":"levelo_inurba_marseille","lat":43.23963,"lon":5.3661,"is_reserved":false,"is_disabled":true,"rental_uris":{"android":"levelo://app?vid=b5d51719-c1bb-48d2-8389-d66332973310","ios":"levelo://app?vid=b5d51719-c1bb-48d2-8389-d66332973310"},"vehicle_type_id":"4","last_reported":1739862560,"current_range_meters":3600,"station_id":"ce4bhi12rcd13ifvqfp0","pricing_plan_id":"cebpf4jnsgd1na2vs0mg"},{"bike_id":"c2e75494-fb9f-4290-94d2-f06158e70ae6","system_id":"levelo_inurba_marseille","lat":43.27678,"lon":5.42454,"is_reserved":false,"is_disabled":false,"rental_uris":{"android":"levelo://app?vid=c2e75494-fb9f-4290-94d2-f06158e70ae6","ios":"levelo://app?vid=c2e75494-fb9f-4290-94d2-f06158e70ae6"},"vehicle_type_id":"4","last_reported":1739862560,"current_range_meters":3600,"station_id":"","pricing_plan_id":"cebpf4jnsgd1na2vs0mg"},{"bike_id":"3c3964f2-b9ed-4eb2-8b3d-aacd153bbab4","system_id":"levelo_inurba_marseille","lat":43.2803,"lon":5.36945,"is_reserved":false,"is_disabled":false,"rental_uris":{"android":"levelo://app?vid=3c3964f2-b9ed-4eb2-8b3d-aacd153bbab4","ios":"levelo://app?vid=3c3964f2-b9ed-4eb2-8b3d-aacd153bbab4"},"vehicle_type_id":"4","last_reported":1739862560,"current_range_meters":3600,"station_id":"ce4bha12rcd13ifvqef0","pricing_plan_id":"cebpf4jnsgd1na2vs0mg"},{"bike_id":"96a96649-77a9-44c4-824f-d3e92f79f91f","system_id":"levelo_inurba_marseille","lat":43.23945,"lon":5.36656,"is_reserved":false,"is_disabled":false,"rental_uris":{"android":"levelo://app?vid=96a96649-77a9-44c4-824f-d3e92f79f91f","ios":"levelo://app?vid=96a96649-77a9-44c4-824f-d3e92f79f91f"},"vehicle_type_id":"4","last_reported":1739862560,"current_range_meters":3600,"station_id":"ce4bhi12rcd13ifvqfp0","pricing_plan_id":"cebpf4jnsgd1na2vs0mg"},{"bike_id":"df9dedb8-f5ab-4566-8d99-1a0c8d86564e","system_id":"levelo_inurba_marseille","lat":43.25109,"lon":5.40328,"is_reserved":false,"is_disabled":false,"rental_uris":{"android":"levelo://app?vid=df9dedb8-f5ab-4566-8d99-1a0c8d86564e","ios":"levelo://app?vid=df9dedb8-f5ab-4566-8d99-1a0c8d86564e"},"vehicle_type_id":"4","last_reported":1739862560,"current_range_meters":3600,"station_id":"ce4bhlh2rcd13ifvqgig","pricing_plan_id":"cebpf4jnsgd1na2vs0mg"},{"bike_id":"7b326fa5-c792-4cff-b36c-76e8397f4934","system_id":"levelo_inurba_marseille","lat":43.284393,"lon":5.391893,"is_reserved":false,"is_disabled":false,"rental_uris":{"android":"levelo://app?vid=7b326fa5-c792-4cff-b36c-76e8397f4934","ios":"levelo://app?vid=7b326fa5-c792-4cff-b36c-76e8397f4934"},"vehicle_type_id":"4","last_reported":1739862560,"current_range_meters":4000,"station_id":"ce4bhoh2rcd13ifvqh5g","pricing_plan_id":"cebpf4jnsgd1na2vs0mg"},{"bike_id":"c4916927-7d10-4eb6-bf80-df6fa900d439","system_id":"levelo_inurba_marseille","lat":43.29554,"lon":5.42302,"is_reserved":false,"is_disabled":true,"rental_uris":{"android":"levelo://app?vid=c4916927-7d10-4eb6-bf80-df6fa900d439","ios":"levelo://app?vid=c4916927-7d10-4eb6-bf80-df6fa900d439"},"vehicle_type_id":"4","last_reported":1739862560,"current_range_meters":4000,"station_id":"ce4bhph2rcd13ifvqhdg","pricing_plan_id":"cebpf4jnsgd1na2vs0mg"},{"bike_id":"2af45b9a-8c0d-4f01-a654-0c80764127bf","system_id":"levelo_inurba_marseille","lat":43.28723,"lon":5.36103,"is_reserved":false,"is_disabled":true,"rental_uris":{"android":"levelo://app?vid=2af45b9a-8c0d-4f01-a654-0c80764127bf","ios":"levelo://app?vid=2af45b9a-8c0d-4f01-a654-0c80764127bf"},"vehicle_type_id":"4","last_reported":1739862560,"current_range_meters":4000,"station_id":"cki0cbj6b192h4jlfktg","pricing_plan_id":"cebpf4jnsgd1na2vs0mg"},{"bike_id":"1ccb8148-d5a9-45e8-a79b-603264947ba2","system_id":"levelo_inurba_marseille","lat":43.22943,"lon":5.35386,"is_reserved":false,"is_disabled":false,"rental_uris":{"android":"levelo://app?vid=1ccb8148-d5a9-45e8-a79b-603264947ba2","ios":"levelo://app?vid=1ccb8148-d5a9-45e8-a79b-603264947ba2"},"vehicle_type_id":"4","last_reported":1739862560,"current_range_meters":4000,"station_id":"cpo3532slgdg3j2ikp40","pricing_plan_id":"cebpf4jnsgd1na2vs0mg"},{"bike_id":"ce61429a-686f-445d-80d9-4b10876ed4ef","system_id":"levelo_inurba_marseille","lat":43.337444,"lon":5.374475,"is_reserved":false,"is_disabled":true,"rental_uris":{"android":"levelo://app?vid=ce61429a-686f-445d-80d9-4b10876ed4ef","ios":"levelo://app?vid=ce61429a-686f-445d-80d9-4b10876ed4ef"},"vehicle_type_id":"4","last_reported":1739862560,"current_range_meters":4000,"station_id":"","pricing_plan_id":"cebpf4jnsgd1na2vs0mg"},{"bike_id":"f206266f-bb9f-443a-8521-7cc97a6d54b8","system_id":"levelo_inurba_marseille","lat":43.32718,"lon":5.39257,"is_reserved":false,"is_disabled":false,"rental_uris":{"android":"levelo://app?vid=f206266f-bb9f-443a-8521-7cc97a6d54b8","ios":"levelo://app?vid=f206266f-bb9f-443a-8521-7cc97a6d54b8"},"vehicle_type_id":"4","last_reported":1739862560,"current_range_meters":4000,"station_id":"","pricing_plan_id":"cebpf4jnsgd1na2vs0mg"},{"bike_id":"8c75056a-7815-4dc4-bac4-c86fcaddfb3c","system_id":"levelo_inurba_marseille","lat":43.24801,"lon":5.37451,"is_reserved":false,"is_disabled":false,"rental_uris":{"android":"levelo://app?vid=8c75056a-7815-4dc4-bac4-c86fcaddfb3c","ios":"levelo://app?vid=8c75056a-7815-4dc4-bac4-c86fcaddfb3c"},"vehicle_type_id":"4","last_reported":1739862560,"current_range_meters":4000,"station_id":"ce4bhgh2rcd13ifvqfb0","pricing_plan_id":"cebpf4jnsgd1na2vs0mg"},{"bike_id":"926e1642-8b0d-4269-911f-e7668b60f23d","system_id":"levelo_inurba_marseille","lat":43.24803,"lon":5.3746,"is_reserved":false,"is_disabled":false,"rental_uris":{"android":"levelo://app?vid=926e1642-8b0d-4269-911f-e7668b60f23d","ios":"levelo://app?vid=926e1642-8b0d-4269-911f-e7668b60f23d"},"vehicle_type_id":"4","last_reported":1739862560,"current_range_meters":4000,"station_id":"","pricing_plan_id":"cebpf4jnsgd1na2vs0mg"},{"bike_id":"3a9a968d-dcc9-4ffb-90af-aadcb8469a1d","system_id":"levelo_inurba_marseille","lat":43.32239,"lon":5.39426,"is_reserved":false,"is_disabled":false,"rental_uris":{"android":"levelo://app?vid=3a9a968d-dcc9-4ffb-90af-aadcb8469a1d","ios":"levelo://app?vid=3a9a968d-dcc9-4ffb-90af-aadcb8469a1d"},"vehicle_type_id":"4","last_reported":1739862560,"current_range_meters":4400,"station_id":"","pricing_plan_id":"cebpf4jnsgd1na2vs0mg"},{"bike_id":"54252a7c-5653-43b2-b4f1-43722b1aa404","system_id":"levelo_inurba_marseille","lat":43.25663,"lon":5.38288,"is_reserved":false,"is_disabled":false,"rental_uris":{"android":"levelo://app?vid=54252a7c-5653-43b2-b4f1-43722b1aa404","ios":"levelo://app?vid=54252a7c-5653-43b2-b4f1-43722b1aa404"},"vehicle_type_id":"4","last_reported":1739862560,"current_range_meters":4400,"station_id":"","pricing_plan_id":"cebpf4jnsgd1na2vs0mg"},{"bike_id":"e2a40e08-4a05-4254-862b-b58cc14c7904","system_id":"levelo_inurba_marseille","lat":43.25096,"lon":5.39529,"is_reserved":false,"is_disabled":false,"rental_uris":{"android":"levelo://app?vid=e2a40e08-4a05-4254-862b-b58cc14c7904","ios":"levelo://app?vid=e2a40e08-4a05-4254-862b-b58cc14c7904"},"vehicle_type_id":"4","last_reported":1739862560,"current_range_meters":4800,"station_id":"ce4bhm12rcd13ifvqgkg","pricing_plan_id":"cebpf4jnsgd1na2vs0mg"},{"bike_id":"e3e60047-027b-4835-93b0-46e55ea8dabb","system_id":"levelo_inurba_marseille","lat":43.290352,"lon":5.39975,"is_reserved":false,"is_disabled":false,"rental_uris":{"android":"levelo://app?vid=e3e60047-027b-4835-93b0-46e55ea8dabb","ios":"levelo://app?vid=e3e60047-027b-4835-93b0-46e55ea8dabb"},"vehicle_type_id":"4","last_reported":1739862560,"current_range_meters":4800,"station_id":"","pricing_plan_id":"cebpf4jnsgd1na2vs0mg"},{"bike_id":"87391072-fcac-4aa4-a59a-70f85ae50cbe","system_id":"levelo_inurba_marseille","lat":43.24544,"lon":5.39524,"is_reserved":false,"is_disabled":false,"rental_uris":{"android":"levelo://app?vid=87391072-fcac-4aa4-a59a-70f85ae50cbe","ios":"levelo://app?vid=87391072-fcac-4aa4-a59a-70f85ae50cbe"},"vehicle_type_id":"4","last_reported":1739862560,"current_range_meters":4800,"station_id":"ce4bhlp2rcd13ifvqgjg","pricing_plan_id":"cebpf4jnsgd1na2vs0mg"},{"bike_id":"019a5c25-ca06-4329-8d04-0fd2f5d25e08","system_id":"levelo_inurba_marseille","lat":43.27566,"lon":5.3842,"is_reserved":false,"is_disabled":false,"rental_uris":{"android":"levelo://app?vid=019a5c25-ca06-4329-8d04-0fd2f5d25e08","ios":"levelo://app?vid=019a5c25-ca06-4329-8d04-0fd2f5d25e08"},"vehicle_type_id":"4","last_reported":1739862560,"current_range_meters":5600,"station_id":"ce4bhh92rcd13ifvqfi0","pricing_plan_id":"cebpf4jnsgd1na2vs0mg"},{"bike_id":"a354ac98-3d70-4a60-818c-edf6e4fa7a56","system_id":"levelo_inurba_marseille","lat":43.33541,"lon":5.37466,"is_reserved":false,"is_disabled":false,"rental_uris":{"android":"levelo://app?vid=a354ac98-3d70-4a60-818c-edf6e4fa7a56","ios":"levelo://app?vid=a354ac98-3d70-4a60-818c-edf6e4fa7a56"},"vehicle_type_id":"4","last_reported":1739862560,"current_range_meters":6000,"station_id":"","pricing_plan_id":"cebpf4jnsgd1na2vs0mg"},{"bike_id":"07fcfbbd-fc40-4726-bcce-bbc10c3cde69","system_id":"levelo_inurba_marseille","lat":43.28098,"lon":5.37853,"is_reserved":false,"is_disabled":false,"rental_uris":{"android":"levelo://app?vid=07fcfbbd-fc40-4726-bcce-bbc10c3cde69","ios":"levelo://app?vid=07fcfbbd-fc40-4726-bcce-bbc10c3cde69"},"vehicle_type_id":"4","last_reported":1739862560,"current_range_meters":6000,"station_id":"ce4bha12rcd13ifvqee0","pricing_plan_id":"cebpf4jnsgd1na2vs0mg"},{"bike_id":"612d8e3d-935f-44b6-8335-49ca798f30ac","system_id":"levelo_inurba_marseille","lat":43.29273,"lon":5.40129,"is_reserved":false,"is_disabled":false,"rental_uris":{"android":"levelo://app?vid=612d8e3d-935f-44b6-8335-49ca798f30ac","ios":"levelo://app?vid=612d8e3d-935f-44b6-8335-49ca798f30ac"},"vehicle_type_id":"4","last_reported":1739862560,"current_range_meters":6000,"station_id":"","pricing_plan_id":"cebpf4jnsgd1na2vs0mg"},{"bike_id":"2145d439-94b9-4fd4-b3b6-9f436a3f9e6f","system_id":"levelo_inurba_marseille","lat":43.3023,"lon":5.40022,"is_reserved":false,"is_disabled":false,"rental_uris":{"android":"levelo://app?vid=2145d439-94b9-4fd4-b3b6-9f436a3f9e6f","ios":"levelo://app?vid=2145d439-94b9-4fd4-b3b6-9f436a3f9e6f"},"vehicle_type_id":"4","last_reported":1739862560,"current_range_meters":6000,"station_id":"","pricing_plan_id":"cebpf4jnsgd1na2vs0mg"},{"bike_id":"63aef240-75bd-43bb-9e36-adc7495b6b5e","system_id":"levelo_inurba_marseille","lat":43.28613,"lon":5.3708,"is_reserved":false,"is_disabled":false,"rental_uris":{"android":"levelo://app?vid=63aef240-75bd-43bb-9e36-adc7495b6b5e","ios":"levelo://app?vid=63aef240-75bd-43bb-9e36-adc7495b6b5e"},"vehicle_type_id":"4","last_reported":1739862560,"current_range_meters":6000,"station_id":"","pricing_plan_id":"cebpf4jnsgd1na2vs0mg"},{"bike_id":"96a8a8cd-63f3-4d1c-b2cb-f267c0071f42","system_id":"levelo_inurba_marseille","lat":43.24807,"lon":5.37443,"is_reserved":false,"is_disabled":false,"rental_uris":{"android":"levelo://app?vid=96a8a8cd-63f3-4d1c-b2cb-f267c0071f42","ios":"levelo://app?vid=96a8a8cd-63f3-4d1c-b2cb-f267c0071f42"},"vehicle_type_id":"4","last_reported":1739862560,"current_range_meters":6000,"station_id":"","pricing_plan_id":"cebpf4jnsgd1na2vs0mg"},{"bike_id":"b6b498c0-7543-4aaf-8981-c12b746797ce","system_id":"levelo_inurba_marseille","lat":43.24087,"lon":5.37767,"is_reserved":false,"is_disabled":false,"rental_uris":{"android":"levelo://app?vid=b6b498c0-7543-4aaf-8981-c12b746797ce","ios":"levelo://app?vid=b6b498c0-7543-4aaf-8981-c12b746797ce"},"vehicle_type_id":"4","last_reported":1739862560,"current_range_meters":6400,"station_id":"","pricing_plan_id":"cebpf4jnsgd1na2vs0mg"},{"bike_id":"2b278cf2-594f-4230-8154-882e1df047f2","system_id":"levelo_inurba_marseille","lat":43.24076,"lon":5.37762,"is_reserved":false,"is_disabled":false,"rental_uris":{"android":"levelo://app?vid=2b278cf2-594f-4230-8154-882e1df047f2","ios":"levelo://app?vid=2b278cf2-594f-4230-8154-882e1df047f2"},"vehicle_type_id":"4","last_reported":1739862560,"current_range_meters":6400,"station_id":"ce4bhnp2rcd13ifvqgvg","pricing_plan_id":"cebpf4jnsgd1na2vs0mg"},{"bike_id":"1028d825-a809-400b-a433-b2f52b266986","system_id":"levelo_inurba_marseille","lat":43.30899,"lon":5.37916,"is_reserved":false,"is_disabled":false,"rental_uris":{"android":"levelo://app?vid=1028d825-a809-400b-a433-b2f52b266986","ios":"levelo://app?vid=1028d825-a809-400b-a433-b2f52b266986"},"vehicle_type_id":"4","last_reported":1739862560,"current_range_meters":6400,"station_id":"","pricing_plan_id":"cebpf4jnsgd1na2vs0mg"},{"bike_id":"fc404722-a79a-40d0-8e0a-e58382575551","system_id":"levelo_inurba_marseille","lat":43.27996,"lon":5.40008,"is_reserved":false,"is_disabled":false,"rental_uris":{"android":"levelo://app?vid=fc404722-a79a-40d0-8e0a-e58382575551","ios":"levelo://app?vid=fc404722-a79a-40d0-8e0a-e58382575551"},"vehicle_type_id":"4","last_reported":1739862560,"current_range_meters":6400,"station_id":"ce4bho92rcd13ifvqh4g","pricing_plan_id":"cebpf4jnsgd1na2vs0mg"},{"bike_id":"7529b7d3-3386-4c69-b82f-12a292d850ae","system_id":"levelo_inurba_marseille","lat":43.27934,"lon":5.41053,"is_reserved":false,"is_disabled":false,"rental_uris":{"android":"levelo://app?vid=7529b7d3-3386-4c69-b82f-12a292d850ae","ios":"levelo://app?vid=7529b7d3-3386-4c69-b82f-12a292d850ae"},"vehicle_type_id":"4","last_reported":1739862560,"current_range_meters":6800,"station_id":"ce4bhnp2rcd13ifvqh0g","pricing_plan_id":"cebpf4jnsgd1na2vs0mg"},{"bike_id":"47b43428-baa8-4f17-b113-3f79a1469e0a","system_id":"levelo_inurba_marseille","lat":43.27948,"lon":5.41042,"is_reserved":false,"is_disabled":false,"rental_uris":{"android":"levelo://app?vid=47b43428-baa8-4f17-b113-3f79a1469e0a","ios":"levelo://app?vid=47b43428-baa8-4f17-b113-3f79a1469e0a"},"vehicle_type_id":"4","last_reported":1739862560,"current_range_meters":6800,"station_id":"ce4bhnp2rcd13ifvqh0g","pricing_plan_id":"cebpf4jnsgd1na2vs0mg"},{"bike_id":"01bec25a-ce9b-41ff-8b8e-4879fb269a23","system_id":"levelo_inurba_marseille","lat":43.24167,"lon":5.36399,"is_reserved":false,"is_disabled":false,"rental_uris":{"android":"levelo://app?vid=01bec25a-ce9b-41ff-8b8e-4879fb269a23","ios":"levelo://app?vid=01bec25a-ce9b-41ff-8b8e-4879fb269a23"},"vehicle_type_id":"4","last_reported":1739862560,"current_range_meters":6800,"station_id":"cpo36qri1sfpv3e86is0","pricing_plan_id":"cebpf4jnsgd1na2vs0mg"},{"bike_id":"b931d35e-1687-4f33-9bcc-4e72ae026eaa","system_id":"levelo_inurba_marseille","lat":43.30133,"lon":5.37426,"is_reserved":false,"is_disabled":false,"rental_uris":{"android":"levelo://app?vid=b931d35e-1687-4f33-9bcc-4e72ae026eaa","ios":"levelo://app?vid=b931d35e-1687-4f33-9bcc-4e72ae026eaa"},"vehicle_type_id":"4","last_reported":1739862560,"current_range_meters":7200,"station_id":"ce4bgs92rcd13ifvqcc0","pricing_plan_id":"cebpf4jnsgd1na2vs0mg"},{"bike_id":"d400ad84-5667-4b2d-a866-9ba531761016","system_id":"levelo_inurba_marseille","lat":43.28425,"lon":5.34979,"is_reserved":false,"is_disabled":false,"rental_uris":{"android":"levelo://app?vid=d400ad84-5667-4b2d-a866-9ba531761016","ios":"levelo://app?vid=d400ad84-5667-4b2d-a866-9ba531761016"},"vehicle_type_id":"4","last_reported":1739862560,"current_range_meters":7200,"station_id":"ce4bhbh2rcd13ifvqepg","pricing_plan_id":"cebpf4jnsgd1na2vs0mg"},{"bike_id":"951b4d3f-8001-4a07-94d2-7c087d9f5ec2","system_id":"levelo_inurba_marseille","lat":43.260594,"lon":5.394048,"is_reserved":false,"is_disabled":false,"rental_uris":{"android":"levelo://app?vid=951b4d3f-8001-4a07-94d2-7c087d9f5ec2","ios":"levelo://app?vid=951b4d3f-8001-4a07-94d2-7c087d9f5ec2"},"vehicle_type_id":"4","last_reported":1739862560,"current_range_meters":7200,"station_id":"ce4bhh92rcd13ifvqfj0","pricing_plan_id":"cebpf4jnsgd1na2vs0mg"},{"bike_id":"2e5e89c3-0e0e-4cca-b25a-7707cb6d7c5d","system_id":"levelo_inurba_marseille","lat":43.27669,"lon":5.40841,"is_reserved":false,"is_disabled":false,"rental_uris":{"android":"levelo://app?vid=2e5e89c3-0e0e-4cca-b25a-7707cb6d7c5d","ios":"levelo://app?vid=2e5e89c3-0e0e-4cca-b25a-7707cb6d7c5d"},"vehicle_type_id":"4","last_reported":1739862560,"current_range_meters":7200,"station_id":"","pricing_plan_id":"cebpf4jnsgd1na2vs0mg"},{"bike_id":"c91bc767-3cc1-41ae-821f-58f64096b2f7","system_id":"levelo_inurba_marseille","lat":43.23154,"lon":5.43683,"is_reserved":false,"is_disabled":false,"rental_uris":{"android":"levelo://app?vid=c91bc767-3cc1-41ae-821f-58f64096b2f7","ios":"levelo://app?vid=c91bc767-3cc1-41ae-821f-58f64096b2f7"},"vehicle_type_id":"4","last_reported":1739862560,"current_range_meters":7200,"station_id":"ce4bhmp2rcd13ifvqgog","pricing_plan_id":"cebpf4jnsgd1na2vs0mg"},{"bike_id":"2f2fe858-21eb-40db-af31-b42deb24a5fe","system_id":"levelo_inurba_marseille","lat":43.28552,"lon":5.37069,"is_reserved":false,"is_disabled":false,"rental_uris":{"android":"levelo://app?vid=2f2fe858-21eb-40db-af31-b42deb24a5fe","ios":"levelo://app?vid=2f2fe858-21eb-40db-af31-b42deb24a5fe"},"vehicle_type_id":"4","last_reported":1739862560,"current_range_meters":8000,"station_id":"ce4bht12rcd13ifvqi60","pricing_plan_id":"cebpf4jnsgd1na2vs0mg"},{"bike_id":"8a49e737-2dba-437e-b0e4-c61d64b4fa11","system_id":"levelo_inurba_marseille","lat":43.24544,"lon":5.3952,"is_reserved":false,"is_disabled":false,"rental_uris":{"android":"levelo://app?vid=8a49e737-2dba-437e-b0e4-c61d64b4fa11","ios":"levelo://app?vid=8a49e737-2dba-437e-b0e4-c61d64b4fa11"},"vehicle_type_id":"4","last_reported":1739862560,"current_range_meters":8000,"station_id":"ce4bhlp2rcd13ifvqgjg","pricing_plan_id":"cebpf4jnsgd1na2vs0mg"},{"bike_id":"1441ab16-218e-4d90-b3a7-621633692bd3","system_id":"levelo_inurba_marseille","lat":43.25719,"lon":5.41122,"is_reserved":false,"is_disabled":false,"rental_uris":{"android":"levelo://app?vid=1441ab16-218e-4d90-b3a7-621633692bd3","ios":"levelo://app?vid=1441ab16-218e-4d90-b3a7-621633692bd3"},"vehicle_type_id":"4","last_reported":1739862560,"current_range_meters":8000,"station_id":"ce4bhkp2rcd13ifvqgd0","pricing_plan_id":"cebpf4jnsgd1na2vs0mg"},{"bike_id":"59311f3e-078c-49d9-b9f0-e2aadf460dde","system_id":"levelo_inurba_marseille","lat":43.25576,"lon":5.38236,"is_reserved":false,"is_disabled":false,"rental_uris":{"android":"levelo://app?vid=59311f3e-078c-49d9-b9f0-e2aadf460dde","ios":"levelo://app?vid=59311f3e-078c-49d9-b9f0-e2aadf460dde"},"vehicle_type_id":"4","last_reported":1739862560,"current_range_meters":8000,"station_id":"ce4bhih2rcd13ifvqfs0","pricing_plan_id":"cebpf4jnsgd1na2vs0mg"},{"bike_id":"34dc1391-a256-4af0-b6fe-18383869ac9a","system_id":"levelo_inurba_marseille","lat":43.24067,"lon":5.37753,"is_reserved":false,"is_disabled":false,"rental_uris":{"android":"levelo://app?vid=34dc1391-a256-4af0-b6fe-18383869ac9a","ios":"levelo://app?vid=34dc1391-a256-4af0-b6fe-18383869ac9a"},"vehicle_type_id":"4","last_reported":1739862560,"current_range_meters":8000,"station_id":"","pricing_plan_id":"cebpf4jnsgd1na2vs0mg"},{"bike_id":"cf88743b-ec29-46d2-8b88-961b886f8b2a","system_id":"levelo_inurba_marseille","lat":43.26556,"lon":5.39011,"is_reserved":false,"is_disabled":true,"rental_uris":{"android":"levelo://app?vid=cf88743b-ec29-46d2-8b88-961b886f8b2a","ios":"levelo://app?vid=cf88743b-ec29-46d2-8b88-961b886f8b2a"},"vehicle_type_id":"4","last_reported":1739862560,"current_range_meters":8000,"station_id":"ce4bhe12rcd13ifvqf30","pricing_plan_id":"cebpf4jnsgd1na2vs0mg"},{"bike_id":"6fddf1f6-1c8d-42ee-8ab3-6a8f9fa20ffa","system_id":"levelo_inurba_marseille","lat":43.248,"lon":5.37452,"is_reserved":false,"is_disabled":false,"rental_uris":{"android":"levelo://app?vid=6fddf1f6-1c8d-42ee-8ab3-6a8f9fa20ffa","ios":"levelo://app?vid=6fddf1f6-1c8d-42ee-8ab3-6a8f9fa20ffa"},"vehicle_type_id":"4","last_reported":1739862560,"current_range_meters":8000,"station_id":"","pricing_plan_id":"cebpf4jnsgd1na2vs0mg"},{"bike_id":"98dafedc-f25b-409d-b3e2-803b47ffb900","system_id":"levelo_inurba_marseille","lat":43.24493,"lon":5.37255,"is_reserved":false,"is_disabled":false,"rental_uris":{"android":"levelo://app?vid=98dafedc-f25b-409d-b3e2-803b47ffb900","ios":"levelo://app?vid=98dafedc-f25b-409d-b3e2-803b47ffb900"},"vehicle_type_id":"4","last_reported":1739862560,"current_range_meters":8000,"station_id":"","pricing_plan_id":"cebpf4jnsgd1na2vs0mg"},{"bike_id":"47b1e783-6c6c-40c4-bba3-257cb3bdbd7a","system_id":"levelo_inurba_marseille","lat":43.29605,"lon":5.38089,"is_reserved":false,"is_disabled":false,"rental_uris":{"android":"levelo://app?vid=47b1e783-6c6c-40c4-bba3-257cb3bdbd7a","ios":"levelo://app?vid=47b1e783-6c6c-40c4-bba3-257cb3bdbd7a"},"vehicle_type_id":"4","last_reported":1739862560,"current_range_meters":8000,"station_id":"","pricing_plan_id":"cebpf4jnsgd1na2vs0mg"},{"bike_id":"eb7327fd-672e-4c19-a810-f4aa8a6d8207","system_id":"levelo_inurba_marseille","lat":43.29992,"lon":5.37351,"is_reserved":false,"is_disabled":false,"rental_uris":{"android":"levelo://app?vid=eb7327fd-672e-4c19-a810-f4aa8a6d8207","ios":"levelo://app?vid=eb7327fd-672e-4c19-a810-f4aa8a6d8207"},"vehicle_type_id":"4","last_reported":1739862560,"current_range_meters":8400,"station_id":"","pricing_plan_id":"cebpf4jnsgd1na2vs0mg"},{"bike_id":"1ee4e723-b91f-4bc8-87ff-c64b02a545f1","system_id":"levelo_inurba_marseille","lat":43.2885,"lon":5.39321,"is_reserved":false,"is_disabled":false,"rental_uris":{"android":"levelo://app?vid=1ee4e723-b91f-4bc8-87ff-c64b02a545f1","ios":"levelo://app?vid=1ee4e723-b91f-4bc8-87ff-c64b02a545f1"},"vehicle_type_id":"4","last_reported":1739862560,"current_range_meters":8400,"station_id":"ce4bh2p2rcd13ifvqdi0","pricing_plan_id":"cebpf4jnsgd1na2vs0mg"},{"bike_id":"a0dfaaa5-2564-40a0-a720-c6022c8dbdf6","system_id":"levelo_inurba_marseille","lat":43.25502,"lon":5.37663,"is_reserved":false,"is_disabled":false,"rental_uris":{"android":"levelo://app?vid=a0dfaaa5-2564-40a0-a720-c6022c8dbdf6","ios":"levelo://app?vid=a0dfaaa5-2564-40a0-a720-c6022c8dbdf6"},"vehicle_type_id":"4","last_reported":1739862560,"current_range_meters":8400,"station_id":"ce4bhh12rcd13ifvqff0","pricing_plan_id":"cebpf4jnsgd1na2vs0mg"},{"bike_id":"c72dd471-889d-41d7-939b-cdf433bd5acf","system_id":"levelo_inurba_marseille","lat":43.26213,"lon":5.37438,"is_reserved":false,"is_disabled":false,"rental_uris":{"android":"levelo://app?vid=c72dd471-889d-41d7-939b-cdf433bd5acf","ios":"levelo://app?vid=c72dd471-889d-41d7-939b-cdf433bd5acf"},"vehicle_type_id":"4","last_reported":1739862560,"current_range_meters":8400,"station_id":"ce4bhgp2rcd13ifvqfc0","pricing_plan_id":"cebpf4jnsgd1na2vs0mg"},{"bike_id":"708c6cb2-f903-4176-9f14-6ac706988f2a","system_id":"levelo_inurba_marseille","lat":43.27039,"lon":5.42286,"is_reserved":false,"is_disabled":false,"rental_uris":{"android":"levelo://app?vid=708c6cb2-f903-4176-9f14-6ac706988f2a","ios":"levelo://app?vid=708c6cb2-f903-4176-9f14-6ac706988f2a"},"vehicle_type_id":"4","last_reported":1739862560,"current_range_meters":8400,"station_id":"ce4bhk92rcd13ifvqgb0","pricing_plan_id":"cebpf4jnsgd1na2vs0mg"},{"bike_id":"8dbe617a-73bb-43b1-955a-f0b57c2f6fa2","system_id":"levelo_inurba_marseille","lat":43.27378,"lon":5.36247,"is_reserved":false,"is_disabled":false,"rental_uris":{"android":"levelo://app?vid=8dbe617a-73bb-43b1-955a-f0b57c2f6fa2","ios":"levelo://app?vid=8dbe617a-73bb-43b1-955a-f0b57c2f6fa2"},"vehicle_type_id":"4","last_reported":1739862560,"current_range_meters":8400,"station_id":"ce4bhbh2rcd13ifvqeo0","pricing_plan_id":"cebpf4jnsgd1na2vs0mg"},{"bike_id":"63213ce8-ab3b-490e-8b8e-c1a55a68b2ca","system_id":"levelo_inurba_marseille","lat":43.2951,"lon":5.38198,"is_reserved":false,"is_disabled":true,"rental_uris":{"android":"levelo://app?vid=63213ce8-ab3b-490e-8b8e-c1a55a68b2ca","ios":"levelo://app?vid=63213ce8-ab3b-490e-8b8e-c1a55a68b2ca"},"vehicle_type_id":"4","last_reported":1739862560,"current_range_meters":8400,"station_id":"","pricing_plan_id":"cebpf4jnsgd1na2vs0mg"},{"bike_id":"bc2a3684-bd8a-4be7-81c0-f34d359dc1f7","system_id":"levelo_inurba_marseille","lat":43.30319,"lon":5.39221,"is_reserved":false,"is_disabled":false,"rental_uris":{"android":"levelo://app?vid=bc2a3684-bd8a-4be7-81c0-f34d359dc1f7","ios":"levelo://app?vid=bc2a3684-bd8a-4be7-81c0-f34d359dc1f7"},"vehicle_type_id":"4","last_reported":1739862560,"current_range_meters":8800,"station_id":"","pricing_plan_id":"cebpf4jnsgd1na2vs0mg"},{"bike_id":"811901b7-6a39-4b98-9209-f363e05c2482","system_id":"levelo_inurba_marseille","lat":43.2815,"lon":5.42634,"is_reserved":false,"is_disabled":false,"rental_uris":{"android":"levelo://app?vid=811901b7-6a39-4b98-9209-f363e05c2482","ios":"levelo://app?vid=811901b7-6a39-4b98-9209-f363e05c2482"},"vehicle_type_id":"4","last_reported":1739862560,"current_range_meters":8800,"station_id":"ce4bhnh2rcd13ifvqgug","pricing_plan_id":"cebpf4jnsgd1na2vs0mg"},{"bike_id":"b47411c6-8c7d-477c-8857-3de25b957c84","system_id":"levelo_inurba_marseille","lat":43.25081,"lon":5.39523,"is_reserved":false,"is_disabled":false,"rental_uris":{"android":"levelo://app?vid=b47411c6-8c7d-477c-8857-3de25b957c84","ios":"levelo://app?vid=b47411c6-8c7d-477c-8857-3de25b957c84"},"vehicle_type_id":"4","last_reported":1739862560,"current_range_meters":8800,"station_id":"ce4bhm12rcd13ifvqgkg","pricing_plan_id":"cebpf4jnsgd1na2vs0mg"},{"bike_id":"6712a9e1-c428-4991-a16e-c35bd007885f","system_id":"levelo_inurba_marseille","lat":43.30212,"lon":5.39471,"is_reserved":false,"is_disabled":false,"rental_uris":{"android":"levelo://app?vid=6712a9e1-c428-4991-a16e-c35bd007885f","ios":"levelo://app?vid=6712a9e1-c428-4991-a16e-c35bd007885f"},"vehicle_type_id":"4","last_reported":1739862560,"current_range_meters":9200,"station_id":"ce4bh0p2rcd13ifvqd70","pricing_plan_id":"cebpf4jnsgd1na2vs0mg"},{"bike_id":"9cdde45e-0d84-4726-bad7-05951fed9767","system_id":"levelo_inurba_marseille","lat":43.31277,"lon":5.40174,"is_reserved":false,"is_disabled":false,"rental_uris":{"android":"levelo://app?vid=9cdde45e-0d84-4726-bad7-05951fed9767","ios":"levelo://app?vid=9cdde45e-0d84-4726-bad7-05951fed9767"},"vehicle_type_id":"4","last_reported":1739862560,"current_range_meters":9200,"station_id":"","pricing_plan_id":"cebpf4jnsgd1na2vs0mg"},{"bike_id":"dcf310c5-15ca-498b-bf9c-cd6c77922408","system_id":"levelo_inurba_marseille","lat":43.23942,"lon":5.36643,"is_reserved":false,"is_disabled":false,"rental_uris":{"android":"levelo://app?vid=dcf310c5-15ca-498b-bf9c-cd6c77922408","ios":"levelo://app?vid=dcf310c5-15ca-498b-bf9c-cd6c77922408"},"vehicle_type_id":"4","last_reported":1739862560,"current_range_meters":9200,"station_id":"ce4bhi12rcd13ifvqfp0","pricing_plan_id":"cebpf4jnsgd1na2vs0mg"},{"bike_id":"fc9896ce-1f52-403c-86a7-1678079c9523","system_id":"levelo_inurba_marseille","lat":43.28159,"lon":5.44253,"is_reserved":false,"is_disabled":false,"rental_uris":{"android":"levelo://app?vid=fc9896ce-1f52-403c-86a7-1678079c9523","ios":"levelo://app?vid=fc9896ce-1f52-403c-86a7-1678079c9523"},"vehicle_type_id":"4","last_reported":1739862560,"current_range_meters":9200,"station_id":"","pricing_plan_id":"cebpf4jnsgd1na2vs0mg"},{"bike_id":"4e2b468f-8f4a-4d73-8517-62fa28d3fb4c","system_id":"levelo_inurba_marseille","lat":43.24811,"lon":5.37459,"is_reserved":false,"is_disabled":false,"rental_uris":{"android":"levelo://app?vid=4e2b468f-8f4a-4d73-8517-62fa28d3fb4c","ios":"levelo://app?vid=4e2b468f-8f4a-4d73-8517-62fa28d3fb4c"},"vehicle_type_id":"4","last_reported":1739862560,"current_range_meters":10000,"station_id":"ce4bhgh2rcd13ifvqfb0","pricing_plan_id":"cebpf4jnsgd1na2vs0mg"},{"bike_id":"6528e792-6c2b-41ab-b102-37d30001a0e7","system_id":"levelo_inurba_marseille","lat":43.27238,"lon":5.40058,"is_reserved":false,"is_disabled":false,"rental_uris":{"android":"levelo://app?vid=6528e792-6c2b-41ab-b102-37d30001a0e7","ios":"levelo://app?vid=6528e792-6c2b-41ab-b102-37d30001a0e7"},"vehicle_type_id":"4","last_reported":1739862560,"current_range_meters":9600,"station_id":"","pricing_plan_id":"cebpf4jnsgd1na2vs0mg"},{"bike_id":"d0991bf7-9c1b-4f88-947e-cca686a15eb6","system_id":"levelo_inurba_marseille","lat":43.24671,"lon":5.38166,"is_reserved":false,"is_disabled":false,"rental_uris":{"android":"levelo://app?vid=d0991bf7-9c1b-4f88-947e-cca686a15eb6","ios":"levelo://app?vid=d0991bf7-9c1b-4f88-947e-cca686a15eb6"},"vehicle_type_id":"4","last_reported":1739862560,"current_range_meters":9600,"station_id":"ce4bhih2rcd13ifvqfr0","pricing_plan_id":"cebpf4jnsgd1na2vs0mg"},{"bike_id":"bb8086c8-d5a8-4e72-8a04-f69b553428af","system_id":"levelo_inurba_marseille","lat":43.24988,"lon":5.38908,"is_reserved":false,"is_disabled":false,"rental_uris":{"android":"levelo://app?vid=bb8086c8-d5a8-4e72-8a04-f69b553428af","ios":"levelo://app?vid=bb8086c8-d5a8-4e72-8a04-f69b553428af"},"vehicle_type_id":"4","last_reported":1739862560,"current_range_meters":9600,"station_id":"ce4bhgp2rcd13ifvqfd0","pricing_plan_id":"cebpf4jnsgd1na2vs0mg"},{"bike_id":"8bd6a02d-b3da-49a5-acf3-8a002595d85d","system_id":"levelo_inurba_marseille","lat":43.28361,"lon":5.38657,"is_reserved":false,"is_disabled":false,"rental_uris":{"android":"levelo://app?vid=8bd6a02d-b3da-49a5-acf3-8a002595d85d","ios":"levelo://app?vid=8bd6a02d-b3da-49a5-acf3-8a002595d85d"},"vehicle_type_id":"4","last_reported":1739862560,"current_range_meters":9600,"station_id":"","pricing_plan_id":"cebpf4jnsgd1na2vs0mg"},{"bike_id":"21964b29-3452-4ba4-919e-80c8fd238b96","system_id":"levelo_inurba_marseille","lat":43.24651,"lon":5.38897,"is_reserved":false,"is_disabled":false,"rental_uris":{"android":"levelo://app?vid=21964b29-3452-4ba4-919e-80c8fd238b96","ios":"levelo://app?vid=21964b29-3452-4ba4-919e-80c8fd238b96"},"vehicle_type_id":"4","last_reported":1739862560,"current_range_meters":9600,"station_id":"ce4bhg12rcd13ifvqf60","pricing_plan_id":"cebpf4jnsgd1na2vs0mg"},{"bike_id":"b2040892-4686-4a0e-9f8f-88c5eb929b34","system_id":"levelo_inurba_marseille","lat":43.25577,"lon":5.38268,"is_reserved":false,"is_disabled":false,"rental_uris":{"android":"levelo://app?vid=b2040892-4686-4a0e-9f8f-88c5eb929b34","ios":"levelo://app?vid=b2040892-4686-4a0e-9f8f-88c5eb929b34"},"vehicle_type_id":"4","last_reported":1739862560,"current_range_meters":9600,"station_id":"ce4bhih2rcd13ifvqfs0","pricing_plan_id":"cebpf4jnsgd1na2vs0mg"},{"bike_id":"020f9db3-6048-4a83-8c59-4acc533112c8","system_id":"levelo_inurba_marseille","lat":43.28141,"lon":5.42651,"is_reserved":false,"is_disabled":false,"rental_uris":{"android":"levelo://app?vid=020f9db3-6048-4a83-8c59-4acc533112c8","ios":"levelo://app?vid=020f9db3-6048-4a83-8c59-4acc533112c8"},"vehicle_type_id":"4","last_reported":1739862560,"current_range_meters":9600,"station_id":"ce4bhnh2rcd13ifvqgug","pricing_plan_id":"cebpf4jnsgd1na2vs0mg"},{"bike_id":"2fa7caa2-4d89-4383-babd-96f44fa588f6","system_id":"levelo_inurba_marseille","lat":43.23154,"lon":5.43716,"is_reserved":false,"is_disabled":false,"rental_uris":{"android":"levelo://app?vid=2fa7caa2-4d89-4383-babd-96f44fa588f6","ios":"levelo://app?vid=2fa7caa2-4d89-4383-babd-96f44fa588f6"},"vehicle_type_id":"4","last_reported":1739862560,"current_range_meters":9600,"station_id":"ce4bhmp2rcd13ifvqgog","pricing_plan_id":"cebpf4jnsgd1na2vs0mg"},{"bike_id":"79de6e9c-8538-4864-8e05-27be78ce8327","system_id":"levelo_inurba_marseille","lat":43.23336,"lon":5.40293,"is_reserved":false,"is_disabled":false,"rental_uris":{"android":"levelo://app?vid=79de6e9c-8538-4864-8e05-27be78ce8327","ios":"levelo://app?vid=79de6e9c-8538-4864-8e05-27be78ce8327"},"vehicle_type_id":"4","last_reported":1739862560,"current_range_meters":10000,"station_id":"ce4bh3p2rcd13ifvqdp0","pricing_plan_id":"cebpf4jnsgd1na2vs0mg"},{"bike_id":"43e58a6d-2a17-41bb-bd75-661bed22a62b","system_id":"levelo_inurba_marseille","lat":43.31193,"lon":5.38706,"is_reserved":false,"is_disabled":false,"rental_uris":{"android":"levelo://app?vid=43e58a6d-2a17-41bb-bd75-661bed22a62b","ios":"levelo://app?vid=43e58a6d-2a17-41bb-bd75-661bed22a62b"},"vehicle_type_id":"4","last_reported":1739862560,"current_range_meters":10000,"station_id":"","pricing_plan_id":"cebpf4jnsgd1na2vs0mg"},{"bike_id":"e74fef04-4797-4a8d-83a6-0b69a0bb01fb","system_id":"levelo_inurba_marseille","lat":43.27927,"lon":5.41029,"is_reserved":false,"is_disabled":false,"rental_uris":{"android":"levelo://app?vid=e74fef04-4797-4a8d-83a6-0b69a0bb01fb","ios":"levelo://app?vid=e74fef04-4797-4a8d-83a6-0b69a0bb01fb"},"vehicle_type_id":"4","last_reported":1739862560,"current_range_meters":10000,"station_id":"ce4bhnp2rcd13ifvqh0g","pricing_plan_id":"cebpf4jnsgd1na2vs0mg"},{"bike_id":"09625a22-d446-4e59-8267-015f8bb79d9d","system_id":"levelo_inurba_marseille","lat":43.24076,"lon":5.37759,"is_reserved":false,"is_disabled":false,"rental_uris":{"android":"levelo://app?vid=09625a22-d446-4e59-8267-015f8bb79d9d","ios":"levelo://app?vid=09625a22-d446-4e59-8267-015f8bb79d9d"},"vehicle_type_id":"4","last_reported":1739862560,"current_range_meters":10000,"station_id":"ce4bhnp2rcd13ifvqgvg","pricing_plan_id":"cebpf4jnsgd1na2vs0mg"},{"bike_id":"5d7c98ef-aac5-48f6-a6fb-ea4580422a57","system_id":"levelo_inurba_marseille","lat":43.25115,"lon":5.40323,"is_reserved":false,"is_disabled":false,"rental_uris":{"android":"levelo://app?vid=5d7c98ef-aac5-48f6-a6fb-ea4580422a57","ios":"levelo://app?vid=5d7c98ef-aac5-48f6-a6fb-ea4580422a57"},"vehicle_type_id":"4","last_reported":1739862560,"current_range_meters":10000,"station_id":"","pricing_plan_id":"cebpf4jnsgd1na2vs0mg"},{"bike_id":"64627059-f94e-4aa2-a301-7dfa05f02d32","system_id":"levelo_inurba_marseille","lat":43.28848,"lon":5.35846,"is_reserved":false,"is_disabled":false,"rental_uris":{"android":"levelo://app?vid=64627059-f94e-4aa2-a301-7dfa05f02d32","ios":"levelo://app?vid=64627059-f94e-4aa2-a301-7dfa05f02d32"},"vehicle_type_id":"4","last_reported":1739862560,"current_range_meters":10800,"station_id":"ce4bhb12rcd13ifvqem0","pricing_plan_id":"cebpf4jnsgd1na2vs0mg"},{"bike_id":"c5c59f41-6de9-4286-8e47-0b749ef897bc","system_id":"levelo_inurba_marseille","lat":43.28615,"lon":5.35109,"is_reserved":false,"is_disabled":false,"rental_uris":{"android":"levelo://app?vid=c5c59f41-6de9-4286-8e47-0b749ef897bc","ios":"levelo://app?vid=c5c59f41-6de9-4286-8e47-0b749ef897bc"},"vehicle_type_id":"4","last_reported":1739862560,"current_range_meters":10800,"station_id":"ce4bhch2rcd13ifvqeug","pricing_plan_id":"cebpf4jnsgd1na2vs0mg"},{"bike_id":"58a5c712-9d46-4329-afac-796b4051eca6","system_id":"levelo_inurba_marseille","lat":43.24986,"lon":5.38922,"is_reserved":false,"is_disabled":true,"rental_uris":{"android":"levelo://app?vid=58a5c712-9d46-4329-afac-796b4051eca6","ios":"levelo://app?vid=58a5c712-9d46-4329-afac-796b4051eca6"},"vehicle_type_id":"4","last_reported":1739862560,"current_range_meters":10800,"station_id":"ce4bhgp2rcd13ifvqfd0","pricing_plan_id":"cebpf4jnsgd1na2vs0mg"},{"bike_id":"8018eb22-ba1a-4d62-877d-b0737c61e859","system_id":"levelo_inurba_marseille","lat":43.255817,"lon":5.38221,"is_reserved":false,"is_disabled":true,"rental_uris":{"android":"levelo://app?vid=8018eb22-ba1a-4d62-877d-b0737c61e859","ios":"levelo://app?vid=8018eb22-ba1a-4d62-877d-b0737c61e859"},"vehicle_type_id":"4","last_reported":1739862560,"current_range_meters":11200,"station_id":"","pricing_plan_id":"cebpf4jnsgd1na2vs0mg"},{"bike_id":"6cea39d1-143a-437a-be7c-4155e2811eca","system_id":"levelo_inurba_marseille","lat":43.25073,"lon":5.39536,"is_reserved":false,"is_disabled":false,"rental_uris":{"android":"levelo://app?vid=6cea39d1-143a-437a-be7c-4155e2811eca","ios":"levelo://app?vid=6cea39d1-143a-437a-be7c-4155e2811eca"},"vehicle_type_id":"4","last_reported":1739862560,"current_range_meters":11200,"station_id":"ce4bhm12rcd13ifvqgkg","pricing_plan_id":"cebpf4jnsgd1na2vs0mg"},{"bike_id":"7e1bcd16-719a-4da9-aa93-fa68923adaea","system_id":"levelo_inurba_marseille","lat":43.24074,"lon":5.37755,"is_reserved":false,"is_disabled":false,"rental_uris":{"android":"levelo://app?vid=7e1bcd16-719a-4da9-aa93-fa68923adaea","ios":"levelo://app?vid=7e1bcd16-719a-4da9-aa93-fa68923adaea"},"vehicle_type_id":"4","last_reported":1739862560,"current_range_meters":11600,"station_id":"ce4bhnp2rcd13ifvqgvg","pricing_plan_id":"cebpf4jnsgd1na2vs0mg"},{"bike_id":"f8e06fc7-00b7-4831-828e-752a95e98412","system_id":"levelo_inurba_marseille","lat":43.28835,"lon":5.35872,"is_reserved":false,"is_disabled":false,"rental_uris":{"android":"levelo://app?vid=f8e06fc7-00b7-4831-828e-752a95e98412","ios":"levelo://app?vid=f8e06fc7-00b7-4831-828e-752a95e98412"},"vehicle_type_id":"4","last_reported":1739862560,"current_range_meters":11600,"station_id":"ce4bhb12rcd13ifvqem0","pricing_plan_id":"cebpf4jnsgd1na2vs0mg"},{"bike_id":"9084f880-c05c-41d9-962e-1ab7add2848e","system_id":"levelo_inurba_marseille","lat":43.24076,"lon":5.37751,"is_reserved":false,"is_disabled":false,"rental_uris":{"android":"levelo://app?vid=9084f880-c05c-41d9-962e-1ab7add2848e","ios":"levelo://app?vid=9084f880-c05c-41d9-962e-1ab7add2848e"},"vehicle_type_id":"4","last_reported":1739862560,"current_range_meters":11600,"station_id":"ce4bhnp2rcd13ifvqgvg","pricing_plan_id":"cebpf4jnsgd1na2vs0mg"},{"bike_id":"c6d403ef-af42-41ae-9312-3a948449b260","system_id":"levelo_inurba_marseille","lat":43.27615,"lon":5.36102,"is_reserved":false,"is_disabled":false,"rental_uris":{"android":"levelo://app?vid=c6d403ef-af42-41ae-9312-3a948449b260","ios":"levelo://app?vid=c6d403ef-af42-41ae-9312-3a948449b260"},"vehicle_type_id":"4","last_reported":1739862560,"current_range_meters":11600,"station_id":"ce4bgj92rcd13ifvqbe0","pricing_plan_id":"cebpf4jnsgd1na2vs0mg"},{"bike_id":"80842653-0916-4e4e-96ac-1b8b526d2858","system_id":"levelo_inurba_marseille","lat":43.29246,"lon":5.40923,"is_reserved":false,"is_disabled":false,"rental_uris":{"android":"levelo://app?vid=80842653-0916-4e4e-96ac-1b8b526d2858","ios":"levelo://app?vid=80842653-0916-4e4e-96ac-1b8b526d2858"},"vehicle_type_id":"4","last_reported":1739862560,"current_range_meters":12000,"station_id":"","pricing_plan_id":"cebpf4jnsgd1na2vs0mg"},{"bike_id":"fa26596f-385b-467a-983c-09a503967e29","system_id":"levelo_inurba_marseille","lat":43.28278,"lon":5.3506,"is_reserved":false,"is_disabled":true,"rental_uris":{"android":"levelo://app?vid=fa26596f-385b-467a-983c-09a503967e29","ios":"levelo://app?vid=fa26596f-385b-467a-983c-09a503967e29"},"vehicle_type_id":"4","last_reported":1739862560,"current_range_meters":12000,"station_id":"ce4bhbp2rcd13ifvqerg","pricing_plan_id":"cebpf4jnsgd1na2vs0mg"},{"bike_id":"e57f9313-8443-49d5-820a-e3f0c205b6f2","system_id":"levelo_inurba_marseille","lat":43.24069,"lon":5.37753,"is_reserved":false,"is_disabled":false,"rental_uris":{"android":"levelo://app?vid=e57f9313-8443-49d5-820a-e3f0c205b6f2","ios":"levelo://app?vid=e57f9313-8443-49d5-820a-e3f0c205b6f2"},"vehicle_type_id":"4","last_reported":1739862560,"current_range_meters":12000,"station_id":"","pricing_plan_id":"cebpf4jnsgd1na2vs0mg"},{"bike_id":"db2ac7d9-4776-4cd5-8e13-66a93578f95d","system_id":"levelo_inurba_marseille","lat":43.28709,"lon":5.39997,"is_reserved":false,"is_disabled":false,"rental_uris":{"android":"levelo://app?vid=db2ac7d9-4776-4cd5-8e13-66a93578f95d","ios":"levelo://app?vid=db2ac7d9-4776-4cd5-8e13-66a93578f95d"},"vehicle_type_id":"4","last_reported":1739862560,"current_range_meters":12000,"station_id":"ce4bho92rcd13ifvqh3g","pricing_plan_id":"cebpf4jnsgd1na2vs0mg"},{"bike_id":"b4f7951e-a8d9-4f42-b03f-b06ba82daa83","system_id":"levelo_inurba_marseille","lat":43.271776,"lon":5.409947,"is_reserved":false,"is_disabled":false,"rental_uris":{"android":"levelo://app?vid=b4f7951e-a8d9-4f42-b03f-b06ba82daa83","ios":"levelo://app?vid=b4f7951e-a8d9-4f42-b03f-b06ba82daa83"},"vehicle_type_id":"4","last_reported":1739862560,"current_range_meters":12400,"station_id":"ce4bhl12rcd13ifvqgf0","pricing_plan_id":"cebpf4jnsgd1na2vs0mg"},{"bike_id":"32fa30e8-b19e-470d-8971-be7426ea8a22","system_id":"levelo_inurba_marseille","lat":43.287109,"lon":5.36077,"is_reserved":false,"is_disabled":false,"rental_uris":{"android":"levelo://app?vid=32fa30e8-b19e-470d-8971-be7426ea8a22","ios":"levelo://app?vid=32fa30e8-b19e-470d-8971-be7426ea8a22"},"vehicle_type_id":"4","last_reported":1739862560,"current_range_meters":12800,"station_id":"cki0cbj6b192h4jlfktg","pricing_plan_id":"cebpf4jnsgd1na2vs0mg"},{"bike_id":"cb8372d6-bad2-4555-89ad-5b495afb0b59","system_id":"levelo_inurba_marseille","lat":43.24822,"lon":5.37459,"is_reserved":false,"is_disabled":false,"rental_uris":{"android":"levelo://app?vid=cb8372d6-bad2-4555-89ad-5b495afb0b59","ios":"levelo://app?vid=cb8372d6-bad2-4555-89ad-5b495afb0b59"},"vehicle_type_id":"4","last_reported":1739862560,"current_range_meters":12400,"station_id":"ce4bhgh2rcd13ifvqfb0","pricing_plan_id":"cebpf4jnsgd1na2vs0mg"},{"bike_id":"2925d872-7877-4b1f-89a7-e112a91d35d3","system_id":"levelo_inurba_marseille","lat":43.28455,"lon":5.35928,"is_reserved":false,"is_disabled":true,"rental_uris":{"android":"levelo://app?vid=2925d872-7877-4b1f-89a7-e112a91d35d3","ios":"levelo://app?vid=2925d872-7877-4b1f-89a7-e112a91d35d3"},"vehicle_type_id":"4","last_reported":1739862560,"current_range_meters":12400,"station_id":"ce4bhah2rcd13ifvqei0","pricing_plan_id":"cebpf4jnsgd1na2vs0mg"},{"bike_id":"1a593f97-80e0-4ab5-99e3-1042da8fe8d9","system_id":"levelo_inurba_marseille","lat":43.2318,"lon":5.39987,"is_reserved":false,"is_disabled":false,"rental_uris":{"android":"levelo://app?vid=1a593f97-80e0-4ab5-99e3-1042da8fe8d9","ios":"levelo://app?vid=1a593f97-80e0-4ab5-99e3-1042da8fe8d9"},"vehicle_type_id":"4","last_reported":1739862560,"current_range_meters":12400,"station_id":"","pricing_plan_id":"cebpf4jnsgd1na2vs0mg"},{"bike_id":"4fb721b3-f767-42cb-b5ed-6719a21bd2a3","system_id":"levelo_inurba_marseille","lat":43.29227,"lon":5.36086,"is_reserved":false,"is_disabled":false,"rental_uris":{"android":"levelo://app?vid=4fb721b3-f767-42cb-b5ed-6719a21bd2a3","ios":"levelo://app?vid=4fb721b3-f767-42cb-b5ed-6719a21bd2a3"},"vehicle_type_id":"4","last_reported":1739862560,"current_range_meters":12400,"station_id":"ce4bhbh2rcd13ifvqeqg","pricing_plan_id":"cebpf4jnsgd1na2vs0mg"},{"bike_id":"f0b1bcc6-ec25-4888-a3ae-f9cd133d3662","system_id":"levelo_inurba_marseille","lat":43.24648,"lon":5.38921,"is_reserved":false,"is_disabled":false,"rental_uris":{"android":"levelo://app?vid=f0b1bcc6-ec25-4888-a3ae-f9cd133d3662","ios":"levelo://app?vid=f0b1bcc6-ec25-4888-a3ae-f9cd133d3662"},"vehicle_type_id":"4","last_reported":1739862560,"current_range_meters":12400,"station_id":"ce4bhg12rcd13ifvqf60","pricing_plan_id":"cebpf4jnsgd1na2vs0mg"},{"bike_id":"91bf3218-0a05-4226-acc9-b3131b7d5a8d","system_id":"levelo_inurba_marseille","lat":43.23951,"lon":5.36622,"is_reserved":false,"is_disabled":false,"rental_uris":{"android":"levelo://app?vid=91bf3218-0a05-4226-acc9-b3131b7d5a8d","ios":"levelo://app?vid=91bf3218-0a05-4226-acc9-b3131b7d5a8d"},"vehicle_type_id":"4","last_reported":1739862560,"current_range_meters":13600,"station_id":"ce4bhi12rcd13ifvqfp0","pricing_plan_id":"cebpf4jnsgd1na2vs0mg"},{"bike_id":"72cc0d3e-c2c3-4b8c-8154-405dd09f1fa3","system_id":"levelo_inurba_marseille","lat":43.23765,"lon":5.36436,"is_reserved":false,"is_disabled":false,"rental_uris":{"android":"levelo://app?vid=72cc0d3e-c2c3-4b8c-8154-405dd09f1fa3","ios":"levelo://app?vid=72cc0d3e-c2c3-4b8c-8154-405dd09f1fa3"},"vehicle_type_id":"4","last_reported":1739862560,"current_range_meters":13600,"station_id":"","pricing_plan_id":"cebpf4jnsgd1na2vs0mg"},{"bike_id":"1c4ab1c1-f8e5-4ceb-8507-e3b252ef908b","system_id":"levelo_inurba_marseille","lat":43.24167,"lon":5.36388,"is_reserved":false,"is_disabled":false,"rental_uris":{"android":"levelo://app?vid=1c4ab1c1-f8e5-4ceb-8507-e3b252ef908b","ios":"levelo://app?vid=1c4ab1c1-f8e5-4ceb-8507-e3b252ef908b"},"vehicle_type_id":"4","last_reported":1739862560,"current_range_meters":13600,"station_id":"cpo36qri1sfpv3e86is0","pricing_plan_id":"cebpf4jnsgd1na2vs0mg"},{"bike_id":"1d9750ca-85a4-464e-8c16-49080cd767b2","system_id":"levelo_inurba_marseille","lat":43.30296,"lon":5.36901,"is_reserved":false,"is_disabled":false,"rental_uris":{"android":"levelo://app?vid=1d9750ca-85a4-464e-8c16-49080cd767b2","ios":"levelo://app?vid=1d9750ca-85a4-464e-8c16-49080cd767b2"},"vehicle_type_id":"4","last_reported":1739862560,"current_range_meters":13600,"station_id":"ce4bgqh2rcd13ifvqc5g","pricing_plan_id":"cebpf4jnsgd1na2vs0mg"},{"bike_id":"e493d32f-c7df-48a8-8644-e6c67b333882","system_id":"levelo_inurba_marseille","lat":43.30193,"lon":5.37147,"is_reserved":false,"is_disabled":false,"rental_uris":{"android":"levelo://app?vid=e493d32f-c7df-48a8-8644-e6c67b333882","ios":"levelo://app?vid=e493d32f-c7df-48a8-8644-e6c67b333882"},"vehicle_type_id":"4","last_reported":1739862560,"current_range_meters":13600,"station_id":"","pricing_plan_id":"cebpf4jnsgd1na2vs0mg"},{"bike_id":"fe05d422-0cb4-4c74-b122-36525077a0b5","system_id":"levelo_inurba_marseille","lat":43.304579,"lon":5.378902,"is_reserved":false,"is_disabled":true,"rental_uris":{"android":"levelo://app?vid=fe05d422-0cb4-4c74-b122-36525077a0b5","ios":"levelo://app?vid=fe05d422-0cb4-4c74-b122-36525077a0b5"},"vehicle_type_id":"4","last_reported":1739862560,"current_range_meters":14000,"station_id":"","pricing_plan_id":"cebpf4jnsgd1na2vs0mg"},{"bike_id":"42c7cfa8-bce6-4834-be4f-e8fd7551245d","system_id":"levelo_inurba_marseille","lat":43.28604,"lon":5.42608,"is_reserved":false,"is_disabled":false,"rental_uris":{"android":"levelo://app?vid=42c7cfa8-bce6-4834-be4f-e8fd7551245d","ios":"levelo://app?vid=42c7cfa8-bce6-4834-be4f-e8fd7551245d"},"vehicle_type_id":"4","last_reported":1739862560,"current_range_meters":14000,"station_id":"","pricing_plan_id":"cebpf4jnsgd1na2vs0mg"},{"bike_id":"a799a60b-3c75-45fb-ac00-220d507c3482","system_id":"levelo_inurba_marseille","lat":43.24814,"lon":5.37464,"is_reserved":false,"is_disabled":false,"rental_uris":{"android":"levelo://app?vid=a799a60b-3c75-45fb-ac00-220d507c3482","ios":"levelo://app?vid=a799a60b-3c75-45fb-ac00-220d507c3482"},"vehicle_type_id":"4","last_reported":1739862560,"current_range_meters":14000,"station_id":"ce4bhgh2rcd13ifvqfb0","pricing_plan_id":"cebpf4jnsgd1na2vs0mg"},{"bike_id":"e46ad52b-d861-4d04-a2c4-ea45df01633c","system_id":"levelo_inurba_marseille","lat":43.26802,"lon":5.40251,"is_reserved":false,"is_disabled":true,"rental_uris":{"android":"levelo://app?vid=e46ad52b-d861-4d04-a2c4-ea45df01633c","ios":"levelo://app?vid=e46ad52b-d861-4d04-a2c4-ea45df01633c"},"vehicle_type_id":"4","last_reported":1739862560,"current_range_meters":14000,"station_id":"ce501612rcd8frsf0b60","pricing_plan_id":"cebpf4jnsgd1na2vs0mg"},{"bike_id":"13d04d5d-290d-4173-8ffc-ecf064db517a","system_id":"levelo_inurba_marseille","lat":43.28621,"lon":5.35109,"is_reserved":false,"is_disabled":false,"rental_uris":{"android":"levelo://app?vid=13d04d5d-290d-4173-8ffc-ecf064db517a","ios":"levelo://app?vid=13d04d5d-290d-4173-8ffc-ecf064db517a"},"vehicle_type_id":"4","last_reported":1739862560,"current_range_meters":14000,"station_id":"ce4bhch2rcd13ifvqeug","pricing_plan_id":"cebpf4jnsgd1na2vs0mg"},{"bike_id":"56e24922-85ae-4de3-98f8-48f9913a8f03","system_id":"levelo_inurba_marseille","lat":43.279211,"lon":5.395686,"is_reserved":false,"is_disabled":false,"rental_uris":{"android":"levelo://app?vid=56e24922-85ae-4de3-98f8-48f9913a8f03","ios":"levelo://app?vid=56e24922-85ae-4de3-98f8-48f9913a8f03"},"vehicle_type_id":"4","last_reported":1739862560,"current_range_meters":14000,"station_id":"ce4bh392rcd13ifvqdm0","pricing_plan_id":"cebpf4jnsgd1na2vs0mg"},{"bike_id":"5fed333a-fea3-49c3-ac73-dff75f83da89","system_id":"levelo_inurba_marseille","lat":43.284058,"lon":5.375123,"is_reserved":false,"is_disabled":false,"rental_uris":{"android":"levelo://app?vid=5fed333a-fea3-49c3-ac73-dff75f83da89","ios":"levelo://app?vid=5fed333a-fea3-49c3-ac73-dff75f83da89"},"vehicle_type_id":"4","last_reported":1739862560,"current_range_meters":14000,"station_id":"ce4bh412rcd13ifvqds0","pricing_plan_id":"cebpf4jnsgd1na2vs0mg"},{"bike_id":"bb4a3648-09cb-4cc2-9947-bf380533d03f","system_id":"levelo_inurba_marseille","lat":43.3166,"lon":5.37254,"is_reserved":false,"is_disabled":true,"rental_uris":{"android":"levelo://app?vid=bb4a3648-09cb-4cc2-9947-bf380533d03f","ios":"levelo://app?vid=bb4a3648-09cb-4cc2-9947-bf380533d03f"},"vehicle_type_id":"4","last_reported":1739862560,"current_range_meters":14000,"station_id":"","pricing_plan_id":"cebpf4jnsgd1na2vs0mg"},{"bike_id":"9c37e5d8-91f5-4a64-8eca-b67a21a3955b","system_id":"levelo_inurba_marseille","lat":43.30406,"lon":5.41285,"is_reserved":false,"is_disabled":false,"rental_uris":{"android":"levelo://app?vid=9c37e5d8-91f5-4a64-8eca-b67a21a3955b","ios":"levelo://app?vid=9c37e5d8-91f5-4a64-8eca-b67a21a3955b"},"vehicle_type_id":"4","last_reported":1739862560,"current_range_meters":14400,"station_id":"ce4bhop2rcd13ifvqh8g","pricing_plan_id":"cebpf4jnsgd1na2vs0mg"},{"bike_id":"a0d6d5a0-c616-4c50-b79e-af5849f07aae","system_id":"levelo_inurba_marseille","lat":43.30793,"lon":5.37227,"is_reserved":false,"is_disabled":false,"rental_uris":{"android":"levelo://app?vid=a0d6d5a0-c616-4c50-b79e-af5849f07aae","ios":"levelo://app?vid=a0d6d5a0-c616-4c50-b79e-af5849f07aae"},"vehicle_type_id":"4","last_reported":1739862560,"current_range_meters":14400,"station_id":"ce4bguh2rcd13ifvqckg","pricing_plan_id":"cebpf4jnsgd1na2vs0mg"},{"bike_id":"a18d790d-07a5-49e7-9126-9be5347c108c","system_id":"levelo_inurba_marseille","lat":43.28264,"lon":5.3509,"is_reserved":false,"is_disabled":false,"rental_uris":{"android":"levelo://app?vid=a18d790d-07a5-49e7-9126-9be5347c108c","ios":"levelo://app?vid=a18d790d-07a5-49e7-9126-9be5347c108c"},"vehicle_type_id":"4","last_reported":1739862560,"current_range_meters":14400,"station_id":"ce4bhbp2rcd13ifvqerg","pricing_plan_id":"cebpf4jnsgd1na2vs0mg"},{"bike_id":"57868b76-3296-405d-a8ba-86335de882d9","system_id":"levelo_inurba_marseille","lat":43.28109,"lon":5.37829,"is_reserved":false,"is_disabled":false,"rental_uris":{"android":"levelo://app?vid=57868b76-3296-405d-a8ba-86335de882d9","ios":"levelo://app?vid=57868b76-3296-405d-a8ba-86335de882d9"},"vehicle_type_id":"4","last_reported":1739862560,"current_range_meters":14400,"station_id":"","pricing_plan_id":"cebpf4jnsgd1na2vs0mg"},{"bike_id":"a81f047e-2602-4d29-8821-508c11538471","system_id":"levelo_inurba_marseille","lat":43.22922,"lon":5.3538,"is_reserved":false,"is_disabled":false,"rental_uris":{"android":"levelo://app?vid=a81f047e-2602-4d29-8821-508c11538471","ios":"levelo://app?vid=a81f047e-2602-4d29-8821-508c11538471"},"vehicle_type_id":"4","last_reported":1739862560,"current_range_meters":14800,"station_id":"cpo3532slgdg3j2ikp40","pricing_plan_id":"cebpf4jnsgd1na2vs0mg"},{"bike_id":"cb943006-3d49-4d28-a996-061563694221","system_id":"levelo_inurba_marseille","lat":43.23964,"lon":5.36639,"is_reserved":false,"is_disabled":false,"rental_uris":{"android":"levelo://app?vid=cb943006-3d49-4d28-a996-061563694221","ios":"levelo://app?vid=cb943006-3d49-4d28-a996-061563694221"},"vehicle_type_id":"4","last_reported":1739862560,"current_range_meters":15200,"station_id":"ce4bhi12rcd13ifvqfp0","pricing_plan_id":"cebpf4jnsgd1na2vs0mg"},{"bike_id":"b61dc397-c3c3-4417-b09a-55eb68b54e13","system_id":"levelo_inurba_marseille","lat":43.286102,"lon":5.370648,"is_reserved":false,"is_disabled":false,"rental_uris":{"android":"levelo://app?vid=b61dc397-c3c3-4417-b09a-55eb68b54e13","ios":"levelo://app?vid=b61dc397-c3c3-4417-b09a-55eb68b54e13"},"vehicle_type_id":"4","last_reported":1739862560,"current_range_meters":15200,"station_id":"","pricing_plan_id":"cebpf4jnsgd1na2vs0mg"},{"bike_id":"d1dec037-ee4c-4db9-a655-1087d8ee1f4f","system_id":"levelo_inurba_marseille","lat":43.2844,"lon":5.39176,"is_reserved":false,"is_disabled":true,"rental_uris":{"android":"levelo://app?vid=d1dec037-ee4c-4db9-a655-1087d8ee1f4f","ios":"levelo://app?vid=d1dec037-ee4c-4db9-a655-1087d8ee1f4f"},"vehicle_type_id":"4","last_reported":1739862560,"current_range_meters":15200,"station_id":"","pricing_plan_id":"cebpf4jnsgd1na2vs0mg"},{"bike_id":"d4c6584d-44bd-4c47-83b2-1b8d5db3aaa7","system_id":"levelo_inurba_marseille","lat":43.32106,"lon":5.36781,"is_reserved":false,"is_disabled":false,"rental_uris":{"android":"levelo://app?vid=d4c6584d-44bd-4c47-83b2-1b8d5db3aaa7","ios":"levelo://app?vid=d4c6584d-44bd-4c47-83b2-1b8d5db3aaa7"},"vehicle_type_id":"4","last_reported":1739862560,"current_range_meters":15200,"station_id":"ce4bhrh2rcd13ifvqhug","pricing_plan_id":"cebpf4jnsgd1na2vs0mg"},{"bike_id":"ceab1b58-9aa5-457b-9396-d77a7b797ed0","system_id":"levelo_inurba_marseille","lat":43.28411,"lon":5.39201,"is_reserved":false,"is_disabled":false,"rental_uris":{"android":"levelo://app?vid=ceab1b58-9aa5-457b-9396-d77a7b797ed0","ios":"levelo://app?vid=ceab1b58-9aa5-457b-9396-d77a7b797ed0"},"vehicle_type_id":"4","last_reported":1739862560,"current_range_meters":16000,"station_id":"ce4bhoh2rcd13ifvqh5g","pricing_plan_id":"cebpf4jnsgd1na2vs0mg"},{"bike_id":"eccd8f50-0d44-405a-897c-7354c541adab","system_id":"levelo_inurba_marseille","lat":43.23174,"lon":5.39986,"is_reserved":false,"is_disabled":false,"rental_uris":{"android":"levelo://app?vid=eccd8f50-0d44-405a-897c-7354c541adab","ios":"levelo://app?vid=eccd8f50-0d44-405a-897c-7354c541adab"},"vehicle_type_id":"4","last_reported":1739862560,"current_range_meters":16000,"station_id":"ce4bhn12rcd13ifvqgqg","pricing_plan_id":"cebpf4jnsgd1na2vs0mg"},{"bike_id":"c046719e-1a20-47e5-8cc4-b446b979b3dc","system_id":"levelo_inurba_marseille","lat":43.30417,"lon":5.41295,"is_reserved":false,"is_disabled":false,"rental_uris":{"android":"levelo://app?vid=c046719e-1a20-47e5-8cc4-b446b979b3dc","ios":"levelo://app?vid=c046719e-1a20-47e5-8cc4-b446b979b3dc"},"vehicle_type_id":"4","last_reported":1739862560,"current_range_meters":16000,"station_id":"","pricing_plan_id":"cebpf4jnsgd1na2vs0mg"},{"bike_id":"6c96a73f-ff01-463f-bd8c-14885ee904b6","system_id":"levelo_inurba_marseille","lat":43.29076,"lon":5.35735,"is_reserved":false,"is_disabled":false,"rental_uris":{"android":"levelo://app?vid=6c96a73f-ff01-463f-bd8c-14885ee904b6","ios":"levelo://app?vid=6c96a73f-ff01-463f-bd8c-14885ee904b6"},"vehicle_type_id":"4","last_reported":1739862560,"current_range_meters":16000,"station_id":"ce4bhb92rcd13ifvqen0","pricing_plan_id":"cebpf4jnsgd1na2vs0mg"},{"bike_id":"56ddfa69-2f95-4810-8f8d-30390a128255","system_id":"levelo_inurba_marseille","lat":43.28845,"lon":5.35883,"is_reserved":false,"is_disabled":false,"rental_uris":{"android":"levelo://app?vid=56ddfa69-2f95-4810-8f8d-30390a128255","ios":"levelo://app?vid=56ddfa69-2f95-4810-8f8d-30390a128255"},"vehicle_type_id":"4","last_reported":1739862560,"current_range_meters":16000,"station_id":"ce4bhb12rcd13ifvqem0","pricing_plan_id":"cebpf4jnsgd1na2vs0mg"},{"bike_id":"5a840138-48f3-43a4-ab5d-aafad71de780","system_id":"levelo_inurba_marseille","lat":43.30739,"lon":5.37712,"is_reserved":false,"is_disabled":false,"rental_uris":{"android":"levelo://app?vid=5a840138-48f3-43a4-ab5d-aafad71de780","ios":"levelo://app?vid=5a840138-48f3-43a4-ab5d-aafad71de780"},"vehicle_type_id":"4","last_reported":1739862560,"current_range_meters":16000,"station_id":"ce4bgv92rcd13ifvqcq0","pricing_plan_id":"cebpf4jnsgd1na2vs0mg"},{"bike_id":"87e4e3d9-887e-4f25-bf58-279367bc8327","system_id":"levelo_inurba_marseille","lat":43.30648,"lon":5.40056,"is_reserved":false,"is_disabled":true,"rental_uris":{"android":"levelo://app?vid=87e4e3d9-887e-4f25-bf58-279367bc8327","ios":"levelo://app?vid=87e4e3d9-887e-4f25-bf58-279367bc8327"},"vehicle_type_id":"4","last_reported":1739862560,"current_range_meters":16400,"station_id":"ce4bh112rcd13ifvqda0","pricing_plan_id":"cebpf4jnsgd1na2vs0mg"},{"bike_id":"407e5944-557a-481f-9c3c-c2024ce7925a","system_id":"levelo_inurba_marseille","lat":43.27623,"lon":5.36092,"is_reserved":false,"is_disabled":false,"rental_uris":{"android":"levelo://app?vid=407e5944-557a-481f-9c3c-c2024ce7925a","ios":"levelo://app?vid=407e5944-557a-481f-9c3c-c2024ce7925a"},"vehicle_type_id":"4","last_reported":1739862560,"current_range_meters":16400,"station_id":"","pricing_plan_id":"cebpf4jnsgd1na2vs0mg"},{"bike_id":"e480c57e-b127-443d-9f5e-fb55b44f3937","system_id":"levelo_inurba_marseille","lat":43.25086,"lon":5.39524,"is_reserved":false,"is_disabled":false,"rental_uris":{"android":"levelo://app?vid=e480c57e-b127-443d-9f5e-fb55b44f3937","ios":"levelo://app?vid=e480c57e-b127-443d-9f5e-fb55b44f3937"},"vehicle_type_id":"4","last_reported":1739862560,"current_range_meters":16400,"station_id":"ce4bhm12rcd13ifvqgkg","pricing_plan_id":"cebpf4jnsgd1na2vs0mg"},{"bike_id":"8796c4a1-cf69-4acb-819d-b56299eee9b7","system_id":"levelo_inurba_marseille","lat":43.33248,"lon":5.37899,"is_reserved":false,"is_disabled":false,"rental_uris":{"android":"levelo://app?vid=8796c4a1-cf69-4acb-819d-b56299eee9b7","ios":"levelo://app?vid=8796c4a1-cf69-4acb-819d-b56299eee9b7"},"vehicle_type_id":"4","last_reported":1739862560,"current_range_meters":16400,"station_id":"","pricing_plan_id":"cebpf4jnsgd1na2vs0mg"},{"bike_id":"efb6b4a0-de1c-4f69-bd8b-ff07ea46a8fd","system_id":"levelo_inurba_marseille","lat":43.2885,"lon":5.35865,"is_reserved":false,"is_disabled":false,"rental_uris":{"android":"levelo://app?vid=efb6b4a0-de1c-4f69-bd8b-ff07ea46a8fd","ios":"levelo://app?vid=efb6b4a0-de1c-4f69-bd8b-ff07ea46a8fd"},"vehicle_type_id":"4","last_reported":1739862560,"current_range_meters":16400,"station_id":"ce4bhb12rcd13ifvqem0","pricing_plan_id":"cebpf4jnsgd1na2vs0mg"},{"bike_id":"90017611-e2b1-401c-bcbf-f9d526ffc823","system_id":"levelo_inurba_marseille","lat":43.29365,"lon":5.38328,"is_reserved":false,"is_disabled":false,"rental_uris":{"android":"levelo://app?vid=90017611-e2b1-401c-bcbf-f9d526ffc823","ios":"levelo://app?vid=90017611-e2b1-401c-bcbf-f9d526ffc823"},"vehicle_type_id":"4","last_reported":1739862560,"current_range_meters":16400,"station_id":"","pricing_plan_id":"cebpf4jnsgd1na2vs0mg"},{"bike_id":"fb5d34ef-b93b-40b7-8eaa-8f58d48a435b","system_id":"levelo_inurba_marseille","lat":43.23148,"lon":5.43709,"is_reserved":false,"is_disabled":false,"rental_uris":{"android":"levelo://app?vid=fb5d34ef-b93b-40b7-8eaa-8f58d48a435b","ios":"levelo://app?vid=fb5d34ef-b93b-40b7-8eaa-8f58d48a435b"},"vehicle_type_id":"4","last_reported":1739862560,"current_range_meters":16400,"station_id":"ce4bhmp2rcd13ifvqgog","pricing_plan_id":"cebpf4jnsgd1na2vs0mg"},{"bike_id":"07747fba-6e4c-4657-b618-35c53caa2193","system_id":"levelo_inurba_marseille","lat":43.29523,"lon":5.39034,"is_reserved":false,"is_disabled":false,"rental_uris":{"android":"levelo://app?vid=07747fba-6e4c-4657-b618-35c53caa2193","ios":"levelo://app?vid=07747fba-6e4c-4657-b618-35c53caa2193"},"vehicle_type_id":"4","last_reported":1739862560,"current_range_meters":16400,"station_id":"ce4bh3p2rcd13ifvqdp0","pricing_plan_id":"cebpf4jnsgd1na2vs0mg"},{"bike_id":"6bca68a9-7d33-4037-8851-559fd412af98","system_id":"levelo_inurba_marseille","lat":43.30951,"lon":5.3903,"is_reserved":false,"is_disabled":false,"rental_uris":{"android":"levelo://app?vid=6bca68a9-7d33-4037-8851-559fd412af98","ios":"levelo://app?vid=6bca68a9-7d33-4037-8851-559fd412af98"},"vehicle_type_id":"4","last_reported":1739862560,"current_range_meters":16400,"station_id":"ce4bgup2rcd13ifvqco0","pricing_plan_id":"cebpf4jnsgd1na2vs0mg"},{"bike_id":"8c1b6425-35d6-48a7-8fa6-960133ec665f","system_id":"levelo_inurba_marseille","lat":43.28161,"lon":5.42637,"is_reserved":false,"is_disabled":false,"rental_uris":{"android":"levelo://app?vid=8c1b6425-35d6-48a7-8fa6-960133ec665f","ios":"levelo://app?vid=8c1b6425-35d6-48a7-8fa6-960133ec665f"},"vehicle_type_id":"4","last_reported":1739862560,"current_range_meters":16800,"station_id":"ce4bhnh2rcd13ifvqgug","pricing_plan_id":"cebpf4jnsgd1na2vs0mg"},{"bike_id":"6982932c-8b58-44dc-b527-b718293a6b27","system_id":"levelo_inurba_marseille","lat":43.28157,"lon":5.42629,"is_reserved":false,"is_disabled":false,"rental_uris":{"android":"levelo://app?vid=6982932c-8b58-44dc-b527-b718293a6b27","ios":"levelo://app?vid=6982932c-8b58-44dc-b527-b718293a6b27"},"vehicle_type_id":"4","last_reported":1739862560,"current_range_meters":16800,"station_id":"ce4bhnh2rcd13ifvqgug","pricing_plan_id":"cebpf4jnsgd1na2vs0mg"},{"bike_id":"85add7b6-bb92-4123-9a9a-94dfccb80c3b","system_id":"levelo_inurba_marseille","lat":43.25086,"lon":5.395,"is_reserved":false,"is_disabled":false,"rental_uris":{"android":"levelo://app?vid=85add7b6-bb92-4123-9a9a-94dfccb80c3b","ios":"levelo://app?vid=85add7b6-bb92-4123-9a9a-94dfccb80c3b"},"vehicle_type_id":"4","last_reported":1739862560,"current_range_meters":16800,"station_id":"ce4bhm12rcd13ifvqgkg","pricing_plan_id":"cebpf4jnsgd1na2vs0mg"},{"bike_id":"25ea9eec-29d9-4063-8007-929ebb2d1ef2","system_id":"levelo_inurba_marseille","lat":43.25498,"lon":5.37651,"is_reserved":false,"is_disabled":false,"rental_uris":{"android":"levelo://app?vid=25ea9eec-29d9-4063-8007-929ebb2d1ef2","ios":"levelo://app?vid=25ea9eec-29d9-4063-8007-929ebb2d1ef2"},"vehicle_type_id":"4","last_reported":1739862560,"current_range_meters":16800,"station_id":"ce4bhh12rcd13ifvqff0","pricing_plan_id":"cebpf4jnsgd1na2vs0mg"},{"bike_id":"cc46e897-e27c-4289-91b5-bffbb42f60d3","system_id":"levelo_inurba_marseille","lat":43.24542,"lon":5.39541,"is_reserved":false,"is_disabled":false,"rental_uris":{"android":"levelo://app?vid=cc46e897-e27c-4289-91b5-bffbb42f60d3","ios":"levelo://app?vid=cc46e897-e27c-4289-91b5-bffbb42f60d3"},"vehicle_type_id":"4","last_reported":1739862560,"current_range_meters":16800,"station_id":"ce4bhlp2rcd13ifvqgjg","pricing_plan_id":"cebpf4jnsgd1na2vs0mg"},{"bike_id":"3a582d70-b23f-4aa8-bb69-d9d4a3eb0ba1","system_id":"levelo_inurba_marseille","lat":43.33716,"lon":5.39206,"is_reserved":false,"is_disabled":true,"rental_uris":{"android":"levelo://app?vid=3a582d70-b23f-4aa8-bb69-d9d4a3eb0ba1","ios":"levelo://app?vid=3a582d70-b23f-4aa8-bb69-d9d4a3eb0ba1"},"vehicle_type_id":"4","last_reported":1739862560,"current_range_meters":16800,"station_id":"ce4bhr92rcd13ifvqhsg","pricing_plan_id":"cebpf4jnsgd1na2vs0mg"},{"bike_id":"1219795a-2bd4-4703-8c38-cae46b85c7e0","system_id":"levelo_inurba_marseille","lat":43.24995,"lon":5.38942,"is_reserved":false,"is_disabled":false,"rental_uris":{"android":"levelo://app?vid=1219795a-2bd4-4703-8c38-cae46b85c7e0","ios":"levelo://app?vid=1219795a-2bd4-4703-8c38-cae46b85c7e0"},"vehicle_type_id":"4","last_reported":1739862560,"current_range_meters":17200,"station_id":"ce4bhgp2rcd13ifvqfd0","pricing_plan_id":"cebpf4jnsgd1na2vs0mg"},{"bike_id":"5c3e56f9-b7df-4b47-b1a7-e9fb85099b05","system_id":"levelo_inurba_marseille","lat":43.24551,"lon":5.39532,"is_reserved":false,"is_disabled":false,"rental_uris":{"android":"levelo://app?vid=5c3e56f9-b7df-4b47-b1a7-e9fb85099b05","ios":"levelo://app?vid=5c3e56f9-b7df-4b47-b1a7-e9fb85099b05"},"vehicle_type_id":"4","last_reported":1739862560,"current_range_meters":17200,"station_id":"ce4bhlp2rcd13ifvqgjg","pricing_plan_id":"cebpf4jnsgd1na2vs0mg"},{"bike_id":"7d2c7165-1f04-4bd7-a75e-2609b99ae28c","system_id":"levelo_inurba_marseille","lat":43.29963,"lon":5.37178,"is_reserved":false,"is_disabled":true,"rental_uris":{"android":"levelo://app?vid=7d2c7165-1f04-4bd7-a75e-2609b99ae28c","ios":"levelo://app?vid=7d2c7165-1f04-4bd7-a75e-2609b99ae28c"},"vehicle_type_id":"4","last_reported":1739862560,"current_range_meters":17200,"station_id":"ce4bgr92rcd13ifvqc7g","pricing_plan_id":"cebpf4jnsgd1na2vs0mg"},{"bike_id":"397b80cf-cbf3-4f7e-9d00-ad56509053a2","system_id":"levelo_inurba_marseille","lat":43.29174,"lon":5.39777,"is_reserved":false,"is_disabled":false,"rental_uris":{"android":"levelo://app?vid=397b80cf-cbf3-4f7e-9d00-ad56509053a2","ios":"levelo://app?vid=397b80cf-cbf3-4f7e-9d00-ad56509053a2"},"vehicle_type_id":"4","last_reported":1739862560,"current_range_meters":17200,"station_id":"","pricing_plan_id":"cebpf4jnsgd1na2vs0mg"},{"bike_id":"a9675de4-c23e-4501-873a-d1768837a1eb","system_id":"levelo_inurba_marseille","lat":43.28408,"lon":5.34998,"is_reserved":false,"is_disabled":false,"rental_uris":{"android":"levelo://app?vid=a9675de4-c23e-4501-873a-d1768837a1eb","ios":"levelo://app?vid=a9675de4-c23e-4501-873a-d1768837a1eb"},"vehicle_type_id":"4","last_reported":1739862560,"current_range_meters":17200,"station_id":"ce4bhbh2rcd13ifvqepg","pricing_plan_id":"cebpf4jnsgd1na2vs0mg"},{"bike_id":"1d63a175-89ef-49ff-9ead-dfe9ed6c22cf","system_id":"levelo_inurba_marseille","lat":43.24686,"lon":5.39427,"is_reserved":false,"is_disabled":false,"rental_uris":{"android":"levelo://app?vid=1d63a175-89ef-49ff-9ead-dfe9ed6c22cf","ios":"levelo://app?vid=1d63a175-89ef-49ff-9ead-dfe9ed6c22cf"},"vehicle_type_id":"4","last_reported":1739862560,"current_range_meters":17600,"station_id":"","pricing_plan_id":"cebpf4jnsgd1na2vs0mg"},{"bike_id":"915ca6ca-895d-4c43-9ac4-2866cf37c7b4","system_id":"levelo_inurba_marseille","lat":43.3014,"lon":5.38082,"is_reserved":false,"is_disabled":false,"rental_uris":{"android":"levelo://app?vid=915ca6ca-895d-4c43-9ac4-2866cf37c7b4","ios":"levelo://app?vid=915ca6ca-895d-4c43-9ac4-2866cf37c7b4"},"vehicle_type_id":"4","last_reported":1739862560,"current_range_meters":17600,"station_id":"ce4bgjp2rcd13ifvqbh0","pricing_plan_id":"cebpf4jnsgd1na2vs0mg"},{"bike_id":"f0376bed-5806-4a78-89e0-cc8934556f71","system_id":"levelo_inurba_marseille","lat":43.30339,"lon":5.40436,"is_reserved":false,"is_disabled":false,"rental_uris":{"android":"levelo://app?vid=f0376bed-5806-4a78-89e0-cc8934556f71","ios":"levelo://app?vid=f0376bed-5806-4a78-89e0-cc8934556f71"},"vehicle_type_id":"4","last_reported":1739862560,"current_range_meters":17600,"station_id":"ce4bh012rcd13ifvqd10","pricing_plan_id":"cebpf4jnsgd1na2vs0mg"},{"bike_id":"cdb027a0-b875-4ada-92c3-2d2168720582","system_id":"levelo_inurba_marseille","lat":43.28259,"lon":5.35104,"is_reserved":false,"is_disabled":true,"rental_uris":{"android":"levelo://app?vid=cdb027a0-b875-4ada-92c3-2d2168720582","ios":"levelo://app?vid=cdb027a0-b875-4ada-92c3-2d2168720582"},"vehicle_type_id":"4","last_reported":1739862560,"current_range_meters":17600,"station_id":"ce4bhbp2rcd13ifvqerg","pricing_plan_id":"cebpf4jnsgd1na2vs0mg"},{"bike_id":"71f6de3f-b047-4a90-b26f-741071f79f2e","system_id":"levelo_inurba_marseille","lat":43.30245,"lon":5.40051,"is_reserved":false,"is_disabled":false,"rental_uris":{"android":"levelo://app?vid=71f6de3f-b047-4a90-b26f-741071f79f2e","ios":"levelo://app?vid=71f6de3f-b047-4a90-b26f-741071f79f2e"},"vehicle_type_id":"4","last_reported":1739862560,"current_range_meters":18000,"station_id":"ce4bgvh2rcd13ifvqcs0","pricing_plan_id":"cebpf4jnsgd1na2vs0mg"},{"bike_id":"8bb362a7-136d-437c-9e85-b877952e9cf1","system_id":"levelo_inurba_marseille","lat":43.24649,"lon":5.389,"is_reserved":false,"is_disabled":false,"rental_uris":{"android":"levelo://app?vid=8bb362a7-136d-437c-9e85-b877952e9cf1","ios":"levelo://app?vid=8bb362a7-136d-437c-9e85-b877952e9cf1"},"vehicle_type_id":"4","last_reported":1739862560,"current_range_meters":18000,"station_id":"ce4bhg12rcd13ifvqf60","pricing_plan_id":"cebpf4jnsgd1na2vs0mg"},{"bike_id":"ee82290d-c247-4de5-a5bd-9fe99d27af05","system_id":"levelo_inurba_marseille","lat":43.31467,"lon":5.37308,"is_reserved":false,"is_disabled":false,"rental_uris":{"android":"levelo://app?vid=ee82290d-c247-4de5-a5bd-9fe99d27af05","ios":"levelo://app?vid=ee82290d-c247-4de5-a5bd-9fe99d27af05"},"vehicle_type_id":"4","last_reported":1739862560,"current_range_meters":18000,"station_id":"ce4bgt12rcd13ifvqcd0","pricing_plan_id":"cebpf4jnsgd1na2vs0mg"},{"bike_id":"7103b5c4-2da5-4946-b02f-1375157b7e36","system_id":"levelo_inurba_marseille","lat":43.24786,"lon":5.37463,"is_reserved":false,"is_disabled":false,"rental_uris":{"android":"levelo://app?vid=7103b5c4-2da5-4946-b02f-1375157b7e36","ios":"levelo://app?vid=7103b5c4-2da5-4946-b02f-1375157b7e36"},"vehicle_type_id":"4","last_reported":1739862560,"current_range_meters":18000,"station_id":"","pricing_plan_id":"cebpf4jnsgd1na2vs0mg"},{"bike_id":"5626338a-4144-48ad-b662-8be5f9612acf","system_id":"levelo_inurba_marseille","lat":43.29261,"lon":5.40937,"is_reserved":false,"is_disabled":false,"rental_uris":{"android":"levelo://app?vid=5626338a-4144-48ad-b662-8be5f9612acf","ios":"levelo://app?vid=5626338a-4144-48ad-b662-8be5f9612acf"},"vehicle_type_id":"4","last_reported":1739862560,"current_range_meters":18000,"station_id":"ce4bh192rcd13ifvqdc0","pricing_plan_id":"cebpf4jnsgd1na2vs0mg"},{"bike_id":"77e62d4a-f1b5-4aee-a386-838d1d8b4506","system_id":"levelo_inurba_marseille","lat":43.28031,"lon":5.36938,"is_reserved":false,"is_disabled":false,"rental_uris":{"android":"levelo://app?vid=77e62d4a-f1b5-4aee-a386-838d1d8b4506","ios":"levelo://app?vid=77e62d4a-f1b5-4aee-a386-838d1d8b4506"},"vehicle_type_id":"4","last_reported":1739862560,"current_range_meters":18000,"station_id":"ce4bha12rcd13ifvqef0","pricing_plan_id":"cebpf4jnsgd1na2vs0mg"},{"bike_id":"6cbab6ce-f7e6-4d23-9b8d-f692ec02e2de","system_id":"levelo_inurba_marseille","lat":43.2902,"lon":5.40013,"is_reserved":false,"is_disabled":false,"rental_uris":{"android":"levelo://app?vid=6cbab6ce-f7e6-4d23-9b8d-f692ec02e2de","ios":"levelo://app?vid=6cbab6ce-f7e6-4d23-9b8d-f692ec02e2de"},"vehicle_type_id":"4","last_reported":1739862560,"current_range_meters":18000,"station_id":"","pricing_plan_id":"cebpf4jnsgd1na2vs0mg"},{"bike_id":"d8c57d3f-3694-4b61-a356-9b5172d05933","system_id":"levelo_inurba_marseille","lat":43.286102,"lon":5.370659,"is_reserved":false,"is_disabled":false,"rental_uris":{"android":"levelo://app?vid=d8c57d3f-3694-4b61-a356-9b5172d05933","ios":"levelo://app?vid=d8c57d3f-3694-4b61-a356-9b5172d05933"},"vehicle_type_id":"4","last_reported":1739862560,"current_range_meters":18800,"station_id":"ce4bht12rcd13ifvqi60","pricing_plan_id":"cebpf4jnsgd1na2vs0mg"},{"bike_id":"795850c1-154b-40f0-b64c-d35acaa1861d","system_id":"levelo_inurba_marseille","lat":43.25006,"lon":5.38922,"is_reserved":false,"is_disabled":false,"rental_uris":{"android":"levelo://app?vid=795850c1-154b-40f0-b64c-d35acaa1861d","ios":"levelo://app?vid=795850c1-154b-40f0-b64c-d35acaa1861d"},"vehicle_type_id":"4","last_reported":1739862560,"current_range_meters":18800,"station_id":"ce4bhgp2rcd13ifvqfd0","pricing_plan_id":"cebpf4jnsgd1na2vs0mg"},{"bike_id":"baf6d894-ad10-49a9-b91a-24f60ad956f7","system_id":"levelo_inurba_marseille","lat":43.28976,"lon":5.4268,"is_reserved":false,"is_disabled":false,"rental_uris":{"android":"levelo://app?vid=baf6d894-ad10-49a9-b91a-24f60ad956f7","ios":"levelo://app?vid=baf6d894-ad10-49a9-b91a-24f60ad956f7"},"vehicle_type_id":"4","last_reported":1739862560,"current_range_meters":18800,"station_id":"","pricing_plan_id":"cebpf4jnsgd1na2vs0mg"},{"bike_id":"3f7d3547-c33d-422a-92f5-1a25f44f3462","system_id":"levelo_inurba_marseille","lat":43.28411,"lon":5.3752,"is_reserved":false,"is_disabled":false,"rental_uris":{"android":"levelo://app?vid=3f7d3547-c33d-422a-92f5-1a25f44f3462","ios":"levelo://app?vid=3f7d3547-c33d-422a-92f5-1a25f44f3462"},"vehicle_type_id":"4","last_reported":1739862560,"current_range_meters":18800,"station_id":"ce4bh412rcd13ifvqds0","pricing_plan_id":"cebpf4jnsgd1na2vs0mg"},{"bike_id":"f77eb7d8-9434-4c05-861f-edd4244aaffc","system_id":"levelo_inurba_marseille","lat":43.255,"lon":5.37646,"is_reserved":false,"is_disabled":false,"rental_uris":{"android":"levelo://app?vid=f77eb7d8-9434-4c05-861f-edd4244aaffc","ios":"levelo://app?vid=f77eb7d8-9434-4c05-861f-edd4244aaffc"},"vehicle_type_id":"4","last_reported":1739862560,"current_range_meters":19200,"station_id":"","pricing_plan_id":"cebpf4jnsgd1na2vs0mg"},{"bike_id":"adf03ceb-912c-4210-bd85-27ea29cecb0b","system_id":"levelo_inurba_marseille","lat":43.24167,"lon":5.36393,"is_reserved":false,"is_disabled":false,"rental_uris":{"android":"levelo://app?vid=adf03ceb-912c-4210-bd85-27ea29cecb0b","ios":"levelo://app?vid=adf03ceb-912c-4210-bd85-27ea29cecb0b"},"vehicle_type_id":"4","last_reported":1739862560,"current_range_meters":19200,"station_id":"cpo36qri1sfpv3e86is0","pricing_plan_id":"cebpf4jnsgd1na2vs0mg"},{"bike_id":"eb715102-e1b0-444b-990c-d34ec49d64ad","system_id":"levelo_inurba_marseille","lat":43.24198,"lon":5.39736,"is_reserved":false,"is_disabled":false,"rental_uris":{"android":"levelo://app?vid=eb715102-e1b0-444b-990c-d34ec49d64ad","ios":"levelo://app?vid=eb715102-e1b0-444b-990c-d34ec49d64ad"},"vehicle_type_id":"4","last_reported":1739862560,"current_range_meters":19200,"station_id":"ce4bhn12rcd13ifvqgpg","pricing_plan_id":"cebpf4jnsgd1na2vs0mg"},{"bike_id":"27f87414-00bf-4d75-b71b-257937dc6a47","system_id":"levelo_inurba_marseille","lat":43.31281,"lon":5.40175,"is_reserved":false,"is_disabled":false,"rental_uris":{"android":"levelo://app?vid=27f87414-00bf-4d75-b71b-257937dc6a47","ios":"levelo://app?vid=27f87414-00bf-4d75-b71b-257937dc6a47"},"vehicle_type_id":"4","last_reported":1739862560,"current_range_meters":19200,"station_id":"","pricing_plan_id":"cebpf4jnsgd1na2vs0mg"},{"bike_id":"dc6ae29d-5ca7-404b-a305-7953125436f7","system_id":"levelo_inurba_marseille","lat":43.30219,"lon":5.38112,"is_reserved":false,"is_disabled":false,"rental_uris":{"android":"levelo://app?vid=dc6ae29d-5ca7-404b-a305-7953125436f7","ios":"levelo://app?vid=dc6ae29d-5ca7-404b-a305-7953125436f7"},"vehicle_type_id":"4","last_reported":1739862560,"current_range_meters":19200,"station_id":"","pricing_plan_id":"cebpf4jnsgd1na2vs0mg"},{"bike_id":"c67fb496-8441-458a-af2d-8f07c087bdd0","system_id":"levelo_inurba_marseille","lat":43.24168,"lon":5.36382,"is_reserved":false,"is_disabled":false,"rental_uris":{"android":"levelo://app?vid=c67fb496-8441-458a-af2d-8f07c087bdd0","ios":"levelo://app?vid=c67fb496-8441-458a-af2d-8f07c087bdd0"},"vehicle_type_id":"4","last_reported":1739862560,"current_range_meters":19200,"station_id":"","pricing_plan_id":"cebpf4jnsgd1na2vs0mg"},{"bike_id":"db7f2d58-492d-4297-aa78-ce0ad99a0a74","system_id":"levelo_inurba_marseille","lat":43.25934,"lon":5.40904,"is_reserved":false,"is_disabled":false,"rental_uris":{"android":"levelo://app?vid=db7f2d58-492d-4297-aa78-ce0ad99a0a74","ios":"levelo://app?vid=db7f2d58-492d-4297-aa78-ce0ad99a0a74"},"vehicle_type_id":"4","last_reported":1739862560,"current_range_meters":19200,"station_id":"ce4bhb92rcd13ifvqen0","pricing_plan_id":"cebpf4jnsgd1na2vs0mg"},{"bike_id":"fc971b16-bef3-4b6d-813c-ffc8ffa48842","system_id":"levelo_inurba_marseille","lat":43.2841,"lon":5.34986,"is_reserved":false,"is_disabled":false,"rental_uris":{"android":"levelo://app?vid=fc971b16-bef3-4b6d-813c-ffc8ffa48842","ios":"levelo://app?vid=fc971b16-bef3-4b6d-813c-ffc8ffa48842"},"vehicle_type_id":"4","last_reported":1739862560,"current_range_meters":19200,"station_id":"","pricing_plan_id":"cebpf4jnsgd1na2vs0mg"},{"bike_id":"3feebfac-3157-460e-b553-9fec3335ae8e","system_id":"levelo_inurba_marseille","lat":43.28856,"lon":5.3584,"is_reserved":false,"is_disabled":false,"rental_uris":{"android":"levelo://app?vid=3feebfac-3157-460e-b553-9fec3335ae8e","ios":"levelo://app?vid=3feebfac-3157-460e-b553-9fec3335ae8e"},"vehicle_type_id":"4","last_reported":1739862560,"current_range_meters":19200,"station_id":"","pricing_plan_id":"cebpf4jnsgd1na2vs0mg"},{"bike_id":"02481fdb-74bd-4c10-8f53-3e1fd56632de","system_id":"levelo_inurba_marseille","lat":43.31357,"lon":5.38495,"is_reserved":false,"is_disabled":false,"rental_uris":{"android":"levelo://app?vid=02481fdb-74bd-4c10-8f53-3e1fd56632de","ios":"levelo://app?vid=02481fdb-74bd-4c10-8f53-3e1fd56632de"},"vehicle_type_id":"4","last_reported":1739862560,"current_range_meters":19200,"station_id":"ce4bgt92rcd13ifvqcf0","pricing_plan_id":"cebpf4jnsgd1na2vs0mg"},{"bike_id":"3a07f41d-d119-4aee-b84a-c30402f97b40","system_id":"levelo_inurba_marseille","lat":43.32138,"lon":5.37432,"is_reserved":false,"is_disabled":false,"rental_uris":{"android":"levelo://app?vid=3a07f41d-d119-4aee-b84a-c30402f97b40","ios":"levelo://app?vid=3a07f41d-d119-4aee-b84a-c30402f97b40"},"vehicle_type_id":"4","last_reported":1739862560,"current_range_meters":19200,"station_id":"","pricing_plan_id":"cebpf4jnsgd1na2vs0mg"},{"bike_id":"77ef0813-e2a5-4626-b9ca-f15698bd6eaf","system_id":"levelo_inurba_marseille","lat":43.30221,"lon":5.39486,"is_reserved":false,"is_disabled":false,"rental_uris":{"android":"levelo://app?vid=77ef0813-e2a5-4626-b9ca-f15698bd6eaf","ios":"levelo://app?vid=77ef0813-e2a5-4626-b9ca-f15698bd6eaf"},"vehicle_type_id":"4","last_reported":1739862560,"current_range_meters":19200,"station_id":"ce4bh0p2rcd13ifvqd70","pricing_plan_id":"cebpf4jnsgd1na2vs0mg"},{"bike_id":"b2b279a8-e3b3-4ba6-9a75-f4cfcf671234","system_id":"levelo_inurba_marseille","lat":43.29891,"lon":5.397709,"is_reserved":false,"is_disabled":false,"rental_uris":{"android":"levelo://app?vid=b2b279a8-e3b3-4ba6-9a75-f4cfcf671234","ios":"levelo://app?vid=b2b279a8-e3b3-4ba6-9a75-f4cfcf671234"},"vehicle_type_id":"4","last_reported":1739862560,"current_range_meters":19600,"station_id":"ce4bh0h2rcd13ifvqd50","pricing_plan_id":"cebpf4jnsgd1na2vs0mg"},{"bike_id":"7e1cc959-131e-4702-b4ca-d9b18cc60212","system_id":"levelo_inurba_marseille","lat":43.31992,"lon":5.38151,"is_reserved":false,"is_disabled":false,"rental_uris":{"android":"levelo://app?vid=7e1cc959-131e-4702-b4ca-d9b18cc60212","ios":"levelo://app?vid=7e1cc959-131e-4702-b4ca-d9b18cc60212"},"vehicle_type_id":"4","last_reported":1739862560,"current_range_meters":19600,"station_id":"ce4bhr12rcd13ifvqhpg","pricing_plan_id":"cebpf4jnsgd1na2vs0mg"},{"bike_id":"68b7ffbb-561b-484f-8939-9d1e3fca7052","system_id":"levelo_inurba_marseille","lat":43.32065,"lon":5.41553,"is_reserved":false,"is_disabled":false,"rental_uris":{"android":"levelo://app?vid=68b7ffbb-561b-484f-8939-9d1e3fca7052","ios":"levelo://app?vid=68b7ffbb-561b-484f-8939-9d1e3fca7052"},"vehicle_type_id":"4","last_reported":1739862560,"current_range_meters":19200,"station_id":"ce4bhq92rcd13ifvqhkg","pricing_plan_id":"cebpf4jnsgd1na2vs0mg"},{"bike_id":"5a6f5b5e-19e6-44ad-a3a1-838e47812873","system_id":"levelo_inurba_marseille","lat":43.30923,"lon":5.40143,"is_reserved":false,"is_disabled":false,"rental_uris":{"android":"levelo://app?vid=5a6f5b5e-19e6-44ad-a3a1-838e47812873","ios":"levelo://app?vid=5a6f5b5e-19e6-44ad-a3a1-838e47812873"},"vehicle_type_id":"4","last_reported":1739862560,"current_range_meters":19600,"station_id":"","pricing_plan_id":"cebpf4jnsgd1na2vs0mg"},{"bike_id":"ee4ca3b9-119e-493f-9632-3d965bd3c746","system_id":"levelo_inurba_marseille","lat":43.30932,"lon":5.40157,"is_reserved":false,"is_disabled":false,"rental_uris":{"android":"levelo://app?vid=ee4ca3b9-119e-493f-9632-3d965bd3c746","ios":"levelo://app?vid=ee4ca3b9-119e-493f-9632-3d965bd3c746"},"vehicle_type_id":"4","last_reported":1739862560,"current_range_meters":19600,"station_id":"ce4bgvp2rcd13ifvqct0","pricing_plan_id":"cebpf4jnsgd1na2vs0mg"},{"bike_id":"5f617bcb-a441-485d-a515-e2730e51e80c","system_id":"levelo_inurba_marseille","lat":43.26214,"lon":5.37449,"is_reserved":false,"is_disabled":false,"rental_uris":{"android":"levelo://app?vid=5f617bcb-a441-485d-a515-e2730e51e80c","ios":"levelo://app?vid=5f617bcb-a441-485d-a515-e2730e51e80c"},"vehicle_type_id":"4","last_reported":1739862560,"current_range_meters":19600,"station_id":"ce4bhgp2rcd13ifvqfc0","pricing_plan_id":"cebpf4jnsgd1na2vs0mg"},{"bike_id":"be59961e-616b-4c75-97c4-c082d5d8fd20","system_id":"levelo_inurba_marseille","lat":43.24174,"lon":5.39727,"is_reserved":false,"is_disabled":false,"rental_uris":{"android":"levelo://app?vid=be59961e-616b-4c75-97c4-c082d5d8fd20","ios":"levelo://app?vid=be59961e-616b-4c75-97c4-c082d5d8fd20"},"vehicle_type_id":"4","last_reported":1739862560,"current_range_meters":19600,"station_id":"ce4bhn12rcd13ifvqgpg","pricing_plan_id":"cebpf4jnsgd1na2vs0mg"},{"bike_id":"610d1e2a-4cd6-4dd7-9a69-0477965494b1","system_id":"levelo_inurba_marseille","lat":43.24181,"lon":5.39728,"is_reserved":false,"is_disabled":false,"rental_uris":{"android":"levelo://app?vid=610d1e2a-4cd6-4dd7-9a69-0477965494b1","ios":"levelo://app?vid=610d1e2a-4cd6-4dd7-9a69-0477965494b1"},"vehicle_type_id":"4","last_reported":1739862560,"current_range_meters":19600,"station_id":"ce4bhn12rcd13ifvqgpg","pricing_plan_id":"cebpf4jnsgd1na2vs0mg"},{"bike_id":"328ee43a-7fc8-4d89-9969-6abfd08009c2","system_id":"levelo_inurba_marseille","lat":43.30142,"lon":5.37406,"is_reserved":false,"is_disabled":false,"rental_uris":{"android":"levelo://app?vid=328ee43a-7fc8-4d89-9969-6abfd08009c2","ios":"levelo://app?vid=328ee43a-7fc8-4d89-9969-6abfd08009c2"},"vehicle_type_id":"4","last_reported":1739862560,"current_range_meters":19600,"station_id":"","pricing_plan_id":"cebpf4jnsgd1na2vs0mg"},{"bike_id":"27699aeb-cf31-49d2-9725-2b2c33e5046b","system_id":"levelo_inurba_marseille","lat":43.28409,"lon":5.37508,"is_reserved":false,"is_disabled":false,"rental_uris":{"android":"levelo://app?vid=27699aeb-cf31-49d2-9725-2b2c33e5046b","ios":"levelo://app?vid=27699aeb-cf31-49d2-9725-2b2c33e5046b"},"vehicle_type_id":"4","last_reported":1739862560,"current_range_meters":20000,"station_id":"ce4bh412rcd13ifvqds0","pricing_plan_id":"cebpf4jnsgd1na2vs0mg"},{"bike_id":"368ff4b2-eba1-4736-b292-f1a028bc2f7c","system_id":"levelo_inurba_marseille","lat":43.33021,"lon":5.39027,"is_reserved":false,"is_disabled":false,"rental_uris":{"android":"levelo://app?vid=368ff4b2-eba1-4736-b292-f1a028bc2f7c","ios":"levelo://app?vid=368ff4b2-eba1-4736-b292-f1a028bc2f7c"},"vehicle_type_id":"4","last_reported":1739862560,"current_range_meters":20000,"station_id":"ce4bhr92rcd13ifvqhrg","pricing_plan_id":"cebpf4jnsgd1na2vs0mg"},{"bike_id":"58640cba-6e55-4b9e-b1fa-5cd060086527","system_id":"levelo_inurba_marseille","lat":43.28369,"lon":5.38646,"is_reserved":false,"is_disabled":false,"rental_uris":{"android":"levelo://app?vid=58640cba-6e55-4b9e-b1fa-5cd060086527","ios":"levelo://app?vid=58640cba-6e55-4b9e-b1fa-5cd060086527"},"vehicle_type_id":"4","last_reported":1739862560,"current_range_meters":20000,"station_id":"ce4bh492rcd13ifvqdvg","pricing_plan_id":"cebpf4jnsgd1na2vs0mg"},{"bike_id":"a9f26ecd-e062-4c82-97bd-80c0dd29b1dc","system_id":"levelo_inurba_marseille","lat":43.284321,"lon":5.392024,"is_reserved":false,"is_disabled":false,"rental_uris":{"android":"levelo://app?vid=a9f26ecd-e062-4c82-97bd-80c0dd29b1dc","ios":"levelo://app?vid=a9f26ecd-e062-4c82-97bd-80c0dd29b1dc"},"vehicle_type_id":"4","last_reported":1739862560,"current_range_meters":20000,"station_id":"ce4bhoh2rcd13ifvqh5g","pricing_plan_id":"cebpf4jnsgd1na2vs0mg"},{"bike_id":"aab56d93-547d-40cc-9ff6-b85d4684f798","system_id":"levelo_inurba_marseille","lat":43.23955,"lon":5.36635,"is_reserved":false,"is_disabled":false,"rental_uris":{"android":"levelo://app?vid=aab56d93-547d-40cc-9ff6-b85d4684f798","ios":"levelo://app?vid=aab56d93-547d-40cc-9ff6-b85d4684f798"},"vehicle_type_id":"4","last_reported":1739862560,"current_range_meters":20000,"station_id":"ce4bhi12rcd13ifvqfp0","pricing_plan_id":"cebpf4jnsgd1na2vs0mg"},{"bike_id":"624a628b-d4b0-44e6-b6fe-3ea0a7939f4f","system_id":"levelo_inurba_marseille","lat":43.31045,"lon":5.38257,"is_reserved":false,"is_disabled":false,"rental_uris":{"android":"levelo://app?vid=624a628b-d4b0-44e6-b6fe-3ea0a7939f4f","ios":"levelo://app?vid=624a628b-d4b0-44e6-b6fe-3ea0a7939f4f"},"vehicle_type_id":"4","last_reported":1739862560,"current_range_meters":20000,"station_id":"ce4bgv92rcd13ifvqcr0","pricing_plan_id":"cebpf4jnsgd1na2vs0mg"},{"bike_id":"57428e68-6178-4a63-998d-4f2eb2a0c995","system_id":"levelo_inurba_marseille","lat":43.24141,"lon":5.36402,"is_reserved":false,"is_disabled":false,"rental_uris":{"android":"levelo://app?vid=57428e68-6178-4a63-998d-4f2eb2a0c995","ios":"levelo://app?vid=57428e68-6178-4a63-998d-4f2eb2a0c995"},"vehicle_type_id":"4","last_reported":1739862560,"current_range_meters":20400,"station_id":"cpo36qri1sfpv3e86is0","pricing_plan_id":"cebpf4jnsgd1na2vs0mg"},{"bike_id":"c92ecbe3-7a77-48c7-87ed-1e5f3fc778d8","system_id":"levelo_inurba_marseille","lat":43.28414,"lon":5.37516,"is_reserved":false,"is_disabled":false,"rental_uris":{"android":"levelo://app?vid=c92ecbe3-7a77-48c7-87ed-1e5f3fc778d8","ios":"levelo://app?vid=c92ecbe3-7a77-48c7-87ed-1e5f3fc778d8"},"vehicle_type_id":"4","last_reported":1739862560,"current_range_meters":20400,"station_id":"","pricing_plan_id":"cebpf4jnsgd1na2vs0mg"},{"bike_id":"41c506a1-a60d-4492-a45a-145392688886","system_id":"levelo_inurba_marseille","lat":43.24652,"lon":5.38886,"is_reserved":false,"is_disabled":true,"rental_uris":{"android":"levelo://app?vid=41c506a1-a60d-4492-a45a-145392688886","ios":"levelo://app?vid=41c506a1-a60d-4492-a45a-145392688886"},"vehicle_type_id":"4","last_reported":1739862560,"current_range_meters":20400,"station_id":"ce4bhg12rcd13ifvqf60","pricing_plan_id":"cebpf4jnsgd1na2vs0mg"},{"bike_id":"799bb645-8859-4a14-978c-a4e1f70c3f68","system_id":"levelo_inurba_marseille","lat":43.25599,"lon":5.38237,"is_reserved":false,"is_disabled":false,"rental_uris":{"android":"levelo://app?vid=799bb645-8859-4a14-978c-a4e1f70c3f68","ios":"levelo://app?vid=799bb645-8859-4a14-978c-a4e1f70c3f68"},"vehicle_type_id":"4","last_reported":1739862560,"current_range_meters":20400,"station_id":"ce4bhih2rcd13ifvqfs0","pricing_plan_id":"cebpf4jnsgd1na2vs0mg"},{"bike_id":"68572a5d-6c78-4009-9bdf-f24c5789f01f","system_id":"levelo_inurba_marseille","lat":43.32052,"lon":5.41588,"is_reserved":false,"is_disabled":false,"rental_uris":{"android":"levelo://app?vid=68572a5d-6c78-4009-9bdf-f24c5789f01f","ios":"levelo://app?vid=68572a5d-6c78-4009-9bdf-f24c5789f01f"},"vehicle_type_id":"4","last_reported":1739862560,"current_range_meters":20400,"station_id":"ce4bhq92rcd13ifvqhkg","pricing_plan_id":"cebpf4jnsgd1na2vs0mg"},{"bike_id":"d13e8c7a-c144-49fd-842a-5ea0706ba9e8","system_id":"levelo_inurba_marseille","lat":43.32283,"lon":5.3828,"is_reserved":false,"is_disabled":false,"rental_uris":{"android":"levelo://app?vid=d13e8c7a-c144-49fd-842a-5ea0706ba9e8","ios":"levelo://app?vid=d13e8c7a-c144-49fd-842a-5ea0706ba9e8"},"vehicle_type_id":"4","last_reported":1739862560,"current_range_meters":20400,"station_id":"","pricing_plan_id":"cebpf4jnsgd1na2vs0mg"},{"bike_id":"5f9ede52-c720-4107-a864-980fb2608395","system_id":"levelo_inurba_marseille","lat":43.24096,"lon":5.38667,"is_reserved":false,"is_disabled":false,"rental_uris":{"android":"levelo://app?vid=5f9ede52-c720-4107-a864-980fb2608395","ios":"levelo://app?vid=5f9ede52-c720-4107-a864-980fb2608395"},"vehicle_type_id":"4","last_reported":1739862560,"current_range_meters":20800,"station_id":"","pricing_plan_id":"cebpf4jnsgd1na2vs0mg"},{"bike_id":"1ae5853f-44a8-4bc0-b8ed-e7700e93a503","system_id":"levelo_inurba_marseille","lat":43.30791,"lon":5.3814,"is_reserved":false,"is_disabled":false,"rental_uris":{"android":"levelo://app?vid=1ae5853f-44a8-4bc0-b8ed-e7700e93a503","ios":"levelo://app?vid=1ae5853f-44a8-4bc0-b8ed-e7700e93a503"},"vehicle_type_id":"4","last_reported":1739862560,"current_range_meters":20800,"station_id":"ce4bgt12rcd13ifvqce0","pricing_plan_id":"cebpf4jnsgd1na2vs0mg"},{"bike_id":"47535517-ede3-4323-9258-ed17a11ca9a1","system_id":"levelo_inurba_marseille","lat":43.32122,"lon":5.36799,"is_reserved":false,"is_disabled":false,"rental_uris":{"android":"levelo://app?vid=47535517-ede3-4323-9258-ed17a11ca9a1","ios":"levelo://app?vid=47535517-ede3-4323-9258-ed17a11ca9a1"},"vehicle_type_id":"4","last_reported":1739862560,"current_range_meters":20800,"station_id":"ce4bhrh2rcd13ifvqhug","pricing_plan_id":"cebpf4jnsgd1na2vs0mg"},{"bike_id":"a0af3547-0f5a-4ee7-a39d-23ed992db956","system_id":"levelo_inurba_marseille","lat":43.23418,"lon":5.40452,"is_reserved":false,"is_disabled":false,"rental_uris":{"android":"levelo://app?vid=a0af3547-0f5a-4ee7-a39d-23ed992db956","ios":"levelo://app?vid=a0af3547-0f5a-4ee7-a39d-23ed992db956"},"vehicle_type_id":"4","last_reported":1739862560,"current_range_meters":20800,"station_id":"","pricing_plan_id":"cebpf4jnsgd1na2vs0mg"},{"bike_id":"24dd12c1-4d8a-40c0-b521-a98d2d462c41","system_id":"levelo_inurba_marseille","lat":43.24177,"lon":5.36394,"is_reserved":false,"is_disabled":false,"rental_uris":{"android":"levelo://app?vid=24dd12c1-4d8a-40c0-b521-a98d2d462c41","ios":"levelo://app?vid=24dd12c1-4d8a-40c0-b521-a98d2d462c41"},"vehicle_type_id":"4","last_reported":1739862560,"current_range_meters":20800,"station_id":"cpo36qri1sfpv3e86is0","pricing_plan_id":"cebpf4jnsgd1na2vs0mg"},{"bike_id":"e71745a8-cf40-4e56-8efd-83e19a4738e9","system_id":"levelo_inurba_marseille","lat":43.28346,"lon":5.38699,"is_reserved":false,"is_disabled":false,"rental_uris":{"android":"levelo://app?vid=e71745a8-cf40-4e56-8efd-83e19a4738e9","ios":"levelo://app?vid=e71745a8-cf40-4e56-8efd-83e19a4738e9"},"vehicle_type_id":"4","last_reported":1739862560,"current_range_meters":21600,"station_id":"ce4bh492rcd13ifvqdvg","pricing_plan_id":"cebpf4jnsgd1na2vs0mg"},{"bike_id":"83008b6b-a76b-4326-be86-5ef63e33f73a","system_id":"levelo_inurba_marseille","lat":43.284399,"lon":5.392068,"is_reserved":false,"is_disabled":false,"rental_uris":{"android":"levelo://app?vid=83008b6b-a76b-4326-be86-5ef63e33f73a","ios":"levelo://app?vid=83008b6b-a76b-4326-be86-5ef63e33f73a"},"vehicle_type_id":"4","last_reported":1739862560,"current_range_meters":21600,"station_id":"ce4bhoh2rcd13ifvqh5g","pricing_plan_id":"cebpf4jnsgd1na2vs0mg"},{"bike_id":"6ea42d93-9682-43a2-8778-2e5af3e16623","system_id":"levelo_inurba_marseille","lat":43.32614,"lon":5.39277,"is_reserved":false,"is_disabled":false,"rental_uris":{"android":"levelo://app?vid=6ea42d93-9682-43a2-8778-2e5af3e16623","ios":"levelo://app?vid=6ea42d93-9682-43a2-8778-2e5af3e16623"},"vehicle_type_id":"4","last_reported":1739862560,"current_range_meters":21600,"station_id":"ce4bhr92rcd13ifvqhrg","pricing_plan_id":"cebpf4jnsgd1na2vs0mg"},{"bike_id":"be2550c4-1d98-4f2f-858d-47d45566c021","system_id":"levelo_inurba_marseille","lat":43.27889,"lon":5.38015,"is_reserved":false,"is_disabled":false,"rental_uris":{"android":"levelo://app?vid=be2550c4-1d98-4f2f-858d-47d45566c021","ios":"levelo://app?vid=be2550c4-1d98-4f2f-858d-47d45566c021"},"vehicle_type_id":"4","last_reported":1739862560,"current_range_meters":21600,"station_id":"","pricing_plan_id":"cebpf4jnsgd1na2vs0mg"},{"bike_id":"2beeaecc-7141-45ce-9183-4645cb2e1cd1","system_id":"levelo_inurba_marseille","lat":43.29254,"lon":5.40926,"is_reserved":false,"is_disabled":false,"rental_uris":{"android":"levelo://app?vid=2beeaecc-7141-45ce-9183-4645cb2e1cd1","ios":"levelo://app?vid=2beeaecc-7141-45ce-9183-4645cb2e1cd1"},"vehicle_type_id":"4","last_reported":1739862560,"current_range_meters":21600,"station_id":"ce4bh192rcd13ifvqdc0","pricing_plan_id":"cebpf4jnsgd1na2vs0mg"},{"bike_id":"fb1a365f-292b-45e0-8295-96b46b4c15a8","system_id":"levelo_inurba_marseille","lat":43.24844,"lon":5.41892,"is_reserved":false,"is_disabled":false,"rental_uris":{"android":"levelo://app?vid=fb1a365f-292b-45e0-8295-96b46b4c15a8","ios":"levelo://app?vid=fb1a365f-292b-45e0-8295-96b46b4c15a8"},"vehicle_type_id":"4","last_reported":1739862560,"current_range_meters":22000,"station_id":"","pricing_plan_id":"cebpf4jnsgd1na2vs0mg"},{"bike_id":"5428c4a6-2268-45c5-aff9-a5f8e308d92b","system_id":"levelo_inurba_marseille","lat":43.30901,"lon":5.3729,"is_reserved":false,"is_disabled":false,"rental_uris":{"android":"levelo://app?vid=5428c4a6-2268-45c5-aff9-a5f8e308d92b","ios":"levelo://app?vid=5428c4a6-2268-45c5-aff9-a5f8e308d92b"},"vehicle_type_id":"4","last_reported":1739862560,"current_range_meters":22000,"station_id":"ce4bguh2rcd13ifvqckg","pricing_plan_id":"cebpf4jnsgd1na2vs0mg"},{"bike_id":"872e4198-e207-4ef7-bac4-9a3ee4ffc08e","system_id":"levelo_inurba_marseille","lat":43.30406,"lon":5.41292,"is_reserved":false,"is_disabled":false,"rental_uris":{"android":"levelo://app?vid=872e4198-e207-4ef7-bac4-9a3ee4ffc08e","ios":"levelo://app?vid=872e4198-e207-4ef7-bac4-9a3ee4ffc08e"},"vehicle_type_id":"4","last_reported":1739862560,"current_range_meters":22000,"station_id":"ce4bhop2rcd13ifvqh8g","pricing_plan_id":"cebpf4jnsgd1na2vs0mg"},{"bike_id":"3ca880fb-be5d-41b1-9e3c-19b59ea52225","system_id":"levelo_inurba_marseille","lat":43.25487,"lon":5.37652,"is_reserved":false,"is_disabled":false,"rental_uris":{"android":"levelo://app?vid=3ca880fb-be5d-41b1-9e3c-19b59ea52225","ios":"levelo://app?vid=3ca880fb-be5d-41b1-9e3c-19b59ea52225"},"vehicle_type_id":"4","last_reported":1739862560,"current_range_meters":22000,"station_id":"ce4bhh12rcd13ifvqff0","pricing_plan_id":"cebpf4jnsgd1na2vs0mg"},{"bike_id":"5089bb88-a0cd-4434-a1a9-f3d5b67361c6","system_id":"levelo_inurba_marseille","lat":43.24343,"lon":5.38708,"is_reserved":false,"is_disabled":false,"rental_uris":{"android":"levelo://app?vid=5089bb88-a0cd-4434-a1a9-f3d5b67361c6","ios":"levelo://app?vid=5089bb88-a0cd-4434-a1a9-f3d5b67361c6"},"vehicle_type_id":"4","last_reported":1739862560,"current_range_meters":22000,"station_id":"","pricing_plan_id":"cebpf4jnsgd1na2vs0mg"},{"bike_id":"a3d15b33-0b93-4467-a06d-143755b0b14c","system_id":"levelo_inurba_marseille","lat":43.29626,"lon":5.40602,"is_reserved":false,"is_disabled":false,"rental_uris":{"android":"levelo://app?vid=a3d15b33-0b93-4467-a06d-143755b0b14c","ios":"levelo://app?vid=a3d15b33-0b93-4467-a06d-143755b0b14c"},"vehicle_type_id":"4","last_reported":1739862560,"current_range_meters":22000,"station_id":"ce4bh0h2rcd13ifvqd60","pricing_plan_id":"cebpf4jnsgd1na2vs0mg"},{"bike_id":"1fe5d99b-d78a-4e8a-bd7c-18c63b4c739f","system_id":"levelo_inurba_marseille","lat":43.26538,"lon":5.37287,"is_reserved":false,"is_disabled":false,"rental_uris":{"android":"levelo://app?vid=1fe5d99b-d78a-4e8a-bd7c-18c63b4c739f","ios":"levelo://app?vid=1fe5d99b-d78a-4e8a-bd7c-18c63b4c739f"},"vehicle_type_id":"4","last_reported":1739862560,"current_range_meters":22000,"station_id":"ce4bhg12rcd13ifvqf70","pricing_plan_id":"cebpf4jnsgd1na2vs0mg"},{"bike_id":"eb502d45-8500-4929-b785-42da26f3aa37","system_id":"levelo_inurba_marseille","lat":43.33744,"lon":5.37454,"is_reserved":false,"is_disabled":true,"rental_uris":{"android":"levelo://app?vid=eb502d45-8500-4929-b785-42da26f3aa37","ios":"levelo://app?vid=eb502d45-8500-4929-b785-42da26f3aa37"},"vehicle_type_id":"4","last_reported":1739862560,"current_range_meters":22000,"station_id":"","pricing_plan_id":"cebpf4jnsgd1na2vs0mg"},{"bike_id":"f9fea61b-e5ff-48ce-95b8-8ee89500195b","system_id":"levelo_inurba_marseille","lat":43.27821,"lon":5.39197,"is_reserved":false,"is_disabled":false,"rental_uris":{"android":"levelo://app?vid=f9fea61b-e5ff-48ce-95b8-8ee89500195b","ios":"levelo://app?vid=f9fea61b-e5ff-48ce-95b8-8ee89500195b"},"vehicle_type_id":"4","last_reported":1739862560,"current_range_meters":22000,"station_id":"ce4bhjp2rcd13ifvqga0","pricing_plan_id":"cebpf4jnsgd1na2vs0mg"},{"bike_id":"7371a458-5614-4c34-a3ee-6e25fcfd9c7b","system_id":"levelo_inurba_marseille","lat":43.24657,"lon":5.38879,"is_reserved":false,"is_disabled":false,"rental_uris":{"android":"levelo://app?vid=7371a458-5614-4c34-a3ee-6e25fcfd9c7b","ios":"levelo://app?vid=7371a458-5614-4c34-a3ee-6e25fcfd9c7b"},"vehicle_type_id":"4","last_reported":1739862560,"current_range_meters":22000,"station_id":"","pricing_plan_id":"cebpf4jnsgd1na2vs0mg"},{"bike_id":"24ae4e97-e7f0-436f-b21b-3ece91f960bf","system_id":"levelo_inurba_marseille","lat":43.24762,"lon":5.37439,"is_reserved":false,"is_disabled":false,"rental_uris":{"android":"levelo://app?vid=24ae4e97-e7f0-436f-b21b-3ece91f960bf","ios":"levelo://app?vid=24ae4e97-e7f0-436f-b21b-3ece91f960bf"},"vehicle_type_id":"4","last_reported":1739862560,"current_range_meters":22000,"station_id":"","pricing_plan_id":"cebpf4jnsgd1na2vs0mg"},{"bike_id":"00f490a6-8943-4b92-b917-315b6ea71dbc","system_id":"levelo_inurba_marseille","lat":43.25073,"lon":5.39492,"is_reserved":false,"is_disabled":false,"rental_uris":{"android":"levelo://app?vid=00f490a6-8943-4b92-b917-315b6ea71dbc","ios":"levelo://app?vid=00f490a6-8943-4b92-b917-315b6ea71dbc"},"vehicle_type_id":"4","last_reported":1739862560,"current_range_meters":22000,"station_id":"ce4bhm12rcd13ifvqgkg","pricing_plan_id":"cebpf4jnsgd1na2vs0mg"},{"bike_id":"432903d6-a7f7-40f4-8d64-9864fcc17a88","system_id":"levelo_inurba_marseille","lat":43.25104,"lon":5.40335,"is_reserved":false,"is_disabled":false,"rental_uris":{"android":"levelo://app?vid=432903d6-a7f7-40f4-8d64-9864fcc17a88","ios":"levelo://app?vid=432903d6-a7f7-40f4-8d64-9864fcc17a88"},"vehicle_type_id":"4","last_reported":1739862560,"current_range_meters":22400,"station_id":"ce4bhlh2rcd13ifvqgig","pricing_plan_id":"cebpf4jnsgd1na2vs0mg"},{"bike_id":"951adb6b-bd52-4459-a47f-c676634d781f","system_id":"levelo_inurba_marseille","lat":43.30244,"lon":5.400557,"is_reserved":false,"is_disabled":false,"rental_uris":{"android":"levelo://app?vid=951adb6b-bd52-4459-a47f-c676634d781f","ios":"levelo://app?vid=951adb6b-bd52-4459-a47f-c676634d781f"},"vehicle_type_id":"4","last_reported":1739862560,"current_range_meters":22400,"station_id":"ce4bgvh2rcd13ifvqcs0","pricing_plan_id":"cebpf4jnsgd1na2vs0mg"},{"bike_id":"83865251-84a5-4cc3-ab7c-0e0516a82604","system_id":"levelo_inurba_marseille","lat":43.2705,"lon":5.40265,"is_reserved":false,"is_disabled":false,"rental_uris":{"android":"levelo://app?vid=83865251-84a5-4cc3-ab7c-0e0516a82604","ios":"levelo://app?vid=83865251-84a5-4cc3-ab7c-0e0516a82604"},"vehicle_type_id":"4","last_reported":1739862560,"current_range_meters":22400,"station_id":"ce4bhk92rcd13ifvqgc0","pricing_plan_id":"cebpf4jnsgd1na2vs0mg"},{"bike_id":"c89df0d7-6104-4a72-b166-1b0d2ab19cb6","system_id":"levelo_inurba_marseille","lat":43.30894,"lon":5.3966,"is_reserved":false,"is_disabled":false,"rental_uris":{"android":"levelo://app?vid=c89df0d7-6104-4a72-b166-1b0d2ab19cb6","ios":"levelo://app?vid=c89df0d7-6104-4a72-b166-1b0d2ab19cb6"},"vehicle_type_id":"4","last_reported":1739862560,"current_range_meters":22400,"station_id":"ce4bh012rcd13ifvqcv0","pricing_plan_id":"cebpf4jnsgd1na2vs0mg"},{"bike_id":"ab5e2e90-6a9c-49d8-b38e-3722577723e7","system_id":"levelo_inurba_marseille","lat":43.303192,"lon":5.404335,"is_reserved":false,"is_disabled":false,"rental_uris":{"android":"levelo://app?vid=ab5e2e90-6a9c-49d8-b38e-3722577723e7","ios":"levelo://app?vid=ab5e2e90-6a9c-49d8-b38e-3722577723e7"},"vehicle_type_id":"4","last_reported":1739862560,"current_range_meters":22400,"station_id":"ce4bh012rcd13ifvqd10","pricing_plan_id":"cebpf4jnsgd1na2vs0mg"},{"bike_id":"f6602e77-e8fa-47d2-bb90-7755e9fb4975","system_id":"levelo_inurba_marseille","lat":43.27042,"lon":5.40296,"is_reserved":false,"is_disabled":true,"rental_uris":{"android":"levelo://app?vid=f6602e77-e8fa-47d2-bb90-7755e9fb4975","ios":"levelo://app?vid=f6602e77-e8fa-47d2-bb90-7755e9fb4975"},"vehicle_type_id":"4","last_reported":1739862560,"current_range_meters":22400,"station_id":"ce4bhk92rcd13ifvqgc0","pricing_plan_id":"cebpf4jnsgd1na2vs0mg"},{"bike_id":"d20040a2-1a6e-4cbe-bb03-cd9c03b404f2","system_id":"levelo_inurba_marseille","lat":43.31713,"lon":5.42397,"is_reserved":false,"is_disabled":true,"rental_uris":{"android":"levelo://app?vid=d20040a2-1a6e-4cbe-bb03-cd9c03b404f2","ios":"levelo://app?vid=d20040a2-1a6e-4cbe-bb03-cd9c03b404f2"},