{"last_updated":1730455868,"ttl":60,"version":"2.2","data":{"bikes":[{"bike_id":"baa5d8b2-8abc-4f47-aaea-2b6f975fb2b0","system_id":"levelo_inurba_marseille","lat":43.28889,"lon":5.35401,"is_reserved":false,"is_disabled":false,"rental_uris":{"android":"levelo://app?vid=baa5d8b2-8abc-4f47-aaea-2b6f975fb2b0","ios":"levelo://app?vid=baa5d8b2-8abc-4f47-aaea-2b6f975fb2b0"},"vehicle_type_id":"4","last_reported":1730455868,"current_range_meters":6800,"station_id":"ce4bhbh2rcd13ifvqepg","pricing_plan_id":"cebpf4jnsgd1na2vs0mg"},{"bike_id":"5f91fdb1-af44-4e60-814c-d84487ed3693","system_id":"levelo_inurba_marseille","lat":43.24665,"lon":5.3817,"is_reserved":false,"is_disabled":false,"rental_uris":{"android":"levelo://app?vid=5f91fdb1-af44-4e60-814c-d84487ed3693","ios":"levelo://app?vid=5f91fdb1-af44-4e60-814c-d84487ed3693"},"vehicle_type_id":"4","last_reported":1730455868,"current_range_meters":36000,"station_id":"ce4bhih2rcd13ifvqfr0","pricing_plan_id":"cebpf4jnsgd1na2vs0mg"},{"bike_id":"e3924428-a085-40f6-a0c3-a6a5f32fffb8","system_id":"levelo_inurba_marseille","lat":43.28693,"lon":5.39973,"is_reserved":false,"is_disabled":false,"rental_uris":{"android":"levelo://app?vid=e3924428-a085-40f6-a0c3-a6a5f32fffb8","ios":"levelo://app?vid=e3924428-a085-40f6-a0c3-a6a5f32fffb8"},"vehicle_type_id":"4","last_reported":1730455868,"current_range_meters":38800,"station_id":"ce4bho92rcd13ifvqh3g","pricing_plan_id":"cebpf4jnsgd1na2vs0mg"},{"bike_id":"79775cb6-e142-42ae-8ada-def004fb2ec5","system_id":"levelo_inurba_marseille","lat":43.29842,"lon":5.36269,"is_reserved":false,"is_disabled":false,"rental_uris":{"android":"levelo://app?vid=79775cb6-e142-42ae-8ada-def004fb2ec5","ios":"levelo://app?vid=79775cb6-e142-42ae-8ada-def004fb2ec5"},"vehicle_type_id":"4","last_reported":1730455868,"current_range_meters":20000,"station_id":"ce4bgpp2rcd13ifvqc3g","pricing_plan_id":"cebpf4jnsgd1na2vs0mg"},{"bike_id":"d96cd40f-33a1-47ea-9406-146c2890c1b1","system_id":"levelo_inurba_marseille","lat":43.2693,"lon":5.38913,"is_reserved":false,"is_disabled":false,"rental_uris":{"android":"levelo://app?vid=d96cd40f-33a1-47ea-9406-146c2890c1b1","ios":"levelo://app?vid=d96cd40f-33a1-47ea-9406-146c2890c1b1"},"vehicle_type_id":"4","last_reported":1730455868,"current_range_meters":37600,"station_id":"ce4bhhh2rcd13ifvqfl0","pricing_plan_id":"cebpf4jnsgd1na2vs0mg"},{"bike_id":"641cbb44-6505-428a-a278-5b8b97cf4cf1","system_id":"levelo_inurba_marseille","lat":43.29183,"lon":5.40858,"is_reserved":false,"is_disabled":false,"rental_uris":{"android":"levelo://app?vid=641cbb44-6505-428a-a278-5b8b97cf4cf1","ios":"levelo://app?vid=641cbb44-6505-428a-a278-5b8b97cf4cf1"},"vehicle_type_id":"4","last_reported":1730455868,"current_range_meters":25200,"station_id":"","pricing_plan_id":"cebpf4jnsgd1na2vs0mg"},{"bike_id":"f7f81435-9821-46e6-9d1c-f3b957839b95","system_id":"levelo_inurba_marseille","lat":43.27322,"lon":5.39109,"is_reserved":false,"is_disabled":false,"rental_uris":{"android":"levelo://app?vid=f7f81435-9821-46e6-9d1c-f3b957839b95","ios":"levelo://app?vid=f7f81435-9821-46e6-9d1c-f3b957839b95"},"vehicle_type_id":"4","last_reported":1730455868,"current_range_meters":38000,"station_id":"ce4bhgp2rcd13ifvqfe0","pricing_plan_id":"cebpf4jnsgd1na2vs0mg"},{"bike_id":"b564d8bc-2b59-43dd-ad25-39bd7cd1e42e","system_id":"levelo_inurba_marseille","lat":43.31699,"lon":5.37768,"is_reserved":false,"is_disabled":false,"rental_uris":{"android":"levelo://app?vid=b564d8bc-2b59-43dd-ad25-39bd7cd1e42e","ios":"levelo://app?vid=b564d8bc-2b59-43dd-ad25-39bd7cd1e42e"},"vehicle_type_id":"4","last_reported":1730455868,"current_range_meters":8400,"station_id":"ce4bgth2rcd13ifvqch0","pricing_plan_id":"cebpf4jnsgd1na2vs0mg"},{"bike_id":"1099ec88-9859-4df2-a4d7-5666eed8892b","system_id":"levelo_inurba_marseille","lat":43.3042,"lon":5.38902,"is_reserved":false,"is_disabled":false,"rental_uris":{"android":"levelo://app?vid=1099ec88-9859-4df2-a4d7-5666eed8892b","ios":"levelo://app?vid=1099ec88-9859-4df2-a4d7-5666eed8892b"},"vehicle_type_id":"4","last_reported":1730455868,"current_range_meters":37600,"station_id":"ce4bgk12rcd13ifvqbi0","pricing_plan_id":"cebpf4jnsgd1na2vs0mg"},{"bike_id":"766c4c64-f391-400f-aa60-2213e57dc167","system_id":"levelo_inurba_marseille","lat":43.26928,"lon":5.38913,"is_reserved":false,"is_disabled":false,"rental_uris":{"android":"levelo://app?vid=766c4c64-f391-400f-aa60-2213e57dc167","ios":"levelo://app?vid=766c4c64-f391-400f-aa60-2213e57dc167"},"vehicle_type_id":"4","last_reported":1730455868,"current_range_meters":25200,"station_id":"ce4bhhh2rcd13ifvqfl0","pricing_plan_id":"cebpf4jnsgd1na2vs0mg"},{"bike_id":"ce76a33b-6890-4e29-aecc-203a354cadc2","system_id":"levelo_inurba_marseille","lat":43.25727,"lon":5.41106,"is_reserved":false,"is_disabled":false,"rental_uris":{"android":"levelo://app?vid=ce76a33b-6890-4e29-aecc-203a354cadc2","ios":"levelo://app?vid=ce76a33b-6890-4e29-aecc-203a354cadc2"},"vehicle_type_id":"4","last_reported":1730455868,"current_range_meters":17200,"station_id":"ce4bhkp2rcd13ifvqgd0","pricing_plan_id":"cebpf4jnsgd1na2vs0mg"},{"bike_id":"a4627486-a087-47d1-bdea-e9476cd49986","system_id":"levelo_inurba_marseille","lat":43.23198,"lon":5.35549,"is_reserved":false,"is_disabled":false,"rental_uris":{"android":"levelo://app?vid=a4627486-a087-47d1-bdea-e9476cd49986","ios":"levelo://app?vid=a4627486-a087-47d1-bdea-e9476cd49986"},"vehicle_type_id":"4","last_reported":1730455868,"current_range_meters":32000,"station_id":"ce4bhu92rcd13ifvqi70","pricing_plan_id":"cebpf4jnsgd1na2vs0mg"},{"bike_id":"55dab1c5-8299-4ba5-b0e5-ab02ab9376bc","system_id":"levelo_inurba_marseille","lat":43.2418,"lon":5.39727,"is_reserved":false,"is_disabled":false,"rental_uris":{"android":"levelo://app?vid=55dab1c5-8299-4ba5-b0e5-ab02ab9376bc","ios":"levelo://app?vid=55dab1c5-8299-4ba5-b0e5-ab02ab9376bc"},"vehicle_type_id":"4","last_reported":1730455868,"current_range_meters":39200,"station_id":"ce4bhn12rcd13ifvqgpg","pricing_plan_id":"cebpf4jnsgd1na2vs0mg"},{"bike_id":"251520cb-54bb-4805-b5f5-64c50512a246","system_id":"levelo_inurba_marseille","lat":43.26952,"lon":5.38627,"is_reserved":false,"is_disabled":false,"rental_uris":{"android":"levelo://app?vid=251520cb-54bb-4805-b5f5-64c50512a246","ios":"levelo://app?vid=251520cb-54bb-4805-b5f5-64c50512a246"},"vehicle_type_id":"4","last_reported":1730455868,"current_range_meters":11600,"station_id":"ce4bhh92rcd13ifvqfh0","pricing_plan_id":"cebpf4jnsgd1na2vs0mg"},{"bike_id":"509a9bdc-ca48-4855-8040-748bb9b3087b","system_id":"levelo_inurba_marseille","lat":43.25942,"lon":5.40902,"is_reserved":false,"is_disabled":false,"rental_uris":{"android":"levelo://app?vid=509a9bdc-ca48-4855-8040-748bb9b3087b","ios":"levelo://app?vid=509a9bdc-ca48-4855-8040-748bb9b3087b"},"vehicle_type_id":"4","last_reported":1730455868,"current_range_meters":27600,"station_id":"ce4bhm92rcd13ifvqglg","pricing_plan_id":"cebpf4jnsgd1na2vs0mg"},{"bike_id":"c6349e91-9caa-4934-a8ae-6e1d497938dd","system_id":"levelo_inurba_marseille","lat":43.28615,"lon":5.35103,"is_reserved":false,"is_disabled":false,"rental_uris":{"android":"levelo://app?vid=c6349e91-9caa-4934-a8ae-6e1d497938dd","ios":"levelo://app?vid=c6349e91-9caa-4934-a8ae-6e1d497938dd"},"vehicle_type_id":"4","last_reported":1730455868,"current_range_meters":38800,"station_id":"ce4bhch2rcd13ifvqeug","pricing_plan_id":"cebpf4jnsgd1na2vs0mg"},{"bike_id":"b58d7959-be24-4558-8014-49895e2f8ed4","system_id":"levelo_inurba_marseille","lat":43.23152,"lon":5.43712,"is_reserved":false,"is_disabled":false,"rental_uris":{"android":"levelo://app?vid=b58d7959-be24-4558-8014-49895e2f8ed4","ios":"levelo://app?vid=b58d7959-be24-4558-8014-49895e2f8ed4"},"vehicle_type_id":"4","last_reported":1730455868,"current_range_meters":11200,"station_id":"ce4bhmp2rcd13ifvqgog","pricing_plan_id":"cebpf4jnsgd1na2vs0mg"},{"bike_id":"daad737e-8bd0-41a4-bc45-7496fa3faef9","system_id":"levelo_inurba_marseille","lat":43.30552,"lon":5.36557,"is_reserved":false,"is_disabled":false,"rental_uris":{"android":"levelo://app?vid=daad737e-8bd0-41a4-bc45-7496fa3faef9","ios":"levelo://app?vid=daad737e-8bd0-41a4-bc45-7496fa3faef9"},"vehicle_type_id":"4","last_reported":1730455868,"current_range_meters":13600,"station_id":"ce4bgs12rcd13ifvqcag","pricing_plan_id":"cebpf4jnsgd1na2vs0mg"},{"bike_id":"efbe383f-83c6-4df5-ac1f-ffa8f2e0197b","system_id":"levelo_inurba_marseille","lat":43.31335,"lon":5.39699,"is_reserved":false,"is_disabled":false,"rental_uris":{"android":"levelo://app?vid=efbe383f-83c6-4df5-ac1f-ffa8f2e0197b","ios":"levelo://app?vid=efbe383f-83c6-4df5-ac1f-ffa8f2e0197b"},"vehicle_type_id":"4","last_reported":1730455868,"current_range_meters":10000,"station_id":"ce4bgvp2rcd13ifvqcu0","pricing_plan_id":"cebpf4jnsgd1na2vs0mg"},{"bike_id":"294680c1-5157-4d45-9976-b7f51a16ef56","system_id":"levelo_inurba_marseille","lat":43.23959,"lon":5.36636,"is_reserved":false,"is_disabled":false,"rental_uris":{"android":"levelo://app?vid=294680c1-5157-4d45-9976-b7f51a16ef56","ios":"levelo://app?vid=294680c1-5157-4d45-9976-b7f51a16ef56"},"vehicle_type_id":"4","last_reported":1730455868,"current_range_meters":11600,"station_id":"ce4bhi12rcd13ifvqfp0","pricing_plan_id":"cebpf4jnsgd1na2vs0mg"},{"bike_id":"424595a3-ecd3-4284-abb1-59e35556f759","system_id":"levelo_inurba_marseille","lat":43.2858,"lon":5.38442,"is_reserved":false,"is_disabled":false,"rental_uris":{"android":"levelo://app?vid=424595a3-ecd3-4284-abb1-59e35556f759","ios":"levelo://app?vid=424595a3-ecd3-4284-abb1-59e35556f759"},"vehicle_type_id":"4","last_reported":1730455868,"current_range_meters":38400,"station_id":"ce4bh512rcd13ifvqe3g","pricing_plan_id":"cebpf4jnsgd1na2vs0mg"},{"bike_id":"4e02fe6a-90d7-480d-a4ae-fa0cd1824de0","system_id":"levelo_inurba_marseille","lat":43.29915,"lon":5.37467,"is_reserved":false,"is_disabled":false,"rental_uris":{"android":"levelo://app?vid=4e02fe6a-90d7-480d-a4ae-fa0cd1824de0","ios":"levelo://app?vid=4e02fe6a-90d7-480d-a4ae-fa0cd1824de0"},"vehicle_type_id":"4","last_reported":1730455868,"current_range_meters":26800,"station_id":"ce4bgjh2rcd13ifvqbg0","pricing_plan_id":"cebpf4jnsgd1na2vs0mg"},{"bike_id":"90ca8d0a-6768-48be-b64d-0ae3dd3c8e17","system_id":"levelo_inurba_marseille","lat":43.30352,"lon":5.41879,"is_reserved":false,"is_disabled":false,"rental_uris":{"android":"levelo://app?vid=90ca8d0a-6768-48be-b64d-0ae3dd3c8e17","ios":"levelo://app?vid=90ca8d0a-6768-48be-b64d-0ae3dd3c8e17"},"vehicle_type_id":"4","last_reported":1730455868,"current_range_meters":38800,"station_id":"ce4bhop2rcd13ifvqh7g","pricing_plan_id":"cebpf4jnsgd1na2vs0mg"},{"bike_id":"cbe4a0a6-ecb2-4885-accd-0ebdc6514d1c","system_id":"levelo_inurba_marseille","lat":43.24179,"lon":5.39721,"is_reserved":false,"is_disabled":false,"rental_uris":{"android":"levelo://app?vid=cbe4a0a6-ecb2-4885-accd-0ebdc6514d1c","ios":"levelo://app?vid=cbe4a0a6-ecb2-4885-accd-0ebdc6514d1c"},"vehicle_type_id":"4","last_reported":1730455868,"current_range_meters":22000,"station_id":"ce4bhn12rcd13ifvqgpg","pricing_plan_id":"cebpf4jnsgd1na2vs0mg"},{"bike_id":"fc873b88-f903-4972-ac6f-958aec7f3a20","system_id":"levelo_inurba_marseille","lat":43.29013,"lon":5.35609,"is_reserved":false,"is_disabled":false,"rental_uris":{"android":"levelo://app?vid=fc873b88-f903-4972-ac6f-958aec7f3a20","ios":"levelo://app?vid=fc873b88-f903-4972-ac6f-958aec7f3a20"},"vehicle_type_id":"4","last_reported":1730455868,"current_range_meters":28000,"station_id":"ce4bhb92rcd13ifvqen0","pricing_plan_id":"cebpf4jnsgd1na2vs0mg"},{"bike_id":"f9ca7690-caae-4f1d-a17d-558cfad72653","system_id":"levelo_inurba_marseille","lat":43.2481,"lon":5.37456,"is_reserved":false,"is_disabled":false,"rental_uris":{"android":"levelo://app?vid=f9ca7690-caae-4f1d-a17d-558cfad72653","ios":"levelo://app?vid=f9ca7690-caae-4f1d-a17d-558cfad72653"},"vehicle_type_id":"4","last_reported":1730455868,"current_range_meters":18000,"station_id":"ce4bhgh2rcd13ifvqfb0","pricing_plan_id":"cebpf4jnsgd1na2vs0mg"},{"bike_id":"276c9587-13b1-4ed9-a5c3-41b5dd9ac5c5","system_id":"levelo_inurba_marseille","lat":43.25833,"lon":5.39434,"is_reserved":false,"is_disabled":false,"rental_uris":{"android":"levelo://app?vid=276c9587-13b1-4ed9-a5c3-41b5dd9ac5c5","ios":"levelo://app?vid=276c9587-13b1-4ed9-a5c3-41b5dd9ac5c5"},"vehicle_type_id":"4","last_reported":1730455868,"current_range_meters":33600,"station_id":"ce4bhip2rcd13ifvqft0","pricing_plan_id":"cebpf4jnsgd1na2vs0mg"},{"bike_id":"78a612f8-736d-42d9-a4a3-0e0e23328073","system_id":"levelo_inurba_marseille","lat":43.28927,"lon":5.36402,"is_reserved":false,"is_disabled":false,"rental_uris":{"android":"levelo://app?vid=78a612f8-736d-42d9-a4a3-0e0e23328073","ios":"levelo://app?vid=78a612f8-736d-42d9-a4a3-0e0e23328073"},"vehicle_type_id":"4","last_reported":1730455868,"current_range_meters":30000,"station_id":"ce4bhc92rcd13ifvqetg","pricing_plan_id":"cebpf4jnsgd1na2vs0mg"},{"bike_id":"902a84d5-56ca-468a-a9e6-146ab5c6eab3","system_id":"levelo_inurba_marseille","lat":43.25091,"lon":5.39517,"is_reserved":false,"is_disabled":false,"rental_uris":{"android":"levelo://app?vid=902a84d5-56ca-468a-a9e6-146ab5c6eab3","ios":"levelo://app?vid=902a84d5-56ca-468a-a9e6-146ab5c6eab3"},"vehicle_type_id":"4","last_reported":1730455868,"current_range_meters":17600,"station_id":"ce4bhm12rcd13ifvqgkg","pricing_plan_id":"cebpf4jnsgd1na2vs0mg"},{"bike_id":"c809b9c7-4e9f-4d82-ae25-fbc4e7e19952","system_id":"levelo_inurba_marseille","lat":43.32289,"lon":5.38262,"is_reserved":false,"is_disabled":false,"rental_uris":{"android":"levelo://app?vid=c809b9c7-4e9f-4d82-ae25-fbc4e7e19952","ios":"levelo://app?vid=c809b9c7-4e9f-4d82-ae25-fbc4e7e19952"},"vehicle_type_id":"4","last_reported":1730455868,"current_range_meters":28000,"station_id":"ce4bhr12rcd13ifvqhqg","pricing_plan_id":"cebpf4jnsgd1na2vs0mg"},{"bike_id":"98e591af-1b37-4791-81f8-0a1125c50536","system_id":"levelo_inurba_marseille","lat":43.26209,"lon":5.37923,"is_reserved":false,"is_disabled":false,"rental_uris":{"android":"levelo://app?vid=98e591af-1b37-4791-81f8-0a1125c50536","ios":"levelo://app?vid=98e591af-1b37-4791-81f8-0a1125c50536"},"vehicle_type_id":"4","last_reported":1730455868,"current_range_meters":39200,"station_id":"ce4bhjp2rcd13ifvqg90","pricing_plan_id":"cebpf4jnsgd1na2vs0mg"},{"bike_id":"26bba1f9-66ab-4140-9d48-433793d5e552","system_id":"levelo_inurba_marseille","lat":43.31367,"lon":5.38496,"is_reserved":false,"is_disabled":false,"rental_uris":{"android":"levelo://app?vid=26bba1f9-66ab-4140-9d48-433793d5e552","ios":"levelo://app?vid=26bba1f9-66ab-4140-9d48-433793d5e552"},"vehicle_type_id":"4","last_reported":1730455868,"current_range_meters":30800,"station_id":"ce4bgt92rcd13ifvqcf0","pricing_plan_id":"cebpf4jnsgd1na2vs0mg"},{"bike_id":"198df009-1951-45de-9853-b72d6a30946a","system_id":"levelo_inurba_marseille","lat":43.3112,"lon":5.377677,"is_reserved":false,"is_disabled":false,"rental_uris":{"android":"levelo://app?vid=198df009-1951-45de-9853-b72d6a30946a","ios":"levelo://app?vid=198df009-1951-45de-9853-b72d6a30946a"},"vehicle_type_id":"4","last_reported":1730455868,"current_range_meters":24800,"station_id":"ce4bgt92rcd13ifvqcg0","pricing_plan_id":"cebpf4jnsgd1na2vs0mg"},{"bike_id":"85afd25d-d86d-4f37-9f25-c69aab1cc07b","system_id":"levelo_inurba_marseille","lat":43.25569,"lon":5.3824,"is_reserved":false,"is_disabled":false,"rental_uris":{"android":"levelo://app?vid=85afd25d-d86d-4f37-9f25-c69aab1cc07b","ios":"levelo://app?vid=85afd25d-d86d-4f37-9f25-c69aab1cc07b"},"vehicle_type_id":"4","last_reported":1730455868,"current_range_meters":35600,"station_id":"ce4bhih2rcd13ifvqfs0","pricing_plan_id":"cebpf4jnsgd1na2vs0mg"},{"bike_id":"1b436f23-8f0b-4583-9175-5da63ed86193","system_id":"levelo_inurba_marseille","lat":43.23957,"lon":5.36635,"is_reserved":false,"is_disabled":false,"rental_uris":{"android":"levelo://app?vid=1b436f23-8f0b-4583-9175-5da63ed86193","ios":"levelo://app?vid=1b436f23-8f0b-4583-9175-5da63ed86193"},"vehicle_type_id":"4","last_reported":1730455868,"current_range_meters":12000,"station_id":"ce4bhi12rcd13ifvqfp0","pricing_plan_id":"cebpf4jnsgd1na2vs0mg"},{"bike_id":"60d9d657-3ec8-40ef-b87b-c6f9930662bd","system_id":"levelo_inurba_marseille","lat":43.31484,"lon":5.37299,"is_reserved":false,"is_disabled":false,"rental_uris":{"android":"levelo://app?vid=60d9d657-3ec8-40ef-b87b-c6f9930662bd","ios":"levelo://app?vid=60d9d657-3ec8-40ef-b87b-c6f9930662bd"},"vehicle_type_id":"4","last_reported":1730455868,"current_range_meters":33200,"station_id":"ce4bgt12rcd13ifvqcd0","pricing_plan_id":"cebpf4jnsgd1na2vs0mg"},{"bike_id":"23899da7-6bd5-4892-91e7-c9d03a78d3ca","system_id":"levelo_inurba_marseille","lat":43.27987,"lon":5.40039,"is_reserved":false,"is_disabled":false,"rental_uris":{"android":"levelo://app?vid=23899da7-6bd5-4892-91e7-c9d03a78d3ca","ios":"levelo://app?vid=23899da7-6bd5-4892-91e7-c9d03a78d3ca"},"vehicle_type_id":"4","last_reported":1730455868,"current_range_meters":28000,"station_id":"ce4bho92rcd13ifvqh4g","pricing_plan_id":"cebpf4jnsgd1na2vs0mg"},{"bike_id":"72feaf02-2739-4ac2-a695-188f23da7347","system_id":"levelo_inurba_marseille","lat":43.30145,"lon":5.38104,"is_reserved":false,"is_disabled":false,"rental_uris":{"android":"levelo://app?vid=72feaf02-2739-4ac2-a695-188f23da7347","ios":"levelo://app?vid=72feaf02-2739-4ac2-a695-188f23da7347"},"vehicle_type_id":"4","last_reported":1730455868,"current_range_meters":36800,"station_id":"ce4bgjp2rcd13ifvqbh0","pricing_plan_id":"cebpf4jnsgd1na2vs0mg"},{"bike_id":"ee30699b-cd46-479d-82bf-f7ee7df9a7b1","system_id":"levelo_inurba_marseille","lat":43.2815,"lon":5.42646,"is_reserved":false,"is_disabled":false,"rental_uris":{"android":"levelo://app?vid=ee30699b-cd46-479d-82bf-f7ee7df9a7b1","ios":"levelo://app?vid=ee30699b-cd46-479d-82bf-f7ee7df9a7b1"},"vehicle_type_id":"4","last_reported":1730455868,"current_range_meters":38800,"station_id":"ce4bhnh2rcd13ifvqgug","pricing_plan_id":"cebpf4jnsgd1na2vs0mg"},{"bike_id":"6145c9dc-5b52-4909-8b3e-d43a8dd315dc","system_id":"levelo_inurba_marseille","lat":43.27176,"lon":5.40989,"is_reserved":false,"is_disabled":false,"rental_uris":{"android":"levelo://app?vid=6145c9dc-5b52-4909-8b3e-d43a8dd315dc","ios":"levelo://app?vid=6145c9dc-5b52-4909-8b3e-d43a8dd315dc"},"vehicle_type_id":"4","last_reported":1730455868,"current_range_meters":6000,"station_id":"ce4bhl12rcd13ifvqgf0","pricing_plan_id":"cebpf4jnsgd1na2vs0mg"},{"bike_id":"cf1161f5-becf-4318-b6cc-e88047514b52","system_id":"levelo_inurba_marseille","lat":43.31316,"lon":5.39696,"is_reserved":false,"is_disabled":false,"rental_uris":{"android":"levelo://app?vid=cf1161f5-becf-4318-b6cc-e88047514b52","ios":"levelo://app?vid=cf1161f5-becf-4318-b6cc-e88047514b52"},"vehicle_type_id":"4","last_reported":1730455868,"current_range_meters":25200,"station_id":"ce4bgvp2rcd13ifvqcu0","pricing_plan_id":"cebpf4jnsgd1na2vs0mg"},{"bike_id":"aeea1237-3887-42d7-be21-0e7463630790","system_id":"levelo_inurba_marseille","lat":43.23718,"lon":5.40195,"is_reserved":false,"is_disabled":false,"rental_uris":{"android":"levelo://app?vid=aeea1237-3887-42d7-be21-0e7463630790","ios":"levelo://app?vid=aeea1237-3887-42d7-be21-0e7463630790"},"vehicle_type_id":"4","last_reported":1730455868,"current_range_meters":15200,"station_id":"","pricing_plan_id":"cebpf4jnsgd1na2vs0mg"},{"bike_id":"66b5e339-d925-491c-ba42-89ebe2b6d2eb","system_id":"levelo_inurba_marseille","lat":43.31759,"lon":5.39014,"is_reserved":false,"is_disabled":false,"rental_uris":{"android":"levelo://app?vid=66b5e339-d925-491c-ba42-89ebe2b6d2eb","ios":"levelo://app?vid=66b5e339-d925-491c-ba42-89ebe2b6d2eb"},"vehicle_type_id":"4","last_reported":1730455868,"current_range_meters":38800,"station_id":"ce4bhqp2rcd13ifvqhng","pricing_plan_id":"cebpf4jnsgd1na2vs0mg"},{"bike_id":"6164d29c-0bd4-4200-b18e-0e61665fdcb7","system_id":"levelo_inurba_marseille","lat":43.25109,"lon":5.40325,"is_reserved":false,"is_disabled":false,"rental_uris":{"android":"levelo://app?vid=6164d29c-0bd4-4200-b18e-0e61665fdcb7","ios":"levelo://app?vid=6164d29c-0bd4-4200-b18e-0e61665fdcb7"},"vehicle_type_id":"4","last_reported":1730455868,"current_range_meters":18000,"station_id":"ce4bhlh2rcd13ifvqgig","pricing_plan_id":"cebpf4jnsgd1na2vs0mg"},{"bike_id":"15279d15-7fec-4497-99b5-ea531da5ea5a","system_id":"levelo_inurba_marseille","lat":43.29255,"lon":5.409,"is_reserved":false,"is_disabled":false,"rental_uris":{"android":"levelo://app?vid=15279d15-7fec-4497-99b5-ea531da5ea5a","ios":"levelo://app?vid=15279d15-7fec-4497-99b5-ea531da5ea5a"},"vehicle_type_id":"4","last_reported":1730455868,"current_range_meters":38400,"station_id":"ce4bh192rcd13ifvqdc0","pricing_plan_id":"cebpf4jnsgd1na2vs0mg"},{"bike_id":"44e27d21-4c64-416a-95eb-3e3c655974f1","system_id":"levelo_inurba_marseille","lat":43.31173,"lon":5.387106,"is_reserved":false,"is_disabled":false,"rental_uris":{"android":"levelo://app?vid=44e27d21-4c64-416a-95eb-3e3c655974f1","ios":"levelo://app?vid=44e27d21-4c64-416a-95eb-3e3c655974f1"},"vehicle_type_id":"4","last_reported":1730455868,"current_range_meters":38800,"station_id":"ce4bgv12rcd13ifvqcp0","pricing_plan_id":"cebpf4jnsgd1na2vs0mg"},{"bike_id":"b3ad5088-c7ef-49de-a937-9a834cc45155","system_id":"levelo_inurba_marseille","lat":43.290407,"lon":5.35915,"is_reserved":false,"is_disabled":false,"rental_uris":{"android":"levelo://app?vid=b3ad5088-c7ef-49de-a937-9a834cc45155","ios":"levelo://app?vid=b3ad5088-c7ef-49de-a937-9a834cc45155"},"vehicle_type_id":"4","last_reported":1730455868,"current_range_meters":38800,"station_id":"ce4bha92rcd13ifvqeg0","pricing_plan_id":"cebpf4jnsgd1na2vs0mg"},{"bike_id":"a7ec41c8-dcfa-4e25-a1cc-63cc085966da","system_id":"levelo_inurba_marseille","lat":43.29578,"lon":5.36745,"is_reserved":false,"is_disabled":false,"rental_uris":{"android":"levelo://app?vid=a7ec41c8-dcfa-4e25-a1cc-63cc085966da","ios":"levelo://app?vid=a7ec41c8-dcfa-4e25-a1cc-63cc085966da"},"vehicle_type_id":"4","last_reported":1730455868,"current_range_meters":38800,"station_id":"ce4bgph2rcd13ifvqc2g","pricing_plan_id":"cebpf4jnsgd1na2vs0mg"},{"bike_id":"69355a51-41a5-4455-b14c-61dd7df03e2c","system_id":"levelo_inurba_marseille","lat":43.33731,"lon":5.39185,"is_reserved":false,"is_disabled":false,"rental_uris":{"android":"levelo://app?vid=69355a51-41a5-4455-b14c-61dd7df03e2c","ios":"levelo://app?vid=69355a51-41a5-4455-b14c-61dd7df03e2c"},"vehicle_type_id":"4","last_reported":1730455868,"current_range_meters":38800,"station_id":"ce4bhr92rcd13ifvqhsg","pricing_plan_id":"cebpf4jnsgd1na2vs0mg"},{"bike_id":"b8812829-13c4-4cd9-8648-e8f45673a8cb","system_id":"levelo_inurba_marseille","lat":43.30411,"lon":5.41289,"is_reserved":false,"is_disabled":false,"rental_uris":{"android":"levelo://app?vid=b8812829-13c4-4cd9-8648-e8f45673a8cb","ios":"levelo://app?vid=b8812829-13c4-4cd9-8648-e8f45673a8cb"},"vehicle_type_id":"4","last_reported":1730455868,"current_range_meters":6400,"station_id":"ce4bhop2rcd13ifvqh8g","pricing_plan_id":"cebpf4jnsgd1na2vs0mg"},{"bike_id":"a4f65a49-db3f-451d-9348-b869f1e20dd5","system_id":"levelo_inurba_marseille","lat":43.23961,"lon":5.36621,"is_reserved":false,"is_disabled":false,"rental_uris":{"android":"levelo://app?vid=a4f65a49-db3f-451d-9348-b869f1e20dd5","ios":"levelo://app?vid=a4f65a49-db3f-451d-9348-b869f1e20dd5"},"vehicle_type_id":"4","last_reported":1730455868,"current_range_meters":8400,"station_id":"ce4bhi12rcd13ifvqfp0","pricing_plan_id":"cebpf4jnsgd1na2vs0mg"},{"bike_id":"0d386634-2e45-4f6d-b152-f6a6855eb133","system_id":"levelo_inurba_marseille","lat":43.26197,"lon":5.37449,"is_reserved":false,"is_disabled":false,"rental_uris":{"android":"levelo://app?vid=0d386634-2e45-4f6d-b152-f6a6855eb133","ios":"levelo://app?vid=0d386634-2e45-4f6d-b152-f6a6855eb133"},"vehicle_type_id":"4","last_reported":1730455868,"current_range_meters":30000,"station_id":"ce4bhgp2rcd13ifvqfc0","pricing_plan_id":"cebpf4jnsgd1na2vs0mg"},{"bike_id":"9938ebcd-9900-4f33-ae62-087d07b91466","system_id":"levelo_inurba_marseille","lat":43.25726,"lon":5.41109,"is_reserved":false,"is_disabled":false,"rental_uris":{"android":"levelo://app?vid=9938ebcd-9900-4f33-ae62-087d07b91466","ios":"levelo://app?vid=9938ebcd-9900-4f33-ae62-087d07b91466"},"vehicle_type_id":"4","last_reported":1730455868,"current_range_meters":37600,"station_id":"ce4bhkp2rcd13ifvqgd0","pricing_plan_id":"cebpf4jnsgd1na2vs0mg"},{"bike_id":"a3532ce9-83c4-4e4f-80b1-34680b043682","system_id":"levelo_inurba_marseille","lat":43.31268,"lon":5.40167,"is_reserved":false,"is_disabled":false,"rental_uris":{"android":"levelo://app?vid=a3532ce9-83c4-4e4f-80b1-34680b043682","ios":"levelo://app?vid=a3532ce9-83c4-4e4f-80b1-34680b043682"},"vehicle_type_id":"4","last_reported":1730455868,"current_range_meters":38000,"station_id":"ce4bh092rcd13ifvqd30","pricing_plan_id":"cebpf4jnsgd1na2vs0mg"},{"bike_id":"9d361add-9eb5-4a13-ae18-0cc78beeaf0a","system_id":"levelo_inurba_marseille","lat":43.24081,"lon":5.37757,"is_reserved":false,"is_disabled":false,"rental_uris":{"android":"levelo://app?vid=9d361add-9eb5-4a13-ae18-0cc78beeaf0a","ios":"levelo://app?vid=9d361add-9eb5-4a13-ae18-0cc78beeaf0a"},"vehicle_type_id":"4","last_reported":1730455868,"current_range_meters":16400,"station_id":"ce4bhnp2rcd13ifvqgvg","pricing_plan_id":"cebpf4jnsgd1na2vs0mg"},{"bike_id":"b8296e76-0447-46c0-be06-c578170cf1bc","system_id":"levelo_inurba_marseille","lat":43.31375,"lon":5.38496,"is_reserved":false,"is_disabled":false,"rental_uris":{"android":"levelo://app?vid=b8296e76-0447-46c0-be06-c578170cf1bc","ios":"levelo://app?vid=b8296e76-0447-46c0-be06-c578170cf1bc"},"vehicle_type_id":"4","last_reported":1730455868,"current_range_meters":39200,"station_id":"ce4bgt92rcd13ifvqcf0","pricing_plan_id":"cebpf4jnsgd1na2vs0mg"},{"bike_id":"5a63124a-aee8-434c-b0ac-506155e9b15f","system_id":"levelo_inurba_marseille","lat":43.30151,"lon":5.38087,"is_reserved":false,"is_disabled":false,"rental_uris":{"android":"levelo://app?vid=5a63124a-aee8-434c-b0ac-506155e9b15f","ios":"levelo://app?vid=5a63124a-aee8-434c-b0ac-506155e9b15f"},"vehicle_type_id":"4","last_reported":1730455868,"current_range_meters":12800,"station_id":"ce4bgjp2rcd13ifvqbh0","pricing_plan_id":"cebpf4jnsgd1na2vs0mg"},{"bike_id":"5c8a5bb5-a198-4a3b-92e7-8543db03156f","system_id":"levelo_inurba_marseille","lat":43.31705,"lon":5.37771,"is_reserved":false,"is_disabled":false,"rental_uris":{"android":"levelo://app?vid=5c8a5bb5-a198-4a3b-92e7-8543db03156f","ios":"levelo://app?vid=5c8a5bb5-a198-4a3b-92e7-8543db03156f"},"vehicle_type_id":"4","last_reported":1730455868,"current_range_meters":39200,"station_id":"ce4bgth2rcd13ifvqch0","pricing_plan_id":"cebpf4jnsgd1na2vs0mg"},{"bike_id":"a916599f-804e-4508-947b-869589ac73c6","system_id":"levelo_inurba_marseille","lat":43.29041,"lon":5.35921,"is_reserved":false,"is_disabled":false,"rental_uris":{"android":"levelo://app?vid=a916599f-804e-4508-947b-869589ac73c6","ios":"levelo://app?vid=a916599f-804e-4508-947b-869589ac73c6"},"vehicle_type_id":"4","last_reported":1730455868,"current_range_meters":30800,"station_id":"ce4bha92rcd13ifvqeg0","pricing_plan_id":"cebpf4jnsgd1na2vs0mg"},{"bike_id":"0ec0d2cb-5362-4973-a924-a30377225e0a","system_id":"levelo_inurba_marseille","lat":43.32659,"lon":5.40994,"is_reserved":false,"is_disabled":false,"rental_uris":{"android":"levelo://app?vid=0ec0d2cb-5362-4973-a924-a30377225e0a","ios":"levelo://app?vid=0ec0d2cb-5362-4973-a924-a30377225e0a"},"vehicle_type_id":"4","last_reported":1730455868,"current_range_meters":38400,"station_id":"ce4bhpp2rcd13ifvqhgg","pricing_plan_id":"cebpf4jnsgd1na2vs0mg"},{"bike_id":"f98362a5-3b33-4fdf-8c1a-d5cba9f1b1ae","system_id":"levelo_inurba_marseille","lat":43.23152,"lon":5.43716,"is_reserved":false,"is_disabled":false,"rental_uris":{"android":"levelo://app?vid=f98362a5-3b33-4fdf-8c1a-d5cba9f1b1ae","ios":"levelo://app?vid=f98362a5-3b33-4fdf-8c1a-d5cba9f1b1ae"},"vehicle_type_id":"4","last_reported":1730455868,"current_range_meters":20400,"station_id":"ce4bhmp2rcd13ifvqgog","pricing_plan_id":"cebpf4jnsgd1na2vs0mg"},{"bike_id":"05b66808-27ba-48de-8c25-fa6353c85930","system_id":"levelo_inurba_marseille","lat":43.27102,"lon":5.40415,"is_reserved":false,"is_disabled":false,"rental_uris":{"android":"levelo://app?vid=05b66808-27ba-48de-8c25-fa6353c85930","ios":"levelo://app?vid=05b66808-27ba-48de-8c25-fa6353c85930"},"vehicle_type_id":"4","last_reported":1730455868,"current_range_meters":10800,"station_id":"ce4bhjp2rcd13ifvqga0","pricing_plan_id":"cebpf4jnsgd1na2vs0mg"},{"bike_id":"9daca46e-b450-4f6e-8fa7-dc74aa35a5dd","system_id":"levelo_inurba_marseille","lat":43.23103,"lon":5.40065,"is_reserved":false,"is_disabled":false,"rental_uris":{"android":"levelo://app?vid=9daca46e-b450-4f6e-8fa7-dc74aa35a5dd","ios":"levelo://app?vid=9daca46e-b450-4f6e-8fa7-dc74aa35a5dd"},"vehicle_type_id":"4","last_reported":1730455868,"current_range_meters":21600,"station_id":"ce4bhn12rcd13ifvqgqg","pricing_plan_id":"cebpf4jnsgd1na2vs0mg"},{"bike_id":"0bd966fd-877b-4aae-8013-4621694ce072","system_id":"levelo_inurba_marseille","lat":43.32483,"lon":5.36564,"is_reserved":false,"is_disabled":false,"rental_uris":{"android":"levelo://app?vid=0bd966fd-877b-4aae-8013-4621694ce072","ios":"levelo://app?vid=0bd966fd-877b-4aae-8013-4621694ce072"},"vehicle_type_id":"4","last_reported":1730455868,"current_range_meters":30800,"station_id":"ce4bhs12rcd13ifvqhvg","pricing_plan_id":"cebpf4jnsgd1na2vs0mg"},{"bike_id":"8d6faa9d-f2d2-4424-a082-d0813e9c1a90","system_id":"levelo_inurba_marseille","lat":43.30155,"lon":5.38084,"is_reserved":false,"is_disabled":false,"rental_uris":{"android":"levelo://app?vid=8d6faa9d-f2d2-4424-a082-d0813e9c1a90","ios":"levelo://app?vid=8d6faa9d-f2d2-4424-a082-d0813e9c1a90"},"vehicle_type_id":"4","last_reported":1730455868,"current_range_meters":27600,"station_id":"ce4bgjp2rcd13ifvqbh0","pricing_plan_id":"cebpf4jnsgd1na2vs0mg"},{"bike_id":"7471bc9b-f984-44e8-a6de-2b1222eeead0","system_id":"levelo_inurba_marseille","lat":43.24169,"lon":5.36398,"is_reserved":false,"is_disabled":false,"rental_uris":{"android":"levelo://app?vid=7471bc9b-f984-44e8-a6de-2b1222eeead0","ios":"levelo://app?vid=7471bc9b-f984-44e8-a6de-2b1222eeead0"},"vehicle_type_id":"4","last_reported":1730455868,"current_range_meters":6800,"station_id":"cpo36qri1sfpv3e86is0","pricing_plan_id":"cebpf4jnsgd1na2vs0mg"},{"bike_id":"33a098b5-2f3f-4957-af96-675614306bdc","system_id":"levelo_inurba_marseille","lat":43.2828,"lon":5.39019,"is_reserved":false,"is_disabled":false,"rental_uris":{"android":"levelo://app?vid=33a098b5-2f3f-4957-af96-675614306bdc","ios":"levelo://app?vid=33a098b5-2f3f-4957-af96-675614306bdc"},"vehicle_type_id":"4","last_reported":1730455868,"current_range_meters":16800,"station_id":"","pricing_plan_id":"cebpf4jnsgd1na2vs0mg"},{"bike_id":"4212ed85-ff34-4499-ae29-16668a8060f7","system_id":"levelo_inurba_marseille","lat":43.30079,"lon":5.39088,"is_reserved":false,"is_disabled":false,"rental_uris":{"android":"levelo://app?vid=4212ed85-ff34-4499-ae29-16668a8060f7","ios":"levelo://app?vid=4212ed85-ff34-4499-ae29-16668a8060f7"},"vehicle_type_id":"4","last_reported":1730455868,"current_range_meters":22400,"station_id":"ce4bh192rcd13ifvqdb0","pricing_plan_id":"cebpf4jnsgd1na2vs0mg"},{"bike_id":"6ff8bf17-2d96-4f0b-8642-84efad003e44","system_id":"levelo_inurba_marseille","lat":43.2987,"lon":5.39737,"is_reserved":false,"is_disabled":false,"rental_uris":{"android":"levelo://app?vid=6ff8bf17-2d96-4f0b-8642-84efad003e44","ios":"levelo://app?vid=6ff8bf17-2d96-4f0b-8642-84efad003e44"},"vehicle_type_id":"4","last_reported":1730455868,"current_range_meters":2000,"station_id":"ce4bh0h2rcd13ifvqd50","pricing_plan_id":"cebpf4jnsgd1na2vs0mg"},{"bike_id":"a8594471-923b-4371-82a5-d750e1a3d991","system_id":"levelo_inurba_marseille","lat":43.31517,"lon":5.38035,"is_reserved":false,"is_disabled":false,"rental_uris":{"android":"levelo://app?vid=a8594471-923b-4371-82a5-d750e1a3d991","ios":"levelo://app?vid=a8594471-923b-4371-82a5-d750e1a3d991"},"vehicle_type_id":"4","last_reported":1730455868,"current_range_meters":9600,"station_id":"ce4bhsp2rcd13ifvqi50","pricing_plan_id":"cebpf4jnsgd1na2vs0mg"},{"bike_id":"18523ad7-955d-42dc-abaf-2865bf277e38","system_id":"levelo_inurba_marseille","lat":43.30537,"lon":5.38427,"is_reserved":false,"is_disabled":false,"rental_uris":{"android":"levelo://app?vid=18523ad7-955d-42dc-abaf-2865bf277e38","ios":"levelo://app?vid=18523ad7-955d-42dc-abaf-2865bf277e38"},"vehicle_type_id":"4","last_reported":1730455868,"current_range_meters":38800,"station_id":"ce4bgg92rcd13ifvqb30","pricing_plan_id":"cebpf4jnsgd1na2vs0mg"},{"bike_id":"b4374be5-c859-4dd7-b0da-f39f616816e6","system_id":"levelo_inurba_marseille","lat":43.30155,"lon":5.38082,"is_reserved":false,"is_disabled":false,"rental_uris":{"android":"levelo://app?vid=b4374be5-c859-4dd7-b0da-f39f616816e6","ios":"levelo://app?vid=b4374be5-c859-4dd7-b0da-f39f616816e6"},"vehicle_type_id":"4","last_reported":1730455868,"current_range_meters":37600,"station_id":"ce4bgjp2rcd13ifvqbh0","pricing_plan_id":"cebpf4jnsgd1na2vs0mg"},{"bike_id":"a0e3f3da-7c15-4cc6-b660-e90d2af5bffc","system_id":"levelo_inurba_marseille","lat":43.30425,"lon":5.39753,"is_reserved":false,"is_disabled":false,"rental_uris":{"android":"levelo://app?vid=a0e3f3da-7c15-4cc6-b660-e90d2af5bffc","ios":"levelo://app?vid=a0e3f3da-7c15-4cc6-b660-e90d2af5bffc"},"vehicle_type_id":"4","last_reported":1730455868,"current_range_meters":39200,"station_id":"ce4bh092rcd13ifvqd20","pricing_plan_id":"cebpf4jnsgd1na2vs0mg"},{"bike_id":"38ac3190-3794-4fd9-a449-6f4c08771faf","system_id":"levelo_inurba_marseille","lat":43.29269,"lon":5.36852,"is_reserved":false,"is_disabled":false,"rental_uris":{"android":"levelo://app?vid=38ac3190-3794-4fd9-a449-6f4c08771faf","ios":"levelo://app?vid=38ac3190-3794-4fd9-a449-6f4c08771faf"},"vehicle_type_id":"4","last_reported":1730455868,"current_range_meters":38800,"station_id":"ce4bhbp2rcd13ifvqesg","pricing_plan_id":"cebpf4jnsgd1na2vs0mg"},{"bike_id":"ed24b092-1aee-46ef-9a05-6f2fb390575a","system_id":"levelo_inurba_marseille","lat":43.28072,"lon":5.39647,"is_reserved":false,"is_disabled":false,"rental_uris":{"android":"levelo://app?vid=ed24b092-1aee-46ef-9a05-6f2fb390575a","ios":"levelo://app?vid=ed24b092-1aee-46ef-9a05-6f2fb390575a"},"vehicle_type_id":"4","last_reported":1730455868,"current_range_meters":40000,"station_id":"ce4bho12rcd13ifvqh2g","pricing_plan_id":"cebpf4jnsgd1na2vs0mg"},{"bike_id":"9a8cd3c7-aaa4-45f3-80bd-b5054fe6f960","system_id":"levelo_inurba_marseille","lat":43.23151,"lon":5.43701,"is_reserved":false,"is_disabled":false,"rental_uris":{"android":"levelo://app?vid=9a8cd3c7-aaa4-45f3-80bd-b5054fe6f960","ios":"levelo://app?vid=9a8cd3c7-aaa4-45f3-80bd-b5054fe6f960"},"vehicle_type_id":"4","last_reported":1730455868,"current_range_meters":9600,"station_id":"ce4bhmp2rcd13ifvqgog","pricing_plan_id":"cebpf4jnsgd1na2vs0mg"},{"bike_id":"bd81fdce-597c-4490-a757-2ebe44eb2477","system_id":"levelo_inurba_marseille","lat":43.3013,"lon":5.38771,"is_reserved":false,"is_disabled":false,"rental_uris":{"android":"levelo://app?vid=bd81fdce-597c-4490-a757-2ebe44eb2477","ios":"levelo://app?vid=bd81fdce-597c-4490-a757-2ebe44eb2477"},"vehicle_type_id":"4","last_reported":1730455868,"current_range_meters":33200,"station_id":"ce4bghh2rcd13ifvqb60","pricing_plan_id":"cebpf4jnsgd1na2vs0mg"},{"bike_id":"e9945190-061a-4dd7-b1d1-d2eba02f0de1","system_id":"levelo_inurba_marseille","lat":43.28417,"lon":5.34997,"is_reserved":false,"is_disabled":false,"rental_uris":{"android":"levelo://app?vid=e9945190-061a-4dd7-b1d1-d2eba02f0de1","ios":"levelo://app?vid=e9945190-061a-4dd7-b1d1-d2eba02f0de1"},"vehicle_type_id":"4","last_reported":1730455868,"current_range_meters":24400,"station_id":"ce4bhbh2rcd13ifvqepg","pricing_plan_id":"cebpf4jnsgd1na2vs0mg"},{"bike_id":"84b3858e-724d-4a51-abdd-a1c7708d404b","system_id":"levelo_inurba_marseille","lat":43.29491,"lon":5.38108,"is_reserved":false,"is_disabled":false,"rental_uris":{"android":"levelo://app?vid=84b3858e-724d-4a51-abdd-a1c7708d404b","ios":"levelo://app?vid=84b3858e-724d-4a51-abdd-a1c7708d404b"},"vehicle_type_id":"4","last_reported":1730455868,"current_range_meters":17600,"station_id":"","pricing_plan_id":"cebpf4jnsgd1na2vs0mg"},{"bike_id":"ee343481-2f8a-4358-bb0a-ffd40b9c29e3","system_id":"levelo_inurba_marseille","lat":43.3078,"lon":5.37654,"is_reserved":false,"is_disabled":false,"rental_uris":{"android":"levelo://app?vid=ee343481-2f8a-4358-bb0a-ffd40b9c29e3","ios":"levelo://app?vid=ee343481-2f8a-4358-bb0a-ffd40b9c29e3"},"vehicle_type_id":"4","last_reported":1730455868,"current_range_meters":18800,"station_id":"ce4bgv92rcd13ifvqcq0","pricing_plan_id":"cebpf4jnsgd1na2vs0mg"},{"bike_id":"9c30324a-7b44-4a70-b3b2-4bf80f696db3","system_id":"levelo_inurba_marseille","lat":43.29052,"lon":5.37175,"is_reserved":false,"is_disabled":false,"rental_uris":{"android":"levelo://app?vid=9c30324a-7b44-4a70-b3b2-4bf80f696db3","ios":"levelo://app?vid=9c30324a-7b44-4a70-b3b2-4bf80f696db3"},"vehicle_type_id":"4","last_reported":1730455868,"current_range_meters":39200,"station_id":"ce4bh5p2rcd13ifvqe4g","pricing_plan_id":"cebpf4jnsgd1na2vs0mg"},{"bike_id":"205d74b9-4188-436c-8520-a69986be2fad","system_id":"levelo_inurba_marseille","lat":43.2842,"lon":5.34999,"is_reserved":false,"is_disabled":false,"rental_uris":{"android":"levelo://app?vid=205d74b9-4188-436c-8520-a69986be2fad","ios":"levelo://app?vid=205d74b9-4188-436c-8520-a69986be2fad"},"vehicle_type_id":"4","last_reported":1730455868,"current_range_meters":37600,"station_id":"ce4bhbh2rcd13ifvqepg","pricing_plan_id":"cebpf4jnsgd1na2vs0mg"},{"bike_id":"fa5bcf60-3d2b-4678-981f-c3f495a31c93","system_id":"levelo_inurba_marseille","lat":43.30599,"lon":5.37225,"is_reserved":false,"is_disabled":false,"rental_uris":{"android":"levelo://app?vid=fa5bcf60-3d2b-4678-981f-c3f495a31c93","ios":"levelo://app?vid=fa5bcf60-3d2b-4678-981f-c3f495a31c93"},"vehicle_type_id":"4","last_reported":1730455868,"current_range_meters":10000,"station_id":"ce4bgqh2rcd13ifvqc4g","pricing_plan_id":"cebpf4jnsgd1na2vs0mg"},{"bike_id":"3bae9340-aae2-47c4-82c5-5c0d7349f14b","system_id":"levelo_inurba_marseille","lat":43.308,"lon":5.43523,"is_reserved":false,"is_disabled":false,"rental_uris":{"android":"levelo://app?vid=3bae9340-aae2-47c4-82c5-5c0d7349f14b","ios":"levelo://app?vid=3bae9340-aae2-47c4-82c5-5c0d7349f14b"},"vehicle_type_id":"4","last_reported":1730455868,"current_range_meters":32400,"station_id":"ce4bhph2rcd13ifvqheg","pricing_plan_id":"cebpf4jnsgd1na2vs0mg"},{"bike_id":"5e952f6b-9aee-4257-81cc-27b4ae171e24","system_id":"levelo_inurba_marseille","lat":43.22936,"lon":5.35377,"is_reserved":false,"is_disabled":false,"rental_uris":{"android":"levelo://app?vid=5e952f6b-9aee-4257-81cc-27b4ae171e24","ios":"levelo://app?vid=5e952f6b-9aee-4257-81cc-27b4ae171e24"},"vehicle_type_id":"4","last_reported":1730455868,"current_range_meters":39200,"station_id":"cpo3532slgdg3j2ikp40","pricing_plan_id":"cebpf4jnsgd1na2vs0mg"},{"bike_id":"6c4aa949-a9bc-4bae-aed4-d4a6bbdcda6b","system_id":"levelo_inurba_marseille","lat":43.25106,"lon":5.40325,"is_reserved":false,"is_disabled":false,"rental_uris":{"android":"levelo://app?vid=6c4aa949-a9bc-4bae-aed4-d4a6bbdcda6b","ios":"levelo://app?vid=6c4aa949-a9bc-4bae-aed4-d4a6bbdcda6b"},"vehicle_type_id":"4","last_reported":1730455868,"current_range_meters":20000,"station_id":"ce4bhlh2rcd13ifvqgig","pricing_plan_id":"cebpf4jnsgd1na2vs0mg"},{"bike_id":"81eaa22b-96f5-47dd-9220-ed8909709108","system_id":"levelo_inurba_marseille","lat":43.28405,"lon":5.34987,"is_reserved":false,"is_disabled":false,"rental_uris":{"android":"levelo://app?vid=81eaa22b-96f5-47dd-9220-ed8909709108","ios":"levelo://app?vid=81eaa22b-96f5-47dd-9220-ed8909709108"},"vehicle_type_id":"4","last_reported":1730455868,"current_range_meters":38800,"station_id":"ce4bhbh2rcd13ifvqepg","pricing_plan_id":"cebpf4jnsgd1na2vs0mg"},{"bike_id":"daa59256-9b08-49a7-9c1f-f5f93f305fcd","system_id":"levelo_inurba_marseille","lat":43.31371,"lon":5.38488,"is_reserved":false,"is_disabled":false,"rental_uris":{"android":"levelo://app?vid=daa59256-9b08-49a7-9c1f-f5f93f305fcd","ios":"levelo://app?vid=daa59256-9b08-49a7-9c1f-f5f93f305fcd"},"vehicle_type_id":"4","last_reported":1730455868,"current_range_meters":38400,"station_id":"ce4bgt92rcd13ifvqcf0","pricing_plan_id":"cebpf4jnsgd1na2vs0mg"},{"bike_id":"99053024-e408-47d3-ae20-3c6a4df1163c","system_id":"levelo_inurba_marseille","lat":43.27427,"lon":5.3941,"is_reserved":false,"is_disabled":false,"rental_uris":{"android":"levelo://app?vid=99053024-e408-47d3-ae20-3c6a4df1163c","ios":"levelo://app?vid=99053024-e408-47d3-ae20-3c6a4df1163c"},"vehicle_type_id":"4","last_reported":1730455868,"current_range_meters":36800,"station_id":"ce4bhdp2rcd13ifvqf20","pricing_plan_id":"cebpf4jnsgd1na2vs0mg"},{"bike_id":"f4e77d13-0a27-4f98-b34b-5ab8964c1fb5","system_id":"levelo_inurba_marseille","lat":43.29931,"lon":5.36545,"is_reserved":false,"is_disabled":false,"rental_uris":{"android":"levelo://app?vid=f4e77d13-0a27-4f98-b34b-5ab8964c1fb5","ios":"levelo://app?vid=f4e77d13-0a27-4f98-b34b-5ab8964c1fb5"},"vehicle_type_id":"4","last_reported":1730455868,"current_range_meters":28800,"station_id":"ce4bgm92rcd13ifvqbr0","pricing_plan_id":"cebpf4jnsgd1na2vs0mg"},{"bike_id":"a5665cb4-0240-4580-bb1f-3e4570488c32","system_id":"levelo_inurba_marseille","lat":43.29841,"lon":5.3627,"is_reserved":false,"is_disabled":false,"rental_uris":{"android":"levelo://app?vid=a5665cb4-0240-4580-bb1f-3e4570488c32","ios":"levelo://app?vid=a5665cb4-0240-4580-bb1f-3e4570488c32"},"vehicle_type_id":"4","last_reported":1730455868,"current_range_meters":26000,"station_id":"ce4bgpp2rcd13ifvqc3g","pricing_plan_id":"cebpf4jnsgd1na2vs0mg"},{"bike_id":"4aaf9177-6ed9-4281-b081-6c2065ca8c1e","system_id":"levelo_inurba_marseille","lat":43.23172,"lon":5.39991,"is_reserved":false,"is_disabled":false,"rental_uris":{"android":"levelo://app?vid=4aaf9177-6ed9-4281-b081-6c2065ca8c1e","ios":"levelo://app?vid=4aaf9177-6ed9-4281-b081-6c2065ca8c1e"},"vehicle_type_id":"4","last_reported":1730455868,"current_range_meters":22000,"station_id":"ce4bhn12rcd13ifvqgqg","pricing_plan_id":"cebpf4jnsgd1na2vs0mg"},{"bike_id":"7f032ca0-2fbc-425c-b9e3-db49dd40b923","system_id":"levelo_inurba_marseille","lat":43.28267,"lon":5.35068,"is_reserved":false,"is_disabled":false,"rental_uris":{"android":"levelo://app?vid=7f032ca0-2fbc-425c-b9e3-db49dd40b923","ios":"levelo://app?vid=7f032ca0-2fbc-425c-b9e3-db49dd40b923"},"vehicle_type_id":"4","last_reported":1730455868,"current_range_meters":38800,"station_id":"ce4bhbp2rcd13ifvqerg","pricing_plan_id":"cebpf4jnsgd1na2vs0mg"},{"bike_id":"67510012-1cba-484e-acef-2ad6017acb8f","system_id":"levelo_inurba_marseille","lat":43.27937,"lon":5.41043,"is_reserved":false,"is_disabled":false,"rental_uris":{"android":"levelo://app?vid=67510012-1cba-484e-acef-2ad6017acb8f","ios":"levelo://app?vid=67510012-1cba-484e-acef-2ad6017acb8f"},"vehicle_type_id":"4","last_reported":1730455868,"current_range_meters":28000,"station_id":"ce4bhnp2rcd13ifvqh0g","pricing_plan_id":"cebpf4jnsgd1na2vs0mg"},{"bike_id":"432245c8-aae7-4413-a01a-f97683516aa8","system_id":"levelo_inurba_marseille","lat":43.31268,"lon":5.40167,"is_reserved":false,"is_disabled":false,"rental_uris":{"android":"levelo://app?vid=432245c8-aae7-4413-a01a-f97683516aa8","ios":"levelo://app?vid=432245c8-aae7-4413-a01a-f97683516aa8"},"vehicle_type_id":"4","last_reported":1730455868,"current_range_meters":38800,"station_id":"ce4bh092rcd13ifvqd30","pricing_plan_id":"cebpf4jnsgd1na2vs0mg"},{"bike_id":"b647ad8c-5239-4792-a303-51c2978d56fb","system_id":"levelo_inurba_marseille","lat":43.33619,"lon":5.41018,"is_reserved":false,"is_disabled":false,"rental_uris":{"android":"levelo://app?vid=b647ad8c-5239-4792-a303-51c2978d56fb","ios":"levelo://app?vid=b647ad8c-5239-4792-a303-51c2978d56fb"},"vehicle_type_id":"4","last_reported":1730455868,"current_range_meters":38400,"station_id":"ce4bhqh2rcd13ifvqhmg","pricing_plan_id":"cebpf4jnsgd1na2vs0mg"},{"bike_id":"751e7423-06f0-4ae8-b6bc-d3f2ded2dbb3","system_id":"levelo_inurba_marseille","lat":43.26945,"lon":5.38638,"is_reserved":false,"is_disabled":false,"rental_uris":{"android":"levelo://app?vid=751e7423-06f0-4ae8-b6bc-d3f2ded2dbb3","ios":"levelo://app?vid=751e7423-06f0-4ae8-b6bc-d3f2ded2dbb3"},"vehicle_type_id":"4","last_reported":1730455868,"current_range_meters":40000,"station_id":"ce4bhh92rcd13ifvqfh0","pricing_plan_id":"cebpf4jnsgd1na2vs0mg"},{"bike_id":"cd506133-45e2-421c-adbd-9501e6e43795","system_id":"levelo_inurba_marseille","lat":43.28031,"lon":5.36943,"is_reserved":false,"is_disabled":false,"rental_uris":{"android":"levelo://app?vid=cd506133-45e2-421c-adbd-9501e6e43795","ios":"levelo://app?vid=cd506133-45e2-421c-adbd-9501e6e43795"},"vehicle_type_id":"4","last_reported":1730455868,"current_range_meters":33200,"station_id":"ce4bha12rcd13ifvqef0","pricing_plan_id":"cebpf4jnsgd1na2vs0mg"},{"bike_id":"5693d75e-de6d-4690-9172-c4616be38cc4","system_id":"levelo_inurba_marseille","lat":43.27942,"lon":5.41044,"is_reserved":false,"is_disabled":false,"rental_uris":{"android":"levelo://app?vid=5693d75e-de6d-4690-9172-c4616be38cc4","ios":"levelo://app?vid=5693d75e-de6d-4690-9172-c4616be38cc4"},"vehicle_type_id":"4","last_reported":1730455868,"current_range_meters":25200,"station_id":"ce4bhnp2rcd13ifvqh0g","pricing_plan_id":"cebpf4jnsgd1na2vs0mg"},{"bike_id":"55e5680f-c574-40e1-b1dd-d8ced146e6c5","system_id":"levelo_inurba_marseille","lat":43.33604,"lon":5.41023,"is_reserved":false,"is_disabled":false,"rental_uris":{"android":"levelo://app?vid=55e5680f-c574-40e1-b1dd-d8ced146e6c5","ios":"levelo://app?vid=55e5680f-c574-40e1-b1dd-d8ced146e6c5"},"vehicle_type_id":"4","last_reported":1730455868,"current_range_meters":23200,"station_id":"ce4bhqh2rcd13ifvqhmg","pricing_plan_id":"cebpf4jnsgd1na2vs0mg"},{"bike_id":"994a3104-8c9f-4bba-911d-69cf23f07195","system_id":"levelo_inurba_marseille","lat":43.28701,"lon":5.39983,"is_reserved":false,"is_disabled":false,"rental_uris":{"android":"levelo://app?vid=994a3104-8c9f-4bba-911d-69cf23f07195","ios":"levelo://app?vid=994a3104-8c9f-4bba-911d-69cf23f07195"},"vehicle_type_id":"4","last_reported":1730455868,"current_range_meters":30000,"station_id":"ce4bho92rcd13ifvqh3g","pricing_plan_id":"cebpf4jnsgd1na2vs0mg"},{"bike_id":"f55e4b2b-4c70-4e67-9fc8-f112540c4f11","system_id":"levelo_inurba_marseille","lat":43.23154,"lon":5.43718,"is_reserved":false,"is_disabled":false,"rental_uris":{"android":"levelo://app?vid=f55e4b2b-4c70-4e67-9fc8-f112540c4f11","ios":"levelo://app?vid=f55e4b2b-4c70-4e67-9fc8-f112540c4f11"},"vehicle_type_id":"4","last_reported":1730455868,"current_range_meters":24400,"station_id":"ce4bhmp2rcd13ifvqgog","pricing_plan_id":"cebpf4jnsgd1na2vs0mg"},{"bike_id":"45ec955f-9396-45b9-aaaa-a47c5dee2e6f","system_id":"levelo_inurba_marseille","lat":43.2884,"lon":5.35842,"is_reserved":false,"is_disabled":false,"rental_uris":{"android":"levelo://app?vid=45ec955f-9396-45b9-aaaa-a47c5dee2e6f","ios":"levelo://app?vid=45ec955f-9396-45b9-aaaa-a47c5dee2e6f"},"vehicle_type_id":"4","last_reported":1730455868,"current_range_meters":38800,"station_id":"ce4bhb12rcd13ifvqem0","pricing_plan_id":"cebpf4jnsgd1na2vs0mg"},{"bike_id":"1b9d90e9-af0b-40e6-9143-a03c0905aec8","system_id":"levelo_inurba_marseille","lat":43.29183,"lon":5.35804,"is_reserved":false,"is_disabled":false,"rental_uris":{"android":"levelo://app?vid=1b9d90e9-af0b-40e6-9143-a03c0905aec8","ios":"levelo://app?vid=1b9d90e9-af0b-40e6-9143-a03c0905aec8"},"vehicle_type_id":"4","last_reported":1730455868,"current_range_meters":27600,"station_id":"ce4bhb12rcd13ifvqel0","pricing_plan_id":"cebpf4jnsgd1na2vs0mg"},{"bike_id":"338627de-480e-42f1-ae4a-82bf576dfe47","system_id":"levelo_inurba_marseille","lat":43.32369,"lon":5.3889,"is_reserved":false,"is_disabled":false,"rental_uris":{"android":"levelo://app?vid=338627de-480e-42f1-ae4a-82bf576dfe47","ios":"levelo://app?vid=338627de-480e-42f1-ae4a-82bf576dfe47"},"vehicle_type_id":"4","last_reported":1730455868,"current_range_meters":27200,"station_id":"ce4bhqp2rcd13ifvqhog","pricing_plan_id":"cebpf4jnsgd1na2vs0mg"},{"bike_id":"655e5c84-6957-4a22-898b-b606bb7480d4","system_id":"levelo_inurba_marseille","lat":43.22933,"lon":5.35378,"is_reserved":false,"is_disabled":false,"rental_uris":{"android":"levelo://app?vid=655e5c84-6957-4a22-898b-b606bb7480d4","ios":"levelo://app?vid=655e5c84-6957-4a22-898b-b606bb7480d4"},"vehicle_type_id":"4","last_reported":1730455868,"current_range_meters":27200,"station_id":"cpo3532slgdg3j2ikp40","pricing_plan_id":"cebpf4jnsgd1na2vs0mg"},{"bike_id":"a0f5f9e5-b7c4-42ff-aa1e-24ee683f2054","system_id":"levelo_inurba_marseille","lat":43.30428,"lon":5.41285,"is_reserved":false,"is_disabled":false,"rental_uris":{"android":"levelo://app?vid=a0f5f9e5-b7c4-42ff-aa1e-24ee683f2054","ios":"levelo://app?vid=a0f5f9e5-b7c4-42ff-aa1e-24ee683f2054"},"vehicle_type_id":"4","last_reported":1730455868,"current_range_meters":28800,"station_id":"ce4bhop2rcd13ifvqh8g","pricing_plan_id":"cebpf4jnsgd1na2vs0mg"},{"bike_id":"adb2cc98-74a2-4cbe-8773-196f2b46d217","system_id":"levelo_inurba_marseille","lat":43.296753,"lon":5.372804,"is_reserved":false,"is_disabled":false,"rental_uris":{"android":"levelo://app?vid=adb2cc98-74a2-4cbe-8773-196f2b46d217","ios":"levelo://app?vid=adb2cc98-74a2-4cbe-8773-196f2b46d217"},"vehicle_type_id":"4","last_reported":1730455868,"current_range_meters":38800,"station_id":"ce4bgk12rcd13ifvqbj0","pricing_plan_id":"cebpf4jnsgd1na2vs0mg"},{"bike_id":"32ebfaba-d05e-4530-b091-592f48245c8c","system_id":"levelo_inurba_marseille","lat":43.31884,"lon":5.40731,"is_reserved":false,"is_disabled":false,"rental_uris":{"android":"levelo://app?vid=32ebfaba-d05e-4530-b091-592f48245c8c","ios":"levelo://app?vid=32ebfaba-d05e-4530-b091-592f48245c8c"},"vehicle_type_id":"4","last_reported":1730455868,"current_range_meters":34800,"station_id":"ce4bhq12rcd13ifvqhig","pricing_plan_id":"cebpf4jnsgd1na2vs0mg"},{"bike_id":"f59d2b6c-416a-4366-a550-e13b80f20d82","system_id":"levelo_inurba_marseille","lat":43.31755,"lon":5.39019,"is_reserved":false,"is_disabled":false,"rental_uris":{"android":"levelo://app?vid=f59d2b6c-416a-4366-a550-e13b80f20d82","ios":"levelo://app?vid=f59d2b6c-416a-4366-a550-e13b80f20d82"},"vehicle_type_id":"4","last_reported":1730455868,"current_range_meters":38800,"station_id":"ce4bhqp2rcd13ifvqhng","pricing_plan_id":"cebpf4jnsgd1na2vs0mg"},{"bike_id":"e79f2a82-3f15-4984-b0ed-b4daf09a0b27","system_id":"levelo_inurba_marseille","lat":43.23146,"lon":5.43714,"is_reserved":false,"is_disabled":false,"rental_uris":{"android":"levelo://app?vid=e79f2a82-3f15-4984-b0ed-b4daf09a0b27","ios":"levelo://app?vid=e79f2a82-3f15-4984-b0ed-b4daf09a0b27"},"vehicle_type_id":"4","last_reported":1730455868,"current_range_meters":14000,"station_id":"ce4bhmp2rcd13ifvqgog","pricing_plan_id":"cebpf4jnsgd1na2vs0mg"},{"bike_id":"13dd447d-a43f-4bf5-bbfb-10286ab2cf91","system_id":"levelo_inurba_marseille","lat":43.27943,"lon":5.41044,"is_reserved":false,"is_disabled":false,"rental_uris":{"android":"levelo://app?vid=13dd447d-a43f-4bf5-bbfb-10286ab2cf91","ios":"levelo://app?vid=13dd447d-a43f-4bf5-bbfb-10286ab2cf91"},"vehicle_type_id":"4","last_reported":1730455868,"current_range_meters":23200,"station_id":"ce4bhnp2rcd13ifvqh0g","pricing_plan_id":"cebpf4jnsgd1na2vs0mg"},{"bike_id":"ef7bdb1b-1237-4e1a-b32f-4798ae55ad9f","system_id":"levelo_inurba_marseille","lat":43.261882,"lon":5.374508,"is_reserved":false,"is_disabled":false,"rental_uris":{"android":"levelo://app?vid=ef7bdb1b-1237-4e1a-b32f-4798ae55ad9f","ios":"levelo://app?vid=ef7bdb1b-1237-4e1a-b32f-4798ae55ad9f"},"vehicle_type_id":"4","last_reported":1730455868,"current_range_meters":33600,"station_id":"ce4bhgp2rcd13ifvqfc0","pricing_plan_id":"cebpf4jnsgd1na2vs0mg"},{"bike_id":"890b066b-5097-4d42-9275-f1d490da89a3","system_id":"levelo_inurba_marseille","lat":43.31229,"lon":5.36855,"is_reserved":false,"is_disabled":false,"rental_uris":{"android":"levelo://app?vid=890b066b-5097-4d42-9275-f1d490da89a3","ios":"levelo://app?vid=890b066b-5097-4d42-9275-f1d490da89a3"},"vehicle_type_id":"4","last_reported":1730455868,"current_range_meters":31200,"station_id":"ce4bgl92rcd13ifvqbq0","pricing_plan_id":"cebpf4jnsgd1na2vs0mg"},{"bike_id":"58ee512a-5b9d-4328-9629-943a2b99b29f","system_id":"levelo_inurba_marseille","lat":43.30892,"lon":5.37174,"is_reserved":false,"is_disabled":false,"rental_uris":{"android":"levelo://app?vid=58ee512a-5b9d-4328-9629-943a2b99b29f","ios":"levelo://app?vid=58ee512a-5b9d-4328-9629-943a2b99b29f"},"vehicle_type_id":"4","last_reported":1730455868,"current_range_meters":30800,"station_id":"ce4bguh2rcd13ifvqckg","pricing_plan_id":"cebpf4jnsgd1na2vs0mg"},{"bike_id":"49766241-4db4-4015-b3eb-214db8f5235e","system_id":"levelo_inurba_marseille","lat":43.25088,"lon":5.39525,"is_reserved":false,"is_disabled":false,"rental_uris":{"android":"levelo://app?vid=49766241-4db4-4015-b3eb-214db8f5235e","ios":"levelo://app?vid=49766241-4db4-4015-b3eb-214db8f5235e"},"vehicle_type_id":"4","last_reported":1730455868,"current_range_meters":24400,"station_id":"ce4bhm12rcd13ifvqgkg","pricing_plan_id":"cebpf4jnsgd1na2vs0mg"},{"bike_id":"8f55f6cc-0b54-4d5f-9029-aa15dfd6d9b0","system_id":"levelo_inurba_marseille","lat":43.31619,"lon":5.3906,"is_reserved":false,"is_disabled":false,"rental_uris":{"android":"levelo://app?vid=8f55f6cc-0b54-4d5f-9029-aa15dfd6d9b0","ios":"levelo://app?vid=8f55f6cc-0b54-4d5f-9029-aa15dfd6d9b0"},"vehicle_type_id":"4","last_reported":1730455868,"current_range_meters":4800,"station_id":"","pricing_plan_id":"cebpf4jnsgd1na2vs0mg"},{"bike_id":"fe198506-445a-4fd4-ad81-1c93c83826aa","system_id":"levelo_inurba_marseille","lat":43.293396,"lon":5.374583,"is_reserved":false,"is_disabled":false,"rental_uris":{"android":"levelo://app?vid=fe198506-445a-4fd4-ad81-1c93c83826aa","ios":"levelo://app?vid=fe198506-445a-4fd4-ad81-1c93c83826aa"},"vehicle_type_id":"4","last_reported":1730455868,"current_range_meters":14000,"station_id":"ce4bgi12rcd13ifvqb70","pricing_plan_id":"cebpf4jnsgd1na2vs0mg"},{"bike_id":"00499665-6ef2-4acc-b7e0-b88a65795b4d","system_id":"levelo_inurba_marseille","lat":43.29862,"lon":5.39744,"is_reserved":false,"is_disabled":false,"rental_uris":{"android":"levelo://app?vid=00499665-6ef2-4acc-b7e0-b88a65795b4d","ios":"levelo://app?vid=00499665-6ef2-4acc-b7e0-b88a65795b4d"},"vehicle_type_id":"4","last_reported":1730455868,"current_range_meters":25200,"station_id":"ce4bh0h2rcd13ifvqd50","pricing_plan_id":"cebpf4jnsgd1na2vs0mg"},{"bike_id":"0a8f1241-1344-422f-9441-b15032d00e00","system_id":"levelo_inurba_marseille","lat":43.30547,"lon":5.36533,"is_reserved":false,"is_disabled":false,"rental_uris":{"android":"levelo://app?vid=0a8f1241-1344-422f-9441-b15032d00e00","ios":"levelo://app?vid=0a8f1241-1344-422f-9441-b15032d00e00"},"vehicle_type_id":"4","last_reported":1730455868,"current_range_meters":36400,"station_id":"ce4bgs12rcd13ifvqcag","pricing_plan_id":"cebpf4jnsgd1na2vs0mg"},{"bike_id":"806d0e00-9baa-48a5-8856-b870bfd935ff","system_id":"levelo_inurba_marseille","lat":43.337444,"lon":5.374475,"is_reserved":false,"is_disabled":false,"rental_uris":{"android":"levelo://app?vid=806d0e00-9baa-48a5-8856-b870bfd935ff","ios":"levelo://app?vid=806d0e00-9baa-48a5-8856-b870bfd935ff"},"vehicle_type_id":"4","last_reported":1730455868,"current_range_meters":38800,"station_id":"ce4bhc92rcd13ifvqetg","pricing_plan_id":"cebpf4jnsgd1na2vs0mg"},{"bike_id":"c6e4a079-806a-4ede-ab8d-9ffd423b37a0","system_id":"levelo_inurba_marseille","lat":43.26951,"lon":5.38638,"is_reserved":false,"is_disabled":false,"rental_uris":{"android":"levelo://app?vid=c6e4a079-806a-4ede-ab8d-9ffd423b37a0","ios":"levelo://app?vid=c6e4a079-806a-4ede-ab8d-9ffd423b37a0"},"vehicle_type_id":"4","last_reported":1730455868,"current_range_meters":40000,"station_id":"ce4bhh92rcd13ifvqfh0","pricing_plan_id":"cebpf4jnsgd1na2vs0mg"},{"bike_id":"8cb9f7c4-5be9-4a25-8d4a-485de9647b9d","system_id":"levelo_inurba_marseille","lat":43.31087,"lon":5.42433,"is_reserved":false,"is_disabled":false,"rental_uris":{"android":"levelo://app?vid=8cb9f7c4-5be9-4a25-8d4a-485de9647b9d","ios":"levelo://app?vid=8cb9f7c4-5be9-4a25-8d4a-485de9647b9d"},"vehicle_type_id":"4","last_reported":1730455868,"current_range_meters":39200,"station_id":"ce4bhp92rcd13ifvqhag","pricing_plan_id":"cebpf4jnsgd1na2vs0mg"},{"bike_id":"ca211adf-b79e-4c48-88b9-6f08fbad3c50","system_id":"levelo_inurba_marseille","lat":43.31367,"lon":5.38499,"is_reserved":false,"is_disabled":false,"rental_uris":{"android":"levelo://app?vid=ca211adf-b79e-4c48-88b9-6f08fbad3c50","ios":"levelo://app?vid=ca211adf-b79e-4c48-88b9-6f08fbad3c50"},"vehicle_type_id":"4","last_reported":1730455868,"current_range_meters":39200,"station_id":"ce4bgt92rcd13ifvqcf0","pricing_plan_id":"cebpf4jnsgd1na2vs0mg"},{"bike_id":"db9b80b1-c6d8-4ef2-9727-ca0f0b9498a1","system_id":"levelo_inurba_marseille","lat":43.33726,"lon":5.39178,"is_reserved":false,"is_disabled":false,"rental_uris":{"android":"levelo://app?vid=db9b80b1-c6d8-4ef2-9727-ca0f0b9498a1","ios":"levelo://app?vid=db9b80b1-c6d8-4ef2-9727-ca0f0b9498a1"},"vehicle_type_id":"4","last_reported":1730455868,"current_range_meters":38800,"station_id":"ce4bhr92rcd13ifvqhsg","pricing_plan_id":"cebpf4jnsgd1na2vs0mg"},{"bike_id":"af4e9ea9-0a7b-461e-a196-6a3fb6b64b49","system_id":"levelo_inurba_marseille","lat":43.23196,"lon":5.35552,"is_reserved":false,"is_disabled":false,"rental_uris":{"android":"levelo://app?vid=af4e9ea9-0a7b-461e-a196-6a3fb6b64b49","ios":"levelo://app?vid=af4e9ea9-0a7b-461e-a196-6a3fb6b64b49"},"vehicle_type_id":"4","last_reported":1730455868,"current_range_meters":28800,"station_id":"ce4bhu92rcd13ifvqi70","pricing_plan_id":"cebpf4jnsgd1na2vs0mg"},{"bike_id":"2e875e0f-bc43-4631-ba8b-be93cdfa892d","system_id":"levelo_inurba_marseille","lat":43.31268,"lon":5.4017,"is_reserved":false,"is_disabled":false,"rental_uris":{"android":"levelo://app?vid=2e875e0f-bc43-4631-ba8b-be93cdfa892d","ios":"levelo://app?vid=2e875e0f-bc43-4631-ba8b-be93cdfa892d"},"vehicle_type_id":"4","last_reported":1730455868,"current_range_meters":4400,"station_id":"ce4bh092rcd13ifvqd30","pricing_plan_id":"cebpf4jnsgd1na2vs0mg"},{"bike_id":"4dc4e4d4-39a8-4809-8922-78312ab771af","system_id":"levelo_inurba_marseille","lat":43.27176,"lon":5.40989,"is_reserved":false,"is_disabled":false,"rental_uris":{"android":"levelo://app?vid=4dc4e4d4-39a8-4809-8922-78312ab771af","ios":"levelo://app?vid=4dc4e4d4-39a8-4809-8922-78312ab771af"},"vehicle_type_id":"4","last_reported":1730455868,"current_range_meters":31200,"station_id":"ce4bhl12rcd13ifvqgf0","pricing_plan_id":"cebpf4jnsgd1na2vs0mg"},{"bike_id":"6b3335a9-bae4-4a6e-a6f7-5e9beb2f408e","system_id":"levelo_inurba_marseille","lat":43.3025,"lon":5.40055,"is_reserved":false,"is_disabled":false,"rental_uris":{"android":"levelo://app?vid=6b3335a9-bae4-4a6e-a6f7-5e9beb2f408e","ios":"levelo://app?vid=6b3335a9-bae4-4a6e-a6f7-5e9beb2f408e"},"vehicle_type_id":"4","last_reported":1730455868,"current_range_meters":38400,"station_id":"ce4bgvh2rcd13ifvqcs0","pricing_plan_id":"cebpf4jnsgd1na2vs0mg"},{"bike_id":"aeab254e-9b28-46da-a263-d0f3be1c774b","system_id":"levelo_inurba_marseille","lat":43.279694,"lon":5.387475,"is_reserved":false,"is_disabled":false,"rental_uris":{"android":"levelo://app?vid=aeab254e-9b28-46da-a263-d0f3be1c774b","ios":"levelo://app?vid=aeab254e-9b28-46da-a263-d0f3be1c774b"},"vehicle_type_id":"4","last_reported":1730455868,"current_range_meters":33600,"station_id":"ce4bhg12rcd13ifvqf80","pricing_plan_id":"cebpf4jnsgd1na2vs0mg"},{"bike_id":"e774631b-ad90-4388-b9e5-795e1ebd992c","system_id":"levelo_inurba_marseille","lat":43.23179,"lon":5.39989,"is_reserved":false,"is_disabled":false,"rental_uris":{"android":"levelo://app?vid=e774631b-ad90-4388-b9e5-795e1ebd992c","ios":"levelo://app?vid=e774631b-ad90-4388-b9e5-795e1ebd992c"},"vehicle_type_id":"4","last_reported":1730455868,"current_range_meters":18000,"station_id":"ce4bhn12rcd13ifvqgqg","pricing_plan_id":"cebpf4jnsgd1na2vs0mg"},{"bike_id":"dc8bb384-41ab-40a2-b6ab-e2d85c78f762","system_id":"levelo_inurba_marseille","lat":43.2679,"lon":5.39407,"is_reserved":false,"is_disabled":false,"rental_uris":{"android":"levelo://app?vid=dc8bb384-41ab-40a2-b6ab-e2d85c78f762","ios":"levelo://app?vid=dc8bb384-41ab-40a2-b6ab-e2d85c78f762"},"vehicle_type_id":"4","last_reported":1730455868,"current_range_meters":38000,"station_id":"ce4bhh12rcd13ifvqfg0","pricing_plan_id":"cebpf4jnsgd1na2vs0mg"},{"bike_id":"5b1beb29-08c3-4517-96e1-89c4b727e0c3","system_id":"levelo_inurba_marseille","lat":43.23198,"lon":5.35544,"is_reserved":false,"is_disabled":false,"rental_uris":{"android":"levelo://app?vid=5b1beb29-08c3-4517-96e1-89c4b727e0c3","ios":"levelo://app?vid=5b1beb29-08c3-4517-96e1-89c4b727e0c3"},"vehicle_type_id":"4","last_reported":1730455868,"current_range_meters":30000,"station_id":"ce4bhu92rcd13ifvqi70","pricing_plan_id":"cebpf4jnsgd1na2vs0mg"},{"bike_id":"5490c8fa-94fb-4bb6-ba1c-a35def655112","system_id":"levelo_inurba_marseille","lat":43.31281,"lon":5.40163,"is_reserved":false,"is_disabled":false,"rental_uris":{"android":"levelo://app?vid=5490c8fa-94fb-4bb6-ba1c-a35def655112","ios":"levelo://app?vid=5490c8fa-94fb-4bb6-ba1c-a35def655112"},"vehicle_type_id":"4","last_reported":1730455868,"current_range_meters":30400,"station_id":"ce4bh092rcd13ifvqd30","pricing_plan_id":"cebpf4jnsgd1na2vs0mg"},{"bike_id":"d8de5714-58af-4d06-95fa-16cf8ce84d6a","system_id":"levelo_inurba_marseille","lat":43.30777,"lon":5.37651,"is_reserved":false,"is_disabled":false,"rental_uris":{"android":"levelo://app?vid=d8de5714-58af-4d06-95fa-16cf8ce84d6a","ios":"levelo://app?vid=d8de5714-58af-4d06-95fa-16cf8ce84d6a"},"vehicle_type_id":"4","last_reported":1730455868,"current_range_meters":36000,"station_id":"ce4bgv92rcd13ifvqcq0","pricing_plan_id":"cebpf4jnsgd1na2vs0mg"},{"bike_id":"65876107-7e52-4f70-b916-b2257bc4c31d","system_id":"levelo_inurba_marseille","lat":43.29272,"lon":5.36849,"is_reserved":false,"is_disabled":false,"rental_uris":{"android":"levelo://app?vid=65876107-7e52-4f70-b916-b2257bc4c31d","ios":"levelo://app?vid=65876107-7e52-4f70-b916-b2257bc4c31d"},"vehicle_type_id":"4","last_reported":1730455868,"current_range_meters":32000,"station_id":"ce4bhbp2rcd13ifvqesg","pricing_plan_id":"cebpf4jnsgd1na2vs0mg"},{"bike_id":"b1bdd7f6-80c6-4121-8c41-ad034db3985c","system_id":"levelo_inurba_marseille","lat":43.29583,"lon":5.3752,"is_reserved":false,"is_disabled":false,"rental_uris":{"android":"levelo://app?vid=b1bdd7f6-80c6-4121-8c41-ad034db3985c","ios":"levelo://app?vid=b1bdd7f6-80c6-4121-8c41-ad034db3985c"},"vehicle_type_id":"4","last_reported":1730455868,"current_range_meters":33200,"station_id":"ce4bgh92rcd13ifvqb50","pricing_plan_id":"cebpf4jnsgd1na2vs0mg"},{"bike_id":"f99547b6-e0b7-4a86-b4bb-f600f8ca5cb2","system_id":"levelo_inurba_marseille","lat":43.24171,"lon":5.36399,"is_reserved":false,"is_disabled":false,"rental_uris":{"android":"levelo://app?vid=f99547b6-e0b7-4a86-b4bb-f600f8ca5cb2","ios":"levelo://app?vid=f99547b6-e0b7-4a86-b4bb-f600f8ca5cb2"},"vehicle_type_id":"4","last_reported":1730455868,"current_range_meters":7200,"station_id":"cpo36qri1sfpv3e86is0","pricing_plan_id":"cebpf4jnsgd1na2vs0mg"},{"bike_id":"e6a6d45a-e190-43cb-8101-dd964c389a88","system_id":"levelo_inurba_marseille","lat":43.28409,"lon":5.34994,"is_reserved":false,"is_disabled":false,"rental_uris":{"android":"levelo://app?vid=e6a6d45a-e190-43cb-8101-dd964c389a88","ios":"levelo://app?vid=e6a6d45a-e190-43cb-8101-dd964c389a88"},"vehicle_type_id":"4","last_reported":1730455868,"current_range_meters":39200,"station_id":"ce4bhbh2rcd13ifvqepg","pricing_plan_id":"cebpf4jnsgd1na2vs0mg"},{"bike_id":"ae1e7965-0237-41e7-ae9c-6d4e3a889135","system_id":"levelo_inurba_marseille","lat":43.29555,"lon":5.42288,"is_reserved":false,"is_disabled":false,"rental_uris":{"android":"levelo://app?vid=ae1e7965-0237-41e7-ae9c-6d4e3a889135","ios":"levelo://app?vid=ae1e7965-0237-41e7-ae9c-6d4e3a889135"},"vehicle_type_id":"4","last_reported":1730455868,"current_range_meters":21600,"station_id":"ce4bhph2rcd13ifvqhdg","pricing_plan_id":"cebpf4jnsgd1na2vs0mg"},{"bike_id":"a72ae102-3fd0-406d-b4c2-34cdcfc20262","system_id":"levelo_inurba_marseille","lat":43.27807,"lon":5.40715,"is_reserved":false,"is_disabled":false,"rental_uris":{"android":"levelo://app?vid=a72ae102-3fd0-406d-b4c2-34cdcfc20262","ios":"levelo://app?vid=a72ae102-3fd0-406d-b4c2-34cdcfc20262"},"vehicle_type_id":"4","last_reported":1730455868,"current_range_meters":20400,"station_id":"ce4bhnh2rcd13ifvqgtg","pricing_plan_id":"cebpf4jnsgd1na2vs0mg"},{"bike_id":"794d23c0-def7-4557-a69a-112ea268f585","system_id":"levelo_inurba_marseille","lat":43.2319,"lon":5.35557,"is_reserved":false,"is_disabled":false,"rental_uris":{"android":"levelo://app?vid=794d23c0-def7-4557-a69a-112ea268f585","ios":"levelo://app?vid=794d23c0-def7-4557-a69a-112ea268f585"},"vehicle_type_id":"4","last_reported":1730455868,"current_range_meters":38800,"station_id":"ce4bhu92rcd13ifvqi70","pricing_plan_id":"cebpf4jnsgd1na2vs0mg"},{"bike_id":"73840abb-6496-4c2f-bc09-72b83004c31f","system_id":"levelo_inurba_marseille","lat":43.32002,"lon":5.38154,"is_reserved":false,"is_disabled":false,"rental_uris":{"android":"levelo://app?vid=73840abb-6496-4c2f-bc09-72b83004c31f","ios":"levelo://app?vid=73840abb-6496-4c2f-bc09-72b83004c31f"},"vehicle_type_id":"4","last_reported":1730455868,"current_range_meters":17200,"station_id":"ce4bhr12rcd13ifvqhpg","pricing_plan_id":"cebpf4jnsgd1na2vs0mg"},{"bike_id":"5b47bee9-f12b-4463-a9ea-9906df86d508","system_id":"levelo_inurba_marseille","lat":43.27937,"lon":5.41043,"is_reserved":false,"is_disabled":false,"rental_uris":{"android":"levelo://app?vid=5b47bee9-f12b-4463-a9ea-9906df86d508","ios":"levelo://app?vid=5b47bee9-f12b-4463-a9ea-9906df86d508"},"vehicle_type_id":"4","last_reported":1730455868,"current_range_meters":9600,"station_id":"ce4bhnp2rcd13ifvqh0g","pricing_plan_id":"cebpf4jnsgd1na2vs0mg"},{"bike_id":"c9fe9305-e5b5-403a-8ac6-ee784523647c","system_id":"levelo_inurba_marseille","lat":43.23429,"lon":5.3594,"is_reserved":false,"is_disabled":false,"rental_uris":{"android":"levelo://app?vid=c9fe9305-e5b5-403a-8ac6-ee784523647c","ios":"levelo://app?vid=c9fe9305-e5b5-403a-8ac6-ee784523647c"},"vehicle_type_id":"4","last_reported":1730455868,"current_range_meters":23200,"station_id":"","pricing_plan_id":"cebpf4jnsgd1na2vs0mg"},{"bike_id":"292d3e1e-28f3-42a6-9e62-59965abd5610","system_id":"levelo_inurba_marseille","lat":43.29924,"lon":5.3653,"is_reserved":false,"is_disabled":false,"rental_uris":{"android":"levelo://app?vid=292d3e1e-28f3-42a6-9e62-59965abd5610","ios":"levelo://app?vid=292d3e1e-28f3-42a6-9e62-59965abd5610"},"vehicle_type_id":"4","last_reported":1730455868,"current_range_meters":25200,"station_id":"ce4bgm92rcd13ifvqbr0","pricing_plan_id":"cebpf4jnsgd1na2vs0mg"},{"bike_id":"2a10c6c5-1c9e-45aa-9741-318eaf63b7fb","system_id":"levelo_inurba_marseille","lat":43.29435,"lon":5.39746,"is_reserved":false,"is_disabled":false,"rental_uris":{"android":"levelo://app?vid=2a10c6c5-1c9e-45aa-9741-318eaf63b7fb","ios":"levelo://app?vid=2a10c6c5-1c9e-45aa-9741-318eaf63b7fb"},"vehicle_type_id":"4","last_reported":1730455868,"current_range_meters":38000,"station_id":"ce4bh3h2rcd13ifvqdo0","pricing_plan_id":"cebpf4jnsgd1na2vs0mg"},{"bike_id":"60223806-a44d-4bd3-a685-de2b36919390","system_id":"levelo_inurba_marseille","lat":43.27538,"lon":5.38426,"is_reserved":false,"is_disabled":false,"rental_uris":{"android":"levelo://app?vid=60223806-a44d-4bd3-a685-de2b36919390","ios":"levelo://app?vid=60223806-a44d-4bd3-a685-de2b36919390"},"vehicle_type_id":"4","last_reported":1730455868,"current_range_meters":12000,"station_id":"ce4bhh92rcd13ifvqfi0","pricing_plan_id":"cebpf4jnsgd1na2vs0mg"},{"bike_id":"5308c82e-a617-428a-a14b-e76e5ed38d37","system_id":"levelo_inurba_marseille","lat":43.28826,"lon":5.35856,"is_reserved":false,"is_disabled":false,"rental_uris":{"android":"levelo://app?vid=5308c82e-a617-428a-a14b-e76e5ed38d37","ios":"levelo://app?vid=5308c82e-a617-428a-a14b-e76e5ed38d37"},"vehicle_type_id":"4","last_reported":1730455868,"current_range_meters":33200,"station_id":"ce4bhb12rcd13ifvqem0","pricing_plan_id":"cebpf4jnsgd1na2vs0mg"},{"bike_id":"3d8c54e0-b8b0-4f3c-8415-8e80f18df626","system_id":"levelo_inurba_marseille","lat":43.29004,"lon":5.35611,"is_reserved":false,"is_disabled":false,"rental_uris":{"android":"levelo://app?vid=3d8c54e0-b8b0-4f3c-8415-8e80f18df626","ios":"levelo://app?vid=3d8c54e0-b8b0-4f3c-8415-8e80f18df626"},"vehicle_type_id":"4","last_reported":1730455868,"current_range_meters":38800,"station_id":"ce4bhb92rcd13ifvqen0","pricing_plan_id":"cebpf4jnsgd1na2vs0mg"},{"bike_id":"a1056b2a-a3fc-4880-9c84-4d6cf8325cd7","system_id":"levelo_inurba_marseille","lat":43.27211,"lon":5.39181,"is_reserved":false,"is_disabled":false,"rental_uris":{"android":"levelo://app?vid=a1056b2a-a3fc-4880-9c84-4d6cf8325cd7","ios":"levelo://app?vid=a1056b2a-a3fc-4880-9c84-4d6cf8325cd7"},"vehicle_type_id":"4","last_reported":1730455868,"current_range_meters":10800,"station_id":"ce4bhhp2rcd13ifvqfm0","pricing_plan_id":"cebpf4jnsgd1na2vs0mg"},{"bike_id":"a8a9984c-944c-41c1-9aba-fa255f9b6b7d","system_id":"levelo_inurba_marseille","lat":43.29915,"lon":5.37481,"is_reserved":false,"is_disabled":false,"rental_uris":{"android":"levelo://app?vid=a8a9984c-944c-41c1-9aba-fa255f9b6b7d","ios":"levelo://app?vid=a8a9984c-944c-41c1-9aba-fa255f9b6b7d"},"vehicle_type_id":"4","last_reported":1730455868,"current_range_meters":36800,"station_id":"ce4bgjh2rcd13ifvqbg0","pricing_plan_id":"cebpf4jnsgd1na2vs0mg"},{"bike_id":"86974205-f656-457f-8477-0714ccf9136f","system_id":"levelo_inurba_marseille","lat":43.31335,"lon":5.397,"is_reserved":false,"is_disabled":false,"rental_uris":{"android":"levelo://app?vid=86974205-f656-457f-8477-0714ccf9136f","ios":"levelo://app?vid=86974205-f656-457f-8477-0714ccf9136f"},"vehicle_type_id":"4","last_reported":1730455868,"current_range_meters":38800,"station_id":"ce4bgvp2rcd13ifvqcu0","pricing_plan_id":"cebpf4jnsgd1na2vs0mg"},{"bike_id":"68ee9e57-81bc-4ab4-adb1-b44853174ba9","system_id":"levelo_inurba_marseille","lat":43.23955,"lon":5.36636,"is_reserved":false,"is_disabled":false,"rental_uris":{"android":"levelo://app?vid=68ee9e57-81bc-4ab4-adb1-b44853174ba9","ios":"levelo://app?vid=68ee9e57-81bc-4ab4-adb1-b44853174ba9"},"vehicle_type_id":"4","last_reported":1730455868,"current_range_meters":32800,"station_id":"ce4bhi12rcd13ifvqfp0","pricing_plan_id":"cebpf4jnsgd1na2vs0mg"},{"bike_id":"e41c7007-ff61-4cce-920e-1480ea2ab0c0","system_id":"levelo_inurba_marseille","lat":43.320494,"lon":5.415273,"is_reserved":false,"is_disabled":false,"rental_uris":{"android":"levelo://app?vid=e41c7007-ff61-4cce-920e-1480ea2ab0c0","ios":"levelo://app?vid=e41c7007-ff61-4cce-920e-1480ea2ab0c0"},"vehicle_type_id":"4","last_reported":1730455868,"current_range_meters":38400,"station_id":"ce4bhq92rcd13ifvqhkg","pricing_plan_id":"cebpf4jnsgd1na2vs0mg"},{"bike_id":"ab226aa8-03f1-4a65-bdd9-846428a9c4e9","system_id":"levelo_inurba_marseille","lat":43.28072,"lon":5.39647,"is_reserved":false,"is_disabled":false,"rental_uris":{"android":"levelo://app?vid=ab226aa8-03f1-4a65-bdd9-846428a9c4e9","ios":"levelo://app?vid=ab226aa8-03f1-4a65-bdd9-846428a9c4e9"},"vehicle_type_id":"4","last_reported":1730455868,"current_range_meters":36400,"station_id":"ce4bho12rcd13ifvqh2g","pricing_plan_id":"cebpf4jnsgd1na2vs0mg"},{"bike_id":"1efb81ec-125e-42cb-ae3a-6344e5ce3c13","system_id":"levelo_inurba_marseille","lat":43.30417,"lon":5.41285,"is_reserved":false,"is_disabled":false,"rental_uris":{"android":"levelo://app?vid=1efb81ec-125e-42cb-ae3a-6344e5ce3c13","ios":"levelo://app?vid=1efb81ec-125e-42cb-ae3a-6344e5ce3c13"},"vehicle_type_id":"4","last_reported":1730455868,"current_range_meters":36000,"station_id":"ce4bhop2rcd13ifvqh8g","pricing_plan_id":"cebpf4jnsgd1na2vs0mg"},{"bike_id":"30514b68-f146-4b5d-b222-45696243c2e4","system_id":"levelo_inurba_marseille","lat":43.25088,"lon":5.39517,"is_reserved":false,"is_disabled":false,"rental_uris":{"android":"levelo://app?vid=30514b68-f146-4b5d-b222-45696243c2e4","ios":"levelo://app?vid=30514b68-f146-4b5d-b222-45696243c2e4"},"vehicle_type_id":"4","last_reported":1730455868,"current_range_meters":24400,"station_id":"ce4bhm12rcd13ifvqgkg","pricing_plan_id":"cebpf4jnsgd1na2vs0mg"},{"bike_id":"901c09b1-7d23-450b-a699-85fb678b973a","system_id":"levelo_inurba_marseille","lat":43.26948,"lon":5.38643,"is_reserved":false,"is_disabled":false,"rental_uris":{"android":"levelo://app?vid=901c09b1-7d23-450b-a699-85fb678b973a","ios":"levelo://app?vid=901c09b1-7d23-450b-a699-85fb678b973a"},"vehicle_type_id":"4","last_reported":1730455868,"current_range_meters":40000,"station_id":"ce4bhh92rcd13ifvqfh0","pricing_plan_id":"cebpf4jnsgd1na2vs0mg"},{"bike_id":"94e5a78a-7095-4be1-a4e8-698f69574a49","system_id":"levelo_inurba_marseille","lat":43.23197,"lon":5.35559,"is_reserved":false,"is_disabled":false,"rental_uris":{"android":"levelo://app?vid=94e5a78a-7095-4be1-a4e8-698f69574a49","ios":"levelo://app?vid=94e5a78a-7095-4be1-a4e8-698f69574a49"},"vehicle_type_id":"4","last_reported":1730455868,"current_range_meters":28800,"station_id":"ce4bhu92rcd13ifvqi70","pricing_plan_id":"cebpf4jnsgd1na2vs0mg"},{"bike_id":"30cd3637-5231-4451-8b17-3902824e2d98","system_id":"levelo_inurba_marseille","lat":43.31432,"lon":5.39284,"is_reserved":false,"is_disabled":false,"rental_uris":{"android":"levelo://app?vid=30cd3637-5231-4451-8b17-3902824e2d98","ios":"levelo://app?vid=30cd3637-5231-4451-8b17-3902824e2d98"},"vehicle_type_id":"4","last_reported":1730455868,"current_range_meters":17600,"station_id":"","pricing_plan_id":"cebpf4jnsgd1na2vs0mg"},{"bike_id":"9d04037d-5912-4748-a04e-79b7cb2358b9","system_id":"levelo_inurba_marseille","lat":43.30907,"lon":5.3685,"is_reserved":false,"is_disabled":false,"rental_uris":{"android":"levelo://app?vid=9d04037d-5912-4748-a04e-79b7cb2358b9","ios":"levelo://app?vid=9d04037d-5912-4748-a04e-79b7cb2358b9"},"vehicle_type_id":"4","last_reported":1730455868,"current_range_meters":25600,"station_id":"ce4bgn92rcd13ifvqbvg","pricing_plan_id":"cebpf4jnsgd1na2vs0mg"},{"bike_id":"4a50a747-7457-43fc-bd8a-d30afdcad7b6","system_id":"levelo_inurba_marseille","lat":43.29364,"lon":5.37832,"is_reserved":false,"is_disabled":false,"rental_uris":{"android":"levelo://app?vid=4a50a747-7457-43fc-bd8a-d30afdcad7b6","ios":"levelo://app?vid=4a50a747-7457-43fc-bd8a-d30afdcad7b6"},"vehicle_type_id":"4","last_reported":1730455868,"current_range_meters":38400,"station_id":"ce4bgjh2rcd13ifvqbf0","pricing_plan_id":"cebpf4jnsgd1na2vs0mg"},{"bike_id":"e8c4e24f-476f-443e-b5f0-ef78d7e0d75f","system_id":"levelo_inurba_marseille","lat":43.31261,"lon":5.40168,"is_reserved":false,"is_disabled":false,"rental_uris":{"android":"levelo://app?vid=e8c4e24f-476f-443e-b5f0-ef78d7e0d75f","ios":"levelo://app?vid=e8c4e24f-476f-443e-b5f0-ef78d7e0d75f"},"vehicle_type_id":"4","last_reported":1730455868,"current_range_meters":7200,"station_id":"ce4bh092rcd13ifvqd30","pricing_plan_id":"cebpf4jnsgd1na2vs0mg"},{"bike_id":"f91c7c2e-bd5c-43c1-a95b-4d130208d91c","system_id":"levelo_inurba_marseille","lat":43.28473,"lon":5.38417,"is_reserved":false,"is_disabled":false,"rental_uris":{"android":"levelo://app?vid=f91c7c2e-bd5c-43c1-a95b-4d130208d91c","ios":"levelo://app?vid=f91c7c2e-bd5c-43c1-a95b-4d130208d91c"},"vehicle_type_id":"4","last_reported":1730455868,"current_range_meters":15200,"station_id":"ce4bh512rcd13ifvqe3g","pricing_plan_id":"cebpf4jnsgd1na2vs0mg"},{"bike_id":"df167e9b-f340-4140-9da7-d071fc2afcaf","system_id":"levelo_inurba_marseille","lat":43.27989,"lon":5.40029,"is_reserved":false,"is_disabled":false,"rental_uris":{"android":"levelo://app?vid=df167e9b-f340-4140-9da7-d071fc2afcaf","ios":"levelo://app?vid=df167e9b-f340-4140-9da7-d071fc2afcaf"},"vehicle_type_id":"4","last_reported":1730455868,"current_range_meters":37600,"station_id":"ce4bho92rcd13ifvqh4g","pricing_plan_id":"cebpf4jnsgd1na2vs0mg"},{"bike_id":"a0537ef4-90b0-421a-9127-42b9c0955a4c","system_id":"levelo_inurba_marseille","lat":43.30091,"lon":5.39077,"is_reserved":false,"is_disabled":false,"rental_uris":{"android":"levelo://app?vid=a0537ef4-90b0-421a-9127-42b9c0955a4c","ios":"levelo://app?vid=a0537ef4-90b0-421a-9127-42b9c0955a4c"},"vehicle_type_id":"4","last_reported":1730455868,"current_range_meters":38800,"station_id":"ce4bh192rcd13ifvqdb0","pricing_plan_id":"cebpf4jnsgd1na2vs0mg"},{"bike_id":"9ba520ed-8589-4f9e-9b68-357e20560ef9","system_id":"levelo_inurba_marseille","lat":43.30535,"lon":5.36702,"is_reserved":false,"is_disabled":false,"rental_uris":{"android":"levelo://app?vid=9ba520ed-8589-4f9e-9b68-357e20560ef9","ios":"levelo://app?vid=9ba520ed-8589-4f9e-9b68-357e20560ef9"},"vehicle_type_id":"4","last_reported":1730455868,"current_range_meters":37600,"station_id":"ce4bgrp2rcd13ifvqc9g","pricing_plan_id":"cebpf4jnsgd1na2vs0mg"},{"bike_id":"c2014995-2114-4765-8145-5ea0db8ce0be","system_id":"levelo_inurba_marseille","lat":43.27381,"lon":5.36255,"is_reserved":false,"is_disabled":false,"rental_uris":{"android":"levelo://app?vid=c2014995-2114-4765-8145-5ea0db8ce0be","ios":"levelo://app?vid=c2014995-2114-4765-8145-5ea0db8ce0be"},"vehicle_type_id":"4","last_reported":1730455868,"current_range_meters":24400,"station_id":"ce4bhbh2rcd13ifvqeo0","pricing_plan_id":"cebpf4jnsgd1na2vs0mg"},{"bike_id":"e9fc88b3-3aa8-4caa-a993-47b5316dd2b2","system_id":"levelo_inurba_marseille","lat":43.305456,"lon":5.365378,"is_reserved":false,"is_disabled":false,"rental_uris":{"android":"levelo://app?vid=e9fc88b3-3aa8-4caa-a993-47b5316dd2b2","ios":"levelo://app?vid=e9fc88b3-3aa8-4caa-a993-47b5316dd2b2"},"vehicle_type_id":"4","last_reported":1730455868,"current_range_meters":6800,"station_id":"ce4bgs12rcd13ifvqcag","pricing_plan_id":"cebpf4jnsgd1na2vs0mg"},{"bike_id":"04111943-ad17-4317-b2c6-b25578632dd9","system_id":"levelo_inurba_marseille","lat":43.29577,"lon":5.36742,"is_reserved":false,"is_disabled":false,"rental_uris":{"android":"levelo://app?vid=04111943-ad17-4317-b2c6-b25578632dd9","ios":"levelo://app?vid=04111943-ad17-4317-b2c6-b25578632dd9"},"vehicle_type_id":"4","last_reported":1730455868,"current_range_meters":39200,"station_id":"ce4bgph2rcd13ifvqc2g","pricing_plan_id":"cebpf4jnsgd1na2vs0mg"},{"bike_id":"58748d2a-dff2-4bfe-ba69-a9beed25e62c","system_id":"levelo_inurba_marseille","lat":43.27094,"lon":5.39452,"is_reserved":false,"is_disabled":false,"rental_uris":{"android":"levelo://app?vid=58748d2a-dff2-4bfe-ba69-a9beed25e62c","ios":"levelo://app?vid=58748d2a-dff2-4bfe-ba69-a9beed25e62c"},"vehicle_type_id":"4","last_reported":1730455868,"current_range_meters":23200,"station_id":"","pricing_plan_id":"cebpf4jnsgd1na2vs0mg"},{"bike_id":"08ed22d7-663d-413b-8e4a-a32596a7792f","system_id":"levelo_inurba_marseille","lat":43.32491,"lon":5.41575,"is_reserved":false,"is_disabled":false,"rental_uris":{"android":"levelo://app?vid=08ed22d7-663d-413b-8e4a-a32596a7792f","ios":"levelo://app?vid=08ed22d7-663d-413b-8e4a-a32596a7792f"},"vehicle_type_id":"4","last_reported":1730455868,"current_range_meters":37600,"station_id":"","pricing_plan_id":"cebpf4jnsgd1na2vs0mg"},{"bike_id":"55db49d4-5a48-49c8-9207-c7b4fb027811","system_id":"levelo_inurba_marseille","lat":43.25007,"lon":5.38924,"is_reserved":false,"is_disabled":false,"rental_uris":{"android":"levelo://app?vid=55db49d4-5a48-49c8-9207-c7b4fb027811","ios":"levelo://app?vid=55db49d4-5a48-49c8-9207-c7b4fb027811"},"vehicle_type_id":"4","last_reported":1730455868,"current_range_meters":27600,"station_id":"ce4bhgp2rcd13ifvqfd0","pricing_plan_id":"cebpf4jnsgd1na2vs0mg"},{"bike_id":"df7d8286-be6c-47f0-8973-2c9835f4f391","system_id":"levelo_inurba_marseille","lat":43.25091,"lon":5.39518,"is_reserved":false,"is_disabled":false,"rental_uris":{"android":"levelo://app?vid=df7d8286-be6c-47f0-8973-2c9835f4f391","ios":"levelo://app?vid=df7d8286-be6c-47f0-8973-2c9835f4f391"},"vehicle_type_id":"4","last_reported":1730455868,"current_range_meters":30400,"station_id":"ce4bhm12rcd13ifvqgkg","pricing_plan_id":"cebpf4jnsgd1na2vs0mg"},{"bike_id":"1385fa14-04b9-4ff3-80ac-cb1451ed0689","system_id":"levelo_inurba_marseille","lat":43.29842,"lon":5.36267,"is_reserved":false,"is_disabled":false,"rental_uris":{"android":"levelo://app?vid=1385fa14-04b9-4ff3-80ac-cb1451ed0689","ios":"levelo://app?vid=1385fa14-04b9-4ff3-80ac-cb1451ed0689"},"vehicle_type_id":"4","last_reported":1730455868,"current_range_meters":22000,"station_id":"ce4bgpp2rcd13ifvqc3g","pricing_plan_id":"cebpf4jnsgd1na2vs0mg"},{"bike_id":"6f9315bb-d662-4e2e-9800-2c25cc4eaa13","system_id":"levelo_inurba_marseille","lat":43.28466,"lon":5.38523,"is_reserved":false,"is_disabled":false,"rental_uris":{"android":"levelo://app?vid=6f9315bb-d662-4e2e-9800-2c25cc4eaa13","ios":"levelo://app?vid=6f9315bb-d662-4e2e-9800-2c25cc4eaa13"},"vehicle_type_id":"4","last_reported":1730455868,"current_range_meters":32400,"station_id":"ce4bh8p2rcd13ifvqeb0","pricing_plan_id":"cebpf4jnsgd1na2vs0mg"},{"bike_id":"c557ff30-64af-48d0-84c0-028a6bb21719","system_id":"levelo_inurba_marseille","lat":43.28707,"lon":5.39984,"is_reserved":false,"is_disabled":false,"rental_uris":{"android":"levelo://app?vid=c557ff30-64af-48d0-84c0-028a6bb21719","ios":"levelo://app?vid=c557ff30-64af-48d0-84c0-028a6bb21719"},"vehicle_type_id":"4","last_reported":1730455868,"current_range_meters":38800,"station_id":"ce4bho92rcd13ifvqh3g","pricing_plan_id":"cebpf4jnsgd1na2vs0mg"},{"bike_id":"7761dfd7-5811-407a-97cf-83e9d6d36c83","system_id":"levelo_inurba_marseille","lat":43.23185,"lon":5.39987,"is_reserved":false,"is_disabled":false,"rental_uris":{"android":"levelo://app?vid=7761dfd7-5811-407a-97cf-83e9d6d36c83","ios":"levelo://app?vid=7761dfd7-5811-407a-97cf-83e9d6d36c83"},"vehicle_type_id":"4","last_reported":1730455868,"current_range_meters":39200,"station_id":"ce4bhn12rcd13ifvqgqg","pricing_plan_id":"cebpf4jnsgd1na2vs0mg"},{"bike_id":"05677470-d17c-4540-9ee5-f2e3eb340d9e","system_id":"levelo_inurba_marseille","lat":43.30279,"lon":5.37697,"is_reserved":false,"is_disabled":false,"rental_uris":{"android":"levelo://app?vid=05677470-d17c-4540-9ee5-f2e3eb340d9e","ios":"levelo://app?vid=05677470-d17c-4540-9ee5-f2e3eb340d9e"},"vehicle_type_id":"4","last_reported":1730455868,"current_range_meters":24000,"station_id":"ce4bguh2rcd13ifvqcj0","pricing_plan_id":"cebpf4jnsgd1na2vs0mg"},{"bike_id":"2312b92a-47b7-4059-b165-23dbfdcce0c2","system_id":"levelo_inurba_marseille","lat":43.28406,"lon":5.37523,"is_reserved":false,"is_disabled":false,"rental_uris":{"android":"levelo://app?vid=2312b92a-47b7-4059-b165-23dbfdcce0c2","ios":"levelo://app?vid=2312b92a-47b7-4059-b165-23dbfdcce0c2"},"vehicle_type_id":"4","last_reported":1730455868,"current_range_meters":24800,"station_id":"ce4bh412rcd13ifvqds0","pricing_plan_id":"cebpf4jnsgd1na2vs0mg"},{"bike_id":"1d324435-c159-4865-980c-29a9973a93ab","system_id":"levelo_inurba_marseille","lat":43.29037,"lon":5.38638,"is_reserved":false,"is_disabled":false,"rental_uris":{"android":"levelo://app?vid=1d324435-c159-4865-980c-29a9973a93ab","ios":"levelo://app?vid=1d324435-c159-4865-980c-29a9973a93ab"},"vehicle_type_id":"4","last_reported":1730455868,"current_range_meters":37600,"station_id":"ce4bh4p2rcd13ifvqe0g","pricing_plan_id":"cebpf4jnsgd1na2vs0mg"},{"bike_id":"94279a57-03c0-47b7-abe3-7226e86fd3b0","system_id":"levelo_inurba_marseille","lat":43.2761,"lon":5.36108,"is_reserved":false,"is_disabled":false,"rental_uris":{"android":"levelo://app?vid=94279a57-03c0-47b7-abe3-7226e86fd3b0","ios":"levelo://app?vid=94279a57-03c0-47b7-abe3-7226e86fd3b0"},"vehicle_type_id":"4","last_reported":1730455868,"current_range_meters":25600,"station_id":"ce4bgj92rcd13ifvqbe0","pricing_plan_id":"cebpf4jnsgd1na2vs0mg"},{"bike_id":"22c8651d-7b0d-4535-9360-d05da8dcbc5e","system_id":"levelo_inurba_marseille","lat":43.29736,"lon":5.37683,"is_reserved":false,"is_disabled":false,"rental_uris":{"android":"levelo://app?vid=22c8651d-7b0d-4535-9360-d05da8dcbc5e","ios":"levelo://app?vid=22c8651d-7b0d-4535-9360-d05da8dcbc5e"},"vehicle_type_id":"4","last_reported":1730455868,"current_range_meters":33600,"station_id":"ce4bgkh2rcd13ifvqbl0","pricing_plan_id":"cebpf4jnsgd1na2vs0mg"},{"bike_id":"864a552f-87dd-464a-977f-d7ea2d5d0d29","system_id":"levelo_inurba_marseille","lat":43.27616,"lon":5.36116,"is_reserved":false,"is_disabled":false,"rental_uris":{"android":"levelo://app?vid=864a552f-87dd-464a-977f-d7ea2d5d0d29","ios":"levelo://app?vid=864a552f-87dd-464a-977f-d7ea2d5d0d29"},"vehicle_type_id":"4","last_reported":1730455868,"current_range_meters":22400,"station_id":"ce4bgj92rcd13ifvqbe0","pricing_plan_id":"cebpf4jnsgd1na2vs0mg"},{"bike_id":"4e6ade64-3290-48c0-8e76-3a7fbd4aef0b","system_id":"levelo_inurba_marseille","lat":43.27617,"lon":5.3612,"is_reserved":false,"is_disabled":false,"rental_uris":{"android":"levelo://app?vid=4e6ade64-3290-48c0-8e76-3a7fbd4aef0b","ios":"levelo://app?vid=4e6ade64-3290-48c0-8e76-3a7fbd4aef0b"},"vehicle_type_id":"4","last_reported":1730455868,"current_range_meters":38800,"station_id":"ce4bgj92rcd13ifvqbe0","pricing_plan_id":"cebpf4jnsgd1na2vs0mg"},{"bike_id":"afabf637-0d4e-4447-a945-3ca3cd2fb693","system_id":"levelo_inurba_marseille","lat":43.27314,"lon":5.39106,"is_reserved":false,"is_disabled":false,"rental_uris":{"android":"levelo://app?vid=afabf637-0d4e-4447-a945-3ca3cd2fb693","ios":"levelo://app?vid=afabf637-0d4e-4447-a945-3ca3cd2fb693"},"vehicle_type_id":"4","last_reported":1730455868,"current_range_meters":20000,"station_id":"ce4bhgp2rcd13ifvqfe0","pricing_plan_id":"cebpf4jnsgd1na2vs0mg"},{"bike_id":"a59de3a1-b5ee-4992-95d5-92d91d1b8221","system_id":"levelo_inurba_marseille","lat":43.25868,"lon":5.39903,"is_reserved":false,"is_disabled":false,"rental_uris":{"android":"levelo://app?vid=a59de3a1-b5ee-4992-95d5-92d91d1b8221","ios":"levelo://app?vid=a59de3a1-b5ee-4992-95d5-92d91d1b8221"},"vehicle_type_id":"4","last_reported":1730455868,"current_range_meters":32800,"station_id":"ce4bhl92rcd13ifvqghg","pricing_plan_id":"cebpf4jnsgd1na2vs0mg"},{"bike_id":"fbdf43a7-6d5a-4e11-a5c5-523b2555b219","system_id":"levelo_inurba_marseille","lat":43.30917,"lon":5.36848,"is_reserved":false,"is_disabled":false,"rental_uris":{"android":"levelo://app?vid=fbdf43a7-6d5a-4e11-a5c5-523b2555b219","ios":"levelo://app?vid=fbdf43a7-6d5a-4e11-a5c5-523b2555b219"},"vehicle_type_id":"4","last_reported":1730455868,"current_range_meters":21600,"station_id":"ce4bgn92rcd13ifvqbvg","pricing_plan_id":"cebpf4jnsgd1na2vs0mg"},{"bike_id":"e26d5fb7-256b-4ebc-96f1-5f718c654bdb","system_id":"levelo_inurba_marseille","lat":43.31164,"lon":5.38723,"is_reserved":false,"is_disabled":false,"rental_uris":{"android":"levelo://app?vid=e26d5fb7-256b-4ebc-96f1-5f718c654bdb","ios":"levelo://app?vid=e26d5fb7-256b-4ebc-96f1-5f718c654bdb"},"vehicle_type_id":"4","last_reported":1730455868,"current_range_meters":28400,"station_id":"ce4bgv12rcd13ifvqcp0","pricing_plan_id":"cebpf4jnsgd1na2vs0mg"},{"bike_id":"ce7a9679-1309-4337-a277-05901a838b7d","system_id":"levelo_inurba_marseille","lat":43.29358,"lon":5.43431,"is_reserved":false,"is_disabled":false,"rental_uris":{"android":"levelo://app?vid=ce7a9679-1309-4337-a277-05901a838b7d","ios":"levelo://app?vid=ce7a9679-1309-4337-a277-05901a838b7d"},"vehicle_type_id":"4","last_reported":1730455868,"current_range_meters":17200,"station_id":"","pricing_plan_id":"cebpf4jnsgd1na2vs0mg"},{"bike_id":"ac200c22-3599-445f-94c7-c1edd12af94b","system_id":"levelo_inurba_marseille","lat":43.23148,"lon":5.43718,"is_reserved":false,"is_disabled":false,"rental_uris":{"android":"levelo://app?vid=ac200c22-3599-445f-94c7-c1edd12af94b","ios":"levelo://app?vid=ac200c22-3599-445f-94c7-c1edd12af94b"},"vehicle_type_id":"4","last_reported":1730455868,"current_range_meters":25200,"station_id":"ce4bhmp2rcd13ifvqgog","pricing_plan_id":"cebpf4jnsgd1na2vs0mg"},{"bike_id":"9978b3d0-8228-40a2-a157-704096f57895","system_id":"levelo_inurba_marseille","lat":43.29007,"lon":5.35609,"is_reserved":false,"is_disabled":false,"rental_uris":{"android":"levelo://app?vid=9978b3d0-8228-40a2-a157-704096f57895","ios":"levelo://app?vid=9978b3d0-8228-40a2-a157-704096f57895"},"vehicle_type_id":"4","last_reported":1730455868,"current_range_meters":30000,"station_id":"ce4bhb92rcd13ifvqen0","pricing_plan_id":"cebpf4jnsgd1na2vs0mg"},{"bike_id":"dcb8f151-5f72-4ce7-a41b-c8f44dd67b21","system_id":"levelo_inurba_marseille","lat":43.31353,"lon":5.385,"is_reserved":false,"is_disabled":false,"rental_uris":{"android":"levelo://app?vid=dcb8f151-5f72-4ce7-a41b-c8f44dd67b21","ios":"levelo://app?vid=dcb8f151-5f72-4ce7-a41b-c8f44dd67b21"},"vehicle_type_id":"4","last_reported":1730455868,"current_range_meters":38400,"station_id":"ce4bgt92rcd13ifvqcf0","pricing_plan_id":"cebpf4jnsgd1na2vs0mg"},{"bike_id":"0327b2c3-a953-4a00-af49-25eb8099bcbf","system_id":"levelo_inurba_marseille","lat":43.31328,"lon":5.39692,"is_reserved":false,"is_disabled":false,"rental_uris":{"android":"levelo://app?vid=0327b2c3-a953-4a00-af49-25eb8099bcbf","ios":"levelo://app?vid=0327b2c3-a953-4a00-af49-25eb8099bcbf"},"vehicle_type_id":"4","last_reported":1730455868,"current_range_meters":39200,"station_id":"ce4bgvp2rcd13ifvqcu0","pricing_plan_id":"cebpf4jnsgd1na2vs0mg"},{"bike_id":"33266907-b7d3-4b2b-a59f-bff8669817d6","system_id":"levelo_inurba_marseille","lat":43.29046,"lon":5.35914,"is_reserved":false,"is_disabled":false,"rental_uris":{"android":"levelo://app?vid=33266907-b7d3-4b2b-a59f-bff8669817d6","ios":"levelo://app?vid=33266907-b7d3-4b2b-a59f-bff8669817d6"},"vehicle_type_id":"4","last_reported":1730455868,"current_range_meters":28000,"station_id":"ce4bha92rcd13ifvqeg0","pricing_plan_id":"cebpf4jnsgd1na2vs0mg"},{"bike_id":"fcaccd5c-23fb-4cc8-8931-ae330b22fb5a","system_id":"levelo_inurba_marseille","lat":43.23176,"lon":5.39997,"is_reserved":false,"is_disabled":false,"rental_uris":{"android":"levelo://app?vid=fcaccd5c-23fb-4cc8-8931-ae330b22fb5a","ios":"levelo://app?vid=fcaccd5c-23fb-4cc8-8931-ae330b22fb5a"},"vehicle_type_id":"4","last_reported":1730455868,"current_range_meters":28000,"station_id":"ce4bhn12rcd13ifvqgqg","pricing_plan_id":"cebpf4jnsgd1na2vs0mg"},{"bike_id":"86008901-30ea-4421-9db2-a092ed66c428","system_id":"levelo_inurba_marseille","lat":43.25729,"lon":5.41109,"is_reserved":false,"is_disabled":false,"rental_uris":{"android":"levelo://app?vid=86008901-30ea-4421-9db2-a092ed66c428","ios":"levelo://app?vid=86008901-30ea-4421-9db2-a092ed66c428"},"vehicle_type_id":"4","last_reported":1730455868,"current_range_meters":4800,"station_id":"ce4bhkp2rcd13ifvqgd0","pricing_plan_id":"cebpf4jnsgd1na2vs0mg"},{"bike_id":"4d4f8930-d229-44b7-803a-7b90bb0d047d","system_id":"levelo_inurba_marseille","lat":43.309326,"lon":5.390349,"is_reserved":false,"is_disabled":false,"rental_uris":{"android":"levelo://app?vid=4d4f8930-d229-44b7-803a-7b90bb0d047d","ios":"levelo://app?vid=4d4f8930-d229-44b7-803a-7b90bb0d047d"},"vehicle_type_id":"4","last_reported":1730455868,"current_range_meters":19200,"station_id":"ce4bgpp2rcd13ifvqc3g","pricing_plan_id":"cebpf4jnsgd1na2vs0mg"},{"bike_id":"b7a9d8e8-c35d-4971-bd3f-c64a2bbcec4e","system_id":"levelo_inurba_marseille","lat":43.28266,"lon":5.3508,"is_reserved":false,"is_disabled":false,"rental_uris":{"android":"levelo://app?vid=b7a9d8e8-c35d-4971-bd3f-c64a2bbcec4e","ios":"levelo://app?vid=b7a9d8e8-c35d-4971-bd3f-c64a2bbcec4e"},"vehicle_type_id":"4","last_reported":1730455868,"current_range_meters":38800,"station_id":"ce4bhbp2rcd13ifvqerg","pricing_plan_id":"cebpf4jnsgd1na2vs0mg"},{"bike_id":"46489a48-2d14-43f2-bbb6-857f27fc73e3","system_id":"levelo_inurba_marseille","lat":43.30145,"lon":5.39843,"is_reserved":false,"is_disabled":false,"rental_uris":{"android":"levelo://app?vid=46489a48-2d14-43f2-bbb6-857f27fc73e3","ios":"levelo://app?vid=46489a48-2d14-43f2-bbb6-857f27fc73e3"},"vehicle_type_id":"4","last_reported":1730455868,"current_range_meters":36000,"station_id":"ce4bh0h2rcd13ifvqd40","pricing_plan_id":"cebpf4jnsgd1na2vs0mg"},{"bike_id":"fc980a8b-57a0-4178-a4f7-51cea77885db","system_id":"levelo_inurba_marseille","lat":43.24072,"lon":5.37757,"is_reserved":false,"is_disabled":false,"rental_uris":{"android":"levelo://app?vid=fc980a8b-57a0-4178-a4f7-51cea77885db","ios":"levelo://app?vid=fc980a8b-57a0-4178-a4f7-51cea77885db"},"vehicle_type_id":"4","last_reported":1730455868,"current_range_meters":33200,"station_id":"ce4bhnp2rcd13ifvqgvg","pricing_plan_id":"cebpf4jnsgd1na2vs0mg"},{"bike_id":"fd0ae1a9-4d1e-4f1c-a2b4-548f0e463019","system_id":"levelo_inurba_marseille","lat":43.33607,"lon":5.41032,"is_reserved":false,"is_disabled":false,"rental_uris":{"android":"levelo://app?vid=fd0ae1a9-4d1e-4f1c-a2b4-548f0e463019","ios":"levelo://app?vid=fd0ae1a9-4d1e-4f1c-a2b4-548f0e463019"},"vehicle_type_id":"4","last_reported":1730455868,"current_range_meters":38000,"station_id":"ce4bhqh2rcd13ifvqhmg","pricing_plan_id":"cebpf4jnsgd1na2vs0mg"},{"bike_id":"7e3dbc4c-5f27-4ffa-8668-1430fc0867c5","system_id":"levelo_inurba_marseille","lat":43.2418,"lon":5.39726,"is_reserved":false,"is_disabled":false,"rental_uris":{"android":"levelo://app?vid=7e3dbc4c-5f27-4ffa-8668-1430fc0867c5","ios":"levelo://app?vid=7e3dbc4c-5f27-4ffa-8668-1430fc0867c5"},"vehicle_type_id":"4","last_reported":1730455868,"current_range_meters":38800,"station_id":"ce4bhn12rcd13ifvqgpg","pricing_plan_id":"cebpf4jnsgd1na2vs0mg"},{"bike_id":"de2a2c59-3020-4ec1-ae6d-7003121d716d","system_id":"levelo_inurba_marseille","lat":43.30918,"lon":5.4014,"is_reserved":false,"is_disabled":false,"rental_uris":{"android":"levelo://app?vid=de2a2c59-3020-4ec1-ae6d-7003121d716d","ios":"levelo://app?vid=de2a2c59-3020-4ec1-ae6d-7003121d716d"},"vehicle_type_id":"4","last_reported":1730455868,"current_range_meters":12400,"station_id":"ce4bgvp2rcd13ifvqct0","pricing_plan_id":"cebpf4jnsgd1na2vs0mg"},{"bike_id":"1c6ea62e-c603-4cd5-98fd-366172f1bb48","system_id":"levelo_inurba_marseille","lat":43.28419,"lon":5.37515,"is_reserved":false,"is_disabled":false,"rental_uris":{"android":"levelo://app?vid=1c6ea62e-c603-4cd5-98fd-366172f1bb48","ios":"levelo://app?vid=1c6ea62e-c603-4cd5-98fd-366172f1bb48"},"vehicle_type_id":"4","last_reported":1730455868,"current_range_meters":29600,"station_id":"ce4bh412rcd13ifvqds0","pricing_plan_id":"cebpf4jnsgd1na2vs0mg"},{"bike_id":"ffcea463-c3ed-497e-8095-385644b9476c","system_id":"levelo_inurba_marseille","lat":43.28413,"lon":5.34998,"is_reserved":false,"is_disabled":false,"rental_uris":{"android":"levelo://app?vid=ffcea463-c3ed-497e-8095-385644b9476c","ios":"levelo://app?vid=ffcea463-c3ed-497e-8095-385644b9476c"},"vehicle_type_id":"4","last_reported":1730455868,"current_range_meters":38800,"station_id":"ce4bhbh2rcd13ifvqepg","pricing_plan_id":"cebpf4jnsgd1na2vs0mg"},{"bike_id":"de9248ec-e32c-467a-9b16-d7c18685fc1e","system_id":"levelo_inurba_marseille","lat":43.29492,"lon":5.37437,"is_reserved":false,"is_disabled":false,"rental_uris":{"android":"levelo://app?vid=de9248ec-e32c-467a-9b16-d7c18685fc1e","ios":"levelo://app?vid=de9248ec-e32c-467a-9b16-d7c18685fc1e"},"vehicle_type_id":"4","last_reported":1730455868,"current_range_meters":28000,"station_id":"ce4bgjh2rcd13ifvqbg0","pricing_plan_id":"cebpf4jnsgd1na2vs0mg"},{"bike_id":"ae31f7aa-ec14-4090-9ea9-479b30ff0ee5","system_id":"levelo_inurba_marseille","lat":43.33601,"lon":5.41029,"is_reserved":false,"is_disabled":false,"rental_uris":{"android":"levelo://app?vid=ae31f7aa-ec14-4090-9ea9-479b30ff0ee5","ios":"levelo://app?vid=ae31f7aa-ec14-4090-9ea9-479b30ff0ee5"},"vehicle_type_id":"4","last_reported":1730455868,"current_range_meters":38800,"station_id":"ce4bhqh2rcd13ifvqhmg","pricing_plan_id":"cebpf4jnsgd1na2vs0mg"},{"bike_id":"3f862de1-3221-4cb5-b04f-a32f0115487e","system_id":"levelo_inurba_marseille","lat":43.25586,"lon":5.382263,"is_reserved":false,"is_disabled":false,"rental_uris":{"android":"levelo://app?vid=3f862de1-3221-4cb5-b04f-a32f0115487e","ios":"levelo://app?vid=3f862de1-3221-4cb5-b04f-a32f0115487e"},"vehicle_type_id":"4","last_reported":1730455868,"current_range_meters":24000,"station_id":"ce4bhih2rcd13ifvqfs0","pricing_plan_id":"cebpf4jnsgd1na2vs0mg"},{"bike_id":"cac64c58-5219-4783-bc94-fdec907078b8","system_id":"levelo_inurba_marseille","lat":43.31487,"lon":5.37307,"is_reserved":false,"is_disabled":false,"rental_uris":{"android":"levelo://app?vid=cac64c58-5219-4783-bc94-fdec907078b8","ios":"levelo://app?vid=cac64c58-5219-4783-bc94-fdec907078b8"},"vehicle_type_id":"4","last_reported":1730455868,"current_range_meters":10800,"station_id":"ce4bgt12rcd13ifvqcd0","pricing_plan_id":"cebpf4jnsgd1na2vs0mg"},{"bike_id":"763fef9f-dc4b-4b39-905f-b398b44b1c56","system_id":"levelo_inurba_marseille","lat":43.288532,"lon":5.358591,"is_reserved":false,"is_disabled":false,"rental_uris":{"android":"levelo://app?vid=763fef9f-dc4b-4b39-905f-b398b44b1c56","ios":"levelo://app?vid=763fef9f-dc4b-4b39-905f-b398b44b1c56"},"vehicle_type_id":"4","last_reported":1730455868,"current_range_meters":38800,"station_id":"","pricing_plan_id":"cebpf4jnsgd1na2vs0mg"},{"bike_id":"8d1e0c6e-57f0-44df-9b48-fff9a91d0645","system_id":"levelo_inurba_marseille","lat":43.32662,"lon":5.40989,"is_reserved":false,"is_disabled":false,"rental_uris":{"android":"levelo://app?vid=8d1e0c6e-57f0-44df-9b48-fff9a91d0645","ios":"levelo://app?vid=8d1e0c6e-57f0-44df-9b48-fff9a91d0645"},"vehicle_type_id":"4","last_reported":1730455868,"current_range_meters":37600,"station_id":"ce4bhpp2rcd13ifvqhgg","pricing_plan_id":"cebpf4jnsgd1na2vs0mg"},{"bike_id":"4bb98dc0-ba31-4aa4-b9f8-b9e50ea79ac5","system_id":"levelo_inurba_marseille","lat":43.30786,"lon":5.37651,"is_reserved":false,"is_disabled":false,"rental_uris":{"android":"levelo://app?vid=4bb98dc0-ba31-4aa4-b9f8-b9e50ea79ac5","ios":"levelo://app?vid=4bb98dc0-ba31-4aa4-b9f8-b9e50ea79ac5"},"vehicle_type_id":"4","last_reported":1730455868,"current_range_meters":30000,"station_id":"ce4bgv92rcd13ifvqcq0","pricing_plan_id":"cebpf4jnsgd1na2vs0mg"},{"bike_id":"d1ea22d2-7e0b-4f78-b6ec-9033cd82690d","system_id":"levelo_inurba_marseille","lat":43.26778,"lon":5.3942,"is_reserved":false,"is_disabled":false,"rental_uris":{"android":"levelo://app?vid=d1ea22d2-7e0b-4f78-b6ec-9033cd82690d","ios":"levelo://app?vid=d1ea22d2-7e0b-4f78-b6ec-9033cd82690d"},"vehicle_type_id":"4","last_reported":1730455868,"current_range_meters":38400,"station_id":"ce4bhh12rcd13ifvqfg0","pricing_plan_id":"cebpf4jnsgd1na2vs0mg"},{"bike_id":"df929ed3-557f-4e11-9511-f0d001c9bb7d","system_id":"levelo_inurba_marseille","lat":43.2842,"lon":5.34982,"is_reserved":false,"is_disabled":false,"rental_uris":{"android":"levelo://app?vid=df929ed3-557f-4e11-9511-f0d001c9bb7d","ios":"levelo://app?vid=df929ed3-557f-4e11-9511-f0d001c9bb7d"},"vehicle_type_id":"4","last_reported":1730455868,"current_range_meters":38800,"station_id":"ce4bhbh2rcd13ifvqepg","pricing_plan_id":"cebpf4jnsgd1na2vs0mg"},{"bike_id":"ff2b8f6d-0356-465d-9dfe-c642ea8d5d32","system_id":"levelo_inurba_marseille","lat":43.24392,"lon":5.37056,"is_reserved":false,"is_disabled":false,"rental_uris":{"android":"levelo://app?vid=ff2b8f6d-0356-465d-9dfe-c642ea8d5d32","ios":"levelo://app?vid=ff2b8f6d-0356-465d-9dfe-c642ea8d5d32"},"vehicle_type_id":"4","last_reported":1730455868,"current_range_meters":38000,"station_id":"ce4bhhh2rcd13ifvqfk0","pricing_plan_id":"cebpf4jnsgd1na2vs0mg"},{"bike_id":"9c0ce7c2-266b-456a-b600-aad012ecaf01","system_id":"levelo_inurba_marseille","lat":43.26198,"lon":5.37924,"is_reserved":false,"is_disabled":false,"rental_uris":{"android":"levelo://app?vid=9c0ce7c2-266b-456a-b600-aad012ecaf01","ios":"levelo://app?vid=9c0ce7c2-266b-456a-b600-aad012ecaf01"},"vehicle_type_id":"4","last_reported":1730455868,"current_range_meters":38800,"station_id":"ce4bhjp2rcd13ifvqg90","pricing_plan_id":"cebpf4jnsgd1na2vs0mg"},{"bike_id":"be3f90bc-0f73-4ef5-881a-805be39918b1","system_id":"levelo_inurba_marseille","lat":43.25725,"lon":5.41108,"is_reserved":false,"is_disabled":false,"rental_uris":{"android":"levelo://app?vid=be3f90bc-0f73-4ef5-881a-805be39918b1","ios":"levelo://app?vid=be3f90bc-0f73-4ef5-881a-805be39918b1"},"vehicle_type_id":"4","last_reported":1730455868,"current_range_meters":38400,"station_id":"ce4bhkp2rcd13ifvqgd0","pricing_plan_id":"cebpf4jnsgd1na2vs0mg"},