{"last_updated":1756393832,"ttl":60,"version":"2.2","data":{"bikes":[{"bike_id":"0d502687-08ef-4491-8893-8a03d8688be8","system_id":"levelo_inurba_marseille","lat":43.296359,"lon":5.361186,"is_reserved":false,"is_disabled":false,"rental_uris":{"android":"levelo://app?vid=0d502687-08ef-4491-8893-8a03d8688be8","ios":"levelo://app?vid=0d502687-08ef-4491-8893-8a03d8688be8"},"vehicle_type_id":"4","last_reported":1756393833,"current_range_meters":2800,"station_id":"","pricing_plan_id":"cebpf4jnsgd1na2vs0mg"},{"bike_id":"23038a23-8213-4d5b-a784-616373105311","system_id":"levelo_inurba_marseille","lat":43.29919,"lon":5.43693,"is_reserved":false,"is_disabled":false,"rental_uris":{"android":"levelo://app?vid=23038a23-8213-4d5b-a784-616373105311","ios":"levelo://app?vid=23038a23-8213-4d5b-a784-616373105311"},"vehicle_type_id":"4","last_reported":1756393833,"current_range_meters":2800,"station_id":"","pricing_plan_id":"cebpf4jnsgd1na2vs0mg"},{"bike_id":"3c9c989b-c6c0-4535-b5f0-60a2fd70e44f","system_id":"levelo_inurba_marseille","lat":43.25496,"lon":5.37649,"is_reserved":false,"is_disabled":false,"rental_uris":{"android":"levelo://app?vid=3c9c989b-c6c0-4535-b5f0-60a2fd70e44f","ios":"levelo://app?vid=3c9c989b-c6c0-4535-b5f0-60a2fd70e44f"},"vehicle_type_id":"4","last_reported":1756393833,"current_range_meters":2800,"station_id":"ce4bhh12rcd13ifvqff0","pricing_plan_id":"cebpf4jnsgd1na2vs0mg"},{"bike_id":"51842e17-ef10-4624-a23e-c8a182427991","system_id":"levelo_inurba_marseille","lat":43.316357,"lon":5.381867,"is_reserved":false,"is_disabled":false,"rental_uris":{"android":"levelo://app?vid=51842e17-ef10-4624-a23e-c8a182427991","ios":"levelo://app?vid=51842e17-ef10-4624-a23e-c8a182427991"},"vehicle_type_id":"4","last_reported":1756393833,"current_range_meters":3600,"station_id":"","pricing_plan_id":"cebpf4jnsgd1na2vs0mg"},{"bike_id":"9ebbca0f-8b0f-49e0-bbc0-5934ebb0e846","system_id":"levelo_inurba_marseille","lat":43.21193,"lon":5.35063,"is_reserved":false,"is_disabled":false,"rental_uris":{"android":"levelo://app?vid=9ebbca0f-8b0f-49e0-bbc0-5934ebb0e846","ios":"levelo://app?vid=9ebbca0f-8b0f-49e0-bbc0-5934ebb0e846"},"vehicle_type_id":"4","last_reported":1756393833,"current_range_meters":4000,"station_id":"st_cvj6sg6p6f1abm77japg","pricing_plan_id":"cebpf4jnsgd1na2vs0mg"},{"bike_id":"71f938cb-69ab-4a54-abaf-b12c0aebd5d0","system_id":"levelo_inurba_marseille","lat":43.29973,"lon":5.38482,"is_reserved":false,"is_disabled":false,"rental_uris":{"android":"levelo://app?vid=71f938cb-69ab-4a54-abaf-b12c0aebd5d0","ios":"levelo://app?vid=71f938cb-69ab-4a54-abaf-b12c0aebd5d0"},"vehicle_type_id":"4","last_reported":1756393833,"current_range_meters":4000,"station_id":"ce4bgj92rcd13ifvqbd0","pricing_plan_id":"cebpf4jnsgd1na2vs0mg"},{"bike_id":"f9a14858-1ae7-471d-ad5d-c7f9068527a2","system_id":"levelo_inurba_marseille","lat":43.24647,"lon":5.38895,"is_reserved":false,"is_disabled":false,"rental_uris":{"android":"levelo://app?vid=f9a14858-1ae7-471d-ad5d-c7f9068527a2","ios":"levelo://app?vid=f9a14858-1ae7-471d-ad5d-c7f9068527a2"},"vehicle_type_id":"4","last_reported":1756393833,"current_range_meters":4000,"station_id":"ce4bhg12rcd13ifvqf60","pricing_plan_id":"cebpf4jnsgd1na2vs0mg"},{"bike_id":"b7f5d4fc-8af5-442f-b471-e28f343fd67e","system_id":"levelo_inurba_marseille","lat":43.33769,"lon":5.37485,"is_reserved":false,"is_disabled":false,"rental_uris":{"android":"levelo://app?vid=b7f5d4fc-8af5-442f-b471-e28f343fd67e","ios":"levelo://app?vid=b7f5d4fc-8af5-442f-b471-e28f343fd67e"},"vehicle_type_id":"4","last_reported":1756393833,"current_range_meters":4000,"station_id":"","pricing_plan_id":"cebpf4jnsgd1na2vs0mg"},{"bike_id":"9fa43e37-a48e-44f2-9b7c-d4b9cc7cb526","system_id":"levelo_inurba_marseille","lat":43.30291,"lon":5.39211,"is_reserved":false,"is_disabled":false,"rental_uris":{"android":"levelo://app?vid=9fa43e37-a48e-44f2-9b7c-d4b9cc7cb526","ios":"levelo://app?vid=9fa43e37-a48e-44f2-9b7c-d4b9cc7cb526"},"vehicle_type_id":"4","last_reported":1756393833,"current_range_meters":4400,"station_id":"ce4bgkh2rcd13ifvqbk0","pricing_plan_id":"cebpf4jnsgd1na2vs0mg"},{"bike_id":"69a01144-4cb0-4f43-b8a7-d8bba1210d75","system_id":"levelo_inurba_marseille","lat":43.315834,"lon":5.374256,"is_reserved":false,"is_disabled":false,"rental_uris":{"android":"levelo://app?vid=69a01144-4cb0-4f43-b8a7-d8bba1210d75","ios":"levelo://app?vid=69a01144-4cb0-4f43-b8a7-d8bba1210d75"},"vehicle_type_id":"4","last_reported":1756393833,"current_range_meters":4400,"station_id":"","pricing_plan_id":"cebpf4jnsgd1na2vs0mg"},{"bike_id":"2074dbdc-38dc-4ef2-9d21-3eb20743b43e","system_id":"levelo_inurba_marseille","lat":43.32376,"lon":5.36779,"is_reserved":false,"is_disabled":false,"rental_uris":{"android":"levelo://app?vid=2074dbdc-38dc-4ef2-9d21-3eb20743b43e","ios":"levelo://app?vid=2074dbdc-38dc-4ef2-9d21-3eb20743b43e"},"vehicle_type_id":"4","last_reported":1756393833,"current_range_meters":4800,"station_id":"ce4bhsh2rcd13ifvqi2g","pricing_plan_id":"cebpf4jnsgd1na2vs0mg"},{"bike_id":"8ff3ebc3-b8cc-483f-9232-7e0c6220b0be","system_id":"levelo_inurba_marseille","lat":43.29959,"lon":5.41323,"is_reserved":false,"is_disabled":false,"rental_uris":{"android":"levelo://app?vid=8ff3ebc3-b8cc-483f-9232-7e0c6220b0be","ios":"levelo://app?vid=8ff3ebc3-b8cc-483f-9232-7e0c6220b0be"},"vehicle_type_id":"4","last_reported":1756393833,"current_range_meters":4800,"station_id":"ce4bhp12rcd13ifvqh9g","pricing_plan_id":"cebpf4jnsgd1na2vs0mg"},{"bike_id":"4aeb2620-77da-4ef1-bf62-6774af8f7db5","system_id":"levelo_inurba_marseille","lat":43.231531,"lon":5.437161,"is_reserved":false,"is_disabled":false,"rental_uris":{"android":"levelo://app?vid=4aeb2620-77da-4ef1-bf62-6774af8f7db5","ios":"levelo://app?vid=4aeb2620-77da-4ef1-bf62-6774af8f7db5"},"vehicle_type_id":"4","last_reported":1756393833,"current_range_meters":5600,"station_id":"ce4bhmp2rcd13ifvqgog","pricing_plan_id":"cebpf4jnsgd1na2vs0mg"},{"bike_id":"36c7b6e7-6f5c-472a-8376-2146be997fe8","system_id":"levelo_inurba_marseille","lat":43.232001,"lon":5.355569,"is_reserved":false,"is_disabled":false,"rental_uris":{"android":"levelo://app?vid=36c7b6e7-6f5c-472a-8376-2146be997fe8","ios":"levelo://app?vid=36c7b6e7-6f5c-472a-8376-2146be997fe8"},"vehicle_type_id":"4","last_reported":1756393833,"current_range_meters":5600,"station_id":"ce4bhu92rcd13ifvqi70","pricing_plan_id":"cebpf4jnsgd1na2vs0mg"},{"bike_id":"c51262af-b606-433c-a86e-ef3b88f8d901","system_id":"levelo_inurba_marseille","lat":43.31358,"lon":5.38495,"is_reserved":false,"is_disabled":false,"rental_uris":{"android":"levelo://app?vid=c51262af-b606-433c-a86e-ef3b88f8d901","ios":"levelo://app?vid=c51262af-b606-433c-a86e-ef3b88f8d901"},"vehicle_type_id":"4","last_reported":1756393833,"current_range_meters":6000,"station_id":"ce4bgt92rcd13ifvqcf0","pricing_plan_id":"cebpf4jnsgd1na2vs0mg"},{"bike_id":"ad8e11e6-c7fe-4c82-a13f-464f154adbce","system_id":"levelo_inurba_marseille","lat":43.29535,"lon":5.38531,"is_reserved":false,"is_disabled":false,"rental_uris":{"android":"levelo://app?vid=ad8e11e6-c7fe-4c82-a13f-464f154adbce","ios":"levelo://app?vid=ad8e11e6-c7fe-4c82-a13f-464f154adbce"},"vehicle_type_id":"4","last_reported":1756393833,"current_range_meters":6000,"station_id":"ce4bgih2rcd13ifvqba0","pricing_plan_id":"cebpf4jnsgd1na2vs0mg"},{"bike_id":"f113067f-9ea0-4d1a-bc5b-02f94fdd3c7f","system_id":"levelo_inurba_marseille","lat":43.29576,"lon":5.3673,"is_reserved":false,"is_disabled":false,"rental_uris":{"android":"levelo://app?vid=f113067f-9ea0-4d1a-bc5b-02f94fdd3c7f","ios":"levelo://app?vid=f113067f-9ea0-4d1a-bc5b-02f94fdd3c7f"},"vehicle_type_id":"4","last_reported":1756393833,"current_range_meters":6400,"station_id":"ce4bgph2rcd13ifvqc2g","pricing_plan_id":"cebpf4jnsgd1na2vs0mg"},{"bike_id":"24f5aa1f-2f94-4f26-8f26-0f5d3cb057f4","system_id":"levelo_inurba_marseille","lat":43.28724,"lon":5.42617,"is_reserved":false,"is_disabled":false,"rental_uris":{"android":"levelo://app?vid=24f5aa1f-2f94-4f26-8f26-0f5d3cb057f4","ios":"levelo://app?vid=24f5aa1f-2f94-4f26-8f26-0f5d3cb057f4"},"vehicle_type_id":"4","last_reported":1756393833,"current_range_meters":6400,"station_id":"","pricing_plan_id":"cebpf4jnsgd1na2vs0mg"},{"bike_id":"1419129e-f0de-4052-abf1-7e5e3f2a2700","system_id":"levelo_inurba_marseille","lat":43.2918,"lon":5.38035,"is_reserved":false,"is_disabled":false,"rental_uris":{"android":"levelo://app?vid=1419129e-f0de-4052-abf1-7e5e3f2a2700","ios":"levelo://app?vid=1419129e-f0de-4052-abf1-7e5e3f2a2700"},"vehicle_type_id":"4","last_reported":1756393833,"current_range_meters":6400,"station_id":"","pricing_plan_id":"cebpf4jnsgd1na2vs0mg"},{"bike_id":"5bce688b-fc81-4596-8277-b66f54be87c1","system_id":"levelo_inurba_marseille","lat":43.337645,"lon":5.374409,"is_reserved":false,"is_disabled":false,"rental_uris":{"android":"levelo://app?vid=5bce688b-fc81-4596-8277-b66f54be87c1","ios":"levelo://app?vid=5bce688b-fc81-4596-8277-b66f54be87c1"},"vehicle_type_id":"4","last_reported":1756393833,"current_range_meters":6800,"station_id":"","pricing_plan_id":"cebpf4jnsgd1na2vs0mg"},{"bike_id":"817111f0-1afb-464c-ab04-11fb4c4b7c0f","system_id":"levelo_inurba_marseille","lat":43.25579,"lon":5.38224,"is_reserved":false,"is_disabled":false,"rental_uris":{"android":"levelo://app?vid=817111f0-1afb-464c-ab04-11fb4c4b7c0f","ios":"levelo://app?vid=817111f0-1afb-464c-ab04-11fb4c4b7c0f"},"vehicle_type_id":"4","last_reported":1756393833,"current_range_meters":6800,"station_id":"ce4bhih2rcd13ifvqfs0","pricing_plan_id":"cebpf4jnsgd1na2vs0mg"},{"bike_id":"62ffe01a-0390-411b-97ed-8b583a300b19","system_id":"levelo_inurba_marseille","lat":43.29795,"lon":5.38077,"is_reserved":false,"is_disabled":false,"rental_uris":{"android":"levelo://app?vid=62ffe01a-0390-411b-97ed-8b583a300b19","ios":"levelo://app?vid=62ffe01a-0390-411b-97ed-8b583a300b19"},"vehicle_type_id":"4","last_reported":1756393833,"current_range_meters":6800,"station_id":"ce4bgip2rcd13ifvqbb0","pricing_plan_id":"cebpf4jnsgd1na2vs0mg"},{"bike_id":"e5eabf25-4e1c-476e-b130-9f83cdcfc80c","system_id":"levelo_inurba_marseille","lat":43.29816,"lon":5.4171,"is_reserved":false,"is_disabled":false,"rental_uris":{"android":"levelo://app?vid=e5eabf25-4e1c-476e-b130-9f83cdcfc80c","ios":"levelo://app?vid=e5eabf25-4e1c-476e-b130-9f83cdcfc80c"},"vehicle_type_id":"4","last_reported":1756393833,"current_range_meters":7200,"station_id":"","pricing_plan_id":"cebpf4jnsgd1na2vs0mg"},{"bike_id":"9fcfc17e-7145-4f9e-a71d-c933896e3da8","system_id":"levelo_inurba_marseille","lat":43.30938,"lon":5.3903,"is_reserved":false,"is_disabled":false,"rental_uris":{"android":"levelo://app?vid=9fcfc17e-7145-4f9e-a71d-c933896e3da8","ios":"levelo://app?vid=9fcfc17e-7145-4f9e-a71d-c933896e3da8"},"vehicle_type_id":"4","last_reported":1756393833,"current_range_meters":7200,"station_id":"ce4bgup2rcd13ifvqco0","pricing_plan_id":"cebpf4jnsgd1na2vs0mg"},{"bike_id":"57de89f9-683f-4642-9922-65c1a532f34a","system_id":"levelo_inurba_marseille","lat":43.32661,"lon":5.40981,"is_reserved":false,"is_disabled":false,"rental_uris":{"android":"levelo://app?vid=57de89f9-683f-4642-9922-65c1a532f34a","ios":"levelo://app?vid=57de89f9-683f-4642-9922-65c1a532f34a"},"vehicle_type_id":"4","last_reported":1756393833,"current_range_meters":7200,"station_id":"ce4bhpp2rcd13ifvqhgg","pricing_plan_id":"cebpf4jnsgd1na2vs0mg"},{"bike_id":"47016169-1197-4235-a255-998314e64b8b","system_id":"levelo_inurba_marseille","lat":43.30954,"lon":5.39057,"is_reserved":false,"is_disabled":false,"rental_uris":{"android":"levelo://app?vid=47016169-1197-4235-a255-998314e64b8b","ios":"levelo://app?vid=47016169-1197-4235-a255-998314e64b8b"},"vehicle_type_id":"4","last_reported":1756393833,"current_range_meters":8000,"station_id":"ce4bgup2rcd13ifvqco0","pricing_plan_id":"cebpf4jnsgd1na2vs0mg"},{"bike_id":"a6ef8657-5b8a-423b-993f-c3df43dec0a0","system_id":"levelo_inurba_marseille","lat":43.337595,"lon":5.374806,"is_reserved":false,"is_disabled":false,"rental_uris":{"android":"levelo://app?vid=a6ef8657-5b8a-423b-993f-c3df43dec0a0","ios":"levelo://app?vid=a6ef8657-5b8a-423b-993f-c3df43dec0a0"},"vehicle_type_id":"4","last_reported":1756393833,"current_range_meters":8000,"station_id":"","pricing_plan_id":"cebpf4jnsgd1na2vs0mg"},{"bike_id":"a370139c-2703-4e35-a710-4be5aaed0011","system_id":"levelo_inurba_marseille","lat":43.25087,"lon":5.39523,"is_reserved":false,"is_disabled":false,"rental_uris":{"android":"levelo://app?vid=a370139c-2703-4e35-a710-4be5aaed0011","ios":"levelo://app?vid=a370139c-2703-4e35-a710-4be5aaed0011"},"vehicle_type_id":"4","last_reported":1756393833,"current_range_meters":8000,"station_id":"ce4bhm12rcd13ifvqgkg","pricing_plan_id":"cebpf4jnsgd1na2vs0mg"},{"bike_id":"efe0bb0f-c92c-4efb-b29f-a81448ec5eb2","system_id":"levelo_inurba_marseille","lat":43.29032,"lon":5.37554,"is_reserved":false,"is_disabled":true,"rental_uris":{"android":"levelo://app?vid=efe0bb0f-c92c-4efb-b29f-a81448ec5eb2","ios":"levelo://app?vid=efe0bb0f-c92c-4efb-b29f-a81448ec5eb2"},"vehicle_type_id":"4","last_reported":1756393833,"current_range_meters":8400,"station_id":"ce4bh692rcd13ifvqe90","pricing_plan_id":"cebpf4jnsgd1na2vs0mg"},{"bike_id":"5cb9f328-86da-4892-8423-2665976cc635","system_id":"levelo_inurba_marseille","lat":43.2886,"lon":5.35847,"is_reserved":false,"is_disabled":false,"rental_uris":{"android":"levelo://app?vid=5cb9f328-86da-4892-8423-2665976cc635","ios":"levelo://app?vid=5cb9f328-86da-4892-8423-2665976cc635"},"vehicle_type_id":"4","last_reported":1756393833,"current_range_meters":8400,"station_id":"ce4bhb12rcd13ifvqem0","pricing_plan_id":"cebpf4jnsgd1na2vs0mg"},{"bike_id":"ac631280-124e-4e54-bf31-e8c590daca4d","system_id":"levelo_inurba_marseille","lat":43.298089,"lon":5.381118,"is_reserved":false,"is_disabled":false,"rental_uris":{"android":"levelo://app?vid=ac631280-124e-4e54-bf31-e8c590daca4d","ios":"levelo://app?vid=ac631280-124e-4e54-bf31-e8c590daca4d"},"vehicle_type_id":"4","last_reported":1756393833,"current_range_meters":8400,"station_id":"ce4bgip2rcd13ifvqbb0","pricing_plan_id":"cebpf4jnsgd1na2vs0mg"},{"bike_id":"6a5a7fad-b8f7-4cee-bf10-81dc4eb538c3","system_id":"levelo_inurba_marseille","lat":43.25334,"lon":5.42165,"is_reserved":false,"is_disabled":false,"rental_uris":{"android":"levelo://app?vid=6a5a7fad-b8f7-4cee-bf10-81dc4eb538c3","ios":"levelo://app?vid=6a5a7fad-b8f7-4cee-bf10-81dc4eb538c3"},"vehicle_type_id":"4","last_reported":1756393833,"current_range_meters":8400,"station_id":"st_d2m65c5bi1j21697t3ng","pricing_plan_id":"cebpf4jnsgd1na2vs0mg"},{"bike_id":"e36ab571-6b83-4012-910d-c8ac275ef467","system_id":"levelo_inurba_marseille","lat":43.294562,"lon":5.374092,"is_reserved":false,"is_disabled":false,"rental_uris":{"android":"levelo://app?vid=e36ab571-6b83-4012-910d-c8ac275ef467","ios":"levelo://app?vid=e36ab571-6b83-4012-910d-c8ac275ef467"},"vehicle_type_id":"4","last_reported":1756393833,"current_range_meters":8800,"station_id":"","pricing_plan_id":"cebpf4jnsgd1na2vs0mg"},{"bike_id":"05ddb4ba-a56e-46d3-9c58-2054a0434b0c","system_id":"levelo_inurba_marseille","lat":43.29447,"lon":5.39741,"is_reserved":false,"is_disabled":false,"rental_uris":{"android":"levelo://app?vid=05ddb4ba-a56e-46d3-9c58-2054a0434b0c","ios":"levelo://app?vid=05ddb4ba-a56e-46d3-9c58-2054a0434b0c"},"vehicle_type_id":"4","last_reported":1756393833,"current_range_meters":8800,"station_id":"ce4bh3h2rcd13ifvqdo0","pricing_plan_id":"cebpf4jnsgd1na2vs0mg"},{"bike_id":"3ebbe411-c9ad-41ae-9df5-ad5b7601336c","system_id":"levelo_inurba_marseille","lat":43.26026,"lon":5.37553,"is_reserved":false,"is_disabled":true,"rental_uris":{"android":"levelo://app?vid=3ebbe411-c9ad-41ae-9df5-ad5b7601336c","ios":"levelo://app?vid=3ebbe411-c9ad-41ae-9df5-ad5b7601336c"},"vehicle_type_id":"4","last_reported":1756393833,"current_range_meters":8800,"station_id":"ce4bhgh2rcd13ifvqfa0","pricing_plan_id":"cebpf4jnsgd1na2vs0mg"},{"bike_id":"b37e74df-5bd5-4780-bf49-07efc4e229bd","system_id":"levelo_inurba_marseille","lat":43.29567,"lon":5.37491,"is_reserved":false,"is_disabled":true,"rental_uris":{"android":"levelo://app?vid=b37e74df-5bd5-4780-bf49-07efc4e229bd","ios":"levelo://app?vid=b37e74df-5bd5-4780-bf49-07efc4e229bd"},"vehicle_type_id":"4","last_reported":1756393833,"current_range_meters":8800,"station_id":"ce4bgh92rcd13ifvqb50","pricing_plan_id":"cebpf4jnsgd1na2vs0mg"},{"bike_id":"452c64c1-c18e-429f-ac02-5f3cc7af3941","system_id":"levelo_inurba_marseille","lat":43.2178,"lon":5.34565,"is_reserved":false,"is_disabled":false,"rental_uris":{"android":"levelo://app?vid=452c64c1-c18e-429f-ac02-5f3cc7af3941","ios":"levelo://app?vid=452c64c1-c18e-429f-ac02-5f3cc7af3941"},"vehicle_type_id":"4","last_reported":1756393833,"current_range_meters":8800,"station_id":"","pricing_plan_id":"cebpf4jnsgd1na2vs0mg"},{"bike_id":"0787879d-b278-4ef8-b114-2625ac0c1713","system_id":"levelo_inurba_marseille","lat":43.25585,"lon":5.38225,"is_reserved":false,"is_disabled":false,"rental_uris":{"android":"levelo://app?vid=0787879d-b278-4ef8-b114-2625ac0c1713","ios":"levelo://app?vid=0787879d-b278-4ef8-b114-2625ac0c1713"},"vehicle_type_id":"4","last_reported":1756393833,"current_range_meters":9200,"station_id":"ce4bhih2rcd13ifvqfs0","pricing_plan_id":"cebpf4jnsgd1na2vs0mg"},{"bike_id":"8637e1aa-9c9a-41e1-a5d5-f0342a65118e","system_id":"levelo_inurba_marseille","lat":43.31696,"lon":5.43708,"is_reserved":false,"is_disabled":false,"rental_uris":{"android":"levelo://app?vid=8637e1aa-9c9a-41e1-a5d5-f0342a65118e","ios":"levelo://app?vid=8637e1aa-9c9a-41e1-a5d5-f0342a65118e"},"vehicle_type_id":"4","last_reported":1756393833,"current_range_meters":9200,"station_id":"ce4bhp92rcd13ifvqhcg","pricing_plan_id":"cebpf4jnsgd1na2vs0mg"},{"bike_id":"438021d6-5463-40ea-ba55-7fafb0688e68","system_id":"levelo_inurba_marseille","lat":43.29274,"lon":5.36833,"is_reserved":false,"is_disabled":false,"rental_uris":{"android":"levelo://app?vid=438021d6-5463-40ea-ba55-7fafb0688e68","ios":"levelo://app?vid=438021d6-5463-40ea-ba55-7fafb0688e68"},"vehicle_type_id":"4","last_reported":1756393833,"current_range_meters":9200,"station_id":"ce4bhbp2rcd13ifvqesg","pricing_plan_id":"cebpf4jnsgd1na2vs0mg"},{"bike_id":"e1367977-0bf1-4413-9906-c68c69d13785","system_id":"levelo_inurba_marseille","lat":43.26211,"lon":5.3746,"is_reserved":false,"is_disabled":false,"rental_uris":{"android":"levelo://app?vid=e1367977-0bf1-4413-9906-c68c69d13785","ios":"levelo://app?vid=e1367977-0bf1-4413-9906-c68c69d13785"},"vehicle_type_id":"4","last_reported":1756393833,"current_range_meters":9200,"station_id":"ce4bhgp2rcd13ifvqfc0","pricing_plan_id":"cebpf4jnsgd1na2vs0mg"},{"bike_id":"c9d6f3f6-74ba-4cca-82de-143f063a1fa5","system_id":"levelo_inurba_marseille","lat":43.26207,"lon":5.37925,"is_reserved":false,"is_disabled":false,"rental_uris":{"android":"levelo://app?vid=c9d6f3f6-74ba-4cca-82de-143f063a1fa5","ios":"levelo://app?vid=c9d6f3f6-74ba-4cca-82de-143f063a1fa5"},"vehicle_type_id":"4","last_reported":1756393833,"current_range_meters":9600,"station_id":"ce4bhjp2rcd13ifvqg90","pricing_plan_id":"cebpf4jnsgd1na2vs0mg"},{"bike_id":"1718d4fc-59e8-4d55-998c-955233014ee6","system_id":"levelo_inurba_marseille","lat":43.29846,"lon":5.36276,"is_reserved":false,"is_disabled":false,"rental_uris":{"android":"levelo://app?vid=1718d4fc-59e8-4d55-998c-955233014ee6","ios":"levelo://app?vid=1718d4fc-59e8-4d55-998c-955233014ee6"},"vehicle_type_id":"4","last_reported":1756393833,"current_range_meters":9600,"station_id":"ce4bgpp2rcd13ifvqc3g","pricing_plan_id":"cebpf4jnsgd1na2vs0mg"},{"bike_id":"0ff79d72-d385-4cd5-a8db-c72a6fa9543a","system_id":"levelo_inurba_marseille","lat":43.2315,"lon":5.4372,"is_reserved":false,"is_disabled":false,"rental_uris":{"android":"levelo://app?vid=0ff79d72-d385-4cd5-a8db-c72a6fa9543a","ios":"levelo://app?vid=0ff79d72-d385-4cd5-a8db-c72a6fa9543a"},"vehicle_type_id":"4","last_reported":1756393833,"current_range_meters":9600,"station_id":"ce4bhmp2rcd13ifvqgog","pricing_plan_id":"cebpf4jnsgd1na2vs0mg"},{"bike_id":"5c26a54e-1e97-4ad3-a16d-614ad930b130","system_id":"levelo_inurba_marseille","lat":43.321043,"lon":5.367686,"is_reserved":false,"is_disabled":false,"rental_uris":{"android":"levelo://app?vid=5c26a54e-1e97-4ad3-a16d-614ad930b130","ios":"levelo://app?vid=5c26a54e-1e97-4ad3-a16d-614ad930b130"},"vehicle_type_id":"4","last_reported":1756393833,"current_range_meters":10000,"station_id":"ce4bhrh2rcd13ifvqhug","pricing_plan_id":"cebpf4jnsgd1na2vs0mg"},{"bike_id":"cdb86fd6-1713-468c-af8a-9f8260134614","system_id":"levelo_inurba_marseille","lat":43.25578,"lon":5.38225,"is_reserved":false,"is_disabled":false,"rental_uris":{"android":"levelo://app?vid=cdb86fd6-1713-468c-af8a-9f8260134614","ios":"levelo://app?vid=cdb86fd6-1713-468c-af8a-9f8260134614"},"vehicle_type_id":"4","last_reported":1756393833,"current_range_meters":10000,"station_id":"ce4bhih2rcd13ifvqfs0","pricing_plan_id":"cebpf4jnsgd1na2vs0mg"},{"bike_id":"ac0ea835-99bd-43af-8946-31e8413cf1fb","system_id":"levelo_inurba_marseille","lat":43.324805,"lon":5.365772,"is_reserved":false,"is_disabled":false,"rental_uris":{"android":"levelo://app?vid=ac0ea835-99bd-43af-8946-31e8413cf1fb","ios":"levelo://app?vid=ac0ea835-99bd-43af-8946-31e8413cf1fb"},"vehicle_type_id":"4","last_reported":1756393833,"current_range_meters":10800,"station_id":"ce4bhs12rcd13ifvqhvg","pricing_plan_id":"cebpf4jnsgd1na2vs0mg"},{"bike_id":"3091e42a-5528-4881-bef2-02a10038c1e8","system_id":"levelo_inurba_marseille","lat":43.27295,"lon":5.36287,"is_reserved":false,"is_disabled":true,"rental_uris":{"android":"levelo://app?vid=3091e42a-5528-4881-bef2-02a10038c1e8","ios":"levelo://app?vid=3091e42a-5528-4881-bef2-02a10038c1e8"},"vehicle_type_id":"4","last_reported":1756393833,"current_range_meters":10800,"station_id":"","pricing_plan_id":"cebpf4jnsgd1na2vs0mg"},{"bike_id":"31eeac54-6036-4051-a7ef-f3495342975f","system_id":"levelo_inurba_marseille","lat":43.26201,"lon":5.37926,"is_reserved":false,"is_disabled":false,"rental_uris":{"android":"levelo://app?vid=31eeac54-6036-4051-a7ef-f3495342975f","ios":"levelo://app?vid=31eeac54-6036-4051-a7ef-f3495342975f"},"vehicle_type_id":"4","last_reported":1756393833,"current_range_meters":11200,"station_id":"ce4bhjp2rcd13ifvqg90","pricing_plan_id":"cebpf4jnsgd1na2vs0mg"},{"bike_id":"09780873-1b20-4d53-a432-ad9579165227","system_id":"levelo_inurba_marseille","lat":43.29307,"lon":5.37183,"is_reserved":false,"is_disabled":false,"rental_uris":{"android":"levelo://app?vid=09780873-1b20-4d53-a432-ad9579165227","ios":"levelo://app?vid=09780873-1b20-4d53-a432-ad9579165227"},"vehicle_type_id":"4","last_reported":1756393833,"current_range_meters":11200,"station_id":"ce4bgh92rcd13ifvqb40","pricing_plan_id":"cebpf4jnsgd1na2vs0mg"},{"bike_id":"44bbdfe8-2361-4474-ad7b-85d0cbd09c94","system_id":"levelo_inurba_marseille","lat":43.28237,"lon":5.39067,"is_reserved":false,"is_disabled":false,"rental_uris":{"android":"levelo://app?vid=44bbdfe8-2361-4474-ad7b-85d0cbd09c94","ios":"levelo://app?vid=44bbdfe8-2361-4474-ad7b-85d0cbd09c94"},"vehicle_type_id":"4","last_reported":1756393833,"current_range_meters":11200,"station_id":"","pricing_plan_id":"cebpf4jnsgd1na2vs0mg"},{"bike_id":"46c81c14-55e4-4178-b4d5-af9e4fbd78fc","system_id":"levelo_inurba_marseille","lat":43.28263,"lon":5.35058,"is_reserved":false,"is_disabled":false,"rental_uris":{"android":"levelo://app?vid=46c81c14-55e4-4178-b4d5-af9e4fbd78fc","ios":"levelo://app?vid=46c81c14-55e4-4178-b4d5-af9e4fbd78fc"},"vehicle_type_id":"4","last_reported":1756393833,"current_range_meters":11200,"station_id":"ce4bhbp2rcd13ifvqerg","pricing_plan_id":"cebpf4jnsgd1na2vs0mg"},{"bike_id":"eee4fa87-8187-4fb7-80c0-7c89d9626d59","system_id":"levelo_inurba_marseille","lat":43.28409,"lon":5.34979,"is_reserved":false,"is_disabled":false,"rental_uris":{"android":"levelo://app?vid=eee4fa87-8187-4fb7-80c0-7c89d9626d59","ios":"levelo://app?vid=eee4fa87-8187-4fb7-80c0-7c89d9626d59"},"vehicle_type_id":"4","last_reported":1756393833,"current_range_meters":11200,"station_id":"ce4bhbh2rcd13ifvqepg","pricing_plan_id":"cebpf4jnsgd1na2vs0mg"},{"bike_id":"c67682e4-ad86-4b65-b4ef-e774963b7e60","system_id":"levelo_inurba_marseille","lat":43.23204,"lon":5.35561,"is_reserved":false,"is_disabled":false,"rental_uris":{"android":"levelo://app?vid=c67682e4-ad86-4b65-b4ef-e774963b7e60","ios":"levelo://app?vid=c67682e4-ad86-4b65-b4ef-e774963b7e60"},"vehicle_type_id":"4","last_reported":1756393833,"current_range_meters":11600,"station_id":"ce4bhu92rcd13ifvqi70","pricing_plan_id":"cebpf4jnsgd1na2vs0mg"},{"bike_id":"d810acf0-5bd2-4bf1-848d-31cd30d105e6","system_id":"levelo_inurba_marseille","lat":43.269831,"lon":5.392782,"is_reserved":false,"is_disabled":false,"rental_uris":{"android":"levelo://app?vid=d810acf0-5bd2-4bf1-848d-31cd30d105e6","ios":"levelo://app?vid=d810acf0-5bd2-4bf1-848d-31cd30d105e6"},"vehicle_type_id":"4","last_reported":1756393833,"current_range_meters":11600,"station_id":"","pricing_plan_id":"cebpf4jnsgd1na2vs0mg"},{"bike_id":"e5e7de55-92c6-4ca4-8c5d-d6abf7e778a4","system_id":"levelo_inurba_marseille","lat":43.32661,"lon":5.40991,"is_reserved":false,"is_disabled":false,"rental_uris":{"android":"levelo://app?vid=e5e7de55-92c6-4ca4-8c5d-d6abf7e778a4","ios":"levelo://app?vid=e5e7de55-92c6-4ca4-8c5d-d6abf7e778a4"},"vehicle_type_id":"4","last_reported":1756393833,"current_range_meters":11600,"station_id":"ce4bhpp2rcd13ifvqhgg","pricing_plan_id":"cebpf4jnsgd1na2vs0mg"},{"bike_id":"baf23113-7082-4065-a6eb-ae0f8cc08033","system_id":"levelo_inurba_marseille","lat":43.32363,"lon":5.36752,"is_reserved":false,"is_disabled":false,"rental_uris":{"android":"levelo://app?vid=baf23113-7082-4065-a6eb-ae0f8cc08033","ios":"levelo://app?vid=baf23113-7082-4065-a6eb-ae0f8cc08033"},"vehicle_type_id":"4","last_reported":1756393833,"current_range_meters":11600,"station_id":"ce4bhsh2rcd13ifvqi2g","pricing_plan_id":"cebpf4jnsgd1na2vs0mg"},{"bike_id":"825f99ee-02a3-46e4-8dd8-870f14d345a8","system_id":"levelo_inurba_marseille","lat":43.2252,"lon":5.34753,"is_reserved":false,"is_disabled":true,"rental_uris":{"android":"levelo://app?vid=825f99ee-02a3-46e4-8dd8-870f14d345a8","ios":"levelo://app?vid=825f99ee-02a3-46e4-8dd8-870f14d345a8"},"vehicle_type_id":"4","last_reported":1756393833,"current_range_meters":12000,"station_id":"","pricing_plan_id":"cebpf4jnsgd1na2vs0mg"},{"bike_id":"58b0f458-6d83-41ca-9901-eee7b5b8a27a","system_id":"levelo_inurba_marseille","lat":43.26212,"lon":5.37436,"is_reserved":false,"is_disabled":false,"rental_uris":{"android":"levelo://app?vid=58b0f458-6d83-41ca-9901-eee7b5b8a27a","ios":"levelo://app?vid=58b0f458-6d83-41ca-9901-eee7b5b8a27a"},"vehicle_type_id":"4","last_reported":1756393833,"current_range_meters":12000,"station_id":"ce4bhgp2rcd13ifvqfc0","pricing_plan_id":"cebpf4jnsgd1na2vs0mg"},{"bike_id":"23ae6fed-deff-411b-8b6e-f95e32ccd4d0","system_id":"levelo_inurba_marseille","lat":43.321323,"lon":5.367666,"is_reserved":false,"is_disabled":false,"rental_uris":{"android":"levelo://app?vid=23ae6fed-deff-411b-8b6e-f95e32ccd4d0","ios":"levelo://app?vid=23ae6fed-deff-411b-8b6e-f95e32ccd4d0"},"vehicle_type_id":"4","last_reported":1756393833,"current_range_meters":12000,"station_id":"ce4bhrh2rcd13ifvqhug","pricing_plan_id":"cebpf4jnsgd1na2vs0mg"},{"bike_id":"b8df9f83-db4c-4d07-ab72-0da748a1f42b","system_id":"levelo_inurba_marseille","lat":43.26196,"lon":5.37436,"is_reserved":false,"is_disabled":false,"rental_uris":{"android":"levelo://app?vid=b8df9f83-db4c-4d07-ab72-0da748a1f42b","ios":"levelo://app?vid=b8df9f83-db4c-4d07-ab72-0da748a1f42b"},"vehicle_type_id":"4","last_reported":1756393833,"current_range_meters":12000,"station_id":"ce4bhgp2rcd13ifvqfc0","pricing_plan_id":"cebpf4jnsgd1na2vs0mg"},{"bike_id":"663df95f-d10b-421f-8361-2a1a14a8c9a1","system_id":"levelo_inurba_marseille","lat":43.29267,"lon":5.37623,"is_reserved":false,"is_disabled":false,"rental_uris":{"android":"levelo://app?vid=663df95f-d10b-421f-8361-2a1a14a8c9a1","ios":"levelo://app?vid=663df95f-d10b-421f-8361-2a1a14a8c9a1"},"vehicle_type_id":"4","last_reported":1756393833,"current_range_meters":12400,"station_id":"ce4bgi12rcd13ifvqb80","pricing_plan_id":"cebpf4jnsgd1na2vs0mg"},{"bike_id":"be8aa754-85f9-40a1-9e90-c9882863c890","system_id":"levelo_inurba_marseille","lat":43.26031,"lon":5.37553,"is_reserved":false,"is_disabled":false,"rental_uris":{"android":"levelo://app?vid=be8aa754-85f9-40a1-9e90-c9882863c890","ios":"levelo://app?vid=be8aa754-85f9-40a1-9e90-c9882863c890"},"vehicle_type_id":"4","last_reported":1756393833,"current_range_meters":12400,"station_id":"ce4bhgh2rcd13ifvqfa0","pricing_plan_id":"cebpf4jnsgd1na2vs0mg"},{"bike_id":"c177b005-569f-4f80-84de-fcbab7d7db81","system_id":"levelo_inurba_marseille","lat":43.29199,"lon":5.35797,"is_reserved":false,"is_disabled":false,"rental_uris":{"android":"levelo://app?vid=c177b005-569f-4f80-84de-fcbab7d7db81","ios":"levelo://app?vid=c177b005-569f-4f80-84de-fcbab7d7db81"},"vehicle_type_id":"4","last_reported":1756393833,"current_range_meters":12400,"station_id":"ce4bhb12rcd13ifvqel0","pricing_plan_id":"cebpf4jnsgd1na2vs0mg"},{"bike_id":"84239937-6126-4402-8397-ac364b20f6e5","system_id":"levelo_inurba_marseille","lat":43.26034,"lon":5.37543,"is_reserved":false,"is_disabled":false,"rental_uris":{"android":"levelo://app?vid=84239937-6126-4402-8397-ac364b20f6e5","ios":"levelo://app?vid=84239937-6126-4402-8397-ac364b20f6e5"},"vehicle_type_id":"4","last_reported":1756393833,"current_range_meters":12400,"station_id":"ce4bhgh2rcd13ifvqfa0","pricing_plan_id":"cebpf4jnsgd1na2vs0mg"},{"bike_id":"ae1ae912-b2dd-4e27-8326-2beb53a57208","system_id":"levelo_inurba_marseille","lat":43.21751,"lon":5.34603,"is_reserved":false,"is_disabled":false,"rental_uris":{"android":"levelo://app?vid=ae1ae912-b2dd-4e27-8326-2beb53a57208","ios":"levelo://app?vid=ae1ae912-b2dd-4e27-8326-2beb53a57208"},"vehicle_type_id":"4","last_reported":1756393833,"current_range_meters":12400,"station_id":"st_cvj6r9ubvosntc0bgbag","pricing_plan_id":"cebpf4jnsgd1na2vs0mg"},{"bike_id":"2c69427e-e370-486f-b8ad-1f01db5bfd9f","system_id":"levelo_inurba_marseille","lat":43.286141,"lon":5.350992,"is_reserved":false,"is_disabled":false,"rental_uris":{"android":"levelo://app?vid=2c69427e-e370-486f-b8ad-1f01db5bfd9f","ios":"levelo://app?vid=2c69427e-e370-486f-b8ad-1f01db5bfd9f"},"vehicle_type_id":"4","last_reported":1756393833,"current_range_meters":12400,"station_id":"ce4bhch2rcd13ifvqeug","pricing_plan_id":"cebpf4jnsgd1na2vs0mg"},{"bike_id":"d962c9bc-30a5-4f74-9ce3-6d555625a1e0","system_id":"levelo_inurba_marseille","lat":43.2395,"lon":5.36632,"is_reserved":false,"is_disabled":false,"rental_uris":{"android":"levelo://app?vid=d962c9bc-30a5-4f74-9ce3-6d555625a1e0","ios":"levelo://app?vid=d962c9bc-30a5-4f74-9ce3-6d555625a1e0"},"vehicle_type_id":"4","last_reported":1756393833,"current_range_meters":12800,"station_id":"ce4bhi12rcd13ifvqfp0","pricing_plan_id":"cebpf4jnsgd1na2vs0mg"},{"bike_id":"9c401436-7aa7-494a-9cc1-967079e60b6f","system_id":"levelo_inurba_marseille","lat":43.25952,"lon":5.40901,"is_reserved":false,"is_disabled":false,"rental_uris":{"android":"levelo://app?vid=9c401436-7aa7-494a-9cc1-967079e60b6f","ios":"levelo://app?vid=9c401436-7aa7-494a-9cc1-967079e60b6f"},"vehicle_type_id":"4","last_reported":1756393833,"current_range_meters":12800,"station_id":"ce4bhm92rcd13ifvqglg","pricing_plan_id":"cebpf4jnsgd1na2vs0mg"},{"bike_id":"1091f287-02ee-4a66-888b-59c35fd65791","system_id":"levelo_inurba_marseille","lat":43.231916,"lon":5.355522,"is_reserved":false,"is_disabled":false,"rental_uris":{"android":"levelo://app?vid=1091f287-02ee-4a66-888b-59c35fd65791","ios":"levelo://app?vid=1091f287-02ee-4a66-888b-59c35fd65791"},"vehicle_type_id":"4","last_reported":1756393833,"current_range_meters":12800,"station_id":"ce4bhu92rcd13ifvqi70","pricing_plan_id":"cebpf4jnsgd1na2vs0mg"},{"bike_id":"e2157c09-f51d-4d60-9654-c3b735f52046","system_id":"levelo_inurba_marseille","lat":43.26197,"lon":5.37445,"is_reserved":false,"is_disabled":false,"rental_uris":{"android":"levelo://app?vid=e2157c09-f51d-4d60-9654-c3b735f52046","ios":"levelo://app?vid=e2157c09-f51d-4d60-9654-c3b735f52046"},"vehicle_type_id":"4","last_reported":1756393833,"current_range_meters":12800,"station_id":"ce4bhgp2rcd13ifvqfc0","pricing_plan_id":"cebpf4jnsgd1na2vs0mg"},{"bike_id":"3f7674ec-aa51-4893-a511-180742bbfe1d","system_id":"levelo_inurba_marseille","lat":43.21748,"lon":5.34602,"is_reserved":false,"is_disabled":false,"rental_uris":{"android":"levelo://app?vid=3f7674ec-aa51-4893-a511-180742bbfe1d","ios":"levelo://app?vid=3f7674ec-aa51-4893-a511-180742bbfe1d"},"vehicle_type_id":"4","last_reported":1756393833,"current_range_meters":12800,"station_id":"st_cvj6r9ubvosntc0bgbag","pricing_plan_id":"cebpf4jnsgd1na2vs0mg"},{"bike_id":"992e48af-8b74-4ef9-afdd-f0bf1a757cbd","system_id":"levelo_inurba_marseille","lat":43.31511,"lon":5.37296,"is_reserved":false,"is_disabled":false,"rental_uris":{"android":"levelo://app?vid=992e48af-8b74-4ef9-afdd-f0bf1a757cbd","ios":"levelo://app?vid=992e48af-8b74-4ef9-afdd-f0bf1a757cbd"},"vehicle_type_id":"4","last_reported":1756393833,"current_range_meters":13600,"station_id":"ce4bgt12rcd13ifvqcd0","pricing_plan_id":"cebpf4jnsgd1na2vs0mg"},{"bike_id":"dee4462b-2fda-4454-90e6-cd671a52515c","system_id":"levelo_inurba_marseille","lat":43.25498,"lon":5.37644,"is_reserved":false,"is_disabled":false,"rental_uris":{"android":"levelo://app?vid=dee4462b-2fda-4454-90e6-cd671a52515c","ios":"levelo://app?vid=dee4462b-2fda-4454-90e6-cd671a52515c"},"vehicle_type_id":"4","last_reported":1756393833,"current_range_meters":13600,"station_id":"ce4bhh12rcd13ifvqff0","pricing_plan_id":"cebpf4jnsgd1na2vs0mg"},{"bike_id":"a5c913a9-8444-4f45-9f9e-1bc06a802d9b","system_id":"levelo_inurba_marseille","lat":43.27998,"lon":5.41645,"is_reserved":false,"is_disabled":false,"rental_uris":{"android":"levelo://app?vid=a5c913a9-8444-4f45-9f9e-1bc06a802d9b","ios":"levelo://app?vid=a5c913a9-8444-4f45-9f9e-1bc06a802d9b"},"vehicle_type_id":"4","last_reported":1756393833,"current_range_meters":13600,"station_id":"ce4bho12rcd13ifvqh1g","pricing_plan_id":"cebpf4jnsgd1na2vs0mg"},{"bike_id":"58901d79-fd3a-4fcc-89aa-93a978efe2a8","system_id":"levelo_inurba_marseille","lat":43.27921,"lon":5.39576,"is_reserved":false,"is_disabled":false,"rental_uris":{"android":"levelo://app?vid=58901d79-fd3a-4fcc-89aa-93a978efe2a8","ios":"levelo://app?vid=58901d79-fd3a-4fcc-89aa-93a978efe2a8"},"vehicle_type_id":"4","last_reported":1756393833,"current_range_meters":13600,"station_id":"ce4bhf92rcd13ifvqf40","pricing_plan_id":"cebpf4jnsgd1na2vs0mg"},{"bike_id":"381ee211-9cbc-4e3b-a668-6f098f82d140","system_id":"levelo_inurba_marseille","lat":43.25535,"lon":5.37635,"is_reserved":false,"is_disabled":false,"rental_uris":{"android":"levelo://app?vid=381ee211-9cbc-4e3b-a668-6f098f82d140","ios":"levelo://app?vid=381ee211-9cbc-4e3b-a668-6f098f82d140"},"vehicle_type_id":"4","last_reported":1756393833,"current_range_meters":13600,"station_id":"ce4bhh12rcd13ifvqff0","pricing_plan_id":"cebpf4jnsgd1na2vs0mg"},{"bike_id":"95f1278a-d1b6-4451-bf44-09ede977180d","system_id":"levelo_inurba_marseille","lat":43.28032,"lon":5.3695,"is_reserved":false,"is_disabled":false,"rental_uris":{"android":"levelo://app?vid=95f1278a-d1b6-4451-bf44-09ede977180d","ios":"levelo://app?vid=95f1278a-d1b6-4451-bf44-09ede977180d"},"vehicle_type_id":"4","last_reported":1756393833,"current_range_meters":14000,"station_id":"ce4bha12rcd13ifvqef0","pricing_plan_id":"cebpf4jnsgd1na2vs0mg"},{"bike_id":"6772850d-2dee-4ad5-893e-2335ed13d3ef","system_id":"levelo_inurba_marseille","lat":43.31352,"lon":5.36712,"is_reserved":false,"is_disabled":false,"rental_uris":{"android":"levelo://app?vid=6772850d-2dee-4ad5-893e-2335ed13d3ef","ios":"levelo://app?vid=6772850d-2dee-4ad5-893e-2335ed13d3ef"},"vehicle_type_id":"4","last_reported":1756393833,"current_range_meters":14000,"station_id":"ce4bgr92rcd13ifvqc6g","pricing_plan_id":"cebpf4jnsgd1na2vs0mg"},{"bike_id":"ec0f9f0d-0796-42ac-9cf5-bb8596cdf342","system_id":"levelo_inurba_marseille","lat":43.21197,"lon":5.35072,"is_reserved":false,"is_disabled":false,"rental_uris":{"android":"levelo://app?vid=ec0f9f0d-0796-42ac-9cf5-bb8596cdf342","ios":"levelo://app?vid=ec0f9f0d-0796-42ac-9cf5-bb8596cdf342"},"vehicle_type_id":"4","last_reported":1756393833,"current_range_meters":14000,"station_id":"","pricing_plan_id":"cebpf4jnsgd1na2vs0mg"},{"bike_id":"b9a2bbbb-69ac-40be-bf46-27119ee9c404","system_id":"levelo_inurba_marseille","lat":43.25345,"lon":5.42177,"is_reserved":false,"is_disabled":false,"rental_uris":{"android":"levelo://app?vid=b9a2bbbb-69ac-40be-bf46-27119ee9c404","ios":"levelo://app?vid=b9a2bbbb-69ac-40be-bf46-27119ee9c404"},"vehicle_type_id":"4","last_reported":1756393833,"current_range_meters":14000,"station_id":"st_d2m65c5bi1j21697t3ng","pricing_plan_id":"cebpf4jnsgd1na2vs0mg"},{"bike_id":"cf3038fc-d946-4e46-8d5f-4ba8aaa0b207","system_id":"levelo_inurba_marseille","lat":43.27901,"lon":5.38008,"is_reserved":false,"is_disabled":false,"rental_uris":{"android":"levelo://app?vid=cf3038fc-d946-4e46-8d5f-4ba8aaa0b207","ios":"levelo://app?vid=cf3038fc-d946-4e46-8d5f-4ba8aaa0b207"},"vehicle_type_id":"4","last_reported":1756393833,"current_range_meters":14000,"station_id":"ce4bhf92rcd13ifvqf50","pricing_plan_id":"cebpf4jnsgd1na2vs0mg"},{"bike_id":"6b8ac89a-f8d5-4a06-b40f-9948d9b604fb","system_id":"levelo_inurba_marseille","lat":43.295294,"lon":5.375061,"is_reserved":false,"is_disabled":false,"rental_uris":{"android":"levelo://app?vid=6b8ac89a-f8d5-4a06-b40f-9948d9b604fb","ios":"levelo://app?vid=6b8ac89a-f8d5-4a06-b40f-9948d9b604fb"},"vehicle_type_id":"4","last_reported":1756393833,"current_range_meters":14400,"station_id":"","pricing_plan_id":"cebpf4jnsgd1na2vs0mg"},{"bike_id":"615f9cb4-bc08-43f1-87ef-884359fe2e39","system_id":"levelo_inurba_marseille","lat":43.32353,"lon":5.36743,"is_reserved":false,"is_disabled":false,"rental_uris":{"android":"levelo://app?vid=615f9cb4-bc08-43f1-87ef-884359fe2e39","ios":"levelo://app?vid=615f9cb4-bc08-43f1-87ef-884359fe2e39"},"vehicle_type_id":"4","last_reported":1756393833,"current_range_meters":14400,"station_id":"ce4bhsh2rcd13ifvqi2g","pricing_plan_id":"cebpf4jnsgd1na2vs0mg"},{"bike_id":"c9026571-c66a-4c62-9816-bca906c58c93","system_id":"levelo_inurba_marseille","lat":43.24808,"lon":5.37445,"is_reserved":false,"is_disabled":false,"rental_uris":{"android":"levelo://app?vid=c9026571-c66a-4c62-9816-bca906c58c93","ios":"levelo://app?vid=c9026571-c66a-4c62-9816-bca906c58c93"},"vehicle_type_id":"4","last_reported":1756393833,"current_range_meters":14400,"station_id":"ce4bhgh2rcd13ifvqfb0","pricing_plan_id":"cebpf4jnsgd1na2vs0mg"},{"bike_id":"731ff345-1377-45e9-acf9-0825f15b172a","system_id":"levelo_inurba_marseille","lat":43.22931,"lon":5.35369,"is_reserved":false,"is_disabled":false,"rental_uris":{"android":"levelo://app?vid=731ff345-1377-45e9-acf9-0825f15b172a","ios":"levelo://app?vid=731ff345-1377-45e9-acf9-0825f15b172a"},"vehicle_type_id":"4","last_reported":1756393833,"current_range_meters":14400,"station_id":"cpo3532slgdg3j2ikp40","pricing_plan_id":"cebpf4jnsgd1na2vs0mg"},{"bike_id":"533686dc-e263-4240-984f-1fcd6cac7776","system_id":"levelo_inurba_marseille","lat":43.279426,"lon":5.410387,"is_reserved":false,"is_disabled":false,"rental_uris":{"android":"levelo://app?vid=533686dc-e263-4240-984f-1fcd6cac7776","ios":"levelo://app?vid=533686dc-e263-4240-984f-1fcd6cac7776"},"vehicle_type_id":"4","last_reported":1756393833,"current_range_meters":14400,"station_id":"ce4bhnp2rcd13ifvqh0g","pricing_plan_id":"cebpf4jnsgd1na2vs0mg"},{"bike_id":"4f8552fa-4b36-4a73-b120-7a2c385c0e62","system_id":"levelo_inurba_marseille","lat":43.29278,"lon":5.40112,"is_reserved":false,"is_disabled":false,"rental_uris":{"android":"levelo://app?vid=4f8552fa-4b36-4a73-b120-7a2c385c0e62","ios":"levelo://app?vid=4f8552fa-4b36-4a73-b120-7a2c385c0e62"},"vehicle_type_id":"4","last_reported":1756393833,"current_range_meters":14400,"station_id":"ce4bh312rcd13ifvqdk0","pricing_plan_id":"cebpf4jnsgd1na2vs0mg"},{"bike_id":"dc8c7b3c-728e-4589-87f5-78f4d526a820","system_id":"levelo_inurba_marseille","lat":43.30957,"lon":5.39059,"is_reserved":false,"is_disabled":false,"rental_uris":{"android":"levelo://app?vid=dc8c7b3c-728e-4589-87f5-78f4d526a820","ios":"levelo://app?vid=dc8c7b3c-728e-4589-87f5-78f4d526a820"},"vehicle_type_id":"4","last_reported":1756393833,"current_range_meters":14000,"station_id":"ce4bgup2rcd13ifvqco0","pricing_plan_id":"cebpf4jnsgd1na2vs0mg"},{"bike_id":"5dde89c4-8ab2-4d7d-98c9-0d3b2a8d9fd6","system_id":"levelo_inurba_marseille","lat":43.26191,"lon":5.37437,"is_reserved":false,"is_disabled":false,"rental_uris":{"android":"levelo://app?vid=5dde89c4-8ab2-4d7d-98c9-0d3b2a8d9fd6","ios":"levelo://app?vid=5dde89c4-8ab2-4d7d-98c9-0d3b2a8d9fd6"},"vehicle_type_id":"4","last_reported":1756393833,"current_range_meters":14400,"station_id":"ce4bhgp2rcd13ifvqfc0","pricing_plan_id":"cebpf4jnsgd1na2vs0mg"},{"bike_id":"aa61a424-9591-4dec-87cf-11964724b053","system_id":"levelo_inurba_marseille","lat":43.2952,"lon":5.37484,"is_reserved":false,"is_disabled":false,"rental_uris":{"android":"levelo://app?vid=aa61a424-9591-4dec-87cf-11964724b053","ios":"levelo://app?vid=aa61a424-9591-4dec-87cf-11964724b053"},"vehicle_type_id":"4","last_reported":1756393833,"current_range_meters":14800,"station_id":"ce4bgkp2rcd13ifvqbmg","pricing_plan_id":"cebpf4jnsgd1na2vs0mg"},{"bike_id":"d1a4ea35-b6c5-4a45-b35b-a4b06696c8cb","system_id":"levelo_inurba_marseille","lat":43.25492,"lon":5.37648,"is_reserved":false,"is_disabled":false,"rental_uris":{"android":"levelo://app?vid=d1a4ea35-b6c5-4a45-b35b-a4b06696c8cb","ios":"levelo://app?vid=d1a4ea35-b6c5-4a45-b35b-a4b06696c8cb"},"vehicle_type_id":"4","last_reported":1756393833,"current_range_meters":14800,"station_id":"ce4bhh12rcd13ifvqff0","pricing_plan_id":"cebpf4jnsgd1na2vs0mg"},{"bike_id":"952a1750-aec7-4ed3-bc18-aeb022f45879","system_id":"levelo_inurba_marseille","lat":43.217405,"lon":5.346121,"is_reserved":false,"is_disabled":false,"rental_uris":{"android":"levelo://app?vid=952a1750-aec7-4ed3-bc18-aeb022f45879","ios":"levelo://app?vid=952a1750-aec7-4ed3-bc18-aeb022f45879"},"vehicle_type_id":"4","last_reported":1756393833,"current_range_meters":14800,"station_id":"","pricing_plan_id":"cebpf4jnsgd1na2vs0mg"},{"bike_id":"6e51d5d9-9f08-4273-8911-21fb24c92111","system_id":"levelo_inurba_marseille","lat":43.31494,"lon":5.37321,"is_reserved":false,"is_disabled":false,"rental_uris":{"android":"levelo://app?vid=6e51d5d9-9f08-4273-8911-21fb24c92111","ios":"levelo://app?vid=6e51d5d9-9f08-4273-8911-21fb24c92111"},"vehicle_type_id":"4","last_reported":1756393833,"current_range_meters":14800,"station_id":"ce4bgt12rcd13ifvqcd0","pricing_plan_id":"cebpf4jnsgd1na2vs0mg"},{"bike_id":"8eece06c-1375-46ef-a493-ad81a979139e","system_id":"levelo_inurba_marseille","lat":43.26036,"lon":5.37571,"is_reserved":false,"is_disabled":false,"rental_uris":{"android":"levelo://app?vid=8eece06c-1375-46ef-a493-ad81a979139e","ios":"levelo://app?vid=8eece06c-1375-46ef-a493-ad81a979139e"},"vehicle_type_id":"4","last_reported":1756393833,"current_range_meters":14800,"station_id":"ce4bhgh2rcd13ifvqfa0","pricing_plan_id":"cebpf4jnsgd1na2vs0mg"},{"bike_id":"3a2f5063-0ed3-4139-b50b-cacffd5db734","system_id":"levelo_inurba_marseille","lat":43.32366,"lon":5.36759,"is_reserved":false,"is_disabled":false,"rental_uris":{"android":"levelo://app?vid=3a2f5063-0ed3-4139-b50b-cacffd5db734","ios":"levelo://app?vid=3a2f5063-0ed3-4139-b50b-cacffd5db734"},"vehicle_type_id":"4","last_reported":1756393833,"current_range_meters":14800,"station_id":"ce4bhsh2rcd13ifvqi2g","pricing_plan_id":"cebpf4jnsgd1na2vs0mg"},{"bike_id":"d4411ce1-1269-4134-adda-1eb61c16980f","system_id":"levelo_inurba_marseille","lat":43.28104,"lon":5.37829,"is_reserved":false,"is_disabled":false,"rental_uris":{"android":"levelo://app?vid=d4411ce1-1269-4134-adda-1eb61c16980f","ios":"levelo://app?vid=d4411ce1-1269-4134-adda-1eb61c16980f"},"vehicle_type_id":"4","last_reported":1756393833,"current_range_meters":15200,"station_id":"ce4bha12rcd13ifvqee0","pricing_plan_id":"cebpf4jnsgd1na2vs0mg"},{"bike_id":"1f62479a-0856-46ae-b67f-852ed6ce6a56","system_id":"levelo_inurba_marseille","lat":43.26557,"lon":5.39,"is_reserved":false,"is_disabled":true,"rental_uris":{"android":"levelo://app?vid=1f62479a-0856-46ae-b67f-852ed6ce6a56","ios":"levelo://app?vid=1f62479a-0856-46ae-b67f-852ed6ce6a56"},"vehicle_type_id":"4","last_reported":1756393833,"current_range_meters":15200,"station_id":"ce4bhe12rcd13ifvqf30","pricing_plan_id":"cebpf4jnsgd1na2vs0mg"},{"bike_id":"adb9e755-2d66-42a4-976b-c8ed11bbe2e5","system_id":"levelo_inurba_marseille","lat":43.26211,"lon":5.40436,"is_reserved":false,"is_disabled":false,"rental_uris":{"android":"levelo://app?vid=adb9e755-2d66-42a4-976b-c8ed11bbe2e5","ios":"levelo://app?vid=adb9e755-2d66-42a4-976b-c8ed11bbe2e5"},"vehicle_type_id":"4","last_reported":1756393833,"current_range_meters":15200,"station_id":"ce4bhmh2rcd13ifvqgmg","pricing_plan_id":"cebpf4jnsgd1na2vs0mg"},{"bike_id":"d005b541-909d-4c5d-bde1-94285008f478","system_id":"levelo_inurba_marseille","lat":43.32371,"lon":5.3677,"is_reserved":false,"is_disabled":false,"rental_uris":{"android":"levelo://app?vid=d005b541-909d-4c5d-bde1-94285008f478","ios":"levelo://app?vid=d005b541-909d-4c5d-bde1-94285008f478"},"vehicle_type_id":"4","last_reported":1756393833,"current_range_meters":15200,"station_id":"ce4bhsh2rcd13ifvqi2g","pricing_plan_id":"cebpf4jnsgd1na2vs0mg"},{"bike_id":"abdaac09-24ce-4d5b-992c-8ffee7e3723b","system_id":"levelo_inurba_marseille","lat":43.30136,"lon":5.38048,"is_reserved":false,"is_disabled":false,"rental_uris":{"android":"levelo://app?vid=abdaac09-24ce-4d5b-992c-8ffee7e3723b","ios":"levelo://app?vid=abdaac09-24ce-4d5b-992c-8ffee7e3723b"},"vehicle_type_id":"4","last_reported":1756393833,"current_range_meters":15200,"station_id":"ce4bgjp2rcd13ifvqbh0","pricing_plan_id":"cebpf4jnsgd1na2vs0mg"},{"bike_id":"00865bff-72de-47be-acda-9cf6ec16a836","system_id":"levelo_inurba_marseille","lat":43.320987,"lon":5.367758,"is_reserved":false,"is_disabled":false,"rental_uris":{"android":"levelo://app?vid=00865bff-72de-47be-acda-9cf6ec16a836","ios":"levelo://app?vid=00865bff-72de-47be-acda-9cf6ec16a836"},"vehicle_type_id":"4","last_reported":1756393833,"current_range_meters":15200,"station_id":"ce4bhrh2rcd13ifvqhug","pricing_plan_id":"cebpf4jnsgd1na2vs0mg"},{"bike_id":"6cfd68ea-0992-4430-abc4-ab82550877c3","system_id":"levelo_inurba_marseille","lat":43.230645,"lon":5.354798,"is_reserved":false,"is_disabled":false,"rental_uris":{"android":"levelo://app?vid=6cfd68ea-0992-4430-abc4-ab82550877c3","ios":"levelo://app?vid=6cfd68ea-0992-4430-abc4-ab82550877c3"},"vehicle_type_id":"4","last_reported":1756393833,"current_range_meters":15200,"station_id":"cpo3342slgdg3j2ifvpg","pricing_plan_id":"cebpf4jnsgd1na2vs0mg"},{"bike_id":"195aa3fa-78bb-4f7e-9897-2211c10d1ed9","system_id":"levelo_inurba_marseille","lat":43.26813,"lon":5.4027,"is_reserved":false,"is_disabled":false,"rental_uris":{"android":"levelo://app?vid=195aa3fa-78bb-4f7e-9897-2211c10d1ed9","ios":"levelo://app?vid=195aa3fa-78bb-4f7e-9897-2211c10d1ed9"},"vehicle_type_id":"4","last_reported":1756393833,"current_range_meters":15200,"station_id":"ce501612rcd8frsf0b60","pricing_plan_id":"cebpf4jnsgd1na2vs0mg"},{"bike_id":"aba408de-f921-4633-8496-98ebb8befe83","system_id":"levelo_inurba_marseille","lat":43.26027,"lon":5.37547,"is_reserved":false,"is_disabled":false,"rental_uris":{"android":"levelo://app?vid=aba408de-f921-4633-8496-98ebb8befe83","ios":"levelo://app?vid=aba408de-f921-4633-8496-98ebb8befe83"},"vehicle_type_id":"4","last_reported":1756393833,"current_range_meters":15200,"station_id":"ce4bhgh2rcd13ifvqfa0","pricing_plan_id":"cebpf4jnsgd1na2vs0mg"},{"bike_id":"57b343ae-9556-4487-8d05-95d466d8eec3","system_id":"levelo_inurba_marseille","lat":43.26954,"lon":5.38649,"is_reserved":false,"is_disabled":false,"rental_uris":{"android":"levelo://app?vid=57b343ae-9556-4487-8d05-95d466d8eec3","ios":"levelo://app?vid=57b343ae-9556-4487-8d05-95d466d8eec3"},"vehicle_type_id":"4","last_reported":1756393833,"current_range_meters":15200,"station_id":"ce4bhh92rcd13ifvqfh0","pricing_plan_id":"cebpf4jnsgd1na2vs0mg"},{"bike_id":"d0a92e61-7122-4ad6-a0d1-9d37d94ce062","system_id":"levelo_inurba_marseille","lat":43.29713,"lon":5.39051,"is_reserved":false,"is_disabled":false,"rental_uris":{"android":"levelo://app?vid=d0a92e61-7122-4ad6-a0d1-9d37d94ce062","ios":"levelo://app?vid=d0a92e61-7122-4ad6-a0d1-9d37d94ce062"},"vehicle_type_id":"4","last_reported":1756393833,"current_range_meters":15200,"station_id":"","pricing_plan_id":"cebpf4jnsgd1na2vs0mg"},{"bike_id":"82d8b399-fe80-435d-a31f-c959f3cfb96f","system_id":"levelo_inurba_marseille","lat":43.26047,"lon":5.37525,"is_reserved":false,"is_disabled":false,"rental_uris":{"android":"levelo://app?vid=82d8b399-fe80-435d-a31f-c959f3cfb96f","ios":"levelo://app?vid=82d8b399-fe80-435d-a31f-c959f3cfb96f"},"vehicle_type_id":"4","last_reported":1756393833,"current_range_meters":15200,"station_id":"ce4bhgh2rcd13ifvqfa0","pricing_plan_id":"cebpf4jnsgd1na2vs0mg"},{"bike_id":"56df89b1-7b5d-490d-af9b-09a5bb95ee09","system_id":"levelo_inurba_marseille","lat":43.25499,"lon":5.3764,"is_reserved":false,"is_disabled":false,"rental_uris":{"android":"levelo://app?vid=56df89b1-7b5d-490d-af9b-09a5bb95ee09","ios":"levelo://app?vid=56df89b1-7b5d-490d-af9b-09a5bb95ee09"},"vehicle_type_id":"4","last_reported":1756393833,"current_range_meters":16000,"station_id":"ce4bhh12rcd13ifvqff0","pricing_plan_id":"cebpf4jnsgd1na2vs0mg"},{"bike_id":"ed50a2a4-f075-4210-8922-ca468d364897","system_id":"levelo_inurba_marseille","lat":43.26937,"lon":5.40259,"is_reserved":false,"is_disabled":false,"rental_uris":{"android":"levelo://app?vid=ed50a2a4-f075-4210-8922-ca468d364897","ios":"levelo://app?vid=ed50a2a4-f075-4210-8922-ca468d364897"},"vehicle_type_id":"4","last_reported":1756393833,"current_range_meters":16000,"station_id":"cjm6bp8fraef2m0cb0m0","pricing_plan_id":"cebpf4jnsgd1na2vs0mg"},{"bike_id":"4f00b39d-77b7-4777-aded-45a73261ed2e","system_id":"levelo_inurba_marseille","lat":43.29518,"lon":5.37506,"is_reserved":false,"is_disabled":false,"rental_uris":{"android":"levelo://app?vid=4f00b39d-77b7-4777-aded-45a73261ed2e","ios":"levelo://app?vid=4f00b39d-77b7-4777-aded-45a73261ed2e"},"vehicle_type_id":"4","last_reported":1756393833,"current_range_meters":16000,"station_id":"ce4bgkp2rcd13ifvqbmg","pricing_plan_id":"cebpf4jnsgd1na2vs0mg"},{"bike_id":"92262466-cac5-43ae-a1f2-b40b91fe8f8f","system_id":"levelo_inurba_marseille","lat":43.30129,"lon":5.39844,"is_reserved":false,"is_disabled":false,"rental_uris":{"android":"levelo://app?vid=92262466-cac5-43ae-a1f2-b40b91fe8f8f","ios":"levelo://app?vid=92262466-cac5-43ae-a1f2-b40b91fe8f8f"},"vehicle_type_id":"4","last_reported":1756393833,"current_range_meters":16000,"station_id":"ce4bh0h2rcd13ifvqd40","pricing_plan_id":"cebpf4jnsgd1na2vs0mg"},{"bike_id":"49e3e0dc-7bc3-4c21-b5e7-64678061068b","system_id":"levelo_inurba_marseille","lat":43.24173,"lon":5.39714,"is_reserved":false,"is_disabled":true,"rental_uris":{"android":"levelo://app?vid=49e3e0dc-7bc3-4c21-b5e7-64678061068b","ios":"levelo://app?vid=49e3e0dc-7bc3-4c21-b5e7-64678061068b"},"vehicle_type_id":"4","last_reported":1756393833,"current_range_meters":16000,"station_id":"ce4bhn12rcd13ifvqgpg","pricing_plan_id":"cebpf4jnsgd1na2vs0mg"},{"bike_id":"d8f55ace-c04b-438e-805d-73e514df2e7a","system_id":"levelo_inurba_marseille","lat":43.31177,"lon":5.38716,"is_reserved":false,"is_disabled":false,"rental_uris":{"android":"levelo://app?vid=d8f55ace-c04b-438e-805d-73e514df2e7a","ios":"levelo://app?vid=d8f55ace-c04b-438e-805d-73e514df2e7a"},"vehicle_type_id":"4","last_reported":1756393833,"current_range_meters":16000,"station_id":"ce4bgv12rcd13ifvqcp0","pricing_plan_id":"cebpf4jnsgd1na2vs0mg"},{"bike_id":"76853953-4750-4c5e-a02d-c060c687f7f4","system_id":"levelo_inurba_marseille","lat":43.26559,"lon":5.37283,"is_reserved":false,"is_disabled":false,"rental_uris":{"android":"levelo://app?vid=76853953-4750-4c5e-a02d-c060c687f7f4","ios":"levelo://app?vid=76853953-4750-4c5e-a02d-c060c687f7f4"},"vehicle_type_id":"4","last_reported":1756393833,"current_range_meters":16400,"station_id":"ce4bhg12rcd13ifvqf70","pricing_plan_id":"cebpf4jnsgd1na2vs0mg"},{"bike_id":"1d6d2e3d-e6be-45f3-9550-08daca30c94e","system_id":"levelo_inurba_marseille","lat":43.23147,"lon":5.437135,"is_reserved":false,"is_disabled":false,"rental_uris":{"android":"levelo://app?vid=1d6d2e3d-e6be-45f3-9550-08daca30c94e","ios":"levelo://app?vid=1d6d2e3d-e6be-45f3-9550-08daca30c94e"},"vehicle_type_id":"4","last_reported":1756393833,"current_range_meters":16400,"station_id":"ce4bhmp2rcd13ifvqgog","pricing_plan_id":"cebpf4jnsgd1na2vs0mg"},{"bike_id":"5c568395-d119-419a-b1d5-24c1ac6fe6d6","system_id":"levelo_inurba_marseille","lat":43.26215,"lon":5.37439,"is_reserved":false,"is_disabled":false,"rental_uris":{"android":"levelo://app?vid=5c568395-d119-419a-b1d5-24c1ac6fe6d6","ios":"levelo://app?vid=5c568395-d119-419a-b1d5-24c1ac6fe6d6"},"vehicle_type_id":"4","last_reported":1756393833,"current_range_meters":16400,"station_id":"ce4bhgp2rcd13ifvqfc0","pricing_plan_id":"cebpf4jnsgd1na2vs0mg"},{"bike_id":"8a3d08a4-6e22-43fc-a3af-efea32020201","system_id":"levelo_inurba_marseille","lat":43.32361,"lon":5.36777,"is_reserved":false,"is_disabled":false,"rental_uris":{"android":"levelo://app?vid=8a3d08a4-6e22-43fc-a3af-efea32020201","ios":"levelo://app?vid=8a3d08a4-6e22-43fc-a3af-efea32020201"},"vehicle_type_id":"4","last_reported":1756393833,"current_range_meters":16400,"station_id":"ce4bhsh2rcd13ifvqi2g","pricing_plan_id":"cebpf4jnsgd1na2vs0mg"},{"bike_id":"46eb6327-7515-47c8-ac48-8311782b1d74","system_id":"levelo_inurba_marseille","lat":43.232,"lon":5.39985,"is_reserved":false,"is_disabled":false,"rental_uris":{"android":"levelo://app?vid=46eb6327-7515-47c8-ac48-8311782b1d74","ios":"levelo://app?vid=46eb6327-7515-47c8-ac48-8311782b1d74"},"vehicle_type_id":"4","last_reported":1756393833,"current_range_meters":16400,"station_id":"ce4bhn12rcd13ifvqgqg","pricing_plan_id":"cebpf4jnsgd1na2vs0mg"},{"bike_id":"5c739cb4-0cc0-4c3f-9d59-26bb4e0ec4e0","system_id":"levelo_inurba_marseille","lat":43.31072,"lon":5.3834,"is_reserved":false,"is_disabled":false,"rental_uris":{"android":"levelo://app?vid=5c739cb4-0cc0-4c3f-9d59-26bb4e0ec4e0","ios":"levelo://app?vid=5c739cb4-0cc0-4c3f-9d59-26bb4e0ec4e0"},"vehicle_type_id":"4","last_reported":1756393833,"current_range_meters":16400,"station_id":"ce4bgv92rcd13ifvqcr0","pricing_plan_id":"cebpf4jnsgd1na2vs0mg"},{"bike_id":"e88813c3-e63a-4665-b0f4-72e6c6c89a00","system_id":"levelo_inurba_marseille","lat":43.21171,"lon":5.35082,"is_reserved":false,"is_disabled":false,"rental_uris":{"android":"levelo://app?vid=e88813c3-e63a-4665-b0f4-72e6c6c89a00","ios":"levelo://app?vid=e88813c3-e63a-4665-b0f4-72e6c6c89a00"},"vehicle_type_id":"4","last_reported":1756393833,"current_range_meters":16400,"station_id":"st_cvj6sg6p6f1abm77japg","pricing_plan_id":"cebpf4jnsgd1na2vs0mg"},{"bike_id":"9743015d-e955-49ec-816b-6a037a27b73b","system_id":"levelo_inurba_marseille","lat":43.29078,"lon":5.37152,"is_reserved":false,"is_disabled":false,"rental_uris":{"android":"levelo://app?vid=9743015d-e955-49ec-816b-6a037a27b73b","ios":"levelo://app?vid=9743015d-e955-49ec-816b-6a037a27b73b"},"vehicle_type_id":"4","last_reported":1756393833,"current_range_meters":16400,"station_id":"ce4bh5p2rcd13ifvqe4g","pricing_plan_id":"cebpf4jnsgd1na2vs0mg"},{"bike_id":"42515969-df58-4bc3-81b4-d2c5b3092781","system_id":"levelo_inurba_marseille","lat":43.27752,"lon":5.4201,"is_reserved":false,"is_disabled":false,"rental_uris":{"android":"levelo://app?vid=42515969-df58-4bc3-81b4-d2c5b3092781","ios":"levelo://app?vid=42515969-df58-4bc3-81b4-d2c5b3092781"},"vehicle_type_id":"4","last_reported":1756393833,"current_range_meters":16800,"station_id":"","pricing_plan_id":"cebpf4jnsgd1na2vs0mg"},{"bike_id":"0bdf5991-1cc5-4b78-bfe5-c6daa84305c3","system_id":"levelo_inurba_marseille","lat":43.30596,"lon":5.37217,"is_reserved":false,"is_disabled":false,"rental_uris":{"android":"levelo://app?vid=0bdf5991-1cc5-4b78-bfe5-c6daa84305c3","ios":"levelo://app?vid=0bdf5991-1cc5-4b78-bfe5-c6daa84305c3"},"vehicle_type_id":"4","last_reported":1756393833,"current_range_meters":16800,"station_id":"ce4bgqh2rcd13ifvqc4g","pricing_plan_id":"cebpf4jnsgd1na2vs0mg"},{"bike_id":"ee6f853e-fe44-40c6-8197-71e5ebc9de78","system_id":"levelo_inurba_marseille","lat":43.23176,"lon":5.43695,"is_reserved":false,"is_disabled":false,"rental_uris":{"android":"levelo://app?vid=ee6f853e-fe44-40c6-8197-71e5ebc9de78","ios":"levelo://app?vid=ee6f853e-fe44-40c6-8197-71e5ebc9de78"},"vehicle_type_id":"4","last_reported":1756393833,"current_range_meters":16800,"station_id":"ce4bhmp2rcd13ifvqgog","pricing_plan_id":"cebpf4jnsgd1na2vs0mg"},{"bike_id":"52f938f6-1410-4eda-bd14-3e2ea5baeb93","system_id":"levelo_inurba_marseille","lat":43.24072,"lon":5.37764,"is_reserved":false,"is_disabled":false,"rental_uris":{"android":"levelo://app?vid=52f938f6-1410-4eda-bd14-3e2ea5baeb93","ios":"levelo://app?vid=52f938f6-1410-4eda-bd14-3e2ea5baeb93"},"vehicle_type_id":"4","last_reported":1756393833,"current_range_meters":16800,"station_id":"ce4bhnp2rcd13ifvqgvg","pricing_plan_id":"cebpf4jnsgd1na2vs0mg"},{"bike_id":"06669016-cd47-459f-9dbc-b8f7fe75d379","system_id":"levelo_inurba_marseille","lat":43.322853,"lon":5.382784,"is_reserved":false,"is_disabled":false,"rental_uris":{"android":"levelo://app?vid=06669016-cd47-459f-9dbc-b8f7fe75d379","ios":"levelo://app?vid=06669016-cd47-459f-9dbc-b8f7fe75d379"},"vehicle_type_id":"4","last_reported":1756393833,"current_range_meters":16800,"station_id":"ce4bhr12rcd13ifvqhqg","pricing_plan_id":"cebpf4jnsgd1na2vs0mg"},{"bike_id":"265f8cd0-3d9c-4d24-b310-cc731492d82d","system_id":"levelo_inurba_marseille","lat":43.28265,"lon":5.35054,"is_reserved":false,"is_disabled":false,"rental_uris":{"android":"levelo://app?vid=265f8cd0-3d9c-4d24-b310-cc731492d82d","ios":"levelo://app?vid=265f8cd0-3d9c-4d24-b310-cc731492d82d"},"vehicle_type_id":"4","last_reported":1756393833,"current_range_meters":16800,"station_id":"ce4bhbp2rcd13ifvqerg","pricing_plan_id":"cebpf4jnsgd1na2vs0mg"},{"bike_id":"6c585c9e-34d5-486a-b1ef-53c3ee6bf89b","system_id":"levelo_inurba_marseille","lat":43.27944,"lon":5.38689,"is_reserved":false,"is_disabled":true,"rental_uris":{"android":"levelo://app?vid=6c585c9e-34d5-486a-b1ef-53c3ee6bf89b","ios":"levelo://app?vid=6c585c9e-34d5-486a-b1ef-53c3ee6bf89b"},"vehicle_type_id":"4","last_reported":1756393833,"current_range_meters":16800,"station_id":"","pricing_plan_id":"cebpf4jnsgd1na2vs0mg"},{"bike_id":"c8ed8afa-4750-4d5e-b29e-7da3cd8f4dc7","system_id":"levelo_inurba_marseille","lat":43.32369,"lon":5.3673,"is_reserved":false,"is_disabled":false,"rental_uris":{"android":"levelo://app?vid=c8ed8afa-4750-4d5e-b29e-7da3cd8f4dc7","ios":"levelo://app?vid=c8ed8afa-4750-4d5e-b29e-7da3cd8f4dc7"},"vehicle_type_id":"4","last_reported":1756393833,"current_range_meters":16800,"station_id":"ce4bhsh2rcd13ifvqi2g","pricing_plan_id":"cebpf4jnsgd1na2vs0mg"},{"bike_id":"7a523796-4116-491f-8515-f0878e045097","system_id":"levelo_inurba_marseille","lat":43.29283,"lon":5.37459,"is_reserved":false,"is_disabled":false,"rental_uris":{"android":"levelo://app?vid=7a523796-4116-491f-8515-f0878e045097","ios":"levelo://app?vid=7a523796-4116-491f-8515-f0878e045097"},"vehicle_type_id":"4","last_reported":1756393833,"current_range_meters":17200,"station_id":"ce4bgi12rcd13ifvqb70","pricing_plan_id":"cebpf4jnsgd1na2vs0mg"},{"bike_id":"7e33dff7-77a7-4e37-9d1a-49aeed3896ea","system_id":"levelo_inurba_marseille","lat":43.23964,"lon":5.36626,"is_reserved":false,"is_disabled":false,"rental_uris":{"android":"levelo://app?vid=7e33dff7-77a7-4e37-9d1a-49aeed3896ea","ios":"levelo://app?vid=7e33dff7-77a7-4e37-9d1a-49aeed3896ea"},"vehicle_type_id":"4","last_reported":1756393833,"current_range_meters":17200,"station_id":"ce4bhi12rcd13ifvqfp0","pricing_plan_id":"cebpf4jnsgd1na2vs0mg"},{"bike_id":"e8d25a40-f558-4617-ad49-f8e4a2580a27","system_id":"levelo_inurba_marseille","lat":43.29599,"lon":5.38088,"is_reserved":false,"is_disabled":false,"rental_uris":{"android":"levelo://app?vid=e8d25a40-f558-4617-ad49-f8e4a2580a27","ios":"levelo://app?vid=e8d25a40-f558-4617-ad49-f8e4a2580a27"},"vehicle_type_id":"4","last_reported":1756393833,"current_range_meters":17200,"station_id":"ce4bgl12rcd13ifvqbo0","pricing_plan_id":"cebpf4jnsgd1na2vs0mg"},{"bike_id":"c5a3b805-46af-418d-ad99-95f71740a0c4","system_id":"levelo_inurba_marseille","lat":43.29506,"lon":5.39022,"is_reserved":false,"is_disabled":false,"rental_uris":{"android":"levelo://app?vid=c5a3b805-46af-418d-ad99-95f71740a0c4","ios":"levelo://app?vid=c5a3b805-46af-418d-ad99-95f71740a0c4"},"vehicle_type_id":"4","last_reported":1756393833,"current_range_meters":17200,"station_id":"ce4bh3p2rcd13ifvqdp0","pricing_plan_id":"cebpf4jnsgd1na2vs0mg"},{"bike_id":"ca808d34-9391-4691-b4c5-e9180d9c16d9","system_id":"levelo_inurba_marseille","lat":43.25332,"lon":5.42158,"is_reserved":false,"is_disabled":false,"rental_uris":{"android":"levelo://app?vid=ca808d34-9391-4691-b4c5-e9180d9c16d9","ios":"levelo://app?vid=ca808d34-9391-4691-b4c5-e9180d9c16d9"},"vehicle_type_id":"4","last_reported":1756393833,"current_range_meters":17200,"station_id":"st_d2m65c5bi1j21697t3ng","pricing_plan_id":"cebpf4jnsgd1na2vs0mg"},{"bike_id":"935960c4-d548-4f33-b092-9c0a28f723f3","system_id":"levelo_inurba_marseille","lat":43.279873,"lon":5.400238,"is_reserved":false,"is_disabled":false,"rental_uris":{"android":"levelo://app?vid=935960c4-d548-4f33-b092-9c0a28f723f3","ios":"levelo://app?vid=935960c4-d548-4f33-b092-9c0a28f723f3"},"vehicle_type_id":"4","last_reported":1756393833,"current_range_meters":17200,"station_id":"ce4bho92rcd13ifvqh4g","pricing_plan_id":"cebpf4jnsgd1na2vs0mg"},{"bike_id":"a3e4ee41-5175-47da-ad6e-4c5ae3eb42d9","system_id":"levelo_inurba_marseille","lat":43.21205,"lon":5.35076,"is_reserved":false,"is_disabled":false,"rental_uris":{"android":"levelo://app?vid=a3e4ee41-5175-47da-ad6e-4c5ae3eb42d9","ios":"levelo://app?vid=a3e4ee41-5175-47da-ad6e-4c5ae3eb42d9"},"vehicle_type_id":"4","last_reported":1756393833,"current_range_meters":17200,"station_id":"st_cvj6sg6p6f1abm77japg","pricing_plan_id":"cebpf4jnsgd1na2vs0mg"},{"bike_id":"8b31e0fe-b43a-4732-a9f3-1447152f0d7b","system_id":"levelo_inurba_marseille","lat":43.26025,"lon":5.37551,"is_reserved":false,"is_disabled":false,"rental_uris":{"android":"levelo://app?vid=8b31e0fe-b43a-4732-a9f3-1447152f0d7b","ios":"levelo://app?vid=8b31e0fe-b43a-4732-a9f3-1447152f0d7b"},"vehicle_type_id":"4","last_reported":1756393833,"current_range_meters":17200,"station_id":"ce4bhgh2rcd13ifvqfa0","pricing_plan_id":"cebpf4jnsgd1na2vs0mg"},{"bike_id":"21facb37-f2df-4979-a525-418747dd4e09","system_id":"levelo_inurba_marseille","lat":43.28412,"lon":5.34974,"is_reserved":false,"is_disabled":false,"rental_uris":{"android":"levelo://app?vid=21facb37-f2df-4979-a525-418747dd4e09","ios":"levelo://app?vid=21facb37-f2df-4979-a525-418747dd4e09"},"vehicle_type_id":"4","last_reported":1756393833,"current_range_meters":17600,"station_id":"ce4bhbh2rcd13ifvqepg","pricing_plan_id":"cebpf4jnsgd1na2vs0mg"},{"bike_id":"6e3b0bf2-9243-43c6-b945-277277b4c78a","system_id":"levelo_inurba_marseille","lat":43.29264,"lon":5.38434,"is_reserved":false,"is_disabled":false,"rental_uris":{"android":"levelo://app?vid=6e3b0bf2-9243-43c6-b945-277277b4c78a","ios":"levelo://app?vid=6e3b0bf2-9243-43c6-b945-277277b4c78a"},"vehicle_type_id":"4","last_reported":1756393833,"current_range_meters":17600,"station_id":"ce4bh692rcd13ifvqea0","pricing_plan_id":"cebpf4jnsgd1na2vs0mg"},{"bike_id":"e4bd5bb1-0bbc-4e7d-9b66-122f0d05fd4b","system_id":"levelo_inurba_marseille","lat":43.26801,"lon":5.3942,"is_reserved":false,"is_disabled":false,"rental_uris":{"android":"levelo://app?vid=e4bd5bb1-0bbc-4e7d-9b66-122f0d05fd4b","ios":"levelo://app?vid=e4bd5bb1-0bbc-4e7d-9b66-122f0d05fd4b"},"vehicle_type_id":"4","last_reported":1756393833,"current_range_meters":17600,"station_id":"ce4bhh12rcd13ifvqfg0","pricing_plan_id":"cebpf4jnsgd1na2vs0mg"},{"bike_id":"e0e04e77-d2c9-4055-8b5b-ec1ba61e417b","system_id":"levelo_inurba_marseille","lat":43.24174,"lon":5.36395,"is_reserved":false,"is_disabled":false,"rental_uris":{"android":"levelo://app?vid=e0e04e77-d2c9-4055-8b5b-ec1ba61e417b","ios":"levelo://app?vid=e0e04e77-d2c9-4055-8b5b-ec1ba61e417b"},"vehicle_type_id":"4","last_reported":1756393833,"current_range_meters":17600,"station_id":"cpo36qri1sfpv3e86is0","pricing_plan_id":"cebpf4jnsgd1na2vs0mg"},{"bike_id":"b2d1009e-156d-453e-ab31-37d9d0a13b59","system_id":"levelo_inurba_marseille","lat":43.28857,"lon":5.35848,"is_reserved":false,"is_disabled":false,"rental_uris":{"android":"levelo://app?vid=b2d1009e-156d-453e-ab31-37d9d0a13b59","ios":"levelo://app?vid=b2d1009e-156d-453e-ab31-37d9d0a13b59"},"vehicle_type_id":"4","last_reported":1756393833,"current_range_meters":17200,"station_id":"ce4bhb12rcd13ifvqem0","pricing_plan_id":"cebpf4jnsgd1na2vs0mg"},{"bike_id":"ab7c0377-9067-4f33-b6fd-8c2b4cb14a20","system_id":"levelo_inurba_marseille","lat":43.30699,"lon":5.36615,"is_reserved":false,"is_disabled":false,"rental_uris":{"android":"levelo://app?vid=ab7c0377-9067-4f33-b6fd-8c2b4cb14a20","ios":"levelo://app?vid=ab7c0377-9067-4f33-b6fd-8c2b4cb14a20"},"vehicle_type_id":"4","last_reported":1756393833,"current_range_meters":17600,"station_id":"","pricing_plan_id":"cebpf4jnsgd1na2vs0mg"},{"bike_id":"f06e5c0e-5a76-4705-aa22-932f62009ec5","system_id":"levelo_inurba_marseille","lat":43.26226,"lon":5.37433,"is_reserved":false,"is_disabled":false,"rental_uris":{"android":"levelo://app?vid=f06e5c0e-5a76-4705-aa22-932f62009ec5","ios":"levelo://app?vid=f06e5c0e-5a76-4705-aa22-932f62009ec5"},"vehicle_type_id":"4","last_reported":1756393833,"current_range_meters":18000,"station_id":"","pricing_plan_id":"cebpf4jnsgd1na2vs0mg"},{"bike_id":"73c8571b-4653-45d4-90f2-9aee291e969a","system_id":"levelo_inurba_marseille","lat":43.23053,"lon":5.35487,"is_reserved":false,"is_disabled":false,"rental_uris":{"android":"levelo://app?vid=73c8571b-4653-45d4-90f2-9aee291e969a","ios":"levelo://app?vid=73c8571b-4653-45d4-90f2-9aee291e969a"},"vehicle_type_id":"4","last_reported":1756393833,"current_range_meters":18000,"station_id":"cpo3342slgdg3j2ifvpg","pricing_plan_id":"cebpf4jnsgd1na2vs0mg"},{"bike_id":"4047f080-688b-41e4-aa21-eea7976fbcd4","system_id":"levelo_inurba_marseille","lat":43.30593,"lon":5.37229,"is_reserved":false,"is_disabled":false,"rental_uris":{"android":"levelo://app?vid=4047f080-688b-41e4-aa21-eea7976fbcd4","ios":"levelo://app?vid=4047f080-688b-41e4-aa21-eea7976fbcd4"},"vehicle_type_id":"4","last_reported":1756393833,"current_range_meters":18000,"station_id":"ce4bgqh2rcd13ifvqc4g","pricing_plan_id":"cebpf4jnsgd1na2vs0mg"},{"bike_id":"af0e337f-d4cf-4e28-9020-c2f2b620012b","system_id":"levelo_inurba_marseille","lat":43.22925,"lon":5.35371,"is_reserved":false,"is_disabled":false,"rental_uris":{"android":"levelo://app?vid=af0e337f-d4cf-4e28-9020-c2f2b620012b","ios":"levelo://app?vid=af0e337f-d4cf-4e28-9020-c2f2b620012b"},"vehicle_type_id":"4","last_reported":1756393833,"current_range_meters":18000,"station_id":"cpo3532slgdg3j2ikp40","pricing_plan_id":"cebpf4jnsgd1na2vs0mg"},{"bike_id":"60863403-b289-4c9c-b2d0-3d448abf417f","system_id":"levelo_inurba_marseille","lat":43.28273,"lon":5.35067,"is_reserved":false,"is_disabled":true,"rental_uris":{"android":"levelo://app?vid=60863403-b289-4c9c-b2d0-3d448abf417f","ios":"levelo://app?vid=60863403-b289-4c9c-b2d0-3d448abf417f"},"vehicle_type_id":"4","last_reported":1756393833,"current_range_meters":18000,"station_id":"ce4bhbp2rcd13ifvqerg","pricing_plan_id":"cebpf4jnsgd1na2vs0mg"},{"bike_id":"688af5fb-6252-4eed-9501-ed7d2b2be597","system_id":"levelo_inurba_marseille","lat":43.24187,"lon":5.36389,"is_reserved":false,"is_disabled":false,"rental_uris":{"android":"levelo://app?vid=688af5fb-6252-4eed-9501-ed7d2b2be597","ios":"levelo://app?vid=688af5fb-6252-4eed-9501-ed7d2b2be597"},"vehicle_type_id":"4","last_reported":1756393833,"current_range_meters":18000,"station_id":"cpo36qri1sfpv3e86is0","pricing_plan_id":"cebpf4jnsgd1na2vs0mg"},{"bike_id":"73e90243-1209-4395-8091-14986902f9a5","system_id":"levelo_inurba_marseille","lat":43.26044,"lon":5.37539,"is_reserved":false,"is_disabled":false,"rental_uris":{"android":"levelo://app?vid=73e90243-1209-4395-8091-14986902f9a5","ios":"levelo://app?vid=73e90243-1209-4395-8091-14986902f9a5"},"vehicle_type_id":"4","last_reported":1756393833,"current_range_meters":18000,"station_id":"ce4bhgh2rcd13ifvqfa0","pricing_plan_id":"cebpf4jnsgd1na2vs0mg"},{"bike_id":"53482a20-bd82-47e7-85d6-718b5a06855b","system_id":"levelo_inurba_marseille","lat":43.28618,"lon":5.35104,"is_reserved":false,"is_disabled":false,"rental_uris":{"android":"levelo://app?vid=53482a20-bd82-47e7-85d6-718b5a06855b","ios":"levelo://app?vid=53482a20-bd82-47e7-85d6-718b5a06855b"},"vehicle_type_id":"4","last_reported":1756393833,"current_range_meters":18000,"station_id":"ce4bhch2rcd13ifvqeug","pricing_plan_id":"cebpf4jnsgd1na2vs0mg"},{"bike_id":"49774fcc-922a-499c-b7d4-86afe0396868","system_id":"levelo_inurba_marseille","lat":43.25498,"lon":5.37657,"is_reserved":false,"is_disabled":true,"rental_uris":{"android":"levelo://app?vid=49774fcc-922a-499c-b7d4-86afe0396868","ios":"levelo://app?vid=49774fcc-922a-499c-b7d4-86afe0396868"},"vehicle_type_id":"4","last_reported":1756393833,"current_range_meters":18000,"station_id":"ce4bhh12rcd13ifvqff0","pricing_plan_id":"cebpf4jnsgd1na2vs0mg"},{"bike_id":"679dd2c2-03ba-464f-b4ca-d253d6e39f03","system_id":"levelo_inurba_marseille","lat":43.28417,"lon":5.34978,"is_reserved":false,"is_disabled":false,"rental_uris":{"android":"levelo://app?vid=679dd2c2-03ba-464f-b4ca-d253d6e39f03","ios":"levelo://app?vid=679dd2c2-03ba-464f-b4ca-d253d6e39f03"},"vehicle_type_id":"4","last_reported":1756393833,"current_range_meters":18000,"station_id":"ce4bhbh2rcd13ifvqepg","pricing_plan_id":"cebpf4jnsgd1na2vs0mg"},{"bike_id":"159e778a-d20c-42da-86c4-bf4c3d4998a3","system_id":"levelo_inurba_marseille","lat":43.26212,"lon":5.37441,"is_reserved":false,"is_disabled":false,"rental_uris":{"android":"levelo://app?vid=159e778a-d20c-42da-86c4-bf4c3d4998a3","ios":"levelo://app?vid=159e778a-d20c-42da-86c4-bf4c3d4998a3"},"vehicle_type_id":"4","last_reported":1756393833,"current_range_meters":18000,"station_id":"ce4bhgp2rcd13ifvqfc0","pricing_plan_id":"cebpf4jnsgd1na2vs0mg"},{"bike_id":"2f482e33-8f3b-4cdf-be3b-cc79f5ea6eaf","system_id":"levelo_inurba_marseille","lat":43.30101,"lon":5.39072,"is_reserved":false,"is_disabled":false,"rental_uris":{"android":"levelo://app?vid=2f482e33-8f3b-4cdf-be3b-cc79f5ea6eaf","ios":"levelo://app?vid=2f482e33-8f3b-4cdf-be3b-cc79f5ea6eaf"},"vehicle_type_id":"4","last_reported":1756393833,"current_range_meters":18000,"station_id":"ce4bh192rcd13ifvqdb0","pricing_plan_id":"cebpf4jnsgd1na2vs0mg"},{"bike_id":"470e3b4a-071e-4e4d-ba95-8099080d874f","system_id":"levelo_inurba_marseille","lat":43.26191,"lon":5.37446,"is_reserved":false,"is_disabled":false,"rental_uris":{"android":"levelo://app?vid=470e3b4a-071e-4e4d-ba95-8099080d874f","ios":"levelo://app?vid=470e3b4a-071e-4e4d-ba95-8099080d874f"},"vehicle_type_id":"4","last_reported":1756393833,"current_range_meters":18000,"station_id":"ce4bhgp2rcd13ifvqfc0","pricing_plan_id":"cebpf4jnsgd1na2vs0mg"},{"bike_id":"6c3f9606-3f72-4507-bdb0-acc139c19e6d","system_id":"levelo_inurba_marseille","lat":43.26552,"lon":5.37284,"is_reserved":false,"is_disabled":false,"rental_uris":{"android":"levelo://app?vid=6c3f9606-3f72-4507-bdb0-acc139c19e6d","ios":"levelo://app?vid=6c3f9606-3f72-4507-bdb0-acc139c19e6d"},"vehicle_type_id":"4","last_reported":1756393833,"current_range_meters":18000,"station_id":"ce4bhg12rcd13ifvqf70","pricing_plan_id":"cebpf4jnsgd1na2vs0mg"},{"bike_id":"b113518b-05ba-45de-81f2-615c5a5b4e54","system_id":"levelo_inurba_marseille","lat":43.29312,"lon":5.37172,"is_reserved":false,"is_disabled":false,"rental_uris":{"android":"levelo://app?vid=b113518b-05ba-45de-81f2-615c5a5b4e54","ios":"levelo://app?vid=b113518b-05ba-45de-81f2-615c5a5b4e54"},"vehicle_type_id":"4","last_reported":1756393833,"current_range_meters":18800,"station_id":"ce4bgh92rcd13ifvqb40","pricing_plan_id":"cebpf4jnsgd1na2vs0mg"},{"bike_id":"5895c4f8-4d69-46d5-bc75-157facfae228","system_id":"levelo_inurba_marseille","lat":43.26011,"lon":5.37563,"is_reserved":false,"is_disabled":false,"rental_uris":{"android":"levelo://app?vid=5895c4f8-4d69-46d5-bc75-157facfae228","ios":"levelo://app?vid=5895c4f8-4d69-46d5-bc75-157facfae228"},"vehicle_type_id":"4","last_reported":1756393833,"current_range_meters":18800,"station_id":"ce4bhgh2rcd13ifvqfa0","pricing_plan_id":"cebpf4jnsgd1na2vs0mg"},{"bike_id":"6dd0abf3-b4b3-4f6d-8320-aeaf8346e3b9","system_id":"levelo_inurba_marseille","lat":43.23141,"lon":5.43725,"is_reserved":false,"is_disabled":false,"rental_uris":{"android":"levelo://app?vid=6dd0abf3-b4b3-4f6d-8320-aeaf8346e3b9","ios":"levelo://app?vid=6dd0abf3-b4b3-4f6d-8320-aeaf8346e3b9"},"vehicle_type_id":"4","last_reported":1756393833,"current_range_meters":18800,"station_id":"ce4bhmp2rcd13ifvqgog","pricing_plan_id":"cebpf4jnsgd1na2vs0mg"},{"bike_id":"ab2b2968-2afc-4029-82d1-f9d7f0e7846c","system_id":"levelo_inurba_marseille","lat":43.292618,"lon":5.376212,"is_reserved":false,"is_disabled":false,"rental_uris":{"android":"levelo://app?vid=ab2b2968-2afc-4029-82d1-f9d7f0e7846c","ios":"levelo://app?vid=ab2b2968-2afc-4029-82d1-f9d7f0e7846c"},"vehicle_type_id":"4","last_reported":1756393833,"current_range_meters":18800,"station_id":"ce4bgi12rcd13ifvqb80","pricing_plan_id":"cebpf4jnsgd1na2vs0mg"},{"bike_id":"dee5fc92-9d8d-42ec-97e1-996d8f5266a8","system_id":"levelo_inurba_marseille","lat":43.22925,"lon":5.35351,"is_reserved":false,"is_disabled":false,"rental_uris":{"android":"levelo://app?vid=dee5fc92-9d8d-42ec-97e1-996d8f5266a8","ios":"levelo://app?vid=dee5fc92-9d8d-42ec-97e1-996d8f5266a8"},"vehicle_type_id":"4","last_reported":1756393833,"current_range_meters":18800,"station_id":"cpo3532slgdg3j2ikp40","pricing_plan_id":"cebpf4jnsgd1na2vs0mg"},{"bike_id":"083b0e7f-357f-4afd-b79e-219efec9656b","system_id":"levelo_inurba_marseille","lat":43.2841,"lon":5.34982,"is_reserved":false,"is_disabled":false,"rental_uris":{"android":"levelo://app?vid=083b0e7f-357f-4afd-b79e-219efec9656b","ios":"levelo://app?vid=083b0e7f-357f-4afd-b79e-219efec9656b"},"vehicle_type_id":"4","last_reported":1756393833,"current_range_meters":18800,"station_id":"ce4bhbh2rcd13ifvqepg","pricing_plan_id":"cebpf4jnsgd1na2vs0mg"},{"bike_id":"07761c7f-90f3-44f4-a950-f91cbca976d7","system_id":"levelo_inurba_marseille","lat":43.26228,"lon":5.37436,"is_reserved":false,"is_disabled":false,"rental_uris":{"android":"levelo://app?vid=07761c7f-90f3-44f4-a950-f91cbca976d7","ios":"levelo://app?vid=07761c7f-90f3-44f4-a950-f91cbca976d7"},"vehicle_type_id":"4","last_reported":1756393833,"current_range_meters":18800,"station_id":"ce4bhgp2rcd13ifvqfc0","pricing_plan_id":"cebpf4jnsgd1na2vs0mg"},{"bike_id":"ffe913ad-1c89-4ac6-a9e9-7cb7a558bd3a","system_id":"levelo_inurba_marseille","lat":43.29634,"lon":5.40594,"is_reserved":false,"is_disabled":false,"rental_uris":{"android":"levelo://app?vid=ffe913ad-1c89-4ac6-a9e9-7cb7a558bd3a","ios":"levelo://app?vid=ffe913ad-1c89-4ac6-a9e9-7cb7a558bd3a"},"vehicle_type_id":"4","last_reported":1756393833,"current_range_meters":18800,"station_id":"ce4bh0h2rcd13ifvqd60","pricing_plan_id":"cebpf4jnsgd1na2vs0mg"},{"bike_id":"196169a4-3222-419a-be3c-e08cc270c692","system_id":"levelo_inurba_marseille","lat":43.29338,"lon":5.37278,"is_reserved":false,"is_disabled":false,"rental_uris":{"android":"levelo://app?vid=196169a4-3222-419a-be3c-e08cc270c692","ios":"levelo://app?vid=196169a4-3222-419a-be3c-e08cc270c692"},"vehicle_type_id":"4","last_reported":1756393833,"current_range_meters":18800,"station_id":"","pricing_plan_id":"cebpf4jnsgd1na2vs0mg"},{"bike_id":"8022b2eb-d44b-41bc-9f96-2c68d3cd359b","system_id":"levelo_inurba_marseille","lat":43.32113,"lon":5.36766,"is_reserved":false,"is_disabled":false,"rental_uris":{"android":"levelo://app?vid=8022b2eb-d44b-41bc-9f96-2c68d3cd359b","ios":"levelo://app?vid=8022b2eb-d44b-41bc-9f96-2c68d3cd359b"},"vehicle_type_id":"4","last_reported":1756393833,"current_range_meters":18800,"station_id":"ce4bhrh2rcd13ifvqhug","pricing_plan_id":"cebpf4jnsgd1na2vs0mg"},{"bike_id":"e3ebaeac-8da1-430b-9318-37afd50a3911","system_id":"levelo_inurba_marseille","lat":43.28155,"lon":5.42636,"is_reserved":false,"is_disabled":false,"rental_uris":{"android":"levelo://app?vid=e3ebaeac-8da1-430b-9318-37afd50a3911","ios":"levelo://app?vid=e3ebaeac-8da1-430b-9318-37afd50a3911"},"vehicle_type_id":"4","last_reported":1756393833,"current_range_meters":18800,"station_id":"ce4bhnh2rcd13ifvqgug","pricing_plan_id":"cebpf4jnsgd1na2vs0mg"},{"bike_id":"07342a38-1411-40df-85e6-d4d0d96af808","system_id":"levelo_inurba_marseille","lat":43.28409,"lon":5.34964,"is_reserved":false,"is_disabled":false,"rental_uris":{"android":"levelo://app?vid=07342a38-1411-40df-85e6-d4d0d96af808","ios":"levelo://app?vid=07342a38-1411-40df-85e6-d4d0d96af808"},"vehicle_type_id":"4","last_reported":1756393833,"current_range_meters":18800,"station_id":"ce4bhbh2rcd13ifvqepg","pricing_plan_id":"cebpf4jnsgd1na2vs0mg"},{"bike_id":"d1012ec4-1fc3-4e5f-a82c-9d7d73d65c20","system_id":"levelo_inurba_marseille","lat":43.26037,"lon":5.41724,"is_reserved":false,"is_disabled":false,"rental_uris":{"android":"levelo://app?vid=d1012ec4-1fc3-4e5f-a82c-9d7d73d65c20","ios":"levelo://app?vid=d1012ec4-1fc3-4e5f-a82c-9d7d73d65c20"},"vehicle_type_id":"4","last_reported":1756393833,"current_range_meters":18800,"station_id":"","pricing_plan_id":"cebpf4jnsgd1na2vs0mg"},{"bike_id":"72adf8d3-000d-462a-9b10-b49b61130129","system_id":"levelo_inurba_marseille","lat":43.28429,"lon":5.34965,"is_reserved":false,"is_disabled":false,"rental_uris":{"android":"levelo://app?vid=72adf8d3-000d-462a-9b10-b49b61130129","ios":"levelo://app?vid=72adf8d3-000d-462a-9b10-b49b61130129"},"vehicle_type_id":"4","last_reported":1756393833,"current_range_meters":19200,"station_id":"ce4bhbh2rcd13ifvqepg","pricing_plan_id":"cebpf4jnsgd1na2vs0mg"},{"bike_id":"cc7424a2-63e2-49b7-9026-ff6c693453c2","system_id":"levelo_inurba_marseille","lat":43.24671,"lon":5.38169,"is_reserved":false,"is_disabled":false,"rental_uris":{"android":"levelo://app?vid=cc7424a2-63e2-49b7-9026-ff6c693453c2","ios":"levelo://app?vid=cc7424a2-63e2-49b7-9026-ff6c693453c2"},"vehicle_type_id":"4","last_reported":1756393833,"current_range_meters":19200,"station_id":"ce4bhih2rcd13ifvqfr0","pricing_plan_id":"cebpf4jnsgd1na2vs0mg"},{"bike_id":"9322c1d9-d3e0-40f4-8c1a-2aa09dd159ed","system_id":"levelo_inurba_marseille","lat":43.29934,"lon":5.36543,"is_reserved":false,"is_disabled":false,"rental_uris":{"android":"levelo://app?vid=9322c1d9-d3e0-40f4-8c1a-2aa09dd159ed","ios":"levelo://app?vid=9322c1d9-d3e0-40f4-8c1a-2aa09dd159ed"},"vehicle_type_id":"4","last_reported":1756393833,"current_range_meters":19200,"station_id":"ce4bgm92rcd13ifvqbr0","pricing_plan_id":"cebpf4jnsgd1na2vs0mg"},{"bike_id":"d913d77e-a258-431d-a6f4-f5e85574ee2a","system_id":"levelo_inurba_marseille","lat":43.22927,"lon":5.35371,"is_reserved":false,"is_disabled":false,"rental_uris":{"android":"levelo://app?vid=d913d77e-a258-431d-a6f4-f5e85574ee2a","ios":"levelo://app?vid=d913d77e-a258-431d-a6f4-f5e85574ee2a"},"vehicle_type_id":"4","last_reported":1756393833,"current_range_meters":19200,"station_id":"cpo3532slgdg3j2ikp40","pricing_plan_id":"cebpf4jnsgd1na2vs0mg"},{"bike_id":"3dd23926-ae78-488e-8f33-e0fe0712154d","system_id":"levelo_inurba_marseille","lat":43.31217,"lon":5.37802,"is_reserved":false,"is_disabled":false,"rental_uris":{"android":"levelo://app?vid=3dd23926-ae78-488e-8f33-e0fe0712154d","ios":"levelo://app?vid=3dd23926-ae78-488e-8f33-e0fe0712154d"},"vehicle_type_id":"4","last_reported":1756393833,"current_range_meters":19200,"station_id":"","pricing_plan_id":"cebpf4jnsgd1na2vs0mg"},{"bike_id":"e6a93fb5-0898-42b5-a0f1-0058cce3ed8f","system_id":"levelo_inurba_marseille","lat":43.25497,"lon":5.37648,"is_reserved":false,"is_disabled":false,"rental_uris":{"android":"levelo://app?vid=e6a93fb5-0898-42b5-a0f1-0058cce3ed8f","ios":"levelo://app?vid=e6a93fb5-0898-42b5-a0f1-0058cce3ed8f"},"vehicle_type_id":"4","last_reported":1756393833,"current_range_meters":19200,"station_id":"ce4bhh12rcd13ifvqff0","pricing_plan_id":"cebpf4jnsgd1na2vs0mg"},{"bike_id":"68079d0b-978e-4e01-9d3b-9679f1352ad9","system_id":"levelo_inurba_marseille","lat":43.290614,"lon":5.359045,"is_reserved":false,"is_disabled":false,"rental_uris":{"android":"levelo://app?vid=68079d0b-978e-4e01-9d3b-9679f1352ad9","ios":"levelo://app?vid=68079d0b-978e-4e01-9d3b-9679f1352ad9"},"vehicle_type_id":"4","last_reported":1756393833,"current_range_meters":19200,"station_id":"ce4bha92rcd13ifvqeg0","pricing_plan_id":"cebpf4jnsgd1na2vs0mg"},{"bike_id":"bedbfafb-e8f2-4d6b-9dc8-56d123a4d55c","system_id":"levelo_inurba_marseille","lat":43.26221,"lon":5.37466,"is_reserved":false,"is_disabled":false,"rental_uris":{"android":"levelo://app?vid=bedbfafb-e8f2-4d6b-9dc8-56d123a4d55c","ios":"levelo://app?vid=bedbfafb-e8f2-4d6b-9dc8-56d123a4d55c"},"vehicle_type_id":"4","last_reported":1756393833,"current_range_meters":19200,"station_id":"ce4bhgp2rcd13ifvqfc0","pricing_plan_id":"cebpf4jnsgd1na2vs0mg"},{"bike_id":"86270777-a6a2-4ada-9e5d-5b83ae449c7e","system_id":"levelo_inurba_marseille","lat":43.26025,"lon":5.3756,"is_reserved":false,"is_disabled":false,"rental_uris":{"android":"levelo://app?vid=86270777-a6a2-4ada-9e5d-5b83ae449c7e","ios":"levelo://app?vid=86270777-a6a2-4ada-9e5d-5b83ae449c7e"},"vehicle_type_id":"4","last_reported":1756393833,"current_range_meters":19200,"station_id":"ce4bhgh2rcd13ifvqfa0","pricing_plan_id":"cebpf4jnsgd1na2vs0mg"},{"bike_id":"1021b9d2-6241-4273-b2ab-2011697251d8","system_id":"levelo_inurba_marseille","lat":43.29789,"lon":5.37094,"is_reserved":false,"is_disabled":false,"rental_uris":{"android":"levelo://app?vid=1021b9d2-6241-4273-b2ab-2011697251d8","ios":"levelo://app?vid=1021b9d2-6241-4273-b2ab-2011697251d8"},"vehicle_type_id":"4","last_reported":1756393833,"current_range_meters":19600,"station_id":"ce4bgop2rcd13ifvqc1g","pricing_plan_id":"cebpf4jnsgd1na2vs0mg"},{"bike_id":"f7c72213-bc1f-4dc8-9236-f4004cdae7b1","system_id":"levelo_inurba_marseille","lat":43.21763,"lon":5.34593,"is_reserved":false,"is_disabled":false,"rental_uris":{"android":"levelo://app?vid=f7c72213-bc1f-4dc8-9236-f4004cdae7b1","ios":"levelo://app?vid=f7c72213-bc1f-4dc8-9236-f4004cdae7b1"},"vehicle_type_id":"4","last_reported":1756393833,"current_range_meters":19600,"station_id":"st_cvj6r9ubvosntc0bgbag","pricing_plan_id":"cebpf4jnsgd1na2vs0mg"},{"bike_id":"f679725c-01bf-4abc-9507-a3db4ff0f736","system_id":"levelo_inurba_marseille","lat":43.21749,"lon":5.34601,"is_reserved":false,"is_disabled":false,"rental_uris":{"android":"levelo://app?vid=f679725c-01bf-4abc-9507-a3db4ff0f736","ios":"levelo://app?vid=f679725c-01bf-4abc-9507-a3db4ff0f736"},"vehicle_type_id":"4","last_reported":1756393833,"current_range_meters":19600,"station_id":"st_cvj6r9ubvosntc0bgbag","pricing_plan_id":"cebpf4jnsgd1na2vs0mg"},{"bike_id":"e66b3941-edc1-47d2-a508-6af05bed5109","system_id":"levelo_inurba_marseille","lat":43.225067,"lon":5.347846,"is_reserved":false,"is_disabled":false,"rental_uris":{"android":"levelo://app?vid=e66b3941-edc1-47d2-a508-6af05bed5109","ios":"levelo://app?vid=e66b3941-edc1-47d2-a508-6af05bed5109"},"vehicle_type_id":"4","last_reported":1756393833,"current_range_meters":19600,"station_id":"st_cvj5dfep6f1abm77gieg","pricing_plan_id":"cebpf4jnsgd1na2vs0mg"},{"bike_id":"cfae8bf5-8524-4351-9d7e-2cfd8f1c2161","system_id":"levelo_inurba_marseille","lat":43.29711,"lon":5.36619,"is_reserved":false,"is_disabled":false,"rental_uris":{"android":"levelo://app?vid=cfae8bf5-8524-4351-9d7e-2cfd8f1c2161","ios":"levelo://app?vid=cfae8bf5-8524-4351-9d7e-2cfd8f1c2161"},"vehicle_type_id":"4","last_reported":1756393833,"current_range_meters":20000,"station_id":"ce4bgn12rcd13ifvqbt0","pricing_plan_id":"cebpf4jnsgd1na2vs0mg"},{"bike_id":"d5c0016f-c98f-4940-b45a-884fc5cda2dc","system_id":"levelo_inurba_marseille","lat":43.29213,"lon":5.35778,"is_reserved":false,"is_disabled":false,"rental_uris":{"android":"levelo://app?vid=d5c0016f-c98f-4940-b45a-884fc5cda2dc","ios":"levelo://app?vid=d5c0016f-c98f-4940-b45a-884fc5cda2dc"},"vehicle_type_id":"4","last_reported":1756393833,"current_range_meters":20000,"station_id":"ce4bhb12rcd13ifvqel0","pricing_plan_id":"cebpf4jnsgd1na2vs0mg"},{"bike_id":"537f5b0b-0fe3-4c15-b7f7-a9a949871ca9","system_id":"levelo_inurba_marseille","lat":43.31228,"lon":5.36835,"is_reserved":false,"is_disabled":false,"rental_uris":{"android":"levelo://app?vid=537f5b0b-0fe3-4c15-b7f7-a9a949871ca9","ios":"levelo://app?vid=537f5b0b-0fe3-4c15-b7f7-a9a949871ca9"},"vehicle_type_id":"4","last_reported":1756393833,"current_range_meters":19200,"station_id":"ce4bgl92rcd13ifvqbq0","pricing_plan_id":"cebpf4jnsgd1na2vs0mg"},{"bike_id":"accf405b-2682-4904-9df4-770b6863aea0","system_id":"levelo_inurba_marseille","lat":43.29631,"lon":5.40593,"is_reserved":false,"is_disabled":false,"rental_uris":{"android":"levelo://app?vid=accf405b-2682-4904-9df4-770b6863aea0","ios":"levelo://app?vid=accf405b-2682-4904-9df4-770b6863aea0"},"vehicle_type_id":"4","last_reported":1756393833,"current_range_meters":20000,"station_id":"ce4bh0h2rcd13ifvqd60","pricing_plan_id":"cebpf4jnsgd1na2vs0mg"},{"bike_id":"cf89a04c-5132-4345-a151-d29b686950e0","system_id":"levelo_inurba_marseille","lat":43.26193,"lon":5.37448,"is_reserved":false,"is_disabled":false,"rental_uris":{"android":"levelo://app?vid=cf89a04c-5132-4345-a151-d29b686950e0","ios":"levelo://app?vid=cf89a04c-5132-4345-a151-d29b686950e0"},"vehicle_type_id":"4","last_reported":1756393833,"current_range_meters":20000,"station_id":"ce4bhgp2rcd13ifvqfc0","pricing_plan_id":"cebpf4jnsgd1na2vs0mg"},{"bike_id":"ef92bd80-be1c-4588-8888-0b42cadf016b","system_id":"levelo_inurba_marseille","lat":43.2657,"lon":5.37283,"is_reserved":false,"is_disabled":false,"rental_uris":{"android":"levelo://app?vid=ef92bd80-be1c-4588-8888-0b42cadf016b","ios":"levelo://app?vid=ef92bd80-be1c-4588-8888-0b42cadf016b"},"vehicle_type_id":"4","last_reported":1756393833,"current_range_meters":20000,"station_id":"ce4bhg12rcd13ifvqf70","pricing_plan_id":"cebpf4jnsgd1na2vs0mg"},{"bike_id":"258158f0-e507-44cf-9ba0-0bacc9740d7a","system_id":"levelo_inurba_marseille","lat":43.25318,"lon":5.42146,"is_reserved":false,"is_disabled":false,"rental_uris":{"android":"levelo://app?vid=258158f0-e507-44cf-9ba0-0bacc9740d7a","ios":"levelo://app?vid=258158f0-e507-44cf-9ba0-0bacc9740d7a"},"vehicle_type_id":"4","last_reported":1756393833,"current_range_meters":20000,"station_id":"st_d2m65c5bi1j21697t3ng","pricing_plan_id":"cebpf4jnsgd1na2vs0mg"},{"bike_id":"90346c2d-fc57-4cd6-8c01-888c8f7fba91","system_id":"levelo_inurba_marseille","lat":43.262,"lon":5.37426,"is_reserved":false,"is_disabled":false,"rental_uris":{"android":"levelo://app?vid=90346c2d-fc57-4cd6-8c01-888c8f7fba91","ios":"levelo://app?vid=90346c2d-fc57-4cd6-8c01-888c8f7fba91"},"vehicle_type_id":"4","last_reported":1756393833,"current_range_meters":20000,"station_id":"ce4bhgp2rcd13ifvqfc0","pricing_plan_id":"cebpf4jnsgd1na2vs0mg"},{"bike_id":"49345c7a-5951-422a-a9b5-25bfb2a91cd6","system_id":"levelo_inurba_marseille","lat":43.3372,"lon":5.39186,"is_reserved":false,"is_disabled":false,"rental_uris":{"android":"levelo://app?vid=49345c7a-5951-422a-a9b5-25bfb2a91cd6","ios":"levelo://app?vid=49345c7a-5951-422a-a9b5-25bfb2a91cd6"},"vehicle_type_id":"4","last_reported":1756393833,"current_range_meters":20000,"station_id":"ce4bhr92rcd13ifvqhsg","pricing_plan_id":"cebpf4jnsgd1na2vs0mg"},{"bike_id":"be56a579-3870-4545-85bd-dad43950a1f0","system_id":"levelo_inurba_marseille","lat":43.28159,"lon":5.42632,"is_reserved":false,"is_disabled":false,"rental_uris":{"android":"levelo://app?vid=be56a579-3870-4545-85bd-dad43950a1f0","ios":"levelo://app?vid=be56a579-3870-4545-85bd-dad43950a1f0"},"vehicle_type_id":"4","last_reported":1756393833,"current_range_meters":20000,"station_id":"ce4bhnh2rcd13ifvqgug","pricing_plan_id":"cebpf4jnsgd1na2vs0mg"},{"bike_id":"867f9ed5-fea7-449c-a65b-fb129c5fe1ad","system_id":"levelo_inurba_marseille","lat":43.26547,"lon":5.37292,"is_reserved":false,"is_disabled":false,"rental_uris":{"android":"levelo://app?vid=867f9ed5-fea7-449c-a65b-fb129c5fe1ad","ios":"levelo://app?vid=867f9ed5-fea7-449c-a65b-fb129c5fe1ad"},"vehicle_type_id":"4","last_reported":1756393833,"current_range_meters":20000,"station_id":"ce4bhg12rcd13ifvqf70","pricing_plan_id":"cebpf4jnsgd1na2vs0mg"},{"bike_id":"16790208-66fa-492b-b054-299839e8f997","system_id":"levelo_inurba_marseille","lat":43.280121,"lon":5.351555,"is_reserved":false,"is_disabled":false,"rental_uris":{"android":"levelo://app?vid=16790208-66fa-492b-b054-299839e8f997","ios":"levelo://app?vid=16790208-66fa-492b-b054-299839e8f997"},"vehicle_type_id":"4","last_reported":1756393833,"current_range_meters":20000,"station_id":"ce4bhbp2rcd13ifvqerg","pricing_plan_id":"cebpf4jnsgd1na2vs0mg"},{"bike_id":"f5f2ca21-5d95-4289-978c-eadf93ad3706","system_id":"levelo_inurba_marseille","lat":43.23139,"lon":5.43712,"is_reserved":false,"is_disabled":false,"rental_uris":{"android":"levelo://app?vid=f5f2ca21-5d95-4289-978c-eadf93ad3706","ios":"levelo://app?vid=f5f2ca21-5d95-4289-978c-eadf93ad3706"},"vehicle_type_id":"4","last_reported":1756393833,"current_range_meters":20000,"station_id":"ce4bhmp2rcd13ifvqgog","pricing_plan_id":"cebpf4jnsgd1na2vs0mg"},{"bike_id":"1d3ad676-0115-4bbe-973e-c2594b30f614","system_id":"levelo_inurba_marseille","lat":43.26546,"lon":5.37286,"is_reserved":false,"is_disabled":false,"rental_uris":{"android":"levelo://app?vid=1d3ad676-0115-4bbe-973e-c2594b30f614","ios":"levelo://app?vid=1d3ad676-0115-4bbe-973e-c2594b30f614"},"vehicle_type_id":"4","last_reported":1756393833,"current_range_meters":20400,"station_id":"ce4bhg12rcd13ifvqf70","pricing_plan_id":"cebpf4jnsgd1na2vs0mg"},{"bike_id":"12b8ba9b-f2f8-495b-856f-a8fd817c9e02","system_id":"levelo_inurba_marseille","lat":43.26555,"lon":5.37284,"is_reserved":false,"is_disabled":false,"rental_uris":{"android":"levelo://app?vid=12b8ba9b-f2f8-495b-856f-a8fd817c9e02","ios":"levelo://app?vid=12b8ba9b-f2f8-495b-856f-a8fd817c9e02"},"vehicle_type_id":"4","last_reported":1756393833,"current_range_meters":20400,"station_id":"ce4bhg12rcd13ifvqf70","pricing_plan_id":"cebpf4jnsgd1na2vs0mg"},{"bike_id":"305d89e7-3302-4c5f-bb96-5e73313f17c6","system_id":"levelo_inurba_marseille","lat":43.29271,"lon":5.38437,"is_reserved":false,"is_disabled":false,"rental_uris":{"android":"levelo://app?vid=305d89e7-3302-4c5f-bb96-5e73313f17c6","ios":"levelo://app?vid=305d89e7-3302-4c5f-bb96-5e73313f17c6"},"vehicle_type_id":"4","last_reported":1756393833,"current_range_meters":20400,"station_id":"ce4bh692rcd13ifvqea0","pricing_plan_id":"cebpf4jnsgd1na2vs0mg"},{"bike_id":"b8b5ab06-defc-4322-929c-c763e3c067c2","system_id":"levelo_inurba_marseille","lat":43.27205,"lon":5.39185,"is_reserved":false,"is_disabled":false,"rental_uris":{"android":"levelo://app?vid=b8b5ab06-defc-4322-929c-c763e3c067c2","ios":"levelo://app?vid=b8b5ab06-defc-4322-929c-c763e3c067c2"},"vehicle_type_id":"4","last_reported":1756393833,"current_range_meters":19600,"station_id":"ce4bhhp2rcd13ifvqfm0","pricing_plan_id":"cebpf4jnsgd1na2vs0mg"},{"bike_id":"0e8b7db4-0fae-4ef6-88ac-072506234498","system_id":"levelo_inurba_marseille","lat":43.25113,"lon":5.40325,"is_reserved":false,"is_disabled":false,"rental_uris":{"android":"levelo://app?vid=0e8b7db4-0fae-4ef6-88ac-072506234498","ios":"levelo://app?vid=0e8b7db4-0fae-4ef6-88ac-072506234498"},"vehicle_type_id":"4","last_reported":1756393833,"current_range_meters":20400,"station_id":"ce4bhlh2rcd13ifvqgig","pricing_plan_id":"cebpf4jnsgd1na2vs0mg"},{"bike_id":"de590f85-0b73-4be5-a83d-356a158bf59f","system_id":"levelo_inurba_marseille","lat":43.28707,"lon":5.39989,"is_reserved":false,"is_disabled":true,"rental_uris":{"android":"levelo://app?vid=de590f85-0b73-4be5-a83d-356a158bf59f","ios":"levelo://app?vid=de590f85-0b73-4be5-a83d-356a158bf59f"},"vehicle_type_id":"4","last_reported":1756393833,"current_range_meters":20400,"station_id":"ce4bho92rcd13ifvqh3g","pricing_plan_id":"cebpf4jnsgd1na2vs0mg"},{"bike_id":"c35dc4c5-869e-4bbf-9ed5-62fedbaa0d94","system_id":"levelo_inurba_marseille","lat":43.29262,"lon":5.40914,"is_reserved":false,"is_disabled":false,"rental_uris":{"android":"levelo://app?vid=c35dc4c5-869e-4bbf-9ed5-62fedbaa0d94","ios":"levelo://app?vid=c35dc4c5-869e-4bbf-9ed5-62fedbaa0d94"},"vehicle_type_id":"4","last_reported":1756393833,"current_range_meters":20400,"station_id":"ce4bh192rcd13ifvqdc0","pricing_plan_id":"cebpf4jnsgd1na2vs0mg"},{"bike_id":"a5cc61f9-6ab1-4983-b430-db412099bc42","system_id":"levelo_inurba_marseille","lat":43.28261,"lon":5.35068,"is_reserved":false,"is_disabled":false,"rental_uris":{"android":"levelo://app?vid=a5cc61f9-6ab1-4983-b430-db412099bc42","ios":"levelo://app?vid=a5cc61f9-6ab1-4983-b430-db412099bc42"},"vehicle_type_id":"4","last_reported":1756393833,"current_range_meters":20400,"station_id":"ce4bhbp2rcd13ifvqerg","pricing_plan_id":"cebpf4jnsgd1na2vs0mg"},{"bike_id":"97301b6f-85b9-42ad-a747-9304088516b2","system_id":"levelo_inurba_marseille","lat":43.253401,"lon":5.42174,"is_reserved":false,"is_disabled":false,"rental_uris":{"android":"levelo://app?vid=97301b6f-85b9-42ad-a747-9304088516b2","ios":"levelo://app?vid=97301b6f-85b9-42ad-a747-9304088516b2"},"vehicle_type_id":"4","last_reported":1756393833,"current_range_meters":20400,"station_id":"st_d2m65c5bi1j21697t3ng","pricing_plan_id":"cebpf4jnsgd1na2vs0mg"},{"bike_id":"8b2e61de-4fec-4abd-bc91-6e990d68ea0b","system_id":"levelo_inurba_marseille","lat":43.29622,"lon":5.37712,"is_reserved":false,"is_disabled":false,"rental_uris":{"android":"levelo://app?vid=8b2e61de-4fec-4abd-bc91-6e990d68ea0b","ios":"levelo://app?vid=8b2e61de-4fec-4abd-bc91-6e990d68ea0b"},"vehicle_type_id":"4","last_reported":1756393833,"current_range_meters":20400,"station_id":"ce4bgi92rcd13ifvqb90","pricing_plan_id":"cebpf4jnsgd1na2vs0mg"},{"bike_id":"0327bb9a-1795-45b9-ad81-b53d3a6fa010","system_id":"levelo_inurba_marseille","lat":43.26203,"lon":5.37445,"is_reserved":false,"is_disabled":false,"rental_uris":{"android":"levelo://app?vid=0327bb9a-1795-45b9-ad81-b53d3a6fa010","ios":"levelo://app?vid=0327bb9a-1795-45b9-ad81-b53d3a6fa010"},"vehicle_type_id":"4","last_reported":1756393833,"current_range_meters":20800,"station_id":"ce4bhgp2rcd13ifvqfc0","pricing_plan_id":"cebpf4jnsgd1na2vs0mg"},{"bike_id":"ed2c7433-e117-4b8c-a02b-c2050d24b82f","system_id":"levelo_inurba_marseille","lat":43.26221,"lon":5.37911,"is_reserved":false,"is_disabled":false,"rental_uris":{"android":"levelo://app?vid=ed2c7433-e117-4b8c-a02b-c2050d24b82f","ios":"levelo://app?vid=ed2c7433-e117-4b8c-a02b-c2050d24b82f"},"vehicle_type_id":"4","last_reported":1756393833,"current_range_meters":20800,"station_id":"ce4bhjp2rcd13ifvqg90","pricing_plan_id":"cebpf4jnsgd1na2vs0mg"},{"bike_id":"97141ed2-95c5-40d3-81b0-7891e4c788b5","system_id":"levelo_inurba_marseille","lat":43.30254,"lon":5.40076,"is_reserved":false,"is_disabled":false,"rental_uris":{"android":"levelo://app?vid=97141ed2-95c5-40d3-81b0-7891e4c788b5","ios":"levelo://app?vid=97141ed2-95c5-40d3-81b0-7891e4c788b5"},"vehicle_type_id":"4","last_reported":1756393833,"current_range_meters":20800,"station_id":"ce4bgvh2rcd13ifvqcs0","pricing_plan_id":"cebpf4jnsgd1na2vs0mg"},{"bike_id":"96f14abf-b6a1-4070-ae67-01d81046406c","system_id":"levelo_inurba_marseille","lat":43.2603,"lon":5.37546,"is_reserved":false,"is_disabled":false,"rental_uris":{"android":"levelo://app?vid=96f14abf-b6a1-4070-ae67-01d81046406c","ios":"levelo://app?vid=96f14abf-b6a1-4070-ae67-01d81046406c"},"vehicle_type_id":"4","last_reported":1756393833,"current_range_meters":20800,"station_id":"ce4bhgh2rcd13ifvqfa0","pricing_plan_id":"cebpf4jnsgd1na2vs0mg"},{"bike_id":"9fa7aa47-685c-4c7e-b787-10bb2551c504","system_id":"levelo_inurba_marseille","lat":43.299988,"lon":5.365607,"is_reserved":false,"is_disabled":false,"rental_uris":{"android":"levelo://app?vid=9fa7aa47-685c-4c7e-b787-10bb2551c504","ios":"levelo://app?vid=9fa7aa47-685c-4c7e-b787-10bb2551c504"},"vehicle_type_id":"4","last_reported":1756393833,"current_range_meters":20800,"station_id":"ce4bgm92rcd13ifvqbr0","pricing_plan_id":"cebpf4jnsgd1na2vs0mg"},{"bike_id":"cc985795-75c3-4408-a691-40cd51e29e2c","system_id":"levelo_inurba_marseille","lat":43.30148,"lon":5.37414,"is_reserved":false,"is_disabled":false,"rental_uris":{"android":"levelo://app?vid=cc985795-75c3-4408-a691-40cd51e29e2c","ios":"levelo://app?vid=cc985795-75c3-4408-a691-40cd51e29e2c"},"vehicle_type_id":"4","last_reported":1756393833,"current_range_meters":20800,"station_id":"ce4bgs92rcd13ifvqcc0","pricing_plan_id":"cebpf4jnsgd1na2vs0mg"},{"bike_id":"57936923-fa01-459f-8d83-3d7ebcb6986c","system_id":"levelo_inurba_marseille","lat":43.30137,"lon":5.37415,"is_reserved":false,"is_disabled":false,"rental_uris":{"android":"levelo://app?vid=57936923-fa01-459f-8d83-3d7ebcb6986c","ios":"levelo://app?vid=57936923-fa01-459f-8d83-3d7ebcb6986c"},"vehicle_type_id":"4","last_reported":1756393833,"current_range_meters":20800,"station_id":"ce4bgs92rcd13ifvqcc0","pricing_plan_id":"cebpf4jnsgd1na2vs0mg"},{"bike_id":"0e16483d-7c29-42d6-90d2-d9cb7ef31592","system_id":"levelo_inurba_marseille","lat":43.32362,"lon":5.36763,"is_reserved":false,"is_disabled":false,"rental_uris":{"android":"levelo://app?vid=0e16483d-7c29-42d6-90d2-d9cb7ef31592","ios":"levelo://app?vid=0e16483d-7c29-42d6-90d2-d9cb7ef31592"},"vehicle_type_id":"4","last_reported":1756393833,"current_range_meters":20800,"station_id":"ce4bhsh2rcd13ifvqi2g","pricing_plan_id":"cebpf4jnsgd1na2vs0mg"},{"bike_id":"3e765edb-cd7d-46b0-970f-fb944b15e667","system_id":"levelo_inurba_marseille","lat":43.29975,"lon":5.37184,"is_reserved":false,"is_disabled":false,"rental_uris":{"android":"levelo://app?vid=3e765edb-cd7d-46b0-970f-fb944b15e667","ios":"levelo://app?vid=3e765edb-cd7d-46b0-970f-fb944b15e667"},"vehicle_type_id":"4","last_reported":1756393833,"current_range_meters":21600,"station_id":"ce4bgr92rcd13ifvqc7g","pricing_plan_id":"cebpf4jnsgd1na2vs0mg"},{"bike_id":"877d4ff2-8e4e-4dd8-9f9d-3f576d35b87a","system_id":"levelo_inurba_marseille","lat":43.29379,"lon":5.37855,"is_reserved":false,"is_disabled":true,"rental_uris":{"android":"levelo://app?vid=877d4ff2-8e4e-4dd8-9f9d-3f576d35b87a","ios":"levelo://app?vid=877d4ff2-8e4e-4dd8-9f9d-3f576d35b87a"},"vehicle_type_id":"4","last_reported":1756393833,"current_range_meters":21600,"station_id":"ce4bgjh2rcd13ifvqbf0","pricing_plan_id":"cebpf4jnsgd1na2vs0mg"},{"bike_id":"22e714a6-2031-4bbf-a7b9-f7ccad5196bd","system_id":"levelo_inurba_marseille","lat":43.23151,"lon":5.43719,"is_reserved":false,"is_disabled":false,"rental_uris":{"android":"levelo://app?vid=22e714a6-2031-4bbf-a7b9-f7ccad5196bd","ios":"levelo://app?vid=22e714a6-2031-4bbf-a7b9-f7ccad5196bd"},"vehicle_type_id":"4","last_reported":1756393833,"current_range_meters":21600,"station_id":"ce4bhmp2rcd13ifvqgog","pricing_plan_id":"cebpf4jnsgd1na2vs0mg"},{"bike_id":"ab4879ea-14fc-4274-854e-6eabdbab2245","system_id":"levelo_inurba_marseille","lat":43.26228,"lon":5.37431,"is_reserved":false,"is_disabled":false,"rental_uris":{"android":"levelo://app?vid=ab4879ea-14fc-4274-854e-6eabdbab2245","ios":"levelo://app?vid=ab4879ea-14fc-4274-854e-6eabdbab2245"},"vehicle_type_id":"4","last_reported":1756393833,"current_range_meters":21600,"station_id":"ce4bhgp2rcd13ifvqfc0","pricing_plan_id":"cebpf4jnsgd1na2vs0mg"},{"bike_id":"94469496-96ae-450e-adaf-a7663bfd0e82","system_id":"levelo_inurba_marseille","lat":43.33767,"lon":5.37469,"is_reserved":false,"is_disabled":false,"rental_uris":{"android":"levelo://app?vid=94469496-96ae-450e-adaf-a7663bfd0e82","ios":"levelo://app?vid=94469496-96ae-450e-adaf-a7663bfd0e82"},