{"last_updated":1725999011,"ttl":30,"version":"2.2","data":{"bikes":[{"bike_id":"ad6bf416-b55c-43b7-96c7-93e17daa3e25","system_id":"levelo_inurba_marseille","lat":43.30794,"lon":5.38164,"is_reserved":false,"is_disabled":false,"rental_uris":{"android":"levelo://app?vid=ad6bf416-b55c-43b7-96c7-93e17daa3e25","ios":"levelo://app?vid=ad6bf416-b55c-43b7-96c7-93e17daa3e25"},"vehicle_type_id":"4","last_reported":1725999012,"current_range_meters":6800,"station_id":"ce4bgt12rcd13ifvqce0","pricing_plan_id":"cebpf4jnsgd1na2vs0mg"},{"bike_id":"6b37cc6a-1e43-457d-8d4a-5df9507b82a4","system_id":"levelo_inurba_marseille","lat":43.287915,"lon":5.391304,"is_reserved":false,"is_disabled":false,"rental_uris":{"android":"levelo://app?vid=6b37cc6a-1e43-457d-8d4a-5df9507b82a4","ios":"levelo://app?vid=6b37cc6a-1e43-457d-8d4a-5df9507b82a4"},"vehicle_type_id":"4","last_reported":1725999012,"current_range_meters":32000,"station_id":"ce4bh192rcd13ifvqdc0","pricing_plan_id":"cebpf4jnsgd1na2vs0mg"},{"bike_id":"8baf78c1-8fc6-48c8-84a2-7b5ce34657ff","system_id":"levelo_inurba_marseille","lat":43.31378,"lon":5.3849,"is_reserved":false,"is_disabled":false,"rental_uris":{"android":"levelo://app?vid=8baf78c1-8fc6-48c8-84a2-7b5ce34657ff","ios":"levelo://app?vid=8baf78c1-8fc6-48c8-84a2-7b5ce34657ff"},"vehicle_type_id":"4","last_reported":1725999012,"current_range_meters":34000,"station_id":"ce4bgt92rcd13ifvqcf0","pricing_plan_id":"cebpf4jnsgd1na2vs0mg"},{"bike_id":"ae764c61-26f3-4559-afd1-6a8589a0aa9d","system_id":"levelo_inurba_marseille","lat":43.31753,"lon":5.39025,"is_reserved":false,"is_disabled":false,"rental_uris":{"android":"levelo://app?vid=ae764c61-26f3-4559-afd1-6a8589a0aa9d","ios":"levelo://app?vid=ae764c61-26f3-4559-afd1-6a8589a0aa9d"},"vehicle_type_id":"4","last_reported":1725999012,"current_range_meters":26800,"station_id":"ce4bhqp2rcd13ifvqhng","pricing_plan_id":"cebpf4jnsgd1na2vs0mg"},{"bike_id":"98853777-d7dc-4787-9f4a-01bd8b5d05f1","system_id":"levelo_inurba_marseille","lat":43.29578,"lon":5.399975,"is_reserved":false,"is_disabled":false,"rental_uris":{"android":"levelo://app?vid=98853777-d7dc-4787-9f4a-01bd8b5d05f1","ios":"levelo://app?vid=98853777-d7dc-4787-9f4a-01bd8b5d05f1"},"vehicle_type_id":"4","last_reported":1725999012,"current_range_meters":28400,"station_id":"ce4bh312rcd13ifvqdj0","pricing_plan_id":"cebpf4jnsgd1na2vs0mg"},{"bike_id":"6507d735-102e-4287-b4e7-9c56322128b5","system_id":"levelo_inurba_marseille","lat":43.27567,"lon":5.38419,"is_reserved":false,"is_disabled":false,"rental_uris":{"android":"levelo://app?vid=6507d735-102e-4287-b4e7-9c56322128b5","ios":"levelo://app?vid=6507d735-102e-4287-b4e7-9c56322128b5"},"vehicle_type_id":"4","last_reported":1725999012,"current_range_meters":16800,"station_id":"ce4bhh92rcd13ifvqfi0","pricing_plan_id":"cebpf4jnsgd1na2vs0mg"},{"bike_id":"9b4e0646-c8d7-4d7f-a814-9f0e924b4926","system_id":"levelo_inurba_marseille","lat":43.28708,"lon":5.37389,"is_reserved":false,"is_disabled":false,"rental_uris":{"android":"levelo://app?vid=9b4e0646-c8d7-4d7f-a814-9f0e924b4926","ios":"levelo://app?vid=9b4e0646-c8d7-4d7f-a814-9f0e924b4926"},"vehicle_type_id":"4","last_reported":1725999012,"current_range_meters":14400,"station_id":"ce4bh3p2rcd13ifvqdq0","pricing_plan_id":"cebpf4jnsgd1na2vs0mg"},{"bike_id":"95e7fdc8-bf5f-4f9c-aaac-a84bae7d977c","system_id":"levelo_inurba_marseille","lat":43.27065,"lon":5.42278,"is_reserved":false,"is_disabled":false,"rental_uris":{"android":"levelo://app?vid=95e7fdc8-bf5f-4f9c-aaac-a84bae7d977c","ios":"levelo://app?vid=95e7fdc8-bf5f-4f9c-aaac-a84bae7d977c"},"vehicle_type_id":"4","last_reported":1725999012,"current_range_meters":38000,"station_id":"ce4bhk92rcd13ifvqgb0","pricing_plan_id":"cebpf4jnsgd1na2vs0mg"},{"bike_id":"760450d1-6ebf-4ce6-817b-3157d0d05007","system_id":"levelo_inurba_marseille","lat":43.29514,"lon":5.39035,"is_reserved":false,"is_disabled":false,"rental_uris":{"android":"levelo://app?vid=760450d1-6ebf-4ce6-817b-3157d0d05007","ios":"levelo://app?vid=760450d1-6ebf-4ce6-817b-3157d0d05007"},"vehicle_type_id":"4","last_reported":1725999012,"current_range_meters":38800,"station_id":"ce4bh3p2rcd13ifvqdp0","pricing_plan_id":"cebpf4jnsgd1na2vs0mg"},{"bike_id":"f34747ce-f309-4326-987e-7bc67d09e8c3","system_id":"levelo_inurba_marseille","lat":43.32289,"lon":5.38272,"is_reserved":false,"is_disabled":false,"rental_uris":{"android":"levelo://app?vid=f34747ce-f309-4326-987e-7bc67d09e8c3","ios":"levelo://app?vid=f34747ce-f309-4326-987e-7bc67d09e8c3"},"vehicle_type_id":"4","last_reported":1725999012,"current_range_meters":38400,"station_id":"ce4bhr12rcd13ifvqhqg","pricing_plan_id":"cebpf4jnsgd1na2vs0mg"},{"bike_id":"962bb7a3-05a7-49bc-9a49-5d193216f960","system_id":"levelo_inurba_marseille","lat":43.31763,"lon":5.39021,"is_reserved":false,"is_disabled":false,"rental_uris":{"android":"levelo://app?vid=962bb7a3-05a7-49bc-9a49-5d193216f960","ios":"levelo://app?vid=962bb7a3-05a7-49bc-9a49-5d193216f960"},"vehicle_type_id":"4","last_reported":1725999012,"current_range_meters":28400,"station_id":"ce4bhqp2rcd13ifvqhng","pricing_plan_id":"cebpf4jnsgd1na2vs0mg"},{"bike_id":"3a610c72-f44c-428a-ba87-6ec4a94fc829","system_id":"levelo_inurba_marseille","lat":43.29219,"lon":5.36052,"is_reserved":false,"is_disabled":false,"rental_uris":{"android":"levelo://app?vid=3a610c72-f44c-428a-ba87-6ec4a94fc829","ios":"levelo://app?vid=3a610c72-f44c-428a-ba87-6ec4a94fc829"},"vehicle_type_id":"4","last_reported":1725999012,"current_range_meters":36000,"station_id":"ce4bhbh2rcd13ifvqeqg","pricing_plan_id":"cebpf4jnsgd1na2vs0mg"},{"bike_id":"ee4607c9-6955-4e13-b7d5-aec07ce4d086","system_id":"levelo_inurba_marseille","lat":43.3169,"lon":5.40485,"is_reserved":false,"is_disabled":false,"rental_uris":{"android":"levelo://app?vid=ee4607c9-6955-4e13-b7d5-aec07ce4d086","ios":"levelo://app?vid=ee4607c9-6955-4e13-b7d5-aec07ce4d086"},"vehicle_type_id":"4","last_reported":1725999012,"current_range_meters":17200,"station_id":"ce4bh012rcd13ifvqd00","pricing_plan_id":"cebpf4jnsgd1na2vs0mg"},{"bike_id":"24f8399c-3f6b-4afe-b89d-f716cc994be8","system_id":"levelo_inurba_marseille","lat":43.28449,"lon":5.35889,"is_reserved":false,"is_disabled":false,"rental_uris":{"android":"levelo://app?vid=24f8399c-3f6b-4afe-b89d-f716cc994be8","ios":"levelo://app?vid=24f8399c-3f6b-4afe-b89d-f716cc994be8"},"vehicle_type_id":"4","last_reported":1725999012,"current_range_meters":38800,"station_id":"ce4bhah2rcd13ifvqei0","pricing_plan_id":"cebpf4jnsgd1na2vs0mg"},{"bike_id":"a5378d9e-ab88-4132-955c-51d09adec59d","system_id":"levelo_inurba_marseille","lat":43.28036,"lon":5.36945,"is_reserved":false,"is_disabled":false,"rental_uris":{"android":"levelo://app?vid=a5378d9e-ab88-4132-955c-51d09adec59d","ios":"levelo://app?vid=a5378d9e-ab88-4132-955c-51d09adec59d"},"vehicle_type_id":"4","last_reported":1725999012,"current_range_meters":37600,"station_id":"ce4bha12rcd13ifvqef0","pricing_plan_id":"cebpf4jnsgd1na2vs0mg"},{"bike_id":"79c048a7-5de8-4f6b-a4ee-caa7e8248925","system_id":"levelo_inurba_marseille","lat":43.24072,"lon":5.37765,"is_reserved":false,"is_disabled":false,"rental_uris":{"android":"levelo://app?vid=79c048a7-5de8-4f6b-a4ee-caa7e8248925","ios":"levelo://app?vid=79c048a7-5de8-4f6b-a4ee-caa7e8248925"},"vehicle_type_id":"4","last_reported":1725999012,"current_range_meters":24800,"station_id":"ce4bhnp2rcd13ifvqgvg","pricing_plan_id":"cebpf4jnsgd1na2vs0mg"},{"bike_id":"6c02a711-e0d4-4009-9d44-fba5428f55b2","system_id":"levelo_inurba_marseille","lat":43.23193,"lon":5.35557,"is_reserved":false,"is_disabled":false,"rental_uris":{"android":"levelo://app?vid=6c02a711-e0d4-4009-9d44-fba5428f55b2","ios":"levelo://app?vid=6c02a711-e0d4-4009-9d44-fba5428f55b2"},"vehicle_type_id":"4","last_reported":1725999012,"current_range_meters":8000,"station_id":"ce4bhu92rcd13ifvqi70","pricing_plan_id":"cebpf4jnsgd1na2vs0mg"},{"bike_id":"be1826e9-54cd-4f89-b161-981acf4a2010","system_id":"levelo_inurba_marseille","lat":43.287,"lon":5.3739,"is_reserved":false,"is_disabled":false,"rental_uris":{"android":"levelo://app?vid=be1826e9-54cd-4f89-b161-981acf4a2010","ios":"levelo://app?vid=be1826e9-54cd-4f89-b161-981acf4a2010"},"vehicle_type_id":"4","last_reported":1725999012,"current_range_meters":6000,"station_id":"ce4bh3p2rcd13ifvqdq0","pricing_plan_id":"cebpf4jnsgd1na2vs0mg"},{"bike_id":"94fc363a-6381-44ae-99ed-b883e863bbe6","system_id":"levelo_inurba_marseille","lat":43.30883,"lon":5.39641,"is_reserved":false,"is_disabled":false,"rental_uris":{"android":"levelo://app?vid=94fc363a-6381-44ae-99ed-b883e863bbe6","ios":"levelo://app?vid=94fc363a-6381-44ae-99ed-b883e863bbe6"},"vehicle_type_id":"4","last_reported":1725999012,"current_range_meters":4000,"station_id":"ce4bh012rcd13ifvqcv0","pricing_plan_id":"cebpf4jnsgd1na2vs0mg"},{"bike_id":"b59d6bb8-aefb-4db8-b3f2-f169f342ddcd","system_id":"levelo_inurba_marseille","lat":43.32364,"lon":5.38889,"is_reserved":false,"is_disabled":false,"rental_uris":{"android":"levelo://app?vid=b59d6bb8-aefb-4db8-b3f2-f169f342ddcd","ios":"levelo://app?vid=b59d6bb8-aefb-4db8-b3f2-f169f342ddcd"},"vehicle_type_id":"4","last_reported":1725999012,"current_range_meters":6800,"station_id":"ce4bhqp2rcd13ifvqhog","pricing_plan_id":"cebpf4jnsgd1na2vs0mg"},{"bike_id":"c1c595d0-b2ab-4114-872f-fba82538d4d5","system_id":"levelo_inurba_marseille","lat":43.29623,"lon":5.37156,"is_reserved":false,"is_disabled":false,"rental_uris":{"android":"levelo://app?vid=c1c595d0-b2ab-4114-872f-fba82538d4d5","ios":"levelo://app?vid=c1c595d0-b2ab-4114-872f-fba82538d4d5"},"vehicle_type_id":"4","last_reported":1725999012,"current_range_meters":2000,"station_id":"ce4bgnh2rcd13ifvqc0g","pricing_plan_id":"cebpf4jnsgd1na2vs0mg"},{"bike_id":"867ea88a-a23b-4c91-807e-6caa2a30c9fa","system_id":"levelo_inurba_marseille","lat":43.26212,"lon":5.37449,"is_reserved":false,"is_disabled":false,"rental_uris":{"android":"levelo://app?vid=867ea88a-a23b-4c91-807e-6caa2a30c9fa","ios":"levelo://app?vid=867ea88a-a23b-4c91-807e-6caa2a30c9fa"},"vehicle_type_id":"4","last_reported":1725999012,"current_range_meters":38800,"station_id":"ce4bhgp2rcd13ifvqfc0","pricing_plan_id":"cebpf4jnsgd1na2vs0mg"},{"bike_id":"dda4c138-678e-4beb-8c1c-7229be4997a5","system_id":"levelo_inurba_marseille","lat":43.26191,"lon":5.37457,"is_reserved":false,"is_disabled":false,"rental_uris":{"android":"levelo://app?vid=dda4c138-678e-4beb-8c1c-7229be4997a5","ios":"levelo://app?vid=dda4c138-678e-4beb-8c1c-7229be4997a5"},"vehicle_type_id":"4","last_reported":1725999012,"current_range_meters":27600,"station_id":"ce4bhgp2rcd13ifvqfc0","pricing_plan_id":"cebpf4jnsgd1na2vs0mg"},{"bike_id":"f6b6d30e-4c16-4193-9586-f8113cecda4f","system_id":"levelo_inurba_marseille","lat":43.29705,"lon":5.36604,"is_reserved":false,"is_disabled":false,"rental_uris":{"android":"levelo://app?vid=f6b6d30e-4c16-4193-9586-f8113cecda4f","ios":"levelo://app?vid=f6b6d30e-4c16-4193-9586-f8113cecda4f"},"vehicle_type_id":"4","last_reported":1725999012,"current_range_meters":24400,"station_id":"ce4bgn12rcd13ifvqbt0","pricing_plan_id":"cebpf4jnsgd1na2vs0mg"},{"bike_id":"9577f82d-1959-4ed4-b0a2-91eb4deb8d67","system_id":"levelo_inurba_marseille","lat":43.28927,"lon":5.38408,"is_reserved":false,"is_disabled":false,"rental_uris":{"android":"levelo://app?vid=9577f82d-1959-4ed4-b0a2-91eb4deb8d67","ios":"levelo://app?vid=9577f82d-1959-4ed4-b0a2-91eb4deb8d67"},"vehicle_type_id":"4","last_reported":1725999012,"current_range_meters":23200,"station_id":"ce4bh612rcd13ifvqe6g","pricing_plan_id":"cebpf4jnsgd1na2vs0mg"},{"bike_id":"d94cf20d-19e4-4d88-bbb3-72b7a4c6baa3","system_id":"levelo_inurba_marseille","lat":43.32294,"lon":5.38263,"is_reserved":false,"is_disabled":false,"rental_uris":{"android":"levelo://app?vid=d94cf20d-19e4-4d88-bbb3-72b7a4c6baa3","ios":"levelo://app?vid=d94cf20d-19e4-4d88-bbb3-72b7a4c6baa3"},"vehicle_type_id":"4","last_reported":1725999012,"current_range_meters":37600,"station_id":"ce4bhr12rcd13ifvqhqg","pricing_plan_id":"cebpf4jnsgd1na2vs0mg"},{"bike_id":"8930af26-ed76-44d9-be2c-cc4a9c3c9ba6","system_id":"levelo_inurba_marseille","lat":43.29526,"lon":5.38537,"is_reserved":false,"is_disabled":false,"rental_uris":{"android":"levelo://app?vid=8930af26-ed76-44d9-be2c-cc4a9c3c9ba6","ios":"levelo://app?vid=8930af26-ed76-44d9-be2c-cc4a9c3c9ba6"},"vehicle_type_id":"4","last_reported":1725999012,"current_range_meters":24400,"station_id":"ce4bgih2rcd13ifvqba0","pricing_plan_id":"cebpf4jnsgd1na2vs0mg"},{"bike_id":"00ca710c-aa25-453d-b5eb-9286e939dc6d","system_id":"levelo_inurba_marseille","lat":43.2955,"lon":5.42293,"is_reserved":false,"is_disabled":false,"rental_uris":{"android":"levelo://app?vid=00ca710c-aa25-453d-b5eb-9286e939dc6d","ios":"levelo://app?vid=00ca710c-aa25-453d-b5eb-9286e939dc6d"},"vehicle_type_id":"4","last_reported":1725999012,"current_range_meters":18800,"station_id":"ce4bhph2rcd13ifvqhdg","pricing_plan_id":"cebpf4jnsgd1na2vs0mg"},{"bike_id":"a36a6131-7175-4d21-afcf-16a3b952996a","system_id":"levelo_inurba_marseille","lat":43.3082,"lon":5.37648,"is_reserved":false,"is_disabled":false,"rental_uris":{"android":"levelo://app?vid=a36a6131-7175-4d21-afcf-16a3b952996a","ios":"levelo://app?vid=a36a6131-7175-4d21-afcf-16a3b952996a"},"vehicle_type_id":"4","last_reported":1725999012,"current_range_meters":14000,"station_id":"ce4bgv92rcd13ifvqcq0","pricing_plan_id":"cebpf4jnsgd1na2vs0mg"},{"bike_id":"2e23597d-e77d-486c-a95e-6cdb71b1bd53","system_id":"levelo_inurba_marseille","lat":43.32364,"lon":5.3889,"is_reserved":false,"is_disabled":false,"rental_uris":{"android":"levelo://app?vid=2e23597d-e77d-486c-a95e-6cdb71b1bd53","ios":"levelo://app?vid=2e23597d-e77d-486c-a95e-6cdb71b1bd53"},"vehicle_type_id":"4","last_reported":1725999012,"current_range_meters":12800,"station_id":"ce4bhqp2rcd13ifvqhog","pricing_plan_id":"cebpf4jnsgd1na2vs0mg"},{"bike_id":"6f5d08a7-08df-4151-8e9d-fdd31232ca98","system_id":"levelo_inurba_marseille","lat":43.29568,"lon":5.37523,"is_reserved":false,"is_disabled":false,"rental_uris":{"android":"levelo://app?vid=6f5d08a7-08df-4151-8e9d-fdd31232ca98","ios":"levelo://app?vid=6f5d08a7-08df-4151-8e9d-fdd31232ca98"},"vehicle_type_id":"4","last_reported":1725999012,"current_range_meters":16800,"station_id":"ce4bgh92rcd13ifvqb50","pricing_plan_id":"cebpf4jnsgd1na2vs0mg"},{"bike_id":"8402d7db-4a27-4b09-aab9-d930a715f8b6","system_id":"levelo_inurba_marseille","lat":43.307974,"lon":5.435251,"is_reserved":false,"is_disabled":false,"rental_uris":{"android":"levelo://app?vid=8402d7db-4a27-4b09-aab9-d930a715f8b6","ios":"levelo://app?vid=8402d7db-4a27-4b09-aab9-d930a715f8b6"},"vehicle_type_id":"4","last_reported":1725999012,"current_range_meters":10800,"station_id":"ce4bgjh2rcd13ifvqbf0","pricing_plan_id":"cebpf4jnsgd1na2vs0mg"},{"bike_id":"08b8b9a2-06d7-4315-b541-8aaf2076190d","system_id":"levelo_inurba_marseille","lat":43.30434,"lon":5.38893,"is_reserved":false,"is_disabled":false,"rental_uris":{"android":"levelo://app?vid=08b8b9a2-06d7-4315-b541-8aaf2076190d","ios":"levelo://app?vid=08b8b9a2-06d7-4315-b541-8aaf2076190d"},"vehicle_type_id":"4","last_reported":1725999012,"current_range_meters":2800,"station_id":"ce4bgk12rcd13ifvqbi0","pricing_plan_id":"cebpf4jnsgd1na2vs0mg"},{"bike_id":"af29e765-80ea-48b7-873e-9075e9bf27db","system_id":"levelo_inurba_marseille","lat":43.280313,"lon":5.369541,"is_reserved":false,"is_disabled":false,"rental_uris":{"android":"levelo://app?vid=af29e765-80ea-48b7-873e-9075e9bf27db","ios":"levelo://app?vid=af29e765-80ea-48b7-873e-9075e9bf27db"},"vehicle_type_id":"4","last_reported":1725999012,"current_range_meters":18800,"station_id":"ce4bha12rcd13ifvqef0","pricing_plan_id":"cebpf4jnsgd1na2vs0mg"},{"bike_id":"6ac0385a-09c3-4112-8eb3-5351bb9c2a07","system_id":"levelo_inurba_marseille","lat":43.28461,"lon":5.35894,"is_reserved":false,"is_disabled":false,"rental_uris":{"android":"levelo://app?vid=6ac0385a-09c3-4112-8eb3-5351bb9c2a07","ios":"levelo://app?vid=6ac0385a-09c3-4112-8eb3-5351bb9c2a07"},"vehicle_type_id":"4","last_reported":1725999012,"current_range_meters":39200,"station_id":"ce4bhah2rcd13ifvqei0","pricing_plan_id":"cebpf4jnsgd1na2vs0mg"},{"bike_id":"248deba1-f7ff-40fd-8c4e-cb3e670bcd1f","system_id":"levelo_inurba_marseille","lat":43.29005,"lon":5.35605,"is_reserved":false,"is_disabled":false,"rental_uris":{"android":"levelo://app?vid=248deba1-f7ff-40fd-8c4e-cb3e670bcd1f","ios":"levelo://app?vid=248deba1-f7ff-40fd-8c4e-cb3e670bcd1f"},"vehicle_type_id":"4","last_reported":1725999012,"current_range_meters":6000,"station_id":"ce4bhb92rcd13ifvqen0","pricing_plan_id":"cebpf4jnsgd1na2vs0mg"},{"bike_id":"b77681a4-4ed0-4be8-bbd7-2dc7c4cd333c","system_id":"levelo_inurba_marseille","lat":43.31755,"lon":5.39024,"is_reserved":false,"is_disabled":false,"rental_uris":{"android":"levelo://app?vid=b77681a4-4ed0-4be8-bbd7-2dc7c4cd333c","ios":"levelo://app?vid=b77681a4-4ed0-4be8-bbd7-2dc7c4cd333c"},"vehicle_type_id":"4","last_reported":1725999012,"current_range_meters":32400,"station_id":"ce4bhqp2rcd13ifvqhng","pricing_plan_id":"cebpf4jnsgd1na2vs0mg"},{"bike_id":"04b7cbd5-975d-4eea-90e4-48fc0b9f7ab9","system_id":"levelo_inurba_marseille","lat":43.30607,"lon":5.37226,"is_reserved":false,"is_disabled":false,"rental_uris":{"android":"levelo://app?vid=04b7cbd5-975d-4eea-90e4-48fc0b9f7ab9","ios":"levelo://app?vid=04b7cbd5-975d-4eea-90e4-48fc0b9f7ab9"},"vehicle_type_id":"4","last_reported":1725999012,"current_range_meters":12000,"station_id":"ce4bgqh2rcd13ifvqc4g","pricing_plan_id":"cebpf4jnsgd1na2vs0mg"},{"bike_id":"044c6c19-928b-49be-810d-1a1364296b66","system_id":"levelo_inurba_marseille","lat":43.27811,"lon":5.40711,"is_reserved":false,"is_disabled":false,"rental_uris":{"android":"levelo://app?vid=044c6c19-928b-49be-810d-1a1364296b66","ios":"levelo://app?vid=044c6c19-928b-49be-810d-1a1364296b66"},"vehicle_type_id":"4","last_reported":1725999012,"current_range_meters":22800,"station_id":"ce4bhnh2rcd13ifvqgtg","pricing_plan_id":"cebpf4jnsgd1na2vs0mg"},{"bike_id":"eefefcc6-11cd-4d33-991c-12b4a6414c9b","system_id":"levelo_inurba_marseille","lat":43.28031,"lon":5.36951,"is_reserved":false,"is_disabled":false,"rental_uris":{"android":"levelo://app?vid=eefefcc6-11cd-4d33-991c-12b4a6414c9b","ios":"levelo://app?vid=eefefcc6-11cd-4d33-991c-12b4a6414c9b"},"vehicle_type_id":"4","last_reported":1725999012,"current_range_meters":39200,"station_id":"ce4bha12rcd13ifvqef0","pricing_plan_id":"cebpf4jnsgd1na2vs0mg"},{"bike_id":"858ecae4-d589-4b0f-84be-17e562d1d19e","system_id":"levelo_inurba_marseille","lat":43.27998,"lon":5.40009,"is_reserved":false,"is_disabled":false,"rental_uris":{"android":"levelo://app?vid=858ecae4-d589-4b0f-84be-17e562d1d19e","ios":"levelo://app?vid=858ecae4-d589-4b0f-84be-17e562d1d19e"},"vehicle_type_id":"4","last_reported":1725999012,"current_range_meters":30800,"station_id":"ce4bho92rcd13ifvqh4g","pricing_plan_id":"cebpf4jnsgd1na2vs0mg"},{"bike_id":"f1ea8c6f-65c6-4c34-b89c-98dd712d80c3","system_id":"levelo_inurba_marseille","lat":43.24073,"lon":5.37749,"is_reserved":false,"is_disabled":false,"rental_uris":{"android":"levelo://app?vid=f1ea8c6f-65c6-4c34-b89c-98dd712d80c3","ios":"levelo://app?vid=f1ea8c6f-65c6-4c34-b89c-98dd712d80c3"},"vehicle_type_id":"4","last_reported":1725999012,"current_range_meters":25600,"station_id":"ce4bhnp2rcd13ifvqgvg","pricing_plan_id":"cebpf4jnsgd1na2vs0mg"},{"bike_id":"26e80ead-dabb-40ba-8f52-4aba5be0a730","system_id":"levelo_inurba_marseille","lat":43.29874,"lon":5.38899,"is_reserved":false,"is_disabled":false,"rental_uris":{"android":"levelo://app?vid=26e80ead-dabb-40ba-8f52-4aba5be0a730","ios":"levelo://app?vid=26e80ead-dabb-40ba-8f52-4aba5be0a730"},"vehicle_type_id":"4","last_reported":1725999012,"current_range_meters":19600,"station_id":"ce4bh392rcd13ifvqdl0","pricing_plan_id":"cebpf4jnsgd1na2vs0mg"},{"bike_id":"ddec4860-1793-4c53-9e57-33acb664ce05","system_id":"levelo_inurba_marseille","lat":43.29533,"lon":5.38539,"is_reserved":false,"is_disabled":false,"rental_uris":{"android":"levelo://app?vid=ddec4860-1793-4c53-9e57-33acb664ce05","ios":"levelo://app?vid=ddec4860-1793-4c53-9e57-33acb664ce05"},"vehicle_type_id":"4","last_reported":1725999012,"current_range_meters":39200,"station_id":"ce4bgih2rcd13ifvqba0","pricing_plan_id":"cebpf4jnsgd1na2vs0mg"},{"bike_id":"a66ccd7c-372a-4050-91f9-196b1f0c960a","system_id":"levelo_inurba_marseille","lat":43.28366,"lon":5.38647,"is_reserved":false,"is_disabled":false,"rental_uris":{"android":"levelo://app?vid=a66ccd7c-372a-4050-91f9-196b1f0c960a","ios":"levelo://app?vid=a66ccd7c-372a-4050-91f9-196b1f0c960a"},"vehicle_type_id":"4","last_reported":1725999012,"current_range_meters":26000,"station_id":"ce4bh492rcd13ifvqdvg","pricing_plan_id":"cebpf4jnsgd1na2vs0mg"},{"bike_id":"6db7e6fa-4577-49b1-a4d8-ceb689488062","system_id":"levelo_inurba_marseille","lat":43.29792,"lon":5.39343,"is_reserved":false,"is_disabled":false,"rental_uris":{"android":"levelo://app?vid=6db7e6fa-4577-49b1-a4d8-ceb689488062","ios":"levelo://app?vid=6db7e6fa-4577-49b1-a4d8-ceb689488062"},"vehicle_type_id":"4","last_reported":1725999012,"current_range_meters":22000,"station_id":"chh1huq6cuj3fo74tm60","pricing_plan_id":"cebpf4jnsgd1na2vs0mg"},{"bike_id":"5d352641-3593-4267-b2f1-8ab039017e05","system_id":"levelo_inurba_marseille","lat":43.23196,"lon":5.35554,"is_reserved":false,"is_disabled":false,"rental_uris":{"android":"levelo://app?vid=5d352641-3593-4267-b2f1-8ab039017e05","ios":"levelo://app?vid=5d352641-3593-4267-b2f1-8ab039017e05"},"vehicle_type_id":"4","last_reported":1725999012,"current_range_meters":2800,"station_id":"ce4bhu92rcd13ifvqi70","pricing_plan_id":"cebpf4jnsgd1na2vs0mg"},{"bike_id":"c22bf776-82f1-423d-83f3-ab20051eb388","system_id":"levelo_inurba_marseille","lat":43.33612,"lon":5.41029,"is_reserved":false,"is_disabled":false,"rental_uris":{"android":"levelo://app?vid=c22bf776-82f1-423d-83f3-ab20051eb388","ios":"levelo://app?vid=c22bf776-82f1-423d-83f3-ab20051eb388"},"vehicle_type_id":"4","last_reported":1725999012,"current_range_meters":12800,"station_id":"ce4bhqh2rcd13ifvqhmg","pricing_plan_id":"cebpf4jnsgd1na2vs0mg"},{"bike_id":"ccc240c8-6268-43aa-a449-5963a0bbc6cc","system_id":"levelo_inurba_marseille","lat":43.292,"lon":5.39316,"is_reserved":false,"is_disabled":false,"rental_uris":{"android":"levelo://app?vid=ccc240c8-6268-43aa-a449-5963a0bbc6cc","ios":"levelo://app?vid=ccc240c8-6268-43aa-a449-5963a0bbc6cc"},"vehicle_type_id":"4","last_reported":1725999012,"current_range_meters":27200,"station_id":"ce4bh192rcd13ifvqdd0","pricing_plan_id":"cebpf4jnsgd1na2vs0mg"},{"bike_id":"9b9547b7-77e2-4c32-9975-f0a65876f133","system_id":"levelo_inurba_marseille","lat":43.28033,"lon":5.36943,"is_reserved":false,"is_disabled":false,"rental_uris":{"android":"levelo://app?vid=9b9547b7-77e2-4c32-9975-f0a65876f133","ios":"levelo://app?vid=9b9547b7-77e2-4c32-9975-f0a65876f133"},"vehicle_type_id":"4","last_reported":1725999012,"current_range_meters":38400,"station_id":"ce4bha12rcd13ifvqef0","pricing_plan_id":"cebpf4jnsgd1na2vs0mg"},{"bike_id":"723c073e-5c6a-4fb9-a382-e8ea44a73076","system_id":"levelo_inurba_marseille","lat":43.29554,"lon":5.42289,"is_reserved":false,"is_disabled":false,"rental_uris":{"android":"levelo://app?vid=723c073e-5c6a-4fb9-a382-e8ea44a73076","ios":"levelo://app?vid=723c073e-5c6a-4fb9-a382-e8ea44a73076"},"vehicle_type_id":"4","last_reported":1725999012,"current_range_meters":24400,"station_id":"ce4bhph2rcd13ifvqhdg","pricing_plan_id":"cebpf4jnsgd1na2vs0mg"},{"bike_id":"2aad4b02-945c-4d35-b3a5-85b3d17dc503","system_id":"levelo_inurba_marseille","lat":43.32288,"lon":5.38263,"is_reserved":false,"is_disabled":false,"rental_uris":{"android":"levelo://app?vid=2aad4b02-945c-4d35-b3a5-85b3d17dc503","ios":"levelo://app?vid=2aad4b02-945c-4d35-b3a5-85b3d17dc503"},"vehicle_type_id":"4","last_reported":1725999012,"current_range_meters":7200,"station_id":"ce4bhr12rcd13ifvqhqg","pricing_plan_id":"cebpf4jnsgd1na2vs0mg"},{"bike_id":"6073408b-b4fc-4eeb-ac9e-351084b1cf63","system_id":"levelo_inurba_marseille","lat":43.24814,"lon":5.37457,"is_reserved":false,"is_disabled":false,"rental_uris":{"android":"levelo://app?vid=6073408b-b4fc-4eeb-ac9e-351084b1cf63","ios":"levelo://app?vid=6073408b-b4fc-4eeb-ac9e-351084b1cf63"},"vehicle_type_id":"4","last_reported":1725999012,"current_range_meters":30000,"station_id":"ce4bhgh2rcd13ifvqfb0","pricing_plan_id":"cebpf4jnsgd1na2vs0mg"},{"bike_id":"b3154663-e456-4f9c-b708-ddf2c310f70e","system_id":"levelo_inurba_marseille","lat":43.28696,"lon":5.37376,"is_reserved":false,"is_disabled":false,"rental_uris":{"android":"levelo://app?vid=b3154663-e456-4f9c-b708-ddf2c310f70e","ios":"levelo://app?vid=b3154663-e456-4f9c-b708-ddf2c310f70e"},"vehicle_type_id":"4","last_reported":1725999012,"current_range_meters":7200,"station_id":"ce4bh3p2rcd13ifvqdq0","pricing_plan_id":"cebpf4jnsgd1na2vs0mg"},{"bike_id":"daaba00f-3008-4d46-b3ae-5d03b02d09cc","system_id":"levelo_inurba_marseille","lat":43.24812,"lon":5.37459,"is_reserved":false,"is_disabled":false,"rental_uris":{"android":"levelo://app?vid=daaba00f-3008-4d46-b3ae-5d03b02d09cc","ios":"levelo://app?vid=daaba00f-3008-4d46-b3ae-5d03b02d09cc"},"vehicle_type_id":"4","last_reported":1725999012,"current_range_meters":36800,"station_id":"ce4bhgh2rcd13ifvqfb0","pricing_plan_id":"cebpf4jnsgd1na2vs0mg"},{"bike_id":"dcf227dc-9079-46a8-b934-be87b5a3f2f4","system_id":"levelo_inurba_marseille","lat":43.30597,"lon":5.37226,"is_reserved":false,"is_disabled":false,"rental_uris":{"android":"levelo://app?vid=dcf227dc-9079-46a8-b934-be87b5a3f2f4","ios":"levelo://app?vid=dcf227dc-9079-46a8-b934-be87b5a3f2f4"},"vehicle_type_id":"4","last_reported":1725999012,"current_range_meters":6800,"station_id":"ce4bgqh2rcd13ifvqc4g","pricing_plan_id":"cebpf4jnsgd1na2vs0mg"},{"bike_id":"087e0913-97cb-4be6-af1f-86ff2ddedf5b","system_id":"levelo_inurba_marseille","lat":43.29572,"lon":5.3997,"is_reserved":false,"is_disabled":false,"rental_uris":{"android":"levelo://app?vid=087e0913-97cb-4be6-af1f-86ff2ddedf5b","ios":"levelo://app?vid=087e0913-97cb-4be6-af1f-86ff2ddedf5b"},"vehicle_type_id":"4","last_reported":1725999012,"current_range_meters":30800,"station_id":"ce4bh312rcd13ifvqdj0","pricing_plan_id":"cebpf4jnsgd1na2vs0mg"},{"bike_id":"1f92626a-0a3d-4a81-a7bb-28b40d3f9c81","system_id":"levelo_inurba_marseille","lat":43.29206,"lon":5.39319,"is_reserved":false,"is_disabled":false,"rental_uris":{"android":"levelo://app?vid=1f92626a-0a3d-4a81-a7bb-28b40d3f9c81","ios":"levelo://app?vid=1f92626a-0a3d-4a81-a7bb-28b40d3f9c81"},"vehicle_type_id":"4","last_reported":1725999012,"current_range_meters":4400,"station_id":"ce4bh192rcd13ifvqdd0","pricing_plan_id":"cebpf4jnsgd1na2vs0mg"},{"bike_id":"3130dcef-fe0e-4a5a-aec1-3108217a7d25","system_id":"levelo_inurba_marseille","lat":43.266845,"lon":5.382747,"is_reserved":false,"is_disabled":false,"rental_uris":{"android":"levelo://app?vid=3130dcef-fe0e-4a5a-aec1-3108217a7d25","ios":"levelo://app?vid=3130dcef-fe0e-4a5a-aec1-3108217a7d25"},"vehicle_type_id":"4","last_reported":1725999012,"current_range_meters":38400,"station_id":"ce4bhg92rcd13ifvqf90","pricing_plan_id":"cebpf4jnsgd1na2vs0mg"},{"bike_id":"3a5232c5-cc45-44ea-84c3-d1e824e620d9","system_id":"levelo_inurba_marseille","lat":43.31992,"lon":5.38145,"is_reserved":false,"is_disabled":false,"rental_uris":{"android":"levelo://app?vid=3a5232c5-cc45-44ea-84c3-d1e824e620d9","ios":"levelo://app?vid=3a5232c5-cc45-44ea-84c3-d1e824e620d9"},"vehicle_type_id":"4","last_reported":1725999012,"current_range_meters":22800,"station_id":"ce4bhr12rcd13ifvqhpg","pricing_plan_id":"cebpf4jnsgd1na2vs0mg"},{"bike_id":"c4a11cd6-597d-4826-ad55-56b34d91dddb","system_id":"levelo_inurba_marseille","lat":43.24079,"lon":5.37765,"is_reserved":false,"is_disabled":false,"rental_uris":{"android":"levelo://app?vid=c4a11cd6-597d-4826-ad55-56b34d91dddb","ios":"levelo://app?vid=c4a11cd6-597d-4826-ad55-56b34d91dddb"},"vehicle_type_id":"4","last_reported":1725999012,"current_range_meters":16000,"station_id":"ce4bhnp2rcd13ifvqgvg","pricing_plan_id":"cebpf4jnsgd1na2vs0mg"},{"bike_id":"f1009423-44b9-46e0-916f-a90ebc93de0a","system_id":"levelo_inurba_marseille","lat":43.31679,"lon":5.37287,"is_reserved":false,"is_disabled":false,"rental_uris":{"android":"levelo://app?vid=f1009423-44b9-46e0-916f-a90ebc93de0a","ios":"levelo://app?vid=f1009423-44b9-46e0-916f-a90ebc93de0a"},"vehicle_type_id":"4","last_reported":1725999012,"current_range_meters":16800,"station_id":"","pricing_plan_id":"cebpf4jnsgd1na2vs0mg"},{"bike_id":"d479c876-2159-43b6-a8cf-685fded57ab7","system_id":"levelo_inurba_marseille","lat":43.32359,"lon":5.38872,"is_reserved":false,"is_disabled":false,"rental_uris":{"android":"levelo://app?vid=d479c876-2159-43b6-a8cf-685fded57ab7","ios":"levelo://app?vid=d479c876-2159-43b6-a8cf-685fded57ab7"},"vehicle_type_id":"4","last_reported":1725999012,"current_range_meters":8400,"station_id":"ce4bhqp2rcd13ifvqhog","pricing_plan_id":"cebpf4jnsgd1na2vs0mg"},{"bike_id":"b02406c7-9bcc-4f4f-b2a0-db482974a705","system_id":"levelo_inurba_marseille","lat":43.23187,"lon":5.39985,"is_reserved":false,"is_disabled":false,"rental_uris":{"android":"levelo://app?vid=b02406c7-9bcc-4f4f-b2a0-db482974a705","ios":"levelo://app?vid=b02406c7-9bcc-4f4f-b2a0-db482974a705"},"vehicle_type_id":"4","last_reported":1725999012,"current_range_meters":18800,"station_id":"ce4bhn12rcd13ifvqgqg","pricing_plan_id":"cebpf4jnsgd1na2vs0mg"},{"bike_id":"9aa5c77d-a7d3-487a-93fc-12a66b7bdc71","system_id":"levelo_inurba_marseille","lat":43.31271,"lon":5.40189,"is_reserved":false,"is_disabled":false,"rental_uris":{"android":"levelo://app?vid=9aa5c77d-a7d3-487a-93fc-12a66b7bdc71","ios":"levelo://app?vid=9aa5c77d-a7d3-487a-93fc-12a66b7bdc71"},"vehicle_type_id":"4","last_reported":1725999012,"current_range_meters":36000,"station_id":"ce4bh092rcd13ifvqd30","pricing_plan_id":"cebpf4jnsgd1na2vs0mg"},{"bike_id":"e792155d-cb5d-4785-88a9-7d1d0ec19e22","system_id":"levelo_inurba_marseille","lat":43.29275,"lon":5.40133,"is_reserved":false,"is_disabled":false,"rental_uris":{"android":"levelo://app?vid=e792155d-cb5d-4785-88a9-7d1d0ec19e22","ios":"levelo://app?vid=e792155d-cb5d-4785-88a9-7d1d0ec19e22"},"vehicle_type_id":"4","last_reported":1725999012,"current_range_meters":34000,"station_id":"ce4bh312rcd13ifvqdk0","pricing_plan_id":"cebpf4jnsgd1na2vs0mg"},{"bike_id":"355d1fa9-57d4-445a-bd44-87624112dcf5","system_id":"levelo_inurba_marseille","lat":43.323477,"lon":5.38208,"is_reserved":false,"is_disabled":false,"rental_uris":{"android":"levelo://app?vid=355d1fa9-57d4-445a-bd44-87624112dcf5","ios":"levelo://app?vid=355d1fa9-57d4-445a-bd44-87624112dcf5"},"vehicle_type_id":"4","last_reported":1725999012,"current_range_meters":34000,"station_id":"ce4bhr12rcd13ifvqhqg","pricing_plan_id":"cebpf4jnsgd1na2vs0mg"},{"bike_id":"aa48e06d-2a80-4fd2-abe7-d40b52d43407","system_id":"levelo_inurba_marseille","lat":43.28726,"lon":5.36092,"is_reserved":false,"is_disabled":false,"rental_uris":{"android":"levelo://app?vid=aa48e06d-2a80-4fd2-abe7-d40b52d43407","ios":"levelo://app?vid=aa48e06d-2a80-4fd2-abe7-d40b52d43407"},"vehicle_type_id":"4","last_reported":1725999012,"current_range_meters":20400,"station_id":"cki0cbj6b192h4jlfktg","pricing_plan_id":"cebpf4jnsgd1na2vs0mg"},{"bike_id":"eb1b3a2f-9399-4963-8daa-99b2e7050f00","system_id":"levelo_inurba_marseille","lat":43.29249,"lon":5.38445,"is_reserved":false,"is_disabled":false,"rental_uris":{"android":"levelo://app?vid=eb1b3a2f-9399-4963-8daa-99b2e7050f00","ios":"levelo://app?vid=eb1b3a2f-9399-4963-8daa-99b2e7050f00"},"vehicle_type_id":"4","last_reported":1725999012,"current_range_meters":28000,"station_id":"ce4bh692rcd13ifvqea0","pricing_plan_id":"cebpf4jnsgd1na2vs0mg"},{"bike_id":"b303d07d-ac62-4dc5-9dcf-6830b2bf1f33","system_id":"levelo_inurba_marseille","lat":43.30803,"lon":5.38154,"is_reserved":false,"is_disabled":false,"rental_uris":{"android":"levelo://app?vid=b303d07d-ac62-4dc5-9dcf-6830b2bf1f33","ios":"levelo://app?vid=b303d07d-ac62-4dc5-9dcf-6830b2bf1f33"},"vehicle_type_id":"4","last_reported":1725999012,"current_range_meters":38000,"station_id":"ce4bgt12rcd13ifvqce0","pricing_plan_id":"cebpf4jnsgd1na2vs0mg"},{"bike_id":"9ab5287d-e0da-4d85-a4c5-9ff97a78a028","system_id":"levelo_inurba_marseille","lat":43.25489,"lon":5.37649,"is_reserved":false,"is_disabled":false,"rental_uris":{"android":"levelo://app?vid=9ab5287d-e0da-4d85-a4c5-9ff97a78a028","ios":"levelo://app?vid=9ab5287d-e0da-4d85-a4c5-9ff97a78a028"},"vehicle_type_id":"4","last_reported":1725999012,"current_range_meters":30800,"station_id":"ce4bhh12rcd13ifvqff0","pricing_plan_id":"cebpf4jnsgd1na2vs0mg"},{"bike_id":"4b740380-435b-4ce9-9b96-3da5fb37bac6","system_id":"levelo_inurba_marseille","lat":43.30948,"lon":5.40062,"is_reserved":false,"is_disabled":false,"rental_uris":{"android":"levelo://app?vid=4b740380-435b-4ce9-9b96-3da5fb37bac6","ios":"levelo://app?vid=4b740380-435b-4ce9-9b96-3da5fb37bac6"},"vehicle_type_id":"4","last_reported":1725999012,"current_range_meters":11600,"station_id":"ce4bhpp2rcd13ifvqhgg","pricing_plan_id":"cebpf4jnsgd1na2vs0mg"},{"bike_id":"7b2b6aa9-d9ad-475c-a16f-abdf3eec6d77","system_id":"levelo_inurba_marseille","lat":43.2293,"lon":5.35379,"is_reserved":false,"is_disabled":false,"rental_uris":{"android":"levelo://app?vid=7b2b6aa9-d9ad-475c-a16f-abdf3eec6d77","ios":"levelo://app?vid=7b2b6aa9-d9ad-475c-a16f-abdf3eec6d77"},"vehicle_type_id":"4","last_reported":1725999012,"current_range_meters":20400,"station_id":"cpo3532slgdg3j2ikp40","pricing_plan_id":"cebpf4jnsgd1na2vs0mg"},{"bike_id":"0a47bd13-a22c-4b47-9878-368bdc9d7c62","system_id":"levelo_inurba_marseille","lat":43.30883,"lon":5.39659,"is_reserved":false,"is_disabled":false,"rental_uris":{"android":"levelo://app?vid=0a47bd13-a22c-4b47-9878-368bdc9d7c62","ios":"levelo://app?vid=0a47bd13-a22c-4b47-9878-368bdc9d7c62"},"vehicle_type_id":"4","last_reported":1725999012,"current_range_meters":36400,"station_id":"ce4bh012rcd13ifvqcv0","pricing_plan_id":"cebpf4jnsgd1na2vs0mg"},{"bike_id":"252f5fa2-8e1d-4049-b504-0cdb6366283f","system_id":"levelo_inurba_marseille","lat":43.283291,"lon":5.401361,"is_reserved":false,"is_disabled":false,"rental_uris":{"android":"levelo://app?vid=252f5fa2-8e1d-4049-b504-0cdb6366283f","ios":"levelo://app?vid=252f5fa2-8e1d-4049-b504-0cdb6366283f"},"vehicle_type_id":"4","last_reported":1725999012,"current_range_meters":28000,"station_id":"ce4bhnh2rcd13ifvqgtg","pricing_plan_id":"cebpf4jnsgd1na2vs0mg"},{"bike_id":"75b3914e-5ac8-47d0-b6b3-7313ce4577a7","system_id":"levelo_inurba_marseille","lat":43.29886,"lon":5.38913,"is_reserved":false,"is_disabled":false,"rental_uris":{"android":"levelo://app?vid=75b3914e-5ac8-47d0-b6b3-7313ce4577a7","ios":"levelo://app?vid=75b3914e-5ac8-47d0-b6b3-7313ce4577a7"},"vehicle_type_id":"4","last_reported":1725999012,"current_range_meters":9600,"station_id":"ce4bh392rcd13ifvqdl0","pricing_plan_id":"cebpf4jnsgd1na2vs0mg"},{"bike_id":"7f4ea667-56df-4b26-bd46-3e71bc3cc245","system_id":"levelo_inurba_marseille","lat":43.29315,"lon":5.35571,"is_reserved":false,"is_disabled":false,"rental_uris":{"android":"levelo://app?vid=7f4ea667-56df-4b26-bd46-3e71bc3cc245","ios":"levelo://app?vid=7f4ea667-56df-4b26-bd46-3e71bc3cc245"},"vehicle_type_id":"4","last_reported":1725999012,"current_range_meters":6800,"station_id":"","pricing_plan_id":"cebpf4jnsgd1na2vs0mg"},{"bike_id":"3b163329-75e0-42ce-a395-e2936b5dfbec","system_id":"levelo_inurba_marseille","lat":43.2956,"lon":5.42288,"is_reserved":false,"is_disabled":false,"rental_uris":{"android":"levelo://app?vid=3b163329-75e0-42ce-a395-e2936b5dfbec","ios":"levelo://app?vid=3b163329-75e0-42ce-a395-e2936b5dfbec"},"vehicle_type_id":"4","last_reported":1725999012,"current_range_meters":18800,"station_id":"ce4bhph2rcd13ifvqhdg","pricing_plan_id":"cebpf4jnsgd1na2vs0mg"},{"bike_id":"d3c8ea6e-d01d-4d9e-9557-beffc1884ace","system_id":"levelo_inurba_marseille","lat":43.32285,"lon":5.38284,"is_reserved":false,"is_disabled":false,"rental_uris":{"android":"levelo://app?vid=d3c8ea6e-d01d-4d9e-9557-beffc1884ace","ios":"levelo://app?vid=d3c8ea6e-d01d-4d9e-9557-beffc1884ace"},"vehicle_type_id":"4","last_reported":1725999012,"current_range_meters":38800,"station_id":"ce4bhr12rcd13ifvqhqg","pricing_plan_id":"cebpf4jnsgd1na2vs0mg"},{"bike_id":"8a5ff7a7-eb36-43b5-a4bf-3fab6dc7a6bd","system_id":"levelo_inurba_marseille","lat":43.25107,"lon":5.40325,"is_reserved":false,"is_disabled":false,"rental_uris":{"android":"levelo://app?vid=8a5ff7a7-eb36-43b5-a4bf-3fab6dc7a6bd","ios":"levelo://app?vid=8a5ff7a7-eb36-43b5-a4bf-3fab6dc7a6bd"},"vehicle_type_id":"4","last_reported":1725999012,"current_range_meters":20000,"station_id":"ce4bhlh2rcd13ifvqgig","pricing_plan_id":"cebpf4jnsgd1na2vs0mg"},{"bike_id":"4b6020ac-6f7c-49d8-a279-afedbd336735","system_id":"levelo_inurba_marseille","lat":43.3199,"lon":5.38161,"is_reserved":false,"is_disabled":false,"rental_uris":{"android":"levelo://app?vid=4b6020ac-6f7c-49d8-a279-afedbd336735","ios":"levelo://app?vid=4b6020ac-6f7c-49d8-a279-afedbd336735"},"vehicle_type_id":"4","last_reported":1725999012,"current_range_meters":23200,"station_id":"ce4bhr12rcd13ifvqhpg","pricing_plan_id":"cebpf4jnsgd1na2vs0mg"},{"bike_id":"507f99d3-0b82-4a35-89e2-98eb58769a71","system_id":"levelo_inurba_marseille","lat":43.23192,"lon":5.35549,"is_reserved":false,"is_disabled":false,"rental_uris":{"android":"levelo://app?vid=507f99d3-0b82-4a35-89e2-98eb58769a71","ios":"levelo://app?vid=507f99d3-0b82-4a35-89e2-98eb58769a71"},"vehicle_type_id":"4","last_reported":1725999012,"current_range_meters":15200,"station_id":"ce4bhu92rcd13ifvqi70","pricing_plan_id":"cebpf4jnsgd1na2vs0mg"},{"bike_id":"55655b5f-2417-4cb9-a662-d6cecf83fcf4","system_id":"levelo_inurba_marseille","lat":43.31075,"lon":5.38111,"is_reserved":false,"is_disabled":false,"rental_uris":{"android":"levelo://app?vid=55655b5f-2417-4cb9-a662-d6cecf83fcf4","ios":"levelo://app?vid=55655b5f-2417-4cb9-a662-d6cecf83fcf4"},"vehicle_type_id":"4","last_reported":1725999012,"current_range_meters":22000,"station_id":"","pricing_plan_id":"cebpf4jnsgd1na2vs0mg"},{"bike_id":"24ea4db4-bcd3-4773-a10c-e0451f1c0df9","system_id":"levelo_inurba_marseille","lat":43.28036,"lon":5.3694,"is_reserved":false,"is_disabled":false,"rental_uris":{"android":"levelo://app?vid=24ea4db4-bcd3-4773-a10c-e0451f1c0df9","ios":"levelo://app?vid=24ea4db4-bcd3-4773-a10c-e0451f1c0df9"},"vehicle_type_id":"4","last_reported":1725999012,"current_range_meters":37600,"station_id":"ce4bha12rcd13ifvqef0","pricing_plan_id":"cebpf4jnsgd1na2vs0mg"},{"bike_id":"36e02e03-11f3-41ac-9b0f-93c4017adc48","system_id":"levelo_inurba_marseille","lat":43.27346,"lon":5.41605,"is_reserved":false,"is_disabled":false,"rental_uris":{"android":"levelo://app?vid=36e02e03-11f3-41ac-9b0f-93c4017adc48","ios":"levelo://app?vid=36e02e03-11f3-41ac-9b0f-93c4017adc48"},"vehicle_type_id":"4","last_reported":1725999012,"current_range_meters":4800,"station_id":"","pricing_plan_id":"cebpf4jnsgd1na2vs0mg"},{"bike_id":"a96df557-eb85-482a-a2f9-6a35f4bb1ec1","system_id":"levelo_inurba_marseille","lat":43.31683,"lon":5.40472,"is_reserved":false,"is_disabled":false,"rental_uris":{"android":"levelo://app?vid=a96df557-eb85-482a-a2f9-6a35f4bb1ec1","ios":"levelo://app?vid=a96df557-eb85-482a-a2f9-6a35f4bb1ec1"},"vehicle_type_id":"4","last_reported":1725999012,"current_range_meters":33200,"station_id":"ce4bh012rcd13ifvqd00","pricing_plan_id":"cebpf4jnsgd1na2vs0mg"},{"bike_id":"6f1e83f7-f8b3-4e81-ab80-0229104ea930","system_id":"levelo_inurba_marseille","lat":43.30638,"lon":5.40093,"is_reserved":false,"is_disabled":false,"rental_uris":{"android":"levelo://app?vid=6f1e83f7-f8b3-4e81-ab80-0229104ea930","ios":"levelo://app?vid=6f1e83f7-f8b3-4e81-ab80-0229104ea930"},"vehicle_type_id":"4","last_reported":1725999012,"current_range_meters":2000,"station_id":"ce4bh112rcd13ifvqda0","pricing_plan_id":"cebpf4jnsgd1na2vs0mg"},{"bike_id":"36973a74-dcb5-42a3-b6ab-222146836943","system_id":"levelo_inurba_marseille","lat":43.3175,"lon":5.3903,"is_reserved":false,"is_disabled":false,"rental_uris":{"android":"levelo://app?vid=36973a74-dcb5-42a3-b6ab-222146836943","ios":"levelo://app?vid=36973a74-dcb5-42a3-b6ab-222146836943"},"vehicle_type_id":"4","last_reported":1725999012,"current_range_meters":17200,"station_id":"ce4bhqp2rcd13ifvqhng","pricing_plan_id":"cebpf4jnsgd1na2vs0mg"},{"bike_id":"4dee8e14-2651-4989-821f-b3dba2009f28","system_id":"levelo_inurba_marseille","lat":43.25725,"lon":5.41112,"is_reserved":false,"is_disabled":false,"rental_uris":{"android":"levelo://app?vid=4dee8e14-2651-4989-821f-b3dba2009f28","ios":"levelo://app?vid=4dee8e14-2651-4989-821f-b3dba2009f28"},"vehicle_type_id":"4","last_reported":1725999012,"current_range_meters":12800,"station_id":"ce4bhkp2rcd13ifvqgd0","pricing_plan_id":"cebpf4jnsgd1na2vs0mg"},{"bike_id":"e496b93d-d087-40cb-9377-63481921b6b6","system_id":"levelo_inurba_marseille","lat":43.29578,"lon":5.37523,"is_reserved":false,"is_disabled":false,"rental_uris":{"android":"levelo://app?vid=e496b93d-d087-40cb-9377-63481921b6b6","ios":"levelo://app?vid=e496b93d-d087-40cb-9377-63481921b6b6"},"vehicle_type_id":"4","last_reported":1725999012,"current_range_meters":2800,"station_id":"ce4bgh92rcd13ifvqb50","pricing_plan_id":"cebpf4jnsgd1na2vs0mg"},{"bike_id":"9042a679-e579-498b-bc4f-3859be122eff","system_id":"levelo_inurba_marseille","lat":43.31757,"lon":5.3902,"is_reserved":false,"is_disabled":false,"rental_uris":{"android":"levelo://app?vid=9042a679-e579-498b-bc4f-3859be122eff","ios":"levelo://app?vid=9042a679-e579-498b-bc4f-3859be122eff"},"vehicle_type_id":"4","last_reported":1725999012,"current_range_meters":6800,"station_id":"ce4bhqp2rcd13ifvqhng","pricing_plan_id":"cebpf4jnsgd1na2vs0mg"},{"bike_id":"b24bcaac-1ebb-42e7-886a-a6b3b2b9eba8","system_id":"levelo_inurba_marseille","lat":43.28456,"lon":5.3589,"is_reserved":false,"is_disabled":false,"rental_uris":{"android":"levelo://app?vid=b24bcaac-1ebb-42e7-886a-a6b3b2b9eba8","ios":"levelo://app?vid=b24bcaac-1ebb-42e7-886a-a6b3b2b9eba8"},"vehicle_type_id":"4","last_reported":1725999012,"current_range_meters":33600,"station_id":"ce4bhah2rcd13ifvqei0","pricing_plan_id":"cebpf4jnsgd1na2vs0mg"},{"bike_id":"c8556cf0-f832-42b6-92cc-1120f0bf955c","system_id":"levelo_inurba_marseille","lat":43.31753,"lon":5.39028,"is_reserved":false,"is_disabled":false,"rental_uris":{"android":"levelo://app?vid=c8556cf0-f832-42b6-92cc-1120f0bf955c","ios":"levelo://app?vid=c8556cf0-f832-42b6-92cc-1120f0bf955c"},"vehicle_type_id":"4","last_reported":1725999012,"current_range_meters":33200,"station_id":"ce4bhqp2rcd13ifvqhng","pricing_plan_id":"cebpf4jnsgd1na2vs0mg"},{"bike_id":"e7f1ce34-711f-4386-95b9-fe5f61acdbcc","system_id":"levelo_inurba_marseille","lat":43.27378,"lon":5.36255,"is_reserved":false,"is_disabled":false,"rental_uris":{"android":"levelo://app?vid=e7f1ce34-711f-4386-95b9-fe5f61acdbcc","ios":"levelo://app?vid=e7f1ce34-711f-4386-95b9-fe5f61acdbcc"},"vehicle_type_id":"4","last_reported":1725999012,"current_range_meters":34800,"station_id":"ce4bhbh2rcd13ifvqeo0","pricing_plan_id":"cebpf4jnsgd1na2vs0mg"},{"bike_id":"5876c5ef-9fac-478d-bd3c-ea1780c21005","system_id":"levelo_inurba_marseille","lat":43.33762,"lon":5.3745,"is_reserved":false,"is_disabled":false,"rental_uris":{"android":"levelo://app?vid=5876c5ef-9fac-478d-bd3c-ea1780c21005","ios":"levelo://app?vid=5876c5ef-9fac-478d-bd3c-ea1780c21005"},"vehicle_type_id":"4","last_reported":1725999012,"current_range_meters":35600,"station_id":"","pricing_plan_id":"cebpf4jnsgd1na2vs0mg"},{"bike_id":"3ef293cb-6b10-47c2-a61b-1c747b67c2aa","system_id":"levelo_inurba_marseille","lat":43.22931,"lon":5.35376,"is_reserved":false,"is_disabled":false,"rental_uris":{"android":"levelo://app?vid=3ef293cb-6b10-47c2-a61b-1c747b67c2aa","ios":"levelo://app?vid=3ef293cb-6b10-47c2-a61b-1c747b67c2aa"},"vehicle_type_id":"4","last_reported":1725999012,"current_range_meters":4000,"station_id":"cpo3532slgdg3j2ikp40","pricing_plan_id":"cebpf4jnsgd1na2vs0mg"},{"bike_id":"9658173f-729f-44c0-b272-df35fcc2e649","system_id":"levelo_inurba_marseille","lat":43.34144,"lon":5.40904,"is_reserved":false,"is_disabled":false,"rental_uris":{"android":"levelo://app?vid=9658173f-729f-44c0-b272-df35fcc2e649","ios":"levelo://app?vid=9658173f-729f-44c0-b272-df35fcc2e649"},"vehicle_type_id":"4","last_reported":1725999012,"current_range_meters":32000,"station_id":"ce4bhqh2rcd13ifvqhlg","pricing_plan_id":"cebpf4jnsgd1na2vs0mg"},{"bike_id":"7f376f95-0177-43cf-81ff-141679b4750b","system_id":"levelo_inurba_marseille","lat":43.29523,"lon":5.37505,"is_reserved":false,"is_disabled":false,"rental_uris":{"android":"levelo://app?vid=7f376f95-0177-43cf-81ff-141679b4750b","ios":"levelo://app?vid=7f376f95-0177-43cf-81ff-141679b4750b"},"vehicle_type_id":"4","last_reported":1725999012,"current_range_meters":36800,"station_id":"ce4bgkp2rcd13ifvqbmg","pricing_plan_id":"cebpf4jnsgd1na2vs0mg"},{"bike_id":"e72f9d1f-419f-450b-86df-c8dd274dc578","system_id":"levelo_inurba_marseille","lat":43.31753,"lon":5.39021,"is_reserved":false,"is_disabled":false,"rental_uris":{"android":"levelo://app?vid=e72f9d1f-419f-450b-86df-c8dd274dc578","ios":"levelo://app?vid=e72f9d1f-419f-450b-86df-c8dd274dc578"},"vehicle_type_id":"4","last_reported":1725999012,"current_range_meters":11600,"station_id":"ce4bhqp2rcd13ifvqhng","pricing_plan_id":"cebpf4jnsgd1na2vs0mg"},{"bike_id":"7abb3655-b461-4e13-bc97-8c353f282d6b","system_id":"levelo_inurba_marseille","lat":43.23174,"lon":5.39991,"is_reserved":false,"is_disabled":false,"rental_uris":{"android":"levelo://app?vid=7abb3655-b461-4e13-bc97-8c353f282d6b","ios":"levelo://app?vid=7abb3655-b461-4e13-bc97-8c353f282d6b"},"vehicle_type_id":"4","last_reported":1725999012,"current_range_meters":8800,"station_id":"ce4bhn12rcd13ifvqgqg","pricing_plan_id":"cebpf4jnsgd1na2vs0mg"},{"bike_id":"3f48e559-de96-42ea-88b9-925d9064e054","system_id":"levelo_inurba_marseille","lat":43.31369,"lon":5.38494,"is_reserved":false,"is_disabled":false,"rental_uris":{"android":"levelo://app?vid=3f48e559-de96-42ea-88b9-925d9064e054","ios":"levelo://app?vid=3f48e559-de96-42ea-88b9-925d9064e054"},"vehicle_type_id":"4","last_reported":1725999012,"current_range_meters":10800,"station_id":"ce4bgt92rcd13ifvqcf0","pricing_plan_id":"cebpf4jnsgd1na2vs0mg"},{"bike_id":"26c352a5-b680-412a-98a4-308ac0d8c2a8","system_id":"levelo_inurba_marseille","lat":43.29533,"lon":5.38554,"is_reserved":false,"is_disabled":false,"rental_uris":{"android":"levelo://app?vid=26c352a5-b680-412a-98a4-308ac0d8c2a8","ios":"levelo://app?vid=26c352a5-b680-412a-98a4-308ac0d8c2a8"},"vehicle_type_id":"4","last_reported":1725999012,"current_range_meters":9200,"station_id":"ce4bgih2rcd13ifvqba0","pricing_plan_id":"cebpf4jnsgd1na2vs0mg"},{"bike_id":"09ffcbdf-58a8-4a2b-b359-e87abe1f9d3d","system_id":"levelo_inurba_marseille","lat":43.28663,"lon":5.36355,"is_reserved":false,"is_disabled":false,"rental_uris":{"android":"levelo://app?vid=09ffcbdf-58a8-4a2b-b359-e87abe1f9d3d","ios":"levelo://app?vid=09ffcbdf-58a8-4a2b-b359-e87abe1f9d3d"},"vehicle_type_id":"4","last_reported":1725999012,"current_range_meters":36400,"station_id":"ce4bhah2rcd13ifvqej0","pricing_plan_id":"cebpf4jnsgd1na2vs0mg"},{"bike_id":"efc07193-6a27-4621-a593-eee5190ed64b","system_id":"levelo_inurba_marseille","lat":43.29785,"lon":5.371071,"is_reserved":false,"is_disabled":false,"rental_uris":{"android":"levelo://app?vid=efc07193-6a27-4621-a593-eee5190ed64b","ios":"levelo://app?vid=efc07193-6a27-4621-a593-eee5190ed64b"},"vehicle_type_id":"4","last_reported":1725999012,"current_range_meters":32800,"station_id":"ce4bgop2rcd13ifvqc1g","pricing_plan_id":"cebpf4jnsgd1na2vs0mg"},{"bike_id":"6193a3b5-4741-4e20-892f-71f4056d0de9","system_id":"levelo_inurba_marseille","lat":43.23179,"lon":5.39995,"is_reserved":false,"is_disabled":false,"rental_uris":{"android":"levelo://app?vid=6193a3b5-4741-4e20-892f-71f4056d0de9","ios":"levelo://app?vid=6193a3b5-4741-4e20-892f-71f4056d0de9"},"vehicle_type_id":"4","last_reported":1725999012,"current_range_meters":32400,"station_id":"ce4bhn12rcd13ifvqgqg","pricing_plan_id":"cebpf4jnsgd1na2vs0mg"},{"bike_id":"31362281-1cc9-4bc7-86c9-cd46614642b2","system_id":"levelo_inurba_marseille","lat":43.25496,"lon":5.37655,"is_reserved":false,"is_disabled":false,"rental_uris":{"android":"levelo://app?vid=31362281-1cc9-4bc7-86c9-cd46614642b2","ios":"levelo://app?vid=31362281-1cc9-4bc7-86c9-cd46614642b2"},"vehicle_type_id":"4","last_reported":1725999012,"current_range_meters":37600,"station_id":"ce4bhh12rcd13ifvqff0","pricing_plan_id":"cebpf4jnsgd1na2vs0mg"},{"bike_id":"1bc6d034-1c4e-4b81-95f7-9274b014bd03","system_id":"levelo_inurba_marseille","lat":43.28462,"lon":5.35897,"is_reserved":false,"is_disabled":false,"rental_uris":{"android":"levelo://app?vid=1bc6d034-1c4e-4b81-95f7-9274b014bd03","ios":"levelo://app?vid=1bc6d034-1c4e-4b81-95f7-9274b014bd03"},"vehicle_type_id":"4","last_reported":1725999012,"current_range_meters":33200,"station_id":"ce4bhah2rcd13ifvqei0","pricing_plan_id":"cebpf4jnsgd1na2vs0mg"},{"bike_id":"c280655b-da46-4f44-b4b9-5550f40c0e7d","system_id":"levelo_inurba_marseille","lat":43.32286,"lon":5.38279,"is_reserved":false,"is_disabled":false,"rental_uris":{"android":"levelo://app?vid=c280655b-da46-4f44-b4b9-5550f40c0e7d","ios":"levelo://app?vid=c280655b-da46-4f44-b4b9-5550f40c0e7d"},"vehicle_type_id":"4","last_reported":1725999012,"current_range_meters":22400,"station_id":"ce4bhr12rcd13ifvqhqg","pricing_plan_id":"cebpf4jnsgd1na2vs0mg"},{"bike_id":"d7a5d1f7-9a5e-46cc-a142-e7e4f3146a3a","system_id":"levelo_inurba_marseille","lat":43.30984,"lon":5.39008,"is_reserved":false,"is_disabled":false,"rental_uris":{"android":"levelo://app?vid=d7a5d1f7-9a5e-46cc-a142-e7e4f3146a3a","ios":"levelo://app?vid=d7a5d1f7-9a5e-46cc-a142-e7e4f3146a3a"},"vehicle_type_id":"4","last_reported":1725999012,"current_range_meters":12800,"station_id":"ce4bgup2rcd13ifvqco0","pricing_plan_id":"cebpf4jnsgd1na2vs0mg"},{"bike_id":"c25508be-a553-4e86-b959-6cf74594e042","system_id":"levelo_inurba_marseille","lat":43.31171,"lon":5.38729,"is_reserved":false,"is_disabled":false,"rental_uris":{"android":"levelo://app?vid=c25508be-a553-4e86-b959-6cf74594e042","ios":"levelo://app?vid=c25508be-a553-4e86-b959-6cf74594e042"},"vehicle_type_id":"4","last_reported":1725999012,"current_range_meters":18800,"station_id":"ce4bgv12rcd13ifvqcp0","pricing_plan_id":"cebpf4jnsgd1na2vs0mg"},{"bike_id":"c8e0fcb6-1d3f-4d83-b861-1f56e6b3ab2c","system_id":"levelo_inurba_marseille","lat":43.32291,"lon":5.38269,"is_reserved":false,"is_disabled":false,"rental_uris":{"android":"levelo://app?vid=c8e0fcb6-1d3f-4d83-b861-1f56e6b3ab2c","ios":"levelo://app?vid=c8e0fcb6-1d3f-4d83-b861-1f56e6b3ab2c"},"vehicle_type_id":"4","last_reported":1725999012,"current_range_meters":35200,"station_id":"ce4bhr12rcd13ifvqhqg","pricing_plan_id":"cebpf4jnsgd1na2vs0mg"},{"bike_id":"6776db5f-50cd-4d20-b245-c2e33644fee2","system_id":"levelo_inurba_marseille","lat":43.30883,"lon":5.37191,"is_reserved":false,"is_disabled":false,"rental_uris":{"android":"levelo://app?vid=6776db5f-50cd-4d20-b245-c2e33644fee2","ios":"levelo://app?vid=6776db5f-50cd-4d20-b245-c2e33644fee2"},"vehicle_type_id":"4","last_reported":1725999012,"current_range_meters":19600,"station_id":"ce4bguh2rcd13ifvqckg","pricing_plan_id":"cebpf4jnsgd1na2vs0mg"},{"bike_id":"abf33922-ba25-4cda-a2a3-d233e1d417f5","system_id":"levelo_inurba_marseille","lat":43.29169,"lon":5.37163,"is_reserved":false,"is_disabled":false,"rental_uris":{"android":"levelo://app?vid=abf33922-ba25-4cda-a2a3-d233e1d417f5","ios":"levelo://app?vid=abf33922-ba25-4cda-a2a3-d233e1d417f5"},"vehicle_type_id":"4","last_reported":1725999012,"current_range_meters":26000,"station_id":"ce4bha92rcd13ifvqeh0","pricing_plan_id":"cebpf4jnsgd1na2vs0mg"},{"bike_id":"0b6aa16a-7beb-4b4f-a2f3-6203d298dc16","system_id":"levelo_inurba_marseille","lat":43.28933,"lon":5.39634,"is_reserved":false,"is_disabled":false,"rental_uris":{"android":"levelo://app?vid=0b6aa16a-7beb-4b4f-a2f3-6203d298dc16","ios":"levelo://app?vid=0b6aa16a-7beb-4b4f-a2f3-6203d298dc16"},"vehicle_type_id":"4","last_reported":1725999012,"current_range_meters":36400,"station_id":"ce4bh3h2rcd13ifvqdn0","pricing_plan_id":"cebpf4jnsgd1na2vs0mg"},{"bike_id":"1c8e1a74-2dc0-4eca-b3cd-b7784501839c","system_id":"levelo_inurba_marseille","lat":43.31223,"lon":5.36853,"is_reserved":false,"is_disabled":false,"rental_uris":{"android":"levelo://app?vid=1c8e1a74-2dc0-4eca-b3cd-b7784501839c","ios":"levelo://app?vid=1c8e1a74-2dc0-4eca-b3cd-b7784501839c"},"vehicle_type_id":"4","last_reported":1725999012,"current_range_meters":14400,"station_id":"ce4bgl92rcd13ifvqbq0","pricing_plan_id":"cebpf4jnsgd1na2vs0mg"},{"bike_id":"fde8b686-25f1-4cb6-9b02-191c4abffffc","system_id":"levelo_inurba_marseille","lat":43.324838,"lon":5.40703,"is_reserved":false,"is_disabled":false,"rental_uris":{"android":"levelo://app?vid=fde8b686-25f1-4cb6-9b02-191c4abffffc","ios":"levelo://app?vid=fde8b686-25f1-4cb6-9b02-191c4abffffc"},"vehicle_type_id":"4","last_reported":1725999012,"current_range_meters":16400,"station_id":"ce4bhq92rcd13ifvqhjg","pricing_plan_id":"cebpf4jnsgd1na2vs0mg"},{"bike_id":"0d542ff1-a6db-4734-b6d3-2959e000dad3","system_id":"levelo_inurba_marseille","lat":43.280356,"lon":5.369622,"is_reserved":false,"is_disabled":false,"rental_uris":{"android":"levelo://app?vid=0d542ff1-a6db-4734-b6d3-2959e000dad3","ios":"levelo://app?vid=0d542ff1-a6db-4734-b6d3-2959e000dad3"},"vehicle_type_id":"4","last_reported":1725999012,"current_range_meters":24000,"station_id":"ce4bha12rcd13ifvqef0","pricing_plan_id":"cebpf4jnsgd1na2vs0mg"},{"bike_id":"a9bf9aeb-9568-48bd-965a-6dc643f5985f","system_id":"levelo_inurba_marseille","lat":43.29307,"lon":5.37172,"is_reserved":false,"is_disabled":false,"rental_uris":{"android":"levelo://app?vid=a9bf9aeb-9568-48bd-965a-6dc643f5985f","ios":"levelo://app?vid=a9bf9aeb-9568-48bd-965a-6dc643f5985f"},"vehicle_type_id":"4","last_reported":1725999012,"current_range_meters":17600,"station_id":"ce4bgh92rcd13ifvqb40","pricing_plan_id":"cebpf4jnsgd1na2vs0mg"},{"bike_id":"1e37aa65-1da8-4e7b-8eb6-12706c16aa26","system_id":"levelo_inurba_marseille","lat":43.29539,"lon":5.37512,"is_reserved":false,"is_disabled":false,"rental_uris":{"android":"levelo://app?vid=1e37aa65-1da8-4e7b-8eb6-12706c16aa26","ios":"levelo://app?vid=1e37aa65-1da8-4e7b-8eb6-12706c16aa26"},"vehicle_type_id":"4","last_reported":1725999012,"current_range_meters":16000,"station_id":"ce4bgkp2rcd13ifvqbmg","pricing_plan_id":"cebpf4jnsgd1na2vs0mg"},{"bike_id":"3a30fad4-004e-4bde-ae7d-13912b855242","system_id":"levelo_inurba_marseille","lat":43.29792,"lon":5.39346,"is_reserved":false,"is_disabled":false,"rental_uris":{"android":"levelo://app?vid=3a30fad4-004e-4bde-ae7d-13912b855242","ios":"levelo://app?vid=3a30fad4-004e-4bde-ae7d-13912b855242"},"vehicle_type_id":"4","last_reported":1725999012,"current_range_meters":27600,"station_id":"chh1huq6cuj3fo74tm60","pricing_plan_id":"cebpf4jnsgd1na2vs0mg"},{"bike_id":"1a1a9292-1a7e-4b3a-8749-ddcaec5cb477","system_id":"levelo_inurba_marseille","lat":43.33024,"lon":5.3904,"is_reserved":false,"is_disabled":false,"rental_uris":{"android":"levelo://app?vid=1a1a9292-1a7e-4b3a-8749-ddcaec5cb477","ios":"levelo://app?vid=1a1a9292-1a7e-4b3a-8749-ddcaec5cb477"},"vehicle_type_id":"4","last_reported":1725999012,"current_range_meters":11200,"station_id":"ce4bhr92rcd13ifvqhrg","pricing_plan_id":"cebpf4jnsgd1na2vs0mg"},{"bike_id":"69eda0f2-b4e3-4334-adca-4d6836fcc9fd","system_id":"levelo_inurba_marseille","lat":43.32293,"lon":5.3826,"is_reserved":false,"is_disabled":false,"rental_uris":{"android":"levelo://app?vid=69eda0f2-b4e3-4334-adca-4d6836fcc9fd","ios":"levelo://app?vid=69eda0f2-b4e3-4334-adca-4d6836fcc9fd"},"vehicle_type_id":"4","last_reported":1725999012,"current_range_meters":33200,"station_id":"ce4bhr12rcd13ifvqhqg","pricing_plan_id":"cebpf4jnsgd1na2vs0mg"},{"bike_id":"927e3da6-e7cc-4a5c-a064-82f01ba43a49","system_id":"levelo_inurba_marseille","lat":43.32041,"lon":5.41551,"is_reserved":false,"is_disabled":false,"rental_uris":{"android":"levelo://app?vid=927e3da6-e7cc-4a5c-a064-82f01ba43a49","ios":"levelo://app?vid=927e3da6-e7cc-4a5c-a064-82f01ba43a49"},"vehicle_type_id":"4","last_reported":1725999012,"current_range_meters":9200,"station_id":"ce4bhq92rcd13ifvqhkg","pricing_plan_id":"cebpf4jnsgd1na2vs0mg"},{"bike_id":"f5547b89-ec95-40c2-b4ee-e2e35cb715fc","system_id":"levelo_inurba_marseille","lat":43.29276,"lon":5.40133,"is_reserved":false,"is_disabled":false,"rental_uris":{"android":"levelo://app?vid=f5547b89-ec95-40c2-b4ee-e2e35cb715fc","ios":"levelo://app?vid=f5547b89-ec95-40c2-b4ee-e2e35cb715fc"},"vehicle_type_id":"4","last_reported":1725999012,"current_range_meters":17200,"station_id":"ce4bh312rcd13ifvqdk0","pricing_plan_id":"cebpf4jnsgd1na2vs0mg"},{"bike_id":"55145fae-a8cb-41b8-a97f-efce85464954","system_id":"levelo_inurba_marseille","lat":43.33753,"lon":5.37457,"is_reserved":false,"is_disabled":false,"rental_uris":{"android":"levelo://app?vid=55145fae-a8cb-41b8-a97f-efce85464954","ios":"levelo://app?vid=55145fae-a8cb-41b8-a97f-efce85464954"},"vehicle_type_id":"4","last_reported":1725999012,"current_range_meters":32000,"station_id":"","pricing_plan_id":"cebpf4jnsgd1na2vs0mg"},{"bike_id":"f400d370-a20e-4ced-86f0-64f62510749c","system_id":"levelo_inurba_marseille","lat":43.3237,"lon":5.38926,"is_reserved":false,"is_disabled":false,"rental_uris":{"android":"levelo://app?vid=f400d370-a20e-4ced-86f0-64f62510749c","ios":"levelo://app?vid=f400d370-a20e-4ced-86f0-64f62510749c"},"vehicle_type_id":"4","last_reported":1725999012,"current_range_meters":17200,"station_id":"","pricing_plan_id":"cebpf4jnsgd1na2vs0mg"},{"bike_id":"6b556058-d0b4-4003-a757-2a88c17f4ca7","system_id":"levelo_inurba_marseille","lat":43.31165,"lon":5.3872,"is_reserved":false,"is_disabled":false,"rental_uris":{"android":"levelo://app?vid=6b556058-d0b4-4003-a757-2a88c17f4ca7","ios":"levelo://app?vid=6b556058-d0b4-4003-a757-2a88c17f4ca7"},"vehicle_type_id":"4","last_reported":1725999012,"current_range_meters":11200,"station_id":"ce4bgv12rcd13ifvqcp0","pricing_plan_id":"cebpf4jnsgd1na2vs0mg"},{"bike_id":"e9d8c7b2-62a1-4e01-b449-32058adc2bb5","system_id":"levelo_inurba_marseille","lat":43.3117,"lon":5.38723,"is_reserved":false,"is_disabled":false,"rental_uris":{"android":"levelo://app?vid=e9d8c7b2-62a1-4e01-b449-32058adc2bb5","ios":"levelo://app?vid=e9d8c7b2-62a1-4e01-b449-32058adc2bb5"},"vehicle_type_id":"4","last_reported":1725999012,"current_range_meters":23200,"station_id":"ce4bgv12rcd13ifvqcp0","pricing_plan_id":"cebpf4jnsgd1na2vs0mg"},{"bike_id":"4f98b9a6-3078-458b-b605-3b0ed6341dd8","system_id":"levelo_inurba_marseille","lat":43.287037,"lon":5.375093,"is_reserved":false,"is_disabled":false,"rental_uris":{"android":"levelo://app?vid=4f98b9a6-3078-458b-b605-3b0ed6341dd8","ios":"levelo://app?vid=4f98b9a6-3078-458b-b605-3b0ed6341dd8"},"vehicle_type_id":"4","last_reported":1725999012,"current_range_meters":32400,"station_id":"","pricing_plan_id":"cebpf4jnsgd1na2vs0mg"},{"bike_id":"8542bf91-30ba-4b78-a115-4736886b8fdc","system_id":"levelo_inurba_marseille","lat":43.32364,"lon":5.3888,"is_reserved":false,"is_disabled":false,"rental_uris":{"android":"levelo://app?vid=8542bf91-30ba-4b78-a115-4736886b8fdc","ios":"levelo://app?vid=8542bf91-30ba-4b78-a115-4736886b8fdc"},"vehicle_type_id":"4","last_reported":1725999012,"current_range_meters":9200,"station_id":"ce4bhqp2rcd13ifvqhog","pricing_plan_id":"cebpf4jnsgd1na2vs0mg"},{"bike_id":"a71631ab-7a95-4fa8-a64e-ac1a96c4c60e","system_id":"levelo_inurba_marseille","lat":43.30433,"lon":5.38891,"is_reserved":false,"is_disabled":false,"rental_uris":{"android":"levelo://app?vid=a71631ab-7a95-4fa8-a64e-ac1a96c4c60e","ios":"levelo://app?vid=a71631ab-7a95-4fa8-a64e-ac1a96c4c60e"},"vehicle_type_id":"4","last_reported":1725999012,"current_range_meters":20000,"station_id":"ce4bgk12rcd13ifvqbi0","pricing_plan_id":"cebpf4jnsgd1na2vs0mg"},{"bike_id":"b8c53ace-3353-404c-807f-3367f3e67022","system_id":"levelo_inurba_marseille","lat":43.3175,"lon":5.39028,"is_reserved":false,"is_disabled":false,"rental_uris":{"android":"levelo://app?vid=b8c53ace-3353-404c-807f-3367f3e67022","ios":"levelo://app?vid=b8c53ace-3353-404c-807f-3367f3e67022"},"vehicle_type_id":"4","last_reported":1725999012,"current_range_meters":38400,"station_id":"ce4bhqp2rcd13ifvqhng","pricing_plan_id":"cebpf4jnsgd1na2vs0mg"},{"bike_id":"28a6dc6f-0df2-4ce0-8e42-abef2c4254c2","system_id":"levelo_inurba_marseille","lat":43.29895,"lon":5.43668,"is_reserved":false,"is_disabled":false,"rental_uris":{"android":"levelo://app?vid=28a6dc6f-0df2-4ce0-8e42-abef2c4254c2","ios":"levelo://app?vid=28a6dc6f-0df2-4ce0-8e42-abef2c4254c2"},"vehicle_type_id":"4","last_reported":1725999012,"current_range_meters":6000,"station_id":"ce4bhpp2rcd13ifvqhfg","pricing_plan_id":"cebpf4jnsgd1na2vs0mg"},{"bike_id":"90bef33b-eff3-44af-84c3-d2b040166301","system_id":"levelo_inurba_marseille","lat":43.29565,"lon":5.37526,"is_reserved":false,"is_disabled":false,"rental_uris":{"android":"levelo://app?vid=90bef33b-eff3-44af-84c3-d2b040166301","ios":"levelo://app?vid=90bef33b-eff3-44af-84c3-d2b040166301"},"vehicle_type_id":"4","last_reported":1725999012,"current_range_meters":19600,"station_id":"ce4bgh92rcd13ifvqb50","pricing_plan_id":"cebpf4jnsgd1na2vs0mg"},{"bike_id":"e3ff2ff2-1096-4b7a-a3a2-7928d38557b8","system_id":"levelo_inurba_marseille","lat":43.27806,"lon":5.40721,"is_reserved":false,"is_disabled":false,"rental_uris":{"android":"levelo://app?vid=e3ff2ff2-1096-4b7a-a3a2-7928d38557b8","ios":"levelo://app?vid=e3ff2ff2-1096-4b7a-a3a2-7928d38557b8"},"vehicle_type_id":"4","last_reported":1725999012,"current_range_meters":12800,"station_id":"ce4bhnh2rcd13ifvqgtg","pricing_plan_id":"cebpf4jnsgd1na2vs0mg"},{"bike_id":"9be33b49-3855-470c-8287-f6fea0c20874","system_id":"levelo_inurba_marseille","lat":43.29218,"lon":5.36047,"is_reserved":false,"is_disabled":false,"rental_uris":{"android":"levelo://app?vid=9be33b49-3855-470c-8287-f6fea0c20874","ios":"levelo://app?vid=9be33b49-3855-470c-8287-f6fea0c20874"},"vehicle_type_id":"4","last_reported":1725999012,"current_range_meters":38800,"station_id":"ce4bhbh2rcd13ifvqeqg","pricing_plan_id":"cebpf4jnsgd1na2vs0mg"},{"bike_id":"56764b47-a21c-4e62-9cae-270df7d487ad","system_id":"levelo_inurba_marseille","lat":43.31187,"lon":5.38717,"is_reserved":false,"is_disabled":false,"rental_uris":{"android":"levelo://app?vid=56764b47-a21c-4e62-9cae-270df7d487ad","ios":"levelo://app?vid=56764b47-a21c-4e62-9cae-270df7d487ad"},"vehicle_type_id":"4","last_reported":1725999012,"current_range_meters":27600,"station_id":"ce4bgv12rcd13ifvqcp0","pricing_plan_id":"cebpf4jnsgd1na2vs0mg"},{"bike_id":"4747577c-4336-4928-8e98-5396636065e1","system_id":"levelo_inurba_marseille","lat":43.283579,"lon":5.381015,"is_reserved":false,"is_disabled":false,"rental_uris":{"android":"levelo://app?vid=4747577c-4336-4928-8e98-5396636065e1","ios":"levelo://app?vid=4747577c-4336-4928-8e98-5396636065e1"},"vehicle_type_id":"4","last_reported":1725999012,"current_range_meters":31200,"station_id":"ce4bh412rcd13ifvqdr0","pricing_plan_id":"cebpf4jnsgd1na2vs0mg"},{"bike_id":"f9588990-7de1-4e0b-979b-31419c532106","system_id":"levelo_inurba_marseille","lat":43.28033,"lon":5.3695,"is_reserved":false,"is_disabled":false,"rental_uris":{"android":"levelo://app?vid=f9588990-7de1-4e0b-979b-31419c532106","ios":"levelo://app?vid=f9588990-7de1-4e0b-979b-31419c532106"},"vehicle_type_id":"4","last_reported":1725999012,"current_range_meters":12800,"station_id":"ce4bha12rcd13ifvqef0","pricing_plan_id":"cebpf4jnsgd1na2vs0mg"},{"bike_id":"4a096968-5101-4811-9d0b-f959aad5d0cd","system_id":"levelo_inurba_marseille","lat":43.28438,"lon":5.39197,"is_reserved":false,"is_disabled":false,"rental_uris":{"android":"levelo://app?vid=4a096968-5101-4811-9d0b-f959aad5d0cd","ios":"levelo://app?vid=4a096968-5101-4811-9d0b-f959aad5d0cd"},"vehicle_type_id":"4","last_reported":1725999012,"current_range_meters":20800,"station_id":"ce4bhoh2rcd13ifvqh5g","pricing_plan_id":"cebpf4jnsgd1na2vs0mg"},{"bike_id":"2dfb5171-15aa-4d8e-83fc-de16ea1eed2e","system_id":"levelo_inurba_marseille","lat":43.24063,"lon":5.37754,"is_reserved":false,"is_disabled":false,"rental_uris":{"android":"levelo://app?vid=2dfb5171-15aa-4d8e-83fc-de16ea1eed2e","ios":"levelo://app?vid=2dfb5171-15aa-4d8e-83fc-de16ea1eed2e"},"vehicle_type_id":"4","last_reported":1725999012,"current_range_meters":36000,"station_id":"ce4bhnp2rcd13ifvqgvg","pricing_plan_id":"cebpf4jnsgd1na2vs0mg"},{"bike_id":"36f58328-8f54-4fcf-bcca-0a753cccddb2","system_id":"levelo_inurba_marseille","lat":43.23195,"lon":5.35558,"is_reserved":false,"is_disabled":false,"rental_uris":{"android":"levelo://app?vid=36f58328-8f54-4fcf-bcca-0a753cccddb2","ios":"levelo://app?vid=36f58328-8f54-4fcf-bcca-0a753cccddb2"},"vehicle_type_id":"4","last_reported":1725999012,"current_range_meters":19600,"station_id":"ce4bhu92rcd13ifvqi70","pricing_plan_id":"cebpf4jnsgd1na2vs0mg"},{"bike_id":"44f32411-a978-4e5c-8794-5490ed45ba7d","system_id":"levelo_inurba_marseille","lat":43.33762,"lon":5.37443,"is_reserved":false,"is_disabled":false,"rental_uris":{"android":"levelo://app?vid=44f32411-a978-4e5c-8794-5490ed45ba7d","ios":"levelo://app?vid=44f32411-a978-4e5c-8794-5490ed45ba7d"},"vehicle_type_id":"4","last_reported":1725999012,"current_range_meters":38000,"station_id":"","pricing_plan_id":"cebpf4jnsgd1na2vs0mg"},{"bike_id":"a5637a8b-38f0-4dcf-bb5c-f0548702728e","system_id":"levelo_inurba_marseille","lat":43.24075,"lon":5.37763,"is_reserved":false,"is_disabled":false,"rental_uris":{"android":"levelo://app?vid=a5637a8b-38f0-4dcf-bb5c-f0548702728e","ios":"levelo://app?vid=a5637a8b-38f0-4dcf-bb5c-f0548702728e"},"vehicle_type_id":"4","last_reported":1725999012,"current_range_meters":4400,"station_id":"ce4bhnp2rcd13ifvqgvg","pricing_plan_id":"cebpf4jnsgd1na2vs0mg"},{"bike_id":"c015dc6a-33de-4903-888d-87acaf067512","system_id":"levelo_inurba_marseille","lat":43.30898,"lon":5.37197,"is_reserved":false,"is_disabled":false,"rental_uris":{"android":"levelo://app?vid=c015dc6a-33de-4903-888d-87acaf067512","ios":"levelo://app?vid=c015dc6a-33de-4903-888d-87acaf067512"},"vehicle_type_id":"4","last_reported":1725999012,"current_range_meters":25200,"station_id":"ce4bguh2rcd13ifvqckg","pricing_plan_id":"cebpf4jnsgd1na2vs0mg"},{"bike_id":"c929d20f-a142-4bd7-ba89-744f843927bb","system_id":"levelo_inurba_marseille","lat":43.274582,"lon":5.384802,"is_reserved":false,"is_disabled":false,"rental_uris":{"android":"levelo://app?vid=c929d20f-a142-4bd7-ba89-744f843927bb","ios":"levelo://app?vid=c929d20f-a142-4bd7-ba89-744f843927bb"},"vehicle_type_id":"4","last_reported":1725999012,"current_range_meters":26800,"station_id":"ce4bha12rcd13ifvqee0","pricing_plan_id":"cebpf4jnsgd1na2vs0mg"},{"bike_id":"705bdcef-102a-4423-b904-bb7f32288b9f","system_id":"levelo_inurba_marseille","lat":43.29561,"lon":5.39964,"is_reserved":false,"is_disabled":false,"rental_uris":{"android":"levelo://app?vid=705bdcef-102a-4423-b904-bb7f32288b9f","ios":"levelo://app?vid=705bdcef-102a-4423-b904-bb7f32288b9f"},"vehicle_type_id":"4","last_reported":1725999012,"current_range_meters":6400,"station_id":"ce4bh312rcd13ifvqdj0","pricing_plan_id":"cebpf4jnsgd1na2vs0mg"},{"bike_id":"01a9d190-f5a0-4eda-b7c1-457da88c2b6b","system_id":"levelo_inurba_marseille","lat":43.24667,"lon":5.38172,"is_reserved":false,"is_disabled":false,"rental_uris":{"android":"levelo://app?vid=01a9d190-f5a0-4eda-b7c1-457da88c2b6b","ios":"levelo://app?vid=01a9d190-f5a0-4eda-b7c1-457da88c2b6b"},"vehicle_type_id":"4","last_reported":1725999012,"current_range_meters":12800,"station_id":"ce4bhih2rcd13ifvqfr0","pricing_plan_id":"cebpf4jnsgd1na2vs0mg"},{"bike_id":"8fb9a2de-2e39-4cee-9a2d-1ba3230acc6a","system_id":"levelo_inurba_marseille","lat":43.31764,"lon":5.39015,"is_reserved":false,"is_disabled":false,"rental_uris":{"android":"levelo://app?vid=8fb9a2de-2e39-4cee-9a2d-1ba3230acc6a","ios":"levelo://app?vid=8fb9a2de-2e39-4cee-9a2d-1ba3230acc6a"},"vehicle_type_id":"4","last_reported":1725999012,"current_range_meters":4800,"station_id":"ce4bhqp2rcd13ifvqhng","pricing_plan_id":"cebpf4jnsgd1na2vs0mg"},{"bike_id":"d0c2982f-184f-42bd-9522-0104ec5bd361","system_id":"levelo_inurba_marseille","lat":43.29231,"lon":5.401661,"is_reserved":false,"is_disabled":false,"rental_uris":{"android":"levelo://app?vid=d0c2982f-184f-42bd-9522-0104ec5bd361","ios":"levelo://app?vid=d0c2982f-184f-42bd-9522-0104ec5bd361"},"vehicle_type_id":"4","last_reported":1725999012,"current_range_meters":23200,"station_id":"ce4bh312rcd13ifvqdk0","pricing_plan_id":"cebpf4jnsgd1na2vs0mg"},{"bike_id":"d5729a07-61f3-4c2f-a2b3-a10251ed660e","system_id":"levelo_inurba_marseille","lat":43.27571,"lon":5.3842,"is_reserved":false,"is_disabled":false,"rental_uris":{"android":"levelo://app?vid=d5729a07-61f3-4c2f-a2b3-a10251ed660e","ios":"levelo://app?vid=d5729a07-61f3-4c2f-a2b3-a10251ed660e"},"vehicle_type_id":"4","last_reported":1725999012,"current_range_meters":8400,"station_id":"ce4bhh92rcd13ifvqfi0","pricing_plan_id":"cebpf4jnsgd1na2vs0mg"},{"bike_id":"176109d2-c7f3-4f00-811b-e73328885cdc","system_id":"levelo_inurba_marseille","lat":43.30888,"lon":5.39646,"is_reserved":false,"is_disabled":false,"rental_uris":{"android":"levelo://app?vid=176109d2-c7f3-4f00-811b-e73328885cdc","ios":"levelo://app?vid=176109d2-c7f3-4f00-811b-e73328885cdc"},"vehicle_type_id":"4","last_reported":1725999012,"current_range_meters":5600,"station_id":"ce4bh012rcd13ifvqcv0","pricing_plan_id":"cebpf4jnsgd1na2vs0mg"},{"bike_id":"6e9860a6-99c6-437e-8bb4-fc802d0445e6","system_id":"levelo_inurba_marseille","lat":43.30789,"lon":5.37636,"is_reserved":false,"is_disabled":false,"rental_uris":{"android":"levelo://app?vid=6e9860a6-99c6-437e-8bb4-fc802d0445e6","ios":"levelo://app?vid=6e9860a6-99c6-437e-8bb4-fc802d0445e6"},"vehicle_type_id":"4","last_reported":1725999012,"current_range_meters":4000,"station_id":"ce4bgv92rcd13ifvqcq0","pricing_plan_id":"cebpf4jnsgd1na2vs0mg"},{"bike_id":"d09c54b8-d10f-4c3f-ae6e-29e2e9758bbe","system_id":"levelo_inurba_marseille","lat":43.26553,"lon":5.37286,"is_reserved":false,"is_disabled":false,"rental_uris":{"android":"levelo://app?vid=d09c54b8-d10f-4c3f-ae6e-29e2e9758bbe","ios":"levelo://app?vid=d09c54b8-d10f-4c3f-ae6e-29e2e9758bbe"},"vehicle_type_id":"4","last_reported":1725999012,"current_range_meters":32800,"station_id":"ce4bhg12rcd13ifvqf70","pricing_plan_id":"cebpf4jnsgd1na2vs0mg"},{"bike_id":"c099537a-bff4-43f5-af17-939747bfad1a","system_id":"levelo_inurba_marseille","lat":43.307921,"lon":5.381501,"is_reserved":false,"is_disabled":false,"rental_uris":{"android":"levelo://app?vid=c099537a-bff4-43f5-af17-939747bfad1a","ios":"levelo://app?vid=c099537a-bff4-43f5-af17-939747bfad1a"},"vehicle_type_id":"4","last_reported":1725999012,"current_range_meters":6800,"station_id":"ce4bgt12rcd13ifvqce0","pricing_plan_id":"cebpf4jnsgd1na2vs0mg"},{"bike_id":"eb130d77-197d-43a5-a7b7-8fb7f18705de","system_id":"levelo_inurba_marseille","lat":43.25582,"lon":5.38231,"is_reserved":false,"is_disabled":false,"rental_uris":{"android":"levelo://app?vid=eb130d77-197d-43a5-a7b7-8fb7f18705de","ios":"levelo://app?vid=eb130d77-197d-43a5-a7b7-8fb7f18705de"},"vehicle_type_id":"4","last_reported":1725999012,"current_range_meters":6800,"station_id":"ce4bhih2rcd13ifvqfs0","pricing_plan_id":"cebpf4jnsgd1na2vs0mg"},{"bike_id":"7bb4f9de-7cd3-453d-9762-d2bc34a00f75","system_id":"levelo_inurba_marseille","lat":43.28457,"lon":5.35888,"is_reserved":false,"is_disabled":false,"rental_uris":{"android":"levelo://app?vid=7bb4f9de-7cd3-453d-9762-d2bc34a00f75","ios":"levelo://app?vid=7bb4f9de-7cd3-453d-9762-d2bc34a00f75"},"vehicle_type_id":"4","last_reported":1725999012,"current_range_meters":35600,"station_id":"ce4bhah2rcd13ifvqei0","pricing_plan_id":"cebpf4jnsgd1na2vs0mg"},{"bike_id":"3bfff435-780c-430e-a884-b7e0a240cebc","system_id":"levelo_inurba_marseille","lat":43.28821,"lon":5.39182,"is_reserved":false,"is_disabled":false,"rental_uris":{"android":"levelo://app?vid=3bfff435-780c-430e-a884-b7e0a240cebc","ios":"levelo://app?vid=3bfff435-780c-430e-a884-b7e0a240cebc"},"vehicle_type_id":"4","last_reported":1725999012,"current_range_meters":22000,"station_id":"","pricing_plan_id":"cebpf4jnsgd1na2vs0mg"},{"bike_id":"69db742a-3d2e-4820-9d16-4adcfc83ca33","system_id":"levelo_inurba_marseille","lat":43.23183,"lon":5.3999,"is_reserved":false,"is_disabled":false,"rental_uris":{"android":"levelo://app?vid=69db742a-3d2e-4820-9d16-4adcfc83ca33","ios":"levelo://app?vid=69db742a-3d2e-4820-9d16-4adcfc83ca33"},"vehicle_type_id":"4","last_reported":1725999012,"current_range_meters":3200,"station_id":"ce4bhn12rcd13ifvqgqg","pricing_plan_id":"cebpf4jnsgd1na2vs0mg"},{"bike_id":"1cb5037e-5368-4516-93d7-c94332265d17","system_id":"levelo_inurba_marseille","lat":43.27374,"lon":5.36262,"is_reserved":false,"is_disabled":false,"rental_uris":{"android":"levelo://app?vid=1cb5037e-5368-4516-93d7-c94332265d17","ios":"levelo://app?vid=1cb5037e-5368-4516-93d7-c94332265d17"},"vehicle_type_id":"4","last_reported":1725999012,"current_range_meters":28400,"station_id":"ce4bhbh2rcd13ifvqeo0","pricing_plan_id":"cebpf4jnsgd1na2vs0mg"},{"bike_id":"0d45af32-f902-4961-ac85-55ad812d9afb","system_id":"levelo_inurba_marseille","lat":43.29982,"lon":5.37186,"is_reserved":false,"is_disabled":false,"rental_uris":{"android":"levelo://app?vid=0d45af32-f902-4961-ac85-55ad812d9afb","ios":"levelo://app?vid=0d45af32-f902-4961-ac85-55ad812d9afb"},"vehicle_type_id":"4","last_reported":1725999012,"current_range_meters":21600,"station_id":"ce4bgr92rcd13ifvqc7g","pricing_plan_id":"cebpf4jnsgd1na2vs0mg"},{"bike_id":"71d409a6-1730-4bca-bee4-3940b28e2bb0","system_id":"levelo_inurba_marseille","lat":43.23151,"lon":5.43715,"is_reserved":false,"is_disabled":false,"rental_uris":{"android":"levelo://app?vid=71d409a6-1730-4bca-bee4-3940b28e2bb0","ios":"levelo://app?vid=71d409a6-1730-4bca-bee4-3940b28e2bb0"},"vehicle_type_id":"4","last_reported":1725999012,"current_range_meters":33200,"station_id":"ce4bhmp2rcd13ifvqgog","pricing_plan_id":"cebpf4jnsgd1na2vs0mg"},{"bike_id":"2c812d90-5116-4e8a-9aae-596c2aa02e96","system_id":"levelo_inurba_marseille","lat":43.31711,"lon":5.37755,"is_reserved":false,"is_disabled":false,"rental_uris":{"android":"levelo://app?vid=2c812d90-5116-4e8a-9aae-596c2aa02e96","ios":"levelo://app?vid=2c812d90-5116-4e8a-9aae-596c2aa02e96"},"vehicle_type_id":"4","last_reported":1725999012,"current_range_meters":12800,"station_id":"ce4bgth2rcd13ifvqch0","pricing_plan_id":"cebpf4jnsgd1na2vs0mg"},{"bike_id":"49d54ada-ebf5-4467-8691-1e08e9be67d3","system_id":"levelo_inurba_marseille","lat":43.30932,"lon":5.40148,"is_reserved":false,"is_disabled":false,"rental_uris":{"android":"levelo://app?vid=49d54ada-ebf5-4467-8691-1e08e9be67d3","ios":"levelo://app?vid=49d54ada-ebf5-4467-8691-1e08e9be67d3"},"vehicle_type_id":"4","last_reported":1725999012,"current_range_meters":24800,"station_id":"ce4bgvp2rcd13ifvqct0","pricing_plan_id":"cebpf4jnsgd1na2vs0mg"},{"bike_id":"98f29b41-a731-4f4e-b60c-0786b2083592","system_id":"levelo_inurba_marseille","lat":43.27615,"lon":5.36115,"is_reserved":false,"is_disabled":false,"rental_uris":{"android":"levelo://app?vid=98f29b41-a731-4f4e-b60c-0786b2083592","ios":"levelo://app?vid=98f29b41-a731-4f4e-b60c-0786b2083592"},"vehicle_type_id":"4","last_reported":1725999012,"current_range_meters":30800,"station_id":"ce4bgj92rcd13ifvqbe0","pricing_plan_id":"cebpf4jnsgd1na2vs0mg"},{"bike_id":"20e99fee-7f5e-4fd9-8345-d42fb0592de3","system_id":"levelo_inurba_marseille","lat":43.33761,"lon":5.37448,"is_reserved":false,"is_disabled":false,"rental_uris":{"android":"levelo://app?vid=20e99fee-7f5e-4fd9-8345-d42fb0592de3","ios":"levelo://app?vid=20e99fee-7f5e-4fd9-8345-d42fb0592de3"},"vehicle_type_id":"4","last_reported":1725999012,"current_range_meters":19200,"station_id":"","pricing_plan_id":"cebpf4jnsgd1na2vs0mg"},{"bike_id":"b50d82f9-5037-41d5-975a-ed42c505f159","system_id":"levelo_inurba_marseille","lat":43.33713,"lon":5.39195,"is_reserved":false,"is_disabled":false,"rental_uris":{"android":"levelo://app?vid=b50d82f9-5037-41d5-975a-ed42c505f159","ios":"levelo://app?vid=b50d82f9-5037-41d5-975a-ed42c505f159"},"vehicle_type_id":"4","last_reported":1725999012,"current_range_meters":6400,"station_id":"ce4bhr92rcd13ifvqhsg","pricing_plan_id":"cebpf4jnsgd1na2vs0mg"},{"bike_id":"88a8bbbd-eb82-403d-b0bd-87255a8ea5ca","system_id":"levelo_inurba_marseille","lat":43.279447,"lon":5.410508,"is_reserved":false,"is_disabled":false,"rental_uris":{"android":"levelo://app?vid=88a8bbbd-eb82-403d-b0bd-87255a8ea5ca","ios":"levelo://app?vid=88a8bbbd-eb82-403d-b0bd-87255a8ea5ca"},"vehicle_type_id":"4","last_reported":1725999012,"current_range_meters":18800,"station_id":"ce4bhnp2rcd13ifvqh0g","pricing_plan_id":"cebpf4jnsgd1na2vs0mg"},{"bike_id":"73ef17b7-20ba-4f64-8491-5a05c01b9e02","system_id":"levelo_inurba_marseille","lat":43.28567,"lon":5.39505,"is_reserved":false,"is_disabled":false,"rental_uris":{"android":"levelo://app?vid=73ef17b7-20ba-4f64-8491-5a05c01b9e02","ios":"levelo://app?vid=73ef17b7-20ba-4f64-8491-5a05c01b9e02"},"vehicle_type_id":"4","last_reported":1725999012,"current_range_meters":17600,"station_id":"ce4bh292rcd13ifvqdg0","pricing_plan_id":"cebpf4jnsgd1na2vs0mg"},{"bike_id":"c75a1e75-5fb5-46ba-a214-1808791c393f","system_id":"levelo_inurba_marseille","lat":43.28441,"lon":5.39186,"is_reserved":false,"is_disabled":false,"rental_uris":{"android":"levelo://app?vid=c75a1e75-5fb5-46ba-a214-1808791c393f","ios":"levelo://app?vid=c75a1e75-5fb5-46ba-a214-1808791c393f"},"vehicle_type_id":"4","last_reported":1725999012,"current_range_meters":20400,"station_id":"ce4bhoh2rcd13ifvqh5g","pricing_plan_id":"cebpf4jnsgd1na2vs0mg"},{"bike_id":"3e518be1-e400-4157-b833-7627046e8d7a","system_id":"levelo_inurba_marseille","lat":43.28041,"lon":5.36938,"is_reserved":false,"is_disabled":false,"rental_uris":{"android":"levelo://app?vid=3e518be1-e400-4157-b833-7627046e8d7a","ios":"levelo://app?vid=3e518be1-e400-4157-b833-7627046e8d7a"},"vehicle_type_id":"4","last_reported":1725999012,"current_range_meters":38800,"station_id":"ce4bha12rcd13ifvqef0","pricing_plan_id":"cebpf4jnsgd1na2vs0mg"},{"bike_id":"be6e8250-baac-40a2-9970-5cd87232a03c","system_id":"levelo_inurba_marseille","lat":43.29955,"lon":5.4132,"is_reserved":false,"is_disabled":false,"rental_uris":{"android":"levelo://app?vid=be6e8250-baac-40a2-9970-5cd87232a03c","ios":"levelo://app?vid=be6e8250-baac-40a2-9970-5cd87232a03c"},"vehicle_type_id":"4","last_reported":1725999012,"current_range_meters":3200,"station_id":"ce4bhp12rcd13ifvqh9g","pricing_plan_id":"cebpf4jnsgd1na2vs0mg"},{"bike_id":"2dba04df-c531-404b-a2e2-019eda887400","system_id":"levelo_inurba_marseille","lat":43.29702,"lon":5.37706,"is_reserved":false,"is_disabled":false,"rental_uris":{"android":"levelo://app?vid=2dba04df-c531-404b-a2e2-019eda887400","ios":"levelo://app?vid=2dba04df-c531-404b-a2e2-019eda887400"},"vehicle_type_id":"4","last_reported":1725999012,"current_range_meters":9600,"station_id":"ce4bgkh2rcd13ifvqbl0","pricing_plan_id":"cebpf4jnsgd1na2vs0mg"},{"bike_id":"43666cc4-9de2-4278-ada6-42d1072583b7","system_id":"levelo_inurba_marseille","lat":43.30882,"lon":5.39649,"is_reserved":false,"is_disabled":false,"rental_uris":{"android":"levelo://app?vid=43666cc4-9de2-4278-ada6-42d1072583b7","ios":"levelo://app?vid=43666cc4-9de2-4278-ada6-42d1072583b7"},"vehicle_type_id":"4","last_reported":1725999012,"current_range_meters":22400,"station_id":"ce4bh012rcd13ifvqcv0","pricing_plan_id":"cebpf4jnsgd1na2vs0mg"},{"bike_id":"6006b707-4519-438d-992a-cb170c1979eb","system_id":"levelo_inurba_marseille","lat":43.27372,"lon":5.36253,"is_reserved":false,"is_disabled":false,"rental_uris":{"android":"levelo://app?vid=6006b707-4519-438d-992a-cb170c1979eb","ios":"levelo://app?vid=6006b707-4519-438d-992a-cb170c1979eb"},"vehicle_type_id":"4","last_reported":1725999012,"current_range_meters":28800,"station_id":"ce4bhbh2rcd13ifvqeo0","pricing_plan_id":"cebpf4jnsgd1na2vs0mg"},{"bike_id":"b077aeca-c62d-49c1-8b12-57bb6ac70796","system_id":"levelo_inurba_marseille","lat":43.30781,"lon":5.37648,"is_reserved":false,"is_disabled":false,"rental_uris":{"android":"levelo://app?vid=b077aeca-c62d-49c1-8b12-57bb6ac70796","ios":"levelo://app?vid=b077aeca-c62d-49c1-8b12-57bb6ac70796"},"vehicle_type_id":"4","last_reported":1725999012,"current_range_meters":35600,"station_id":"ce4bgv92rcd13ifvqcq0","pricing_plan_id":"cebpf4jnsgd1na2vs0mg"},{"bike_id":"5898559a-9b7f-4175-a573-1958e2fff046","system_id":"levelo_inurba_marseille","lat":43.27948,"lon":5.41043,"is_reserved":false,"is_disabled":false,"rental_uris":{"android":"levelo://app?vid=5898559a-9b7f-4175-a573-1958e2fff046","ios":"levelo://app?vid=5898559a-9b7f-4175-a573-1958e2fff046"},"vehicle_type_id":"4","last_reported":1725999012,"current_range_meters":20800,"station_id":"ce4bhnp2rcd13ifvqh0g","pricing_plan_id":"cebpf4jnsgd1na2vs0mg"},{"bike_id":"6083c8fd-673d-4152-81ee-1bcd378ef7c7","system_id":"levelo_inurba_marseille","lat":43.28458,"lon":5.35893,"is_reserved":false,"is_disabled":false,"rental_uris":{"android":"levelo://app?vid=6083c8fd-673d-4152-81ee-1bcd378ef7c7","ios":"levelo://app?vid=6083c8fd-673d-4152-81ee-1bcd378ef7c7"},"vehicle_type_id":"4","last_reported":1725999012,"current_range_meters":14400,"station_id":"ce4bhah2rcd13ifvqei0","pricing_plan_id":"cebpf4jnsgd1na2vs0mg"},{"bike_id":"bc5f882e-fc56-4dcc-93cb-5b1239a9c129","system_id":"levelo_inurba_marseille","lat":43.279907,"lon":5.405411,"is_reserved":false,"is_disabled":false,"rental_uris":{"android":"levelo://app?vid=bc5f882e-fc56-4dcc-93cb-5b1239a9c129","ios":"levelo://app?vid=bc5f882e-fc56-4dcc-93cb-5b1239a9c129"},"vehicle_type_id":"4","last_reported":1725999012,"current_range_meters":19600,"station_id":"","pricing_plan_id":"cebpf4jnsgd1na2vs0mg"},{"bike_id":"230e3a22-1a03-408c-b711-7f167a488065","system_id":"levelo_inurba_marseille","lat":43.30568,"lon":5.38125,"is_reserved":false,"is_disabled":false,"rental_uris":{"android":"levelo://app?vid=230e3a22-1a03-408c-b711-7f167a488065","ios":"levelo://app?vid=230e3a22-1a03-408c-b711-7f167a488065"},"vehicle_type_id":"4","last_reported":1725999012,"current_range_meters":12000,"station_id":"ce4bgup2rcd13ifvqcn0","pricing_plan_id":"cebpf4jnsgd1na2vs0mg"},{"bike_id":"a90f7586-8422-4f39-b47b-f594bec72c79","system_id":"levelo_inurba_marseille","lat":43.24382,"lon":5.37065,"is_reserved":false,"is_disabled":false,"rental_uris":{"android":"levelo://app?vid=a90f7586-8422-4f39-b47b-f594bec72c79","ios":"levelo://app?vid=a90f7586-8422-4f39-b47b-f594bec72c79"},"vehicle_type_id":"4","last_reported":1725999012,"current_range_meters":16000,"station_id":"ce4bhhh2rcd13ifvqfk0","pricing_plan_id":"cebpf4jnsgd1na2vs0mg"},{"bike_id":"41fcbf39-2643-4180-8038-fd299a0ebc72","system_id":"levelo_inurba_marseille","lat":43.30143,"lon":5.37425,"is_reserved":false,"is_disabled":false,"rental_uris":{"android":"levelo://app?vid=41fcbf39-2643-4180-8038-fd299a0ebc72","ios":"levelo://app?vid=41fcbf39-2643-4180-8038-fd299a0ebc72"},"vehicle_type_id":"4","last_reported":1725999012,"current_range_meters":10800,"station_id":"ce4bgs92rcd13ifvqcc0","pricing_plan_id":"cebpf4jnsgd1na2vs0mg"},{"bike_id":"0c6cf97a-bf24-4662-a8a1-7afd27dbe294","system_id":"levelo_inurba_marseille","lat":43.29221,"lon":5.3606,"is_reserved":false,"is_disabled":false,"rental_uris":{"android":"levelo://app?vid=0c6cf97a-bf24-4662-a8a1-7afd27dbe294","ios":"levelo://app?vid=0c6cf97a-bf24-4662-a8a1-7afd27dbe294"},"vehicle_type_id":"4","last_reported":1725999012,"current_range_meters":38800,"station_id":"ce4bhbh2rcd13ifvqeqg","pricing_plan_id":"cebpf4jnsgd1na2vs0mg"},{"bike_id":"488e9265-24a0-43b6-9814-fa68e131ab6b","system_id":"levelo_inurba_marseille","lat":43.31371,"lon":5.38479,"is_reserved":false,"is_disabled":false,"rental_uris":{"android":"levelo://app?vid=488e9265-24a0-43b6-9814-fa68e131ab6b","ios":"levelo://app?vid=488e9265-24a0-43b6-9814-fa68e131ab6b"},"vehicle_type_id":"4","last_reported":1725999012,"current_range_meters":30400,"station_id":"ce4bgt92rcd13ifvqcf0","pricing_plan_id":"cebpf4jnsgd1na2vs0mg"},{"bike_id":"8082d7b6-3f37-4f9f-958a-ba026a6e9485","system_id":"levelo_inurba_marseille","lat":43.23954,"lon":5.36633,"is_reserved":false,"is_disabled":false,"rental_uris":{"android":"levelo://app?vid=8082d7b6-3f37-4f9f-958a-ba026a6e9485","ios":"levelo://app?vid=8082d7b6-3f37-4f9f-958a-ba026a6e9485"},"vehicle_type_id":"4","last_reported":1725999012,"current_range_meters":12800,"station_id":"ce4bhi12rcd13ifvqfp0","pricing_plan_id":"cebpf4jnsgd1na2vs0mg"},{"bike_id":"0b873e3d-5177-4b00-9590-fc5c775c42e9","system_id":"levelo_inurba_marseille","lat":43.32049,"lon":5.41562,"is_reserved":false,"is_disabled":false,"rental_uris":{"android":"levelo://app?vid=0b873e3d-5177-4b00-9590-fc5c775c42e9","ios":"levelo://app?vid=0b873e3d-5177-4b00-9590-fc5c775c42e9"},"vehicle_type_id":"4","last_reported":1725999012,"current_range_meters":15200,"station_id":"ce4bhq92rcd13ifvqhkg","pricing_plan_id":"cebpf4jnsgd1na2vs0mg"},{"bike_id":"7190e5c7-1ace-4486-82cb-9421972e6672","system_id":"levelo_inurba_marseille","lat":43.26558,"lon":5.37296,"is_reserved":false,"is_disabled":false,"rental_uris":{"android":"levelo://app?vid=7190e5c7-1ace-4486-82cb-9421972e6672","ios":"levelo://app?vid=7190e5c7-1ace-4486-82cb-9421972e6672"},"vehicle_type_id":"4","last_reported":1725999012,"current_range_meters":27200,"station_id":"ce4bhg12rcd13ifvqf70","pricing_plan_id":"cebpf4jnsgd1na2vs0mg"},{"bike_id":"68a5aba2-2b40-4cf4-baa5-3c25f451a9fc","system_id":"levelo_inurba_marseille","lat":43.2582,"lon":5.39442,"is_reserved":false,"is_disabled":false,"rental_uris":{"android":"levelo://app?vid=68a5aba2-2b40-4cf4-baa5-3c25f451a9fc","ios":"levelo://app?vid=68a5aba2-2b40-4cf4-baa5-3c25f451a9fc"},"vehicle_type_id":"4","last_reported":1725999012,"current_range_meters":20400,"station_id":"ce4bhip2rcd13ifvqft0","pricing_plan_id":"cebpf4jnsgd1na2vs0mg"},{"bike_id":"44c7f72f-afac-4027-8f81-6ffa7b045cce","system_id":"levelo_inurba_marseille","lat":43.28459,"lon":5.35896,"is_reserved":false,"is_disabled":false,"rental_uris":{"android":"levelo://app?vid=44c7f72f-afac-4027-8f81-6ffa7b045cce","ios":"levelo://app?vid=44c7f72f-afac-4027-8f81-6ffa7b045cce"},"vehicle_type_id":"4","last_reported":1725999012,"current_range_meters":38800,"station_id":"ce4bhah2rcd13ifvqei0","pricing_plan_id":"cebpf4jnsgd1na2vs0mg"},{"bike_id":"26472f42-99b5-4197-aad1-5639b283609b","system_id":"levelo_inurba_marseille","lat":43.31844,"lon":5.37388,"is_reserved":false,"is_disabled":false,"rental_uris":{"android":"levelo://app?vid=26472f42-99b5-4197-aad1-5639b283609b","ios":"levelo://app?vid=26472f42-99b5-4197-aad1-5639b283609b"},"vehicle_type_id":"4","last_reported":1725999012,"current_range_meters":9200,"station_id":"","pricing_plan_id":"cebpf4jnsgd1na2vs0mg"},{"bike_id":"e04008a3-d2b4-40eb-9815-b324c664f626","system_id":"levelo_inurba_marseille","lat":43.28457,"lon":5.35889,"is_reserved":false,"is_disabled":false,"rental_uris":{"android":"levelo://app?vid=e04008a3-d2b4-40eb-9815-b324c664f626","ios":"levelo://app?vid=e04008a3-d2b4-40eb-9815-b324c664f626"},"vehicle_type_id":"4","last_reported":1725999012,"current_range_meters":14000,"station_id":"ce4bhah2rcd13ifvqei0","pricing_plan_id":"cebpf4jnsgd1na2vs0mg"},{"bike_id":"e2427abc-072d-44bf-85a9-422cec2ceea5","system_id":"levelo_inurba_marseille","lat":43.30876,"lon":5.39633,"is_reserved":false,"is_disabled":false,"rental_uris":{"android":"levelo://app?vid=e2427abc-072d-44bf-85a9-422cec2ceea5","ios":"levelo://app?vid=e2427abc-072d-44bf-85a9-422cec2ceea5"},"vehicle_type_id":"4","last_reported":1725999012,"current_range_meters":22800,"station_id":"ce4bh012rcd13ifvqcv0","pricing_plan_id":"cebpf4jnsgd1na2vs0mg"},{"bike_id":"002d026b-abe1-4027-8384-6a734dce67b5","system_id":"levelo_inurba_marseille","lat":43.30781,"lon":5.37656,"is_reserved":false,"is_disabled":false,"rental_uris":{"android":"levelo://app?vid=002d026b-abe1-4027-8384-6a734dce67b5","ios":"levelo://app?vid=002d026b-abe1-4027-8384-6a734dce67b5"},"vehicle_type_id":"4","last_reported":1725999012,"current_range_meters":12000,"station_id":"ce4bgv92rcd13ifvqcq0","pricing_plan_id":"cebpf4jnsgd1na2vs0mg"},{"bike_id":"19c0efc1-a2bc-497b-ba59-fc8f7782b058","system_id":"levelo_inurba_marseille","lat":43.30589,"lon":5.39349,"is_reserved":false,"is_disabled":false,"rental_uris":{"android":"levelo://app?vid=19c0efc1-a2bc-497b-ba59-fc8f7782b058","ios":"levelo://app?vid=19c0efc1-a2bc-497b-ba59-fc8f7782b058"},"vehicle_type_id":"4","last_reported":1725999012,"current_range_meters":31200,"station_id":"ce4bh0p2rcd13ifvqd80","pricing_plan_id":"cebpf4jnsgd1na2vs0mg"},{"bike_id":"24f84f90-c95f-44f9-866d-e36a088e9584","system_id":"levelo_inurba_marseille","lat":43.28701,"lon":5.39983,"is_reserved":false,"is_disabled":false,"rental_uris":{"android":"levelo://app?vid=24f84f90-c95f-44f9-866d-e36a088e9584","ios":"levelo://app?vid=24f84f90-c95f-44f9-866d-e36a088e9584"},"vehicle_type_id":"4","last_reported":1725999012,"current_range_meters":8800,"station_id":"ce4bho92rcd13ifvqh3g","pricing_plan_id":"cebpf4jnsgd1na2vs0mg"},{"bike_id":"45b25c17-9966-4c5e-94c8-152a788da9fb","system_id":"levelo_inurba_marseille","lat":43.24808,"lon":5.3746,"is_reserved":false,"is_disabled":false,"rental_uris":{"android":"levelo://app?vid=45b25c17-9966-4c5e-94c8-152a788da9fb","ios":"levelo://app?vid=45b25c17-9966-4c5e-94c8-152a788da9fb"},"vehicle_type_id":"4","last_reported":1725999012,"current_range_meters":38000,"station_id":"ce4bhgh2rcd13ifvqfb0","pricing_plan_id":"cebpf4jnsgd1na2vs0mg"},{"bike_id":"9b398f9a-8054-4589-b141-3eecec1dc8e9","system_id":"levelo_inurba_marseille","lat":43.26558,"lon":5.37285,"is_reserved":false,"is_disabled":false,"rental_uris":{"android":"levelo://app?vid=9b398f9a-8054-4589-b141-3eecec1dc8e9","ios":"levelo://app?vid=9b398f9a-8054-4589-b141-3eecec1dc8e9"},"vehicle_type_id":"4","last_reported":1725999012,"current_range_meters":38800,"station_id":"ce4bhg12rcd13ifvqf70","pricing_plan_id":"cebpf4jnsgd1na2vs0mg"},{"bike_id":"64c2a0ef-e96b-4d26-9586-89a870078d4f","system_id":"levelo_inurba_marseille","lat":43.30418,"lon":5.4129,"is_reserved":false,"is_disabled":false,"rental_uris":{"android":"levelo://app?vid=64c2a0ef-e96b-4d26-9586-89a870078d4f","ios":"levelo://app?vid=64c2a0ef-e96b-4d26-9586-89a870078d4f"},"vehicle_type_id":"4","last_reported":1725999012,"current_range_meters":18800,"station_id":"ce4bhop2rcd13ifvqh8g","pricing_plan_id":"cebpf4jnsgd1na2vs0mg"},{"bike_id":"d8ed9016-3943-4a61-8a98-ce1ecd87837a","system_id":"levelo_inurba_marseille","lat":43.27374,"lon":5.36255,"is_reserved":false,"is_disabled":false,"rental_uris":{"android":"levelo://app?vid=d8ed9016-3943-4a61-8a98-ce1ecd87837a","ios":"levelo://app?vid=d8ed9016-3943-4a61-8a98-ce1ecd87837a"},"vehicle_type_id":"4","last_reported":1725999012,"current_range_meters":19600,"station_id":"ce4bhbh2rcd13ifvqeo0","pricing_plan_id":"cebpf4jnsgd1na2vs0mg"},{"bike_id":"0dba1df9-e50d-45a3-9c5a-922d1346e8dc","system_id":"levelo_inurba_marseille","lat":43.30312,"lon":5.36915,"is_reserved":false,"is_disabled":false,"rental_uris":{"android":"levelo://app?vid=0dba1df9-e50d-45a3-9c5a-922d1346e8dc","ios":"levelo://app?vid=0dba1df9-e50d-45a3-9c5a-922d1346e8dc"},"vehicle_type_id":"4","last_reported":1725999012,"current_range_meters":7200,"station_id":"ce4bgqh2rcd13ifvqc5g","pricing_plan_id":"cebpf4jnsgd1na2vs0mg"},{"bike_id":"5e0305b0-1845-41dc-bf38-554d13f4c456","system_id":"levelo_inurba_marseille","lat":43.28937,"lon":5.36635,"is_reserved":false,"is_disabled":false,"rental_uris":{"android":"levelo://app?vid=5e0305b0-1845-41dc-bf38-554d13f4c456","ios":"levelo://app?vid=5e0305b0-1845-41dc-bf38-554d13f4c456"},"vehicle_type_id":"4","last_reported":1725999012,"current_range_meters":38800,"station_id":"ce4bhap2rcd13ifvqek0","pricing_plan_id":"cebpf4jnsgd1na2vs0mg"},{"bike_id":"367500eb-e636-4339-a010-51c48a5cd527","system_id":"levelo_inurba_marseille","lat":43.28457,"lon":5.35889,"is_reserved":false,"is_disabled":false,"rental_uris":{"android":"levelo://app?vid=367500eb-e636-4339-a010-51c48a5cd527","ios":"levelo://app?vid=367500eb-e636-4339-a010-51c48a5cd527"},"vehicle_type_id":"4","last_reported":1725999012,"current_range_meters":38800,"station_id":"ce4bhah2rcd13ifvqei0","pricing_plan_id":"cebpf4jnsgd1na2vs0mg"},{"bike_id":"877bd17c-6ef7-4430-89ff-8e649c6f690a","system_id":"levelo_inurba_marseille","lat":43.29192,"lon":5.35796,"is_reserved":false,"is_disabled":false,"rental_uris":{"android":"levelo://app?vid=877bd17c-6ef7-4430-89ff-8e649c6f690a","ios":"levelo://app?vid=877bd17c-6ef7-4430-89ff-8e649c6f690a"},"vehicle_type_id":"4","last_reported":1725999012,"current_range_meters":11600,"station_id":"ce4bhb12rcd13ifvqel0","pricing_plan_id":"cebpf4jnsgd1na2vs0mg"},{"bike_id":"b7de0091-660c-4e2d-bcb6-5d04f5ed5055","system_id":"levelo_inurba_marseille","lat":43.29901,"lon":5.43666,"is_reserved":false,"is_disabled":false,"rental_uris":{"android":"levelo://app?vid=b7de0091-660c-4e2d-bcb6-5d04f5ed5055","ios":"levelo://app?vid=b7de0091-660c-4e2d-bcb6-5d04f5ed5055"},"vehicle_type_id":"4","last_reported":1725999012,"current_range_meters":34000,"station_id":"ce4bhpp2rcd13ifvqhfg","pricing_plan_id":"cebpf4jnsgd1na2vs0mg"},{"bike_id":"4beb077b-649d-4723-852b-26f733c406ee","system_id":"levelo_inurba_marseille","lat":43.27997,"lon":5.40026,"is_reserved":false,"is_disabled":false,"rental_uris":{"android":"levelo://app?vid=4beb077b-649d-4723-852b-26f733c406ee","ios":"levelo://app?vid=4beb077b-649d-4723-852b-26f733c406ee"},"vehicle_type_id":"4","last_reported":1725999012,"current_range_meters":34000,"station_id":"ce4bho92rcd13ifvqh4g","pricing_plan_id":"cebpf4jnsgd1na2vs0mg"},{"bike_id":"99a95265-7093-4033-ae35-fd9b444c56bd","system_id":"levelo_inurba_marseille","lat":43.2319,"lon":5.35555,"is_reserved":false,"is_disabled":false,"rental_uris":{"android":"levelo://app?vid=99a95265-7093-4033-ae35-fd9b444c56bd","ios":"levelo://app?vid=99a95265-7093-4033-ae35-fd9b444c56bd"},"vehicle_type_id":"4","last_reported":1725999012,"current_range_meters":3600,"station_id":"ce4bhu92rcd13ifvqi70","pricing_plan_id":"cebpf4jnsgd1na2vs0mg"},{"bike_id":"5cc9376c-8559-4040-8cda-390f2738e72f","system_id":"levelo_inurba_marseille","lat":43.28696,"lon":5.39983,"is_reserved":false,"is_disabled":false,"rental_uris":{"android":"levelo://app?vid=5cc9376c-8559-4040-8cda-390f2738e72f","ios":"levelo://app?vid=5cc9376c-8559-4040-8cda-390f2738e72f"},"vehicle_type_id":"4","last_reported":1725999012,"current_range_meters":14400,"station_id":"ce4bho92rcd13ifvqh3g","pricing_plan_id":"cebpf4jnsgd1na2vs0mg"},{"bike_id":"1c5a4d24-dec9-4ce8-8f8f-f930cf02cf1e","system_id":"levelo_inurba_marseille","lat":43.24662,"lon":5.3817,"is_reserved":false,"is_disabled":false,"rental_uris":{"android":"levelo://app?vid=1c5a4d24-dec9-4ce8-8f8f-f930cf02cf1e","ios":"levelo://app?vid=1c5a4d24-dec9-4ce8-8f8f-f930cf02cf1e"},"vehicle_type_id":"4","last_reported":1725999012,"current_range_meters":22400,"station_id":"ce4bhih2rcd13ifvqfr0","pricing_plan_id":"cebpf4jnsgd1na2vs0mg"},{"bike_id":"004b6329-6bc1-44f3-b8f8-c2b80ef0d237","system_id":"levelo_inurba_marseille","lat":43.30431,"lon":5.38889,"is_reserved":false,"is_disabled":false,"rental_uris":{"android":"levelo://app?vid=004b6329-6bc1-44f3-b8f8-c2b80ef0d237","ios":"levelo://app?vid=004b6329-6bc1-44f3-b8f8-c2b80ef0d237"},"vehicle_type_id":"4","last_reported":1725999012,"current_range_meters":25600,"station_id":"ce4bgk12rcd13ifvqbi0","pricing_plan_id":"cebpf4jnsgd1na2vs0mg"},{"bike_id":"f4cb4a7f-9205-4160-a11e-27ee222bd9c6","system_id":"levelo_inurba_marseille","lat":43.28857,"lon":5.35863,"is_reserved":false,"is_disabled":false,"rental_uris":{"android":"levelo://app?vid=f4cb4a7f-9205-4160-a11e-27ee222bd9c6","ios":"levelo://app?vid=f4cb4a7f-9205-4160-a11e-27ee222bd9c6"},"vehicle_type_id":"4","last_reported":1725999012,"current_range_meters":2000,"station_id":"ce4bhb12rcd13ifvqem0","pricing_plan_id":"cebpf4jnsgd1na2vs0mg"},{"bike_id":"38497525-ea45-4d21-b42c-3590d3e0ea77","system_id":"levelo_inurba_marseille","lat":43.24647,"lon":5.38893,"is_reserved":false,"is_disabled":false,"rental_uris":{"android":"levelo://app?vid=38497525-ea45-4d21-b42c-3590d3e0ea77","ios":"levelo://app?vid=38497525-ea45-4d21-b42c-3590d3e0ea77"},"vehicle_type_id":"4","last_reported":1725999012,"current_range_meters":17600,"station_id":"ce4bhg12rcd13ifvqf60","pricing_plan_id":"cebpf4jnsgd1na2vs0mg"},{"bike_id":"9640cf56-83da-44b0-823f-95a7ac34628f","system_id":"levelo_inurba_marseille","lat":43.32372,"lon":5.38883,"is_reserved":false,"is_disabled":false,"rental_uris":{"android":"levelo://app?vid=9640cf56-83da-44b0-823f-95a7ac34628f","ios":"levelo://app?vid=9640cf56-83da-44b0-823f-95a7ac34628f"},"vehicle_type_id":"4","last_reported":1725999012,"current_range_meters":30400,"station_id":"ce4bhqp2rcd13ifvqhog","pricing_plan_id":"cebpf4jnsgd1na2vs0mg"},{"bike_id":"7e75fb18-6526-4dc6-98c1-bfeb9edefe46","system_id":"levelo_inurba_marseille","lat":43.313599,"lon":5.384872,"is_reserved":false,"is_disabled":false,"rental_uris":{"android":"levelo://app?vid=7e75fb18-6526-4dc6-98c1-bfeb9edefe46","ios":"levelo://app?vid=7e75fb18-6526-4dc6-98c1-bfeb9edefe46"},"vehicle_type_id":"4","last_reported":1725999012,"current_range_meters":30400,"station_id":"ce4bgt92rcd13ifvqcf0","pricing_plan_id":"cebpf4jnsgd1na2vs0mg"},{"bike_id":"93728639-9194-4d78-bf65-2c9798bbef62","system_id":"levelo_inurba_marseille","lat":43.29279,"lon":5.40115,"is_reserved":false,"is_disabled":false,"rental_uris":{"android":"levelo://app?vid=93728639-9194-4d78-bf65-2c9798bbef62","ios":"levelo://app?vid=93728639-9194-4d78-bf65-2c9798bbef62"},"vehicle_type_id":"4","last_reported":1725999012,"current_range_meters":4000,"station_id":"ce4bh312rcd13ifvqdk0","pricing_plan_id":"cebpf4jnsgd1na2vs0mg"},{"bike_id":"a3982985-7280-435f-8921-c0ff31760ce1","system_id":"levelo_inurba_marseille","lat":43.30133,"lon":5.37426,"is_reserved":false,"is_disabled":false,"rental_uris":{"android":"levelo://app?vid=a3982985-7280-435f-8921-c0ff31760ce1","ios":"levelo://app?vid=a3982985-7280-435f-8921-c0ff31760ce1"},"vehicle_type_id":"4","last_reported":1725999012,"current_range_meters":6400,"station_id":"ce4bgs92rcd13ifvqcc0","pricing_plan_id":"cebpf4jnsgd1na2vs0mg"},{"bike_id":"cc663880-ec03-4c5f-8b4a-5e3244a109dc","system_id":"levelo_inurba_marseille","lat":43.28039,"lon":5.36949,"is_reserved":false,"is_disabled":false,"rental_uris":{"android":"levelo://app?vid=cc663880-ec03-4c5f-8b4a-5e3244a109dc","ios":"levelo://app?vid=cc663880-ec03-4c5f-8b4a-5e3244a109dc"},"vehicle_type_id":"4","last_reported":1725999012,"current_range_meters":28800,"station_id":"ce4bha12rcd13ifvqef0","pricing_plan_id":"cebpf4jnsgd1na2vs0mg"},{"bike_id":"58c2fd9b-32e2-482c-9f89-236eaa4bc0f8","system_id":"levelo_inurba_marseille","lat":43.23179,"lon":5.39993,"is_reserved":false,"is_disabled":false,"rental_uris":{"android":"levelo://app?vid=58c2fd9b-32e2-482c-9f89-236eaa4bc0f8","ios":"levelo://app?vid=58c2fd9b-32e2-482c-9f89-236eaa4bc0f8"},"vehicle_type_id":"4","last_reported":1725999012,"current_range_meters":13600,"station_id":"ce4bhn12rcd13ifvqgqg","pricing_plan_id":"cebpf4jnsgd1na2vs0mg"},{"bike_id":"93be609d-ac11-4dfc-8d1d-cb568bcdcc8f","system_id":"levelo_inurba_marseille","lat":43.29541,"lon":5.38535,"is_reserved":false,"is_disabled":false,"rental_uris":{"android":"levelo://app?vid=93be609d-ac11-4dfc-8d1d-cb568bcdcc8f","ios":"levelo://app?vid=93be609d-ac11-4dfc-8d1d-cb568bcdcc8f"},"vehicle_type_id":"4","last_reported":1725999012,"current_range_meters":2800,"station_id":"ce4bgih2rcd13ifvqba0","pricing_plan_id":"cebpf4jnsgd1na2vs0mg"},{"bike_id":"8f313995-c99a-4b07-aeef-4e45476b4409","system_id":"levelo_inurba_marseille","lat":43.28459,"lon":5.35894,"is_reserved":false,"is_disabled":false,"rental_uris":{"android":"levelo://app?vid=8f313995-c99a-4b07-aeef-4e45476b4409","ios":"levelo://app?vid=8f313995-c99a-4b07-aeef-4e45476b4409"},"vehicle_type_id":"4","last_reported":1725999012,"current_range_meters":38400,"station_id":"ce4bhah2rcd13ifvqei0","pricing_plan_id":"cebpf4jnsgd1na2vs0mg"},