{"last_updated":1748884241,"ttl":60,"version":"2.2","data":{"bikes":[{"bike_id":"a6c5ed34-7b58-4d07-b61d-5c3cf2c84131","system_id":"levelo_inurba_marseille","lat":43.28443,"lon":5.35886,"is_reserved":false,"is_disabled":false,"rental_uris":{"android":"levelo://app?vid=a6c5ed34-7b58-4d07-b61d-5c3cf2c84131","ios":"levelo://app?vid=a6c5ed34-7b58-4d07-b61d-5c3cf2c84131"},"vehicle_type_id":"4","last_reported":1748884241,"current_range_meters":2800,"station_id":"ce4bhah2rcd13ifvqei0","pricing_plan_id":"cebpf4jnsgd1na2vs0mg"},{"bike_id":"24300ffc-8f39-4d85-b0a9-36ecfb95fcf1","system_id":"levelo_inurba_marseille","lat":43.28034,"lon":5.36951,"is_reserved":false,"is_disabled":false,"rental_uris":{"android":"levelo://app?vid=24300ffc-8f39-4d85-b0a9-36ecfb95fcf1","ios":"levelo://app?vid=24300ffc-8f39-4d85-b0a9-36ecfb95fcf1"},"vehicle_type_id":"4","last_reported":1748884241,"current_range_meters":3200,"station_id":"ce4bha12rcd13ifvqef0","pricing_plan_id":"cebpf4jnsgd1na2vs0mg"},{"bike_id":"2d4e21bb-3dfc-4bbb-96d1-0ce61cbc91e7","system_id":"levelo_inurba_marseille","lat":43.30186,"lon":5.36626,"is_reserved":false,"is_disabled":false,"rental_uris":{"android":"levelo://app?vid=2d4e21bb-3dfc-4bbb-96d1-0ce61cbc91e7","ios":"levelo://app?vid=2d4e21bb-3dfc-4bbb-96d1-0ce61cbc91e7"},"vehicle_type_id":"4","last_reported":1748884241,"current_range_meters":2800,"station_id":"ce4bgrh2rcd13ifvqc8g","pricing_plan_id":"cebpf4jnsgd1na2vs0mg"},{"bike_id":"2bf97827-b856-47f5-9fd6-b38b5cc6b563","system_id":"levelo_inurba_marseille","lat":43.29195,"lon":5.35804,"is_reserved":false,"is_disabled":false,"rental_uris":{"android":"levelo://app?vid=2bf97827-b856-47f5-9fd6-b38b5cc6b563","ios":"levelo://app?vid=2bf97827-b856-47f5-9fd6-b38b5cc6b563"},"vehicle_type_id":"4","last_reported":1748884241,"current_range_meters":3200,"station_id":"ce4bhb12rcd13ifvqel0","pricing_plan_id":"cebpf4jnsgd1na2vs0mg"},{"bike_id":"44c016dc-66fa-4c82-932e-a942044af1b4","system_id":"levelo_inurba_marseille","lat":43.27905,"lon":5.39577,"is_reserved":false,"is_disabled":false,"rental_uris":{"android":"levelo://app?vid=44c016dc-66fa-4c82-932e-a942044af1b4","ios":"levelo://app?vid=44c016dc-66fa-4c82-932e-a942044af1b4"},"vehicle_type_id":"4","last_reported":1748884241,"current_range_meters":3200,"station_id":"ce4bhf92rcd13ifvqf40","pricing_plan_id":"cebpf4jnsgd1na2vs0mg"},{"bike_id":"cae28f89-63c7-441f-8355-0c203e4254dd","system_id":"levelo_inurba_marseille","lat":43.297865,"lon":5.39372,"is_reserved":false,"is_disabled":false,"rental_uris":{"android":"levelo://app?vid=cae28f89-63c7-441f-8355-0c203e4254dd","ios":"levelo://app?vid=cae28f89-63c7-441f-8355-0c203e4254dd"},"vehicle_type_id":"4","last_reported":1748884241,"current_range_meters":3200,"station_id":"chh1huq6cuj3fo74tm60","pricing_plan_id":"cebpf4jnsgd1na2vs0mg"},{"bike_id":"6cca9215-7e1b-4126-a603-eb903405914e","system_id":"levelo_inurba_marseille","lat":43.28625,"lon":5.3509,"is_reserved":false,"is_disabled":false,"rental_uris":{"android":"levelo://app?vid=6cca9215-7e1b-4126-a603-eb903405914e","ios":"levelo://app?vid=6cca9215-7e1b-4126-a603-eb903405914e"},"vehicle_type_id":"4","last_reported":1748884241,"current_range_meters":3600,"station_id":"ce4bhch2rcd13ifvqeug","pricing_plan_id":"cebpf4jnsgd1na2vs0mg"},{"bike_id":"bd75ce39-bce5-4135-8943-7ccc14af3d7f","system_id":"levelo_inurba_marseille","lat":43.25577,"lon":5.38245,"is_reserved":false,"is_disabled":false,"rental_uris":{"android":"levelo://app?vid=bd75ce39-bce5-4135-8943-7ccc14af3d7f","ios":"levelo://app?vid=bd75ce39-bce5-4135-8943-7ccc14af3d7f"},"vehicle_type_id":"4","last_reported":1748884241,"current_range_meters":3600,"station_id":"ce4bhih2rcd13ifvqfs0","pricing_plan_id":"cebpf4jnsgd1na2vs0mg"},{"bike_id":"375848ef-48c7-48f0-ba9f-a63eb13ed454","system_id":"levelo_inurba_marseille","lat":43.28344,"lon":5.38096,"is_reserved":false,"is_disabled":false,"rental_uris":{"android":"levelo://app?vid=375848ef-48c7-48f0-ba9f-a63eb13ed454","ios":"levelo://app?vid=375848ef-48c7-48f0-ba9f-a63eb13ed454"},"vehicle_type_id":"4","last_reported":1748884241,"current_range_meters":3600,"station_id":"ce4bh412rcd13ifvqdr0","pricing_plan_id":"cebpf4jnsgd1na2vs0mg"},{"bike_id":"da5a683c-a88f-41a7-82bc-72aa70bb0e7a","system_id":"levelo_inurba_marseille","lat":43.28725,"lon":5.36097,"is_reserved":false,"is_disabled":false,"rental_uris":{"android":"levelo://app?vid=da5a683c-a88f-41a7-82bc-72aa70bb0e7a","ios":"levelo://app?vid=da5a683c-a88f-41a7-82bc-72aa70bb0e7a"},"vehicle_type_id":"4","last_reported":1748884241,"current_range_meters":3600,"station_id":"cki0cbj6b192h4jlfktg","pricing_plan_id":"cebpf4jnsgd1na2vs0mg"},{"bike_id":"8033c027-4d01-4761-95a4-b04c20640fad","system_id":"levelo_inurba_marseille","lat":43.21754,"lon":5.346002,"is_reserved":false,"is_disabled":false,"rental_uris":{"android":"levelo://app?vid=8033c027-4d01-4761-95a4-b04c20640fad","ios":"levelo://app?vid=8033c027-4d01-4761-95a4-b04c20640fad"},"vehicle_type_id":"4","last_reported":1748884241,"current_range_meters":4000,"station_id":"","pricing_plan_id":"cebpf4jnsgd1na2vs0mg"},{"bike_id":"faa99d3a-c428-4487-b661-aef73aab9d13","system_id":"levelo_inurba_marseille","lat":43.25573,"lon":5.3824,"is_reserved":false,"is_disabled":false,"rental_uris":{"android":"levelo://app?vid=faa99d3a-c428-4487-b661-aef73aab9d13","ios":"levelo://app?vid=faa99d3a-c428-4487-b661-aef73aab9d13"},"vehicle_type_id":"4","last_reported":1748884241,"current_range_meters":4400,"station_id":"ce4bhih2rcd13ifvqfs0","pricing_plan_id":"cebpf4jnsgd1na2vs0mg"},{"bike_id":"9372d2e9-5943-4e54-b5f1-1d58cd42866e","system_id":"levelo_inurba_marseille","lat":43.27559,"lon":5.38417,"is_reserved":false,"is_disabled":false,"rental_uris":{"android":"levelo://app?vid=9372d2e9-5943-4e54-b5f1-1d58cd42866e","ios":"levelo://app?vid=9372d2e9-5943-4e54-b5f1-1d58cd42866e"},"vehicle_type_id":"4","last_reported":1748884241,"current_range_meters":4000,"station_id":"ce4bhh92rcd13ifvqfi0","pricing_plan_id":"cebpf4jnsgd1na2vs0mg"},{"bike_id":"e11c0025-484e-40c3-b526-d013b93590d0","system_id":"levelo_inurba_marseille","lat":43.2997,"lon":5.38497,"is_reserved":false,"is_disabled":false,"rental_uris":{"android":"levelo://app?vid=e11c0025-484e-40c3-b526-d013b93590d0","ios":"levelo://app?vid=e11c0025-484e-40c3-b526-d013b93590d0"},"vehicle_type_id":"4","last_reported":1748884241,"current_range_meters":4800,"station_id":"ce4bgj92rcd13ifvqbd0","pricing_plan_id":"cebpf4jnsgd1na2vs0mg"},{"bike_id":"c97038f3-4518-4c9d-afaa-4920937e02fa","system_id":"levelo_inurba_marseille","lat":43.246263,"lon":5.393187,"is_reserved":false,"is_disabled":false,"rental_uris":{"android":"levelo://app?vid=c97038f3-4518-4c9d-afaa-4920937e02fa","ios":"levelo://app?vid=c97038f3-4518-4c9d-afaa-4920937e02fa"},"vehicle_type_id":"4","last_reported":1748884241,"current_range_meters":4800,"station_id":"","pricing_plan_id":"cebpf4jnsgd1na2vs0mg"},{"bike_id":"bff91e46-d50f-47f4-abcc-a302e9440288","system_id":"levelo_inurba_marseille","lat":43.33038,"lon":5.39367,"is_reserved":false,"is_disabled":false,"rental_uris":{"android":"levelo://app?vid=bff91e46-d50f-47f4-abcc-a302e9440288","ios":"levelo://app?vid=bff91e46-d50f-47f4-abcc-a302e9440288"},"vehicle_type_id":"4","last_reported":1748884241,"current_range_meters":4800,"station_id":"","pricing_plan_id":"cebpf4jnsgd1na2vs0mg"},{"bike_id":"f3ec75d3-73ae-46dd-814c-4d6a4bbba4ad","system_id":"levelo_inurba_marseille","lat":43.306765,"lon":5.399628,"is_reserved":false,"is_disabled":false,"rental_uris":{"android":"levelo://app?vid=f3ec75d3-73ae-46dd-814c-4d6a4bbba4ad","ios":"levelo://app?vid=f3ec75d3-73ae-46dd-814c-4d6a4bbba4ad"},"vehicle_type_id":"4","last_reported":1748884241,"current_range_meters":3600,"station_id":"ce4bh092rcd13ifvqd20","pricing_plan_id":"cebpf4jnsgd1na2vs0mg"},{"bike_id":"d67705d2-0e3f-4509-bd84-3c406671f4fd","system_id":"levelo_inurba_marseille","lat":43.2557,"lon":5.38235,"is_reserved":false,"is_disabled":false,"rental_uris":{"android":"levelo://app?vid=d67705d2-0e3f-4509-bd84-3c406671f4fd","ios":"levelo://app?vid=d67705d2-0e3f-4509-bd84-3c406671f4fd"},"vehicle_type_id":"4","last_reported":1748884241,"current_range_meters":5600,"station_id":"ce4bhih2rcd13ifvqfs0","pricing_plan_id":"cebpf4jnsgd1na2vs0mg"},{"bike_id":"4ae1d797-5ec9-46e5-94d5-19e7573f9531","system_id":"levelo_inurba_marseille","lat":43.29268,"lon":5.38442,"is_reserved":false,"is_disabled":false,"rental_uris":{"android":"levelo://app?vid=4ae1d797-5ec9-46e5-94d5-19e7573f9531","ios":"levelo://app?vid=4ae1d797-5ec9-46e5-94d5-19e7573f9531"},"vehicle_type_id":"4","last_reported":1748884241,"current_range_meters":5600,"station_id":"ce4bh692rcd13ifvqea0","pricing_plan_id":"cebpf4jnsgd1na2vs0mg"},{"bike_id":"aadb95fc-d156-41e0-9614-75d762b11d28","system_id":"levelo_inurba_marseille","lat":43.31969,"lon":5.44032,"is_reserved":false,"is_disabled":false,"rental_uris":{"android":"levelo://app?vid=aadb95fc-d156-41e0-9614-75d762b11d28","ios":"levelo://app?vid=aadb95fc-d156-41e0-9614-75d762b11d28"},"vehicle_type_id":"4","last_reported":1748884241,"current_range_meters":5600,"station_id":"","pricing_plan_id":"cebpf4jnsgd1na2vs0mg"},{"bike_id":"a92e39c5-6288-455f-aa9e-22967c3ece21","system_id":"levelo_inurba_marseille","lat":43.2942,"lon":5.38644,"is_reserved":false,"is_disabled":false,"rental_uris":{"android":"levelo://app?vid=a92e39c5-6288-455f-aa9e-22967c3ece21","ios":"levelo://app?vid=a92e39c5-6288-455f-aa9e-22967c3ece21"},"vehicle_type_id":"4","last_reported":1748884241,"current_range_meters":5600,"station_id":"ce4bh2h2rcd13ifvqdh0","pricing_plan_id":"cebpf4jnsgd1na2vs0mg"},{"bike_id":"77c0fda6-6483-4329-8ba3-64ce91492a43","system_id":"levelo_inurba_marseille","lat":43.24177,"lon":5.39729,"is_reserved":false,"is_disabled":false,"rental_uris":{"android":"levelo://app?vid=77c0fda6-6483-4329-8ba3-64ce91492a43","ios":"levelo://app?vid=77c0fda6-6483-4329-8ba3-64ce91492a43"},"vehicle_type_id":"4","last_reported":1748884241,"current_range_meters":6000,"station_id":"ce4bhn12rcd13ifvqgpg","pricing_plan_id":"cebpf4jnsgd1na2vs0mg"},{"bike_id":"d9d99d9e-adef-4156-a845-34278d943032","system_id":"levelo_inurba_marseille","lat":43.30886,"lon":5.39649,"is_reserved":false,"is_disabled":false,"rental_uris":{"android":"levelo://app?vid=d9d99d9e-adef-4156-a845-34278d943032","ios":"levelo://app?vid=d9d99d9e-adef-4156-a845-34278d943032"},"vehicle_type_id":"4","last_reported":1748884241,"current_range_meters":6000,"station_id":"ce4bh012rcd13ifvqcv0","pricing_plan_id":"cebpf4jnsgd1na2vs0mg"},{"bike_id":"41389870-884a-4cc2-a2bd-1c61719c81a7","system_id":"levelo_inurba_marseille","lat":43.2679,"lon":5.39409,"is_reserved":false,"is_disabled":false,"rental_uris":{"android":"levelo://app?vid=41389870-884a-4cc2-a2bd-1c61719c81a7","ios":"levelo://app?vid=41389870-884a-4cc2-a2bd-1c61719c81a7"},"vehicle_type_id":"4","last_reported":1748884241,"current_range_meters":6000,"station_id":"ce4bhh12rcd13ifvqfg0","pricing_plan_id":"cebpf4jnsgd1na2vs0mg"},{"bike_id":"bfc5ef3f-b45a-4475-9ae4-9a0465f66e15","system_id":"levelo_inurba_marseille","lat":43.25118,"lon":5.39359,"is_reserved":false,"is_disabled":false,"rental_uris":{"android":"levelo://app?vid=bfc5ef3f-b45a-4475-9ae4-9a0465f66e15","ios":"levelo://app?vid=bfc5ef3f-b45a-4475-9ae4-9a0465f66e15"},"vehicle_type_id":"4","last_reported":1748884241,"current_range_meters":6000,"station_id":"","pricing_plan_id":"cebpf4jnsgd1na2vs0mg"},{"bike_id":"f8aa3121-79b2-4bd2-bd0b-3f69c464de27","system_id":"levelo_inurba_marseille","lat":43.30317,"lon":5.40439,"is_reserved":false,"is_disabled":false,"rental_uris":{"android":"levelo://app?vid=f8aa3121-79b2-4bd2-bd0b-3f69c464de27","ios":"levelo://app?vid=f8aa3121-79b2-4bd2-bd0b-3f69c464de27"},"vehicle_type_id":"4","last_reported":1748884241,"current_range_meters":4000,"station_id":"ce4bh012rcd13ifvqd10","pricing_plan_id":"cebpf4jnsgd1na2vs0mg"},{"bike_id":"c05e84a2-a721-4a3d-bd08-6e14e81a4335","system_id":"levelo_inurba_marseille","lat":43.268825,"lon":5.389634,"is_reserved":false,"is_disabled":false,"rental_uris":{"android":"levelo://app?vid=c05e84a2-a721-4a3d-bd08-6e14e81a4335","ios":"levelo://app?vid=c05e84a2-a721-4a3d-bd08-6e14e81a4335"},"vehicle_type_id":"4","last_reported":1748884241,"current_range_meters":6000,"station_id":"","pricing_plan_id":"cebpf4jnsgd1na2vs0mg"},{"bike_id":"ed440782-942d-4bb8-a5a2-13b8a05f825f","system_id":"levelo_inurba_marseille","lat":43.3073,"lon":5.42441,"is_reserved":false,"is_disabled":false,"rental_uris":{"android":"levelo://app?vid=ed440782-942d-4bb8-a5a2-13b8a05f825f","ios":"levelo://app?vid=ed440782-942d-4bb8-a5a2-13b8a05f825f"},"vehicle_type_id":"4","last_reported":1748884241,"current_range_meters":6400,"station_id":"st_cvj6ca6bvosntc0bfgr0","pricing_plan_id":"cebpf4jnsgd1na2vs0mg"},{"bike_id":"a052db18-1a73-4e67-bd71-0cc4cbea9032","system_id":"levelo_inurba_marseille","lat":43.29435,"lon":5.39752,"is_reserved":false,"is_disabled":false,"rental_uris":{"android":"levelo://app?vid=a052db18-1a73-4e67-bd71-0cc4cbea9032","ios":"levelo://app?vid=a052db18-1a73-4e67-bd71-0cc4cbea9032"},"vehicle_type_id":"4","last_reported":1748884241,"current_range_meters":6400,"station_id":"ce4bh3h2rcd13ifvqdo0","pricing_plan_id":"cebpf4jnsgd1na2vs0mg"},{"bike_id":"94bc5842-711b-4197-9d71-6c03c353f1e4","system_id":"levelo_inurba_marseille","lat":43.29277,"lon":5.36853,"is_reserved":false,"is_disabled":false,"rental_uris":{"android":"levelo://app?vid=94bc5842-711b-4197-9d71-6c03c353f1e4","ios":"levelo://app?vid=94bc5842-711b-4197-9d71-6c03c353f1e4"},"vehicle_type_id":"4","last_reported":1748884241,"current_range_meters":6800,"station_id":"ce4bhbp2rcd13ifvqesg","pricing_plan_id":"cebpf4jnsgd1na2vs0mg"},{"bike_id":"948f5a37-79bc-4953-971f-ab319a4e826b","system_id":"levelo_inurba_marseille","lat":43.291685,"lon":5.371552,"is_reserved":false,"is_disabled":false,"rental_uris":{"android":"levelo://app?vid=948f5a37-79bc-4953-971f-ab319a4e826b","ios":"levelo://app?vid=948f5a37-79bc-4953-971f-ab319a4e826b"},"vehicle_type_id":"4","last_reported":1748884241,"current_range_meters":6400,"station_id":"ce4bha92rcd13ifvqeh0","pricing_plan_id":"cebpf4jnsgd1na2vs0mg"},{"bike_id":"3bb92c33-91d8-4f88-8f2c-672c7868f4ad","system_id":"levelo_inurba_marseille","lat":43.32859,"lon":5.40491,"is_reserved":false,"is_disabled":false,"rental_uris":{"android":"levelo://app?vid=3bb92c33-91d8-4f88-8f2c-672c7868f4ad","ios":"levelo://app?vid=3bb92c33-91d8-4f88-8f2c-672c7868f4ad"},"vehicle_type_id":"4","last_reported":1748884241,"current_range_meters":6400,"station_id":"","pricing_plan_id":"cebpf4jnsgd1na2vs0mg"},{"bike_id":"3c4646fe-1232-4e36-a7ac-2ad4b867ac45","system_id":"levelo_inurba_marseille","lat":43.308211,"lon":5.382276,"is_reserved":false,"is_disabled":false,"rental_uris":{"android":"levelo://app?vid=3c4646fe-1232-4e36-a7ac-2ad4b867ac45","ios":"levelo://app?vid=3c4646fe-1232-4e36-a7ac-2ad4b867ac45"},"vehicle_type_id":"4","last_reported":1748884241,"current_range_meters":6400,"station_id":"ce4bgt12rcd13ifvqce0","pricing_plan_id":"cebpf4jnsgd1na2vs0mg"},{"bike_id":"c4359053-b3b6-4ab7-85bb-845112e9af40","system_id":"levelo_inurba_marseille","lat":43.2893,"lon":5.36645,"is_reserved":false,"is_disabled":false,"rental_uris":{"android":"levelo://app?vid=c4359053-b3b6-4ab7-85bb-845112e9af40","ios":"levelo://app?vid=c4359053-b3b6-4ab7-85bb-845112e9af40"},"vehicle_type_id":"4","last_reported":1748884241,"current_range_meters":6800,"station_id":"ce4bhap2rcd13ifvqek0","pricing_plan_id":"cebpf4jnsgd1na2vs0mg"},{"bike_id":"203be779-a2d8-4875-b874-380bad9de4d8","system_id":"levelo_inurba_marseille","lat":43.270697,"lon":5.422803,"is_reserved":false,"is_disabled":false,"rental_uris":{"android":"levelo://app?vid=203be779-a2d8-4875-b874-380bad9de4d8","ios":"levelo://app?vid=203be779-a2d8-4875-b874-380bad9de4d8"},"vehicle_type_id":"4","last_reported":1748884241,"current_range_meters":6800,"station_id":"ce4bhk92rcd13ifvqgb0","pricing_plan_id":"cebpf4jnsgd1na2vs0mg"},{"bike_id":"c13e0268-8ac5-4e2b-9afd-a118c6321ef9","system_id":"levelo_inurba_marseille","lat":43.28669,"lon":5.36352,"is_reserved":false,"is_disabled":false,"rental_uris":{"android":"levelo://app?vid=c13e0268-8ac5-4e2b-9afd-a118c6321ef9","ios":"levelo://app?vid=c13e0268-8ac5-4e2b-9afd-a118c6321ef9"},"vehicle_type_id":"4","last_reported":1748884241,"current_range_meters":6400,"station_id":"ce4bhah2rcd13ifvqej0","pricing_plan_id":"cebpf4jnsgd1na2vs0mg"},{"bike_id":"880221c2-1749-4ae4-b2a0-6cfe23369a8b","system_id":"levelo_inurba_marseille","lat":43.29005,"lon":5.3561,"is_reserved":false,"is_disabled":false,"rental_uris":{"android":"levelo://app?vid=880221c2-1749-4ae4-b2a0-6cfe23369a8b","ios":"levelo://app?vid=880221c2-1749-4ae4-b2a0-6cfe23369a8b"},"vehicle_type_id":"4","last_reported":1748884241,"current_range_meters":6800,"station_id":"ce4bhb92rcd13ifvqen0","pricing_plan_id":"cebpf4jnsgd1na2vs0mg"},{"bike_id":"9c5aea4a-6f6e-4332-813e-7e09fcc34e1b","system_id":"levelo_inurba_marseille","lat":43.30951,"lon":5.39023,"is_reserved":false,"is_disabled":false,"rental_uris":{"android":"levelo://app?vid=9c5aea4a-6f6e-4332-813e-7e09fcc34e1b","ios":"levelo://app?vid=9c5aea4a-6f6e-4332-813e-7e09fcc34e1b"},"vehicle_type_id":"4","last_reported":1748884241,"current_range_meters":6800,"station_id":"ce4bgup2rcd13ifvqco0","pricing_plan_id":"cebpf4jnsgd1na2vs0mg"},{"bike_id":"036a3f84-6c04-4f85-bd69-c60fcc1a093a","system_id":"levelo_inurba_marseille","lat":43.33319,"lon":5.39805,"is_reserved":false,"is_disabled":false,"rental_uris":{"android":"levelo://app?vid=036a3f84-6c04-4f85-bd69-c60fcc1a093a","ios":"levelo://app?vid=036a3f84-6c04-4f85-bd69-c60fcc1a093a"},"vehicle_type_id":"4","last_reported":1748884241,"current_range_meters":6800,"station_id":"","pricing_plan_id":"cebpf4jnsgd1na2vs0mg"},{"bike_id":"58176394-813a-4021-b169-7d8907e717bb","system_id":"levelo_inurba_marseille","lat":43.28354,"lon":5.38102,"is_reserved":false,"is_disabled":false,"rental_uris":{"android":"levelo://app?vid=58176394-813a-4021-b169-7d8907e717bb","ios":"levelo://app?vid=58176394-813a-4021-b169-7d8907e717bb"},"vehicle_type_id":"4","last_reported":1748884241,"current_range_meters":7200,"station_id":"ce4bh412rcd13ifvqdr0","pricing_plan_id":"cebpf4jnsgd1na2vs0mg"},{"bike_id":"373f831f-8a14-497b-9589-99d0bcb0139b","system_id":"levelo_inurba_marseille","lat":43.24646,"lon":5.38893,"is_reserved":false,"is_disabled":false,"rental_uris":{"android":"levelo://app?vid=373f831f-8a14-497b-9589-99d0bcb0139b","ios":"levelo://app?vid=373f831f-8a14-497b-9589-99d0bcb0139b"},"vehicle_type_id":"4","last_reported":1748884241,"current_range_meters":7200,"station_id":"ce4bhg12rcd13ifvqf60","pricing_plan_id":"cebpf4jnsgd1na2vs0mg"},{"bike_id":"a554ce1c-3c09-4bb1-b1bb-74d68164e112","system_id":"levelo_inurba_marseille","lat":43.27901,"lon":5.38018,"is_reserved":false,"is_disabled":false,"rental_uris":{"android":"levelo://app?vid=a554ce1c-3c09-4bb1-b1bb-74d68164e112","ios":"levelo://app?vid=a554ce1c-3c09-4bb1-b1bb-74d68164e112"},"vehicle_type_id":"4","last_reported":1748884241,"current_range_meters":6800,"station_id":"ce4bhf92rcd13ifvqf50","pricing_plan_id":"cebpf4jnsgd1na2vs0mg"},{"bike_id":"d52e0403-2b9e-4365-b4cf-e34a85e3dcec","system_id":"levelo_inurba_marseille","lat":43.24389,"lon":5.370642,"is_reserved":false,"is_disabled":true,"rental_uris":{"android":"levelo://app?vid=d52e0403-2b9e-4365-b4cf-e34a85e3dcec","ios":"levelo://app?vid=d52e0403-2b9e-4365-b4cf-e34a85e3dcec"},"vehicle_type_id":"4","last_reported":1748884241,"current_range_meters":7200,"station_id":"","pricing_plan_id":"cebpf4jnsgd1na2vs0mg"},{"bike_id":"88647834-d065-4b4e-886e-85c6aa7bc373","system_id":"levelo_inurba_marseille","lat":43.26939,"lon":5.40247,"is_reserved":false,"is_disabled":false,"rental_uris":{"android":"levelo://app?vid=88647834-d065-4b4e-886e-85c6aa7bc373","ios":"levelo://app?vid=88647834-d065-4b4e-886e-85c6aa7bc373"},"vehicle_type_id":"4","last_reported":1748884241,"current_range_meters":6800,"station_id":"cjm6bp8fraef2m0cb0m0","pricing_plan_id":"cebpf4jnsgd1na2vs0mg"},{"bike_id":"77563c89-0ac2-4043-bd50-220ab97bc1f7","system_id":"levelo_inurba_marseille","lat":43.32286,"lon":5.38322,"is_reserved":false,"is_disabled":false,"rental_uris":{"android":"levelo://app?vid=77563c89-0ac2-4043-bd50-220ab97bc1f7","ios":"levelo://app?vid=77563c89-0ac2-4043-bd50-220ab97bc1f7"},"vehicle_type_id":"4","last_reported":1748884241,"current_range_meters":7200,"station_id":"ce4bhr12rcd13ifvqhqg","pricing_plan_id":"cebpf4jnsgd1na2vs0mg"},{"bike_id":"8dd31157-b795-4151-9223-4a66a2afca4b","system_id":"levelo_inurba_marseille","lat":43.24802,"lon":5.37455,"is_reserved":false,"is_disabled":false,"rental_uris":{"android":"levelo://app?vid=8dd31157-b795-4151-9223-4a66a2afca4b","ios":"levelo://app?vid=8dd31157-b795-4151-9223-4a66a2afca4b"},"vehicle_type_id":"4","last_reported":1748884241,"current_range_meters":7200,"station_id":"ce4bhgh2rcd13ifvqfb0","pricing_plan_id":"cebpf4jnsgd1na2vs0mg"},{"bike_id":"6fd9929f-ad55-43ad-8a62-f439be177f1d","system_id":"levelo_inurba_marseille","lat":43.27376,"lon":5.36254,"is_reserved":false,"is_disabled":false,"rental_uris":{"android":"levelo://app?vid=6fd9929f-ad55-43ad-8a62-f439be177f1d","ios":"levelo://app?vid=6fd9929f-ad55-43ad-8a62-f439be177f1d"},"vehicle_type_id":"4","last_reported":1748884241,"current_range_meters":8000,"station_id":"ce4bhbh2rcd13ifvqeo0","pricing_plan_id":"cebpf4jnsgd1na2vs0mg"},{"bike_id":"124b045e-19ca-4267-82c1-c83cd56f1ebe","system_id":"levelo_inurba_marseille","lat":43.24382,"lon":5.37059,"is_reserved":false,"is_disabled":false,"rental_uris":{"android":"levelo://app?vid=124b045e-19ca-4267-82c1-c83cd56f1ebe","ios":"levelo://app?vid=124b045e-19ca-4267-82c1-c83cd56f1ebe"},"vehicle_type_id":"4","last_reported":1748884241,"current_range_meters":7200,"station_id":"ce4bhhh2rcd13ifvqfk0","pricing_plan_id":"cebpf4jnsgd1na2vs0mg"},{"bike_id":"8a9355b6-bf4c-41d2-860c-3a25bd726916","system_id":"levelo_inurba_marseille","lat":43.32596,"lon":5.411265,"is_reserved":false,"is_disabled":false,"rental_uris":{"android":"levelo://app?vid=8a9355b6-bf4c-41d2-860c-3a25bd726916","ios":"levelo://app?vid=8a9355b6-bf4c-41d2-860c-3a25bd726916"},"vehicle_type_id":"4","last_reported":1748884241,"current_range_meters":8000,"station_id":"","pricing_plan_id":"cebpf4jnsgd1na2vs0mg"},{"bike_id":"c00a4779-7442-49ef-9f4c-2a6af0baf955","system_id":"levelo_inurba_marseille","lat":43.330302,"lon":5.390388,"is_reserved":false,"is_disabled":false,"rental_uris":{"android":"levelo://app?vid=c00a4779-7442-49ef-9f4c-2a6af0baf955","ios":"levelo://app?vid=c00a4779-7442-49ef-9f4c-2a6af0baf955"},"vehicle_type_id":"4","last_reported":1748884241,"current_range_meters":8000,"station_id":"ce4bhr92rcd13ifvqhrg","pricing_plan_id":"cebpf4jnsgd1na2vs0mg"},{"bike_id":"f3b36e81-403b-4cb9-94c4-7489133b0dfc","system_id":"levelo_inurba_marseille","lat":43.26941,"lon":5.40251,"is_reserved":false,"is_disabled":false,"rental_uris":{"android":"levelo://app?vid=f3b36e81-403b-4cb9-94c4-7489133b0dfc","ios":"levelo://app?vid=f3b36e81-403b-4cb9-94c4-7489133b0dfc"},"vehicle_type_id":"4","last_reported":1748884241,"current_range_meters":10000,"station_id":"cjm6bp8fraef2m0cb0m0","pricing_plan_id":"cebpf4jnsgd1na2vs0mg"},{"bike_id":"f9112dd5-4319-433a-9fb5-b1a987abcd59","system_id":"levelo_inurba_marseille","lat":43.30638,"lon":5.40095,"is_reserved":false,"is_disabled":false,"rental_uris":{"android":"levelo://app?vid=f9112dd5-4319-433a-9fb5-b1a987abcd59","ios":"levelo://app?vid=f9112dd5-4319-433a-9fb5-b1a987abcd59"},"vehicle_type_id":"4","last_reported":1748884241,"current_range_meters":8000,"station_id":"ce4bh112rcd13ifvqda0","pricing_plan_id":"cebpf4jnsgd1na2vs0mg"},{"bike_id":"b1b5242c-ffd3-45f2-bc48-1b7a11cca0b0","system_id":"levelo_inurba_marseille","lat":43.24387,"lon":5.37057,"is_reserved":false,"is_disabled":false,"rental_uris":{"android":"levelo://app?vid=b1b5242c-ffd3-45f2-bc48-1b7a11cca0b0","ios":"levelo://app?vid=b1b5242c-ffd3-45f2-bc48-1b7a11cca0b0"},"vehicle_type_id":"4","last_reported":1748884241,"current_range_meters":8000,"station_id":"ce4bhhh2rcd13ifvqfk0","pricing_plan_id":"cebpf4jnsgd1na2vs0mg"},{"bike_id":"a11f405a-b75a-4898-b660-7b07f0585a6b","system_id":"levelo_inurba_marseille","lat":43.28008,"lon":5.41653,"is_reserved":false,"is_disabled":false,"rental_uris":{"android":"levelo://app?vid=a11f405a-b75a-4898-b660-7b07f0585a6b","ios":"levelo://app?vid=a11f405a-b75a-4898-b660-7b07f0585a6b"},"vehicle_type_id":"4","last_reported":1748884241,"current_range_meters":8000,"station_id":"ce4bho12rcd13ifvqh1g","pricing_plan_id":"cebpf4jnsgd1na2vs0mg"},{"bike_id":"67d580ae-eace-4fcb-adc6-a5af7b405ae4","system_id":"levelo_inurba_marseille","lat":43.284088,"lon":5.375129,"is_reserved":false,"is_disabled":false,"rental_uris":{"android":"levelo://app?vid=67d580ae-eace-4fcb-adc6-a5af7b405ae4","ios":"levelo://app?vid=67d580ae-eace-4fcb-adc6-a5af7b405ae4"},"vehicle_type_id":"4","last_reported":1748884241,"current_range_meters":8000,"station_id":"ce4bgs92rcd13ifvqcc0","pricing_plan_id":"cebpf4jnsgd1na2vs0mg"},{"bike_id":"5dead81c-52cf-467b-885d-461d40fb80a5","system_id":"levelo_inurba_marseille","lat":43.251034,"lon":5.409661,"is_reserved":false,"is_disabled":false,"rental_uris":{"android":"levelo://app?vid=5dead81c-52cf-467b-885d-461d40fb80a5","ios":"levelo://app?vid=5dead81c-52cf-467b-885d-461d40fb80a5"},"vehicle_type_id":"4","last_reported":1748884241,"current_range_meters":8400,"station_id":"","pricing_plan_id":"cebpf4jnsgd1na2vs0mg"},{"bike_id":"a90480e9-88c3-4c75-9768-b6e4da5bfc09","system_id":"levelo_inurba_marseille","lat":43.28612,"lon":5.35104,"is_reserved":false,"is_disabled":false,"rental_uris":{"android":"levelo://app?vid=a90480e9-88c3-4c75-9768-b6e4da5bfc09","ios":"levelo://app?vid=a90480e9-88c3-4c75-9768-b6e4da5bfc09"},"vehicle_type_id":"4","last_reported":1748884241,"current_range_meters":8400,"station_id":"ce4bhch2rcd13ifvqeug","pricing_plan_id":"cebpf4jnsgd1na2vs0mg"},{"bike_id":"c11b70c7-cef3-417e-8652-71093411ae42","system_id":"levelo_inurba_marseille","lat":43.28614,"lon":5.35108,"is_reserved":false,"is_disabled":false,"rental_uris":{"android":"levelo://app?vid=c11b70c7-cef3-417e-8652-71093411ae42","ios":"levelo://app?vid=c11b70c7-cef3-417e-8652-71093411ae42"},"vehicle_type_id":"4","last_reported":1748884241,"current_range_meters":8400,"station_id":"ce4bhch2rcd13ifvqeug","pricing_plan_id":"cebpf4jnsgd1na2vs0mg"},{"bike_id":"bebc7ba4-b3fa-4f1e-b197-91ff362015b1","system_id":"levelo_inurba_marseille","lat":43.28154,"lon":5.4264,"is_reserved":false,"is_disabled":false,"rental_uris":{"android":"levelo://app?vid=bebc7ba4-b3fa-4f1e-b197-91ff362015b1","ios":"levelo://app?vid=bebc7ba4-b3fa-4f1e-b197-91ff362015b1"},"vehicle_type_id":"4","last_reported":1748884241,"current_range_meters":8400,"station_id":"ce4bhnh2rcd13ifvqgug","pricing_plan_id":"cebpf4jnsgd1na2vs0mg"},{"bike_id":"d72d5a5e-a033-4555-a5b7-2e9b101d2f01","system_id":"levelo_inurba_marseille","lat":43.24339,"lon":5.41149,"is_reserved":false,"is_disabled":false,"rental_uris":{"android":"levelo://app?vid=d72d5a5e-a033-4555-a5b7-2e9b101d2f01","ios":"levelo://app?vid=d72d5a5e-a033-4555-a5b7-2e9b101d2f01"},"vehicle_type_id":"4","last_reported":1748884241,"current_range_meters":8400,"station_id":"","pricing_plan_id":"cebpf4jnsgd1na2vs0mg"},{"bike_id":"7490d5dc-735e-4375-8341-6d53750855b2","system_id":"levelo_inurba_marseille","lat":43.29034,"lon":5.37836,"is_reserved":false,"is_disabled":false,"rental_uris":{"android":"levelo://app?vid=7490d5dc-735e-4375-8341-6d53750855b2","ios":"levelo://app?vid=7490d5dc-735e-4375-8341-6d53750855b2"},"vehicle_type_id":"4","last_reported":1748884241,"current_range_meters":8400,"station_id":"","pricing_plan_id":"cebpf4jnsgd1na2vs0mg"},{"bike_id":"432e8e98-d9ba-47b1-b567-38005ff641a3","system_id":"levelo_inurba_marseille","lat":43.29305,"lon":5.37163,"is_reserved":false,"is_disabled":false,"rental_uris":{"android":"levelo://app?vid=432e8e98-d9ba-47b1-b567-38005ff641a3","ios":"levelo://app?vid=432e8e98-d9ba-47b1-b567-38005ff641a3"},"vehicle_type_id":"4","last_reported":1748884241,"current_range_meters":8000,"station_id":"ce4bgh92rcd13ifvqb40","pricing_plan_id":"cebpf4jnsgd1na2vs0mg"},{"bike_id":"73a4770d-0c02-48d5-a0f7-4d250b83527c","system_id":"levelo_inurba_marseille","lat":43.324747,"lon":5.424768,"is_reserved":false,"is_disabled":false,"rental_uris":{"android":"levelo://app?vid=73a4770d-0c02-48d5-a0f7-4d250b83527c","ios":"levelo://app?vid=73a4770d-0c02-48d5-a0f7-4d250b83527c"},"vehicle_type_id":"4","last_reported":1748884241,"current_range_meters":8400,"station_id":"","pricing_plan_id":"cebpf4jnsgd1na2vs0mg"},{"bike_id":"0b3654db-33dc-4a56-850c-0b6b7ac0b481","system_id":"levelo_inurba_marseille","lat":43.23084,"lon":5.40177,"is_reserved":false,"is_disabled":false,"rental_uris":{"android":"levelo://app?vid=0b3654db-33dc-4a56-850c-0b6b7ac0b481","ios":"levelo://app?vid=0b3654db-33dc-4a56-850c-0b6b7ac0b481"},"vehicle_type_id":"4","last_reported":1748884241,"current_range_meters":8400,"station_id":"","pricing_plan_id":"cebpf4jnsgd1na2vs0mg"},{"bike_id":"b223b201-45c7-4df3-9afc-bec6d4855aba","system_id":"levelo_inurba_marseille","lat":43.31726,"lon":5.42394,"is_reserved":false,"is_disabled":false,"rental_uris":{"android":"levelo://app?vid=b223b201-45c7-4df3-9afc-bec6d4855aba","ios":"levelo://app?vid=b223b201-45c7-4df3-9afc-bec6d4855aba"},"vehicle_type_id":"4","last_reported":1748884241,"current_range_meters":8400,"station_id":"ce4bhp92rcd13ifvqhbg","pricing_plan_id":"cebpf4jnsgd1na2vs0mg"},{"bike_id":"818bec47-041c-4f83-a3f4-bf66d8ca627a","system_id":"levelo_inurba_marseille","lat":43.302455,"lon":5.396905,"is_reserved":false,"is_disabled":false,"rental_uris":{"android":"levelo://app?vid=818bec47-041c-4f83-a3f4-bf66d8ca627a","ios":"levelo://app?vid=818bec47-041c-4f83-a3f4-bf66d8ca627a"},"vehicle_type_id":"4","last_reported":1748884241,"current_range_meters":10000,"station_id":"ce4bh0p2rcd13ifvqd70","pricing_plan_id":"cebpf4jnsgd1na2vs0mg"},{"bike_id":"33b7a0a7-3ce9-40b2-9b2c-b1997aaaa8a9","system_id":"levelo_inurba_marseille","lat":43.31754,"lon":5.39016,"is_reserved":false,"is_disabled":false,"rental_uris":{"android":"levelo://app?vid=33b7a0a7-3ce9-40b2-9b2c-b1997aaaa8a9","ios":"levelo://app?vid=33b7a0a7-3ce9-40b2-9b2c-b1997aaaa8a9"},"vehicle_type_id":"4","last_reported":1748884241,"current_range_meters":8800,"station_id":"ce4bhqp2rcd13ifvqhng","pricing_plan_id":"cebpf4jnsgd1na2vs0mg"},{"bike_id":"89aa63ed-0126-4978-8bde-bd4a4184bfbe","system_id":"levelo_inurba_marseille","lat":43.31689,"lon":5.40478,"is_reserved":false,"is_disabled":false,"rental_uris":{"android":"levelo://app?vid=89aa63ed-0126-4978-8bde-bd4a4184bfbe","ios":"levelo://app?vid=89aa63ed-0126-4978-8bde-bd4a4184bfbe"},"vehicle_type_id":"4","last_reported":1748884241,"current_range_meters":8800,"station_id":"ce4bh012rcd13ifvqd00","pricing_plan_id":"cebpf4jnsgd1na2vs0mg"},{"bike_id":"176fb9d4-d2da-45f4-8a91-801d0f46441b","system_id":"levelo_inurba_marseille","lat":43.27558,"lon":5.38434,"is_reserved":false,"is_disabled":false,"rental_uris":{"android":"levelo://app?vid=176fb9d4-d2da-45f4-8a91-801d0f46441b","ios":"levelo://app?vid=176fb9d4-d2da-45f4-8a91-801d0f46441b"},"vehicle_type_id":"4","last_reported":1748884241,"current_range_meters":8800,"station_id":"ce4bhh92rcd13ifvqfi0","pricing_plan_id":"cebpf4jnsgd1na2vs0mg"},{"bike_id":"80f35b2a-213a-457f-80a3-494a06d5bf5e","system_id":"levelo_inurba_marseille","lat":43.297853,"lon":5.371082,"is_reserved":false,"is_disabled":false,"rental_uris":{"android":"levelo://app?vid=80f35b2a-213a-457f-80a3-494a06d5bf5e","ios":"levelo://app?vid=80f35b2a-213a-457f-80a3-494a06d5bf5e"},"vehicle_type_id":"4","last_reported":1748884241,"current_range_meters":9200,"station_id":"","pricing_plan_id":"cebpf4jnsgd1na2vs0mg"},{"bike_id":"57daae5f-976d-4aae-bb48-ddbd0db4c663","system_id":"levelo_inurba_marseille","lat":43.28711,"lon":5.37901,"is_reserved":false,"is_disabled":false,"rental_uris":{"android":"levelo://app?vid=57daae5f-976d-4aae-bb48-ddbd0db4c663","ios":"levelo://app?vid=57daae5f-976d-4aae-bb48-ddbd0db4c663"},"vehicle_type_id":"4","last_reported":1748884241,"current_range_meters":9200,"station_id":"ce4bh9p2rcd13ifvqec0","pricing_plan_id":"cebpf4jnsgd1na2vs0mg"},{"bike_id":"09bd764c-5135-4d01-b1f8-df4f4545894e","system_id":"levelo_inurba_marseille","lat":43.26061,"lon":5.39397,"is_reserved":false,"is_disabled":false,"rental_uris":{"android":"levelo://app?vid=09bd764c-5135-4d01-b1f8-df4f4545894e","ios":"levelo://app?vid=09bd764c-5135-4d01-b1f8-df4f4545894e"},"vehicle_type_id":"4","last_reported":1748884241,"current_range_meters":9200,"station_id":"ce4bhh92rcd13ifvqfj0","pricing_plan_id":"cebpf4jnsgd1na2vs0mg"},{"bike_id":"a34d1537-071e-4ba7-83dc-83228778ab80","system_id":"levelo_inurba_marseille","lat":43.27805,"lon":5.40727,"is_reserved":false,"is_disabled":false,"rental_uris":{"android":"levelo://app?vid=a34d1537-071e-4ba7-83dc-83228778ab80","ios":"levelo://app?vid=a34d1537-071e-4ba7-83dc-83228778ab80"},"vehicle_type_id":"4","last_reported":1748884241,"current_range_meters":9200,"station_id":"ce4bhnh2rcd13ifvqgtg","pricing_plan_id":"cebpf4jnsgd1na2vs0mg"},{"bike_id":"0d8e8ee9-7e56-40d2-9e9b-e8347eeb9150","system_id":"levelo_inurba_marseille","lat":43.28925,"lon":5.36647,"is_reserved":false,"is_disabled":false,"rental_uris":{"android":"levelo://app?vid=0d8e8ee9-7e56-40d2-9e9b-e8347eeb9150","ios":"levelo://app?vid=0d8e8ee9-7e56-40d2-9e9b-e8347eeb9150"},"vehicle_type_id":"4","last_reported":1748884241,"current_range_meters":9600,"station_id":"ce4bhap2rcd13ifvqek0","pricing_plan_id":"cebpf4jnsgd1na2vs0mg"},{"bike_id":"77e914a8-17a6-4adb-bdd0-e74076c7844c","system_id":"levelo_inurba_marseille","lat":43.302399,"lon":5.400388,"is_reserved":false,"is_disabled":true,"rental_uris":{"android":"levelo://app?vid=77e914a8-17a6-4adb-bdd0-e74076c7844c","ios":"levelo://app?vid=77e914a8-17a6-4adb-bdd0-e74076c7844c"},"vehicle_type_id":"4","last_reported":1748884241,"current_range_meters":10000,"station_id":"","pricing_plan_id":"cebpf4jnsgd1na2vs0mg"},{"bike_id":"afe42cf5-b493-4fb7-b710-2b3f0a107bae","system_id":"levelo_inurba_marseille","lat":43.31741,"lon":5.38776,"is_reserved":false,"is_disabled":false,"rental_uris":{"android":"levelo://app?vid=afe42cf5-b493-4fb7-b710-2b3f0a107bae","ios":"levelo://app?vid=afe42cf5-b493-4fb7-b710-2b3f0a107bae"},"vehicle_type_id":"4","last_reported":1748884241,"current_range_meters":9600,"station_id":"","pricing_plan_id":"cebpf4jnsgd1na2vs0mg"},{"bike_id":"133660cd-0072-439c-b5c8-0e882e0ae7c5","system_id":"levelo_inurba_marseille","lat":43.26563,"lon":5.3902,"is_reserved":false,"is_disabled":false,"rental_uris":{"android":"levelo://app?vid=133660cd-0072-439c-b5c8-0e882e0ae7c5","ios":"levelo://app?vid=133660cd-0072-439c-b5c8-0e882e0ae7c5"},"vehicle_type_id":"4","last_reported":1748884241,"current_range_meters":9600,"station_id":"ce4bhe12rcd13ifvqf30","pricing_plan_id":"cebpf4jnsgd1na2vs0mg"},{"bike_id":"99d59ddb-ca3d-43a4-b2ac-7c92aea831a5","system_id":"levelo_inurba_marseille","lat":43.31315,"lon":5.36717,"is_reserved":false,"is_disabled":true,"rental_uris":{"android":"levelo://app?vid=99d59ddb-ca3d-43a4-b2ac-7c92aea831a5","ios":"levelo://app?vid=99d59ddb-ca3d-43a4-b2ac-7c92aea831a5"},"vehicle_type_id":"4","last_reported":1748884241,"current_range_meters":10000,"station_id":"ce4bgr92rcd13ifvqc6g","pricing_plan_id":"cebpf4jnsgd1na2vs0mg"},{"bike_id":"a0888236-4e90-4aeb-b880-7b9acc4d2d36","system_id":"levelo_inurba_marseille","lat":43.33024,"lon":5.39024,"is_reserved":false,"is_disabled":false,"rental_uris":{"android":"levelo://app?vid=a0888236-4e90-4aeb-b880-7b9acc4d2d36","ios":"levelo://app?vid=a0888236-4e90-4aeb-b880-7b9acc4d2d36"},"vehicle_type_id":"4","last_reported":1748884241,"current_range_meters":10000,"station_id":"ce4bhr92rcd13ifvqhrg","pricing_plan_id":"cebpf4jnsgd1na2vs0mg"},{"bike_id":"8b9f9b7b-013d-425e-af4e-f80f1922b769","system_id":"levelo_inurba_marseille","lat":43.2559,"lon":5.38223,"is_reserved":false,"is_disabled":false,"rental_uris":{"android":"levelo://app?vid=8b9f9b7b-013d-425e-af4e-f80f1922b769","ios":"levelo://app?vid=8b9f9b7b-013d-425e-af4e-f80f1922b769"},"vehicle_type_id":"4","last_reported":1748884241,"current_range_meters":10800,"station_id":"ce4bhih2rcd13ifvqfs0","pricing_plan_id":"cebpf4jnsgd1na2vs0mg"},{"bike_id":"885e4a33-80ca-461a-83b2-a7861cbd2c18","system_id":"levelo_inurba_marseille","lat":43.28153,"lon":5.42642,"is_reserved":false,"is_disabled":false,"rental_uris":{"android":"levelo://app?vid=885e4a33-80ca-461a-83b2-a7861cbd2c18","ios":"levelo://app?vid=885e4a33-80ca-461a-83b2-a7861cbd2c18"},"vehicle_type_id":"4","last_reported":1748884241,"current_range_meters":10800,"station_id":"ce4bhnh2rcd13ifvqgug","pricing_plan_id":"cebpf4jnsgd1na2vs0mg"},{"bike_id":"54a9c878-5ace-4520-9717-d60c5f0b2d43","system_id":"levelo_inurba_marseille","lat":43.30077,"lon":5.39082,"is_reserved":false,"is_disabled":false,"rental_uris":{"android":"levelo://app?vid=54a9c878-5ace-4520-9717-d60c5f0b2d43","ios":"levelo://app?vid=54a9c878-5ace-4520-9717-d60c5f0b2d43"},"vehicle_type_id":"4","last_reported":1748884241,"current_range_meters":10800,"station_id":"ce4bh192rcd13ifvqdb0","pricing_plan_id":"cebpf4jnsgd1na2vs0mg"},{"bike_id":"d54bad3a-7ff1-4a15-aeab-92cdac98e952","system_id":"levelo_inurba_marseille","lat":43.27879,"lon":5.39571,"is_reserved":false,"is_disabled":false,"rental_uris":{"android":"levelo://app?vid=d54bad3a-7ff1-4a15-aeab-92cdac98e952","ios":"levelo://app?vid=d54bad3a-7ff1-4a15-aeab-92cdac98e952"},"vehicle_type_id":"4","last_reported":1748884241,"current_range_meters":10800,"station_id":"ce4bhf92rcd13ifvqf40","pricing_plan_id":"cebpf4jnsgd1na2vs0mg"},{"bike_id":"e035814e-4422-4db8-9a94-bca35ac2686a","system_id":"levelo_inurba_marseille","lat":43.30588,"lon":5.3936,"is_reserved":false,"is_disabled":false,"rental_uris":{"android":"levelo://app?vid=e035814e-4422-4db8-9a94-bca35ac2686a","ios":"levelo://app?vid=e035814e-4422-4db8-9a94-bca35ac2686a"},"vehicle_type_id":"4","last_reported":1748884241,"current_range_meters":11600,"station_id":"ce4bh0p2rcd13ifvqd80","pricing_plan_id":"cebpf4jnsgd1na2vs0mg"},{"bike_id":"6d6c7298-3b2e-459d-ab5d-288c7dbf41bb","system_id":"levelo_inurba_marseille","lat":43.23183,"lon":5.39983,"is_reserved":false,"is_disabled":false,"rental_uris":{"android":"levelo://app?vid=6d6c7298-3b2e-459d-ab5d-288c7dbf41bb","ios":"levelo://app?vid=6d6c7298-3b2e-459d-ab5d-288c7dbf41bb"},"vehicle_type_id":"4","last_reported":1748884241,"current_range_meters":11600,"station_id":"ce4bhn12rcd13ifvqgqg","pricing_plan_id":"cebpf4jnsgd1na2vs0mg"},{"bike_id":"a526b2ae-b405-4eb1-8c3b-e273c2be78e3","system_id":"levelo_inurba_marseille","lat":43.2857,"lon":5.39487,"is_reserved":false,"is_disabled":false,"rental_uris":{"android":"levelo://app?vid=a526b2ae-b405-4eb1-8c3b-e273c2be78e3","ios":"levelo://app?vid=a526b2ae-b405-4eb1-8c3b-e273c2be78e3"},"vehicle_type_id":"4","last_reported":1748884241,"current_range_meters":11600,"station_id":"ce4bh292rcd13ifvqdg0","pricing_plan_id":"cebpf4jnsgd1na2vs0mg"},{"bike_id":"e7731ba1-8d0d-4003-b0e8-96b3759c08b6","system_id":"levelo_inurba_marseille","lat":43.29223,"lon":5.36046,"is_reserved":false,"is_disabled":false,"rental_uris":{"android":"levelo://app?vid=e7731ba1-8d0d-4003-b0e8-96b3759c08b6","ios":"levelo://app?vid=e7731ba1-8d0d-4003-b0e8-96b3759c08b6"},"vehicle_type_id":"4","last_reported":1748884241,"current_range_meters":11600,"station_id":"ce4bhbh2rcd13ifvqeqg","pricing_plan_id":"cebpf4jnsgd1na2vs0mg"},{"bike_id":"874ce4c7-1a42-4143-aaac-0042faecbd79","system_id":"levelo_inurba_marseille","lat":43.29555,"lon":5.42292,"is_reserved":false,"is_disabled":false,"rental_uris":{"android":"levelo://app?vid=874ce4c7-1a42-4143-aaac-0042faecbd79","ios":"levelo://app?vid=874ce4c7-1a42-4143-aaac-0042faecbd79"},"vehicle_type_id":"4","last_reported":1748884241,"current_range_meters":13600,"station_id":"ce4bhph2rcd13ifvqhdg","pricing_plan_id":"cebpf4jnsgd1na2vs0mg"},{"bike_id":"9873ea8e-c2af-49bc-9f62-b61d54c33967","system_id":"levelo_inurba_marseille","lat":43.28928,"lon":5.36404,"is_reserved":false,"is_disabled":false,"rental_uris":{"android":"levelo://app?vid=9873ea8e-c2af-49bc-9f62-b61d54c33967","ios":"levelo://app?vid=9873ea8e-c2af-49bc-9f62-b61d54c33967"},"vehicle_type_id":"4","last_reported":1748884241,"current_range_meters":11600,"station_id":"ce4bhc92rcd13ifvqetg","pricing_plan_id":"cebpf4jnsgd1na2vs0mg"},{"bike_id":"7667ad91-2026-4593-a878-a7498e974a79","system_id":"levelo_inurba_marseille","lat":43.29894,"lon":5.38903,"is_reserved":false,"is_disabled":false,"rental_uris":{"android":"levelo://app?vid=7667ad91-2026-4593-a878-a7498e974a79","ios":"levelo://app?vid=7667ad91-2026-4593-a878-a7498e974a79"},"vehicle_type_id":"4","last_reported":1748884241,"current_range_meters":11200,"station_id":"ce4bh392rcd13ifvqdl0","pricing_plan_id":"cebpf4jnsgd1na2vs0mg"},{"bike_id":"0e265079-603b-4b16-bb16-50ff7d63d104","system_id":"levelo_inurba_marseille","lat":43.28617,"lon":5.35107,"is_reserved":false,"is_disabled":false,"rental_uris":{"android":"levelo://app?vid=0e265079-603b-4b16-bb16-50ff7d63d104","ios":"levelo://app?vid=0e265079-603b-4b16-bb16-50ff7d63d104"},"vehicle_type_id":"4","last_reported":1748884241,"current_range_meters":11600,"station_id":"ce4bhch2rcd13ifvqeug","pricing_plan_id":"cebpf4jnsgd1na2vs0mg"},{"bike_id":"4372a783-96a7-4924-9b8a-fb8a45a6b244","system_id":"levelo_inurba_marseille","lat":43.28418,"lon":5.34977,"is_reserved":false,"is_disabled":false,"rental_uris":{"android":"levelo://app?vid=4372a783-96a7-4924-9b8a-fb8a45a6b244","ios":"levelo://app?vid=4372a783-96a7-4924-9b8a-fb8a45a6b244"},"vehicle_type_id":"4","last_reported":1748884241,"current_range_meters":12000,"station_id":"ce4bhbh2rcd13ifvqepg","pricing_plan_id":"cebpf4jnsgd1na2vs0mg"},{"bike_id":"4f75fcfa-3c1c-453d-b5d9-1845c03eaf71","system_id":"levelo_inurba_marseille","lat":43.24073,"lon":5.37754,"is_reserved":false,"is_disabled":false,"rental_uris":{"android":"levelo://app?vid=4f75fcfa-3c1c-453d-b5d9-1845c03eaf71","ios":"levelo://app?vid=4f75fcfa-3c1c-453d-b5d9-1845c03eaf71"},"vehicle_type_id":"4","last_reported":1748884241,"current_range_meters":11600,"station_id":"ce4bhnp2rcd13ifvqgvg","pricing_plan_id":"cebpf4jnsgd1na2vs0mg"},{"bike_id":"54611373-835d-4057-a676-b80be8b61df6","system_id":"levelo_inurba_marseille","lat":43.28414,"lon":5.34982,"is_reserved":false,"is_disabled":false,"rental_uris":{"android":"levelo://app?vid=54611373-835d-4057-a676-b80be8b61df6","ios":"levelo://app?vid=54611373-835d-4057-a676-b80be8b61df6"},"vehicle_type_id":"4","last_reported":1748884241,"current_range_meters":12000,"station_id":"ce4bhbh2rcd13ifvqepg","pricing_plan_id":"cebpf4jnsgd1na2vs0mg"},{"bike_id":"6457604d-7985-4a8c-b33d-d2225ffa1435","system_id":"levelo_inurba_marseille","lat":43.27915,"lon":5.38006,"is_reserved":false,"is_disabled":false,"rental_uris":{"android":"levelo://app?vid=6457604d-7985-4a8c-b33d-d2225ffa1435","ios":"levelo://app?vid=6457604d-7985-4a8c-b33d-d2225ffa1435"},"vehicle_type_id":"4","last_reported":1748884241,"current_range_meters":12000,"station_id":"ce4bhf92rcd13ifvqf50","pricing_plan_id":"cebpf4jnsgd1na2vs0mg"},{"bike_id":"f1c8c7e1-3f34-4d38-a503-caa580ebde75","system_id":"levelo_inurba_marseille","lat":43.22503,"lon":5.34778,"is_reserved":false,"is_disabled":false,"rental_uris":{"android":"levelo://app?vid=f1c8c7e1-3f34-4d38-a503-caa580ebde75","ios":"levelo://app?vid=f1c8c7e1-3f34-4d38-a503-caa580ebde75"},"vehicle_type_id":"4","last_reported":1748884241,"current_range_meters":12400,"station_id":"st_cvj5dfep6f1abm77gieg","pricing_plan_id":"cebpf4jnsgd1na2vs0mg"},{"bike_id":"6060549f-f072-4ec6-941d-b7a4686fef7a","system_id":"levelo_inurba_marseille","lat":43.25107,"lon":5.40335,"is_reserved":false,"is_disabled":false,"rental_uris":{"android":"levelo://app?vid=6060549f-f072-4ec6-941d-b7a4686fef7a","ios":"levelo://app?vid=6060549f-f072-4ec6-941d-b7a4686fef7a"},"vehicle_type_id":"4","last_reported":1748884241,"current_range_meters":12400,"station_id":"ce4bhlh2rcd13ifvqgig","pricing_plan_id":"cebpf4jnsgd1na2vs0mg"},{"bike_id":"7b537ce6-5f0c-43ab-81c7-49b9c75e1391","system_id":"levelo_inurba_marseille","lat":43.28936,"lon":5.36628,"is_reserved":false,"is_disabled":false,"rental_uris":{"android":"levelo://app?vid=7b537ce6-5f0c-43ab-81c7-49b9c75e1391","ios":"levelo://app?vid=7b537ce6-5f0c-43ab-81c7-49b9c75e1391"},"vehicle_type_id":"4","last_reported":1748884241,"current_range_meters":12400,"station_id":"ce4bhap2rcd13ifvqek0","pricing_plan_id":"cebpf4jnsgd1na2vs0mg"},{"bike_id":"2d34f598-e48f-48cc-9584-5fdc5b61c167","system_id":"levelo_inurba_marseille","lat":43.262363,"lon":5.40441,"is_reserved":false,"is_disabled":false,"rental_uris":{"android":"levelo://app?vid=2d34f598-e48f-48cc-9584-5fdc5b61c167","ios":"levelo://app?vid=2d34f598-e48f-48cc-9584-5fdc5b61c167"},"vehicle_type_id":"4","last_reported":1748884241,"current_range_meters":12400,"station_id":"ce4bhmh2rcd13ifvqgmg","pricing_plan_id":"cebpf4jnsgd1na2vs0mg"},{"bike_id":"f9ba8850-482d-43cd-93c6-da015477c7af","system_id":"levelo_inurba_marseille","lat":43.28623,"lon":5.38382,"is_reserved":false,"is_disabled":false,"rental_uris":{"android":"levelo://app?vid=f9ba8850-482d-43cd-93c6-da015477c7af","ios":"levelo://app?vid=f9ba8850-482d-43cd-93c6-da015477c7af"},"vehicle_type_id":"4","last_reported":1748884241,"current_range_meters":12400,"station_id":"","pricing_plan_id":"cebpf4jnsgd1na2vs0mg"},{"bike_id":"2f031b8f-4f48-45b6-b757-14a8090ec5dc","system_id":"levelo_inurba_marseille","lat":43.29522,"lon":5.39037,"is_reserved":false,"is_disabled":false,"rental_uris":{"android":"levelo://app?vid=2f031b8f-4f48-45b6-b757-14a8090ec5dc","ios":"levelo://app?vid=2f031b8f-4f48-45b6-b757-14a8090ec5dc"},"vehicle_type_id":"4","last_reported":1748884241,"current_range_meters":12800,"station_id":"ce4bh3p2rcd13ifvqdp0","pricing_plan_id":"cebpf4jnsgd1na2vs0mg"},{"bike_id":"cd47bf77-a256-4286-ad3c-25a58727390a","system_id":"levelo_inurba_marseille","lat":43.30187,"lon":5.39441,"is_reserved":false,"is_disabled":false,"rental_uris":{"android":"levelo://app?vid=cd47bf77-a256-4286-ad3c-25a58727390a","ios":"levelo://app?vid=cd47bf77-a256-4286-ad3c-25a58727390a"},"vehicle_type_id":"4","last_reported":1748884241,"current_range_meters":12400,"station_id":"ce4bh0p2rcd13ifvqd70","pricing_plan_id":"cebpf4jnsgd1na2vs0mg"},{"bike_id":"6c842597-662d-4008-b404-86e67251dde8","system_id":"levelo_inurba_marseille","lat":43.28207,"lon":5.39061,"is_reserved":false,"is_disabled":false,"rental_uris":{"android":"levelo://app?vid=6c842597-662d-4008-b404-86e67251dde8","ios":"levelo://app?vid=6c842597-662d-4008-b404-86e67251dde8"},"vehicle_type_id":"4","last_reported":1748884241,"current_range_meters":12800,"station_id":"","pricing_plan_id":"cebpf4jnsgd1na2vs0mg"},{"bike_id":"0e82d49e-7351-4bfe-a990-7e5ea3eb8256","system_id":"levelo_inurba_marseille","lat":43.32064,"lon":5.41542,"is_reserved":false,"is_disabled":false,"rental_uris":{"android":"levelo://app?vid=0e82d49e-7351-4bfe-a990-7e5ea3eb8256","ios":"levelo://app?vid=0e82d49e-7351-4bfe-a990-7e5ea3eb8256"},"vehicle_type_id":"4","last_reported":1748884241,"current_range_meters":12800,"station_id":"ce4bhq92rcd13ifvqhkg","pricing_plan_id":"cebpf4jnsgd1na2vs0mg"},{"bike_id":"2e0494df-b34d-4651-a623-02314619e7ed","system_id":"levelo_inurba_marseille","lat":43.30137,"lon":5.39873,"is_reserved":false,"is_disabled":false,"rental_uris":{"android":"levelo://app?vid=2e0494df-b34d-4651-a623-02314619e7ed","ios":"levelo://app?vid=2e0494df-b34d-4651-a623-02314619e7ed"},"vehicle_type_id":"4","last_reported":1748884241,"current_range_meters":13600,"station_id":"ce4bh0h2rcd13ifvqd40","pricing_plan_id":"cebpf4jnsgd1na2vs0mg"},{"bike_id":"5b0c04c7-3e5d-4981-ba91-7d65704822b2","system_id":"levelo_inurba_marseille","lat":43.279075,"lon":5.380068,"is_reserved":false,"is_disabled":false,"rental_uris":{"android":"levelo://app?vid=5b0c04c7-3e5d-4981-ba91-7d65704822b2","ios":"levelo://app?vid=5b0c04c7-3e5d-4981-ba91-7d65704822b2"},"vehicle_type_id":"4","last_reported":1748884241,"current_range_meters":13600,"station_id":"ce4bhf92rcd13ifvqf50","pricing_plan_id":"cebpf4jnsgd1na2vs0mg"},{"bike_id":"9ea3af35-3635-4f40-80d4-46d09ef74549","system_id":"levelo_inurba_marseille","lat":43.28865,"lon":5.35845,"is_reserved":false,"is_disabled":false,"rental_uris":{"android":"levelo://app?vid=9ea3af35-3635-4f40-80d4-46d09ef74549","ios":"levelo://app?vid=9ea3af35-3635-4f40-80d4-46d09ef74549"},"vehicle_type_id":"4","last_reported":1748884241,"current_range_meters":13600,"station_id":"ce4bhb12rcd13ifvqem0","pricing_plan_id":"cebpf4jnsgd1na2vs0mg"},{"bike_id":"20f489ce-1213-41ff-b00a-d6103b01b6cf","system_id":"levelo_inurba_marseille","lat":43.30129,"lon":5.39892,"is_reserved":false,"is_disabled":false,"rental_uris":{"android":"levelo://app?vid=20f489ce-1213-41ff-b00a-d6103b01b6cf","ios":"levelo://app?vid=20f489ce-1213-41ff-b00a-d6103b01b6cf"},"vehicle_type_id":"4","last_reported":1748884241,"current_range_meters":13600,"station_id":"ce4bh0h2rcd13ifvqd40","pricing_plan_id":"cebpf4jnsgd1na2vs0mg"},{"bike_id":"404a398b-2f3a-45d7-8b46-44561785e996","system_id":"levelo_inurba_marseille","lat":43.28076,"lon":5.39662,"is_reserved":false,"is_disabled":false,"rental_uris":{"android":"levelo://app?vid=404a398b-2f3a-45d7-8b46-44561785e996","ios":"levelo://app?vid=404a398b-2f3a-45d7-8b46-44561785e996"},"vehicle_type_id":"4","last_reported":1748884241,"current_range_meters":13600,"station_id":"ce4bho12rcd13ifvqh2g","pricing_plan_id":"cebpf4jnsgd1na2vs0mg"},{"bike_id":"fa62253e-e4db-42d1-9a63-6ab16922bf00","system_id":"levelo_inurba_marseille","lat":43.32011,"lon":5.36825,"is_reserved":false,"is_disabled":false,"rental_uris":{"android":"levelo://app?vid=fa62253e-e4db-42d1-9a63-6ab16922bf00","ios":"levelo://app?vid=fa62253e-e4db-42d1-9a63-6ab16922bf00"},"vehicle_type_id":"4","last_reported":1748884241,"current_range_meters":14000,"station_id":"","pricing_plan_id":"cebpf4jnsgd1na2vs0mg"},{"bike_id":"74d701ef-08dc-4af2-8016-389edfbfac69","system_id":"levelo_inurba_marseille","lat":43.30732,"lon":5.42432,"is_reserved":false,"is_disabled":false,"rental_uris":{"android":"levelo://app?vid=74d701ef-08dc-4af2-8016-389edfbfac69","ios":"levelo://app?vid=74d701ef-08dc-4af2-8016-389edfbfac69"},"vehicle_type_id":"4","last_reported":1748884241,"current_range_meters":14000,"station_id":"st_cvj6ca6bvosntc0bfgr0","pricing_plan_id":"cebpf4jnsgd1na2vs0mg"},{"bike_id":"c82b5027-8222-4a9f-a8f4-a0a1a2eef0c3","system_id":"levelo_inurba_marseille","lat":43.28931,"lon":5.36631,"is_reserved":false,"is_disabled":false,"rental_uris":{"android":"levelo://app?vid=c82b5027-8222-4a9f-a8f4-a0a1a2eef0c3","ios":"levelo://app?vid=c82b5027-8222-4a9f-a8f4-a0a1a2eef0c3"},"vehicle_type_id":"4","last_reported":1748884241,"current_range_meters":14000,"station_id":"ce4bhap2rcd13ifvqek0","pricing_plan_id":"cebpf4jnsgd1na2vs0mg"},{"bike_id":"9e2a8b75-b3e1-467b-88ca-187beea15d06","system_id":"levelo_inurba_marseille","lat":43.28439,"lon":5.39199,"is_reserved":false,"is_disabled":false,"rental_uris":{"android":"levelo://app?vid=9e2a8b75-b3e1-467b-88ca-187beea15d06","ios":"levelo://app?vid=9e2a8b75-b3e1-467b-88ca-187beea15d06"},"vehicle_type_id":"4","last_reported":1748884241,"current_range_meters":14000,"station_id":"ce4bhoh2rcd13ifvqh5g","pricing_plan_id":"cebpf4jnsgd1na2vs0mg"},{"bike_id":"3ebdd401-b80a-4fca-a4ae-7f76492c481d","system_id":"levelo_inurba_marseille","lat":43.23182,"lon":5.39989,"is_reserved":false,"is_disabled":true,"rental_uris":{"android":"levelo://app?vid=3ebdd401-b80a-4fca-a4ae-7f76492c481d","ios":"levelo://app?vid=3ebdd401-b80a-4fca-a4ae-7f76492c481d"},"vehicle_type_id":"4","last_reported":1748884241,"current_range_meters":14000,"station_id":"ce4bhn12rcd13ifvqgqg","pricing_plan_id":"cebpf4jnsgd1na2vs0mg"},{"bike_id":"3694b376-be80-4539-9eab-0b143432d0fc","system_id":"levelo_inurba_marseille","lat":43.29423,"lon":5.38625,"is_reserved":false,"is_disabled":false,"rental_uris":{"android":"levelo://app?vid=3694b376-be80-4539-9eab-0b143432d0fc","ios":"levelo://app?vid=3694b376-be80-4539-9eab-0b143432d0fc"},"vehicle_type_id":"4","last_reported":1748884241,"current_range_meters":14000,"station_id":"ce4bh2h2rcd13ifvqdh0","pricing_plan_id":"cebpf4jnsgd1na2vs0mg"},{"bike_id":"3082751b-d3f4-42ac-b6c0-bf946931c7e5","system_id":"levelo_inurba_marseille","lat":43.21194,"lon":5.35074,"is_reserved":false,"is_disabled":false,"rental_uris":{"android":"levelo://app?vid=3082751b-d3f4-42ac-b6c0-bf946931c7e5","ios":"levelo://app?vid=3082751b-d3f4-42ac-b6c0-bf946931c7e5"},"vehicle_type_id":"4","last_reported":1748884241,"current_range_meters":14400,"station_id":"st_cvj6sg6p6f1abm77japg","pricing_plan_id":"cebpf4jnsgd1na2vs0mg"},{"bike_id":"8e0a5f84-05c8-42a5-8f96-55f5b63122cb","system_id":"levelo_inurba_marseille","lat":43.28612,"lon":5.35111,"is_reserved":false,"is_disabled":false,"rental_uris":{"android":"levelo://app?vid=8e0a5f84-05c8-42a5-8f96-55f5b63122cb","ios":"levelo://app?vid=8e0a5f84-05c8-42a5-8f96-55f5b63122cb"},"vehicle_type_id":"4","last_reported":1748884241,"current_range_meters":14400,"station_id":"ce4bhch2rcd13ifvqeug","pricing_plan_id":"cebpf4jnsgd1na2vs0mg"},{"bike_id":"be8b889c-b9f7-465b-9902-b4f156a2d8ae","system_id":"levelo_inurba_marseille","lat":43.30087,"lon":5.39082,"is_reserved":false,"is_disabled":false,"rental_uris":{"android":"levelo://app?vid=be8b889c-b9f7-465b-9902-b4f156a2d8ae","ios":"levelo://app?vid=be8b889c-b9f7-465b-9902-b4f156a2d8ae"},"vehicle_type_id":"4","last_reported":1748884241,"current_range_meters":14400,"station_id":"ce4bh192rcd13ifvqdb0","pricing_plan_id":"cebpf4jnsgd1na2vs0mg"},{"bike_id":"25bc5ed4-be64-495c-9d3f-33cd26602301","system_id":"levelo_inurba_marseille","lat":43.317172,"lon":5.437107,"is_reserved":false,"is_disabled":false,"rental_uris":{"android":"levelo://app?vid=25bc5ed4-be64-495c-9d3f-33cd26602301","ios":"levelo://app?vid=25bc5ed4-be64-495c-9d3f-33cd26602301"},"vehicle_type_id":"4","last_reported":1748884241,"current_range_meters":14400,"station_id":"ce4bhp92rcd13ifvqhcg","pricing_plan_id":"cebpf4jnsgd1na2vs0mg"},{"bike_id":"2e454d1b-7315-4339-b29b-5b569ba90d7a","system_id":"levelo_inurba_marseille","lat":43.28229,"lon":5.39069,"is_reserved":false,"is_disabled":false,"rental_uris":{"android":"levelo://app?vid=2e454d1b-7315-4339-b29b-5b569ba90d7a","ios":"levelo://app?vid=2e454d1b-7315-4339-b29b-5b569ba90d7a"},"vehicle_type_id":"4","last_reported":1748884241,"current_range_meters":14400,"station_id":"","pricing_plan_id":"cebpf4jnsgd1na2vs0mg"},{"bike_id":"4cb65288-83f5-43b7-b669-cd1b42db0937","system_id":"levelo_inurba_marseille","lat":43.29006,"lon":5.35611,"is_reserved":false,"is_disabled":false,"rental_uris":{"android":"levelo://app?vid=4cb65288-83f5-43b7-b669-cd1b42db0937","ios":"levelo://app?vid=4cb65288-83f5-43b7-b669-cd1b42db0937"},"vehicle_type_id":"4","last_reported":1748884241,"current_range_meters":16400,"station_id":"ce4bhb92rcd13ifvqen0","pricing_plan_id":"cebpf4jnsgd1na2vs0mg"},{"bike_id":"a33c9ded-afda-47fd-87fa-ac593a798cfa","system_id":"levelo_inurba_marseille","lat":43.26838,"lon":5.38911,"is_reserved":false,"is_disabled":false,"rental_uris":{"android":"levelo://app?vid=a33c9ded-afda-47fd-87fa-ac593a798cfa","ios":"levelo://app?vid=a33c9ded-afda-47fd-87fa-ac593a798cfa"},"vehicle_type_id":"4","last_reported":1748884241,"current_range_meters":14800,"station_id":"","pricing_plan_id":"cebpf4jnsgd1na2vs0mg"},{"bike_id":"86b7086b-e7c4-4f9c-9199-902f2a653cab","system_id":"levelo_inurba_marseille","lat":43.289764,"lon":5.366412,"is_reserved":false,"is_disabled":false,"rental_uris":{"android":"levelo://app?vid=86b7086b-e7c4-4f9c-9199-902f2a653cab","ios":"levelo://app?vid=86b7086b-e7c4-4f9c-9199-902f2a653cab"},"vehicle_type_id":"4","last_reported":1748884241,"current_range_meters":14800,"station_id":"ce4bhap2rcd13ifvqek0","pricing_plan_id":"cebpf4jnsgd1na2vs0mg"},{"bike_id":"4e277281-8d45-450c-843c-043381d5acd4","system_id":"levelo_inurba_marseille","lat":43.29413,"lon":5.38623,"is_reserved":false,"is_disabled":false,"rental_uris":{"android":"levelo://app?vid=4e277281-8d45-450c-843c-043381d5acd4","ios":"levelo://app?vid=4e277281-8d45-450c-843c-043381d5acd4"},"vehicle_type_id":"4","last_reported":1748884241,"current_range_meters":14800,"station_id":"ce4bh2h2rcd13ifvqdh0","pricing_plan_id":"cebpf4jnsgd1na2vs0mg"},{"bike_id":"137bde63-9ac5-4128-a047-4466bd0ba1a2","system_id":"levelo_inurba_marseille","lat":43.26803,"lon":5.40269,"is_reserved":false,"is_disabled":false,"rental_uris":{"android":"levelo://app?vid=137bde63-9ac5-4128-a047-4466bd0ba1a2","ios":"levelo://app?vid=137bde63-9ac5-4128-a047-4466bd0ba1a2"},"vehicle_type_id":"4","last_reported":1748884241,"current_range_meters":14800,"station_id":"ce501612rcd8frsf0b60","pricing_plan_id":"cebpf4jnsgd1na2vs0mg"},{"bike_id":"79d4dba7-3d25-4dfe-abfd-464f8e135bbe","system_id":"levelo_inurba_marseille","lat":43.2827,"lon":5.35062,"is_reserved":false,"is_disabled":false,"rental_uris":{"android":"levelo://app?vid=79d4dba7-3d25-4dfe-abfd-464f8e135bbe","ios":"levelo://app?vid=79d4dba7-3d25-4dfe-abfd-464f8e135bbe"},"vehicle_type_id":"4","last_reported":1748884241,"current_range_meters":14800,"station_id":"ce4bhbp2rcd13ifvqerg","pricing_plan_id":"cebpf4jnsgd1na2vs0mg"},{"bike_id":"2ea19fc5-df2f-4b1e-9c37-7a737a40b076","system_id":"levelo_inurba_marseille","lat":43.248058,"lon":5.374624,"is_reserved":false,"is_disabled":false,"rental_uris":{"android":"levelo://app?vid=2ea19fc5-df2f-4b1e-9c37-7a737a40b076","ios":"levelo://app?vid=2ea19fc5-df2f-4b1e-9c37-7a737a40b076"},"vehicle_type_id":"4","last_reported":1748884241,"current_range_meters":15200,"station_id":"ce4bhgh2rcd13ifvqfb0","pricing_plan_id":"cebpf4jnsgd1na2vs0mg"},{"bike_id":"d1694400-2c42-4086-947c-527f9edc4925","system_id":"levelo_inurba_marseille","lat":43.313303,"lon":5.39712,"is_reserved":false,"is_disabled":false,"rental_uris":{"android":"levelo://app?vid=d1694400-2c42-4086-947c-527f9edc4925","ios":"levelo://app?vid=d1694400-2c42-4086-947c-527f9edc4925"},"vehicle_type_id":"4","last_reported":1748884241,"current_range_meters":15200,"station_id":"ce4bgvp2rcd13ifvqcu0","pricing_plan_id":"cebpf4jnsgd1na2vs0mg"},{"bike_id":"ac2caa47-de50-4eb2-a0a2-d67e53dc1071","system_id":"levelo_inurba_marseille","lat":43.301424,"lon":5.374193,"is_reserved":false,"is_disabled":false,"rental_uris":{"android":"levelo://app?vid=ac2caa47-de50-4eb2-a0a2-d67e53dc1071","ios":"levelo://app?vid=ac2caa47-de50-4eb2-a0a2-d67e53dc1071"},"vehicle_type_id":"4","last_reported":1748884241,"current_range_meters":15200,"station_id":"ce4bgs92rcd13ifvqcc0","pricing_plan_id":"cebpf4jnsgd1na2vs0mg"},{"bike_id":"6b0c7ade-5985-4cf9-8314-a3d44bb4c37b","system_id":"levelo_inurba_marseille","lat":43.30329,"lon":5.40428,"is_reserved":false,"is_disabled":false,"rental_uris":{"android":"levelo://app?vid=6b0c7ade-5985-4cf9-8314-a3d44bb4c37b","ios":"levelo://app?vid=6b0c7ade-5985-4cf9-8314-a3d44bb4c37b"},"vehicle_type_id":"4","last_reported":1748884241,"current_range_meters":15200,"station_id":"ce4bh012rcd13ifvqd10","pricing_plan_id":"cebpf4jnsgd1na2vs0mg"},{"bike_id":"d6d035b6-79f1-4032-9863-933429fd63f4","system_id":"levelo_inurba_marseille","lat":43.24384,"lon":5.37058,"is_reserved":false,"is_disabled":false,"rental_uris":{"android":"levelo://app?vid=d6d035b6-79f1-4032-9863-933429fd63f4","ios":"levelo://app?vid=d6d035b6-79f1-4032-9863-933429fd63f4"},"vehicle_type_id":"4","last_reported":1748884241,"current_range_meters":15200,"station_id":"ce4bhhh2rcd13ifvqfk0","pricing_plan_id":"cebpf4jnsgd1na2vs0mg"},{"bike_id":"541e86a4-0cb7-4eb4-8d07-aefa9542dab8","system_id":"levelo_inurba_marseille","lat":43.29792,"lon":5.40434,"is_reserved":false,"is_disabled":false,"rental_uris":{"android":"levelo://app?vid=541e86a4-0cb7-4eb4-8d07-aefa9542dab8","ios":"levelo://app?vid=541e86a4-0cb7-4eb4-8d07-aefa9542dab8"},"vehicle_type_id":"4","last_reported":1748884241,"current_range_meters":15200,"station_id":"ce4bh112rcd13ifvqd90","pricing_plan_id":"cebpf4jnsgd1na2vs0mg"},{"bike_id":"8a3df9e9-52cf-4cc9-b0b8-7d633d41edf2","system_id":"levelo_inurba_marseille","lat":43.25113,"lon":5.40368,"is_reserved":false,"is_disabled":false,"rental_uris":{"android":"levelo://app?vid=8a3df9e9-52cf-4cc9-b0b8-7d633d41edf2","ios":"levelo://app?vid=8a3df9e9-52cf-4cc9-b0b8-7d633d41edf2"},"vehicle_type_id":"4","last_reported":1748884241,"current_range_meters":16000,"station_id":"ce4bhlh2rcd13ifvqgig","pricing_plan_id":"cebpf4jnsgd1na2vs0mg"},{"bike_id":"16d13b30-f10d-419c-bd76-e6c03add2951","system_id":"levelo_inurba_marseille","lat":43.284088,"lon":5.37517,"is_reserved":false,"is_disabled":false,"rental_uris":{"android":"levelo://app?vid=16d13b30-f10d-419c-bd76-e6c03add2951","ios":"levelo://app?vid=16d13b30-f10d-419c-bd76-e6c03add2951"},"vehicle_type_id":"4","last_reported":1748884241,"current_range_meters":16000,"station_id":"ce4bh412rcd13ifvqds0","pricing_plan_id":"cebpf4jnsgd1na2vs0mg"},{"bike_id":"ca0b3444-318f-4cd4-973f-dcffb61c7ad1","system_id":"levelo_inurba_marseille","lat":43.2845,"lon":5.35889,"is_reserved":false,"is_disabled":false,"rental_uris":{"android":"levelo://app?vid=ca0b3444-318f-4cd4-973f-dcffb61c7ad1","ios":"levelo://app?vid=ca0b3444-318f-4cd4-973f-dcffb61c7ad1"},"vehicle_type_id":"4","last_reported":1748884241,"current_range_meters":16000,"station_id":"ce4bhah2rcd13ifvqei0","pricing_plan_id":"cebpf4jnsgd1na2vs0mg"},{"bike_id":"548f4f8c-e278-403c-9a4c-0731b6460e67","system_id":"levelo_inurba_marseille","lat":43.26057,"lon":5.39401,"is_reserved":false,"is_disabled":false,"rental_uris":{"android":"levelo://app?vid=548f4f8c-e278-403c-9a4c-0731b6460e67","ios":"levelo://app?vid=548f4f8c-e278-403c-9a4c-0731b6460e67"},"vehicle_type_id":"4","last_reported":1748884241,"current_range_meters":16000,"station_id":"ce4bhh92rcd13ifvqfj0","pricing_plan_id":"cebpf4jnsgd1na2vs0mg"},{"bike_id":"f68b568c-19c3-4299-b1fc-d195d756dfea","system_id":"levelo_inurba_marseille","lat":43.28278,"lon":5.35071,"is_reserved":false,"is_disabled":false,"rental_uris":{"android":"levelo://app?vid=f68b568c-19c3-4299-b1fc-d195d756dfea","ios":"levelo://app?vid=f68b568c-19c3-4299-b1fc-d195d756dfea"},"vehicle_type_id":"4","last_reported":1748884241,"current_range_meters":16000,"station_id":"ce4bhbp2rcd13ifvqerg","pricing_plan_id":"cebpf4jnsgd1na2vs0mg"},{"bike_id":"96b5af2e-b5c9-4213-aee5-8574fa85dc0a","system_id":"levelo_inurba_marseille","lat":43.29878,"lon":5.39736,"is_reserved":false,"is_disabled":true,"rental_uris":{"android":"levelo://app?vid=96b5af2e-b5c9-4213-aee5-8574fa85dc0a","ios":"levelo://app?vid=96b5af2e-b5c9-4213-aee5-8574fa85dc0a"},"vehicle_type_id":"4","last_reported":1748884241,"current_range_meters":16000,"station_id":"ce4bh0h2rcd13ifvqd50","pricing_plan_id":"cebpf4jnsgd1na2vs0mg"},{"bike_id":"82762f70-216b-4762-9e82-daaa45d19a35","system_id":"levelo_inurba_marseille","lat":43.2417,"lon":5.364,"is_reserved":false,"is_disabled":false,"rental_uris":{"android":"levelo://app?vid=82762f70-216b-4762-9e82-daaa45d19a35","ios":"levelo://app?vid=82762f70-216b-4762-9e82-daaa45d19a35"},"vehicle_type_id":"4","last_reported":1748884241,"current_range_meters":16400,"station_id":"cpo36qri1sfpv3e86is0","pricing_plan_id":"cebpf4jnsgd1na2vs0mg"},{"bike_id":"16b2977e-19e6-4fbb-b244-2b32031fef8d","system_id":"levelo_inurba_marseille","lat":43.24801,"lon":5.37454,"is_reserved":false,"is_disabled":false,"rental_uris":{"android":"levelo://app?vid=16b2977e-19e6-4fbb-b244-2b32031fef8d","ios":"levelo://app?vid=16b2977e-19e6-4fbb-b244-2b32031fef8d"},"vehicle_type_id":"4","last_reported":1748884241,"current_range_meters":16400,"station_id":"ce4bhgh2rcd13ifvqfb0","pricing_plan_id":"cebpf4jnsgd1na2vs0mg"},{"bike_id":"0fc4f835-2339-4b15-970f-d27b0d088aec","system_id":"levelo_inurba_marseille","lat":43.2844,"lon":5.34981,"is_reserved":false,"is_disabled":false,"rental_uris":{"android":"levelo://app?vid=0fc4f835-2339-4b15-970f-d27b0d088aec","ios":"levelo://app?vid=0fc4f835-2339-4b15-970f-d27b0d088aec"},"vehicle_type_id":"4","last_reported":1748884241,"current_range_meters":16400,"station_id":"ce4bhbh2rcd13ifvqepg","pricing_plan_id":"cebpf4jnsgd1na2vs0mg"},{"bike_id":"8bd6df7c-4fb5-4e5c-a50d-1893ac31904c","system_id":"levelo_inurba_marseille","lat":43.24658,"lon":5.38173,"is_reserved":false,"is_disabled":false,"rental_uris":{"android":"levelo://app?vid=8bd6df7c-4fb5-4e5c-a50d-1893ac31904c","ios":"levelo://app?vid=8bd6df7c-4fb5-4e5c-a50d-1893ac31904c"},"vehicle_type_id":"4","last_reported":1748884241,"current_range_meters":16400,"station_id":"ce4bhih2rcd13ifvqfr0","pricing_plan_id":"cebpf4jnsgd1na2vs0mg"},{"bike_id":"24d71a9c-3d1e-4bf3-80cd-8136967a33ea","system_id":"levelo_inurba_marseille","lat":43.30241,"lon":5.40061,"is_reserved":false,"is_disabled":false,"rental_uris":{"android":"levelo://app?vid=24d71a9c-3d1e-4bf3-80cd-8136967a33ea","ios":"levelo://app?vid=24d71a9c-3d1e-4bf3-80cd-8136967a33ea"},"vehicle_type_id":"4","last_reported":1748884241,"current_range_meters":16400,"station_id":"ce4bgvh2rcd13ifvqcs0","pricing_plan_id":"cebpf4jnsgd1na2vs0mg"},{"bike_id":"7e721c1f-d73a-4a61-aec2-6b6b22e9c458","system_id":"levelo_inurba_marseille","lat":43.27842,"lon":5.3921,"is_reserved":false,"is_disabled":false,"rental_uris":{"android":"levelo://app?vid=7e721c1f-d73a-4a61-aec2-6b6b22e9c458","ios":"levelo://app?vid=7e721c1f-d73a-4a61-aec2-6b6b22e9c458"},"vehicle_type_id":"4","last_reported":1748884241,"current_range_meters":16400,"station_id":"ce4bhjp2rcd13ifvqga0","pricing_plan_id":"cebpf4jnsgd1na2vs0mg"},{"bike_id":"cf9a9959-303f-40f9-b57e-3ca93b1edd13","system_id":"levelo_inurba_marseille","lat":43.28861,"lon":5.35834,"is_reserved":false,"is_disabled":false,"rental_uris":{"android":"levelo://app?vid=cf9a9959-303f-40f9-b57e-3ca93b1edd13","ios":"levelo://app?vid=cf9a9959-303f-40f9-b57e-3ca93b1edd13"},"vehicle_type_id":"4","last_reported":1748884241,"current_range_meters":16400,"station_id":"ce4bhb12rcd13ifvqem0","pricing_plan_id":"cebpf4jnsgd1na2vs0mg"},{"bike_id":"f53dd494-3d5e-41b9-9e72-6eea1af54fd8","system_id":"levelo_inurba_marseille","lat":43.28613,"lon":5.37061,"is_reserved":false,"is_disabled":false,"rental_uris":{"android":"levelo://app?vid=f53dd494-3d5e-41b9-9e72-6eea1af54fd8","ios":"levelo://app?vid=f53dd494-3d5e-41b9-9e72-6eea1af54fd8"},"vehicle_type_id":"4","last_reported":1748884241,"current_range_meters":16400,"station_id":"ce4bht12rcd13ifvqi60","pricing_plan_id":"cebpf4jnsgd1na2vs0mg"},{"bike_id":"baddd368-6a8a-4241-92db-eb8820df5d32","system_id":"levelo_inurba_marseille","lat":43.26569,"lon":5.39012,"is_reserved":false,"is_disabled":false,"rental_uris":{"android":"levelo://app?vid=baddd368-6a8a-4241-92db-eb8820df5d32","ios":"levelo://app?vid=baddd368-6a8a-4241-92db-eb8820df5d32"},"vehicle_type_id":"4","last_reported":1748884241,"current_range_meters":16400,"station_id":"ce4bhe12rcd13ifvqf30","pricing_plan_id":"cebpf4jnsgd1na2vs0mg"},{"bike_id":"44ed2f66-5a03-4ef0-bb77-503d96da1ede","system_id":"levelo_inurba_marseille","lat":43.29417,"lon":5.38628,"is_reserved":false,"is_disabled":false,"rental_uris":{"android":"levelo://app?vid=44ed2f66-5a03-4ef0-bb77-503d96da1ede","ios":"levelo://app?vid=44ed2f66-5a03-4ef0-bb77-503d96da1ede"},"vehicle_type_id":"4","last_reported":1748884241,"current_range_meters":16800,"station_id":"ce4bh2h2rcd13ifvqdh0","pricing_plan_id":"cebpf4jnsgd1na2vs0mg"},{"bike_id":"6552d085-9201-4d83-98c8-f94b34cd00c5","system_id":"levelo_inurba_marseille","lat":43.30326,"lon":5.4043,"is_reserved":false,"is_disabled":false,"rental_uris":{"android":"levelo://app?vid=6552d085-9201-4d83-98c8-f94b34cd00c5","ios":"levelo://app?vid=6552d085-9201-4d83-98c8-f94b34cd00c5"},"vehicle_type_id":"4","last_reported":1748884241,"current_range_meters":16800,"station_id":"ce4bh012rcd13ifvqd10","pricing_plan_id":"cebpf4jnsgd1na2vs0mg"},{"bike_id":"49d8c1d3-42d0-49d5-aa51-c11ee75a8849","system_id":"levelo_inurba_marseille","lat":43.27374,"lon":5.36255,"is_reserved":false,"is_disabled":false,"rental_uris":{"android":"levelo://app?vid=49d8c1d3-42d0-49d5-aa51-c11ee75a8849","ios":"levelo://app?vid=49d8c1d3-42d0-49d5-aa51-c11ee75a8849"},"vehicle_type_id":"4","last_reported":1748884241,"current_range_meters":16800,"station_id":"ce4bhbh2rcd13ifvqeo0","pricing_plan_id":"cebpf4jnsgd1na2vs0mg"},{"bike_id":"2171c9f1-57c0-4bf3-b436-aee76219ed87","system_id":"levelo_inurba_marseille","lat":43.27813,"lon":5.40711,"is_reserved":false,"is_disabled":false,"rental_uris":{"android":"levelo://app?vid=2171c9f1-57c0-4bf3-b436-aee76219ed87","ios":"levelo://app?vid=2171c9f1-57c0-4bf3-b436-aee76219ed87"},"vehicle_type_id":"4","last_reported":1748884241,"current_range_meters":16800,"station_id":"ce4bhnh2rcd13ifvqgtg","pricing_plan_id":"cebpf4jnsgd1na2vs0mg"},{"bike_id":"73bec1b8-58a1-4728-ad67-4dc93153ff8c","system_id":"levelo_inurba_marseille","lat":43.29364,"lon":5.37847,"is_reserved":false,"is_disabled":false,"rental_uris":{"android":"levelo://app?vid=73bec1b8-58a1-4728-ad67-4dc93153ff8c","ios":"levelo://app?vid=73bec1b8-58a1-4728-ad67-4dc93153ff8c"},"vehicle_type_id":"4","last_reported":1748884241,"current_range_meters":16800,"station_id":"ce4bgjh2rcd13ifvqbf0","pricing_plan_id":"cebpf4jnsgd1na2vs0mg"},{"bike_id":"790a4e05-e902-41a6-927e-fb0bf46eb1bb","system_id":"levelo_inurba_marseille","lat":43.26203,"lon":5.37924,"is_reserved":false,"is_disabled":false,"rental_uris":{"android":"levelo://app?vid=790a4e05-e902-41a6-927e-fb0bf46eb1bb","ios":"levelo://app?vid=790a4e05-e902-41a6-927e-fb0bf46eb1bb"},"vehicle_type_id":"4","last_reported":1748884241,"current_range_meters":16800,"station_id":"ce4bhjp2rcd13ifvqg90","pricing_plan_id":"cebpf4jnsgd1na2vs0mg"},{"bike_id":"3c4f08d0-12d6-4d43-b03b-c21afc95f18d","system_id":"levelo_inurba_marseille","lat":43.2942,"lon":5.38626,"is_reserved":false,"is_disabled":false,"rental_uris":{"android":"levelo://app?vid=3c4f08d0-12d6-4d43-b03b-c21afc95f18d","ios":"levelo://app?vid=3c4f08d0-12d6-4d43-b03b-c21afc95f18d"},"vehicle_type_id":"4","last_reported":1748884241,"current_range_meters":16800,"station_id":"ce4bh2h2rcd13ifvqdh0","pricing_plan_id":"cebpf4jnsgd1na2vs0mg"},{"bike_id":"66d21541-3d9f-4909-89bf-f90dc1dfe3cd","system_id":"levelo_inurba_marseille","lat":43.29258,"lon":5.38438,"is_reserved":false,"is_disabled":false,"rental_uris":{"android":"levelo://app?vid=66d21541-3d9f-4909-89bf-f90dc1dfe3cd","ios":"levelo://app?vid=66d21541-3d9f-4909-89bf-f90dc1dfe3cd"},"vehicle_type_id":"4","last_reported":1748884241,"current_range_meters":17200,"station_id":"ce4bh692rcd13ifvqea0","pricing_plan_id":"cebpf4jnsgd1na2vs0mg"},{"bike_id":"fc3c9deb-0caf-4f5e-bdb2-c009020fd806","system_id":"levelo_inurba_marseille","lat":43.3127,"lon":5.36848,"is_reserved":false,"is_disabled":false,"rental_uris":{"android":"levelo://app?vid=fc3c9deb-0caf-4f5e-bdb2-c009020fd806","ios":"levelo://app?vid=fc3c9deb-0caf-4f5e-bdb2-c009020fd806"},"vehicle_type_id":"4","last_reported":1748884241,"current_range_meters":17200,"station_id":"ce4bgl92rcd13ifvqbq0","pricing_plan_id":"cebpf4jnsgd1na2vs0mg"},{"bike_id":"bf2e7a06-3f1e-4bde-be70-c1b331dc5cfc","system_id":"levelo_inurba_marseille","lat":43.26567,"lon":5.3901,"is_reserved":false,"is_disabled":true,"rental_uris":{"android":"levelo://app?vid=bf2e7a06-3f1e-4bde-be70-c1b331dc5cfc","ios":"levelo://app?vid=bf2e7a06-3f1e-4bde-be70-c1b331dc5cfc"},"vehicle_type_id":"4","last_reported":1748884241,"current_range_meters":17200,"station_id":"ce4bhe12rcd13ifvqf30","pricing_plan_id":"cebpf4jnsgd1na2vs0mg"},{"bike_id":"be37cc48-431d-4b6d-8b16-08b50146c95c","system_id":"levelo_inurba_marseille","lat":43.26058,"lon":5.39396,"is_reserved":false,"is_disabled":false,"rental_uris":{"android":"levelo://app?vid=be37cc48-431d-4b6d-8b16-08b50146c95c","ios":"levelo://app?vid=be37cc48-431d-4b6d-8b16-08b50146c95c"},"vehicle_type_id":"4","last_reported":1748884241,"current_range_meters":17200,"station_id":"ce4bhh92rcd13ifvqfj0","pricing_plan_id":"cebpf4jnsgd1na2vs0mg"},{"bike_id":"64bb3847-00c9-4dc0-b6f3-d3ad704790d7","system_id":"levelo_inurba_marseille","lat":43.29158,"lon":5.37145,"is_reserved":false,"is_disabled":false,"rental_uris":{"android":"levelo://app?vid=64bb3847-00c9-4dc0-b6f3-d3ad704790d7","ios":"levelo://app?vid=64bb3847-00c9-4dc0-b6f3-d3ad704790d7"},"vehicle_type_id":"4","last_reported":1748884241,"current_range_meters":17200,"station_id":"ce4bha92rcd13ifvqeh0","pricing_plan_id":"cebpf4jnsgd1na2vs0mg"},{"bike_id":"27299f33-343d-41fa-ab01-d26c87ed7852","system_id":"levelo_inurba_marseille","lat":43.23968,"lon":5.3663,"is_reserved":false,"is_disabled":false,"rental_uris":{"android":"levelo://app?vid=27299f33-343d-41fa-ab01-d26c87ed7852","ios":"levelo://app?vid=27299f33-343d-41fa-ab01-d26c87ed7852"},"vehicle_type_id":"4","last_reported":1748884241,"current_range_meters":17200,"station_id":"ce4bhi12rcd13ifvqfp0","pricing_plan_id":"cebpf4jnsgd1na2vs0mg"},{"bike_id":"e8d6e5f7-84ba-4249-95cf-6e090182a712","system_id":"levelo_inurba_marseille","lat":43.25116,"lon":5.40327,"is_reserved":false,"is_disabled":false,"rental_uris":{"android":"levelo://app?vid=e8d6e5f7-84ba-4249-95cf-6e090182a712","ios":"levelo://app?vid=e8d6e5f7-84ba-4249-95cf-6e090182a712"},"vehicle_type_id":"4","last_reported":1748884241,"current_range_meters":17600,"station_id":"ce4bhlh2rcd13ifvqgig","pricing_plan_id":"cebpf4jnsgd1na2vs0mg"},{"bike_id":"9ed333fb-d883-46f4-af5b-2e113354741b","system_id":"levelo_inurba_marseille","lat":43.296753,"lon":5.372906,"is_reserved":false,"is_disabled":false,"rental_uris":{"android":"levelo://app?vid=9ed333fb-d883-46f4-af5b-2e113354741b","ios":"levelo://app?vid=9ed333fb-d883-46f4-af5b-2e113354741b"},"vehicle_type_id":"4","last_reported":1748884241,"current_range_meters":17600,"station_id":"ce4bgk12rcd13ifvqbj0","pricing_plan_id":"cebpf4jnsgd1na2vs0mg"},{"bike_id":"25ce0f47-de9d-4e1d-8f73-064fa852fcec","system_id":"levelo_inurba_marseille","lat":43.27377,"lon":5.36269,"is_reserved":false,"is_disabled":false,"rental_uris":{"android":"levelo://app?vid=25ce0f47-de9d-4e1d-8f73-064fa852fcec","ios":"levelo://app?vid=25ce0f47-de9d-4e1d-8f73-064fa852fcec"},"vehicle_type_id":"4","last_reported":1748884241,"current_range_meters":17600,"station_id":"ce4bhbh2rcd13ifvqeo0","pricing_plan_id":"cebpf4jnsgd1na2vs0mg"},{"bike_id":"84d4ee4c-18b5-4754-9b0b-0a56caa66298","system_id":"levelo_inurba_marseille","lat":43.30132,"lon":5.39861,"is_reserved":false,"is_disabled":false,"rental_uris":{"android":"levelo://app?vid=84d4ee4c-18b5-4754-9b0b-0a56caa66298","ios":"levelo://app?vid=84d4ee4c-18b5-4754-9b0b-0a56caa66298"},"vehicle_type_id":"4","last_reported":1748884241,"current_range_meters":17600,"station_id":"ce4bh0h2rcd13ifvqd40","pricing_plan_id":"cebpf4jnsgd1na2vs0mg"},{"bike_id":"545d138a-10bc-477f-b769-894b6b430848","system_id":"levelo_inurba_marseille","lat":43.23179,"lon":5.39994,"is_reserved":false,"is_disabled":false,"rental_uris":{"android":"levelo://app?vid=545d138a-10bc-477f-b769-894b6b430848","ios":"levelo://app?vid=545d138a-10bc-477f-b769-894b6b430848"},"vehicle_type_id":"4","last_reported":1748884241,"current_range_meters":17600,"station_id":"ce4bhn12rcd13ifvqgqg","pricing_plan_id":"cebpf4jnsgd1na2vs0mg"},{"bike_id":"206735aa-cc71-47f7-9c67-d08fbdf682ee","system_id":"levelo_inurba_marseille","lat":43.25097,"lon":5.40344,"is_reserved":false,"is_disabled":false,"rental_uris":{"android":"levelo://app?vid=206735aa-cc71-47f7-9c67-d08fbdf682ee","ios":"levelo://app?vid=206735aa-cc71-47f7-9c67-d08fbdf682ee"},"vehicle_type_id":"4","last_reported":1748884241,"current_range_meters":17600,"station_id":"ce4bhlh2rcd13ifvqgig","pricing_plan_id":"cebpf4jnsgd1na2vs0mg"},{"bike_id":"149f35ad-7083-4e3e-bc26-10c3f4561735","system_id":"levelo_inurba_marseille","lat":43.28934,"lon":5.36404,"is_reserved":false,"is_disabled":false,"rental_uris":{"android":"levelo://app?vid=149f35ad-7083-4e3e-bc26-10c3f4561735","ios":"levelo://app?vid=149f35ad-7083-4e3e-bc26-10c3f4561735"},"vehicle_type_id":"4","last_reported":1748884241,"current_range_meters":17600,"station_id":"ce4bhc92rcd13ifvqetg","pricing_plan_id":"cebpf4jnsgd1na2vs0mg"},{"bike_id":"e31c84f5-c44b-48e2-adf2-52a2beace6c7","system_id":"levelo_inurba_marseille","lat":43.31742,"lon":5.37433,"is_reserved":false,"is_disabled":false,"rental_uris":{"android":"levelo://app?vid=e31c84f5-c44b-48e2-adf2-52a2beace6c7","ios":"levelo://app?vid=e31c84f5-c44b-48e2-adf2-52a2beace6c7"},"vehicle_type_id":"4","last_reported":1748884241,"current_range_meters":17600,"station_id":"","pricing_plan_id":"cebpf4jnsgd1na2vs0mg"},{"bike_id":"56ebd079-5325-4146-a252-c6e09bfabc00","system_id":"levelo_inurba_marseille","lat":43.318992,"lon":5.407343,"is_reserved":false,"is_disabled":false,"rental_uris":{"android":"levelo://app?vid=56ebd079-5325-4146-a252-c6e09bfabc00","ios":"levelo://app?vid=56ebd079-5325-4146-a252-c6e09bfabc00"},"vehicle_type_id":"4","last_reported":1748884241,"current_range_meters":17600,"station_id":"ce4bhq12rcd13ifvqhig","pricing_plan_id":"cebpf4jnsgd1na2vs0mg"},{"bike_id":"62ebcf99-52d8-4ec8-a1af-b944e399c355","system_id":"levelo_inurba_marseille","lat":43.27374,"lon":5.36247,"is_reserved":false,"is_disabled":false,"rental_uris":{"android":"levelo://app?vid=62ebcf99-52d8-4ec8-a1af-b944e399c355","ios":"levelo://app?vid=62ebcf99-52d8-4ec8-a1af-b944e399c355"},"vehicle_type_id":"4","last_reported":1748884241,"current_range_meters":17600,"station_id":"ce4bhbh2rcd13ifvqeo0","pricing_plan_id":"cebpf4jnsgd1na2vs0mg"},{"bike_id":"1fa1f53a-bdae-462f-a602-595b0d139014","system_id":"levelo_inurba_marseille","lat":43.24385,"lon":5.37059,"is_reserved":false,"is_disabled":false,"rental_uris":{"android":"levelo://app?vid=1fa1f53a-bdae-462f-a602-595b0d139014","ios":"levelo://app?vid=1fa1f53a-bdae-462f-a602-595b0d139014"},"vehicle_type_id":"4","last_reported":1748884241,"current_range_meters":17600,"station_id":"ce4bhhh2rcd13ifvqfk0","pricing_plan_id":"cebpf4jnsgd1na2vs0mg"},{"bike_id":"6db8da9d-ed27-45cf-9935-6e37c99d0be9","system_id":"levelo_inurba_marseille","lat":43.26212,"lon":5.40154,"is_reserved":false,"is_disabled":false,"rental_uris":{"android":"levelo://app?vid=6db8da9d-ed27-45cf-9935-6e37c99d0be9","ios":"levelo://app?vid=6db8da9d-ed27-45cf-9935-6e37c99d0be9"},"vehicle_type_id":"4","last_reported":1748884241,"current_range_meters":18000,"station_id":"","pricing_plan_id":"cebpf4jnsgd1na2vs0mg"},{"bike_id":"a082cfc8-70c0-4316-b58b-8dca0406cb1a","system_id":"levelo_inurba_marseille","lat":43.25449,"lon":5.41859,"is_reserved":false,"is_disabled":false,"rental_uris":{"android":"levelo://app?vid=a082cfc8-70c0-4316-b58b-8dca0406cb1a","ios":"levelo://app?vid=a082cfc8-70c0-4316-b58b-8dca0406cb1a"},"vehicle_type_id":"4","last_reported":1748884241,"current_range_meters":18000,"station_id":"","pricing_plan_id":"cebpf4jnsgd1na2vs0mg"},{"bike_id":"ea29038e-bc31-4c26-b408-8d49aaf45709","system_id":"levelo_inurba_marseille","lat":43.29262,"lon":5.38442,"is_reserved":false,"is_disabled":false,"rental_uris":{"android":"levelo://app?vid=ea29038e-bc31-4c26-b408-8d49aaf45709","ios":"levelo://app?vid=ea29038e-bc31-4c26-b408-8d49aaf45709"},"vehicle_type_id":"4","last_reported":1748884241,"current_range_meters":19600,"station_id":"ce4bh692rcd13ifvqea0","pricing_plan_id":"cebpf4jnsgd1na2vs0mg"},{"bike_id":"2f37757c-b13e-4666-bb93-b1759535ace6","system_id":"levelo_inurba_marseille","lat":43.28934,"lon":5.36637,"is_reserved":false,"is_disabled":false,"rental_uris":{"android":"levelo://app?vid=2f37757c-b13e-4666-bb93-b1759535ace6","ios":"levelo://app?vid=2f37757c-b13e-4666-bb93-b1759535ace6"},"vehicle_type_id":"4","last_reported":1748884241,"current_range_meters":18000,"station_id":"ce4bhap2rcd13ifvqek0","pricing_plan_id":"cebpf4jnsgd1na2vs0mg"},{"bike_id":"fe719a31-043d-4762-aa13-0736c163cf9a","system_id":"levelo_inurba_marseille","lat":43.28607,"lon":5.37063,"is_reserved":false,"is_disabled":false,"rental_uris":{"android":"levelo://app?vid=fe719a31-043d-4762-aa13-0736c163cf9a","ios":"levelo://app?vid=fe719a31-043d-4762-aa13-0736c163cf9a"},"vehicle_type_id":"4","last_reported":1748884241,"current_range_meters":18000,"station_id":"ce4bht12rcd13ifvqi60","pricing_plan_id":"cebpf4jnsgd1na2vs0mg"},{"bike_id":"51a59e31-b73b-4f9d-82bd-f2c5e6ad2a2c","system_id":"levelo_inurba_marseille","lat":43.31682,"lon":5.40474,"is_reserved":false,"is_disabled":false,"rental_uris":{"android":"levelo://app?vid=51a59e31-b73b-4f9d-82bd-f2c5e6ad2a2c","ios":"levelo://app?vid=51a59e31-b73b-4f9d-82bd-f2c5e6ad2a2c"},"vehicle_type_id":"4","last_reported":1748884241,"current_range_meters":18000,"station_id":"ce4bh012rcd13ifvqd00","pricing_plan_id":"cebpf4jnsgd1na2vs0mg"},{"bike_id":"bae57be5-cdae-42d5-be07-b232b26642d0","system_id":"levelo_inurba_marseille","lat":43.32333,"lon":5.40621,"is_reserved":false,"is_disabled":false,"rental_uris":{"android":"levelo://app?vid=bae57be5-cdae-42d5-be07-b232b26642d0","ios":"levelo://app?vid=bae57be5-cdae-42d5-be07-b232b26642d0"},"vehicle_type_id":"4","last_reported":1748884241,"current_range_meters":18000,"station_id":"ce4bhq92rcd13ifvqhjg","pricing_plan_id":"cebpf4jnsgd1na2vs0mg"},{"bike_id":"412dcb2a-e466-4cc5-8c99-a12937d14ec3","system_id":"levelo_inurba_marseille","lat":43.29905,"lon":5.38146,"is_reserved":false,"is_disabled":false,"rental_uris":{"android":"levelo://app?vid=412dcb2a-e466-4cc5-8c99-a12937d14ec3","ios":"levelo://app?vid=412dcb2a-e466-4cc5-8c99-a12937d14ec3"},"vehicle_type_id":"4","last_reported":1748884241,"current_range_meters":18000,"station_id":"ce4bgj12rcd13ifvqbc0","pricing_plan_id":"cebpf4jnsgd1na2vs0mg"},{"bike_id":"1cb7c0a1-48f8-49ab-9106-52040059037c","system_id":"levelo_inurba_marseille","lat":43.23065,"lon":5.35502,"is_reserved":false,"is_disabled":false,"rental_uris":{"android":"levelo://app?vid=1cb7c0a1-48f8-49ab-9106-52040059037c","ios":"levelo://app?vid=1cb7c0a1-48f8-49ab-9106-52040059037c"},"vehicle_type_id":"4","last_reported":1748884241,"current_range_meters":18000,"station_id":"cpo3342slgdg3j2ifvpg","pricing_plan_id":"cebpf4jnsgd1na2vs0mg"},{"bike_id":"37bb9d36-2d72-43d2-86ad-a712780cacba","system_id":"levelo_inurba_marseille","lat":43.30137,"lon":5.39876,"is_reserved":false,"is_disabled":false,"rental_uris":{"android":"levelo://app?vid=37bb9d36-2d72-43d2-86ad-a712780cacba","ios":"levelo://app?vid=37bb9d36-2d72-43d2-86ad-a712780cacba"},"vehicle_type_id":"4","last_reported":1748884241,"current_range_meters":18000,"station_id":"ce4bh0h2rcd13ifvqd40","pricing_plan_id":"cebpf4jnsgd1na2vs0mg"},{"bike_id":"df29ad75-8753-4f94-80fc-f8891597660c","system_id":"levelo_inurba_marseille","lat":43.28939,"lon":5.384045,"is_reserved":false,"is_disabled":false,"rental_uris":{"android":"levelo://app?vid=df29ad75-8753-4f94-80fc-f8891597660c","ios":"levelo://app?vid=df29ad75-8753-4f94-80fc-f8891597660c"},"vehicle_type_id":"4","last_reported":1748884241,"current_range_meters":16400,"station_id":"ce4bh612rcd13ifvqe6g","pricing_plan_id":"cebpf4jnsgd1na2vs0mg"},{"bike_id":"c4851de8-b8f2-451e-b524-41a85164b1b3","system_id":"levelo_inurba_marseille","lat":43.24654,"lon":5.38898,"is_reserved":false,"is_disabled":false,"rental_uris":{"android":"levelo://app?vid=c4851de8-b8f2-451e-b524-41a85164b1b3","ios":"levelo://app?vid=c4851de8-b8f2-451e-b524-41a85164b1b3"},"vehicle_type_id":"4","last_reported":1748884241,"current_range_meters":18800,"station_id":"ce4bhg12rcd13ifvqf60","pricing_plan_id":"cebpf4jnsgd1na2vs0mg"},{"bike_id":"e896ee5d-5221-4f28-8bc1-268f22a09997","system_id":"levelo_inurba_marseille","lat":43.26063,"lon":5.39394,"is_reserved":false,"is_disabled":false,"rental_uris":{"android":"levelo://app?vid=e896ee5d-5221-4f28-8bc1-268f22a09997","ios":"levelo://app?vid=e896ee5d-5221-4f28-8bc1-268f22a09997"},"vehicle_type_id":"4","last_reported":1748884241,"current_range_meters":18800,"station_id":"ce4bhh92rcd13ifvqfj0","pricing_plan_id":"cebpf4jnsgd1na2vs0mg"},{"bike_id":"a1bc7c0e-4e66-4b42-a1c3-d0c07ce1d655","system_id":"levelo_inurba_marseille","lat":43.26057,"lon":5.39401,"is_reserved":false,"is_disabled":false,"rental_uris":{"android":"levelo://app?vid=a1bc7c0e-4e66-4b42-a1c3-d0c07ce1d655","ios":"levelo://app?vid=a1bc7c0e-4e66-4b42-a1c3-d0c07ce1d655"},"vehicle_type_id":"4","last_reported":1748884241,"current_range_meters":18800,"station_id":"ce4bhh92rcd13ifvqfj0","pricing_plan_id":"cebpf4jnsgd1na2vs0mg"},{"bike_id":"8e45c534-9f38-4aaf-bfc0-20831aa0c778","system_id":"levelo_inurba_marseille","lat":43.260558,"lon":5.393922,"is_reserved":false,"is_disabled":false,"rental_uris":{"android":"levelo://app?vid=8e45c534-9f38-4aaf-bfc0-20831aa0c778","ios":"levelo://app?vid=8e45c534-9f38-4aaf-bfc0-20831aa0c778"},"vehicle_type_id":"4","last_reported":1748884241,"current_range_meters":18800,"station_id":"ce4bhh92rcd13ifvqfj0","pricing_plan_id":"cebpf4jnsgd1na2vs0mg"},{"bike_id":"1c0d1be6-a5fc-47ef-9364-f57695611439","system_id":"levelo_inurba_marseille","lat":43.33123,"lon":5.41412,"is_reserved":false,"is_disabled":false,"rental_uris":{"android":"levelo://app?vid=1c0d1be6-a5fc-47ef-9364-f57695611439","ios":"levelo://app?vid=1c0d1be6-a5fc-47ef-9364-f57695611439"},"vehicle_type_id":"4","last_reported":1748884241,"current_range_meters":18800,"station_id":"","pricing_plan_id":"cebpf4jnsgd1na2vs0mg"},{"bike_id":"19806e15-a876-49b8-8ddf-52208d457a6a","system_id":"levelo_inurba_marseille","lat":43.30134,"lon":5.39864,"is_reserved":false,"is_disabled":false,"rental_uris":{"android":"levelo://app?vid=19806e15-a876-49b8-8ddf-52208d457a6a","ios":"levelo://app?vid=19806e15-a876-49b8-8ddf-52208d457a6a"},"vehicle_type_id":"4","last_reported":1748884241,"current_range_meters":18800,"station_id":"ce4bh0h2rcd13ifvqd40","pricing_plan_id":"cebpf4jnsgd1na2vs0mg"},{"bike_id":"2bddebcb-a82e-43fa-af7e-1afd480a67ed","system_id":"levelo_inurba_marseille","lat":43.33095,"lon":5.38181,"is_reserved":false,"is_disabled":false,"rental_uris":{"android":"levelo://app?vid=2bddebcb-a82e-43fa-af7e-1afd480a67ed","ios":"levelo://app?vid=2bddebcb-a82e-43fa-af7e-1afd480a67ed"},"vehicle_type_id":"4","last_reported":1748884241,"current_range_meters":19200,"station_id":"","pricing_plan_id":"cebpf4jnsgd1na2vs0mg"},{"bike_id":"f63933a6-b91b-45de-8bc7-b4f655856c28","system_id":"levelo_inurba_marseille","lat":43.292752,"lon":5.368463,"is_reserved":false,"is_disabled":false,"rental_uris":{"android":"levelo://app?vid=f63933a6-b91b-45de-8bc7-b4f655856c28","ios":"levelo://app?vid=f63933a6-b91b-45de-8bc7-b4f655856c28"},"vehicle_type_id":"4","last_reported":1748884241,"current_range_meters":19200,"station_id":"ce4bhbp2rcd13ifvqesg","pricing_plan_id":"cebpf4jnsgd1na2vs0mg"},{"bike_id":"f3254fa9-5ad1-4846-bfd4-4f8bc3692f7a","system_id":"levelo_inurba_marseille","lat":43.32416,"lon":5.43612,"is_reserved":false,"is_disabled":false,"rental_uris":{"android":"levelo://app?vid=f3254fa9-5ad1-4846-bfd4-4f8bc3692f7a","ios":"levelo://app?vid=f3254fa9-5ad1-4846-bfd4-4f8bc3692f7a"},"vehicle_type_id":"4","last_reported":1748884241,"current_range_meters":19200,"station_id":"","pricing_plan_id":"cebpf4jnsgd1na2vs0mg"},{"bike_id":"e073c3b9-579e-431b-8c54-b6a28caa0933","system_id":"levelo_inurba_marseille","lat":43.229322,"lon":5.353839,"is_reserved":false,"is_disabled":false,"rental_uris":{"android":"levelo://app?vid=e073c3b9-579e-431b-8c54-b6a28caa0933","ios":"levelo://app?vid=e073c3b9-579e-431b-8c54-b6a28caa0933"},"vehicle_type_id":"4","last_reported":1748884241,"current_range_meters":19200,"station_id":"cpo3532slgdg3j2ikp40","pricing_plan_id":"cebpf4jnsgd1na2vs0mg"},{"bike_id":"4bc2c521-96b5-4a41-9f6d-af288057d939","system_id":"levelo_inurba_marseille","lat":43.24803,"lon":5.3745,"is_reserved":false,"is_disabled":false,"rental_uris":{"android":"levelo://app?vid=4bc2c521-96b5-4a41-9f6d-af288057d939","ios":"levelo://app?vid=4bc2c521-96b5-4a41-9f6d-af288057d939"},"vehicle_type_id":"4","last_reported":1748884241,"current_range_meters":19200,"station_id":"ce4bhgh2rcd13ifvqfb0","pricing_plan_id":"cebpf4jnsgd1na2vs0mg"},{"bike_id":"247f2959-ba47-47f9-ab64-f3b91a1d0ac9","system_id":"levelo_inurba_marseille","lat":43.26974,"lon":5.39852,"is_reserved":false,"is_disabled":false,"rental_uris":{"android":"levelo://app?vid=247f2959-ba47-47f9-ab64-f3b91a1d0ac9","ios":"levelo://app?vid=247f2959-ba47-47f9-ab64-f3b91a1d0ac9"},"vehicle_type_id":"4","last_reported":1748884241,"current_range_meters":19200,"station_id":"","pricing_plan_id":"cebpf4jnsgd1na2vs0mg"},{"bike_id":"cca8cf19-8e5f-48f7-b559-1fe675ed7876","system_id":"levelo_inurba_marseille","lat":43.26502,"lon":5.39539,"is_reserved":false,"is_disabled":false,"rental_uris":{"android":"levelo://app?vid=cca8cf19-8e5f-48f7-b559-1fe675ed7876","ios":"levelo://app?vid=cca8cf19-8e5f-48f7-b559-1fe675ed7876"},"vehicle_type_id":"4","last_reported":1748884241,"current_range_meters":19200,"station_id":"ce4bhi12rcd13ifvqfq0","pricing_plan_id":"cebpf4jnsgd1na2vs0mg"},{"bike_id":"ecef8e30-16f3-430f-8ab6-6e24c247b55d","system_id":"levelo_inurba_marseille","lat":43.33722,"lon":5.39198,"is_reserved":false,"is_disabled":false,"rental_uris":{"android":"levelo://app?vid=ecef8e30-16f3-430f-8ab6-6e24c247b55d","ios":"levelo://app?vid=ecef8e30-16f3-430f-8ab6-6e24c247b55d"},"vehicle_type_id":"4","last_reported":1748884241,"current_range_meters":19200,"station_id":"ce4bhr92rcd13ifvqhsg","pricing_plan_id":"cebpf4jnsgd1na2vs0mg"},{"bike_id":"aaa8a5c3-a5ed-400c-8f41-0e4e0b9d2e8e","system_id":"levelo_inurba_marseille","lat":43.29783,"lon":5.37103,"is_reserved":false,"is_disabled":false,"rental_uris":{"android":"levelo://app?vid=aaa8a5c3-a5ed-400c-8f41-0e4e0b9d2e8e","ios":"levelo://app?vid=aaa8a5c3-a5ed-400c-8f41-0e4e0b9d2e8e"},"vehicle_type_id":"4","last_reported":1748884241,"current_range_meters":19200,"station_id":"ce4bgop2rcd13ifvqc1g","pricing_plan_id":"cebpf4jnsgd1na2vs0mg"},{"bike_id":"752f75bb-1447-4b42-b9c4-6f81046ef291","system_id":"levelo_inurba_marseille","lat":43.31324,"lon":5.39694,"is_reserved":false,"is_disabled":false,"rental_uris":{"android":"levelo://app?vid=752f75bb-1447-4b42-b9c4-6f81046ef291","ios":"levelo://app?vid=752f75bb-1447-4b42-b9c4-6f81046ef291"},"vehicle_type_id":"4","last_reported":1748884241,"current_range_meters":19600,"station_id":"ce4bgvp2rcd13ifvqcu0","pricing_plan_id":"cebpf4jnsgd1na2vs0mg"},{"bike_id":"54a0fab2-5088-492a-b433-f8c4e0a11dfa","system_id":"levelo_inurba_marseille","lat":43.30136,"lon":5.39878,"is_reserved":false,"is_disabled":false,"rental_uris":{"android":"levelo://app?vid=54a0fab2-5088-492a-b433-f8c4e0a11dfa","ios":"levelo://app?vid=54a0fab2-5088-492a-b433-f8c4e0a11dfa"},"vehicle_type_id":"4","last_reported":1748884241,"current_range_meters":19600,"station_id":"ce4bh0h2rcd13ifvqd40","pricing_plan_id":"cebpf4jnsgd1na2vs0mg"},{"bike_id":"82245c47-7964-47e3-bf5e-da641e052cb8","system_id":"levelo_inurba_marseille","lat":43.29007,"lon":5.35599,"is_reserved":false,"is_disabled":false,"rental_uris":{"android":"levelo://app?vid=82245c47-7964-47e3-bf5e-da641e052cb8","ios":"levelo://app?vid=82245c47-7964-47e3-bf5e-da641e052cb8"},"vehicle_type_id":"4","last_reported":1748884241,"current_range_meters":19600,"station_id":"ce4bhb92rcd13ifvqen0","pricing_plan_id":"cebpf4jnsgd1na2vs0mg"},{"bike_id":"5b536054-600d-4e23-8558-f74f4f3ec365","system_id":"levelo_inurba_marseille","lat":43.33027,"lon":5.390403,"is_reserved":false,"is_disabled":false,"rental_uris":{"android":"levelo://app?vid=5b536054-600d-4e23-8558-f74f4f3ec365","ios":"levelo://app?vid=5b536054-600d-4e23-8558-f74f4f3ec365"},"vehicle_type_id":"4","last_reported":1748884241,"current_range_meters":19600,"station_id":"ce4bhr92rcd13ifvqhrg","pricing_plan_id":"cebpf4jnsgd1na2vs0mg"},{"bike_id":"4e17c123-8236-4a02-a8a2-a61cdc625d7e","system_id":"levelo_inurba_marseille","lat":43.30476,"lon":5.37092,"is_reserved":false,"is_disabled":false,"rental_uris":{"android":"levelo://app?vid=4e17c123-8236-4a02-a8a2-a61cdc625d7e","ios":"levelo://app?vid=4e17c123-8236-4a02-a8a2-a61cdc625d7e"},"vehicle_type_id":"4","last_reported":1748884241,"current_range_meters":19600,"station_id":"","pricing_plan_id":"cebpf4jnsgd1na2vs0mg"},{"bike_id":"ab65baa6-55e4-411f-ad9e-ea51e83f2915","system_id":"levelo_inurba_marseille","lat":43.30426,"lon":5.38899,"is_reserved":false,"is_disabled":false,"rental_uris":{"android":"levelo://app?vid=ab65baa6-55e4-411f-ad9e-ea51e83f2915","ios":"levelo://app?vid=ab65baa6-55e4-411f-ad9e-ea51e83f2915"},"vehicle_type_id":"4","last_reported":1748884241,"current_range_meters":19600,"station_id":"ce4bgk12rcd13ifvqbi0","pricing_plan_id":"cebpf4jnsgd1na2vs0mg"},{"bike_id":"da26f9ff-4cda-48ab-9722-2ad8b0e7cac4","system_id":"levelo_inurba_marseille","lat":43.28435,"lon":5.37499,"is_reserved":false,"is_disabled":false,"rental_uris":{"android":"levelo://app?vid=da26f9ff-4cda-48ab-9722-2ad8b0e7cac4","ios":"levelo://app?vid=da26f9ff-4cda-48ab-9722-2ad8b0e7cac4"},"vehicle_type_id":"4","last_reported":1748884241,"current_range_meters":19600,"station_id":"ce4bh412rcd13ifvqds0","pricing_plan_id":"cebpf4jnsgd1na2vs0mg"},{"bike_id":"68693d1e-4ab3-4cba-ab8a-01a674a191b4","system_id":"levelo_inurba_marseille","lat":43.29843,"lon":5.36286,"is_reserved":false,"is_disabled":false,"rental_uris":{"android":"levelo://app?vid=68693d1e-4ab3-4cba-ab8a-01a674a191b4","ios":"levelo://app?vid=68693d1e-4ab3-4cba-ab8a-01a674a191b4"},"vehicle_type_id":"4","last_reported":1748884241,"current_range_meters":20000,"station_id":"ce4bgpp2rcd13ifvqc3g","pricing_plan_id":"cebpf4jnsgd1na2vs0mg"},{"bike_id":"a90529d8-805f-4fba-9cca-0edca7fe451c","system_id":"levelo_inurba_marseille","lat":43.32361,"lon":5.36753,"is_reserved":false,"is_disabled":false,"rental_uris":{"android":"levelo://app?vid=a90529d8-805f-4fba-9cca-0edca7fe451c","ios":"levelo://app?vid=a90529d8-805f-4fba-9cca-0edca7fe451c"},"vehicle_type_id":"4","last_reported":1748884241,"current_range_meters":20000,"station_id":"ce4bhsh2rcd13ifvqi2g","pricing_plan_id":"cebpf4jnsgd1na2vs0mg"},{"bike_id":"df8a6a96-0f89-4d7e-904c-ba52e557937a","system_id":"levelo_inurba_marseille","lat":43.28417,"lon":5.34997,"is_reserved":false,"is_disabled":false,"rental_uris":{"android":"levelo://app?vid=df8a6a96-0f89-4d7e-904c-ba52e557937a","ios":"levelo://app?vid=df8a6a96-0f89-4d7e-904c-ba52e557937a"},"vehicle_type_id":"4","last_reported":1748884241,"current_range_meters":20000,"station_id":"ce4bhbh2rcd13ifvqepg","pricing_plan_id":"cebpf4jnsgd1na2vs0mg"},{"bike_id":"d7a4deb1-d1c8-4aad-b115-06285fad5b9c","system_id":"levelo_inurba_marseille","lat":43.284252,"lon":5.349943,"is_reserved":false,"is_disabled":false,"rental_uris":{"android":"levelo://app?vid=d7a4deb1-d1c8-4aad-b115-06285fad5b9c","ios":"levelo://app?vid=d7a4deb1-d1c8-4aad-b115-06285fad5b9c"},"vehicle_type_id":"4","last_reported":1748884241,"current_range_meters":20000,"station_id":"ce4bhbh2rcd13ifvqepg","pricing_plan_id":"cebpf4jnsgd1na2vs0mg"},{"bike_id":"620beafd-65d2-408b-8d01-7d4585b2d7c4","system_id":"levelo_inurba_marseille","lat":43.27378,"lon":5.36255,"is_reserved":false,"is_disabled":false,"rental_uris":{"android":"levelo://app?vid=620beafd-65d2-408b-8d01-7d4585b2d7c4","ios":"levelo://app?vid=620beafd-65d2-408b-8d01-7d4585b2d7c4"},"vehicle_type_id":"4","last_reported":1748884241,"current_range_meters":20000,"station_id":"ce4bhbh2rcd13ifvqeo0","pricing_plan_id":"cebpf4jnsgd1na2vs0mg"},{"bike_id":"8d498ea4-7c92-435c-8e7f-fc7eac385751","system_id":"levelo_inurba_marseille","lat":43.29767,"lon":5.37106,"is_reserved":false,"is_disabled":false,"rental_uris":{"android":"levelo://app?vid=8d498ea4-7c92-435c-8e7f-fc7eac385751","ios":"levelo://app?vid=8d498ea4-7c92-435c-8e7f-fc7eac385751"},"vehicle_type_id":"4","last_reported":1748884241,"current_range_meters":20000,"station_id":"ce4bgop2rcd13ifvqc1g","pricing_plan_id":"cebpf4jnsgd1na2vs0mg"},{"bike_id":"a3dfb24d-2bc1-4dbc-b2b2-807b9fa8d499","system_id":"levelo_inurba_marseille","lat":43.30793,"lon":5.43531,"is_reserved":false,"is_disabled":false,"rental_uris":{"android":"levelo://app?vid=a3dfb24d-2bc1-4dbc-b2b2-807b9fa8d499","ios":"levelo://app?vid=a3dfb24d-2bc1-4dbc-b2b2-807b9fa8d499"},"vehicle_type_id":"4","last_reported":1748884241,"current_range_meters":20000,"station_id":"ce4bhph2rcd13ifvqheg","pricing_plan_id":"cebpf4jnsgd1na2vs0mg"},{"bike_id":"988be582-31f1-49ba-b440-d84bc2b90db2","system_id":"levelo_inurba_marseille","lat":43.290285,"lon":5.386492,"is_reserved":false,"is_disabled":false,"rental_uris":{"android":"levelo://app?vid=988be582-31f1-49ba-b440-d84bc2b90db2","ios":"levelo://app?vid=988be582-31f1-49ba-b440-d84bc2b90db2"},"vehicle_type_id":"4","last_reported":1748884241,"current_range_meters":19200,"station_id":"ce4bh4p2rcd13ifvqe0g","pricing_plan_id":"cebpf4jnsgd1na2vs0mg"},{"bike_id":"1e4bcd7c-2dee-4b90-80ae-b744d3791949","system_id":"levelo_inurba_marseille","lat":43.30422,"lon":5.38884,"is_reserved":false,"is_disabled":false,"rental_uris":{"android":"levelo://app?vid=1e4bcd7c-2dee-4b90-80ae-b744d3791949","ios":"levelo://app?vid=1e4bcd7c-2dee-4b90-80ae-b744d3791949"},"vehicle_type_id":"4","last_reported":1748884241,"current_range_meters":20800,"station_id":"ce4bgk12rcd13ifvqbi0","pricing_plan_id":"cebpf4jnsgd1na2vs0mg"},{"bike_id":"5ed365f1-0074-4f1f-b4db-48b7c5d8c049","system_id":"levelo_inurba_marseille","lat":43.275484,"lon":5.384503,"is_reserved":false,"is_disabled":false,"rental_uris":{"android":"levelo://app?vid=5ed365f1-0074-4f1f-b4db-48b7c5d8c049","ios":"levelo://app?vid=5ed365f1-0074-4f1f-b4db-48b7c5d8c049"},"vehicle_type_id":"4","last_reported":1748884241,"current_range_meters":20000,"station_id":"ce4bhh92rcd13ifvqfi0","pricing_plan_id":"cebpf4jnsgd1na2vs0mg"},{"bike_id":"82d88971-2868-4e1c-a687-df9e3e6afc93","system_id":"levelo_inurba_marseille","lat":43.30212,"lon":5.39453,"is_reserved":false,"is_disabled":false,"rental_uris":{"android":"levelo://app?vid=82d88971-2868-4e1c-a687-df9e3e6afc93","ios":"levelo://app?vid=82d88971-2868-4e1c-a687-df9e3e6afc93"},"vehicle_type_id":"4","last_reported":1748884241,"current_range_meters":20400,"station_id":"ce4bh0p2rcd13ifvqd70","pricing_plan_id":"cebpf4jnsgd1na2vs0mg"},{"bike_id":"b10ff293-531a-43e9-90ee-93920981642d","system_id":"levelo_inurba_marseille","lat":43.29883,"lon":5.38906,"is_reserved":false,"is_disabled":false,"rental_uris":{"android":"levelo://app?vid=b10ff293-531a-43e9-90ee-93920981642d","ios":"levelo://app?vid=b10ff293-531a-43e9-90ee-93920981642d"},"vehicle_type_id":"4","last_reported":1748884241,"current_range_meters":20000,"station_id":"ce4bh392rcd13ifvqdl0","pricing_plan_id":"cebpf4jnsgd1na2vs0mg"},{"bike_id":"ef5c8bf9-f2db-42c3-80f7-409c54f575a3","system_id":"levelo_inurba_marseille","lat":43.27068,"lon":5.42286,"is_reserved":false,"is_disabled":false,"rental_uris":{"android":"levelo://app?vid=ef5c8bf9-f2db-42c3-80f7-409c54f575a3","ios":"levelo://app?vid=ef5c8bf9-f2db-42c3-80f7-409c54f575a3"},"vehicle_type_id":"4","last_reported":1748884241,"current_range_meters":20400,"station_id":"ce4bhk92rcd13ifvqgb0","pricing_plan_id":"cebpf4jnsgd1na2vs0mg"},{"bike_id":"20b18bac-b480-40bb-a82e-5f57913e49a1","system_id":"levelo_inurba_marseille","lat":43.291958,"lon":5.358036,"is_reserved":false,"is_disabled":false,"rental_uris":{"android":"levelo://app?vid=20b18bac-b480-40bb-a82e-5f57913e49a1","ios":"levelo://app?vid=20b18bac-b480-40bb-a82e-5f57913e49a1"},"vehicle_type_id":"4","last_reported":1748884241,"current_range_meters":20400,"station_id":"ce4bhb12rcd13ifvqel0","pricing_plan_id":"cebpf4jnsgd1na2vs0mg"},{"bike_id":"6759224c-f28f-4edc-90d1-667b98e308e7","system_id":"levelo_inurba_marseille","lat":43.27786,"lon":5.40714,"is_reserved":false,"is_disabled":false,"rental_uris":{"android":"levelo://app?vid=6759224c-f28f-4edc-90d1-667b98e308e7","ios":"levelo://app?vid=6759224c-f28f-4edc-90d1-667b98e308e7"},"vehicle_type_id":"4","last_reported":1748884241,"current_range_meters":20400,"station_id":"ce4bhnh2rcd13ifvqgtg","pricing_plan_id":"cebpf4jnsgd1na2vs0mg"},{"bike_id":"3cac6e7a-bfd5-45db-80d9-4b1b0bc73010","system_id":"levelo_inurba_marseille","lat":43.30132,"lon":5.39867,"is_reserved":false,"is_disabled":false,"rental_uris":{"android":"levelo://app?vid=3cac6e7a-bfd5-45db-80d9-4b1b0bc73010","ios":"levelo://app?vid=3cac6e7a-bfd5-45db-80d9-4b1b0bc73010"},"vehicle_type_id":"4","last_reported":1748884241,"current_range_meters":20400,"station_id":"ce4bh0h2rcd13ifvqd40","pricing_plan_id":"cebpf4jnsgd1na2vs0mg"},