{"last_updated":1768605078,"ttl":60,"version":"2.2","data":{"bikes":[{"bike_id":"d232944c-9760-43bc-beb3-acf611cdb292","system_id":"levelo_inurba_marseille","lat":43.29897,"lon":5.38204,"is_reserved":false,"is_disabled":false,"rental_uris":{"android":"levelo://app?vid=d232944c-9760-43bc-beb3-acf611cdb292","ios":"levelo://app?vid=d232944c-9760-43bc-beb3-acf611cdb292"},"vehicle_type_id":"4","last_reported":1768605079,"current_range_meters":2800,"station_id":"ce4bgj12rcd13ifvqbc0","pricing_plan_id":"cebpf4jnsgd1na2vs0mg"},{"bike_id":"3c7a4e1b-ecfa-4983-8b44-a9e20bf33a7e","system_id":"levelo_inurba_marseille","lat":43.293737,"lon":5.378418,"is_reserved":false,"is_disabled":false,"rental_uris":{"android":"levelo://app?vid=3c7a4e1b-ecfa-4983-8b44-a9e20bf33a7e","ios":"levelo://app?vid=3c7a4e1b-ecfa-4983-8b44-a9e20bf33a7e"},"vehicle_type_id":"4","last_reported":1768605079,"current_range_meters":2800,"station_id":"ce4bgjh2rcd13ifvqbf0","pricing_plan_id":"cebpf4jnsgd1na2vs0mg"},{"bike_id":"e5aa787f-c7e4-4b02-b6ed-ac65ac7744ea","system_id":"levelo_inurba_marseille","lat":43.23192,"lon":5.39995,"is_reserved":false,"is_disabled":false,"rental_uris":{"android":"levelo://app?vid=e5aa787f-c7e4-4b02-b6ed-ac65ac7744ea","ios":"levelo://app?vid=e5aa787f-c7e4-4b02-b6ed-ac65ac7744ea"},"vehicle_type_id":"4","last_reported":1768605079,"current_range_meters":2800,"station_id":"ce4bhn12rcd13ifvqgqg","pricing_plan_id":"cebpf4jnsgd1na2vs0mg"},{"bike_id":"640a2c1a-6656-4f72-9d80-a05d025fe26c","system_id":"levelo_inurba_marseille","lat":43.26785,"lon":5.39467,"is_reserved":false,"is_disabled":false,"rental_uris":{"android":"levelo://app?vid=640a2c1a-6656-4f72-9d80-a05d025fe26c","ios":"levelo://app?vid=640a2c1a-6656-4f72-9d80-a05d025fe26c"},"vehicle_type_id":"4","last_reported":1768605079,"current_range_meters":2800,"station_id":"","pricing_plan_id":"cebpf4jnsgd1na2vs0mg"},{"bike_id":"d573dea0-84f2-4278-9343-3e80901c823b","system_id":"levelo_inurba_marseille","lat":43.31387,"lon":5.377,"is_reserved":false,"is_disabled":false,"rental_uris":{"android":"levelo://app?vid=d573dea0-84f2-4278-9343-3e80901c823b","ios":"levelo://app?vid=d573dea0-84f2-4278-9343-3e80901c823b"},"vehicle_type_id":"4","last_reported":1768605079,"current_range_meters":2800,"station_id":"","pricing_plan_id":"cebpf4jnsgd1na2vs0mg"},{"bike_id":"5df38dcb-15c5-4bf0-bc2a-6289c4d0c0c4","system_id":"levelo_inurba_marseille","lat":43.29976,"lon":5.38495,"is_reserved":false,"is_disabled":false,"rental_uris":{"android":"levelo://app?vid=5df38dcb-15c5-4bf0-bc2a-6289c4d0c0c4","ios":"levelo://app?vid=5df38dcb-15c5-4bf0-bc2a-6289c4d0c0c4"},"vehicle_type_id":"4","last_reported":1768605079,"current_range_meters":2800,"station_id":"ce4bgj92rcd13ifvqbd0","pricing_plan_id":"cebpf4jnsgd1na2vs0mg"},{"bike_id":"5379f5ed-da06-4adb-b823-51e71e531df4","system_id":"levelo_inurba_marseille","lat":43.24631,"lon":5.43136,"is_reserved":false,"is_disabled":false,"rental_uris":{"android":"levelo://app?vid=5379f5ed-da06-4adb-b823-51e71e531df4","ios":"levelo://app?vid=5379f5ed-da06-4adb-b823-51e71e531df4"},"vehicle_type_id":"4","last_reported":1768605079,"current_range_meters":2800,"station_id":"st_d2m6c4gdas8pm72e190g","pricing_plan_id":"cebpf4jnsgd1na2vs0mg"},{"bike_id":"c94f1e7c-30e4-48af-9c9d-7ae63f7e4395","system_id":"levelo_inurba_marseille","lat":43.28233,"lon":5.39077,"is_reserved":false,"is_disabled":false,"rental_uris":{"android":"levelo://app?vid=c94f1e7c-30e4-48af-9c9d-7ae63f7e4395","ios":"levelo://app?vid=c94f1e7c-30e4-48af-9c9d-7ae63f7e4395"},"vehicle_type_id":"4","last_reported":1768605079,"current_range_meters":2800,"station_id":"ce4bhn92rcd13ifvqgsg","pricing_plan_id":"cebpf4jnsgd1na2vs0mg"},{"bike_id":"a0a43241-d522-4b07-add5-2a27372bb437","system_id":"levelo_inurba_marseille","lat":43.25818,"lon":5.39432,"is_reserved":false,"is_disabled":false,"rental_uris":{"android":"levelo://app?vid=a0a43241-d522-4b07-add5-2a27372bb437","ios":"levelo://app?vid=a0a43241-d522-4b07-add5-2a27372bb437"},"vehicle_type_id":"4","last_reported":1768605079,"current_range_meters":3200,"station_id":"ce4bhip2rcd13ifvqft0","pricing_plan_id":"cebpf4jnsgd1na2vs0mg"},{"bike_id":"47d6a118-30fb-4bd5-8b2e-5b32dee8a421","system_id":"levelo_inurba_marseille","lat":43.28601,"lon":5.38942,"is_reserved":false,"is_disabled":false,"rental_uris":{"android":"levelo://app?vid=47d6a118-30fb-4bd5-8b2e-5b32dee8a421","ios":"levelo://app?vid=47d6a118-30fb-4bd5-8b2e-5b32dee8a421"},"vehicle_type_id":"4","last_reported":1768605079,"current_range_meters":3200,"station_id":"","pricing_plan_id":"cebpf4jnsgd1na2vs0mg"},{"bike_id":"91f12e44-fb57-4d25-99b4-ab40162c4b9f","system_id":"levelo_inurba_marseille","lat":43.28152,"lon":5.42648,"is_reserved":false,"is_disabled":false,"rental_uris":{"android":"levelo://app?vid=91f12e44-fb57-4d25-99b4-ab40162c4b9f","ios":"levelo://app?vid=91f12e44-fb57-4d25-99b4-ab40162c4b9f"},"vehicle_type_id":"4","last_reported":1768605079,"current_range_meters":3200,"station_id":"ce4bhnh2rcd13ifvqgug","pricing_plan_id":"cebpf4jnsgd1na2vs0mg"},{"bike_id":"60fd4a7b-9b5f-4a44-a004-2f479473036a","system_id":"levelo_inurba_marseille","lat":43.295323,"lon":5.385583,"is_reserved":false,"is_disabled":false,"rental_uris":{"android":"levelo://app?vid=60fd4a7b-9b5f-4a44-a004-2f479473036a","ios":"levelo://app?vid=60fd4a7b-9b5f-4a44-a004-2f479473036a"},"vehicle_type_id":"4","last_reported":1768605079,"current_range_meters":3200,"station_id":"ce4bgih2rcd13ifvqba0","pricing_plan_id":"cebpf4jnsgd1na2vs0mg"},{"bike_id":"5e878a07-092f-4b63-af36-04a4701880ef","system_id":"levelo_inurba_marseille","lat":43.285341,"lon":5.441029,"is_reserved":false,"is_disabled":false,"rental_uris":{"android":"levelo://app?vid=5e878a07-092f-4b63-af36-04a4701880ef","ios":"levelo://app?vid=5e878a07-092f-4b63-af36-04a4701880ef"},"vehicle_type_id":"4","last_reported":1768605079,"current_range_meters":3200,"station_id":"st_d3j3df2ikq2c7380ej80","pricing_plan_id":"cebpf4jnsgd1na2vs0mg"},{"bike_id":"82dc953c-540f-4bfb-8327-5983d85de69a","system_id":"levelo_inurba_marseille","lat":43.33161,"lon":5.37664,"is_reserved":false,"is_disabled":false,"rental_uris":{"android":"levelo://app?vid=82dc953c-540f-4bfb-8327-5983d85de69a","ios":"levelo://app?vid=82dc953c-540f-4bfb-8327-5983d85de69a"},"vehicle_type_id":"4","last_reported":1768605079,"current_range_meters":3200,"station_id":"st_d46cu089ee8s73dldbu0","pricing_plan_id":"cebpf4jnsgd1na2vs0mg"},{"bike_id":"ca4179ba-d96b-437c-ae35-312b23a32116","system_id":"levelo_inurba_marseille","lat":43.25578,"lon":5.38233,"is_reserved":false,"is_disabled":false,"rental_uris":{"android":"levelo://app?vid=ca4179ba-d96b-437c-ae35-312b23a32116","ios":"levelo://app?vid=ca4179ba-d96b-437c-ae35-312b23a32116"},"vehicle_type_id":"4","last_reported":1768605079,"current_range_meters":3200,"station_id":"ce4bhih2rcd13ifvqfs0","pricing_plan_id":"cebpf4jnsgd1na2vs0mg"},{"bike_id":"d970374e-5112-478e-8dba-3dba5eea6b44","system_id":"levelo_inurba_marseille","lat":43.30115,"lon":5.43117,"is_reserved":false,"is_disabled":false,"rental_uris":{"android":"levelo://app?vid=d970374e-5112-478e-8dba-3dba5eea6b44","ios":"levelo://app?vid=d970374e-5112-478e-8dba-3dba5eea6b44"},"vehicle_type_id":"4","last_reported":1768605079,"current_range_meters":3200,"station_id":"st_d3js3co5814s73ftftug","pricing_plan_id":"cebpf4jnsgd1na2vs0mg"},{"bike_id":"0ce3cc02-2962-4286-804f-4dc1590de945","system_id":"levelo_inurba_marseille","lat":43.25567,"lon":5.38226,"is_reserved":false,"is_disabled":false,"rental_uris":{"android":"levelo://app?vid=0ce3cc02-2962-4286-804f-4dc1590de945","ios":"levelo://app?vid=0ce3cc02-2962-4286-804f-4dc1590de945"},"vehicle_type_id":"4","last_reported":1768605079,"current_range_meters":3200,"station_id":"ce4bhih2rcd13ifvqfs0","pricing_plan_id":"cebpf4jnsgd1na2vs0mg"},{"bike_id":"51b8f969-7f95-490d-8234-5e02488843eb","system_id":"levelo_inurba_marseille","lat":43.28705,"lon":5.37393,"is_reserved":false,"is_disabled":false,"rental_uris":{"android":"levelo://app?vid=51b8f969-7f95-490d-8234-5e02488843eb","ios":"levelo://app?vid=51b8f969-7f95-490d-8234-5e02488843eb"},"vehicle_type_id":"4","last_reported":1768605079,"current_range_meters":3200,"station_id":"ce4bh3p2rcd13ifvqdq0","pricing_plan_id":"cebpf4jnsgd1na2vs0mg"},{"bike_id":"fa363868-2b68-49e5-9d7c-321c4df757e7","system_id":"levelo_inurba_marseille","lat":43.23179,"lon":5.39995,"is_reserved":false,"is_disabled":false,"rental_uris":{"android":"levelo://app?vid=fa363868-2b68-49e5-9d7c-321c4df757e7","ios":"levelo://app?vid=fa363868-2b68-49e5-9d7c-321c4df757e7"},"vehicle_type_id":"4","last_reported":1768605079,"current_range_meters":3200,"station_id":"ce4bhn12rcd13ifvqgqg","pricing_plan_id":"cebpf4jnsgd1na2vs0mg"},{"bike_id":"15e31a2c-ce76-4a1b-a09d-65a5dffb389e","system_id":"levelo_inurba_marseille","lat":43.23725,"lon":5.40143,"is_reserved":false,"is_disabled":false,"rental_uris":{"android":"levelo://app?vid=15e31a2c-ce76-4a1b-a09d-65a5dffb389e","ios":"levelo://app?vid=15e31a2c-ce76-4a1b-a09d-65a5dffb389e"},"vehicle_type_id":"4","last_reported":1768605079,"current_range_meters":3200,"station_id":"","pricing_plan_id":"cebpf4jnsgd1na2vs0mg"},{"bike_id":"7c0ce82b-44b9-433f-a5d1-ea710559f5cc","system_id":"levelo_inurba_marseille","lat":43.309423,"lon":5.401411,"is_reserved":false,"is_disabled":false,"rental_uris":{"android":"levelo://app?vid=7c0ce82b-44b9-433f-a5d1-ea710559f5cc","ios":"levelo://app?vid=7c0ce82b-44b9-433f-a5d1-ea710559f5cc"},"vehicle_type_id":"4","last_reported":1768605079,"current_range_meters":3200,"station_id":"ce4bgvp2rcd13ifvqct0","pricing_plan_id":"cebpf4jnsgd1na2vs0mg"},{"bike_id":"69d47657-6b1a-4823-85a8-40be21f119ac","system_id":"levelo_inurba_marseille","lat":43.314443,"lon":5.424789,"is_reserved":false,"is_disabled":false,"rental_uris":{"android":"levelo://app?vid=69d47657-6b1a-4823-85a8-40be21f119ac","ios":"levelo://app?vid=69d47657-6b1a-4823-85a8-40be21f119ac"},"vehicle_type_id":"4","last_reported":1768605079,"current_range_meters":3200,"station_id":"","pricing_plan_id":"cebpf4jnsgd1na2vs0mg"},{"bike_id":"f546a598-b504-471e-9b6d-f4786269b128","system_id":"levelo_inurba_marseille","lat":43.25214,"lon":5.38071,"is_reserved":false,"is_disabled":false,"rental_uris":{"android":"levelo://app?vid=f546a598-b504-471e-9b6d-f4786269b128","ios":"levelo://app?vid=f546a598-b504-471e-9b6d-f4786269b128"},"vehicle_type_id":"4","last_reported":1768605079,"current_range_meters":3200,"station_id":"","pricing_plan_id":"cebpf4jnsgd1na2vs0mg"},{"bike_id":"73770b38-d8b9-4deb-b7bc-9b47ac9b68ca","system_id":"levelo_inurba_marseille","lat":43.2419,"lon":5.39713,"is_reserved":false,"is_disabled":false,"rental_uris":{"android":"levelo://app?vid=73770b38-d8b9-4deb-b7bc-9b47ac9b68ca","ios":"levelo://app?vid=73770b38-d8b9-4deb-b7bc-9b47ac9b68ca"},"vehicle_type_id":"4","last_reported":1768605079,"current_range_meters":3600,"station_id":"ce4bhn12rcd13ifvqgpg","pricing_plan_id":"cebpf4jnsgd1na2vs0mg"},{"bike_id":"5032b02a-9efc-499b-80c1-ff1804d0ec8d","system_id":"levelo_inurba_marseille","lat":43.24825,"lon":5.3746,"is_reserved":false,"is_disabled":false,"rental_uris":{"android":"levelo://app?vid=5032b02a-9efc-499b-80c1-ff1804d0ec8d","ios":"levelo://app?vid=5032b02a-9efc-499b-80c1-ff1804d0ec8d"},"vehicle_type_id":"4","last_reported":1768605079,"current_range_meters":3600,"station_id":"ce4bhgh2rcd13ifvqfb0","pricing_plan_id":"cebpf4jnsgd1na2vs0mg"},{"bike_id":"0aaffd21-6317-47b2-85da-6b9bfa421a46","system_id":"levelo_inurba_marseille","lat":43.29824,"lon":5.37664,"is_reserved":false,"is_disabled":false,"rental_uris":{"android":"levelo://app?vid=0aaffd21-6317-47b2-85da-6b9bfa421a46","ios":"levelo://app?vid=0aaffd21-6317-47b2-85da-6b9bfa421a46"},"vehicle_type_id":"4","last_reported":1768605079,"current_range_meters":3600,"station_id":"","pricing_plan_id":"cebpf4jnsgd1na2vs0mg"},{"bike_id":"cf001672-1b79-4be4-b38c-7c16a8075b4a","system_id":"levelo_inurba_marseille","lat":43.26194,"lon":5.37932,"is_reserved":false,"is_disabled":false,"rental_uris":{"android":"levelo://app?vid=cf001672-1b79-4be4-b38c-7c16a8075b4a","ios":"levelo://app?vid=cf001672-1b79-4be4-b38c-7c16a8075b4a"},"vehicle_type_id":"4","last_reported":1768605079,"current_range_meters":3600,"station_id":"ce4bhjp2rcd13ifvqg90","pricing_plan_id":"cebpf4jnsgd1na2vs0mg"},{"bike_id":"3b06d8ac-0c0e-4815-baae-3f6b7bfae72e","system_id":"levelo_inurba_marseille","lat":43.34158,"lon":5.36046,"is_reserved":false,"is_disabled":false,"rental_uris":{"android":"levelo://app?vid=3b06d8ac-0c0e-4815-baae-3f6b7bfae72e","ios":"levelo://app?vid=3b06d8ac-0c0e-4815-baae-3f6b7bfae72e"},"vehicle_type_id":"4","last_reported":1768605079,"current_range_meters":3600,"station_id":"","pricing_plan_id":"cebpf4jnsgd1na2vs0mg"},{"bike_id":"b20a8a85-b9a1-47ab-ad21-4f965b1ca351","system_id":"levelo_inurba_marseille","lat":43.24793,"lon":5.37466,"is_reserved":false,"is_disabled":false,"rental_uris":{"android":"levelo://app?vid=b20a8a85-b9a1-47ab-ad21-4f965b1ca351","ios":"levelo://app?vid=b20a8a85-b9a1-47ab-ad21-4f965b1ca351"},"vehicle_type_id":"4","last_reported":1768605079,"current_range_meters":3600,"station_id":"ce4bhgh2rcd13ifvqfb0","pricing_plan_id":"cebpf4jnsgd1na2vs0mg"},{"bike_id":"e7e36759-3791-4a7c-b0cc-9f6641b7d7f5","system_id":"levelo_inurba_marseille","lat":43.26795,"lon":5.39442,"is_reserved":false,"is_disabled":false,"rental_uris":{"android":"levelo://app?vid=e7e36759-3791-4a7c-b0cc-9f6641b7d7f5","ios":"levelo://app?vid=e7e36759-3791-4a7c-b0cc-9f6641b7d7f5"},"vehicle_type_id":"4","last_reported":1768605079,"current_range_meters":3600,"station_id":"ce4bhh12rcd13ifvqfg0","pricing_plan_id":"cebpf4jnsgd1na2vs0mg"},{"bike_id":"84a64c9c-ed4f-4996-9c9c-4015389b1dd3","system_id":"levelo_inurba_marseille","lat":43.33769,"lon":5.37415,"is_reserved":false,"is_disabled":false,"rental_uris":{"android":"levelo://app?vid=84a64c9c-ed4f-4996-9c9c-4015389b1dd3","ios":"levelo://app?vid=84a64c9c-ed4f-4996-9c9c-4015389b1dd3"},"vehicle_type_id":"4","last_reported":1768605079,"current_range_meters":3600,"station_id":"","pricing_plan_id":"cebpf4jnsgd1na2vs0mg"},{"bike_id":"e70abe95-579e-427d-9044-e606b2f1e69a","system_id":"levelo_inurba_marseille","lat":43.28543,"lon":5.44105,"is_reserved":false,"is_disabled":false,"rental_uris":{"android":"levelo://app?vid=e70abe95-579e-427d-9044-e606b2f1e69a","ios":"levelo://app?vid=e70abe95-579e-427d-9044-e606b2f1e69a"},"vehicle_type_id":"4","last_reported":1768605079,"current_range_meters":3600,"station_id":"st_d3j3df2ikq2c7380ej80","pricing_plan_id":"cebpf4jnsgd1na2vs0mg"},{"bike_id":"60b37a7e-41f2-4dc0-b378-bc55c0453b0c","system_id":"levelo_inurba_marseille","lat":43.301208,"lon":5.39855,"is_reserved":false,"is_disabled":false,"rental_uris":{"android":"levelo://app?vid=60b37a7e-41f2-4dc0-b378-bc55c0453b0c","ios":"levelo://app?vid=60b37a7e-41f2-4dc0-b378-bc55c0453b0c"},"vehicle_type_id":"4","last_reported":1768605079,"current_range_meters":3600,"station_id":"ce4bh0h2rcd13ifvqd40","pricing_plan_id":"cebpf4jnsgd1na2vs0mg"},{"bike_id":"7465de0c-3252-438c-a1d0-10a150ee4d72","system_id":"levelo_inurba_marseille","lat":43.22981,"lon":5.35411,"is_reserved":false,"is_disabled":false,"rental_uris":{"android":"levelo://app?vid=7465de0c-3252-438c-a1d0-10a150ee4d72","ios":"levelo://app?vid=7465de0c-3252-438c-a1d0-10a150ee4d72"},"vehicle_type_id":"4","last_reported":1768605079,"current_range_meters":3600,"station_id":"","pricing_plan_id":"cebpf4jnsgd1na2vs0mg"},{"bike_id":"9798252a-9361-46ce-9695-59458b1329bc","system_id":"levelo_inurba_marseille","lat":43.231927,"lon":5.35562,"is_reserved":false,"is_disabled":false,"rental_uris":{"android":"levelo://app?vid=9798252a-9361-46ce-9695-59458b1329bc","ios":"levelo://app?vid=9798252a-9361-46ce-9695-59458b1329bc"},"vehicle_type_id":"4","last_reported":1768605079,"current_range_meters":4000,"station_id":"ce4bhu92rcd13ifvqi70","pricing_plan_id":"cebpf4jnsgd1na2vs0mg"},{"bike_id":"23b6f6e8-92d5-47cd-8cd0-4c3a7fe75221","system_id":"levelo_inurba_marseille","lat":43.31323,"lon":5.39695,"is_reserved":false,"is_disabled":false,"rental_uris":{"android":"levelo://app?vid=23b6f6e8-92d5-47cd-8cd0-4c3a7fe75221","ios":"levelo://app?vid=23b6f6e8-92d5-47cd-8cd0-4c3a7fe75221"},"vehicle_type_id":"4","last_reported":1768605079,"current_range_meters":4000,"station_id":"ce4bgvp2rcd13ifvqcu0","pricing_plan_id":"cebpf4jnsgd1na2vs0mg"},{"bike_id":"8875f8cc-07a8-40ca-92de-9f4ce77fad56","system_id":"levelo_inurba_marseille","lat":43.28447,"lon":5.38655,"is_reserved":false,"is_disabled":false,"rental_uris":{"android":"levelo://app?vid=8875f8cc-07a8-40ca-92de-9f4ce77fad56","ios":"levelo://app?vid=8875f8cc-07a8-40ca-92de-9f4ce77fad56"},"vehicle_type_id":"4","last_reported":1768605079,"current_range_meters":4000,"station_id":"","pricing_plan_id":"cebpf4jnsgd1na2vs0mg"},{"bike_id":"48aeaab0-6b80-4b7a-a472-f0414a5d3089","system_id":"levelo_inurba_marseille","lat":43.29779,"lon":5.37082,"is_reserved":false,"is_disabled":false,"rental_uris":{"android":"levelo://app?vid=48aeaab0-6b80-4b7a-a472-f0414a5d3089","ios":"levelo://app?vid=48aeaab0-6b80-4b7a-a472-f0414a5d3089"},"vehicle_type_id":"4","last_reported":1768605079,"current_range_meters":4000,"station_id":"ce4bgop2rcd13ifvqc1g","pricing_plan_id":"cebpf4jnsgd1na2vs0mg"},{"bike_id":"46736d86-e8f6-41e3-b544-9a35dd02ada6","system_id":"levelo_inurba_marseille","lat":43.2448,"lon":5.42544,"is_reserved":false,"is_disabled":false,"rental_uris":{"android":"levelo://app?vid=46736d86-e8f6-41e3-b544-9a35dd02ada6","ios":"levelo://app?vid=46736d86-e8f6-41e3-b544-9a35dd02ada6"},"vehicle_type_id":"4","last_reported":1768605079,"current_range_meters":4000,"station_id":"st_d4a3vfp97mjs738cd8kg","pricing_plan_id":"cebpf4jnsgd1na2vs0mg"},{"bike_id":"9d832a2a-7a42-442e-965f-28ca5ac6fded","system_id":"levelo_inurba_marseille","lat":43.28311,"lon":5.3897,"is_reserved":false,"is_disabled":false,"rental_uris":{"android":"levelo://app?vid=9d832a2a-7a42-442e-965f-28ca5ac6fded","ios":"levelo://app?vid=9d832a2a-7a42-442e-965f-28ca5ac6fded"},"vehicle_type_id":"4","last_reported":1768605079,"current_range_meters":4000,"station_id":"","pricing_plan_id":"cebpf4jnsgd1na2vs0mg"},{"bike_id":"9f0ca942-43cc-4c26-b45d-b02a363371a5","system_id":"levelo_inurba_marseille","lat":43.27799,"lon":5.40724,"is_reserved":false,"is_disabled":false,"rental_uris":{"android":"levelo://app?vid=9f0ca942-43cc-4c26-b45d-b02a363371a5","ios":"levelo://app?vid=9f0ca942-43cc-4c26-b45d-b02a363371a5"},"vehicle_type_id":"4","last_reported":1768605079,"current_range_meters":4000,"station_id":"ce4bhnh2rcd13ifvqgtg","pricing_plan_id":"cebpf4jnsgd1na2vs0mg"},{"bike_id":"63d34faa-dd24-4aa0-8994-4609066769ea","system_id":"levelo_inurba_marseille","lat":43.295299,"lon":5.385632,"is_reserved":false,"is_disabled":false,"rental_uris":{"android":"levelo://app?vid=63d34faa-dd24-4aa0-8994-4609066769ea","ios":"levelo://app?vid=63d34faa-dd24-4aa0-8994-4609066769ea"},"vehicle_type_id":"4","last_reported":1768605079,"current_range_meters":4000,"station_id":"ce4bh012rcd13ifvqcv0","pricing_plan_id":"cebpf4jnsgd1na2vs0mg"},{"bike_id":"9dd51bac-d02c-4ac5-a1b5-ad3fa06f41c3","system_id":"levelo_inurba_marseille","lat":43.25578,"lon":5.3824,"is_reserved":false,"is_disabled":false,"rental_uris":{"android":"levelo://app?vid=9dd51bac-d02c-4ac5-a1b5-ad3fa06f41c3","ios":"levelo://app?vid=9dd51bac-d02c-4ac5-a1b5-ad3fa06f41c3"},"vehicle_type_id":"4","last_reported":1768605079,"current_range_meters":4000,"station_id":"ce4bhih2rcd13ifvqfs0","pricing_plan_id":"cebpf4jnsgd1na2vs0mg"},{"bike_id":"8782c85b-4cd2-4d16-816f-ea9c0e380452","system_id":"levelo_inurba_marseille","lat":43.2808,"lon":5.4046,"is_reserved":false,"is_disabled":false,"rental_uris":{"android":"levelo://app?vid=8782c85b-4cd2-4d16-816f-ea9c0e380452","ios":"levelo://app?vid=8782c85b-4cd2-4d16-816f-ea9c0e380452"},"vehicle_type_id":"4","last_reported":1768605079,"current_range_meters":4000,"station_id":"","pricing_plan_id":"cebpf4jnsgd1na2vs0mg"},{"bike_id":"627e5e4e-322b-49e8-be53-e7b0ef4c2eda","system_id":"levelo_inurba_marseille","lat":43.25576,"lon":5.38244,"is_reserved":false,"is_disabled":false,"rental_uris":{"android":"levelo://app?vid=627e5e4e-322b-49e8-be53-e7b0ef4c2eda","ios":"levelo://app?vid=627e5e4e-322b-49e8-be53-e7b0ef4c2eda"},"vehicle_type_id":"4","last_reported":1768605079,"current_range_meters":4400,"station_id":"ce4bhih2rcd13ifvqfs0","pricing_plan_id":"cebpf4jnsgd1na2vs0mg"},{"bike_id":"b62e2e4f-8d17-40db-9aeb-d34b261b865e","system_id":"levelo_inurba_marseille","lat":43.23195,"lon":5.35555,"is_reserved":false,"is_disabled":false,"rental_uris":{"android":"levelo://app?vid=b62e2e4f-8d17-40db-9aeb-d34b261b865e","ios":"levelo://app?vid=b62e2e4f-8d17-40db-9aeb-d34b261b865e"},"vehicle_type_id":"4","last_reported":1768605079,"current_range_meters":4400,"station_id":"ce4bhu92rcd13ifvqi70","pricing_plan_id":"cebpf4jnsgd1na2vs0mg"},{"bike_id":"174ec315-1070-4d7f-8752-355ade0349a2","system_id":"levelo_inurba_marseille","lat":43.2612,"lon":5.38747,"is_reserved":false,"is_disabled":false,"rental_uris":{"android":"levelo://app?vid=174ec315-1070-4d7f-8752-355ade0349a2","ios":"levelo://app?vid=174ec315-1070-4d7f-8752-355ade0349a2"},"vehicle_type_id":"4","last_reported":1768605079,"current_range_meters":4400,"station_id":"","pricing_plan_id":"cebpf4jnsgd1na2vs0mg"},{"bike_id":"f191a895-45cb-4165-8018-22acf884946c","system_id":"levelo_inurba_marseille","lat":43.31301,"lon":5.40196,"is_reserved":false,"is_disabled":false,"rental_uris":{"android":"levelo://app?vid=f191a895-45cb-4165-8018-22acf884946c","ios":"levelo://app?vid=f191a895-45cb-4165-8018-22acf884946c"},"vehicle_type_id":"4","last_reported":1768605079,"current_range_meters":4400,"station_id":"ce4bh092rcd13ifvqd30","pricing_plan_id":"cebpf4jnsgd1na2vs0mg"},{"bike_id":"5ef95128-9e87-4e01-b9ca-a3ed3162f6d1","system_id":"levelo_inurba_marseille","lat":43.27056,"lon":5.40301,"is_reserved":false,"is_disabled":false,"rental_uris":{"android":"levelo://app?vid=5ef95128-9e87-4e01-b9ca-a3ed3162f6d1","ios":"levelo://app?vid=5ef95128-9e87-4e01-b9ca-a3ed3162f6d1"},"vehicle_type_id":"4","last_reported":1768605079,"current_range_meters":4400,"station_id":"ce4bhk92rcd13ifvqgc0","pricing_plan_id":"cebpf4jnsgd1na2vs0mg"},{"bike_id":"8196675e-1758-4be8-aa6e-9a780663d26d","system_id":"levelo_inurba_marseille","lat":43.32344,"lon":5.36721,"is_reserved":false,"is_disabled":false,"rental_uris":{"android":"levelo://app?vid=8196675e-1758-4be8-aa6e-9a780663d26d","ios":"levelo://app?vid=8196675e-1758-4be8-aa6e-9a780663d26d"},"vehicle_type_id":"4","last_reported":1768605079,"current_range_meters":4400,"station_id":"ce4bhsh2rcd13ifvqi2g","pricing_plan_id":"cebpf4jnsgd1na2vs0mg"},{"bike_id":"dcba5e0d-8e79-44d0-8827-5e7dfb547664","system_id":"levelo_inurba_marseille","lat":43.28533,"lon":5.44107,"is_reserved":false,"is_disabled":false,"rental_uris":{"android":"levelo://app?vid=dcba5e0d-8e79-44d0-8827-5e7dfb547664","ios":"levelo://app?vid=dcba5e0d-8e79-44d0-8827-5e7dfb547664"},"vehicle_type_id":"4","last_reported":1768605079,"current_range_meters":4400,"station_id":"st_d3j3df2ikq2c7380ej80","pricing_plan_id":"cebpf4jnsgd1na2vs0mg"},{"bike_id":"f8be3f31-7ad2-418e-9347-d8ac1717ae50","system_id":"levelo_inurba_marseille","lat":43.29477,"lon":5.40905,"is_reserved":false,"is_disabled":false,"rental_uris":{"android":"levelo://app?vid=f8be3f31-7ad2-418e-9347-d8ac1717ae50","ios":"levelo://app?vid=f8be3f31-7ad2-418e-9347-d8ac1717ae50"},"vehicle_type_id":"4","last_reported":1768605079,"current_range_meters":4400,"station_id":"","pricing_plan_id":"cebpf4jnsgd1na2vs0mg"},{"bike_id":"5b67b7ca-23e2-48bf-a3e9-d8a6d4efa8a8","system_id":"levelo_inurba_marseille","lat":43.275873,"lon":5.36084,"is_reserved":false,"is_disabled":false,"rental_uris":{"android":"levelo://app?vid=5b67b7ca-23e2-48bf-a3e9-d8a6d4efa8a8","ios":"levelo://app?vid=5b67b7ca-23e2-48bf-a3e9-d8a6d4efa8a8"},"vehicle_type_id":"4","last_reported":1768605079,"current_range_meters":4400,"station_id":"","pricing_plan_id":"cebpf4jnsgd1na2vs0mg"},{"bike_id":"843f91d3-3497-4c4b-8a26-d0f129a5f82d","system_id":"levelo_inurba_marseille","lat":43.24171,"lon":5.36394,"is_reserved":false,"is_disabled":false,"rental_uris":{"android":"levelo://app?vid=843f91d3-3497-4c4b-8a26-d0f129a5f82d","ios":"levelo://app?vid=843f91d3-3497-4c4b-8a26-d0f129a5f82d"},"vehicle_type_id":"4","last_reported":1768605079,"current_range_meters":4400,"station_id":"cpo36qri1sfpv3e86is0","pricing_plan_id":"cebpf4jnsgd1na2vs0mg"},{"bike_id":"6222ace4-995f-4c17-a9a4-6fe48e26a96d","system_id":"levelo_inurba_marseille","lat":43.282609,"lon":5.350658,"is_reserved":false,"is_disabled":false,"rental_uris":{"android":"levelo://app?vid=6222ace4-995f-4c17-a9a4-6fe48e26a96d","ios":"levelo://app?vid=6222ace4-995f-4c17-a9a4-6fe48e26a96d"},"vehicle_type_id":"4","last_reported":1768605079,"current_range_meters":4400,"station_id":"ce4bhbp2rcd13ifvqerg","pricing_plan_id":"cebpf4jnsgd1na2vs0mg"},{"bike_id":"6abf8a46-f540-4848-8617-65edd2aabe92","system_id":"levelo_inurba_marseille","lat":43.31696,"lon":5.39755,"is_reserved":false,"is_disabled":false,"rental_uris":{"android":"levelo://app?vid=6abf8a46-f540-4848-8617-65edd2aabe92","ios":"levelo://app?vid=6abf8a46-f540-4848-8617-65edd2aabe92"},"vehicle_type_id":"4","last_reported":1768605079,"current_range_meters":4400,"station_id":"","pricing_plan_id":"cebpf4jnsgd1na2vs0mg"},{"bike_id":"2e2933c7-df0b-4642-926f-bb95164b7899","system_id":"levelo_inurba_marseille","lat":43.29264,"lon":5.38448,"is_reserved":false,"is_disabled":false,"rental_uris":{"android":"levelo://app?vid=2e2933c7-df0b-4642-926f-bb95164b7899","ios":"levelo://app?vid=2e2933c7-df0b-4642-926f-bb95164b7899"},"vehicle_type_id":"4","last_reported":1768605079,"current_range_meters":4400,"station_id":"ce4bh692rcd13ifvqea0","pricing_plan_id":"cebpf4jnsgd1na2vs0mg"},{"bike_id":"410955ac-137d-462c-a4c6-8f0aa8211054","system_id":"levelo_inurba_marseille","lat":43.24979,"lon":5.40518,"is_reserved":false,"is_disabled":false,"rental_uris":{"android":"levelo://app?vid=410955ac-137d-462c-a4c6-8f0aa8211054","ios":"levelo://app?vid=410955ac-137d-462c-a4c6-8f0aa8211054"},"vehicle_type_id":"4","last_reported":1768605079,"current_range_meters":4400,"station_id":"st_d2ngiaodas8pm72gd1h0","pricing_plan_id":"cebpf4jnsgd1na2vs0mg"},{"bike_id":"22e9729b-8265-4d53-a3e7-9ed14476c2dd","system_id":"levelo_inurba_marseille","lat":43.28925,"lon":5.38419,"is_reserved":false,"is_disabled":false,"rental_uris":{"android":"levelo://app?vid=22e9729b-8265-4d53-a3e7-9ed14476c2dd","ios":"levelo://app?vid=22e9729b-8265-4d53-a3e7-9ed14476c2dd"},"vehicle_type_id":"4","last_reported":1768605079,"current_range_meters":4800,"station_id":"ce4bh612rcd13ifvqe6g","pricing_plan_id":"cebpf4jnsgd1na2vs0mg"},{"bike_id":"8dabfb07-f16c-48a0-80c2-741fff8b43ab","system_id":"levelo_inurba_marseille","lat":43.265282,"lon":5.395274,"is_reserved":false,"is_disabled":false,"rental_uris":{"android":"levelo://app?vid=8dabfb07-f16c-48a0-80c2-741fff8b43ab","ios":"levelo://app?vid=8dabfb07-f16c-48a0-80c2-741fff8b43ab"},"vehicle_type_id":"4","last_reported":1768605079,"current_range_meters":4800,"station_id":"ce4bhi12rcd13ifvqfq0","pricing_plan_id":"cebpf4jnsgd1na2vs0mg"},{"bike_id":"d94a50ab-7e53-4a7a-8de9-dee56332b030","system_id":"levelo_inurba_marseille","lat":43.309482,"lon":5.390199,"is_reserved":false,"is_disabled":false,"rental_uris":{"android":"levelo://app?vid=d94a50ab-7e53-4a7a-8de9-dee56332b030","ios":"levelo://app?vid=d94a50ab-7e53-4a7a-8de9-dee56332b030"},"vehicle_type_id":"4","last_reported":1768605079,"current_range_meters":4800,"station_id":"ce4bgup2rcd13ifvqco0","pricing_plan_id":"cebpf4jnsgd1na2vs0mg"},{"bike_id":"89d9cd06-54be-44ac-b8c9-f576dccb8768","system_id":"levelo_inurba_marseille","lat":43.25041,"lon":5.38961,"is_reserved":false,"is_disabled":false,"rental_uris":{"android":"levelo://app?vid=89d9cd06-54be-44ac-b8c9-f576dccb8768","ios":"levelo://app?vid=89d9cd06-54be-44ac-b8c9-f576dccb8768"},"vehicle_type_id":"4","last_reported":1768605079,"current_range_meters":4800,"station_id":"","pricing_plan_id":"cebpf4jnsgd1na2vs0mg"},{"bike_id":"7116021d-a461-479f-9211-bcfd064121f8","system_id":"levelo_inurba_marseille","lat":43.337444,"lon":5.374475,"is_reserved":false,"is_disabled":false,"rental_uris":{"android":"levelo://app?vid=7116021d-a461-479f-9211-bcfd064121f8","ios":"levelo://app?vid=7116021d-a461-479f-9211-bcfd064121f8"},"vehicle_type_id":"4","last_reported":1768605079,"current_range_meters":4800,"station_id":"","pricing_plan_id":"cebpf4jnsgd1na2vs0mg"},{"bike_id":"ce992634-4a5e-4e14-b037-7538ab2e7c6b","system_id":"levelo_inurba_marseille","lat":43.27824,"lon":5.39212,"is_reserved":false,"is_disabled":false,"rental_uris":{"android":"levelo://app?vid=ce992634-4a5e-4e14-b037-7538ab2e7c6b","ios":"levelo://app?vid=ce992634-4a5e-4e14-b037-7538ab2e7c6b"},"vehicle_type_id":"4","last_reported":1768605079,"current_range_meters":4800,"station_id":"ce4bhjp2rcd13ifvqga0","pricing_plan_id":"cebpf4jnsgd1na2vs0mg"},{"bike_id":"3df4dfb2-a283-4c16-94bd-e45fe1d34f73","system_id":"levelo_inurba_marseille","lat":43.27924,"lon":5.39574,"is_reserved":false,"is_disabled":false,"rental_uris":{"android":"levelo://app?vid=3df4dfb2-a283-4c16-94bd-e45fe1d34f73","ios":"levelo://app?vid=3df4dfb2-a283-4c16-94bd-e45fe1d34f73"},"vehicle_type_id":"4","last_reported":1768605079,"current_range_meters":4800,"station_id":"ce4bhf92rcd13ifvqf40","pricing_plan_id":"cebpf4jnsgd1na2vs0mg"},{"bike_id":"d0577f9e-12fb-4c7c-8d52-9d553fa867c3","system_id":"levelo_inurba_marseille","lat":43.28951,"lon":5.38406,"is_reserved":false,"is_disabled":false,"rental_uris":{"android":"levelo://app?vid=d0577f9e-12fb-4c7c-8d52-9d553fa867c3","ios":"levelo://app?vid=d0577f9e-12fb-4c7c-8d52-9d553fa867c3"},"vehicle_type_id":"4","last_reported":1768605079,"current_range_meters":4800,"station_id":"ce4bh612rcd13ifvqe6g","pricing_plan_id":"cebpf4jnsgd1na2vs0mg"},{"bike_id":"e3b93533-7b73-4615-b5d8-dfc893f97059","system_id":"levelo_inurba_marseille","lat":43.30583,"lon":5.39351,"is_reserved":false,"is_disabled":false,"rental_uris":{"android":"levelo://app?vid=e3b93533-7b73-4615-b5d8-dfc893f97059","ios":"levelo://app?vid=e3b93533-7b73-4615-b5d8-dfc893f97059"},"vehicle_type_id":"4","last_reported":1768605079,"current_range_meters":4800,"station_id":"ce4bh0p2rcd13ifvqd80","pricing_plan_id":"cebpf4jnsgd1na2vs0mg"},{"bike_id":"726854d4-253b-4395-b0b7-0066d3df6931","system_id":"levelo_inurba_marseille","lat":43.26561,"lon":5.40319,"is_reserved":false,"is_disabled":false,"rental_uris":{"android":"levelo://app?vid=726854d4-253b-4395-b0b7-0066d3df6931","ios":"levelo://app?vid=726854d4-253b-4395-b0b7-0066d3df6931"},"vehicle_type_id":"4","last_reported":1768605079,"current_range_meters":4800,"station_id":"ce4bhmp2rcd13ifvqgng","pricing_plan_id":"cebpf4jnsgd1na2vs0mg"},{"bike_id":"7e05b0ba-9932-4ce4-8295-d89dc022a814","system_id":"levelo_inurba_marseille","lat":43.304056,"lon":5.412862,"is_reserved":false,"is_disabled":false,"rental_uris":{"android":"levelo://app?vid=7e05b0ba-9932-4ce4-8295-d89dc022a814","ios":"levelo://app?vid=7e05b0ba-9932-4ce4-8295-d89dc022a814"},"vehicle_type_id":"4","last_reported":1768605079,"current_range_meters":4800,"station_id":"ce4bhop2rcd13ifvqh8g","pricing_plan_id":"cebpf4jnsgd1na2vs0mg"},{"bike_id":"c6b7d41c-17d5-4d4d-98f7-04f5d62108df","system_id":"levelo_inurba_marseille","lat":43.22566,"lon":5.41622,"is_reserved":false,"is_disabled":false,"rental_uris":{"android":"levelo://app?vid=c6b7d41c-17d5-4d4d-98f7-04f5d62108df","ios":"levelo://app?vid=c6b7d41c-17d5-4d4d-98f7-04f5d62108df"},"vehicle_type_id":"4","last_reported":1768605079,"current_range_meters":4800,"station_id":"st_d2o4gvlbi1j2169b742g","pricing_plan_id":"cebpf4jnsgd1na2vs0mg"},{"bike_id":"089c22d1-62e9-4a52-bfe1-8ddd728b4101","system_id":"levelo_inurba_marseille","lat":43.25359,"lon":5.42194,"is_reserved":false,"is_disabled":false,"rental_uris":{"android":"levelo://app?vid=089c22d1-62e9-4a52-bfe1-8ddd728b4101","ios":"levelo://app?vid=089c22d1-62e9-4a52-bfe1-8ddd728b4101"},"vehicle_type_id":"4","last_reported":1768605079,"current_range_meters":4800,"station_id":"st_d2m65c5bi1j21697t3ng","pricing_plan_id":"cebpf4jnsgd1na2vs0mg"},{"bike_id":"beaae619-a4ac-4aa6-b171-20d72d73eed8","system_id":"levelo_inurba_marseille","lat":43.32335,"lon":5.36702,"is_reserved":false,"is_disabled":false,"rental_uris":{"android":"levelo://app?vid=beaae619-a4ac-4aa6-b171-20d72d73eed8","ios":"levelo://app?vid=beaae619-a4ac-4aa6-b171-20d72d73eed8"},"vehicle_type_id":"4","last_reported":1768605079,"current_range_meters":4800,"station_id":"","pricing_plan_id":"cebpf4jnsgd1na2vs0mg"},{"bike_id":"ee672d40-ee79-42d9-af0c-79cb82e61958","system_id":"levelo_inurba_marseille","lat":43.28559,"lon":5.44114,"is_reserved":false,"is_disabled":false,"rental_uris":{"android":"levelo://app?vid=ee672d40-ee79-42d9-af0c-79cb82e61958","ios":"levelo://app?vid=ee672d40-ee79-42d9-af0c-79cb82e61958"},"vehicle_type_id":"4","last_reported":1768605079,"current_range_meters":4800,"station_id":"st_d3j3df2ikq2c7380ej80","pricing_plan_id":"cebpf4jnsgd1na2vs0mg"},{"bike_id":"dc97589e-ab9a-4722-86d5-8e19855237ea","system_id":"levelo_inurba_marseille","lat":43.29954,"lon":5.36546,"is_reserved":false,"is_disabled":false,"rental_uris":{"android":"levelo://app?vid=dc97589e-ab9a-4722-86d5-8e19855237ea","ios":"levelo://app?vid=dc97589e-ab9a-4722-86d5-8e19855237ea"},"vehicle_type_id":"4","last_reported":1768605079,"current_range_meters":4800,"station_id":"ce4bgm92rcd13ifvqbr0","pricing_plan_id":"cebpf4jnsgd1na2vs0mg"},{"bike_id":"d33a7735-eeb9-4115-8902-17f626cd1584","system_id":"levelo_inurba_marseille","lat":43.3013,"lon":5.3994,"is_reserved":false,"is_disabled":false,"rental_uris":{"android":"levelo://app?vid=d33a7735-eeb9-4115-8902-17f626cd1584","ios":"levelo://app?vid=d33a7735-eeb9-4115-8902-17f626cd1584"},"vehicle_type_id":"4","last_reported":1768605079,"current_range_meters":4800,"station_id":"","pricing_plan_id":"cebpf4jnsgd1na2vs0mg"},{"bike_id":"6392d4ba-52a7-4ff6-bed3-714717b5ab52","system_id":"levelo_inurba_marseille","lat":43.22546,"lon":5.41646,"is_reserved":false,"is_disabled":false,"rental_uris":{"android":"levelo://app?vid=6392d4ba-52a7-4ff6-bed3-714717b5ab52","ios":"levelo://app?vid=6392d4ba-52a7-4ff6-bed3-714717b5ab52"},"vehicle_type_id":"4","last_reported":1768605079,"current_range_meters":4800,"station_id":"st_d2o4gvlbi1j2169b742g","pricing_plan_id":"cebpf4jnsgd1na2vs0mg"},{"bike_id":"62afe525-9579-41bb-b844-87fde0b30797","system_id":"levelo_inurba_marseille","lat":43.31067,"lon":5.38356,"is_reserved":false,"is_disabled":false,"rental_uris":{"android":"levelo://app?vid=62afe525-9579-41bb-b844-87fde0b30797","ios":"levelo://app?vid=62afe525-9579-41bb-b844-87fde0b30797"},"vehicle_type_id":"4","last_reported":1768605079,"current_range_meters":4800,"station_id":"ce4bgv92rcd13ifvqcr0","pricing_plan_id":"cebpf4jnsgd1na2vs0mg"},{"bike_id":"6c692c2a-4d29-4de9-a7fd-87703f6a37a2","system_id":"levelo_inurba_marseille","lat":43.24483,"lon":5.42536,"is_reserved":false,"is_disabled":false,"rental_uris":{"android":"levelo://app?vid=6c692c2a-4d29-4de9-a7fd-87703f6a37a2","ios":"levelo://app?vid=6c692c2a-4d29-4de9-a7fd-87703f6a37a2"},"vehicle_type_id":"4","last_reported":1768605079,"current_range_meters":5600,"station_id":"st_d4a3vfp97mjs738cd8kg","pricing_plan_id":"cebpf4jnsgd1na2vs0mg"},{"bike_id":"9dd4cee1-6e9f-4b21-8c2a-6186c33cbfd1","system_id":"levelo_inurba_marseille","lat":43.32757,"lon":5.39249,"is_reserved":false,"is_disabled":false,"rental_uris":{"android":"levelo://app?vid=9dd4cee1-6e9f-4b21-8c2a-6186c33cbfd1","ios":"levelo://app?vid=9dd4cee1-6e9f-4b21-8c2a-6186c33cbfd1"},"vehicle_type_id":"4","last_reported":1768605079,"current_range_meters":5600,"station_id":"","pricing_plan_id":"cebpf4jnsgd1na2vs0mg"},{"bike_id":"0967e074-c864-4ede-814f-7861d601bf0e","system_id":"levelo_inurba_marseille","lat":43.313643,"lon":5.367042,"is_reserved":false,"is_disabled":false,"rental_uris":{"android":"levelo://app?vid=0967e074-c864-4ede-814f-7861d601bf0e","ios":"levelo://app?vid=0967e074-c864-4ede-814f-7861d601bf0e"},"vehicle_type_id":"4","last_reported":1768605079,"current_range_meters":5600,"station_id":"ce4bgr92rcd13ifvqc6g","pricing_plan_id":"cebpf4jnsgd1na2vs0mg"},{"bike_id":"2dcdbfd5-ea9c-48f0-a358-3c3a1e18e731","system_id":"levelo_inurba_marseille","lat":43.27995,"lon":5.40022,"is_reserved":false,"is_disabled":false,"rental_uris":{"android":"levelo://app?vid=2dcdbfd5-ea9c-48f0-a358-3c3a1e18e731","ios":"levelo://app?vid=2dcdbfd5-ea9c-48f0-a358-3c3a1e18e731"},"vehicle_type_id":"4","last_reported":1768605079,"current_range_meters":5600,"station_id":"ce4bho92rcd13ifvqh4g","pricing_plan_id":"cebpf4jnsgd1na2vs0mg"},{"bike_id":"7bff1363-c4fa-4ec9-8501-d87b2c3b54d0","system_id":"levelo_inurba_marseille","lat":43.25003,"lon":5.38951,"is_reserved":false,"is_disabled":false,"rental_uris":{"android":"levelo://app?vid=7bff1363-c4fa-4ec9-8501-d87b2c3b54d0","ios":"levelo://app?vid=7bff1363-c4fa-4ec9-8501-d87b2c3b54d0"},"vehicle_type_id":"4","last_reported":1768605079,"current_range_meters":5600,"station_id":"ce4bhgp2rcd13ifvqfd0","pricing_plan_id":"cebpf4jnsgd1na2vs0mg"},{"bike_id":"a16f2574-f618-4db9-9091-7df1c4ba3a8c","system_id":"levelo_inurba_marseille","lat":43.29256,"lon":5.40906,"is_reserved":false,"is_disabled":false,"rental_uris":{"android":"levelo://app?vid=a16f2574-f618-4db9-9091-7df1c4ba3a8c","ios":"levelo://app?vid=a16f2574-f618-4db9-9091-7df1c4ba3a8c"},"vehicle_type_id":"4","last_reported":1768605079,"current_range_meters":5600,"station_id":"ce4bh192rcd13ifvqdc0","pricing_plan_id":"cebpf4jnsgd1na2vs0mg"},{"bike_id":"82b87168-267f-432c-a609-70f7b40ac901","system_id":"levelo_inurba_marseille","lat":43.27726,"lon":5.40776,"is_reserved":false,"is_disabled":false,"rental_uris":{"android":"levelo://app?vid=82b87168-267f-432c-a609-70f7b40ac901","ios":"levelo://app?vid=82b87168-267f-432c-a609-70f7b40ac901"},"vehicle_type_id":"4","last_reported":1768605079,"current_range_meters":5600,"station_id":"","pricing_plan_id":"cebpf4jnsgd1na2vs0mg"},{"bike_id":"87b41ccf-9e46-44ee-9e4a-b0913909d881","system_id":"levelo_inurba_marseille","lat":43.29731,"lon":5.42765,"is_reserved":false,"is_disabled":false,"rental_uris":{"android":"levelo://app?vid=87b41ccf-9e46-44ee-9e4a-b0913909d881","ios":"levelo://app?vid=87b41ccf-9e46-44ee-9e4a-b0913909d881"},"vehicle_type_id":"4","last_reported":1768605079,"current_range_meters":5600,"station_id":"st_d3md5207bmas73dh9klg","pricing_plan_id":"cebpf4jnsgd1na2vs0mg"},{"bike_id":"532b9321-adf3-4dd6-91b9-760d90dcb033","system_id":"levelo_inurba_marseille","lat":43.31081,"lon":5.42434,"is_reserved":false,"is_disabled":false,"rental_uris":{"android":"levelo://app?vid=532b9321-adf3-4dd6-91b9-760d90dcb033","ios":"levelo://app?vid=532b9321-adf3-4dd6-91b9-760d90dcb033"},"vehicle_type_id":"4","last_reported":1768605079,"current_range_meters":5600,"station_id":"ce4bhp92rcd13ifvqhag","pricing_plan_id":"cebpf4jnsgd1na2vs0mg"},{"bike_id":"a5d8e417-14ae-4842-adea-df33abdc7884","system_id":"levelo_inurba_marseille","lat":43.29306,"lon":5.37181,"is_reserved":false,"is_disabled":false,"rental_uris":{"android":"levelo://app?vid=a5d8e417-14ae-4842-adea-df33abdc7884","ios":"levelo://app?vid=a5d8e417-14ae-4842-adea-df33abdc7884"},"vehicle_type_id":"4","last_reported":1768605079,"current_range_meters":5600,"station_id":"ce4bgh92rcd13ifvqb40","pricing_plan_id":"cebpf4jnsgd1na2vs0mg"},{"bike_id":"a1ce7ca3-56c7-402e-a0a5-8c554fdda857","system_id":"levelo_inurba_marseille","lat":43.29839,"lon":5.37585,"is_reserved":false,"is_disabled":false,"rental_uris":{"android":"levelo://app?vid=a1ce7ca3-56c7-402e-a0a5-8c554fdda857","ios":"levelo://app?vid=a1ce7ca3-56c7-402e-a0a5-8c554fdda857"},"vehicle_type_id":"4","last_reported":1768605079,"current_range_meters":5600,"station_id":"","pricing_plan_id":"cebpf4jnsgd1na2vs0mg"},{"bike_id":"23ec3a98-26a5-4b81-8fe6-bd629f0771f5","system_id":"levelo_inurba_marseille","lat":43.28127,"lon":5.3888,"is_reserved":false,"is_disabled":false,"rental_uris":{"android":"levelo://app?vid=23ec3a98-26a5-4b81-8fe6-bd629f0771f5","ios":"levelo://app?vid=23ec3a98-26a5-4b81-8fe6-bd629f0771f5"},"vehicle_type_id":"4","last_reported":1768605079,"current_range_meters":5600,"station_id":"","pricing_plan_id":"cebpf4jnsgd1na2vs0mg"},{"bike_id":"ff4d0607-6ff1-415f-9ead-9ef2deaa935c","system_id":"levelo_inurba_marseille","lat":43.30183,"lon":5.39895,"is_reserved":false,"is_disabled":false,"rental_uris":{"android":"levelo://app?vid=ff4d0607-6ff1-415f-9ead-9ef2deaa935c","ios":"levelo://app?vid=ff4d0607-6ff1-415f-9ead-9ef2deaa935c"},"vehicle_type_id":"4","last_reported":1768605079,"current_range_meters":5600,"station_id":"","pricing_plan_id":"cebpf4jnsgd1na2vs0mg"},{"bike_id":"0105de79-43a8-4de9-af65-6d3d110a6400","system_id":"levelo_inurba_marseille","lat":43.24174,"lon":5.39737,"is_reserved":false,"is_disabled":false,"rental_uris":{"android":"levelo://app?vid=0105de79-43a8-4de9-af65-6d3d110a6400","ios":"levelo://app?vid=0105de79-43a8-4de9-af65-6d3d110a6400"},"vehicle_type_id":"4","last_reported":1768605079,"current_range_meters":6000,"station_id":"ce4bhn12rcd13ifvqgpg","pricing_plan_id":"cebpf4jnsgd1na2vs0mg"},{"bike_id":"bce7016a-598e-4954-b898-4fea8863ec74","system_id":"levelo_inurba_marseille","lat":43.29497,"lon":5.37419,"is_reserved":false,"is_disabled":false,"rental_uris":{"android":"levelo://app?vid=bce7016a-598e-4954-b898-4fea8863ec74","ios":"levelo://app?vid=bce7016a-598e-4954-b898-4fea8863ec74"},"vehicle_type_id":"4","last_reported":1768605079,"current_range_meters":6000,"station_id":"","pricing_plan_id":"cebpf4jnsgd1na2vs0mg"},{"bike_id":"2a49273c-b35f-40af-9991-87544c417eaf","system_id":"levelo_inurba_marseille","lat":43.31658,"lon":5.36405,"is_reserved":false,"is_disabled":false,"rental_uris":{"android":"levelo://app?vid=2a49273c-b35f-40af-9991-87544c417eaf","ios":"levelo://app?vid=2a49273c-b35f-40af-9991-87544c417eaf"},"vehicle_type_id":"4","last_reported":1768605079,"current_range_meters":6000,"station_id":"","pricing_plan_id":"cebpf4jnsgd1na2vs0mg"},{"bike_id":"aa814fee-06d4-4347-8777-4a0300e0ba3a","system_id":"levelo_inurba_marseille","lat":43.30868,"lon":5.37199,"is_reserved":false,"is_disabled":false,"rental_uris":{"android":"levelo://app?vid=aa814fee-06d4-4347-8777-4a0300e0ba3a","ios":"levelo://app?vid=aa814fee-06d4-4347-8777-4a0300e0ba3a"},"vehicle_type_id":"4","last_reported":1768605079,"current_range_meters":6000,"station_id":"ce4bguh2rcd13ifvqckg","pricing_plan_id":"cebpf4jnsgd1na2vs0mg"},{"bike_id":"77c0fafe-9a0f-43ad-8dd2-b7ac52533ff4","system_id":"levelo_inurba_marseille","lat":43.30081,"lon":5.37413,"is_reserved":false,"is_disabled":false,"rental_uris":{"android":"levelo://app?vid=77c0fafe-9a0f-43ad-8dd2-b7ac52533ff4","ios":"levelo://app?vid=77c0fafe-9a0f-43ad-8dd2-b7ac52533ff4"},"vehicle_type_id":"4","last_reported":1768605079,"current_range_meters":6000,"station_id":"","pricing_plan_id":"cebpf4jnsgd1na2vs0mg"},{"bike_id":"0c015406-c4e0-4957-b6ea-e8db9f6df0cb","system_id":"levelo_inurba_marseille","lat":43.25833,"lon":5.39448,"is_reserved":false,"is_disabled":false,"rental_uris":{"android":"levelo://app?vid=0c015406-c4e0-4957-b6ea-e8db9f6df0cb","ios":"levelo://app?vid=0c015406-c4e0-4957-b6ea-e8db9f6df0cb"},"vehicle_type_id":"4","last_reported":1768605079,"current_range_meters":6000,"station_id":"ce4bhip2rcd13ifvqft0","pricing_plan_id":"cebpf4jnsgd1na2vs0mg"},{"bike_id":"7185850f-857b-44fd-92b4-76c22c7fdea5","system_id":"levelo_inurba_marseille","lat":43.303514,"lon":5.449612,"is_reserved":false,"is_disabled":false,"rental_uris":{"android":"levelo://app?vid=7185850f-857b-44fd-92b4-76c22c7fdea5","ios":"levelo://app?vid=7185850f-857b-44fd-92b4-76c22c7fdea5"},"vehicle_type_id":"4","last_reported":1768605079,"current_range_meters":6000,"station_id":"","pricing_plan_id":"cebpf4jnsgd1na2vs0mg"},{"bike_id":"47e85cfa-33bf-4357-8c44-b136f8ee753e","system_id":"levelo_inurba_marseille","lat":43.280649,"lon":5.386395,"is_reserved":false,"is_disabled":false,"rental_uris":{"android":"levelo://app?vid=47e85cfa-33bf-4357-8c44-b136f8ee753e","ios":"levelo://app?vid=47e85cfa-33bf-4357-8c44-b136f8ee753e"},"vehicle_type_id":"4","last_reported":1768605079,"current_range_meters":6000,"station_id":"ce4bhg12rcd13ifvqf80","pricing_plan_id":"cebpf4jnsgd1na2vs0mg"},{"bike_id":"612b6cc1-af85-4ee3-83c3-b2430d47b828","system_id":"levelo_inurba_marseille","lat":43.29213,"lon":5.361,"is_reserved":false,"is_disabled":false,"rental_uris":{"android":"levelo://app?vid=612b6cc1-af85-4ee3-83c3-b2430d47b828","ios":"levelo://app?vid=612b6cc1-af85-4ee3-83c3-b2430d47b828"},"vehicle_type_id":"4","last_reported":1768605079,"current_range_meters":6000,"station_id":"ce4bhbh2rcd13ifvqeqg","pricing_plan_id":"cebpf4jnsgd1na2vs0mg"},{"bike_id":"b909d72f-beda-41eb-905f-bcd0164eaac0","system_id":"levelo_inurba_marseille","lat":43.28355,"lon":5.38098,"is_reserved":false,"is_disabled":false,"rental_uris":{"android":"levelo://app?vid=b909d72f-beda-41eb-905f-bcd0164eaac0","ios":"levelo://app?vid=b909d72f-beda-41eb-905f-bcd0164eaac0"},"vehicle_type_id":"4","last_reported":1768605079,"current_range_meters":6000,"station_id":"ce4bh412rcd13ifvqdr0","pricing_plan_id":"cebpf4jnsgd1na2vs0mg"},{"bike_id":"1935688c-642d-4b98-8510-7a9991719b17","system_id":"levelo_inurba_marseille","lat":43.249491,"lon":5.404999,"is_reserved":false,"is_disabled":false,"rental_uris":{"android":"levelo://app?vid=1935688c-642d-4b98-8510-7a9991719b17","ios":"levelo://app?vid=1935688c-642d-4b98-8510-7a9991719b17"},"vehicle_type_id":"4","last_reported":1768605079,"current_range_meters":6000,"station_id":"st_d2ngiaodas8pm72gd1h0","pricing_plan_id":"cebpf4jnsgd1na2vs0mg"},{"bike_id":"763adf22-a6f9-46cd-ba2f-90315220ba48","system_id":"levelo_inurba_marseille","lat":43.31189,"lon":5.38723,"is_reserved":false,"is_disabled":false,"rental_uris":{"android":"levelo://app?vid=763adf22-a6f9-46cd-ba2f-90315220ba48","ios":"levelo://app?vid=763adf22-a6f9-46cd-ba2f-90315220ba48"},"vehicle_type_id":"4","last_reported":1768605079,"current_range_meters":6000,"station_id":"ce4bgv12rcd13ifvqcp0","pricing_plan_id":"cebpf4jnsgd1na2vs0mg"},{"bike_id":"41c4021a-14b9-4a23-afc6-ebd4816df26a","system_id":"levelo_inurba_marseille","lat":43.310816,"lon":5.424294,"is_reserved":false,"is_disabled":false,"rental_uris":{"android":"levelo://app?vid=41c4021a-14b9-4a23-afc6-ebd4816df26a","ios":"levelo://app?vid=41c4021a-14b9-4a23-afc6-ebd4816df26a"},"vehicle_type_id":"4","last_reported":1768605079,"current_range_meters":6000,"station_id":"ce4bhp92rcd13ifvqhag","pricing_plan_id":"cebpf4jnsgd1na2vs0mg"},{"bike_id":"beeda613-7b77-479c-90f5-b635b4700e74","system_id":"levelo_inurba_marseille","lat":43.24157,"lon":5.36412,"is_reserved":false,"is_disabled":false,"rental_uris":{"android":"levelo://app?vid=beeda613-7b77-479c-90f5-b635b4700e74","ios":"levelo://app?vid=beeda613-7b77-479c-90f5-b635b4700e74"},"vehicle_type_id":"4","last_reported":1768605079,"current_range_meters":6000,"station_id":"cpo36qri1sfpv3e86is0","pricing_plan_id":"cebpf4jnsgd1na2vs0mg"},{"bike_id":"c0ce7413-b87b-4471-89a8-3524c7a2d1cb","system_id":"levelo_inurba_marseille","lat":43.24888,"lon":5.42339,"is_reserved":false,"is_disabled":false,"rental_uris":{"android":"levelo://app?vid=c0ce7413-b87b-4471-89a8-3524c7a2d1cb","ios":"levelo://app?vid=c0ce7413-b87b-4471-89a8-3524c7a2d1cb"},"vehicle_type_id":"4","last_reported":1768605079,"current_range_meters":6000,"station_id":"st_d2m65c5bi1j21697t3ng","pricing_plan_id":"cebpf4jnsgd1na2vs0mg"},{"bike_id":"4959fda0-0c24-481d-8d78-8061789a1995","system_id":"levelo_inurba_marseille","lat":43.30435,"lon":5.3889,"is_reserved":false,"is_disabled":false,"rental_uris":{"android":"levelo://app?vid=4959fda0-0c24-481d-8d78-8061789a1995","ios":"levelo://app?vid=4959fda0-0c24-481d-8d78-8061789a1995"},"vehicle_type_id":"4","last_reported":1768605079,"current_range_meters":6400,"station_id":"ce4bgk12rcd13ifvqbi0","pricing_plan_id":"cebpf4jnsgd1na2vs0mg"},{"bike_id":"25ed961a-5384-43ae-9ae0-92012b19cc36","system_id":"levelo_inurba_marseille","lat":43.2813,"lon":5.38223,"is_reserved":false,"is_disabled":false,"rental_uris":{"android":"levelo://app?vid=25ed961a-5384-43ae-9ae0-92012b19cc36","ios":"levelo://app?vid=25ed961a-5384-43ae-9ae0-92012b19cc36"},"vehicle_type_id":"4","last_reported":1768605079,"current_range_meters":6400,"station_id":"","pricing_plan_id":"cebpf4jnsgd1na2vs0mg"},{"bike_id":"fc489fcf-c251-4a4f-870b-c76aecd2ad14","system_id":"levelo_inurba_marseille","lat":43.270677,"lon":5.42277,"is_reserved":false,"is_disabled":false,"rental_uris":{"android":"levelo://app?vid=fc489fcf-c251-4a4f-870b-c76aecd2ad14","ios":"levelo://app?vid=fc489fcf-c251-4a4f-870b-c76aecd2ad14"},"vehicle_type_id":"4","last_reported":1768605079,"current_range_meters":6400,"station_id":"ce4bhk92rcd13ifvqgb0","pricing_plan_id":"cebpf4jnsgd1na2vs0mg"},{"bike_id":"20696002-54d7-4af6-a1a3-4992415bf5f7","system_id":"levelo_inurba_marseille","lat":43.29648,"lon":5.3769,"is_reserved":false,"is_disabled":false,"rental_uris":{"android":"levelo://app?vid=20696002-54d7-4af6-a1a3-4992415bf5f7","ios":"levelo://app?vid=20696002-54d7-4af6-a1a3-4992415bf5f7"},"vehicle_type_id":"4","last_reported":1768605079,"current_range_meters":6400,"station_id":"ce4bgi92rcd13ifvqb90","pricing_plan_id":"cebpf4jnsgd1na2vs0mg"},{"bike_id":"c4cbef88-cc5b-4c76-8a49-f9a189461cba","system_id":"levelo_inurba_marseille","lat":43.28468,"lon":5.36748,"is_reserved":false,"is_disabled":false,"rental_uris":{"android":"levelo://app?vid=c4cbef88-cc5b-4c76-8a49-f9a189461cba","ios":"levelo://app?vid=c4cbef88-cc5b-4c76-8a49-f9a189461cba"},"vehicle_type_id":"4","last_reported":1768605079,"current_range_meters":6400,"station_id":"","pricing_plan_id":"cebpf4jnsgd1na2vs0mg"},{"bike_id":"708400ac-6bba-43cd-80cb-35a5d1f117b9","system_id":"levelo_inurba_marseille","lat":43.30957,"lon":5.39048,"is_reserved":false,"is_disabled":false,"rental_uris":{"android":"levelo://app?vid=708400ac-6bba-43cd-80cb-35a5d1f117b9","ios":"levelo://app?vid=708400ac-6bba-43cd-80cb-35a5d1f117b9"},"vehicle_type_id":"4","last_reported":1768605079,"current_range_meters":6400,"station_id":"ce4bgup2rcd13ifvqco0","pricing_plan_id":"cebpf4jnsgd1na2vs0mg"},{"bike_id":"3845cbb1-7f96-455b-bf3f-9d1d600a356f","system_id":"levelo_inurba_marseille","lat":43.29029,"lon":5.38629,"is_reserved":false,"is_disabled":false,"rental_uris":{"android":"levelo://app?vid=3845cbb1-7f96-455b-bf3f-9d1d600a356f","ios":"levelo://app?vid=3845cbb1-7f96-455b-bf3f-9d1d600a356f"},"vehicle_type_id":"4","last_reported":1768605079,"current_range_meters":6400,"station_id":"ce4bh4p2rcd13ifvqe0g","pricing_plan_id":"cebpf4jnsgd1na2vs0mg"},{"bike_id":"3b5c4f84-7f90-4474-adba-916a9c8db3a2","system_id":"levelo_inurba_marseille","lat":43.32015,"lon":5.41576,"is_reserved":false,"is_disabled":false,"rental_uris":{"android":"levelo://app?vid=3b5c4f84-7f90-4474-adba-916a9c8db3a2","ios":"levelo://app?vid=3b5c4f84-7f90-4474-adba-916a9c8db3a2"},"vehicle_type_id":"4","last_reported":1768605079,"current_range_meters":6400,"station_id":"ce4bhq92rcd13ifvqhkg","pricing_plan_id":"cebpf4jnsgd1na2vs0mg"},{"bike_id":"75a01f13-be16-4370-a7fc-dbe0f442faa9","system_id":"levelo_inurba_marseille","lat":43.21742,"lon":5.34605,"is_reserved":false,"is_disabled":false,"rental_uris":{"android":"levelo://app?vid=75a01f13-be16-4370-a7fc-dbe0f442faa9","ios":"levelo://app?vid=75a01f13-be16-4370-a7fc-dbe0f442faa9"},"vehicle_type_id":"4","last_reported":1768605079,"current_range_meters":6400,"station_id":"st_cvj6r9ubvosntc0bgbag","pricing_plan_id":"cebpf4jnsgd1na2vs0mg"},{"bike_id":"7bf645d4-598a-49a6-9e76-cf9acf0ff953","system_id":"levelo_inurba_marseille","lat":43.31492,"lon":5.37264,"is_reserved":false,"is_disabled":false,"rental_uris":{"android":"levelo://app?vid=7bf645d4-598a-49a6-9e76-cf9acf0ff953","ios":"levelo://app?vid=7bf645d4-598a-49a6-9e76-cf9acf0ff953"},"vehicle_type_id":"4","last_reported":1768605079,"current_range_meters":6400,"station_id":"ce4bgt12rcd13ifvqcd0","pricing_plan_id":"cebpf4jnsgd1na2vs0mg"},{"bike_id":"4c330636-b4ee-4a81-8afe-c3deb704dc18","system_id":"levelo_inurba_marseille","lat":43.2396,"lon":5.36658,"is_reserved":false,"is_disabled":false,"rental_uris":{"android":"levelo://app?vid=4c330636-b4ee-4a81-8afe-c3deb704dc18","ios":"levelo://app?vid=4c330636-b4ee-4a81-8afe-c3deb704dc18"},"vehicle_type_id":"4","last_reported":1768605079,"current_range_meters":6400,"station_id":"ce4bhi12rcd13ifvqfp0","pricing_plan_id":"cebpf4jnsgd1na2vs0mg"},{"bike_id":"c213175e-76cb-4571-b781-3891be5ded63","system_id":"levelo_inurba_marseille","lat":43.23811,"lon":5.36564,"is_reserved":false,"is_disabled":false,"rental_uris":{"android":"levelo://app?vid=c213175e-76cb-4571-b781-3891be5ded63","ios":"levelo://app?vid=c213175e-76cb-4571-b781-3891be5ded63"},"vehicle_type_id":"4","last_reported":1768605079,"current_range_meters":6400,"station_id":"","pricing_plan_id":"cebpf4jnsgd1na2vs0mg"},{"bike_id":"611737f5-0f65-4007-a4ce-c26d4cf73149","system_id":"levelo_inurba_marseille","lat":43.2499,"lon":5.38925,"is_reserved":false,"is_disabled":false,"rental_uris":{"android":"levelo://app?vid=611737f5-0f65-4007-a4ce-c26d4cf73149","ios":"levelo://app?vid=611737f5-0f65-4007-a4ce-c26d4cf73149"},"vehicle_type_id":"4","last_reported":1768605079,"current_range_meters":6400,"station_id":"ce4bhgp2rcd13ifvqfd0","pricing_plan_id":"cebpf4jnsgd1na2vs0mg"},{"bike_id":"b223653d-a046-4120-8776-e3c49ae637a8","system_id":"levelo_inurba_marseille","lat":43.21748,"lon":5.34644,"is_reserved":false,"is_disabled":false,"rental_uris":{"android":"levelo://app?vid=b223653d-a046-4120-8776-e3c49ae637a8","ios":"levelo://app?vid=b223653d-a046-4120-8776-e3c49ae637a8"},"vehicle_type_id":"4","last_reported":1768605079,"current_range_meters":6400,"station_id":"st_cvj6r9ubvosntc0bgbag","pricing_plan_id":"cebpf4jnsgd1na2vs0mg"},{"bike_id":"5374e4a5-372a-4009-95fd-eb8ddb1eb6c1","system_id":"levelo_inurba_marseille","lat":43.232,"lon":5.39981,"is_reserved":false,"is_disabled":false,"rental_uris":{"android":"levelo://app?vid=5374e4a5-372a-4009-95fd-eb8ddb1eb6c1","ios":"levelo://app?vid=5374e4a5-372a-4009-95fd-eb8ddb1eb6c1"},"vehicle_type_id":"4","last_reported":1768605079,"current_range_meters":6800,"station_id":"ce4bhn12rcd13ifvqgqg","pricing_plan_id":"cebpf4jnsgd1na2vs0mg"},{"bike_id":"a562b4a8-4b9f-4052-a20e-fa05a4dc8987","system_id":"levelo_inurba_marseille","lat":43.29588,"lon":5.38093,"is_reserved":false,"is_disabled":false,"rental_uris":{"android":"levelo://app?vid=a562b4a8-4b9f-4052-a20e-fa05a4dc8987","ios":"levelo://app?vid=a562b4a8-4b9f-4052-a20e-fa05a4dc8987"},"vehicle_type_id":"4","last_reported":1768605079,"current_range_meters":6800,"station_id":"ce4bgl12rcd13ifvqbo0","pricing_plan_id":"cebpf4jnsgd1na2vs0mg"},{"bike_id":"1d62d340-4bc5-43ff-b71d-77a560282cf5","system_id":"levelo_inurba_marseille","lat":43.29168,"lon":5.37155,"is_reserved":false,"is_disabled":false,"rental_uris":{"android":"levelo://app?vid=1d62d340-4bc5-43ff-b71d-77a560282cf5","ios":"levelo://app?vid=1d62d340-4bc5-43ff-b71d-77a560282cf5"},"vehicle_type_id":"4","last_reported":1768605079,"current_range_meters":6800,"station_id":"ce4bha92rcd13ifvqeh0","pricing_plan_id":"cebpf4jnsgd1na2vs0mg"},{"bike_id":"e6eb81b8-6284-4ccc-bb04-b8280e8edfeb","system_id":"levelo_inurba_marseille","lat":43.29247,"lon":5.3846,"is_reserved":false,"is_disabled":false,"rental_uris":{"android":"levelo://app?vid=e6eb81b8-6284-4ccc-bb04-b8280e8edfeb","ios":"levelo://app?vid=e6eb81b8-6284-4ccc-bb04-b8280e8edfeb"},"vehicle_type_id":"4","last_reported":1768605079,"current_range_meters":6800,"station_id":"ce4bh692rcd13ifvqea0","pricing_plan_id":"cebpf4jnsgd1na2vs0mg"},{"bike_id":"86e6621f-7881-4c25-ad15-d2bf78f793fd","system_id":"levelo_inurba_marseille","lat":43.27853,"lon":5.40751,"is_reserved":false,"is_disabled":false,"rental_uris":{"android":"levelo://app?vid=86e6621f-7881-4c25-ad15-d2bf78f793fd","ios":"levelo://app?vid=86e6621f-7881-4c25-ad15-d2bf78f793fd"},"vehicle_type_id":"4","last_reported":1768605079,"current_range_meters":6800,"station_id":"","pricing_plan_id":"cebpf4jnsgd1na2vs0mg"},{"bike_id":"b949299c-f20e-42fc-b68e-5511a8299ab4","system_id":"levelo_inurba_marseille","lat":43.29525,"lon":5.38539,"is_reserved":false,"is_disabled":false,"rental_uris":{"android":"levelo://app?vid=b949299c-f20e-42fc-b68e-5511a8299ab4","ios":"levelo://app?vid=b949299c-f20e-42fc-b68e-5511a8299ab4"},"vehicle_type_id":"4","last_reported":1768605079,"current_range_meters":6800,"station_id":"ce4bgih2rcd13ifvqba0","pricing_plan_id":"cebpf4jnsgd1na2vs0mg"},{"bike_id":"13c5bb29-9d1c-4ac3-bd57-1aeb26a4e127","system_id":"levelo_inurba_marseille","lat":43.27316,"lon":5.39094,"is_reserved":false,"is_disabled":false,"rental_uris":{"android":"levelo://app?vid=13c5bb29-9d1c-4ac3-bd57-1aeb26a4e127","ios":"levelo://app?vid=13c5bb29-9d1c-4ac3-bd57-1aeb26a4e127"},"vehicle_type_id":"4","last_reported":1768605079,"current_range_meters":6800,"station_id":"ce4bhgp2rcd13ifvqfe0","pricing_plan_id":"cebpf4jnsgd1na2vs0mg"},{"bike_id":"fb93d224-5964-4f2e-ba2f-d2699823d102","system_id":"levelo_inurba_marseille","lat":43.29239,"lon":5.38469,"is_reserved":false,"is_disabled":false,"rental_uris":{"android":"levelo://app?vid=fb93d224-5964-4f2e-ba2f-d2699823d102","ios":"levelo://app?vid=fb93d224-5964-4f2e-ba2f-d2699823d102"},"vehicle_type_id":"4","last_reported":1768605079,"current_range_meters":6800,"station_id":"ce4bh692rcd13ifvqea0","pricing_plan_id":"cebpf4jnsgd1na2vs0mg"},{"bike_id":"0d6897ee-18f3-48e3-8995-dbd357dcf6f6","system_id":"levelo_inurba_marseille","lat":43.278102,"lon":5.407208,"is_reserved":false,"is_disabled":false,"rental_uris":{"android":"levelo://app?vid=0d6897ee-18f3-48e3-8995-dbd357dcf6f6","ios":"levelo://app?vid=0d6897ee-18f3-48e3-8995-dbd357dcf6f6"},"vehicle_type_id":"4","last_reported":1768605079,"current_range_meters":6800,"station_id":"ce4bhnh2rcd13ifvqgtg","pricing_plan_id":"cebpf4jnsgd1na2vs0mg"},{"bike_id":"e67306f2-91be-4bbd-b4f1-9cc45e01c0f5","system_id":"levelo_inurba_marseille","lat":43.32369,"lon":5.36737,"is_reserved":false,"is_disabled":false,"rental_uris":{"android":"levelo://app?vid=e67306f2-91be-4bbd-b4f1-9cc45e01c0f5","ios":"levelo://app?vid=e67306f2-91be-4bbd-b4f1-9cc45e01c0f5"},"vehicle_type_id":"4","last_reported":1768605079,"current_range_meters":6800,"station_id":"ce4bhsh2rcd13ifvqi2g","pricing_plan_id":"cebpf4jnsgd1na2vs0mg"},{"bike_id":"6b614937-a502-44f5-934f-81d015634ef2","system_id":"levelo_inurba_marseille","lat":43.3205,"lon":5.36778,"is_reserved":false,"is_disabled":false,"rental_uris":{"android":"levelo://app?vid=6b614937-a502-44f5-934f-81d015634ef2","ios":"levelo://app?vid=6b614937-a502-44f5-934f-81d015634ef2"},"vehicle_type_id":"4","last_reported":1768605079,"current_range_meters":6800,"station_id":"ce4bhrh2rcd13ifvqhug","pricing_plan_id":"cebpf4jnsgd1na2vs0mg"},{"bike_id":"20ef9144-91e8-409f-b00a-14ecda56d561","system_id":"levelo_inurba_marseille","lat":43.21752,"lon":5.34607,"is_reserved":false,"is_disabled":false,"rental_uris":{"android":"levelo://app?vid=20ef9144-91e8-409f-b00a-14ecda56d561","ios":"levelo://app?vid=20ef9144-91e8-409f-b00a-14ecda56d561"},"vehicle_type_id":"4","last_reported":1768605079,"current_range_meters":6800,"station_id":"","pricing_plan_id":"cebpf4jnsgd1na2vs0mg"},{"bike_id":"78a9b9a2-5d06-4258-a0c0-0962138f338f","system_id":"levelo_inurba_marseille","lat":43.28527,"lon":5.48397,"is_reserved":false,"is_disabled":false,"rental_uris":{"android":"levelo://app?vid=78a9b9a2-5d06-4258-a0c0-0962138f338f","ios":"levelo://app?vid=78a9b9a2-5d06-4258-a0c0-0962138f338f"},"vehicle_type_id":"4","last_reported":1768605079,"current_range_meters":6800,"station_id":"st_d3svhcjqgbts73a3dn0g","pricing_plan_id":"cebpf4jnsgd1na2vs0mg"},{"bike_id":"33a43e34-88a4-4083-b992-f809b7203d8d","system_id":"levelo_inurba_marseille","lat":43.27055,"lon":5.38303,"is_reserved":false,"is_disabled":false,"rental_uris":{"android":"levelo://app?vid=33a43e34-88a4-4083-b992-f809b7203d8d","ios":"levelo://app?vid=33a43e34-88a4-4083-b992-f809b7203d8d"},"vehicle_type_id":"4","last_reported":1768605079,"current_range_meters":6800,"station_id":"st_d3n2fo6cfp8s73cte1j0","pricing_plan_id":"cebpf4jnsgd1na2vs0mg"},{"bike_id":"b45e3786-f240-418c-8d2f-00029fe91c40","system_id":"levelo_inurba_marseille","lat":43.28451,"lon":5.38794,"is_reserved":false,"is_disabled":false,"rental_uris":{"android":"levelo://app?vid=b45e3786-f240-418c-8d2f-00029fe91c40","ios":"levelo://app?vid=b45e3786-f240-418c-8d2f-00029fe91c40"},"vehicle_type_id":"4","last_reported":1768605079,"current_range_meters":6800,"station_id":"","pricing_plan_id":"cebpf4jnsgd1na2vs0mg"},{"bike_id":"629e41c8-23e2-4e3e-9b86-7580a9fe3bed","system_id":"levelo_inurba_marseille","lat":43.31035,"lon":5.37164,"is_reserved":false,"is_disabled":false,"rental_uris":{"android":"levelo://app?vid=629e41c8-23e2-4e3e-9b86-7580a9fe3bed","ios":"levelo://app?vid=629e41c8-23e2-4e3e-9b86-7580a9fe3bed"},"vehicle_type_id":"4","last_reported":1768605079,"current_range_meters":6800,"station_id":"st_d4kl2rp97mjs73e7tdfg","pricing_plan_id":"cebpf4jnsgd1na2vs0mg"},{"bike_id":"29c525f7-8390-427f-b20a-71478d321d7e","system_id":"levelo_inurba_marseille","lat":43.28969,"lon":5.38421,"is_reserved":false,"is_disabled":false,"rental_uris":{"android":"levelo://app?vid=29c525f7-8390-427f-b20a-71478d321d7e","ios":"levelo://app?vid=29c525f7-8390-427f-b20a-71478d321d7e"},"vehicle_type_id":"4","last_reported":1768605079,"current_range_meters":6800,"station_id":"ce4bh612rcd13ifvqe6g","pricing_plan_id":"cebpf4jnsgd1na2vs0mg"},{"bike_id":"a7167e28-df50-4713-bd70-fecea1ab1525","system_id":"levelo_inurba_marseille","lat":43.30886,"lon":5.39665,"is_reserved":false,"is_disabled":false,"rental_uris":{"android":"levelo://app?vid=a7167e28-df50-4713-bd70-fecea1ab1525","ios":"levelo://app?vid=a7167e28-df50-4713-bd70-fecea1ab1525"},"vehicle_type_id":"4","last_reported":1768605079,"current_range_meters":6800,"station_id":"ce4bh012rcd13ifvqcv0","pricing_plan_id":"cebpf4jnsgd1na2vs0mg"},{"bike_id":"70b14901-596a-4616-942d-a6388fa01a1f","system_id":"levelo_inurba_marseille","lat":43.30133,"lon":5.38782,"is_reserved":false,"is_disabled":false,"rental_uris":{"android":"levelo://app?vid=70b14901-596a-4616-942d-a6388fa01a1f","ios":"levelo://app?vid=70b14901-596a-4616-942d-a6388fa01a1f"},"vehicle_type_id":"4","last_reported":1768605079,"current_range_meters":7200,"station_id":"ce4bghh2rcd13ifvqb60","pricing_plan_id":"cebpf4jnsgd1na2vs0mg"},{"bike_id":"09105b5f-3c1b-4262-b05c-2ed28916e5be","system_id":"levelo_inurba_marseille","lat":43.25338,"lon":5.42173,"is_reserved":false,"is_disabled":false,"rental_uris":{"android":"levelo://app?vid=09105b5f-3c1b-4262-b05c-2ed28916e5be","ios":"levelo://app?vid=09105b5f-3c1b-4262-b05c-2ed28916e5be"},"vehicle_type_id":"4","last_reported":1768605079,"current_range_meters":7200,"station_id":"st_d2m65c5bi1j21697t3ng","pricing_plan_id":"cebpf4jnsgd1na2vs0mg"},{"bike_id":"2c30f434-6473-4236-8940-35ca6b24edda","system_id":"levelo_inurba_marseille","lat":43.29514,"lon":5.3941,"is_reserved":false,"is_disabled":false,"rental_uris":{"android":"levelo://app?vid=2c30f434-6473-4236-8940-35ca6b24edda","ios":"levelo://app?vid=2c30f434-6473-4236-8940-35ca6b24edda"},"vehicle_type_id":"4","last_reported":1768605079,"current_range_meters":7200,"station_id":"ce4bh292rcd13ifvqdf0","pricing_plan_id":"cebpf4jnsgd1na2vs0mg"},{"bike_id":"d0d1d698-a748-4849-a68c-b2045ed71aae","system_id":"levelo_inurba_marseille","lat":43.25168,"lon":5.40366,"is_reserved":false,"is_disabled":false,"rental_uris":{"android":"levelo://app?vid=d0d1d698-a748-4849-a68c-b2045ed71aae","ios":"levelo://app?vid=d0d1d698-a748-4849-a68c-b2045ed71aae"},"vehicle_type_id":"4","last_reported":1768605079,"current_range_meters":7200,"station_id":"","pricing_plan_id":"cebpf4jnsgd1na2vs0mg"},{"bike_id":"6a9a283c-2176-4148-9b9d-e1dcf245715d","system_id":"levelo_inurba_marseille","lat":43.295421,"lon":5.390528,"is_reserved":false,"is_disabled":false,"rental_uris":{"android":"levelo://app?vid=6a9a283c-2176-4148-9b9d-e1dcf245715d","ios":"levelo://app?vid=6a9a283c-2176-4148-9b9d-e1dcf245715d"},"vehicle_type_id":"4","last_reported":1768605079,"current_range_meters":7200,"station_id":"ce4bh3p2rcd13ifvqdp0","pricing_plan_id":"cebpf4jnsgd1na2vs0mg"},{"bike_id":"421cacd8-e947-4afd-a144-abf07645a343","system_id":"levelo_inurba_marseille","lat":43.337444,"lon":5.374475,"is_reserved":false,"is_disabled":false,"rental_uris":{"android":"levelo://app?vid=421cacd8-e947-4afd-a144-abf07645a343","ios":"levelo://app?vid=421cacd8-e947-4afd-a144-abf07645a343"},"vehicle_type_id":"4","last_reported":1768605079,"current_range_meters":7200,"station_id":"","pricing_plan_id":"cebpf4jnsgd1na2vs0mg"},{"bike_id":"205e067b-4784-4a9d-8eb5-b6861b4cfcd1","system_id":"levelo_inurba_marseille","lat":43.28513,"lon":5.43987,"is_reserved":false,"is_disabled":false,"rental_uris":{"android":"levelo://app?vid=205e067b-4784-4a9d-8eb5-b6861b4cfcd1","ios":"levelo://app?vid=205e067b-4784-4a9d-8eb5-b6861b4cfcd1"},"vehicle_type_id":"4","last_reported":1768605079,"current_range_meters":7200,"station_id":"","pricing_plan_id":"cebpf4jnsgd1na2vs0mg"},{"bike_id":"e7a64005-213b-444f-8365-5be005b6fcb8","system_id":"levelo_inurba_marseille","lat":43.29599,"lon":5.38109,"is_reserved":false,"is_disabled":false,"rental_uris":{"android":"levelo://app?vid=e7a64005-213b-444f-8365-5be005b6fcb8","ios":"levelo://app?vid=e7a64005-213b-444f-8365-5be005b6fcb8"},"vehicle_type_id":"4","last_reported":1768605079,"current_range_meters":7200,"station_id":"ce4bgl12rcd13ifvqbo0","pricing_plan_id":"cebpf4jnsgd1na2vs0mg"},{"bike_id":"e9062d5d-3347-4a67-b796-37630289f8ec","system_id":"levelo_inurba_marseille","lat":43.31356,"lon":5.38492,"is_reserved":false,"is_disabled":false,"rental_uris":{"android":"levelo://app?vid=e9062d5d-3347-4a67-b796-37630289f8ec","ios":"levelo://app?vid=e9062d5d-3347-4a67-b796-37630289f8ec"},"vehicle_type_id":"4","last_reported":1768605079,"current_range_meters":7200,"station_id":"ce4bgt92rcd13ifvqcf0","pricing_plan_id":"cebpf4jnsgd1na2vs0mg"},{"bike_id":"fa772604-5343-4874-a9f9-6fae0b9aaa0e","system_id":"levelo_inurba_marseille","lat":43.24593,"lon":5.39955,"is_reserved":false,"is_disabled":false,"rental_uris":{"android":"levelo://app?vid=fa772604-5343-4874-a9f9-6fae0b9aaa0e","ios":"levelo://app?vid=fa772604-5343-4874-a9f9-6fae0b9aaa0e"},"vehicle_type_id":"4","last_reported":1768605079,"current_range_meters":7200,"station_id":"","pricing_plan_id":"cebpf4jnsgd1na2vs0mg"},{"bike_id":"cb322bd5-780f-4976-ac84-7f70ca124770","system_id":"levelo_inurba_marseille","lat":43.24161,"lon":5.36391,"is_reserved":false,"is_disabled":false,"rental_uris":{"android":"levelo://app?vid=cb322bd5-780f-4976-ac84-7f70ca124770","ios":"levelo://app?vid=cb322bd5-780f-4976-ac84-7f70ca124770"},"vehicle_type_id":"4","last_reported":1768605079,"current_range_meters":7200,"station_id":"cpo36qri1sfpv3e86is0","pricing_plan_id":"cebpf4jnsgd1na2vs0mg"},{"bike_id":"fd642c07-01cf-4653-a407-4f2f21ab9b21","system_id":"levelo_inurba_marseille","lat":43.28919,"lon":5.38419,"is_reserved":false,"is_disabled":false,"rental_uris":{"android":"levelo://app?vid=fd642c07-01cf-4653-a407-4f2f21ab9b21","ios":"levelo://app?vid=fd642c07-01cf-4653-a407-4f2f21ab9b21"},"vehicle_type_id":"4","last_reported":1768605079,"current_range_meters":7200,"station_id":"ce4bh612rcd13ifvqe6g","pricing_plan_id":"cebpf4jnsgd1na2vs0mg"},{"bike_id":"744e766d-6cf3-40d3-9efc-3dc33d883636","system_id":"levelo_inurba_marseille","lat":43.2558,"lon":5.38247,"is_reserved":false,"is_disabled":false,"rental_uris":{"android":"levelo://app?vid=744e766d-6cf3-40d3-9efc-3dc33d883636","ios":"levelo://app?vid=744e766d-6cf3-40d3-9efc-3dc33d883636"},"vehicle_type_id":"4","last_reported":1768605079,"current_range_meters":7200,"station_id":"ce4bhih2rcd13ifvqfs0","pricing_plan_id":"cebpf4jnsgd1na2vs0mg"},{"bike_id":"0c8e6400-5132-4fc8-bc0c-deb5c809d02f","system_id":"levelo_inurba_marseille","lat":43.22551,"lon":5.4164,"is_reserved":false,"is_disabled":false,"rental_uris":{"android":"levelo://app?vid=0c8e6400-5132-4fc8-bc0c-deb5c809d02f","ios":"levelo://app?vid=0c8e6400-5132-4fc8-bc0c-deb5c809d02f"},"vehicle_type_id":"4","last_reported":1768605079,"current_range_meters":7200,"station_id":"st_d2o4gvlbi1j2169b742g","pricing_plan_id":"cebpf4jnsgd1na2vs0mg"},{"bike_id":"883e634f-3a04-4514-aae5-6e096d30b06f","system_id":"levelo_inurba_marseille","lat":43.27805,"lon":5.40721,"is_reserved":false,"is_disabled":false,"rental_uris":{"android":"levelo://app?vid=883e634f-3a04-4514-aae5-6e096d30b06f","ios":"levelo://app?vid=883e634f-3a04-4514-aae5-6e096d30b06f"},"vehicle_type_id":"4","last_reported":1768605079,"current_range_meters":7200,"station_id":"ce4bhnh2rcd13ifvqgtg","pricing_plan_id":"cebpf4jnsgd1na2vs0mg"},{"bike_id":"6b0a9408-3892-42be-a86a-e294e97e2a1c","system_id":"levelo_inurba_marseille","lat":43.279897,"lon":5.400132,"is_reserved":false,"is_disabled":false,"rental_uris":{"android":"levelo://app?vid=6b0a9408-3892-42be-a86a-e294e97e2a1c","ios":"levelo://app?vid=6b0a9408-3892-42be-a86a-e294e97e2a1c"},"vehicle_type_id":"4","last_reported":1768605079,"current_range_meters":7200,"station_id":"ce4bho92rcd13ifvqh4g","pricing_plan_id":"cebpf4jnsgd1na2vs0mg"},{"bike_id":"259e16f3-f42b-4c94-b807-56950596c4de","system_id":"levelo_inurba_marseille","lat":43.27993,"lon":5.41661,"is_reserved":false,"is_disabled":false,"rental_uris":{"android":"levelo://app?vid=259e16f3-f42b-4c94-b807-56950596c4de","ios":"levelo://app?vid=259e16f3-f42b-4c94-b807-56950596c4de"},"vehicle_type_id":"4","last_reported":1768605079,"current_range_meters":7200,"station_id":"ce4bho12rcd13ifvqh1g","pricing_plan_id":"cebpf4jnsgd1na2vs0mg"},{"bike_id":"374f7257-cfcd-4f34-8a16-ba578db8b7e2","system_id":"levelo_inurba_marseille","lat":43.24515,"lon":5.42598,"is_reserved":false,"is_disabled":false,"rental_uris":{"android":"levelo://app?vid=374f7257-cfcd-4f34-8a16-ba578db8b7e2","ios":"levelo://app?vid=374f7257-cfcd-4f34-8a16-ba578db8b7e2"},"vehicle_type_id":"4","last_reported":1768605079,"current_range_meters":7200,"station_id":"","pricing_plan_id":"cebpf4jnsgd1na2vs0mg"},{"bike_id":"8759e9c2-f8f6-4825-a095-f28cad42dd12","system_id":"levelo_inurba_marseille","lat":43.31737,"lon":5.40474,"is_reserved":false,"is_disabled":false,"rental_uris":{"android":"levelo://app?vid=8759e9c2-f8f6-4825-a095-f28cad42dd12","ios":"levelo://app?vid=8759e9c2-f8f6-4825-a095-f28cad42dd12"},"vehicle_type_id":"4","last_reported":1768605079,"current_range_meters":7200,"station_id":"","pricing_plan_id":"cebpf4jnsgd1na2vs0mg"},{"bike_id":"9cd9d5c5-198e-4fc1-8421-8e645f6d1d75","system_id":"levelo_inurba_marseille","lat":43.28617,"lon":5.35109,"is_reserved":false,"is_disabled":false,"rental_uris":{"android":"levelo://app?vid=9cd9d5c5-198e-4fc1-8421-8e645f6d1d75","ios":"levelo://app?vid=9cd9d5c5-198e-4fc1-8421-8e645f6d1d75"},"vehicle_type_id":"4","last_reported":1768605079,"current_range_meters":8000,"station_id":"ce4bhch2rcd13ifvqeug","pricing_plan_id":"cebpf4jnsgd1na2vs0mg"},{"bike_id":"0eaae1c5-bf6c-464d-8048-0c546f1d83e6","system_id":"levelo_inurba_marseille","lat":43.25091,"lon":5.39521,"is_reserved":false,"is_disabled":false,"rental_uris":{"android":"levelo://app?vid=0eaae1c5-bf6c-464d-8048-0c546f1d83e6","ios":"levelo://app?vid=0eaae1c5-bf6c-464d-8048-0c546f1d83e6"},"vehicle_type_id":"4","last_reported":1768605079,"current_range_meters":8000,"station_id":"ce4bhm12rcd13ifvqgkg","pricing_plan_id":"cebpf4jnsgd1na2vs0mg"},{"bike_id":"f5de62ed-d0f8-4ad4-b15a-af8b81d662d3","system_id":"levelo_inurba_marseille","lat":43.28008,"lon":5.4363,"is_reserved":false,"is_disabled":false,"rental_uris":{"android":"levelo://app?vid=f5de62ed-d0f8-4ad4-b15a-af8b81d662d3","ios":"levelo://app?vid=f5de62ed-d0f8-4ad4-b15a-af8b81d662d3"},"vehicle_type_id":"4","last_reported":1768605079,"current_range_meters":8000,"station_id":"","pricing_plan_id":"cebpf4jnsgd1na2vs0mg"},{"bike_id":"3b3b81ef-94e2-42e9-99e5-1204cf977676","system_id":"levelo_inurba_marseille","lat":43.24459,"lon":5.42534,"is_reserved":false,"is_disabled":false,"rental_uris":{"android":"levelo://app?vid=3b3b81ef-94e2-42e9-99e5-1204cf977676","ios":"levelo://app?vid=3b3b81ef-94e2-42e9-99e5-1204cf977676"},"vehicle_type_id":"4","last_reported":1768605079,"current_range_meters":8000,"station_id":"st_d4a3vfp97mjs738cd8kg","pricing_plan_id":"cebpf4jnsgd1na2vs0mg"},{"bike_id":"d9b3719e-715f-4911-9b10-43a12a517142","system_id":"levelo_inurba_marseille","lat":43.30333,"lon":5.36907,"is_reserved":false,"is_disabled":false,"rental_uris":{"android":"levelo://app?vid=d9b3719e-715f-4911-9b10-43a12a517142","ios":"levelo://app?vid=d9b3719e-715f-4911-9b10-43a12a517142"},"vehicle_type_id":"4","last_reported":1768605079,"current_range_meters":8000,"station_id":"ce4bgqh2rcd13ifvqc5g","pricing_plan_id":"cebpf4jnsgd1na2vs0mg"},{"bike_id":"ac863133-1003-4992-8ead-e17fcb8c6569","system_id":"levelo_inurba_marseille","lat":43.30308,"lon":5.36905,"is_reserved":false,"is_disabled":false,"rental_uris":{"android":"levelo://app?vid=ac863133-1003-4992-8ead-e17fcb8c6569","ios":"levelo://app?vid=ac863133-1003-4992-8ead-e17fcb8c6569"},"vehicle_type_id":"4","last_reported":1768605079,"current_range_meters":8000,"station_id":"ce4bgqh2rcd13ifvqc5g","pricing_plan_id":"cebpf4jnsgd1na2vs0mg"},{"bike_id":"1d5eceb1-e2f1-4eb0-a34e-0b097e488059","system_id":"levelo_inurba_marseille","lat":43.30289,"lon":5.39219,"is_reserved":false,"is_disabled":false,"rental_uris":{"android":"levelo://app?vid=1d5eceb1-e2f1-4eb0-a34e-0b097e488059","ios":"levelo://app?vid=1d5eceb1-e2f1-4eb0-a34e-0b097e488059"},"vehicle_type_id":"4","last_reported":1768605079,"current_range_meters":8000,"station_id":"ce4bgkh2rcd13ifvqbk0","pricing_plan_id":"cebpf4jnsgd1na2vs0mg"},{"bike_id":"a2063c8d-f51c-4170-b956-f1a16f6c2585","system_id":"levelo_inurba_marseille","lat":43.24987,"lon":5.3893,"is_reserved":false,"is_disabled":false,"rental_uris":{"android":"levelo://app?vid=a2063c8d-f51c-4170-b956-f1a16f6c2585","ios":"levelo://app?vid=a2063c8d-f51c-4170-b956-f1a16f6c2585"},"vehicle_type_id":"4","last_reported":1768605079,"current_range_meters":8000,"station_id":"ce4bhgp2rcd13ifvqfd0","pricing_plan_id":"cebpf4jnsgd1na2vs0mg"},{"bike_id":"4b44efea-c121-438a-8768-55d3eaac7de9","system_id":"levelo_inurba_marseille","lat":43.29574,"lon":5.37522,"is_reserved":false,"is_disabled":false,"rental_uris":{"android":"levelo://app?vid=4b44efea-c121-438a-8768-55d3eaac7de9","ios":"levelo://app?vid=4b44efea-c121-438a-8768-55d3eaac7de9"},"vehicle_type_id":"4","last_reported":1768605079,"current_range_meters":8000,"station_id":"ce4bgh92rcd13ifvqb50","pricing_plan_id":"cebpf4jnsgd1na2vs0mg"},{"bike_id":"b4477ecf-dd82-436d-bcee-727be1abd48a","system_id":"levelo_inurba_marseille","lat":43.2588,"lon":5.39933,"is_reserved":false,"is_disabled":false,"rental_uris":{"android":"levelo://app?vid=b4477ecf-dd82-436d-bcee-727be1abd48a","ios":"levelo://app?vid=b4477ecf-dd82-436d-bcee-727be1abd48a"},"vehicle_type_id":"4","last_reported":1768605079,"current_range_meters":8000,"station_id":"ce4bhl92rcd13ifvqghg","pricing_plan_id":"cebpf4jnsgd1na2vs0mg"},{"bike_id":"8d06b1dd-b39f-481f-9fd0-15b08a4bd888","system_id":"levelo_inurba_marseille","lat":43.253365,"lon":5.421761,"is_reserved":false,"is_disabled":false,"rental_uris":{"android":"levelo://app?vid=8d06b1dd-b39f-481f-9fd0-15b08a4bd888","ios":"levelo://app?vid=8d06b1dd-b39f-481f-9fd0-15b08a4bd888"},"vehicle_type_id":"4","last_reported":1768605079,"current_range_meters":8000,"station_id":"st_d2m65c5bi1j21697t3ng","pricing_plan_id":"cebpf4jnsgd1na2vs0mg"},{"bike_id":"48290c16-ada1-4dc5-b68e-7d1c12407831","system_id":"levelo_inurba_marseille","lat":43.30198,"lon":5.39462,"is_reserved":false,"is_disabled":true,"rental_uris":{"android":"levelo://app?vid=48290c16-ada1-4dc5-b68e-7d1c12407831","ios":"levelo://app?vid=48290c16-ada1-4dc5-b68e-7d1c12407831"},"vehicle_type_id":"4","last_reported":1768605079,"current_range_meters":8000,"station_id":"ce4bh0p2rcd13ifvqd70","pricing_plan_id":"cebpf4jnsgd1na2vs0mg"},{"bike_id":"a9bc23f0-0c26-49eb-96a0-ad99637bb7fb","system_id":"levelo_inurba_marseille","lat":43.2927,"lon":5.38385,"is_reserved":false,"is_disabled":false,"rental_uris":{"android":"levelo://app?vid=a9bc23f0-0c26-49eb-96a0-ad99637bb7fb","ios":"levelo://app?vid=a9bc23f0-0c26-49eb-96a0-ad99637bb7fb"},"vehicle_type_id":"4","last_reported":1768605079,"current_range_meters":8000,"station_id":"ce4bh692rcd13ifvqea0","pricing_plan_id":"cebpf4jnsgd1na2vs0mg"},{"bike_id":"caadb93f-4999-4bfb-ae90-074389f79e1a","system_id":"levelo_inurba_marseille","lat":43.24391,"lon":5.37074,"is_reserved":false,"is_disabled":false,"rental_uris":{"android":"levelo://app?vid=caadb93f-4999-4bfb-ae90-074389f79e1a","ios":"levelo://app?vid=caadb93f-4999-4bfb-ae90-074389f79e1a"},"vehicle_type_id":"4","last_reported":1768605079,"current_range_meters":8000,"station_id":"ce4bhhh2rcd13ifvqfk0","pricing_plan_id":"cebpf4jnsgd1na2vs0mg"},{"bike_id":"06743496-56ca-4ffb-9554-da7929f3016c","system_id":"levelo_inurba_marseille","lat":43.24462,"lon":5.42534,"is_reserved":false,"is_disabled":false,"rental_uris":{"android":"levelo://app?vid=06743496-56ca-4ffb-9554-da7929f3016c","ios":"levelo://app?vid=06743496-56ca-4ffb-9554-da7929f3016c"},"vehicle_type_id":"4","last_reported":1768605079,"current_range_meters":8000,"station_id":"st_d4a3vfp97mjs738cd8kg","pricing_plan_id":"cebpf4jnsgd1na2vs0mg"},{"bike_id":"d7944e80-8928-4e28-b76c-8b1fb20ad259","system_id":"levelo_inurba_marseille","lat":43.29408,"lon":5.41325,"is_reserved":false,"is_disabled":false,"rental_uris":{"android":"levelo://app?vid=d7944e80-8928-4e28-b76c-8b1fb20ad259","ios":"levelo://app?vid=d7944e80-8928-4e28-b76c-8b1fb20ad259"},"vehicle_type_id":"4","last_reported":1768605079,"current_range_meters":8000,"station_id":"","pricing_plan_id":"cebpf4jnsgd1na2vs0mg"},{"bike_id":"2790cdc7-bca1-42ca-abec-6c9518a9590b","system_id":"levelo_inurba_marseille","lat":43.31276,"lon":5.40178,"is_reserved":false,"is_disabled":false,"rental_uris":{"android":"levelo://app?vid=2790cdc7-bca1-42ca-abec-6c9518a9590b","ios":"levelo://app?vid=2790cdc7-bca1-42ca-abec-6c9518a9590b"},"vehicle_type_id":"4","last_reported":1768605079,"current_range_meters":8000,"station_id":"ce4bh092rcd13ifvqd30","pricing_plan_id":"cebpf4jnsgd1na2vs0mg"},{"bike_id":"44dd8680-8a36-4e2c-ad11-a41ad95bd7af","system_id":"levelo_inurba_marseille","lat":43.25333,"lon":5.42174,"is_reserved":false,"is_disabled":false,"rental_uris":{"android":"levelo://app?vid=44dd8680-8a36-4e2c-ad11-a41ad95bd7af","ios":"levelo://app?vid=44dd8680-8a36-4e2c-ad11-a41ad95bd7af"},"vehicle_type_id":"4","last_reported":1768605079,"current_range_meters":8000,"station_id":"st_d2m65c5bi1j21697t3ng","pricing_plan_id":"cebpf4jnsgd1na2vs0mg"},{"bike_id":"2bf36226-1d9f-42b2-9a74-e7e17d35894d","system_id":"levelo_inurba_marseille","lat":43.328841,"lon":5.38338,"is_reserved":false,"is_disabled":false,"rental_uris":{"android":"levelo://app?vid=2bf36226-1d9f-42b2-9a74-e7e17d35894d","ios":"levelo://app?vid=2bf36226-1d9f-42b2-9a74-e7e17d35894d"},"vehicle_type_id":"4","last_reported":1768605079,"current_range_meters":8000,"station_id":"","pricing_plan_id":"cebpf4jnsgd1na2vs0mg"},{"bike_id":"57826da9-2efc-4aeb-9be5-eabd3de43afa","system_id":"levelo_inurba_marseille","lat":43.31171,"lon":5.38706,"is_reserved":false,"is_disabled":false,"rental_uris":{"android":"levelo://app?vid=57826da9-2efc-4aeb-9be5-eabd3de43afa","ios":"levelo://app?vid=57826da9-2efc-4aeb-9be5-eabd3de43afa"},"vehicle_type_id":"4","last_reported":1768605079,"current_range_meters":8000,"station_id":"ce4bgv12rcd13ifvqcp0","pricing_plan_id":"cebpf4jnsgd1na2vs0mg"},{"bike_id":"0b5e89ab-49d3-4fac-a0ae-333cd25a8ffe","system_id":"levelo_inurba_marseille","lat":43.28927,"lon":5.38386,"is_reserved":false,"is_disabled":false,"rental_uris":{"android":"levelo://app?vid=0b5e89ab-49d3-4fac-a0ae-333cd25a8ffe","ios":"levelo://app?vid=0b5e89ab-49d3-4fac-a0ae-333cd25a8ffe"},"vehicle_type_id":"4","last_reported":1768605079,"current_range_meters":8400,"station_id":"ce4bh612rcd13ifvqe6g","pricing_plan_id":"cebpf4jnsgd1na2vs0mg"},{"bike_id":"0bc61347-9b23-444b-8417-57af3b905e16","system_id":"levelo_inurba_marseille","lat":43.26951,"lon":5.38632,"is_reserved":false,"is_disabled":false,"rental_uris":{"android":"levelo://app?vid=0bc61347-9b23-444b-8417-57af3b905e16","ios":"levelo://app?vid=0bc61347-9b23-444b-8417-57af3b905e16"},"vehicle_type_id":"4","last_reported":1768605079,"current_range_meters":8400,"station_id":"ce4bhh92rcd13ifvqfh0","pricing_plan_id":"cebpf4jnsgd1na2vs0mg"},{"bike_id":"60c43659-13ea-4e77-a287-1c3b5ca9afab","system_id":"levelo_inurba_marseille","lat":43.293207,"lon":5.376458,"is_reserved":false,"is_disabled":false,"rental_uris":{"android":"levelo://app?vid=60c43659-13ea-4e77-a287-1c3b5ca9afab","ios":"levelo://app?vid=60c43659-13ea-4e77-a287-1c3b5ca9afab"},"vehicle_type_id":"4","last_reported":1768605079,"current_range_meters":8400,"station_id":"ce4bgi12rcd13ifvqb70","pricing_plan_id":"cebpf4jnsgd1na2vs0mg"},{"bike_id":"f0bd7531-a3de-4345-a195-f7e1cf772153","system_id":"levelo_inurba_marseille","lat":43.30207,"lon":5.39464,"is_reserved":false,"is_disabled":false,"rental_uris":{"android":"levelo://app?vid=f0bd7531-a3de-4345-a195-f7e1cf772153","ios":"levelo://app?vid=f0bd7531-a3de-4345-a195-f7e1cf772153"},"vehicle_type_id":"4","last_reported":1768605079,"current_range_meters":8400,"station_id":"ce4bh0p2rcd13ifvqd70","pricing_plan_id":"cebpf4jnsgd1na2vs0mg"},{"bike_id":"dfa0b548-87ce-4ae6-9ceb-31740ca2ec1d","system_id":"levelo_inurba_marseille","lat":43.28476,"lon":5.48403,"is_reserved":false,"is_disabled":false,"rental_uris":{"android":"levelo://app?vid=dfa0b548-87ce-4ae6-9ceb-31740ca2ec1d","ios":"levelo://app?vid=dfa0b548-87ce-4ae6-9ceb-31740ca2ec1d"},"vehicle_type_id":"4","last_reported":1768605079,"current_range_meters":8400,"station_id":"st_d3svhcjqgbts73a3dn0g","pricing_plan_id":"cebpf4jnsgd1na2vs0mg"},{"bike_id":"bf3c9612-0590-462d-87a5-0987166375b2","system_id":"levelo_inurba_marseille","lat":43.23967,"lon":5.36613,"is_reserved":false,"is_disabled":true,"rental_uris":{"android":"levelo://app?vid=bf3c9612-0590-462d-87a5-0987166375b2","ios":"levelo://app?vid=bf3c9612-0590-462d-87a5-0987166375b2"},"vehicle_type_id":"4","last_reported":1768605079,"current_range_meters":8400,"station_id":"ce4bhi12rcd13ifvqfp0","pricing_plan_id":"cebpf4jnsgd1na2vs0mg"},{"bike_id":"576a061d-1fb4-476f-a84f-2ef395c324f6","system_id":"levelo_inurba_marseille","lat":43.25504,"lon":5.37668,"is_reserved":false,"is_disabled":false,"rental_uris":{"android":"levelo://app?vid=576a061d-1fb4-476f-a84f-2ef395c324f6","ios":"levelo://app?vid=576a061d-1fb4-476f-a84f-2ef395c324f6"},"vehicle_type_id":"4","last_reported":1768605079,"current_range_meters":8400,"station_id":"ce4bhh12rcd13ifvqff0","pricing_plan_id":"cebpf4jnsgd1na2vs0mg"},{"bike_id":"6e695fbf-25f2-4bc8-a26a-a8f085460a93","system_id":"levelo_inurba_marseille","lat":43.291698,"lon":5.37154,"is_reserved":false,"is_disabled":false,"rental_uris":{"android":"levelo://app?vid=6e695fbf-25f2-4bc8-a26a-a8f085460a93","ios":"levelo://app?vid=6e695fbf-25f2-4bc8-a26a-a8f085460a93"},"vehicle_type_id":"4","last_reported":1768605079,"current_range_meters":8400,"station_id":"ce4bha92rcd13ifvqeh0","pricing_plan_id":"cebpf4jnsgd1na2vs0mg"},{"bike_id":"8db52122-96c8-424a-a720-30d9d4a4480c","system_id":"levelo_inurba_marseille","lat":43.23783,"lon":5.36642,"is_reserved":false,"is_disabled":false,"rental_uris":{"android":"levelo://app?vid=8db52122-96c8-424a-a720-30d9d4a4480c","ios":"levelo://app?vid=8db52122-96c8-424a-a720-30d9d4a4480c"},"vehicle_type_id":"4","last_reported":1768605079,"current_range_meters":8400,"station_id":"st_d3nk18o9ro0c73en2l3g","pricing_plan_id":"cebpf4jnsgd1na2vs0mg"},{"bike_id":"ee0ff989-3e72-4358-ac59-dd576fdb32e8","system_id":"levelo_inurba_marseille","lat":43.27068,"lon":5.38298,"is_reserved":false,"is_disabled":false,"rental_uris":{"android":"levelo://app?vid=ee0ff989-3e72-4358-ac59-dd576fdb32e8","ios":"levelo://app?vid=ee0ff989-3e72-4358-ac59-dd576fdb32e8"},"vehicle_type_id":"4","last_reported":1768605079,"current_range_meters":8400,"station_id":"st_d3n2fo6cfp8s73cte1j0","pricing_plan_id":"cebpf4jnsgd1na2vs0mg"},{"bike_id":"345b5346-7930-44db-bf58-c42befd82a6d","system_id":"levelo_inurba_marseille","lat":43.29606,"lon":5.38101,"is_reserved":false,"is_disabled":false,"rental_uris":{"android":"levelo://app?vid=345b5346-7930-44db-bf58-c42befd82a6d","ios":"levelo://app?vid=345b5346-7930-44db-bf58-c42befd82a6d"},"vehicle_type_id":"4","last_reported":1768605079,"current_range_meters":8400,"station_id":"ce4bgl12rcd13ifvqbo0","pricing_plan_id":"cebpf4jnsgd1na2vs0mg"},{"bike_id":"4a28ef74-056c-4568-bfa3-e40f0a491bda","system_id":"levelo_inurba_marseille","lat":43.25532,"lon":5.37676,"is_reserved":false,"is_disabled":false,"rental_uris":{"android":"levelo://app?vid=4a28ef74-056c-4568-bfa3-e40f0a491bda","ios":"levelo://app?vid=4a28ef74-056c-4568-bfa3-e40f0a491bda"},"vehicle_type_id":"4","last_reported":1768605079,"current_range_meters":8400,"station_id":"ce4bhh12rcd13ifvqff0","pricing_plan_id":"cebpf4jnsgd1na2vs0mg"},{"bike_id":"3a36667a-93a2-47e6-8728-e382036e6f88","system_id":"levelo_inurba_marseille","lat":43.21779,"lon":5.34619,"is_reserved":false,"is_disabled":false,"rental_uris":{"android":"levelo://app?vid=3a36667a-93a2-47e6-8728-e382036e6f88","ios":"levelo://app?vid=3a36667a-93a2-47e6-8728-e382036e6f88"},"vehicle_type_id":"4","last_reported":1768605079,"current_range_meters":8400,"station_id":"st_cvj6r9ubvosntc0bgbag","pricing_plan_id":"cebpf4jnsgd1na2vs0mg"},{"bike_id":"081dca07-e8a6-423f-95f0-96bcbec61c3d","system_id":"levelo_inurba_marseille","lat":43.25269,"lon":5.37997,"is_reserved":false,"is_disabled":false,"rental_uris":{"android":"levelo://app?vid=081dca07-e8a6-423f-95f0-96bcbec61c3d","ios":"levelo://app?vid=081dca07-e8a6-423f-95f0-96bcbec61c3d"},"vehicle_type_id":"4","last_reported":1768605079,"current_range_meters":8400,"station_id":"","pricing_plan_id":"cebpf4jnsgd1na2vs0mg"},{"bike_id":"5ec26b1a-4858-4de7-8be0-fdba351cdbf0","system_id":"levelo_inurba_marseille","lat":43.30949,"lon":5.39028,"is_reserved":false,"is_disabled":false,"rental_uris":{"android":"levelo://app?vid=5ec26b1a-4858-4de7-8be0-fdba351cdbf0","ios":"levelo://app?vid=5ec26b1a-4858-4de7-8be0-fdba351cdbf0"},"vehicle_type_id":"4","last_reported":1768605079,"current_range_meters":8800,"station_id":"ce4bgup2rcd13ifvqco0","pricing_plan_id":"cebpf4jnsgd1na2vs0mg"},{"bike_id":"4d4dbef2-787f-4e6c-a9d2-398aa9c2095e","system_id":"levelo_inurba_marseille","lat":43.28533,"lon":5.44112,"is_reserved":false,"is_disabled":false,"rental_uris":{"android":"levelo://app?vid=4d4dbef2-787f-4e6c-a9d2-398aa9c2095e","ios":"levelo://app?vid=4d4dbef2-787f-4e6c-a9d2-398aa9c2095e"},"vehicle_type_id":"4","last_reported":1768605079,"current_range_meters":8800,"station_id":"st_d3j3df2ikq2c7380ej80","pricing_plan_id":"cebpf4jnsgd1na2vs0mg"},{"bike_id":"3bb4f388-8d72-48f0-ac2d-95655c4ae4df","system_id":"levelo_inurba_marseille","lat":43.24462,"lon":5.42526,"is_reserved":false,"is_disabled":false,"rental_uris":{"android":"levelo://app?vid=3bb4f388-8d72-48f0-ac2d-95655c4ae4df","ios":"levelo://app?vid=3bb4f388-8d72-48f0-ac2d-95655c4ae4df"},"vehicle_type_id":"4","last_reported":1768605079,"current_range_meters":8800,"station_id":"st_d4a3vfp97mjs738cd8kg","pricing_plan_id":"cebpf4jnsgd1na2vs0mg"},{"bike_id":"007a8962-90e2-451f-874a-8f3e18db7743","system_id":"levelo_inurba_marseille","lat":43.29523,"lon":5.39027,"is_reserved":false,"is_disabled":false,"rental_uris":{"android":"levelo://app?vid=007a8962-90e2-451f-874a-8f3e18db7743","ios":"levelo://app?vid=007a8962-90e2-451f-874a-8f3e18db7743"},"vehicle_type_id":"4","last_reported":1768605079,"current_range_meters":8800,"station_id":"ce4bh3p2rcd13ifvqdp0","pricing_plan_id":"cebpf4jnsgd1na2vs0mg"},{"bike_id":"ab96d693-0de6-43f1-85b1-d62380e9052b","system_id":"levelo_inurba_marseille","lat":43.279817,"lon":5.399857,"is_reserved":false,"is_disabled":false,"rental_uris":{"android":"levelo://app?vid=ab96d693-0de6-43f1-85b1-d62380e9052b","ios":"levelo://app?vid=ab96d693-0de6-43f1-85b1-d62380e9052b"},"vehicle_type_id":"4","last_reported":1768605079,"current_range_meters":8800,"station_id":"ce4bho92rcd13ifvqh4g","pricing_plan_id":"cebpf4jnsgd1na2vs0mg"},{"bike_id":"513ed6c4-8623-44b6-ada8-0b1c7c1ff00d","system_id":"levelo_inurba_marseille","lat":43.29834,"lon":5.37648,"is_reserved":false,"is_disabled":false,"rental_uris":{"android":"levelo://app?vid=513ed6c4-8623-44b6-ada8-0b1c7c1ff00d","ios":"levelo://app?vid=513ed6c4-8623-44b6-ada8-0b1c7c1ff00d"},"vehicle_type_id":"4","last_reported":1768605079,"current_range_meters":8800,"station_id":"","pricing_plan_id":"cebpf4jnsgd1na2vs0mg"},{"bike_id":"43474634-8791-40b5-8681-1c05e81864a6","system_id":"levelo_inurba_marseille","lat":43.30128,"lon":5.38787,"is_reserved":false,"is_disabled":false,"rental_uris":{"android":"levelo://app?vid=43474634-8791-40b5-8681-1c05e81864a6","ios":"levelo://app?vid=43474634-8791-40b5-8681-1c05e81864a6"},"vehicle_type_id":"4","last_reported":1768605079,"current_range_meters":8800,"station_id":"ce4bghh2rcd13ifvqb60","pricing_plan_id":"cebpf4jnsgd1na2vs0mg"},{"bike_id":"e12da946-6ac2-4563-8625-68605442f884","system_id":"levelo_inurba_marseille","lat":43.30454,"lon":5.37917,"is_reserved":false,"is_disabled":false,"rental_uris":{"android":"levelo://app?vid=e12da946-6ac2-4563-8625-68605442f884","ios":"levelo://app?vid=e12da946-6ac2-4563-8625-68605442f884"},"vehicle_type_id":"4","last_reported":1768605079,"current_range_meters":8800,"station_id":"ce4bgup2rcd13ifvqcn0","pricing_plan_id":"cebpf4jnsgd1na2vs0mg"},{"bike_id":"663d0ae7-6900-4ed6-b652-cfae56750069","system_id":"levelo_inurba_marseille","lat":43.31701,"lon":5.37373,"is_reserved":false,"is_disabled":true,"rental_uris":{"android":"levelo://app?vid=663d0ae7-6900-4ed6-b652-cfae56750069","ios":"levelo://app?vid=663d0ae7-6900-4ed6-b652-cfae56750069"},"vehicle_type_id":"4","last_reported":1768605079,"current_range_meters":8800,"station_id":"","pricing_plan_id":"cebpf4jnsgd1na2vs0mg"},{"bike_id":"b048efa1-5ef7-4f29-977d-1b4baf234e92","system_id":"levelo_inurba_marseille","lat":43.27938,"lon":5.41043,"is_reserved":false,"is_disabled":false,"rental_uris":{"android":"levelo://app?vid=b048efa1-5ef7-4f29-977d-1b4baf234e92","ios":"levelo://app?vid=b048efa1-5ef7-4f29-977d-1b4baf234e92"},"vehicle_type_id":"4","last_reported":1768605079,"current_range_meters":8800,"station_id":"ce4bhnp2rcd13ifvqh0g","pricing_plan_id":"cebpf4jnsgd1na2vs0mg"},{"bike_id":"06bee1ec-761b-4be7-bd1c-24a1b98dfa42","system_id":"levelo_inurba_marseille","lat":43.29532,"lon":5.38714,"is_reserved":false,"is_disabled":false,"rental_uris":{"android":"levelo://app?vid=06bee1ec-761b-4be7-bd1c-24a1b98dfa42","ios":"levelo://app?vid=06bee1ec-761b-4be7-bd1c-24a1b98dfa42"},"vehicle_type_id":"4","last_reported":1768605079,"current_range_meters":8800,"station_id":"","pricing_plan_id":"cebpf4jnsgd1na2vs0mg"},{"bike_id":"d5e35d21-1683-45b4-8efc-60fb9397d5ab","system_id":"levelo_inurba_marseille","lat":43.31115,"lon":5.3868,"is_reserved":false,"is_disabled":false,"rental_uris":{"android":"levelo://app?vid=d5e35d21-1683-45b4-8efc-60fb9397d5ab","ios":"levelo://app?vid=d5e35d21-1683-45b4-8efc-60fb9397d5ab"},"vehicle_type_id":"4","last_reported":1768605079,"current_range_meters":8800,"station_id":"","pricing_plan_id":"cebpf4jnsgd1na2vs0mg"},{"bike_id":"87986878-1edf-47e2-b56d-e081b942ab8a","system_id":"levelo_inurba_marseille","lat":43.29257,"lon":5.38443,"is_reserved":false,"is_disabled":false,"rental_uris":{"android":"levelo://app?vid=87986878-1edf-47e2-b56d-e081b942ab8a","ios":"levelo://app?vid=87986878-1edf-47e2-b56d-e081b942ab8a"},"vehicle_type_id":"4","last_reported":1768605079,"current_range_meters":8800,"station_id":"ce4bh692rcd13ifvqea0","pricing_plan_id":"cebpf4jnsgd1na2vs0mg"},{"bike_id":"24fe89c9-946b-4456-a375-98c447f0bc17","system_id":"levelo_inurba_marseille","lat":43.30128,"lon":5.381,"is_reserved":false,"is_disabled":false,"rental_uris":{"android":"levelo://app?vid=24fe89c9-946b-4456-a375-98c447f0bc17","ios":"levelo://app?vid=24fe89c9-946b-4456-a375-98c447f0bc17"},"vehicle_type_id":"4","last_reported":1768605079,"current_range_meters":8800,"station_id":"ce4bgjp2rcd13ifvqbh0","pricing_plan_id":"cebpf4jnsgd1na2vs0mg"},{"bike_id":"2858a0a3-b6ba-4c1c-af17-1790287f46a4","system_id":"levelo_inurba_marseille","lat":43.2955,"lon":5.38554,"is_reserved":false,"is_disabled":false,"rental_uris":{"android":"levelo://app?vid=2858a0a3-b6ba-4c1c-af17-1790287f46a4","ios":"levelo://app?vid=2858a0a3-b6ba-4c1c-af17-1790287f46a4"},"vehicle_type_id":"4","last_reported":1768605079,"current_range_meters":8800,"station_id":"ce4bgih2rcd13ifvqba0","pricing_plan_id":"cebpf4jnsgd1na2vs0mg"},{"bike_id":"d9bcaa2e-9d4e-4155-96a7-57ca8c2d8521","system_id":"levelo_inurba_marseille","lat":43.2483,"lon":5.37469,"is_reserved":false,"is_disabled":false,"rental_uris":{"android":"levelo://app?vid=d9bcaa2e-9d4e-4155-96a7-57ca8c2d8521","ios":"levelo://app?vid=d9bcaa2e-9d4e-4155-96a7-57ca8c2d8521"},"vehicle_type_id":"4","last_reported":1768605079,"current_range_meters":8800,"station_id":"ce4bhgh2rcd13ifvqfb0","pricing_plan_id":"cebpf4jnsgd1na2vs0mg"},{"bike_id":"c0d3f326-7c3a-439d-ad96-dcd3c5e4e41e","system_id":"levelo_inurba_marseille","lat":43.28776,"lon":5.35874,"is_reserved":false,"is_disabled":false,"rental_uris":{"android":"levelo://app?vid=c0d3f326-7c3a-439d-ad96-dcd3c5e4e41e","ios":"levelo://app?vid=c0d3f326-7c3a-439d-ad96-dcd3c5e4e41e"},"vehicle_type_id":"4","last_reported":1768605079,"current_range_meters":8800,"station_id":"ce4bhb12rcd13ifvqem0","pricing_plan_id":"cebpf4jnsgd1na2vs0mg"},{"bike_id":"9b38ba71-a520-456f-941a-0cbb802b225c","system_id":"levelo_inurba_marseille","lat":43.24476,"lon":5.42539,"is_reserved":false,"is_disabled":false,"rental_uris":{"android":"levelo://app?vid=9b38ba71-a520-456f-941a-0cbb802b225c","ios":"levelo://app?vid=9b38ba71-a520-456f-941a-0cbb802b225c"},"vehicle_type_id":"4","last_reported":1768605079,"current_range_meters":8800,"station_id":"st_d4a3vfp97mjs738cd8kg","pricing_plan_id":"cebpf4jnsgd1na2vs0mg"},{"bike_id":"e91e3903-60f1-4c5a-bc80-d327c473e2e7","system_id":"levelo_inurba_marseille","lat":43.25486,"lon":5.37671,"is_reserved":false,"is_disabled":false,"rental_uris":{"android":"levelo://app?vid=e91e3903-60f1-4c5a-bc80-d327c473e2e7","ios":"levelo://app?vid=e91e3903-60f1-4c5a-bc80-d327c473e2e7"},"vehicle_type_id":"4","last_reported":1768605079,"current_range_meters":8800,"station_id":"ce4bhh12rcd13ifvqff0","pricing_plan_id":"cebpf4jnsgd1na2vs0mg"},{"bike_id":"40c9616c-92d9-4b6c-a682-eeaa5a3fea06","system_id":"levelo_inurba_marseille","lat":43.21751,"lon":5.3461,"is_reserved":false,"is_disabled":false,"rental_uris":{"android":"levelo://app?vid=40c9616c-92d9-4b6c-a682-eeaa5a3fea06","ios":"levelo://app?vid=40c9616c-92d9-4b6c-a682-eeaa5a3fea06"},"vehicle_type_id":"4","last_reported":1768605079,"current_range_meters":8800,"station_id":"st_cvj6r9ubvosntc0bgbag","pricing_plan_id":"cebpf4jnsgd1na2vs0mg"},{"bike_id":"12973c53-3c4b-4eeb-9bcf-3e724fe32df6","system_id":"levelo_inurba_marseille","lat":43.28161,"lon":5.4045,"is_reserved":false,"is_disabled":false,"rental_uris":{"android":"levelo://app?vid=12973c53-3c4b-4eeb-9bcf-3e724fe32df6","ios":"levelo://app?vid=12973c53-3c4b-4eeb-9bcf-3e724fe32df6"},"vehicle_type_id":"4","last_reported":1768605079,"current_range_meters":9200,"station_id":"","pricing_plan_id":"cebpf4jnsgd1na2vs0mg"},{"bike_id":"dfa72997-bdba-48f4-a1d1-63ff5130518c","system_id":"levelo_inurba_marseille","lat":43.32352,"lon":5.36732,"is_reserved":false,"is_disabled":false,"rental_uris":{"android":"levelo://app?vid=dfa72997-bdba-48f4-a1d1-63ff5130518c","ios":"levelo://app?vid=dfa72997-bdba-48f4-a1d1-63ff5130518c"},"vehicle_type_id":"4","last_reported":1768605079,"current_range_meters":9200,"station_id":"ce4bhsh2rcd13ifvqi2g","pricing_plan_id":"cebpf4jnsgd1na2vs0mg"},{"bike_id":"46806932-3cfa-4ebe-af4a-3467d6c21a46","system_id":"levelo_inurba_marseille","lat":43.27812,"lon":5.40735,"is_reserved":false,"is_disabled":false,"rental_uris":{"android":"levelo://app?vid=46806932-3cfa-4ebe-af4a-3467d6c21a46","ios":"levelo://app?vid=46806932-3cfa-4ebe-af4a-3467d6c21a46"},"vehicle_type_id":"4","last_reported":1768605079,"current_range_meters":9200,"station_id":"ce4bhnh2rcd13ifvqgtg","pricing_plan_id":"cebpf4jnsgd1na2vs0mg"},{"bike_id":"65ef475a-1266-49c6-ab97-6a1c0932a55b","system_id":"levelo_inurba_marseille","lat":43.29161,"lon":5.37156,"is_reserved":false,"is_disabled":false,"rental_uris":{"android":"levelo://app?vid=65ef475a-1266-49c6-ab97-6a1c0932a55b","ios":"levelo://app?vid=65ef475a-1266-49c6-ab97-6a1c0932a55b"},"vehicle_type_id":"4","last_reported":1768605079,"current_range_meters":9200,"station_id":"ce4bha92rcd13ifvqeh0","pricing_plan_id":"cebpf4jnsgd1na2vs0mg"},{"bike_id":"9f9ee95b-a709-468f-875a-8cf12fad1678","system_id":"levelo_inurba_marseille","lat":43.301448,"lon":5.37398,"is_reserved":false,"is_disabled":false,"rental_uris":{"android":"levelo://app?vid=9f9ee95b-a709-468f-875a-8cf12fad1678","ios":"levelo://app?vid=9f9ee95b-a709-468f-875a-8cf12fad1678"},"vehicle_type_id":"4","last_reported":1768605079,"current_range_meters":9200,"station_id":"ce4bgs92rcd13ifvqcc0","pricing_plan_id":"cebpf4jnsgd1na2vs0mg"},{"bike_id":"96af2c7a-23a6-407a-a6d2-0f10d6c9d458","system_id":"levelo_inurba_marseille","lat":43.29177,"lon":5.39304,"is_reserved":false,"is_disabled":false,"rental_uris":{"android":"levelo://app?vid=96af2c7a-23a6-407a-a6d2-0f10d6c9d458","ios":"levelo://app?vid=96af2c7a-23a6-407a-a6d2-0f10d6c9d458"},"vehicle_type_id":"4","last_reported":1768605079,"current_range_meters":9200,"station_id":"ce4bh192rcd13ifvqdd0","pricing_plan_id":"cebpf4jnsgd1na2vs0mg"},{"bike_id":"e6872936-d756-4b20-b25b-25e2aeef4bd8","system_id":"levelo_inurba_marseille","lat":43.23189,"lon":5.35562,"is_reserved":false,"is_disabled":false,"rental_uris":{"android":"levelo://app?vid=e6872936-d756-4b20-b25b-25e2aeef4bd8","ios":"levelo://app?vid=e6872936-d756-4b20-b25b-25e2aeef4bd8"},"vehicle_type_id":"4","last_reported":1768605079,"current_range_meters":9200,"station_id":"ce4bhu92rcd13ifvqi70","pricing_plan_id":"cebpf4jnsgd1na2vs0mg"},{"bike_id":"2b145973-3802-427d-9998-97f195dc402b","system_id":"levelo_inurba_marseille","lat":43.23192,"lon":5.3556,"is_reserved":false,"is_disabled":false,"rental_uris":{"android":"levelo://app?vid=2b145973-3802-427d-9998-97f195dc402b","ios":"levelo://app?vid=2b145973-3802-427d-9998-97f195dc402b"},"vehicle_type_id":"4","last_reported":1768605079,"current_range_meters":9200,"station_id":"ce4bhu92rcd13ifvqi70","pricing_plan_id":"cebpf4jnsgd1na2vs0mg"},{"bike_id":"094cd202-b33e-4144-a039-2478fb81f740","system_id":"levelo_inurba_marseille","lat":43.25232,"lon":5.38079,"is_reserved":false,"is_disabled":false,"rental_uris":{"android":"levelo://app?vid=094cd202-b33e-4144-a039-2478fb81f740","ios":"levelo://app?vid=094cd202-b33e-4144-a039-2478fb81f740"},"vehicle_type_id":"4","last_reported":1768605079,"current_range_meters":9200,"station_id":"","pricing_plan_id":"cebpf4jnsgd1na2vs0mg"},{"bike_id":"afc89dfe-d073-418a-80ae-5c9d03e25273","system_id":"levelo_inurba_marseille","lat":43.29745,"lon":5.42776,"is_reserved":false,"is_disabled":false,"rental_uris":{"android":"levelo://app?vid=afc89dfe-d073-418a-80ae-5c9d03e25273","ios":"levelo://app?vid=afc89dfe-d073-418a-80ae-5c9d03e25273"},"vehicle_type_id":"4","last_reported":1768605079,"current_range_meters":9200,"station_id":"st_d3md5207bmas73dh9klg","pricing_plan_id":"cebpf4jnsgd1na2vs0mg"},{"bike_id":"f7b03bdc-a73c-4019-b7b1-ebd0a27bbf80","system_id":"levelo_inurba_marseille","lat":43.31174,"lon":5.38718,"is_reserved":false,"is_disabled":false,"rental_uris":{"android":"levelo://app?vid=f7b03bdc-a73c-4019-b7b1-ebd0a27bbf80","ios":"levelo://app?vid=f7b03bdc-a73c-4019-b7b1-ebd0a27bbf80"},"vehicle_type_id":"4","last_reported":1768605079,"current_range_meters":9200,"station_id":"ce4bgv12rcd13ifvqcp0","pricing_plan_id":"cebpf4jnsgd1na2vs0mg"},