{"last_updated":1682280387,"ttl":30,"version":"2.2","data":{"bikes":[{"bike_id":"d141a59b-5fe7-409e-9d1a-de80e79398ea","system_id":"levelo_inurba_marseille","lat":43.312239,"lon":5.368562,"is_reserved":false,"is_disabled":false,"rental_uris":{"android":"levelo://app?vid=d141a59b-5fe7-409e-9d1a-de80e79398ea","ios":"levelo://app?vid=d141a59b-5fe7-409e-9d1a-de80e79398ea"},"vehicle_type_id":"4","last_reported":1682280388,"current_range_meters":4800,"station_id":"ce4bgl92rcd13ifvqbq0","pricing_plan_id":"free"},{"bike_id":"dfc17724-7988-4521-b28f-d981fbb0e670","system_id":"levelo_inurba_marseille","lat":43.312239,"lon":5.368562,"is_reserved":false,"is_disabled":false,"rental_uris":{"android":"levelo://app?vid=dfc17724-7988-4521-b28f-d981fbb0e670","ios":"levelo://app?vid=dfc17724-7988-4521-b28f-d981fbb0e670"},"vehicle_type_id":"4","last_reported":1682280388,"current_range_meters":29200,"station_id":"ce4bgl92rcd13ifvqbq0","pricing_plan_id":"free"},{"bike_id":"221ae2a4-5c5f-4f13-aeed-7607af8bdc90","system_id":"levelo_inurba_marseille","lat":43.312239,"lon":5.368562,"is_reserved":false,"is_disabled":false,"rental_uris":{"android":"levelo://app?vid=221ae2a4-5c5f-4f13-aeed-7607af8bdc90","ios":"levelo://app?vid=221ae2a4-5c5f-4f13-aeed-7607af8bdc90"},"vehicle_type_id":"4","last_reported":1682280388,"current_range_meters":18800,"station_id":"ce4bgl92rcd13ifvqbq0","pricing_plan_id":"free"},{"bike_id":"cee35eac-1996-4eeb-a029-e5a14b2a57aa","system_id":"levelo_inurba_marseille","lat":43.312239,"lon":5.368562,"is_reserved":false,"is_disabled":false,"rental_uris":{"android":"levelo://app?vid=cee35eac-1996-4eeb-a029-e5a14b2a57aa","ios":"levelo://app?vid=cee35eac-1996-4eeb-a029-e5a14b2a57aa"},"vehicle_type_id":"4","last_reported":1682280388,"current_range_meters":4800,"station_id":"ce4bgl92rcd13ifvqbq0","pricing_plan_id":"free"},{"bike_id":"0ec5d79c-5c4b-4221-893b-4c8988991833","system_id":"levelo_inurba_marseille","lat":43.314811,"lon":5.373103,"is_reserved":false,"is_disabled":false,"rental_uris":{"android":"levelo://app?vid=0ec5d79c-5c4b-4221-893b-4c8988991833","ios":"levelo://app?vid=0ec5d79c-5c4b-4221-893b-4c8988991833"},"vehicle_type_id":"4","last_reported":1682280388,"current_range_meters":8800,"station_id":"ce4bgt12rcd13ifvqcd0","pricing_plan_id":"free"},{"bike_id":"c621fd1c-a3c4-469d-a9d1-83d03a9fc4d2","system_id":"levelo_inurba_marseille","lat":43.314811,"lon":5.373103,"is_reserved":false,"is_disabled":false,"rental_uris":{"android":"levelo://app?vid=c621fd1c-a3c4-469d-a9d1-83d03a9fc4d2","ios":"levelo://app?vid=c621fd1c-a3c4-469d-a9d1-83d03a9fc4d2"},"vehicle_type_id":"4","last_reported":1682280388,"current_range_meters":10400,"station_id":"ce4bgt12rcd13ifvqcd0","pricing_plan_id":"free"},{"bike_id":"10e4dc19-499c-4b4b-a2a5-5905b9ccd1be","system_id":"levelo_inurba_marseille","lat":43.30894,"lon":5.37198,"is_reserved":false,"is_disabled":false,"rental_uris":{"android":"levelo://app?vid=10e4dc19-499c-4b4b-a2a5-5905b9ccd1be","ios":"levelo://app?vid=10e4dc19-499c-4b4b-a2a5-5905b9ccd1be"},"vehicle_type_id":"4","last_reported":1682280388,"current_range_meters":400,"station_id":"","pricing_plan_id":"free"},{"bike_id":"f482a30f-1014-4a19-aa9d-88f129d6e2d7","system_id":"levelo_inurba_marseille","lat":43.3088,"lon":5.37179,"is_reserved":false,"is_disabled":false,"rental_uris":{"android":"levelo://app?vid=f482a30f-1014-4a19-aa9d-88f129d6e2d7","ios":"levelo://app?vid=f482a30f-1014-4a19-aa9d-88f129d6e2d7"},"vehicle_type_id":"4","last_reported":1682280388,"current_range_meters":4400,"station_id":"","pricing_plan_id":"free"},{"bike_id":"1e512537-7b13-4434-a05c-8375fa231630","system_id":"levelo_inurba_marseille","lat":43.305989,"lon":5.37225,"is_reserved":false,"is_disabled":false,"rental_uris":{"android":"levelo://app?vid=1e512537-7b13-4434-a05c-8375fa231630","ios":"levelo://app?vid=1e512537-7b13-4434-a05c-8375fa231630"},"vehicle_type_id":"4","last_reported":1682280388,"current_range_meters":22400,"station_id":"ce4bgqh2rcd13ifvqc4g","pricing_plan_id":"free"},{"bike_id":"228f2e14-4141-4b0a-8bbf-adeaaef3d95e","system_id":"levelo_inurba_marseille","lat":43.30601,"lon":5.37232,"is_reserved":false,"is_disabled":false,"rental_uris":{"android":"levelo://app?vid=228f2e14-4141-4b0a-8bbf-adeaaef3d95e","ios":"levelo://app?vid=228f2e14-4141-4b0a-8bbf-adeaaef3d95e"},"vehicle_type_id":"4","last_reported":1682280388,"current_range_meters":11200,"station_id":"ce4bgqh2rcd13ifvqc4g","pricing_plan_id":"free"},{"bike_id":"43960f69-ac72-48e9-b793-8979edbdf46e","system_id":"levelo_inurba_marseille","lat":43.305989,"lon":5.37225,"is_reserved":false,"is_disabled":false,"rental_uris":{"android":"levelo://app?vid=43960f69-ac72-48e9-b793-8979edbdf46e","ios":"levelo://app?vid=43960f69-ac72-48e9-b793-8979edbdf46e"},"vehicle_type_id":"4","last_reported":1682280388,"current_range_meters":15600,"station_id":"ce4bgqh2rcd13ifvqc4g","pricing_plan_id":"free"},{"bike_id":"07215309-8624-4f89-a1ed-e288a7e4ba8b","system_id":"levelo_inurba_marseille","lat":43.305989,"lon":5.37225,"is_reserved":false,"is_disabled":false,"rental_uris":{"android":"levelo://app?vid=07215309-8624-4f89-a1ed-e288a7e4ba8b","ios":"levelo://app?vid=07215309-8624-4f89-a1ed-e288a7e4ba8b"},"vehicle_type_id":"4","last_reported":1682280388,"current_range_meters":800,"station_id":"ce4bgqh2rcd13ifvqc4g","pricing_plan_id":"free"},{"bike_id":"2b79daac-d0bf-40c6-a531-e859df472f10","system_id":"levelo_inurba_marseille","lat":43.305989,"lon":5.37225,"is_reserved":false,"is_disabled":false,"rental_uris":{"android":"levelo://app?vid=2b79daac-d0bf-40c6-a531-e859df472f10","ios":"levelo://app?vid=2b79daac-d0bf-40c6-a531-e859df472f10"},"vehicle_type_id":"4","last_reported":1682280388,"current_range_meters":0,"station_id":"ce4bgqh2rcd13ifvqc4g","pricing_plan_id":"free"},{"bike_id":"79061dbd-584b-4804-b056-19eba552dc31","system_id":"levelo_inurba_marseille","lat":43.30689,"lon":5.37495,"is_reserved":false,"is_disabled":false,"rental_uris":{"android":"levelo://app?vid=79061dbd-584b-4804-b056-19eba552dc31","ios":"levelo://app?vid=79061dbd-584b-4804-b056-19eba552dc31"},"vehicle_type_id":"4","last_reported":1682280388,"current_range_meters":12400,"station_id":"","pricing_plan_id":"free"},{"bike_id":"2f48a665-3f9d-452b-b562-bd860730c185","system_id":"levelo_inurba_marseille","lat":43.317075,"lon":5.377367,"is_reserved":false,"is_disabled":false,"rental_uris":{"android":"levelo://app?vid=2f48a665-3f9d-452b-b562-bd860730c185","ios":"levelo://app?vid=2f48a665-3f9d-452b-b562-bd860730c185"},"vehicle_type_id":"4","last_reported":1682280388,"current_range_meters":6800,"station_id":"ce4bgth2rcd13ifvqch0","pricing_plan_id":"free"},{"bike_id":"06b512e6-4b77-4881-bf86-ec3d9279629b","system_id":"levelo_inurba_marseille","lat":43.317075,"lon":5.377367,"is_reserved":false,"is_disabled":false,"rental_uris":{"android":"levelo://app?vid=06b512e6-4b77-4881-bf86-ec3d9279629b","ios":"levelo://app?vid=06b512e6-4b77-4881-bf86-ec3d9279629b"},"vehicle_type_id":"4","last_reported":1682280388,"current_range_meters":28800,"station_id":"ce4bgth2rcd13ifvqch0","pricing_plan_id":"free"},{"bike_id":"3c4e6c8c-df65-4deb-8995-f8befa733260","system_id":"levelo_inurba_marseille","lat":43.31534,"lon":5.37884,"is_reserved":false,"is_disabled":false,"rental_uris":{"android":"levelo://app?vid=3c4e6c8c-df65-4deb-8995-f8befa733260","ios":"levelo://app?vid=3c4e6c8c-df65-4deb-8995-f8befa733260"},"vehicle_type_id":"4","last_reported":1682280388,"current_range_meters":4400,"station_id":"","pricing_plan_id":"free"},{"bike_id":"8abb0944-6c1e-41de-b471-bbf55d20a686","system_id":"levelo_inurba_marseille","lat":43.30323,"lon":5.36901,"is_reserved":false,"is_disabled":false,"rental_uris":{"android":"levelo://app?vid=8abb0944-6c1e-41de-b471-bbf55d20a686","ios":"levelo://app?vid=8abb0944-6c1e-41de-b471-bbf55d20a686"},"vehicle_type_id":"4","last_reported":1682280388,"current_range_meters":1200,"station_id":"","pricing_plan_id":"free"},{"bike_id":"13df8a12-d3a8-4124-85a2-ef43af6634db","system_id":"levelo_inurba_marseille","lat":43.315293,"lon":5.380349,"is_reserved":false,"is_disabled":false,"rental_uris":{"android":"levelo://app?vid=13df8a12-d3a8-4124-85a2-ef43af6634db","ios":"levelo://app?vid=13df8a12-d3a8-4124-85a2-ef43af6634db"},"vehicle_type_id":"4","last_reported":1682280388,"current_range_meters":30000,"station_id":"ce4bhsp2rcd13ifvqi50","pricing_plan_id":"free"},{"bike_id":"5ab42856-1e54-47ba-a7ae-ccc5b7ba04ea","system_id":"levelo_inurba_marseille","lat":43.315289,"lon":5.380349,"is_reserved":false,"is_disabled":false,"rental_uris":{"android":"levelo://app?vid=5ab42856-1e54-47ba-a7ae-ccc5b7ba04ea","ios":"levelo://app?vid=5ab42856-1e54-47ba-a7ae-ccc5b7ba04ea"},"vehicle_type_id":"4","last_reported":1682280388,"current_range_meters":12800,"station_id":"ce4bhsp2rcd13ifvqi50","pricing_plan_id":"free"},{"bike_id":"9a0e8003-7dc1-4653-9db3-6aea78fcdee8","system_id":"levelo_inurba_marseille","lat":43.308012,"lon":5.381511,"is_reserved":false,"is_disabled":false,"rental_uris":{"android":"levelo://app?vid=9a0e8003-7dc1-4653-9db3-6aea78fcdee8","ios":"levelo://app?vid=9a0e8003-7dc1-4653-9db3-6aea78fcdee8"},"vehicle_type_id":"4","last_reported":1682280388,"current_range_meters":0,"station_id":"ce4bgt12rcd13ifvqce0","pricing_plan_id":"free"},{"bike_id":"3228553f-64cf-46f3-af8f-587f641afb57","system_id":"levelo_inurba_marseille","lat":43.308012,"lon":5.381511,"is_reserved":false,"is_disabled":false,"rental_uris":{"android":"levelo://app?vid=3228553f-64cf-46f3-af8f-587f641afb57","ios":"levelo://app?vid=3228553f-64cf-46f3-af8f-587f641afb57"},"vehicle_type_id":"4","last_reported":1682280388,"current_range_meters":2000,"station_id":"ce4bgt12rcd13ifvqce0","pricing_plan_id":"free"},{"bike_id":"a1c6584f-ecf0-4dd5-96a1-f830022c2bdb","system_id":"levelo_inurba_marseille","lat":43.308012,"lon":5.381511,"is_reserved":false,"is_disabled":false,"rental_uris":{"android":"levelo://app?vid=a1c6584f-ecf0-4dd5-96a1-f830022c2bdb","ios":"levelo://app?vid=a1c6584f-ecf0-4dd5-96a1-f830022c2bdb"},"vehicle_type_id":"4","last_reported":1682280388,"current_range_meters":6800,"station_id":"ce4bgt12rcd13ifvqce0","pricing_plan_id":"free"},{"bike_id":"37faadc4-4c8c-4d0a-be23-d54af3b266c4","system_id":"levelo_inurba_marseille","lat":43.308012,"lon":5.381511,"is_reserved":false,"is_disabled":false,"rental_uris":{"android":"levelo://app?vid=37faadc4-4c8c-4d0a-be23-d54af3b266c4","ios":"levelo://app?vid=37faadc4-4c8c-4d0a-be23-d54af3b266c4"},"vehicle_type_id":"4","last_reported":1682280388,"current_range_meters":6000,"station_id":"ce4bgt12rcd13ifvqce0","pricing_plan_id":"free"},{"bike_id":"fbb6c64a-8d74-403e-9c9b-0e962d26cfe6","system_id":"levelo_inurba_marseille","lat":43.308012,"lon":5.381511,"is_reserved":false,"is_disabled":false,"rental_uris":{"android":"levelo://app?vid=fbb6c64a-8d74-403e-9c9b-0e962d26cfe6","ios":"levelo://app?vid=fbb6c64a-8d74-403e-9c9b-0e962d26cfe6"},"vehicle_type_id":"4","last_reported":1682280388,"current_range_meters":1600,"station_id":"ce4bgt12rcd13ifvqce0","pricing_plan_id":"free"},{"bike_id":"aa53ddb5-28e6-45a7-9ea4-83e53dfea4c0","system_id":"levelo_inurba_marseille","lat":43.30145,"lon":5.37418,"is_reserved":false,"is_disabled":false,"rental_uris":{"android":"levelo://app?vid=aa53ddb5-28e6-45a7-9ea4-83e53dfea4c0","ios":"levelo://app?vid=aa53ddb5-28e6-45a7-9ea4-83e53dfea4c0"},"vehicle_type_id":"4","last_reported":1682280388,"current_range_meters":0,"station_id":"ce4bgs92rcd13ifvqcc0","pricing_plan_id":"free"},{"bike_id":"84b46d76-4872-49e4-b816-f64ef6262391","system_id":"levelo_inurba_marseille","lat":43.30143,"lon":5.37416,"is_reserved":false,"is_disabled":false,"rental_uris":{"android":"levelo://app?vid=84b46d76-4872-49e4-b816-f64ef6262391","ios":"levelo://app?vid=84b46d76-4872-49e4-b816-f64ef6262391"},"vehicle_type_id":"4","last_reported":1682280388,"current_range_meters":400,"station_id":"ce4bgs92rcd13ifvqcc0","pricing_plan_id":"free"},{"bike_id":"364a9d37-3d86-435e-9e98-bb70edc35fbd","system_id":"levelo_inurba_marseille","lat":43.30143,"lon":5.37413,"is_reserved":false,"is_disabled":false,"rental_uris":{"android":"levelo://app?vid=364a9d37-3d86-435e-9e98-bb70edc35fbd","ios":"levelo://app?vid=364a9d37-3d86-435e-9e98-bb70edc35fbd"},"vehicle_type_id":"4","last_reported":1682280388,"current_range_meters":5200,"station_id":"ce4bgs92rcd13ifvqcc0","pricing_plan_id":"free"},{"bike_id":"0794ebcf-31e8-43cb-8b9a-a9d0c181bedd","system_id":"levelo_inurba_marseille","lat":43.301435,"lon":5.374197,"is_reserved":false,"is_disabled":false,"rental_uris":{"android":"levelo://app?vid=0794ebcf-31e8-43cb-8b9a-a9d0c181bedd","ios":"levelo://app?vid=0794ebcf-31e8-43cb-8b9a-a9d0c181bedd"},"vehicle_type_id":"4","last_reported":1682280388,"current_range_meters":0,"station_id":"","pricing_plan_id":"free"},{"bike_id":"09eaf7cd-3496-430a-8525-ffefd041517f","system_id":"levelo_inurba_marseille","lat":43.313571,"lon":5.384829,"is_reserved":false,"is_disabled":false,"rental_uris":{"android":"levelo://app?vid=09eaf7cd-3496-430a-8525-ffefd041517f","ios":"levelo://app?vid=09eaf7cd-3496-430a-8525-ffefd041517f"},"vehicle_type_id":"4","last_reported":1682280388,"current_range_meters":10400,"station_id":"ce4bgt92rcd13ifvqcf0","pricing_plan_id":"free"},{"bike_id":"35613c1b-14cc-47b1-8533-ed477e469b1a","system_id":"levelo_inurba_marseille","lat":43.313571,"lon":5.384829,"is_reserved":false,"is_disabled":false,"rental_uris":{"android":"levelo://app?vid=35613c1b-14cc-47b1-8533-ed477e469b1a","ios":"levelo://app?vid=35613c1b-14cc-47b1-8533-ed477e469b1a"},"vehicle_type_id":"4","last_reported":1682280388,"current_range_meters":5200,"station_id":"ce4bgt92rcd13ifvqcf0","pricing_plan_id":"free"},{"bike_id":"5b51235e-27fd-40b2-9c2f-179d373cce88","system_id":"levelo_inurba_marseille","lat":43.313571,"lon":5.384829,"is_reserved":false,"is_disabled":false,"rental_uris":{"android":"levelo://app?vid=5b51235e-27fd-40b2-9c2f-179d373cce88","ios":"levelo://app?vid=5b51235e-27fd-40b2-9c2f-179d373cce88"},"vehicle_type_id":"4","last_reported":1682280388,"current_range_meters":2400,"station_id":"ce4bgt92rcd13ifvqcf0","pricing_plan_id":"free"},{"bike_id":"c0909550-2871-42ee-8c1e-a48b5e8e6567","system_id":"levelo_inurba_marseille","lat":43.313571,"lon":5.384829,"is_reserved":false,"is_disabled":false,"rental_uris":{"android":"levelo://app?vid=c0909550-2871-42ee-8c1e-a48b5e8e6567","ios":"levelo://app?vid=c0909550-2871-42ee-8c1e-a48b5e8e6567"},"vehicle_type_id":"4","last_reported":1682280388,"current_range_meters":20800,"station_id":"ce4bgt92rcd13ifvqcf0","pricing_plan_id":"free"},{"bike_id":"390b5246-a58b-479a-8e59-a14c72058d2e","system_id":"levelo_inurba_marseille","lat":43.299222,"lon":5.365554,"is_reserved":false,"is_disabled":false,"rental_uris":{"android":"levelo://app?vid=390b5246-a58b-479a-8e59-a14c72058d2e","ios":"levelo://app?vid=390b5246-a58b-479a-8e59-a14c72058d2e"},"vehicle_type_id":"4","last_reported":1682280388,"current_range_meters":22000,"station_id":"ce4bgm92rcd13ifvqbr0","pricing_plan_id":"free"},{"bike_id":"b9cbdd17-be0f-47e6-9fca-3c4a997ffebb","system_id":"levelo_inurba_marseille","lat":43.298433,"lon":5.362774,"is_reserved":false,"is_disabled":false,"rental_uris":{"android":"levelo://app?vid=b9cbdd17-be0f-47e6-9fca-3c4a997ffebb","ios":"levelo://app?vid=b9cbdd17-be0f-47e6-9fca-3c4a997ffebb"},"vehicle_type_id":"4","last_reported":1682280388,"current_range_meters":6400,"station_id":"ce4bgpp2rcd13ifvqc3g","pricing_plan_id":"free"},{"bike_id":"595c764b-6264-4c21-956c-75f85e9bcafa","system_id":"levelo_inurba_marseille","lat":43.305364,"lon":5.384119,"is_reserved":false,"is_disabled":false,"rental_uris":{"android":"levelo://app?vid=595c764b-6264-4c21-956c-75f85e9bcafa","ios":"levelo://app?vid=595c764b-6264-4c21-956c-75f85e9bcafa"},"vehicle_type_id":"4","last_reported":1682280388,"current_range_meters":0,"station_id":"ce4bgg92rcd13ifvqb30","pricing_plan_id":"free"},{"bike_id":"2dc13bbe-96ab-4e03-9f79-5dbf5504cf37","system_id":"levelo_inurba_marseille","lat":43.299243,"lon":5.374807,"is_reserved":false,"is_disabled":false,"rental_uris":{"android":"levelo://app?vid=2dc13bbe-96ab-4e03-9f79-5dbf5504cf37","ios":"levelo://app?vid=2dc13bbe-96ab-4e03-9f79-5dbf5504cf37"},"vehicle_type_id":"4","last_reported":1682280388,"current_range_meters":7600,"station_id":"ce4bgjh2rcd13ifvqbg0","pricing_plan_id":"free"},{"bike_id":"36a7e01d-5d43-4e46-83d1-0822a4ddfd0e","system_id":"levelo_inurba_marseille","lat":43.29918,"lon":5.37464,"is_reserved":false,"is_disabled":false,"rental_uris":{"android":"levelo://app?vid=36a7e01d-5d43-4e46-83d1-0822a4ddfd0e","ios":"levelo://app?vid=36a7e01d-5d43-4e46-83d1-0822a4ddfd0e"},"vehicle_type_id":"4","last_reported":1682280388,"current_range_meters":6400,"station_id":"ce4bgjh2rcd13ifvqbg0","pricing_plan_id":"free"},{"bike_id":"db44a82d-b1e8-4429-be69-28fa4fb07902","system_id":"levelo_inurba_marseille","lat":43.311722,"lon":5.387247,"is_reserved":false,"is_disabled":false,"rental_uris":{"android":"levelo://app?vid=db44a82d-b1e8-4429-be69-28fa4fb07902","ios":"levelo://app?vid=db44a82d-b1e8-4429-be69-28fa4fb07902"},"vehicle_type_id":"4","last_reported":1682280388,"current_range_meters":19200,"station_id":"ce4bgv12rcd13ifvqcp0","pricing_plan_id":"free"},{"bike_id":"e85d0363-cd15-411b-856e-6eca3906b910","system_id":"levelo_inurba_marseille","lat":43.311722,"lon":5.387247,"is_reserved":false,"is_disabled":false,"rental_uris":{"android":"levelo://app?vid=e85d0363-cd15-411b-856e-6eca3906b910","ios":"levelo://app?vid=e85d0363-cd15-411b-856e-6eca3906b910"},"vehicle_type_id":"4","last_reported":1682280388,"current_range_meters":18400,"station_id":"ce4bgv12rcd13ifvqcp0","pricing_plan_id":"free"},{"bike_id":"b37b3ac3-fd3c-4113-af67-add648dc9b23","system_id":"levelo_inurba_marseille","lat":43.311722,"lon":5.387247,"is_reserved":false,"is_disabled":false,"rental_uris":{"android":"levelo://app?vid=b37b3ac3-fd3c-4113-af67-add648dc9b23","ios":"levelo://app?vid=b37b3ac3-fd3c-4113-af67-add648dc9b23"},"vehicle_type_id":"4","last_reported":1682280388,"current_range_meters":24800,"station_id":"ce4bgv12rcd13ifvqcp0","pricing_plan_id":"free"},{"bike_id":"0bf7717f-ff36-46cc-892e-5cc22bfded4c","system_id":"levelo_inurba_marseille","lat":43.311722,"lon":5.387247,"is_reserved":false,"is_disabled":false,"rental_uris":{"android":"levelo://app?vid=0bf7717f-ff36-46cc-892e-5cc22bfded4c","ios":"levelo://app?vid=0bf7717f-ff36-46cc-892e-5cc22bfded4c"},"vehicle_type_id":"4","last_reported":1682280388,"current_range_meters":14000,"station_id":"ce4bgv12rcd13ifvqcp0","pricing_plan_id":"free"},{"bike_id":"b11c52bb-e634-4bb8-8f12-beaaab032aa8","system_id":"levelo_inurba_marseille","lat":43.297774,"lon":5.370875,"is_reserved":false,"is_disabled":false,"rental_uris":{"android":"levelo://app?vid=b11c52bb-e634-4bb8-8f12-beaaab032aa8","ios":"levelo://app?vid=b11c52bb-e634-4bb8-8f12-beaaab032aa8"},"vehicle_type_id":"4","last_reported":1682280388,"current_range_meters":16800,"station_id":"ce4bgop2rcd13ifvqc1g","pricing_plan_id":"free"},{"bike_id":"06165b73-0659-444e-b5d1-fdaee1a6da70","system_id":"levelo_inurba_marseille","lat":43.328371,"lon":5.366912,"is_reserved":false,"is_disabled":false,"rental_uris":{"android":"levelo://app?vid=06165b73-0659-444e-b5d1-fdaee1a6da70","ios":"levelo://app?vid=06165b73-0659-444e-b5d1-fdaee1a6da70"},"vehicle_type_id":"4","last_reported":1682280388,"current_range_meters":28800,"station_id":"ce4bhs92rcd13ifvqi0g","pricing_plan_id":"free"},{"bike_id":"3715c281-72cb-4c63-8c26-a01371a29b03","system_id":"levelo_inurba_marseille","lat":43.328371,"lon":5.366912,"is_reserved":false,"is_disabled":false,"rental_uris":{"android":"levelo://app?vid=3715c281-72cb-4c63-8c26-a01371a29b03","ios":"levelo://app?vid=3715c281-72cb-4c63-8c26-a01371a29b03"},"vehicle_type_id":"4","last_reported":1682280388,"current_range_meters":800,"station_id":"ce4bhs92rcd13ifvqi0g","pricing_plan_id":"free"},{"bike_id":"e6eb28d4-8f9f-49c3-ad12-5b297fc34b1f","system_id":"levelo_inurba_marseille","lat":43.328371,"lon":5.366909,"is_reserved":false,"is_disabled":false,"rental_uris":{"android":"levelo://app?vid=e6eb28d4-8f9f-49c3-ad12-5b297fc34b1f","ios":"levelo://app?vid=e6eb28d4-8f9f-49c3-ad12-5b297fc34b1f"},"vehicle_type_id":"4","last_reported":1682280388,"current_range_meters":23600,"station_id":"ce4bhs92rcd13ifvqi0g","pricing_plan_id":"free"},{"bike_id":"bb095569-7c3f-435a-af11-3d18055547f4","system_id":"levelo_inurba_marseille","lat":43.328371,"lon":5.366912,"is_reserved":false,"is_disabled":false,"rental_uris":{"android":"levelo://app?vid=bb095569-7c3f-435a-af11-3d18055547f4","ios":"levelo://app?vid=bb095569-7c3f-435a-af11-3d18055547f4"},"vehicle_type_id":"4","last_reported":1682280388,"current_range_meters":27600,"station_id":"ce4bhs92rcd13ifvqi0g","pricing_plan_id":"free"},{"bike_id":"a07b6f04-6ed4-41f2-b90a-863cc4ca5121","system_id":"levelo_inurba_marseille","lat":43.328371,"lon":5.366912,"is_reserved":false,"is_disabled":false,"rental_uris":{"android":"levelo://app?vid=a07b6f04-6ed4-41f2-b90a-863cc4ca5121","ios":"levelo://app?vid=a07b6f04-6ed4-41f2-b90a-863cc4ca5121"},"vehicle_type_id":"4","last_reported":1682280388,"current_range_meters":29600,"station_id":"ce4bhs92rcd13ifvqi0g","pricing_plan_id":"free"},{"bike_id":"6eefb3ec-87e5-418f-8757-2069de526952","system_id":"levelo_inurba_marseille","lat":43.32832,"lon":5.36679,"is_reserved":false,"is_disabled":false,"rental_uris":{"android":"levelo://app?vid=6eefb3ec-87e5-418f-8757-2069de526952","ios":"levelo://app?vid=6eefb3ec-87e5-418f-8757-2069de526952"},"vehicle_type_id":"4","last_reported":1682280388,"current_range_meters":28000,"station_id":"ce4bhs92rcd13ifvqi0g","pricing_plan_id":"free"},{"bike_id":"443068c7-0b4a-4c18-863a-1b1da1ea4156","system_id":"levelo_inurba_marseille","lat":43.32833,"lon":5.3668,"is_reserved":false,"is_disabled":false,"rental_uris":{"android":"levelo://app?vid=443068c7-0b4a-4c18-863a-1b1da1ea4156","ios":"levelo://app?vid=443068c7-0b4a-4c18-863a-1b1da1ea4156"},"vehicle_type_id":"4","last_reported":1682280388,"current_range_meters":24400,"station_id":"ce4bhs92rcd13ifvqi0g","pricing_plan_id":"free"},{"bike_id":"81b4e9fe-31e2-4a91-9e50-52f1853587cc","system_id":"levelo_inurba_marseille","lat":43.328371,"lon":5.366912,"is_reserved":false,"is_disabled":false,"rental_uris":{"android":"levelo://app?vid=81b4e9fe-31e2-4a91-9e50-52f1853587cc","ios":"levelo://app?vid=81b4e9fe-31e2-4a91-9e50-52f1853587cc"},"vehicle_type_id":"4","last_reported":1682280388,"current_range_meters":8000,"station_id":"ce4bhs92rcd13ifvqi0g","pricing_plan_id":"free"},{"bike_id":"62125dd7-01b6-4b47-9996-086499457a1d","system_id":"levelo_inurba_marseille","lat":43.32834,"lon":5.36676,"is_reserved":false,"is_disabled":false,"rental_uris":{"android":"levelo://app?vid=62125dd7-01b6-4b47-9996-086499457a1d","ios":"levelo://app?vid=62125dd7-01b6-4b47-9996-086499457a1d"},"vehicle_type_id":"4","last_reported":1682280388,"current_range_meters":28400,"station_id":"ce4bhs92rcd13ifvqi0g","pricing_plan_id":"free"},{"bike_id":"77a15084-c151-4d9e-8db8-4eb1a02ee92f","system_id":"levelo_inurba_marseille","lat":43.32836,"lon":5.36685,"is_reserved":false,"is_disabled":false,"rental_uris":{"android":"levelo://app?vid=77a15084-c151-4d9e-8db8-4eb1a02ee92f","ios":"levelo://app?vid=77a15084-c151-4d9e-8db8-4eb1a02ee92f"},"vehicle_type_id":"4","last_reported":1682280388,"current_range_meters":23600,"station_id":"ce4bhs92rcd13ifvqi0g","pricing_plan_id":"free"},{"bike_id":"70fbabac-c38a-4ae0-ba9c-7d92375d184b","system_id":"levelo_inurba_marseille","lat":43.32836,"lon":5.36683,"is_reserved":false,"is_disabled":false,"rental_uris":{"android":"levelo://app?vid=70fbabac-c38a-4ae0-ba9c-7d92375d184b","ios":"levelo://app?vid=70fbabac-c38a-4ae0-ba9c-7d92375d184b"},"vehicle_type_id":"4","last_reported":1682280388,"current_range_meters":28000,"station_id":"ce4bhs92rcd13ifvqi0g","pricing_plan_id":"free"},{"bike_id":"02029b27-c00e-47de-bbdd-ff110cce3b77","system_id":"levelo_inurba_marseille","lat":43.32838,"lon":5.36692,"is_reserved":false,"is_disabled":false,"rental_uris":{"android":"levelo://app?vid=02029b27-c00e-47de-bbdd-ff110cce3b77","ios":"levelo://app?vid=02029b27-c00e-47de-bbdd-ff110cce3b77"},"vehicle_type_id":"4","last_reported":1682280388,"current_range_meters":12800,"station_id":"ce4bhs92rcd13ifvqi0g","pricing_plan_id":"free"},{"bike_id":"efcf4a18-406e-4422-b55f-8365cff7eb6e","system_id":"levelo_inurba_marseille","lat":43.31614,"lon":5.38947,"is_reserved":false,"is_disabled":false,"rental_uris":{"android":"levelo://app?vid=efcf4a18-406e-4422-b55f-8365cff7eb6e","ios":"levelo://app?vid=efcf4a18-406e-4422-b55f-8365cff7eb6e"},"vehicle_type_id":"4","last_reported":1682280388,"current_range_meters":15600,"station_id":"","pricing_plan_id":"free"},{"bike_id":"e87719d2-9981-4ac6-9269-8a69dabdf355","system_id":"levelo_inurba_marseille","lat":43.29573,"lon":5.367355,"is_reserved":false,"is_disabled":false,"rental_uris":{"android":"levelo://app?vid=e87719d2-9981-4ac6-9269-8a69dabdf355","ios":"levelo://app?vid=e87719d2-9981-4ac6-9269-8a69dabdf355"},"vehicle_type_id":"4","last_reported":1682280388,"current_range_meters":400,"station_id":"ce4bgph2rcd13ifvqc2g","pricing_plan_id":"free"},{"bike_id":"2cb1d6ce-691d-4227-ad1e-1f251b1a463b","system_id":"levelo_inurba_marseille","lat":43.296935,"lon":5.376544,"is_reserved":false,"is_disabled":false,"rental_uris":{"android":"levelo://app?vid=2cb1d6ce-691d-4227-ad1e-1f251b1a463b","ios":"levelo://app?vid=2cb1d6ce-691d-4227-ad1e-1f251b1a463b"},"vehicle_type_id":"4","last_reported":1682280388,"current_range_meters":1200,"station_id":"ce4bgkh2rcd13ifvqbl0","pricing_plan_id":"free"},{"bike_id":"eac02701-a54b-4c2e-aa57-bd4f77fc588b","system_id":"levelo_inurba_marseille","lat":43.309589,"lon":5.390258,"is_reserved":false,"is_disabled":false,"rental_uris":{"android":"levelo://app?vid=eac02701-a54b-4c2e-aa57-bd4f77fc588b","ios":"levelo://app?vid=eac02701-a54b-4c2e-aa57-bd4f77fc588b"},"vehicle_type_id":"4","last_reported":1682280388,"current_range_meters":12000,"station_id":"ce4bgup2rcd13ifvqco0","pricing_plan_id":"free"},{"bike_id":"c6a2fb78-241b-41eb-bff5-3dc5a3c4e6f1","system_id":"levelo_inurba_marseille","lat":43.317557,"lon":5.390173,"is_reserved":false,"is_disabled":false,"rental_uris":{"android":"levelo://app?vid=c6a2fb78-241b-41eb-bff5-3dc5a3c4e6f1","ios":"levelo://app?vid=c6a2fb78-241b-41eb-bff5-3dc5a3c4e6f1"},"vehicle_type_id":"4","last_reported":1682280388,"current_range_meters":0,"station_id":"ce4bhqp2rcd13ifvqhng","pricing_plan_id":"free"},{"bike_id":"5c684f95-c920-4f69-b722-3b1673483d85","system_id":"levelo_inurba_marseille","lat":43.317557,"lon":5.390173,"is_reserved":false,"is_disabled":false,"rental_uris":{"android":"levelo://app?vid=5c684f95-c920-4f69-b722-3b1673483d85","ios":"levelo://app?vid=5c684f95-c920-4f69-b722-3b1673483d85"},"vehicle_type_id":"4","last_reported":1682280388,"current_range_meters":24800,"station_id":"ce4bhqp2rcd13ifvqhng","pricing_plan_id":"free"},{"bike_id":"b781f99a-d03b-4f88-9b2e-0b69847c979f","system_id":"levelo_inurba_marseille","lat":43.304278,"lon":5.388868,"is_reserved":false,"is_disabled":false,"rental_uris":{"android":"levelo://app?vid=b781f99a-d03b-4f88-9b2e-0b69847c979f","ios":"levelo://app?vid=b781f99a-d03b-4f88-9b2e-0b69847c979f"},"vehicle_type_id":"4","last_reported":1682280388,"current_range_meters":12000,"station_id":"ce4bgk12rcd13ifvqbi0","pricing_plan_id":"free"},{"bike_id":"c3368182-b6bf-4d5a-8955-c5ae159bf20c","system_id":"levelo_inurba_marseille","lat":43.304278,"lon":5.388868,"is_reserved":false,"is_disabled":false,"rental_uris":{"android":"levelo://app?vid=c3368182-b6bf-4d5a-8955-c5ae159bf20c","ios":"levelo://app?vid=c3368182-b6bf-4d5a-8955-c5ae159bf20c"},"vehicle_type_id":"4","last_reported":1682280388,"current_range_meters":22800,"station_id":"ce4bgk12rcd13ifvqbi0","pricing_plan_id":"free"},{"bike_id":"ad0f4b19-68f5-4f12-b8c9-c5a81035cf81","system_id":"levelo_inurba_marseille","lat":43.304278,"lon":5.388868,"is_reserved":false,"is_disabled":false,"rental_uris":{"android":"levelo://app?vid=ad0f4b19-68f5-4f12-b8c9-c5a81035cf81","ios":"levelo://app?vid=ad0f4b19-68f5-4f12-b8c9-c5a81035cf81"},"vehicle_type_id":"4","last_reported":1682280388,"current_range_meters":2800,"station_id":"ce4bgk12rcd13ifvqbi0","pricing_plan_id":"free"},{"bike_id":"79b4b2b8-35da-4634-8a09-c664eac99293","system_id":"levelo_inurba_marseille","lat":43.295748,"lon":5.37522,"is_reserved":false,"is_disabled":false,"rental_uris":{"android":"levelo://app?vid=79b4b2b8-35da-4634-8a09-c664eac99293","ios":"levelo://app?vid=79b4b2b8-35da-4634-8a09-c664eac99293"},"vehicle_type_id":"4","last_reported":1682280388,"current_range_meters":0,"station_id":"ce4bgh92rcd13ifvqb50","pricing_plan_id":"free"},{"bike_id":"6a6a64da-c1b7-4937-a348-099dfd4e5d41","system_id":"levelo_inurba_marseille","lat":43.304278,"lon":5.388868,"is_reserved":false,"is_disabled":false,"rental_uris":{"android":"levelo://app?vid=6a6a64da-c1b7-4937-a348-099dfd4e5d41","ios":"levelo://app?vid=6a6a64da-c1b7-4937-a348-099dfd4e5d41"},"vehicle_type_id":"4","last_reported":1682280388,"current_range_meters":0,"station_id":"ce4bgk12rcd13ifvqbi0","pricing_plan_id":"free"},{"bike_id":"7fefebfc-1acf-43f6-bd8f-2752c24ef8f2","system_id":"levelo_inurba_marseille","lat":43.299707,"lon":5.384859,"is_reserved":false,"is_disabled":false,"rental_uris":{"android":"levelo://app?vid=7fefebfc-1acf-43f6-bd8f-2752c24ef8f2","ios":"levelo://app?vid=7fefebfc-1acf-43f6-bd8f-2752c24ef8f2"},"vehicle_type_id":"4","last_reported":1682280388,"current_range_meters":20000,"station_id":"ce4bgj92rcd13ifvqbd0","pricing_plan_id":"free"},{"bike_id":"5cb0961e-415f-4781-827d-248c7a414021","system_id":"levelo_inurba_marseille","lat":43.299707,"lon":5.384859,"is_reserved":false,"is_disabled":false,"rental_uris":{"android":"levelo://app?vid=5cb0961e-415f-4781-827d-248c7a414021","ios":"levelo://app?vid=5cb0961e-415f-4781-827d-248c7a414021"},"vehicle_type_id":"4","last_reported":1682280388,"current_range_meters":5600,"station_id":"ce4bgj92rcd13ifvqbd0","pricing_plan_id":"free"},{"bike_id":"43f3dc22-125a-4198-93c6-2078241fc7aa","system_id":"levelo_inurba_marseille","lat":43.299707,"lon":5.384859,"is_reserved":false,"is_disabled":false,"rental_uris":{"android":"levelo://app?vid=43f3dc22-125a-4198-93c6-2078241fc7aa","ios":"levelo://app?vid=43f3dc22-125a-4198-93c6-2078241fc7aa"},"vehicle_type_id":"4","last_reported":1682280388,"current_range_meters":12800,"station_id":"ce4bgj92rcd13ifvqbd0","pricing_plan_id":"free"},{"bike_id":"9718b86b-b2ec-4d02-bd84-2ee3e1c60815","system_id":"levelo_inurba_marseille","lat":43.29978,"lon":5.38503,"is_reserved":false,"is_disabled":false,"rental_uris":{"android":"levelo://app?vid=9718b86b-b2ec-4d02-bd84-2ee3e1c60815","ios":"levelo://app?vid=9718b86b-b2ec-4d02-bd84-2ee3e1c60815"},"vehicle_type_id":"4","last_reported":1682280388,"current_range_meters":12000,"station_id":"ce4bgj92rcd13ifvqbd0","pricing_plan_id":"free"},{"bike_id":"2e0aef33-abb9-4c39-b4fc-c9b9b602a0a5","system_id":"levelo_inurba_marseille","lat":43.29966,"lon":5.38492,"is_reserved":false,"is_disabled":false,"rental_uris":{"android":"levelo://app?vid=2e0aef33-abb9-4c39-b4fc-c9b9b602a0a5","ios":"levelo://app?vid=2e0aef33-abb9-4c39-b4fc-c9b9b602a0a5"},"vehicle_type_id":"4","last_reported":1682280388,"current_range_meters":1200,"station_id":"ce4bgj92rcd13ifvqbd0","pricing_plan_id":"free"},{"bike_id":"ad2acf21-733a-47d9-bf0a-62b6b78946a1","system_id":"levelo_inurba_marseille","lat":43.2997,"lon":5.38498,"is_reserved":false,"is_disabled":false,"rental_uris":{"android":"levelo://app?vid=ad2acf21-733a-47d9-bf0a-62b6b78946a1","ios":"levelo://app?vid=ad2acf21-733a-47d9-bf0a-62b6b78946a1"},"vehicle_type_id":"4","last_reported":1682280388,"current_range_meters":20000,"station_id":"ce4bgj92rcd13ifvqbd0","pricing_plan_id":"free"},{"bike_id":"dbaeb274-9e9f-4f71-a6b7-473858e7e5b0","system_id":"levelo_inurba_marseille","lat":43.299724,"lon":5.384848,"is_reserved":false,"is_disabled":false,"rental_uris":{"android":"levelo://app?vid=dbaeb274-9e9f-4f71-a6b7-473858e7e5b0","ios":"levelo://app?vid=dbaeb274-9e9f-4f71-a6b7-473858e7e5b0"},"vehicle_type_id":"4","last_reported":1682280388,"current_range_meters":31200,"station_id":"ce4bgj92rcd13ifvqbd0","pricing_plan_id":"free"},{"bike_id":"3fffbb19-1b52-46a7-8929-3ebdabec96a3","system_id":"levelo_inurba_marseille","lat":43.29602,"lon":5.381084,"is_reserved":false,"is_disabled":false,"rental_uris":{"android":"levelo://app?vid=3fffbb19-1b52-46a7-8929-3ebdabec96a3","ios":"levelo://app?vid=3fffbb19-1b52-46a7-8929-3ebdabec96a3"},"vehicle_type_id":"4","last_reported":1682280388,"current_range_meters":16800,"station_id":"ce4bgl12rcd13ifvqbo0","pricing_plan_id":"free"},{"bike_id":"1e92d7a7-1a5b-4a49-b86e-aeec39f28518","system_id":"levelo_inurba_marseille","lat":43.29313,"lon":5.37186,"is_reserved":false,"is_disabled":false,"rental_uris":{"android":"levelo://app?vid=1e92d7a7-1a5b-4a49-b86e-aeec39f28518","ios":"levelo://app?vid=1e92d7a7-1a5b-4a49-b86e-aeec39f28518"},"vehicle_type_id":"4","last_reported":1682280388,"current_range_meters":0,"station_id":"ce4bgh92rcd13ifvqb40","pricing_plan_id":"free"},{"bike_id":"1974a153-b0c9-4bce-bd65-63e885d36aaf","system_id":"levelo_inurba_marseille","lat":43.293249,"lon":5.371578,"is_reserved":false,"is_disabled":false,"rental_uris":{"android":"levelo://app?vid=1974a153-b0c9-4bce-bd65-63e885d36aaf","ios":"levelo://app?vid=1974a153-b0c9-4bce-bd65-63e885d36aaf"},"vehicle_type_id":"4","last_reported":1682280388,"current_range_meters":24400,"station_id":"ce4bgh92rcd13ifvqb40","pricing_plan_id":"free"},{"bike_id":"515825b9-54e1-4f9e-88dc-c02bbc1d8ac0","system_id":"levelo_inurba_marseille","lat":43.29309,"lon":5.37177,"is_reserved":false,"is_disabled":false,"rental_uris":{"android":"levelo://app?vid=515825b9-54e1-4f9e-88dc-c02bbc1d8ac0","ios":"levelo://app?vid=515825b9-54e1-4f9e-88dc-c02bbc1d8ac0"},"vehicle_type_id":"4","last_reported":1682280388,"current_range_meters":2000,"station_id":"ce4bgh92rcd13ifvqb40","pricing_plan_id":"free"},{"bike_id":"21a01657-76f3-4453-9074-6a91cd9918c5","system_id":"levelo_inurba_marseille","lat":43.29308,"lon":5.37171,"is_reserved":false,"is_disabled":false,"rental_uris":{"android":"levelo://app?vid=21a01657-76f3-4453-9074-6a91cd9918c5","ios":"levelo://app?vid=21a01657-76f3-4453-9074-6a91cd9918c5"},"vehicle_type_id":"4","last_reported":1682280388,"current_range_meters":11600,"station_id":"ce4bgh92rcd13ifvqb40","pricing_plan_id":"free"},{"bike_id":"eba62ca6-e0c5-4a75-90a0-bdf21f0f8797","system_id":"levelo_inurba_marseille","lat":43.29308,"lon":5.37175,"is_reserved":false,"is_disabled":false,"rental_uris":{"android":"levelo://app?vid=eba62ca6-e0c5-4a75-90a0-bdf21f0f8797","ios":"levelo://app?vid=eba62ca6-e0c5-4a75-90a0-bdf21f0f8797"},"vehicle_type_id":"4","last_reported":1682280388,"current_range_meters":1600,"station_id":"ce4bgh92rcd13ifvqb40","pricing_plan_id":"free"},{"bike_id":"3b97e0a3-36ed-4719-b5a3-18fe71d967e0","system_id":"levelo_inurba_marseille","lat":43.29308,"lon":5.37176,"is_reserved":false,"is_disabled":false,"rental_uris":{"android":"levelo://app?vid=3b97e0a3-36ed-4719-b5a3-18fe71d967e0","ios":"levelo://app?vid=3b97e0a3-36ed-4719-b5a3-18fe71d967e0"},"vehicle_type_id":"4","last_reported":1682280388,"current_range_meters":5600,"station_id":"ce4bgh92rcd13ifvqb40","pricing_plan_id":"free"},{"bike_id":"b6f8e362-5719-4bc1-88fa-8d205e889f10","system_id":"levelo_inurba_marseille","lat":43.29308,"lon":5.37188,"is_reserved":false,"is_disabled":false,"rental_uris":{"android":"levelo://app?vid=b6f8e362-5719-4bc1-88fa-8d205e889f10","ios":"levelo://app?vid=b6f8e362-5719-4bc1-88fa-8d205e889f10"},"vehicle_type_id":"4","last_reported":1682280388,"current_range_meters":10000,"station_id":"","pricing_plan_id":"free"},{"bike_id":"85eef6c4-0060-4d91-984c-3b7566d927d7","system_id":"levelo_inurba_marseille","lat":43.29307,"lon":5.37186,"is_reserved":false,"is_disabled":false,"rental_uris":{"android":"levelo://app?vid=85eef6c4-0060-4d91-984c-3b7566d927d7","ios":"levelo://app?vid=85eef6c4-0060-4d91-984c-3b7566d927d7"},"vehicle_type_id":"4","last_reported":1682280388,"current_range_meters":12000,"station_id":"","pricing_plan_id":"free"},{"bike_id":"87cd5e90-fffc-4188-9a90-bc9ff3eb401f","system_id":"levelo_inurba_marseille","lat":43.29305,"lon":5.37175,"is_reserved":false,"is_disabled":false,"rental_uris":{"android":"levelo://app?vid=87cd5e90-fffc-4188-9a90-bc9ff3eb401f","ios":"levelo://app?vid=87cd5e90-fffc-4188-9a90-bc9ff3eb401f"},"vehicle_type_id":"4","last_reported":1682280388,"current_range_meters":0,"station_id":"ce4bgh92rcd13ifvqb40","pricing_plan_id":"free"},{"bike_id":"463fcf28-fe15-4660-af4c-a68d325a334a","system_id":"levelo_inurba_marseille","lat":43.29305,"lon":5.37184,"is_reserved":false,"is_disabled":false,"rental_uris":{"android":"levelo://app?vid=463fcf28-fe15-4660-af4c-a68d325a334a","ios":"levelo://app?vid=463fcf28-fe15-4660-af4c-a68d325a334a"},"vehicle_type_id":"4","last_reported":1682280388,"current_range_meters":0,"station_id":"","pricing_plan_id":"free"},{"bike_id":"fabcee06-d675-4b94-8574-e120603735ce","system_id":"levelo_inurba_marseille","lat":43.29304,"lon":5.37178,"is_reserved":false,"is_disabled":false,"rental_uris":{"android":"levelo://app?vid=fabcee06-d675-4b94-8574-e120603735ce","ios":"levelo://app?vid=fabcee06-d675-4b94-8574-e120603735ce"},"vehicle_type_id":"4","last_reported":1682280388,"current_range_meters":21200,"station_id":"","pricing_plan_id":"free"},{"bike_id":"f58ef4d2-7e5f-4e28-8846-1ca25ad6c7dc","system_id":"levelo_inurba_marseille","lat":43.29303,"lon":5.37175,"is_reserved":false,"is_disabled":false,"rental_uris":{"android":"levelo://app?vid=f58ef4d2-7e5f-4e28-8846-1ca25ad6c7dc","ios":"levelo://app?vid=f58ef4d2-7e5f-4e28-8846-1ca25ad6c7dc"},"vehicle_type_id":"4","last_reported":1682280388,"current_range_meters":5600,"station_id":"","pricing_plan_id":"free"},{"bike_id":"c26d5985-74e0-4e29-91c5-c416bbd60563","system_id":"levelo_inurba_marseille","lat":43.29303,"lon":5.37182,"is_reserved":false,"is_disabled":false,"rental_uris":{"android":"levelo://app?vid=c26d5985-74e0-4e29-91c5-c416bbd60563","ios":"levelo://app?vid=c26d5985-74e0-4e29-91c5-c416bbd60563"},"vehicle_type_id":"4","last_reported":1682280388,"current_range_meters":2000,"station_id":"","pricing_plan_id":"free"},{"bike_id":"03543486-434e-4a57-8a48-deebdc448fda","system_id":"levelo_inurba_marseille","lat":43.29303,"lon":5.37184,"is_reserved":false,"is_disabled":false,"rental_uris":{"android":"levelo://app?vid=03543486-434e-4a57-8a48-deebdc448fda","ios":"levelo://app?vid=03543486-434e-4a57-8a48-deebdc448fda"},"vehicle_type_id":"4","last_reported":1682280388,"current_range_meters":11600,"station_id":"","pricing_plan_id":"free"},{"bike_id":"890f0233-1639-4c5b-8591-967a0e66d1ee","system_id":"levelo_inurba_marseille","lat":43.29301,"lon":5.37176,"is_reserved":false,"is_disabled":false,"rental_uris":{"android":"levelo://app?vid=890f0233-1639-4c5b-8591-967a0e66d1ee","ios":"levelo://app?vid=890f0233-1639-4c5b-8591-967a0e66d1ee"},"vehicle_type_id":"4","last_reported":1682280388,"current_range_meters":0,"station_id":"","pricing_plan_id":"free"},{"bike_id":"b6c65658-c758-4a77-84e2-b716303c1457","system_id":"levelo_inurba_marseille","lat":43.29301,"lon":5.37177,"is_reserved":false,"is_disabled":false,"rental_uris":{"android":"levelo://app?vid=b6c65658-c758-4a77-84e2-b716303c1457","ios":"levelo://app?vid=b6c65658-c758-4a77-84e2-b716303c1457"},"vehicle_type_id":"4","last_reported":1682280388,"current_range_meters":0,"station_id":"","pricing_plan_id":"free"},{"bike_id":"c41febb3-faa5-466a-bcf3-9f70b30445a6","system_id":"levelo_inurba_marseille","lat":43.29309,"lon":5.37464,"is_reserved":false,"is_disabled":false,"rental_uris":{"android":"levelo://app?vid=c41febb3-faa5-466a-bcf3-9f70b30445a6","ios":"levelo://app?vid=c41febb3-faa5-466a-bcf3-9f70b30445a6"},"vehicle_type_id":"4","last_reported":1682280388,"current_range_meters":0,"station_id":"ce4bgi12rcd13ifvqb70","pricing_plan_id":"free"},{"bike_id":"004b10ed-f6bf-468a-be68-cb6b703cc313","system_id":"levelo_inurba_marseille","lat":43.305994,"lon":5.393687,"is_reserved":false,"is_disabled":false,"rental_uris":{"android":"levelo://app?vid=004b10ed-f6bf-468a-be68-cb6b703cc313","ios":"levelo://app?vid=004b10ed-f6bf-468a-be68-cb6b703cc313"},"vehicle_type_id":"4","last_reported":1682280388,"current_range_meters":1600,"station_id":"ce4bh0p2rcd13ifvqd80","pricing_plan_id":"free"},{"bike_id":"500c836e-5a76-45c1-bd1e-765ff97e4296","system_id":"levelo_inurba_marseille","lat":43.305994,"lon":5.393687,"is_reserved":false,"is_disabled":false,"rental_uris":{"android":"levelo://app?vid=500c836e-5a76-45c1-bd1e-765ff97e4296","ios":"levelo://app?vid=500c836e-5a76-45c1-bd1e-765ff97e4296"},"vehicle_type_id":"4","last_reported":1682280388,"current_range_meters":10400,"station_id":"ce4bh0p2rcd13ifvqd80","pricing_plan_id":"free"},{"bike_id":"757eee25-14a6-471b-aa76-a540a5d2ffea","system_id":"levelo_inurba_marseille","lat":43.324981,"lon":5.38965,"is_reserved":false,"is_disabled":false,"rental_uris":{"android":"levelo://app?vid=757eee25-14a6-471b-aa76-a540a5d2ffea","ios":"levelo://app?vid=757eee25-14a6-471b-aa76-a540a5d2ffea"},"vehicle_type_id":"4","last_reported":1682280388,"current_range_meters":2800,"station_id":"","pricing_plan_id":"free"},{"bike_id":"d60b6a96-5e12-4a13-b8e3-52a13914fb70","system_id":"levelo_inurba_marseille","lat":43.302992,"lon":5.392136,"is_reserved":false,"is_disabled":false,"rental_uris":{"android":"levelo://app?vid=d60b6a96-5e12-4a13-b8e3-52a13914fb70","ios":"levelo://app?vid=d60b6a96-5e12-4a13-b8e3-52a13914fb70"},"vehicle_type_id":"4","last_reported":1682280388,"current_range_meters":4400,"station_id":"ce4bgkh2rcd13ifvqbk0","pricing_plan_id":"free"},{"bike_id":"cebc8740-b12a-4e8e-86c4-afecff2f72c1","system_id":"levelo_inurba_marseille","lat":43.293463,"lon":5.377389,"is_reserved":false,"is_disabled":false,"rental_uris":{"android":"levelo://app?vid=cebc8740-b12a-4e8e-86c4-afecff2f72c1","ios":"levelo://app?vid=cebc8740-b12a-4e8e-86c4-afecff2f72c1"},"vehicle_type_id":"4","last_reported":1682280388,"current_range_meters":3600,"station_id":"ce4bhq12rcd13ifvqhhg","pricing_plan_id":"free"},{"bike_id":"240589e4-bd7f-4413-ac32-276afa5dc7a2","system_id":"levelo_inurba_marseille","lat":43.30104,"lon":5.39068,"is_reserved":false,"is_disabled":false,"rental_uris":{"android":"levelo://app?vid=240589e4-bd7f-4413-ac32-276afa5dc7a2","ios":"levelo://app?vid=240589e4-bd7f-4413-ac32-276afa5dc7a2"},"vehicle_type_id":"4","last_reported":1682280388,"current_range_meters":400,"station_id":"ce4bh192rcd13ifvqdb0","pricing_plan_id":"free"},{"bike_id":"a79e249a-2415-44f3-a66e-00042803f06a","system_id":"levelo_inurba_marseille","lat":43.300852,"lon":5.390859,"is_reserved":false,"is_disabled":false,"rental_uris":{"android":"levelo://app?vid=a79e249a-2415-44f3-a66e-00042803f06a","ios":"levelo://app?vid=a79e249a-2415-44f3-a66e-00042803f06a"},"vehicle_type_id":"4","last_reported":1682280388,"current_range_meters":28400,"station_id":"ce4bh192rcd13ifvqdb0","pricing_plan_id":"free"},{"bike_id":"57d49816-bec1-48da-8896-bec94d5b0816","system_id":"levelo_inurba_marseille","lat":43.30107,"lon":5.39086,"is_reserved":false,"is_disabled":false,"rental_uris":{"android":"levelo://app?vid=57d49816-bec1-48da-8896-bec94d5b0816","ios":"levelo://app?vid=57d49816-bec1-48da-8896-bec94d5b0816"},"vehicle_type_id":"4","last_reported":1682280388,"current_range_meters":14000,"station_id":"ce4bh192rcd13ifvqdb0","pricing_plan_id":"free"},{"bike_id":"8bca91f3-6bca-4810-bb85-9005913cbb11","system_id":"levelo_inurba_marseille","lat":43.30092,"lon":5.39085,"is_reserved":false,"is_disabled":false,"rental_uris":{"android":"levelo://app?vid=8bca91f3-6bca-4810-bb85-9005913cbb11","ios":"levelo://app?vid=8bca91f3-6bca-4810-bb85-9005913cbb11"},"vehicle_type_id":"4","last_reported":1682280388,"current_range_meters":10400,"station_id":"ce4bh192rcd13ifvqdb0","pricing_plan_id":"free"},{"bike_id":"a3b7ab10-47fc-4362-aa4b-cb53697b777e","system_id":"levelo_inurba_marseille","lat":43.30085,"lon":5.390856,"is_reserved":false,"is_disabled":false,"rental_uris":{"android":"levelo://app?vid=a3b7ab10-47fc-4362-aa4b-cb53697b777e","ios":"levelo://app?vid=a3b7ab10-47fc-4362-aa4b-cb53697b777e"},"vehicle_type_id":"4","last_reported":1682280388,"current_range_meters":21200,"station_id":"ce4bh192rcd13ifvqdb0","pricing_plan_id":"free"},{"bike_id":"51907ceb-4a39-44c3-9192-8a54eaaeafb0","system_id":"levelo_inurba_marseille","lat":43.292663,"lon":5.376394,"is_reserved":false,"is_disabled":false,"rental_uris":{"android":"levelo://app?vid=51907ceb-4a39-44c3-9192-8a54eaaeafb0","ios":"levelo://app?vid=51907ceb-4a39-44c3-9192-8a54eaaeafb0"},"vehicle_type_id":"4","last_reported":1682280388,"current_range_meters":21600,"station_id":"ce4bgi12rcd13ifvqb80","pricing_plan_id":"free"},{"bike_id":"23b87a6c-fa70-4ac6-af41-a42501c3e0ef","system_id":"levelo_inurba_marseille","lat":43.298764,"lon":5.388973,"is_reserved":false,"is_disabled":false,"rental_uris":{"android":"levelo://app?vid=23b87a6c-fa70-4ac6-af41-a42501c3e0ef","ios":"levelo://app?vid=23b87a6c-fa70-4ac6-af41-a42501c3e0ef"},"vehicle_type_id":"4","last_reported":1682280388,"current_range_meters":8400,"station_id":"ce4bh392rcd13ifvqdl0","pricing_plan_id":"free"},{"bike_id":"7461d4b4-6d6d-4783-a8fb-b548fa96d08b","system_id":"levelo_inurba_marseille","lat":43.29879,"lon":5.38909,"is_reserved":false,"is_disabled":false,"rental_uris":{"android":"levelo://app?vid=7461d4b4-6d6d-4783-a8fb-b548fa96d08b","ios":"levelo://app?vid=7461d4b4-6d6d-4783-a8fb-b548fa96d08b"},"vehicle_type_id":"4","last_reported":1682280388,"current_range_meters":0,"station_id":"ce4bh392rcd13ifvqdl0","pricing_plan_id":"free"},{"bike_id":"d0a55988-3511-4804-8934-c5f58e3ef1f7","system_id":"levelo_inurba_marseille","lat":43.298764,"lon":5.388973,"is_reserved":false,"is_disabled":false,"rental_uris":{"android":"levelo://app?vid=d0a55988-3511-4804-8934-c5f58e3ef1f7","ios":"levelo://app?vid=d0a55988-3511-4804-8934-c5f58e3ef1f7"},"vehicle_type_id":"4","last_reported":1682280388,"current_range_meters":6000,"station_id":"ce4bh392rcd13ifvqdl0","pricing_plan_id":"free"},{"bike_id":"5ccd830f-69da-473e-82ec-5cd1e127b123","system_id":"levelo_inurba_marseille","lat":43.313291,"lon":5.396838,"is_reserved":false,"is_disabled":false,"rental_uris":{"android":"levelo://app?vid=5ccd830f-69da-473e-82ec-5cd1e127b123","ios":"levelo://app?vid=5ccd830f-69da-473e-82ec-5cd1e127b123"},"vehicle_type_id":"4","last_reported":1682280388,"current_range_meters":20000,"station_id":"ce4bgvp2rcd13ifvqcu0","pricing_plan_id":"free"},{"bike_id":"f6dd1461-540f-4206-b968-03040708c087","system_id":"levelo_inurba_marseille","lat":43.313291,"lon":5.396838,"is_reserved":false,"is_disabled":false,"rental_uris":{"android":"levelo://app?vid=f6dd1461-540f-4206-b968-03040708c087","ios":"levelo://app?vid=f6dd1461-540f-4206-b968-03040708c087"},"vehicle_type_id":"4","last_reported":1682280388,"current_range_meters":0,"station_id":"ce4bgvp2rcd13ifvqcu0","pricing_plan_id":"free"},{"bike_id":"ebe63e8f-d437-4961-8f22-16c8bd585805","system_id":"levelo_inurba_marseille","lat":43.302008,"lon":5.394694,"is_reserved":false,"is_disabled":false,"rental_uris":{"android":"levelo://app?vid=ebe63e8f-d437-4961-8f22-16c8bd585805","ios":"levelo://app?vid=ebe63e8f-d437-4961-8f22-16c8bd585805"},"vehicle_type_id":"4","last_reported":1682280388,"current_range_meters":16400,"station_id":"ce4bh0p2rcd13ifvqd70","pricing_plan_id":"free"},{"bike_id":"58c67dbc-6f1b-49f3-8ec8-742a7f675401","system_id":"levelo_inurba_marseille","lat":43.29529,"lon":5.385581,"is_reserved":false,"is_disabled":false,"rental_uris":{"android":"levelo://app?vid=58c67dbc-6f1b-49f3-8ec8-742a7f675401","ios":"levelo://app?vid=58c67dbc-6f1b-49f3-8ec8-742a7f675401"},"vehicle_type_id":"4","last_reported":1682280388,"current_range_meters":18400,"station_id":"ce4bgih2rcd13ifvqba0","pricing_plan_id":"free"},{"bike_id":"7c170fd9-8484-408e-8300-bf007079e0c9","system_id":"levelo_inurba_marseille","lat":43.29529,"lon":5.385581,"is_reserved":false,"is_disabled":false,"rental_uris":{"android":"levelo://app?vid=7c170fd9-8484-408e-8300-bf007079e0c9","ios":"levelo://app?vid=7c170fd9-8484-408e-8300-bf007079e0c9"},"vehicle_type_id":"4","last_reported":1682280388,"current_range_meters":12800,"station_id":"ce4bgih2rcd13ifvqba0","pricing_plan_id":"free"},{"bike_id":"044aadf0-55b0-4b6b-8d31-a869298add4d","system_id":"levelo_inurba_marseille","lat":43.29529,"lon":5.385581,"is_reserved":false,"is_disabled":false,"rental_uris":{"android":"levelo://app?vid=044aadf0-55b0-4b6b-8d31-a869298add4d","ios":"levelo://app?vid=044aadf0-55b0-4b6b-8d31-a869298add4d"},"vehicle_type_id":"4","last_reported":1682280388,"current_range_meters":7200,"station_id":"ce4bgih2rcd13ifvqba0","pricing_plan_id":"free"},{"bike_id":"61536023-80bc-40f4-85ce-62d7d921db09","system_id":"levelo_inurba_marseille","lat":43.29529,"lon":5.385581,"is_reserved":false,"is_disabled":false,"rental_uris":{"android":"levelo://app?vid=61536023-80bc-40f4-85ce-62d7d921db09","ios":"levelo://app?vid=61536023-80bc-40f4-85ce-62d7d921db09"},"vehicle_type_id":"4","last_reported":1682280388,"current_range_meters":10000,"station_id":"ce4bgih2rcd13ifvqba0","pricing_plan_id":"free"},{"bike_id":"51fe7682-7672-45a6-87b6-3942ef2b8c94","system_id":"levelo_inurba_marseille","lat":43.29529,"lon":5.385581,"is_reserved":false,"is_disabled":false,"rental_uris":{"android":"levelo://app?vid=51fe7682-7672-45a6-87b6-3942ef2b8c94","ios":"levelo://app?vid=51fe7682-7672-45a6-87b6-3942ef2b8c94"},"vehicle_type_id":"4","last_reported":1682280388,"current_range_meters":26800,"station_id":"ce4bgih2rcd13ifvqba0","pricing_plan_id":"free"},{"bike_id":"276d0a71-8a80-4b34-83ba-43bfc1cf2269","system_id":"levelo_inurba_marseille","lat":43.29529,"lon":5.385581,"is_reserved":false,"is_disabled":false,"rental_uris":{"android":"levelo://app?vid=276d0a71-8a80-4b34-83ba-43bfc1cf2269","ios":"levelo://app?vid=276d0a71-8a80-4b34-83ba-43bfc1cf2269"},"vehicle_type_id":"4","last_reported":1682280388,"current_range_meters":10400,"station_id":"ce4bgih2rcd13ifvqba0","pricing_plan_id":"free"},{"bike_id":"e798edb8-20a6-406a-bcc0-895390192f27","system_id":"levelo_inurba_marseille","lat":43.290779,"lon":5.371482,"is_reserved":false,"is_disabled":false,"rental_uris":{"android":"levelo://app?vid=e798edb8-20a6-406a-bcc0-895390192f27","ios":"levelo://app?vid=e798edb8-20a6-406a-bcc0-895390192f27"},"vehicle_type_id":"4","last_reported":1682280388,"current_range_meters":4400,"station_id":"ce4bh5p2rcd13ifvqe4g","pricing_plan_id":"free"},{"bike_id":"e0d9540c-2c4e-4d1e-b587-f6f3030bff3d","system_id":"levelo_inurba_marseille","lat":43.302008,"lon":5.394694,"is_reserved":false,"is_disabled":false,"rental_uris":{"android":"levelo://app?vid=e0d9540c-2c4e-4d1e-b587-f6f3030bff3d","ios":"levelo://app?vid=e0d9540c-2c4e-4d1e-b587-f6f3030bff3d"},"vehicle_type_id":"4","last_reported":1682280388,"current_range_meters":8800,"station_id":"ce4bh0p2rcd13ifvqd70","pricing_plan_id":"free"},{"bike_id":"38eb610b-fcba-44e3-8352-6f069f3a57bb","system_id":"levelo_inurba_marseille","lat":43.302008,"lon":5.394694,"is_reserved":false,"is_disabled":false,"rental_uris":{"android":"levelo://app?vid=38eb610b-fcba-44e3-8352-6f069f3a57bb","ios":"levelo://app?vid=38eb610b-fcba-44e3-8352-6f069f3a57bb"},"vehicle_type_id":"4","last_reported":1682280388,"current_range_meters":30800,"station_id":"ce4bh0p2rcd13ifvqd70","pricing_plan_id":"free"},{"bike_id":"80d29fd4-0d5c-490c-b9c6-428c7c1ca327","system_id":"levelo_inurba_marseille","lat":43.302008,"lon":5.394694,"is_reserved":false,"is_disabled":false,"rental_uris":{"android":"levelo://app?vid=80d29fd4-0d5c-490c-b9c6-428c7c1ca327","ios":"levelo://app?vid=80d29fd4-0d5c-490c-b9c6-428c7c1ca327"},"vehicle_type_id":"4","last_reported":1682280388,"current_range_meters":26400,"station_id":"ce4bh0p2rcd13ifvqd70","pricing_plan_id":"free"},{"bike_id":"a7db4585-222f-4f8d-894f-20e1894daa67","system_id":"levelo_inurba_marseille","lat":43.302008,"lon":5.394694,"is_reserved":false,"is_disabled":false,"rental_uris":{"android":"levelo://app?vid=a7db4585-222f-4f8d-894f-20e1894daa67","ios":"levelo://app?vid=a7db4585-222f-4f8d-894f-20e1894daa67"},"vehicle_type_id":"4","last_reported":1682280388,"current_range_meters":12400,"station_id":"ce4bh0p2rcd13ifvqd70","pricing_plan_id":"free"},{"bike_id":"c55f8edc-d011-41f6-826a-f77050d8d2c4","system_id":"levelo_inurba_marseille","lat":43.302008,"lon":5.394694,"is_reserved":false,"is_disabled":false,"rental_uris":{"android":"levelo://app?vid=c55f8edc-d011-41f6-826a-f77050d8d2c4","ios":"levelo://app?vid=c55f8edc-d011-41f6-826a-f77050d8d2c4"},"vehicle_type_id":"4","last_reported":1682280388,"current_range_meters":16400,"station_id":"ce4bh0p2rcd13ifvqd70","pricing_plan_id":"free"},{"bike_id":"46e2ca5a-1e52-415e-9ed3-a8fa408b5635","system_id":"levelo_inurba_marseille","lat":43.302008,"lon":5.394694,"is_reserved":false,"is_disabled":false,"rental_uris":{"android":"levelo://app?vid=46e2ca5a-1e52-415e-9ed3-a8fa408b5635","ios":"levelo://app?vid=46e2ca5a-1e52-415e-9ed3-a8fa408b5635"},"vehicle_type_id":"4","last_reported":1682280388,"current_range_meters":31600,"station_id":"ce4bh0p2rcd13ifvqd70","pricing_plan_id":"free"},{"bike_id":"9bc328c3-60b6-44d5-8333-abbcf22f5351","system_id":"levelo_inurba_marseille","lat":43.32957,"lon":5.38838,"is_reserved":false,"is_disabled":false,"rental_uris":{"android":"levelo://app?vid=9bc328c3-60b6-44d5-8333-abbcf22f5351","ios":"levelo://app?vid=9bc328c3-60b6-44d5-8333-abbcf22f5351"},"vehicle_type_id":"4","last_reported":1682280388,"current_range_meters":12400,"station_id":"","pricing_plan_id":"free"},{"bike_id":"8e9d9b31-d800-4ece-85e7-b9df4c0556d1","system_id":"levelo_inurba_marseille","lat":43.29428,"lon":5.38627,"is_reserved":false,"is_disabled":false,"rental_uris":{"android":"levelo://app?vid=8e9d9b31-d800-4ece-85e7-b9df4c0556d1","ios":"levelo://app?vid=8e9d9b31-d800-4ece-85e7-b9df4c0556d1"},"vehicle_type_id":"4","last_reported":1682280388,"current_range_meters":18000,"station_id":"ce4bh2h2rcd13ifvqdh0","pricing_plan_id":"free"},{"bike_id":"815bdb9b-5552-4a1e-96e1-e0597980b7e8","system_id":"levelo_inurba_marseille","lat":43.29425,"lon":5.38624,"is_reserved":false,"is_disabled":false,"rental_uris":{"android":"levelo://app?vid=815bdb9b-5552-4a1e-96e1-e0597980b7e8","ios":"levelo://app?vid=815bdb9b-5552-4a1e-96e1-e0597980b7e8"},"vehicle_type_id":"4","last_reported":1682280388,"current_range_meters":6000,"station_id":"ce4bh2h2rcd13ifvqdh0","pricing_plan_id":"free"},{"bike_id":"b3c86f3c-d226-4ce4-b311-b741c994597d","system_id":"levelo_inurba_marseille","lat":43.29419,"lon":5.38616,"is_reserved":false,"is_disabled":false,"rental_uris":{"android":"levelo://app?vid=b3c86f3c-d226-4ce4-b311-b741c994597d","ios":"levelo://app?vid=b3c86f3c-d226-4ce4-b311-b741c994597d"},"vehicle_type_id":"4","last_reported":1682280388,"current_range_meters":3200,"station_id":"ce4bh2h2rcd13ifvqdh0","pricing_plan_id":"free"},{"bike_id":"f71a4adf-af06-466a-a080-d077ecb87b2f","system_id":"levelo_inurba_marseille","lat":43.2942,"lon":5.3862,"is_reserved":false,"is_disabled":false,"rental_uris":{"android":"levelo://app?vid=f71a4adf-af06-466a-a080-d077ecb87b2f","ios":"levelo://app?vid=f71a4adf-af06-466a-a080-d077ecb87b2f"},"vehicle_type_id":"4","last_reported":1682280388,"current_range_meters":19200,"station_id":"ce4bh2h2rcd13ifvqdh0","pricing_plan_id":"free"},{"bike_id":"04ccdaa2-6563-4ab0-95c7-fae3b252f364","system_id":"levelo_inurba_marseille","lat":43.29421,"lon":5.38624,"is_reserved":false,"is_disabled":false,"rental_uris":{"android":"levelo://app?vid=04ccdaa2-6563-4ab0-95c7-fae3b252f364","ios":"levelo://app?vid=04ccdaa2-6563-4ab0-95c7-fae3b252f364"},"vehicle_type_id":"4","last_reported":1682280388,"current_range_meters":22000,"station_id":"ce4bh2h2rcd13ifvqdh0","pricing_plan_id":"free"},{"bike_id":"a066237b-a995-4b27-a46a-e0d968445ce3","system_id":"levelo_inurba_marseille","lat":43.294162,"lon":5.386292,"is_reserved":false,"is_disabled":false,"rental_uris":{"android":"levelo://app?vid=a066237b-a995-4b27-a46a-e0d968445ce3","ios":"levelo://app?vid=a066237b-a995-4b27-a46a-e0d968445ce3"},"vehicle_type_id":"4","last_reported":1682280388,"current_range_meters":31600,"station_id":"ce4bh2h2rcd13ifvqdh0","pricing_plan_id":"free"},{"bike_id":"b4df9c9e-4ed0-4675-b576-60582ba43695","system_id":"levelo_inurba_marseille","lat":43.29419,"lon":5.38622,"is_reserved":false,"is_disabled":false,"rental_uris":{"android":"levelo://app?vid=b4df9c9e-4ed0-4675-b576-60582ba43695","ios":"levelo://app?vid=b4df9c9e-4ed0-4675-b576-60582ba43695"},"vehicle_type_id":"4","last_reported":1682280388,"current_range_meters":11600,"station_id":"ce4bh2h2rcd13ifvqdh0","pricing_plan_id":"free"},{"bike_id":"80812633-c42b-4848-9b99-4cf8baac1ccd","system_id":"levelo_inurba_marseille","lat":43.2942,"lon":5.38624,"is_reserved":false,"is_disabled":false,"rental_uris":{"android":"levelo://app?vid=80812633-c42b-4848-9b99-4cf8baac1ccd","ios":"levelo://app?vid=80812633-c42b-4848-9b99-4cf8baac1ccd"},"vehicle_type_id":"4","last_reported":1682280388,"current_range_meters":23600,"station_id":"ce4bh2h2rcd13ifvqdh0","pricing_plan_id":"free"},{"bike_id":"155e821c-92b7-4094-9c23-f1b53da54da3","system_id":"levelo_inurba_marseille","lat":43.294153,"lon":5.386305,"is_reserved":false,"is_disabled":false,"rental_uris":{"android":"levelo://app?vid=155e821c-92b7-4094-9c23-f1b53da54da3","ios":"levelo://app?vid=155e821c-92b7-4094-9c23-f1b53da54da3"},"vehicle_type_id":"4","last_reported":1682280388,"current_range_meters":18400,"station_id":"ce4bh2h2rcd13ifvqdh0","pricing_plan_id":"free"},{"bike_id":"1723c59d-bf4c-4bd8-a403-ddffd2568d90","system_id":"levelo_inurba_marseille","lat":43.294162,"lon":5.386292,"is_reserved":false,"is_disabled":false,"rental_uris":{"android":"levelo://app?vid=1723c59d-bf4c-4bd8-a403-ddffd2568d90","ios":"levelo://app?vid=1723c59d-bf4c-4bd8-a403-ddffd2568d90"},"vehicle_type_id":"4","last_reported":1682280388,"current_range_meters":31200,"station_id":"ce4bh2h2rcd13ifvqdh0","pricing_plan_id":"free"},{"bike_id":"502e5087-dbed-4437-85af-cd522d5696a7","system_id":"levelo_inurba_marseille","lat":43.29415,"lon":5.38619,"is_reserved":false,"is_disabled":false,"rental_uris":{"android":"levelo://app?vid=502e5087-dbed-4437-85af-cd522d5696a7","ios":"levelo://app?vid=502e5087-dbed-4437-85af-cd522d5696a7"},"vehicle_type_id":"4","last_reported":1682280388,"current_range_meters":13600,"station_id":"ce4bh2h2rcd13ifvqdh0","pricing_plan_id":"free"},{"bike_id":"7a917409-f897-4647-b5fc-535a62db9d1b","system_id":"levelo_inurba_marseille","lat":43.294162,"lon":5.386292,"is_reserved":false,"is_disabled":false,"rental_uris":{"android":"levelo://app?vid=7a917409-f897-4647-b5fc-535a62db9d1b","ios":"levelo://app?vid=7a917409-f897-4647-b5fc-535a62db9d1b"},"vehicle_type_id":"4","last_reported":1682280388,"current_range_meters":30000,"station_id":"ce4bh2h2rcd13ifvqdh0","pricing_plan_id":"free"},{"bike_id":"28ef83f7-151e-4610-8ecf-28551586848a","system_id":"levelo_inurba_marseille","lat":43.294162,"lon":5.386292,"is_reserved":false,"is_disabled":false,"rental_uris":{"android":"levelo://app?vid=28ef83f7-151e-4610-8ecf-28551586848a","ios":"levelo://app?vid=28ef83f7-151e-4610-8ecf-28551586848a"},"vehicle_type_id":"4","last_reported":1682280388,"current_range_meters":28000,"station_id":"ce4bh2h2rcd13ifvqdh0","pricing_plan_id":"free"},{"bike_id":"d07f9c95-67d5-4a14-b5a9-0d5f875563d0","system_id":"levelo_inurba_marseille","lat":43.294162,"lon":5.386292,"is_reserved":false,"is_disabled":false,"rental_uris":{"android":"levelo://app?vid=d07f9c95-67d5-4a14-b5a9-0d5f875563d0","ios":"levelo://app?vid=d07f9c95-67d5-4a14-b5a9-0d5f875563d0"},"vehicle_type_id":"4","last_reported":1682280388,"current_range_meters":31200,"station_id":"ce4bh2h2rcd13ifvqdh0","pricing_plan_id":"free"},{"bike_id":"48e93090-81d2-4ca8-b8b3-5deea56c7adb","system_id":"levelo_inurba_marseille","lat":43.294162,"lon":5.386292,"is_reserved":false,"is_disabled":false,"rental_uris":{"android":"levelo://app?vid=48e93090-81d2-4ca8-b8b3-5deea56c7adb","ios":"levelo://app?vid=48e93090-81d2-4ca8-b8b3-5deea56c7adb"},"vehicle_type_id":"4","last_reported":1682280388,"current_range_meters":18400,"station_id":"ce4bh2h2rcd13ifvqdh0","pricing_plan_id":"free"},{"bike_id":"45d02958-65b0-437c-9844-a3e1ab4eaf38","system_id":"levelo_inurba_marseille","lat":43.289184,"lon":5.366408,"is_reserved":false,"is_disabled":false,"rental_uris":{"android":"levelo://app?vid=45d02958-65b0-437c-9844-a3e1ab4eaf38","ios":"levelo://app?vid=45d02958-65b0-437c-9844-a3e1ab4eaf38"},"vehicle_type_id":"4","last_reported":1682280388,"current_range_meters":4800,"station_id":"ce4bhap2rcd13ifvqek0","pricing_plan_id":"free"},{"bike_id":"5c149f2f-088f-47a1-9e7b-0b3379b355a7","system_id":"levelo_inurba_marseille","lat":43.29416,"lon":5.38628,"is_reserved":false,"is_disabled":false,"rental_uris":{"android":"levelo://app?vid=5c149f2f-088f-47a1-9e7b-0b3379b355a7","ios":"levelo://app?vid=5c149f2f-088f-47a1-9e7b-0b3379b355a7"},"vehicle_type_id":"4","last_reported":1682280388,"current_range_meters":5200,"station_id":"ce4bh2h2rcd13ifvqdh0","pricing_plan_id":"free"},{"bike_id":"1a8c285b-ef1f-42e8-9943-d7f693a688e2","system_id":"levelo_inurba_marseille","lat":43.289468,"lon":5.363719,"is_reserved":false,"is_disabled":false,"rental_uris":{"android":"levelo://app?vid=1a8c285b-ef1f-42e8-9943-d7f693a688e2","ios":"levelo://app?vid=1a8c285b-ef1f-42e8-9943-d7f693a688e2"},"vehicle_type_id":"4","last_reported":1682280388,"current_range_meters":18400,"station_id":"ce4bhc92rcd13ifvqetg","pricing_plan_id":"free"},{"bike_id":"ea04a0a7-55e0-4119-91f1-3c9fdb0848e6","system_id":"levelo_inurba_marseille","lat":43.289468,"lon":5.363719,"is_reserved":false,"is_disabled":false,"rental_uris":{"android":"levelo://app?vid=ea04a0a7-55e0-4119-91f1-3c9fdb0848e6","ios":"levelo://app?vid=ea04a0a7-55e0-4119-91f1-3c9fdb0848e6"},"vehicle_type_id":"4","last_reported":1682280388,"current_range_meters":30400,"station_id":"ce4bhc92rcd13ifvqetg","pricing_plan_id":"free"},{"bike_id":"b24c79fc-5502-44c3-b61f-ea4e6b295774","system_id":"levelo_inurba_marseille","lat":43.289184,"lon":5.366408,"is_reserved":false,"is_disabled":false,"rental_uris":{"android":"levelo://app?vid=b24c79fc-5502-44c3-b61f-ea4e6b295774","ios":"levelo://app?vid=b24c79fc-5502-44c3-b61f-ea4e6b295774"},"vehicle_type_id":"4","last_reported":1682280388,"current_range_meters":14000,"station_id":"ce4bhap2rcd13ifvqek0","pricing_plan_id":"free"},{"bike_id":"fab2563b-ce17-4fcb-8ef7-be232df6768c","system_id":"levelo_inurba_marseille","lat":43.289184,"lon":5.366408,"is_reserved":false,"is_disabled":false,"rental_uris":{"android":"levelo://app?vid=fab2563b-ce17-4fcb-8ef7-be232df6768c","ios":"levelo://app?vid=fab2563b-ce17-4fcb-8ef7-be232df6768c"},"vehicle_type_id":"4","last_reported":1682280388,"current_range_meters":0,"station_id":"ce4bhap2rcd13ifvqek0","pricing_plan_id":"free"},{"bike_id":"c7823989-573e-41dc-af45-1ca2afba79cd","system_id":"levelo_inurba_marseille","lat":43.289468,"lon":5.363719,"is_reserved":false,"is_disabled":false,"rental_uris":{"android":"levelo://app?vid=c7823989-573e-41dc-af45-1ca2afba79cd","ios":"levelo://app?vid=c7823989-573e-41dc-af45-1ca2afba79cd"},"vehicle_type_id":"4","last_reported":1682280388,"current_range_meters":7200,"station_id":"ce4bhc92rcd13ifvqetg","pricing_plan_id":"free"},{"bike_id":"7317b8ba-89f4-49e5-b9f8-81cc1cea27d6","system_id":"levelo_inurba_marseille","lat":43.292707,"lon":5.38432,"is_reserved":false,"is_disabled":false,"rental_uris":{"android":"levelo://app?vid=7317b8ba-89f4-49e5-b9f8-81cc1cea27d6","ios":"levelo://app?vid=7317b8ba-89f4-49e5-b9f8-81cc1cea27d6"},"vehicle_type_id":"4","last_reported":1682280388,"current_range_meters":12800,"station_id":"ce4bh692rcd13ifvqea0","pricing_plan_id":"free"},{"bike_id":"ecff5a31-0462-4c2a-ad33-d13d5bfdbef1","system_id":"levelo_inurba_marseille","lat":43.29276,"lon":5.38445,"is_reserved":false,"is_disabled":false,"rental_uris":{"android":"levelo://app?vid=ecff5a31-0462-4c2a-ad33-d13d5bfdbef1","ios":"levelo://app?vid=ecff5a31-0462-4c2a-ad33-d13d5bfdbef1"},"vehicle_type_id":"4","last_reported":1682280388,"current_range_meters":0,"station_id":"ce4bh692rcd13ifvqea0","pricing_plan_id":"free"},{"bike_id":"f9a96f0a-d5cc-41f7-843c-66eda621575b","system_id":"levelo_inurba_marseille","lat":43.29275,"lon":5.38443,"is_reserved":false,"is_disabled":false,"rental_uris":{"android":"levelo://app?vid=f9a96f0a-d5cc-41f7-843c-66eda621575b","ios":"levelo://app?vid=f9a96f0a-d5cc-41f7-843c-66eda621575b"},"vehicle_type_id":"4","last_reported":1682280388,"current_range_meters":0,"station_id":"ce4bh692rcd13ifvqea0","pricing_plan_id":"free"},{"bike_id":"143732c6-90df-435c-a15c-74d97b10ccd4","system_id":"levelo_inurba_marseille","lat":43.29269,"lon":5.38438,"is_reserved":false,"is_disabled":false,"rental_uris":{"android":"levelo://app?vid=143732c6-90df-435c-a15c-74d97b10ccd4","ios":"levelo://app?vid=143732c6-90df-435c-a15c-74d97b10ccd4"},"vehicle_type_id":"4","last_reported":1682280388,"current_range_meters":15200,"station_id":"","pricing_plan_id":"free"},{"bike_id":"efe049bb-3145-4c63-9ad6-c72168d53c44","system_id":"levelo_inurba_marseille","lat":43.29271,"lon":5.38443,"is_reserved":false,"is_disabled":false,"rental_uris":{"android":"levelo://app?vid=efe049bb-3145-4c63-9ad6-c72168d53c44","ios":"levelo://app?vid=efe049bb-3145-4c63-9ad6-c72168d53c44"},"vehicle_type_id":"4","last_reported":1682280388,"current_range_meters":12800,"station_id":"ce4bh692rcd13ifvqea0","pricing_plan_id":"free"},{"bike_id":"0507bea2-5931-4f47-a58e-5d3fb75060e3","system_id":"levelo_inurba_marseille","lat":43.29274,"lon":5.3845,"is_reserved":false,"is_disabled":false,"rental_uris":{"android":"levelo://app?vid=0507bea2-5931-4f47-a58e-5d3fb75060e3","ios":"levelo://app?vid=0507bea2-5931-4f47-a58e-5d3fb75060e3"},"vehicle_type_id":"4","last_reported":1682280388,"current_range_meters":14400,"station_id":"ce4bh692rcd13ifvqea0","pricing_plan_id":"free"},{"bike_id":"601278bb-17f6-4881-8e31-4d4285f54096","system_id":"levelo_inurba_marseille","lat":43.29274,"lon":5.38451,"is_reserved":false,"is_disabled":false,"rental_uris":{"android":"levelo://app?vid=601278bb-17f6-4881-8e31-4d4285f54096","ios":"levelo://app?vid=601278bb-17f6-4881-8e31-4d4285f54096"},"vehicle_type_id":"4","last_reported":1682280388,"current_range_meters":26000,"station_id":"ce4bh692rcd13ifvqea0","pricing_plan_id":"free"},{"bike_id":"f3070e1a-84d6-446b-a653-2f1ebf6e4400","system_id":"levelo_inurba_marseille","lat":43.29274,"lon":5.38452,"is_reserved":false,"is_disabled":false,"rental_uris":{"android":"levelo://app?vid=f3070e1a-84d6-446b-a653-2f1ebf6e4400","ios":"levelo://app?vid=f3070e1a-84d6-446b-a653-2f1ebf6e4400"},"vehicle_type_id":"4","last_reported":1682280388,"current_range_meters":7600,"station_id":"","pricing_plan_id":"free"},{"bike_id":"4304d50e-93b3-484d-b179-dddacb479b0d","system_id":"levelo_inurba_marseille","lat":43.29265,"lon":5.38433,"is_reserved":false,"is_disabled":false,"rental_uris":{"android":"levelo://app?vid=4304d50e-93b3-484d-b179-dddacb479b0d","ios":"levelo://app?vid=4304d50e-93b3-484d-b179-dddacb479b0d"},"vehicle_type_id":"4","last_reported":1682280388,"current_range_meters":5200,"station_id":"ce4bh692rcd13ifvqea0","pricing_plan_id":"free"},{"bike_id":"e16e10f0-a980-4bbd-a191-4f6e399bfc08","system_id":"levelo_inurba_marseille","lat":43.29275,"lon":5.38455,"is_reserved":false,"is_disabled":false,"rental_uris":{"android":"levelo://app?vid=e16e10f0-a980-4bbd-a191-4f6e399bfc08","ios":"levelo://app?vid=e16e10f0-a980-4bbd-a191-4f6e399bfc08"},"vehicle_type_id":"4","last_reported":1682280388,"current_range_meters":10000,"station_id":"","pricing_plan_id":"free"},{"bike_id":"7418e5cc-1c82-428c-bf46-da26b1708e88","system_id":"levelo_inurba_marseille","lat":43.29273,"lon":5.38454,"is_reserved":false,"is_disabled":false,"rental_uris":{"android":"levelo://app?vid=7418e5cc-1c82-428c-bf46-da26b1708e88","ios":"levelo://app?vid=7418e5cc-1c82-428c-bf46-da26b1708e88"},"vehicle_type_id":"4","last_reported":1682280388,"current_range_meters":17600,"station_id":"ce4bh692rcd13ifvqea0","pricing_plan_id":"free"},{"bike_id":"7fd45c40-1748-40f7-9716-d908d88575fd","system_id":"levelo_inurba_marseille","lat":43.29269,"lon":5.38447,"is_reserved":false,"is_disabled":false,"rental_uris":{"android":"levelo://app?vid=7fd45c40-1748-40f7-9716-d908d88575fd","ios":"levelo://app?vid=7fd45c40-1748-40f7-9716-d908d88575fd"},"vehicle_type_id":"4","last_reported":1682280388,"current_range_meters":23600,"station_id":"ce4bh692rcd13ifvqea0","pricing_plan_id":"free"},{"bike_id":"da0a23e8-a4b5-481f-b164-8ba112ae8e5d","system_id":"levelo_inurba_marseille","lat":43.29267,"lon":5.38446,"is_reserved":false,"is_disabled":false,"rental_uris":{"android":"levelo://app?vid=da0a23e8-a4b5-481f-b164-8ba112ae8e5d","ios":"levelo://app?vid=da0a23e8-a4b5-481f-b164-8ba112ae8e5d"},"vehicle_type_id":"4","last_reported":1682280388,"current_range_meters":6800,"station_id":"ce4bh692rcd13ifvqea0","pricing_plan_id":"free"},{"bike_id":"00f5dd7b-2b12-454f-a869-8db155c0fe42","system_id":"levelo_inurba_marseille","lat":43.29269,"lon":5.38451,"is_reserved":false,"is_disabled":false,"rental_uris":{"android":"levelo://app?vid=00f5dd7b-2b12-454f-a869-8db155c0fe42","ios":"levelo://app?vid=00f5dd7b-2b12-454f-a869-8db155c0fe42"},"vehicle_type_id":"4","last_reported":1682280388,"current_range_meters":2800,"station_id":"ce4bh692rcd13ifvqea0","pricing_plan_id":"free"},{"bike_id":"f9cad735-1b37-4bdb-b8a8-86b00e138e23","system_id":"levelo_inurba_marseille","lat":43.29268,"lon":5.38449,"is_reserved":false,"is_disabled":false,"rental_uris":{"android":"levelo://app?vid=f9cad735-1b37-4bdb-b8a8-86b00e138e23","ios":"levelo://app?vid=f9cad735-1b37-4bdb-b8a8-86b00e138e23"},"vehicle_type_id":"4","last_reported":1682280388,"current_range_meters":5200,"station_id":"","pricing_plan_id":"free"},{"bike_id":"eb85222c-e212-441c-a97b-bff25e14b4d3","system_id":"levelo_inurba_marseille","lat":43.29268,"lon":5.38452,"is_reserved":false,"is_disabled":false,"rental_uris":{"android":"levelo://app?vid=eb85222c-e212-441c-a97b-bff25e14b4d3","ios":"levelo://app?vid=eb85222c-e212-441c-a97b-bff25e14b4d3"},"vehicle_type_id":"4","last_reported":1682280388,"current_range_meters":13200,"station_id":"ce4bh692rcd13ifvqea0","pricing_plan_id":"free"},{"bike_id":"d64d9e0e-1270-4796-9749-14d648a2b8c4","system_id":"levelo_inurba_marseille","lat":43.29264,"lon":5.38445,"is_reserved":false,"is_disabled":false,"rental_uris":{"android":"levelo://app?vid=d64d9e0e-1270-4796-9749-14d648a2b8c4","ios":"levelo://app?vid=d64d9e0e-1270-4796-9749-14d648a2b8c4"},"vehicle_type_id":"4","last_reported":1682280388,"current_range_meters":4000,"station_id":"ce4bh692rcd13ifvqea0","pricing_plan_id":"free"},{"bike_id":"1a409bdf-e372-4de5-bc60-a080206e191b","system_id":"levelo_inurba_marseille","lat":43.29262,"lon":5.38441,"is_reserved":false,"is_disabled":false,"rental_uris":{"android":"levelo://app?vid=1a409bdf-e372-4de5-bc60-a080206e191b","ios":"levelo://app?vid=1a409bdf-e372-4de5-bc60-a080206e191b"},"vehicle_type_id":"4","last_reported":1682280388,"current_range_meters":12000,"station_id":"ce4bh692rcd13ifvqea0","pricing_plan_id":"free"},{"bike_id":"8f7c2eb9-fc1c-42df-815f-ec97d72a525a","system_id":"levelo_inurba_marseille","lat":43.29263,"lon":5.38444,"is_reserved":false,"is_disabled":false,"rental_uris":{"android":"levelo://app?vid=8f7c2eb9-fc1c-42df-815f-ec97d72a525a","ios":"levelo://app?vid=8f7c2eb9-fc1c-42df-815f-ec97d72a525a"},"vehicle_type_id":"4","last_reported":1682280388,"current_range_meters":8800,"station_id":"ce4bh692rcd13ifvqea0","pricing_plan_id":"free"},{"bike_id":"dca1d7ee-1806-42ef-a2b9-9243f88f08c2","system_id":"levelo_inurba_marseille","lat":43.29264,"lon":5.3845,"is_reserved":false,"is_disabled":false,"rental_uris":{"android":"levelo://app?vid=dca1d7ee-1806-42ef-a2b9-9243f88f08c2","ios":"levelo://app?vid=dca1d7ee-1806-42ef-a2b9-9243f88f08c2"},"vehicle_type_id":"4","last_reported":1682280388,"current_range_meters":9600,"station_id":"","pricing_plan_id":"free"},{"bike_id":"30a016bc-1a57-4ffc-ac16-27b04e33f9f6","system_id":"levelo_inurba_marseille","lat":43.29261,"lon":5.38444,"is_reserved":false,"is_disabled":false,"rental_uris":{"android":"levelo://app?vid=30a016bc-1a57-4ffc-ac16-27b04e33f9f6","ios":"levelo://app?vid=30a016bc-1a57-4ffc-ac16-27b04e33f9f6"},"vehicle_type_id":"4","last_reported":1682280388,"current_range_meters":12000,"station_id":"ce4bh692rcd13ifvqea0","pricing_plan_id":"free"},{"bike_id":"1aba550e-b7e7-4202-8540-35aee22992eb","system_id":"levelo_inurba_marseille","lat":43.29256,"lon":5.38443,"is_reserved":false,"is_disabled":false,"rental_uris":{"android":"levelo://app?vid=1aba550e-b7e7-4202-8540-35aee22992eb","ios":"levelo://app?vid=1aba550e-b7e7-4202-8540-35aee22992eb"},"vehicle_type_id":"4","last_reported":1682280388,"current_range_meters":24400,"station_id":"ce4bh692rcd13ifvqea0","pricing_plan_id":"free"},{"bike_id":"b5add667-1795-4690-8ba1-7d0323b7c6b9","system_id":"levelo_inurba_marseille","lat":43.290103,"lon":5.356114,"is_reserved":false,"is_disabled":false,"rental_uris":{"android":"levelo://app?vid=b5add667-1795-4690-8ba1-7d0323b7c6b9","ios":"levelo://app?vid=b5add667-1795-4690-8ba1-7d0323b7c6b9"},"vehicle_type_id":"4","last_reported":1682280388,"current_range_meters":6400,"station_id":"ce4bhb92rcd13ifvqen0","pricing_plan_id":"free"},{"bike_id":"4db327bc-6126-4bc2-842b-f06bd7b9f54f","system_id":"levelo_inurba_marseille","lat":43.330442,"lon":5.389148,"is_reserved":false,"is_disabled":false,"rental_uris":{"android":"levelo://app?vid=4db327bc-6126-4bc2-842b-f06bd7b9f54f","ios":"levelo://app?vid=4db327bc-6126-4bc2-842b-f06bd7b9f54f"},"vehicle_type_id":"4","last_reported":1682280388,"current_range_meters":5200,"station_id":"ce4bhr92rcd13ifvqhrg","pricing_plan_id":"free"},{"bike_id":"7c63fd15-42d2-433e-9414-21cada8b87b0","system_id":"levelo_inurba_marseille","lat":43.33047,"lon":5.38915,"is_reserved":false,"is_disabled":false,"rental_uris":{"android":"levelo://app?vid=7c63fd15-42d2-433e-9414-21cada8b87b0","ios":"levelo://app?vid=7c63fd15-42d2-433e-9414-21cada8b87b0"},"vehicle_type_id":"4","last_reported":1682280388,"current_range_meters":4800,"station_id":"ce4bhr92rcd13ifvqhrg","pricing_plan_id":"free"},{"bike_id":"1f66ae08-1664-4618-8791-95e075116f71","system_id":"levelo_inurba_marseille","lat":43.33046,"lon":5.38917,"is_reserved":false,"is_disabled":false,"rental_uris":{"android":"levelo://app?vid=1f66ae08-1664-4618-8791-95e075116f71","ios":"levelo://app?vid=1f66ae08-1664-4618-8791-95e075116f71"},"vehicle_type_id":"4","last_reported":1682280388,"current_range_meters":0,"station_id":"ce4bhr92rcd13ifvqhrg","pricing_plan_id":"free"},{"bike_id":"90cb9cfa-6efa-4f5f-a110-88fae4ecad7a","system_id":"levelo_inurba_marseille","lat":43.290103,"lon":5.356114,"is_reserved":false,"is_disabled":false,"rental_uris":{"android":"levelo://app?vid=90cb9cfa-6efa-4f5f-a110-88fae4ecad7a","ios":"levelo://app?vid=90cb9cfa-6efa-4f5f-a110-88fae4ecad7a"},"vehicle_type_id":"4","last_reported":1682280388,"current_range_meters":26800,"station_id":"ce4bhb92rcd13ifvqen0","pricing_plan_id":"free"},{"bike_id":"62920b51-913f-48fd-9dc7-bb6d9ea5ff54","system_id":"levelo_inurba_marseille","lat":43.33045,"lon":5.38919,"is_reserved":false,"is_disabled":false,"rental_uris":{"android":"levelo://app?vid=62920b51-913f-48fd-9dc7-bb6d9ea5ff54","ios":"levelo://app?vid=62920b51-913f-48fd-9dc7-bb6d9ea5ff54"},"vehicle_type_id":"4","last_reported":1682280388,"current_range_meters":7200,"station_id":"ce4bhr92rcd13ifvqhrg","pricing_plan_id":"free"},{"bike_id":"ef5bdc27-8dc3-40e7-90e3-6c39017dadb6","system_id":"levelo_inurba_marseille","lat":43.3305,"lon":5.38914,"is_reserved":false,"is_disabled":false,"rental_uris":{"android":"levelo://app?vid=ef5bdc27-8dc3-40e7-90e3-6c39017dadb6","ios":"levelo://app?vid=ef5bdc27-8dc3-40e7-90e3-6c39017dadb6"},"vehicle_type_id":"4","last_reported":1682280388,"current_range_meters":16800,"station_id":"ce4bhr92rcd13ifvqhrg","pricing_plan_id":"free"},{"bike_id":"e9366c90-dd9a-4814-84be-ec46dc025363","system_id":"levelo_inurba_marseille","lat":43.33047,"lon":5.38919,"is_reserved":false,"is_disabled":false,"rental_uris":{"android":"levelo://app?vid=e9366c90-dd9a-4814-84be-ec46dc025363","ios":"levelo://app?vid=e9366c90-dd9a-4814-84be-ec46dc025363"},"vehicle_type_id":"4","last_reported":1682280388,"current_range_meters":22400,"station_id":"","pricing_plan_id":"free"},{"bike_id":"6c29e414-5565-4d7a-91b1-9898e30f3de9","system_id":"levelo_inurba_marseille","lat":43.33046,"lon":5.38923,"is_reserved":false,"is_disabled":false,"rental_uris":{"android":"levelo://app?vid=6c29e414-5565-4d7a-91b1-9898e30f3de9","ios":"levelo://app?vid=6c29e414-5565-4d7a-91b1-9898e30f3de9"},"vehicle_type_id":"4","last_reported":1682280388,"current_range_meters":20000,"station_id":"ce4bhr92rcd13ifvqhrg","pricing_plan_id":"free"},{"bike_id":"33722839-6a53-443e-9a73-e5cc9b3a44ce","system_id":"levelo_inurba_marseille","lat":43.33044,"lon":5.38928,"is_reserved":false,"is_disabled":false,"rental_uris":{"android":"levelo://app?vid=33722839-6a53-443e-9a73-e5cc9b3a44ce","ios":"levelo://app?vid=33722839-6a53-443e-9a73-e5cc9b3a44ce"},"vehicle_type_id":"4","last_reported":1682280388,"current_range_meters":4800,"station_id":"ce4bhr92rcd13ifvqhrg","pricing_plan_id":"free"},{"bike_id":"7640df33-f505-4b81-abf4-390a32942117","system_id":"levelo_inurba_marseille","lat":43.290995,"lon":5.381361,"is_reserved":false,"is_disabled":false,"rental_uris":{"android":"levelo://app?vid=7640df33-f505-4b81-abf4-390a32942117","ios":"levelo://app?vid=7640df33-f505-4b81-abf4-390a32942117"},"vehicle_type_id":"4","last_reported":1682280388,"current_range_meters":31200,"station_id":"ce4bh512rcd13ifvqe2g","pricing_plan_id":"free"},{"bike_id":"7074a851-1902-4e22-b9a8-ba58e6c6de5d","system_id":"levelo_inurba_marseille","lat":43.29528,"lon":5.39041,"is_reserved":false,"is_disabled":false,"rental_uris":{"android":"levelo://app?vid=7074a851-1902-4e22-b9a8-ba58e6c6de5d","ios":"levelo://app?vid=7074a851-1902-4e22-b9a8-ba58e6c6de5d"},"vehicle_type_id":"4","last_reported":1682280388,"current_range_meters":25200,"station_id":"ce4bh3p2rcd13ifvqdp0","pricing_plan_id":"free"},{"bike_id":"4b0167bd-e9fd-40b4-a8fd-c1cb3e46e372","system_id":"levelo_inurba_marseille","lat":43.29517,"lon":5.39035,"is_reserved":false,"is_disabled":false,"rental_uris":{"android":"levelo://app?vid=4b0167bd-e9fd-40b4-a8fd-c1cb3e46e372","ios":"levelo://app?vid=4b0167bd-e9fd-40b4-a8fd-c1cb3e46e372"},"vehicle_type_id":"4","last_reported":1682280388,"current_range_meters":0,"station_id":"ce4bh3p2rcd13ifvqdp0","pricing_plan_id":"free"},{"bike_id":"3ea8b0f5-3ebc-455f-8059-cf22a1ca19e3","system_id":"levelo_inurba_marseille","lat":43.2901,"lon":5.381269,"is_reserved":false,"is_disabled":false,"rental_uris":{"android":"levelo://app?vid=3ea8b0f5-3ebc-455f-8059-cf22a1ca19e3","ios":"levelo://app?vid=3ea8b0f5-3ebc-455f-8059-cf22a1ca19e3"},"vehicle_type_id":"4","last_reported":1682280388,"current_range_meters":25600,"station_id":"ce4bh4p2rcd13ifvqe1g","pricing_plan_id":"free"},{"bike_id":"1f94c161-d3b6-498e-bb3e-609dd67be584","system_id":"levelo_inurba_marseille","lat":43.28856,"lon":5.358371,"is_reserved":false,"is_disabled":false,"rental_uris":{"android":"levelo://app?vid=1f94c161-d3b6-498e-bb3e-609dd67be584","ios":"levelo://app?vid=1f94c161-d3b6-498e-bb3e-609dd67be584"},"vehicle_type_id":"4","last_reported":1682280388,"current_range_meters":1200,"station_id":"ce4bhb12rcd13ifvqem0","pricing_plan_id":"free"},{"bike_id":"ee667816-a8bd-4cea-b565-e1e465e36c62","system_id":"levelo_inurba_marseille","lat":43.290094,"lon":5.381264,"is_reserved":false,"is_disabled":false,"rental_uris":{"android":"levelo://app?vid=ee667816-a8bd-4cea-b565-e1e465e36c62","ios":"levelo://app?vid=ee667816-a8bd-4cea-b565-e1e465e36c62"},"vehicle_type_id":"4","last_reported":1682280388,"current_range_meters":16800,"station_id":"ce4bh4p2rcd13ifvqe1g","pricing_plan_id":"free"},{"bike_id":"506fedd1-9ad9-4f55-92de-1d6ee3c015b4","system_id":"levelo_inurba_marseille","lat":43.28856,"lon":5.358371,"is_reserved":false,"is_disabled":false,"rental_uris":{"android":"levelo://app?vid=506fedd1-9ad9-4f55-92de-1d6ee3c015b4","ios":"levelo://app?vid=506fedd1-9ad9-4f55-92de-1d6ee3c015b4"},"vehicle_type_id":"4","last_reported":1682280388,"current_range_meters":2000,"station_id":"ce4bhb12rcd13ifvqem0","pricing_plan_id":"free"},{"bike_id":"22eba81b-2947-4083-aab1-fed64e9be0f4","system_id":"levelo_inurba_marseille","lat":43.29026,"lon":5.38148,"is_reserved":false,"is_disabled":false,"rental_uris":{"android":"levelo://app?vid=22eba81b-2947-4083-aab1-fed64e9be0f4","ios":"levelo://app?vid=22eba81b-2947-4083-aab1-fed64e9be0f4"},"vehicle_type_id":"4","last_reported":1682280388,"current_range_meters":6400,"station_id":"ce4bh4p2rcd13ifvqe1g","pricing_plan_id":"free"},{"bike_id":"19af556d-15df-4104-9c00-5e7095a2ea38","system_id":"levelo_inurba_marseille","lat":43.28856,"lon":5.358371,"is_reserved":false,"is_disabled":false,"rental_uris":{"android":"levelo://app?vid=19af556d-15df-4104-9c00-5e7095a2ea38","ios":"levelo://app?vid=19af556d-15df-4104-9c00-5e7095a2ea38"},"vehicle_type_id":"4","last_reported":1682280388,"current_range_meters":1200,"station_id":"ce4bhb12rcd13ifvqem0","pricing_plan_id":"free"},{"bike_id":"d3b5261b-94fa-49f3-9136-7560a9ce35e5","system_id":"levelo_inurba_marseille","lat":43.29019,"lon":5.38143,"is_reserved":false,"is_disabled":false,"rental_uris":{"android":"levelo://app?vid=d3b5261b-94fa-49f3-9136-7560a9ce35e5","ios":"levelo://app?vid=d3b5261b-94fa-49f3-9136-7560a9ce35e5"},"vehicle_type_id":"4","last_reported":1682280388,"current_range_meters":0,"station_id":"ce4bh4p2rcd13ifvqe1g","pricing_plan_id":"free"},{"bike_id":"d201eafd-fd26-4608-a10a-a1cff117545b","system_id":"levelo_inurba_marseille","lat":43.30648,"lon":5.40073,"is_reserved":false,"is_disabled":false,"rental_uris":{"android":"levelo://app?vid=d201eafd-fd26-4608-a10a-a1cff117545b","ios":"levelo://app?vid=d201eafd-fd26-4608-a10a-a1cff117545b"},"vehicle_type_id":"4","last_reported":1682280388,"current_range_meters":10800,"station_id":"ce4bh112rcd13ifvqda0","pricing_plan_id":"free"},{"bike_id":"fa9f8966-ed2f-448f-9cf0-cc6ba1faadba","system_id":"levelo_inurba_marseille","lat":43.30645,"lon":5.40077,"is_reserved":false,"is_disabled":false,"rental_uris":{"android":"levelo://app?vid=fa9f8966-ed2f-448f-9cf0-cc6ba1faadba","ios":"levelo://app?vid=fa9f8966-ed2f-448f-9cf0-cc6ba1faadba"},"vehicle_type_id":"4","last_reported":1682280388,"current_range_meters":400,"station_id":"ce4bh112rcd13ifvqda0","pricing_plan_id":"free"},{"bike_id":"a8a788cf-01cb-4e9c-a1e2-29a1bc8105cb","system_id":"levelo_inurba_marseille","lat":43.30645,"lon":5.40078,"is_reserved":false,"is_disabled":false,"rental_uris":{"android":"levelo://app?vid=a8a788cf-01cb-4e9c-a1e2-29a1bc8105cb","ios":"levelo://app?vid=a8a788cf-01cb-4e9c-a1e2-29a1bc8105cb"},"vehicle_type_id":"4","last_reported":1682280388,"current_range_meters":25600,"station_id":"ce4bh112rcd13ifvqda0","pricing_plan_id":"free"},{"bike_id":"dd8544d1-4c66-4440-bb86-55269de3ebcf","system_id":"levelo_inurba_marseille","lat":43.30651,"lon":5.40081,"is_reserved":false,"is_disabled":false,"rental_uris":{"android":"levelo://app?vid=dd8544d1-4c66-4440-bb86-55269de3ebcf","ios":"levelo://app?vid=dd8544d1-4c66-4440-bb86-55269de3ebcf"},"vehicle_type_id":"4","last_reported":1682280388,"current_range_meters":12000,"station_id":"ce4bh112rcd13ifvqda0","pricing_plan_id":"free"},{"bike_id":"9a2c80b1-042d-4667-afea-99bed233480a","system_id":"levelo_inurba_marseille","lat":43.30641,"lon":5.40079,"is_reserved":false,"is_disabled":false,"rental_uris":{"android":"levelo://app?vid=9a2c80b1-042d-4667-afea-99bed233480a","ios":"levelo://app?vid=9a2c80b1-042d-4667-afea-99bed233480a"},"vehicle_type_id":"4","last_reported":1682280388,"current_range_meters":6400,"station_id":"ce4bh112rcd13ifvqda0","pricing_plan_id":"free"},{"bike_id":"c3bc16ac-c81e-4322-8728-6518c5fe8afb","system_id":"levelo_inurba_marseille","lat":43.30642,"lon":5.401031,"is_reserved":false,"is_disabled":false,"rental_uris":{"android":"levelo://app?vid=c3bc16ac-c81e-4322-8728-6518c5fe8afb","ios":"levelo://app?vid=c3bc16ac-c81e-4322-8728-6518c5fe8afb"},"vehicle_type_id":"4","last_reported":1682280388,"current_range_meters":2000,"station_id":"ce4bh112rcd13ifvqda0","pricing_plan_id":"free"},{"bike_id":"02989310-82dc-437f-818a-1a5794771557","system_id":"levelo_inurba_marseille","lat":43.30647,"lon":5.40088,"is_reserved":false,"is_disabled":false,"rental_uris":{"android":"levelo://app?vid=02989310-82dc-437f-818a-1a5794771557","ios":"levelo://app?vid=02989310-82dc-437f-818a-1a5794771557"},"vehicle_type_id":"4","last_reported":1682280388,"current_range_meters":21200,"station_id":"ce4bh112rcd13ifvqda0","pricing_plan_id":"free"},{"bike_id":"adf0688e-535b-4d29-9bce-cfffde5007cf","system_id":"levelo_inurba_marseille","lat":43.30642,"lon":5.401031,"is_reserved":false,"is_disabled":false,"rental_uris":{"android":"levelo://app?vid=adf0688e-535b-4d29-9bce-cfffde5007cf","ios":"levelo://app?vid=adf0688e-535b-4d29-9bce-cfffde5007cf"},"vehicle_type_id":"4","last_reported":1682280388,"current_range_meters":4800,"station_id":"ce4bh112rcd13ifvqda0","pricing_plan_id":"free"},{"bike_id":"87c9531a-2f0a-4a46-8b78-48565f2cf299","system_id":"levelo_inurba_marseille","lat":43.30642,"lon":5.401031,"is_reserved":false,"is_disabled":false,"rental_uris":{"android":"levelo://app?vid=87c9531a-2f0a-4a46-8b78-48565f2cf299","ios":"levelo://app?vid=87c9531a-2f0a-4a46-8b78-48565f2cf299"},"vehicle_type_id":"4","last_reported":1682280388,"current_range_meters":4400,"station_id":"ce4bh112rcd13ifvqda0","pricing_plan_id":"free"},{"bike_id":"759441e7-89ce-48d7-81f7-02f1745cd38f","system_id":"levelo_inurba_marseille","lat":43.30642,"lon":5.401031,"is_reserved":false,"is_disabled":false,"rental_uris":{"android":"levelo://app?vid=759441e7-89ce-48d7-81f7-02f1745cd38f","ios":"levelo://app?vid=759441e7-89ce-48d7-81f7-02f1745cd38f"},"vehicle_type_id":"4","last_reported":1682280388,"current_range_meters":28800,"station_id":"ce4bh112rcd13ifvqda0","pricing_plan_id":"free"},{"bike_id":"2acd6b44-e92d-4718-b4b7-9fa1b9471b52","system_id":"levelo_inurba_marseille","lat":43.30642,"lon":5.401031,"is_reserved":false,"is_disabled":false,"rental_uris":{"android":"levelo://app?vid=2acd6b44-e92d-4718-b4b7-9fa1b9471b52","ios":"levelo://app?vid=2acd6b44-e92d-4718-b4b7-9fa1b9471b52"},"vehicle_type_id":"4","last_reported":1682280388,"current_range_meters":4000,"station_id":"ce4bh112rcd13ifvqda0","pricing_plan_id":"free"},{"bike_id":"ee3ef6ae-c770-4516-a32e-0345556f2d4b","system_id":"levelo_inurba_marseille","lat":43.301117,"lon":5.398795,"is_reserved":false,"is_disabled":false,"rental_uris":{"android":"levelo://app?vid=ee3ef6ae-c770-4516-a32e-0345556f2d4b","ios":"levelo://app?vid=ee3ef6ae-c770-4516-a32e-0345556f2d4b"},"vehicle_type_id":"4","last_reported":1682280388,"current_range_meters":31200,"station_id":"ce4bh0h2rcd13ifvqd40","pricing_plan_id":"free"},{"bike_id":"a3b02c2f-a98d-4982-bba3-4ed4ed7e6a44","system_id":"levelo_inurba_marseille","lat":43.301117,"lon":5.398795,"is_reserved":false,"is_disabled":false,"rental_uris":{"android":"levelo://app?vid=a3b02c2f-a98d-4982-bba3-4ed4ed7e6a44","ios":"levelo://app?vid=a3b02c2f-a98d-4982-bba3-4ed4ed7e6a44"},"vehicle_type_id":"4","last_reported":1682280388,"current_range_meters":31200,"station_id":"ce4bh0h2rcd13ifvqd40","pricing_plan_id":"free"},{"bike_id":"7f6c87d0-b9c2-4fb2-a74c-7987d0f864c0","system_id":"levelo_inurba_marseille","lat":43.298681,"lon":5.397225,"is_reserved":false,"is_disabled":false,"rental_uris":{"android":"levelo://app?vid=7f6c87d0-b9c2-4fb2-a74c-7987d0f864c0","ios":"levelo://app?vid=7f6c87d0-b9c2-4fb2-a74c-7987d0f864c0"},"vehicle_type_id":"4","last_reported":1682280388,"current_range_meters":22000,"station_id":"ce4bh0h2rcd13ifvqd50","pricing_plan_id":"free"},{"bike_id":"67c97f90-a93e-4844-b0b6-418dfc69c15b","system_id":"levelo_inurba_marseille","lat":43.298681,"lon":5.397225,"is_reserved":false,"is_disabled":false,"rental_uris":{"android":"levelo://app?vid=67c97f90-a93e-4844-b0b6-418dfc69c15b","ios":"levelo://app?vid=67c97f90-a93e-4844-b0b6-418dfc69c15b"},"vehicle_type_id":"4","last_reported":1682280388,"current_range_meters":14000,"station_id":"ce4bh0h2rcd13ifvqd50","pricing_plan_id":"free"},{"bike_id":"1c8b45ef-af2b-4c73-8386-e5ef8cd90899","system_id":"levelo_inurba_marseille","lat":43.298681,"lon":5.397225,"is_reserved":false,"is_disabled":false,"rental_uris":{"android":"levelo://app?vid=1c8b45ef-af2b-4c73-8386-e5ef8cd90899","ios":"levelo://app?vid=1c8b45ef-af2b-4c73-8386-e5ef8cd90899"},"vehicle_type_id":"4","last_reported":1682280388,"current_range_meters":5200,"station_id":"ce4bh0h2rcd13ifvqd50","pricing_plan_id":"free"},{"bike_id":"a5b184af-47aa-47d4-ac8e-1cd95e520ac4","system_id":"levelo_inurba_marseille","lat":43.295196,"lon":5.39397,"is_reserved":false,"is_disabled":false,"rental_uris":{"android":"levelo://app?vid=a5b184af-47aa-47d4-ac8e-1cd95e520ac4","ios":"levelo://app?vid=a5b184af-47aa-47d4-ac8e-1cd95e520ac4"},"vehicle_type_id":"4","last_reported":1682280388,"current_range_meters":9200,"station_id":"ce4bh292rcd13ifvqdf0","pricing_plan_id":"free"},{"bike_id":"9f814d82-335b-47bd-8763-09b1c95d160a","system_id":"levelo_inurba_marseille","lat":43.29525,"lon":5.39398,"is_reserved":false,"is_disabled":false,"rental_uris":{"android":"levelo://app?vid=9f814d82-335b-47bd-8763-09b1c95d160a","ios":"levelo://app?vid=9f814d82-335b-47bd-8763-09b1c95d160a"},"vehicle_type_id":"4","last_reported":1682280388,"current_range_meters":2800,"station_id":"ce4bh292rcd13ifvqdf0","pricing_plan_id":"free"},{"bike_id":"84a84153-e5af-4b8a-8e4e-88bde311c720","system_id":"levelo_inurba_marseille","lat":43.295194,"lon":5.39397,"is_reserved":false,"is_disabled":false,"rental_uris":{"android":"levelo://app?vid=84a84153-e5af-4b8a-8e4e-88bde311c720","ios":"levelo://app?vid=84a84153-e5af-4b8a-8e4e-88bde311c720"},"vehicle_type_id":"4","last_reported":1682280388,"current_range_meters":15200,"station_id":"ce4bh292rcd13ifvqdf0","pricing_plan_id":"free"},{"bike_id":"c2c9ad0b-991f-4626-b08e-f848e54f5259","system_id":"levelo_inurba_marseille","lat":43.29522,"lon":5.39401,"is_reserved":false,"is_disabled":false,"rental_uris":{"android":"levelo://app?vid=c2c9ad0b-991f-4626-b08e-f848e54f5259","ios":"levelo://app?vid=c2c9ad0b-991f-4626-b08e-f848e54f5259"},"vehicle_type_id":"4","last_reported":1682280388,"current_range_meters":11200,"station_id":"ce4bh292rcd13ifvqdf0","pricing_plan_id":"free"},{"bike_id":"257ace5a-b9d6-4f74-a9d7-4d9c23a63c9f","system_id":"levelo_inurba_marseille","lat":43.295194,"lon":5.39397,"is_reserved":false,"is_disabled":false,"rental_uris":{"android":"levelo://app?vid=257ace5a-b9d6-4f74-a9d7-4d9c23a63c9f","ios":"levelo://app?vid=257ace5a-b9d6-4f74-a9d7-4d9c23a63c9f"},"vehicle_type_id":"4","last_reported":1682280388,"current_range_meters":20800,"station_id":"ce4bh292rcd13ifvqdf0","pricing_plan_id":"free"},{"bike_id":"d4244829-03dc-4639-9415-2e4fcbcf75d7","system_id":"levelo_inurba_marseille","lat":43.29528,"lon":5.39411,"is_reserved":false,"is_disabled":false,"rental_uris":{"android":"levelo://app?vid=d4244829-03dc-4639-9415-2e4fcbcf75d7","ios":"levelo://app?vid=d4244829-03dc-4639-9415-2e4fcbcf75d7"},"vehicle_type_id":"4","last_reported":1682280388,"current_range_meters":20400,"station_id":"ce4bh292rcd13ifvqdf0","pricing_plan_id":"free"},{"bike_id":"54324e82-7b29-4643-9318-9d84edc1c755","system_id":"levelo_inurba_marseille","lat":43.295194,"lon":5.39397,"is_reserved":false,"is_disabled":false,"rental_uris":{"android":"levelo://app?vid=54324e82-7b29-4643-9318-9d84edc1c755","ios":"levelo://app?vid=54324e82-7b29-4643-9318-9d84edc1c755"},"vehicle_type_id":"4","last_reported":1682280388,"current_range_meters":6000,"station_id":"ce4bh292rcd13ifvqdf0","pricing_plan_id":"free"},{"bike_id":"db042b62-eabe-48d2-afb1-439d011af2a3","system_id":"levelo_inurba_marseille","lat":43.29523,"lon":5.39408,"is_reserved":false,"is_disabled":false,"rental_uris":{"android":"levelo://app?vid=db042b62-eabe-48d2-afb1-439d011af2a3","ios":"levelo://app?vid=db042b62-eabe-48d2-afb1-439d011af2a3"},"vehicle_type_id":"4","last_reported":1682280388,"current_range_meters":13200,"station_id":"ce4bh292rcd13ifvqdf0","pricing_plan_id":"free"},{"bike_id":"d2a38e27-e9e4-4901-ac17-40e154b73137","system_id":"levelo_inurba_marseille","lat":43.28619,"lon":5.37062,"is_reserved":false,"is_disabled":false,"rental_uris":{"android":"levelo://app?vid=d2a38e27-e9e4-4901-ac17-40e154b73137","ios":"levelo://app?vid=d2a38e27-e9e4-4901-ac17-40e154b73137"},"vehicle_type_id":"4","last_reported":1682280388,"current_range_meters":23200,"station_id":"ce4bht12rcd13ifvqi60","pricing_plan_id":"free"},{"bike_id":"e3c67437-1e62-4be2-b395-ebc83b72eb6c","system_id":"levelo_inurba_marseille","lat":43.28614,"lon":5.37063,"is_reserved":false,"is_disabled":false,"rental_uris":{"android":"levelo://app?vid=e3c67437-1e62-4be2-b395-ebc83b72eb6c","ios":"levelo://app?vid=e3c67437-1e62-4be2-b395-ebc83b72eb6c"},"vehicle_type_id":"4","last_reported":1682280388,"current_range_meters":22800,"station_id":"ce4bht12rcd13ifvqi60","pricing_plan_id":"free"},{"bike_id":"c9dfe817-a554-47d1-9e27-c410fcc4a968","system_id":"levelo_inurba_marseille","lat":43.286039,"lon":5.370679,"is_reserved":false,"is_disabled":false,"rental_uris":{"android":"levelo://app?vid=c9dfe817-a554-47d1-9e27-c410fcc4a968","ios":"levelo://app?vid=c9dfe817-a554-47d1-9e27-c410fcc4a968"},"vehicle_type_id":"4","last_reported":1682280388,"current_range_meters":28800,"station_id":"ce4bht12rcd13ifvqi60","pricing_plan_id":"free"},{"bike_id":"4c5e60d7-de19-4591-99a8-614e3b163789","system_id":"levelo_inurba_marseille","lat":43.28611,"lon":5.37064,"is_reserved":false,"is_disabled":false,"rental_uris":{"android":"levelo://app?vid=4c5e60d7-de19-4591-99a8-614e3b163789","ios":"levelo://app?vid=4c5e60d7-de19-4591-99a8-614e3b163789"},"vehicle_type_id":"4","last_reported":1682280388,"current_range_meters":7200,"station_id":"ce4bht12rcd13ifvqi60","pricing_plan_id":"free"},{"bike_id":"b13bf3e4-6f91-49ad-a9fb-6e119a20a845","system_id":"levelo_inurba_marseille","lat":43.2861,"lon":5.37061,"is_reserved":false,"is_disabled":false,"rental_uris":{"android":"levelo://app?vid=b13bf3e4-6f91-49ad-a9fb-6e119a20a845","ios":"levelo://app?vid=b13bf3e4-6f91-49ad-a9fb-6e119a20a845"},"vehicle_type_id":"4","last_reported":1682280388,"current_range_meters":5200,"station_id":"ce4bht12rcd13ifvqi60","pricing_plan_id":"free"},{"bike_id":"717bc5a2-0918-40da-ae71-520c5decadac","system_id":"levelo_inurba_marseille","lat":43.2861,"lon":5.37072,"is_reserved":false,"is_disabled":false,"rental_uris":{"android":"levelo://app?vid=717bc5a2-0918-40da-ae71-520c5decadac","ios":"levelo://app?vid=717bc5a2-0918-40da-ae71-520c5decadac"},"vehicle_type_id":"4","last_reported":1682280388,"current_range_meters":6000,"station_id":"ce4bht12rcd13ifvqi60","pricing_plan_id":"free"},{"bike_id":"2edd24ff-4781-4feb-b74e-003778feb3a8","system_id":"levelo_inurba_marseille","lat":43.32948,"lon":5.39633,"is_reserved":false,"is_disabled":false,"rental_uris":{"android":"levelo://app?vid=2edd24ff-4781-4feb-b74e-003778feb3a8","ios":"levelo://app?vid=2edd24ff-4781-4feb-b74e-003778feb3a8"},"vehicle_type_id":"4","last_reported":1682280388,"current_range_meters":20000,"station_id":"","pricing_plan_id":"free"},{"bike_id":"67182f22-951e-4d47-bcde-3527b00beac9","system_id":"levelo_inurba_marseille","lat":43.31645,"lon":5.40435,"is_reserved":false,"is_disabled":false,"rental_uris":{"android":"levelo://app?vid=67182f22-951e-4d47-bcde-3527b00beac9","ios":"levelo://app?vid=67182f22-951e-4d47-bcde-3527b00beac9"},"vehicle_type_id":"4","last_reported":1682280388,"current_range_meters":15200,"station_id":"","pricing_plan_id":"free"},{"bike_id":"60d92bdc-45b8-4e22-8979-8ad62bad4692","system_id":"levelo_inurba_marseille","lat":43.31647,"lon":5.40435,"is_reserved":false,"is_disabled":false,"rental_uris":{"android":"levelo://app?vid=60d92bdc-45b8-4e22-8979-8ad62bad4692","ios":"levelo://app?vid=60d92bdc-45b8-4e22-8979-8ad62bad4692"},"vehicle_type_id":"4","last_reported":1682280388,"current_range_meters":14400,"station_id":"ce4bh012rcd13ifvqd00","pricing_plan_id":"free"},{"bike_id":"1c1482b2-4c59-4a2a-b696-c034e269a07d","system_id":"levelo_inurba_marseille","lat":43.31658,"lon":5.40442,"is_reserved":false,"is_disabled":false,"rental_uris":{"android":"levelo://app?vid=1c1482b2-4c59-4a2a-b696-c034e269a07d","ios":"levelo://app?vid=1c1482b2-4c59-4a2a-b696-c034e269a07d"},"vehicle_type_id":"4","last_reported":1682280388,"current_range_meters":19600,"station_id":"ce4bh012rcd13ifvqd00","pricing_plan_id":"free"},{"bike_id":"e78fc1d1-484a-49aa-8682-f886e52d652b","system_id":"levelo_inurba_marseille","lat":43.291994,"lon":5.392907,"is_reserved":false,"is_disabled":false,"rental_uris":{"android":"levelo://app?vid=e78fc1d1-484a-49aa-8682-f886e52d652b","ios":"levelo://app?vid=e78fc1d1-484a-49aa-8682-f886e52d652b"},"vehicle_type_id":"4","last_reported":1682280388,"current_range_meters":0,"station_id":"ce4bh192rcd13ifvqdd0","pricing_plan_id":"free"},{"bike_id":"d963b55b-123c-497f-baff-b5bef1a2e0cd","system_id":"levelo_inurba_marseille","lat":43.291994,"lon":5.392907,"is_reserved":false,"is_disabled":false,"rental_uris":{"android":"levelo://app?vid=d963b55b-123c-497f-baff-b5bef1a2e0cd","ios":"levelo://app?vid=d963b55b-123c-497f-baff-b5bef1a2e0cd"},"vehicle_type_id":"4","last_reported":1682280388,"current_range_meters":0,"station_id":"ce4bh192rcd13ifvqdd0","pricing_plan_id":"free"},{"bike_id":"618ec5c7-938d-4da9-a04a-460cb2eac1a0","system_id":"levelo_inurba_marseille","lat":43.291994,"lon":5.392907,"is_reserved":false,"is_disabled":false,"rental_uris":{"android":"levelo://app?vid=618ec5c7-938d-4da9-a04a-460cb2eac1a0","ios":"levelo://app?vid=618ec5c7-938d-4da9-a04a-460cb2eac1a0"},"vehicle_type_id":"4","last_reported":1682280388,"current_range_meters":4000,"station_id":"ce4bh192rcd13ifvqdd0","pricing_plan_id":"free"},{"bike_id":"a44ba002-e403-4774-b228-9c210b166327","system_id":"levelo_inurba_marseille","lat":43.284534,"lon":5.358662,"is_reserved":false,"is_disabled":false,"rental_uris":{"android":"levelo://app?vid=a44ba002-e403-4774-b228-9c210b166327","ios":"levelo://app?vid=a44ba002-e403-4774-b228-9c210b166327"},"vehicle_type_id":"4","last_reported":1682280388,"current_range_meters":0,"station_id":"ce4bhah2rcd13ifvqei0","pricing_plan_id":"free"},{"bike_id":"4fdd6d5c-8328-4a73-b359-a00357bca7ba","system_id":"levelo_inurba_marseille","lat":43.316517,"lon":5.404375,"is_reserved":false,"is_disabled":false,"rental_uris":{"android":"levelo://app?vid=4fdd6d5c-8328-4a73-b359-a00357bca7ba","ios":"levelo://app?vid=4fdd6d5c-8328-4a73-b359-a00357bca7ba"},"vehicle_type_id":"4","last_reported":1682280388,"current_range_meters":11600,"station_id":"ce4bh012rcd13ifvqd00","pricing_plan_id":"free"},{"bike_id":"4c5e0278-aa96-4e56-90e4-0414a54fc7a8","system_id":"levelo_inurba_marseille","lat":43.285848,"lon":5.350787,"is_reserved":false,"is_disabled":false,"rental_uris":{"android":"levelo://app?vid=4c5e0278-aa96-4e56-90e4-0414a54fc7a8","ios":"levelo://app?vid=4c5e0278-aa96-4e56-90e4-0414a54fc7a8"},"vehicle_type_id":"4","last_reported":1682280388,"current_range_meters":4800,"station_id":"ce4bhch2rcd13ifvqeug","pricing_plan_id":"free"},{"bike_id":"1fbd4be1-36a9-4786-b18b-12cef0222510","system_id":"levelo_inurba_marseille","lat":43.285848,"lon":5.350787,"is_reserved":false,"is_disabled":false,"rental_uris":{"android":"levelo://app?vid=1fbd4be1-36a9-4786-b18b-12cef0222510","ios":"levelo://app?vid=1fbd4be1-36a9-4786-b18b-12cef0222510"},"vehicle_type_id":"4","last_reported":1682280388,"current_range_meters":29600,"station_id":"ce4bhch2rcd13ifvqeug","pricing_plan_id":"free"},{"bike_id":"2f254fd4-335d-46af-a338-3ce72ea58ea6","system_id":"levelo_inurba_marseille","lat":43.30697,"lon":5.40635,"is_reserved":false,"is_disabled":false,"rental_uris":{"android":"levelo://app?vid=2f254fd4-335d-46af-a338-3ce72ea58ea6","ios":"levelo://app?vid=2f254fd4-335d-46af-a338-3ce72ea58ea6"},