{"last_updated":1757960087,"ttl":60,"version":"2.2","data":{"bikes":[{"bike_id":"ac084ded-3adf-4b0c-9b41-43db3b30746f","system_id":"levelo_inurba_marseille","lat":43.27918,"lon":5.39583,"is_reserved":false,"is_disabled":false,"rental_uris":{"android":"levelo://app?vid=ac084ded-3adf-4b0c-9b41-43db3b30746f","ios":"levelo://app?vid=ac084ded-3adf-4b0c-9b41-43db3b30746f"},"vehicle_type_id":"4","last_reported":1757960087,"current_range_meters":2800,"station_id":"ce4bhf92rcd13ifvqf40","pricing_plan_id":"cebpf4jnsgd1na2vs0mg"},{"bike_id":"54bb6f36-1162-476a-b7aa-a56124498ae5","system_id":"levelo_inurba_marseille","lat":43.29286,"lon":5.36824,"is_reserved":false,"is_disabled":false,"rental_uris":{"android":"levelo://app?vid=54bb6f36-1162-476a-b7aa-a56124498ae5","ios":"levelo://app?vid=54bb6f36-1162-476a-b7aa-a56124498ae5"},"vehicle_type_id":"4","last_reported":1757960087,"current_range_meters":2800,"station_id":"ce4bhbp2rcd13ifvqesg","pricing_plan_id":"cebpf4jnsgd1na2vs0mg"},{"bike_id":"db08b699-0e39-4bfa-b0b1-765b8c0d59c1","system_id":"levelo_inurba_marseille","lat":43.2668,"lon":5.3827,"is_reserved":false,"is_disabled":false,"rental_uris":{"android":"levelo://app?vid=db08b699-0e39-4bfa-b0b1-765b8c0d59c1","ios":"levelo://app?vid=db08b699-0e39-4bfa-b0b1-765b8c0d59c1"},"vehicle_type_id":"4","last_reported":1757960087,"current_range_meters":2800,"station_id":"ce4bhg92rcd13ifvqf90","pricing_plan_id":"cebpf4jnsgd1na2vs0mg"},{"bike_id":"a6fb472d-fbb8-444b-b011-a4b2de1db334","system_id":"levelo_inurba_marseille","lat":43.25362,"lon":5.40232,"is_reserved":false,"is_disabled":false,"rental_uris":{"android":"levelo://app?vid=a6fb472d-fbb8-444b-b011-a4b2de1db334","ios":"levelo://app?vid=a6fb472d-fbb8-444b-b011-a4b2de1db334"},"vehicle_type_id":"4","last_reported":1757960087,"current_range_meters":2800,"station_id":"","pricing_plan_id":"cebpf4jnsgd1na2vs0mg"},{"bike_id":"945c8963-3b17-4105-865d-b93f4b9319b2","system_id":"levelo_inurba_marseille","lat":43.287028,"lon":5.373817,"is_reserved":false,"is_disabled":false,"rental_uris":{"android":"levelo://app?vid=945c8963-3b17-4105-865d-b93f4b9319b2","ios":"levelo://app?vid=945c8963-3b17-4105-865d-b93f4b9319b2"},"vehicle_type_id":"4","last_reported":1757960087,"current_range_meters":2800,"station_id":"ce4bh3p2rcd13ifvqdq0","pricing_plan_id":"cebpf4jnsgd1na2vs0mg"},{"bike_id":"aef6622d-d536-4292-8bc3-7d101957f03b","system_id":"levelo_inurba_marseille","lat":43.29621,"lon":5.37153,"is_reserved":false,"is_disabled":false,"rental_uris":{"android":"levelo://app?vid=aef6622d-d536-4292-8bc3-7d101957f03b","ios":"levelo://app?vid=aef6622d-d536-4292-8bc3-7d101957f03b"},"vehicle_type_id":"4","last_reported":1757960087,"current_range_meters":2800,"station_id":"ce4bgnh2rcd13ifvqc0g","pricing_plan_id":"cebpf4jnsgd1na2vs0mg"},{"bike_id":"35d7958d-f32d-43aa-ab2b-4fefe820e1aa","system_id":"levelo_inurba_marseille","lat":43.26562,"lon":5.40326,"is_reserved":false,"is_disabled":false,"rental_uris":{"android":"levelo://app?vid=35d7958d-f32d-43aa-ab2b-4fefe820e1aa","ios":"levelo://app?vid=35d7958d-f32d-43aa-ab2b-4fefe820e1aa"},"vehicle_type_id":"4","last_reported":1757960087,"current_range_meters":2800,"station_id":"ce4bhmp2rcd13ifvqgng","pricing_plan_id":"cebpf4jnsgd1na2vs0mg"},{"bike_id":"4023f9f8-0d2b-4924-9aec-e50888a99f8a","system_id":"levelo_inurba_marseille","lat":43.28417,"lon":5.35,"is_reserved":false,"is_disabled":false,"rental_uris":{"android":"levelo://app?vid=4023f9f8-0d2b-4924-9aec-e50888a99f8a","ios":"levelo://app?vid=4023f9f8-0d2b-4924-9aec-e50888a99f8a"},"vehicle_type_id":"4","last_reported":1757960087,"current_range_meters":3200,"station_id":"ce4bhbh2rcd13ifvqepg","pricing_plan_id":"cebpf4jnsgd1na2vs0mg"},{"bike_id":"d1332c8f-454c-4c93-8466-8850dba47ed5","system_id":"levelo_inurba_marseille","lat":43.33008,"lon":5.39031,"is_reserved":false,"is_disabled":false,"rental_uris":{"android":"levelo://app?vid=d1332c8f-454c-4c93-8466-8850dba47ed5","ios":"levelo://app?vid=d1332c8f-454c-4c93-8466-8850dba47ed5"},"vehicle_type_id":"4","last_reported":1757960087,"current_range_meters":3200,"station_id":"ce4bhr92rcd13ifvqhrg","pricing_plan_id":"cebpf4jnsgd1na2vs0mg"},{"bike_id":"09eca4d1-495f-4184-9ae0-b5332b75011d","system_id":"levelo_inurba_marseille","lat":43.248,"lon":5.3746,"is_reserved":false,"is_disabled":true,"rental_uris":{"android":"levelo://app?vid=09eca4d1-495f-4184-9ae0-b5332b75011d","ios":"levelo://app?vid=09eca4d1-495f-4184-9ae0-b5332b75011d"},"vehicle_type_id":"4","last_reported":1757960087,"current_range_meters":3200,"station_id":"ce4bhgh2rcd13ifvqfb0","pricing_plan_id":"cebpf4jnsgd1na2vs0mg"},{"bike_id":"d765e876-dc94-417e-ad8c-0ac49bf5261a","system_id":"levelo_inurba_marseille","lat":43.33585,"lon":5.3611,"is_reserved":false,"is_disabled":false,"rental_uris":{"android":"levelo://app?vid=d765e876-dc94-417e-ad8c-0ac49bf5261a","ios":"levelo://app?vid=d765e876-dc94-417e-ad8c-0ac49bf5261a"},"vehicle_type_id":"4","last_reported":1757960087,"current_range_meters":3200,"station_id":"","pricing_plan_id":"cebpf4jnsgd1na2vs0mg"},{"bike_id":"2e01a0c2-0a5b-4a51-a316-a586de5f31c8","system_id":"levelo_inurba_marseille","lat":43.29886,"lon":5.38906,"is_reserved":false,"is_disabled":false,"rental_uris":{"android":"levelo://app?vid=2e01a0c2-0a5b-4a51-a316-a586de5f31c8","ios":"levelo://app?vid=2e01a0c2-0a5b-4a51-a316-a586de5f31c8"},"vehicle_type_id":"4","last_reported":1757960087,"current_range_meters":3200,"station_id":"ce4bh392rcd13ifvqdl0","pricing_plan_id":"cebpf4jnsgd1na2vs0mg"},{"bike_id":"4891d751-b66c-4a3d-89d5-78926b795844","system_id":"levelo_inurba_marseille","lat":43.337444,"lon":5.374475,"is_reserved":false,"is_disabled":false,"rental_uris":{"android":"levelo://app?vid=4891d751-b66c-4a3d-89d5-78926b795844","ios":"levelo://app?vid=4891d751-b66c-4a3d-89d5-78926b795844"},"vehicle_type_id":"4","last_reported":1757960087,"current_range_meters":3200,"station_id":"","pricing_plan_id":"cebpf4jnsgd1na2vs0mg"},{"bike_id":"9a45254c-c77a-469d-8fa3-a3fa05a580ba","system_id":"levelo_inurba_marseille","lat":43.27164,"lon":5.38666,"is_reserved":false,"is_disabled":false,"rental_uris":{"android":"levelo://app?vid=9a45254c-c77a-469d-8fa3-a3fa05a580ba","ios":"levelo://app?vid=9a45254c-c77a-469d-8fa3-a3fa05a580ba"},"vehicle_type_id":"4","last_reported":1757960087,"current_range_meters":3200,"station_id":"","pricing_plan_id":"cebpf4jnsgd1na2vs0mg"},{"bike_id":"eaa47835-63c8-4ab2-9740-b86acfe2f2c2","system_id":"levelo_inurba_marseille","lat":43.27171,"lon":5.40995,"is_reserved":false,"is_disabled":false,"rental_uris":{"android":"levelo://app?vid=eaa47835-63c8-4ab2-9740-b86acfe2f2c2","ios":"levelo://app?vid=eaa47835-63c8-4ab2-9740-b86acfe2f2c2"},"vehicle_type_id":"4","last_reported":1757960087,"current_range_meters":3200,"station_id":"ce4bhl12rcd13ifvqgf0","pricing_plan_id":"cebpf4jnsgd1na2vs0mg"},{"bike_id":"46abccb2-8643-462f-83c6-11d19b9f7030","system_id":"levelo_inurba_marseille","lat":43.280854,"lon":5.388382,"is_reserved":false,"is_disabled":false,"rental_uris":{"android":"levelo://app?vid=46abccb2-8643-462f-83c6-11d19b9f7030","ios":"levelo://app?vid=46abccb2-8643-462f-83c6-11d19b9f7030"},"vehicle_type_id":"4","last_reported":1757960087,"current_range_meters":3200,"station_id":"","pricing_plan_id":"cebpf4jnsgd1na2vs0mg"},{"bike_id":"d1f15977-2dc1-4c82-a942-9df03247a9cc","system_id":"levelo_inurba_marseille","lat":43.29776,"lon":5.39338,"is_reserved":false,"is_disabled":false,"rental_uris":{"android":"levelo://app?vid=d1f15977-2dc1-4c82-a942-9df03247a9cc","ios":"levelo://app?vid=d1f15977-2dc1-4c82-a942-9df03247a9cc"},"vehicle_type_id":"4","last_reported":1757960087,"current_range_meters":3600,"station_id":"chh1huq6cuj3fo74tm60","pricing_plan_id":"cebpf4jnsgd1na2vs0mg"},{"bike_id":"ae00ca39-83a2-4e47-9b51-f9697e68c066","system_id":"levelo_inurba_marseille","lat":43.31168,"lon":5.38715,"is_reserved":false,"is_disabled":false,"rental_uris":{"android":"levelo://app?vid=ae00ca39-83a2-4e47-9b51-f9697e68c066","ios":"levelo://app?vid=ae00ca39-83a2-4e47-9b51-f9697e68c066"},"vehicle_type_id":"4","last_reported":1757960087,"current_range_meters":3600,"station_id":"ce4bgv12rcd13ifvqcp0","pricing_plan_id":"cebpf4jnsgd1na2vs0mg"},{"bike_id":"96e11808-2023-4201-865d-189cd33ff7e6","system_id":"levelo_inurba_marseille","lat":43.31118,"lon":5.37772,"is_reserved":false,"is_disabled":false,"rental_uris":{"android":"levelo://app?vid=96e11808-2023-4201-865d-189cd33ff7e6","ios":"levelo://app?vid=96e11808-2023-4201-865d-189cd33ff7e6"},"vehicle_type_id":"4","last_reported":1757960087,"current_range_meters":3600,"station_id":"ce4bgt92rcd13ifvqcg0","pricing_plan_id":"cebpf4jnsgd1na2vs0mg"},{"bike_id":"7d16adba-d848-4062-b191-9b9c96200bb9","system_id":"levelo_inurba_marseille","lat":43.265447,"lon":5.390457,"is_reserved":false,"is_disabled":false,"rental_uris":{"android":"levelo://app?vid=7d16adba-d848-4062-b191-9b9c96200bb9","ios":"levelo://app?vid=7d16adba-d848-4062-b191-9b9c96200bb9"},"vehicle_type_id":"4","last_reported":1757960087,"current_range_meters":3600,"station_id":"ce4bhe12rcd13ifvqf30","pricing_plan_id":"cebpf4jnsgd1na2vs0mg"},{"bike_id":"afd70d28-4174-4093-b8d1-dc79214d8be8","system_id":"levelo_inurba_marseille","lat":43.29815,"lon":5.37696,"is_reserved":false,"is_disabled":true,"rental_uris":{"android":"levelo://app?vid=afd70d28-4174-4093-b8d1-dc79214d8be8","ios":"levelo://app?vid=afd70d28-4174-4093-b8d1-dc79214d8be8"},"vehicle_type_id":"4","last_reported":1757960087,"current_range_meters":3600,"station_id":"","pricing_plan_id":"cebpf4jnsgd1na2vs0mg"},{"bike_id":"0b40790a-64f5-495f-b13a-8813deffe3e1","system_id":"levelo_inurba_marseille","lat":43.28852,"lon":5.35816,"is_reserved":false,"is_disabled":false,"rental_uris":{"android":"levelo://app?vid=0b40790a-64f5-495f-b13a-8813deffe3e1","ios":"levelo://app?vid=0b40790a-64f5-495f-b13a-8813deffe3e1"},"vehicle_type_id":"4","last_reported":1757960087,"current_range_meters":4000,"station_id":"ce4bhb12rcd13ifvqem0","pricing_plan_id":"cebpf4jnsgd1na2vs0mg"},{"bike_id":"55d59e02-f5a5-4e1a-9360-556e842fa2a4","system_id":"levelo_inurba_marseille","lat":43.33764,"lon":5.37496,"is_reserved":false,"is_disabled":false,"rental_uris":{"android":"levelo://app?vid=55d59e02-f5a5-4e1a-9360-556e842fa2a4","ios":"levelo://app?vid=55d59e02-f5a5-4e1a-9360-556e842fa2a4"},"vehicle_type_id":"4","last_reported":1757960087,"current_range_meters":4000,"station_id":"","pricing_plan_id":"cebpf4jnsgd1na2vs0mg"},{"bike_id":"595fcf91-2e66-4c2b-8a3c-21ddb133f196","system_id":"levelo_inurba_marseille","lat":43.21769,"lon":5.34595,"is_reserved":false,"is_disabled":true,"rental_uris":{"android":"levelo://app?vid=595fcf91-2e66-4c2b-8a3c-21ddb133f196","ios":"levelo://app?vid=595fcf91-2e66-4c2b-8a3c-21ddb133f196"},"vehicle_type_id":"4","last_reported":1757960087,"current_range_meters":4000,"station_id":"st_cvj6r9ubvosntc0bgbag","pricing_plan_id":"cebpf4jnsgd1na2vs0mg"},{"bike_id":"d5c98035-fc72-4062-a3ec-13203f68e8ed","system_id":"levelo_inurba_marseille","lat":43.28861,"lon":5.42515,"is_reserved":false,"is_disabled":false,"rental_uris":{"android":"levelo://app?vid=d5c98035-fc72-4062-a3ec-13203f68e8ed","ios":"levelo://app?vid=d5c98035-fc72-4062-a3ec-13203f68e8ed"},"vehicle_type_id":"4","last_reported":1757960087,"current_range_meters":4000,"station_id":"","pricing_plan_id":"cebpf4jnsgd1na2vs0mg"},{"bike_id":"02dbb44c-70e3-4a7a-b86e-6159cc35ba47","system_id":"levelo_inurba_marseille","lat":43.29587,"lon":5.38689,"is_reserved":false,"is_disabled":false,"rental_uris":{"android":"levelo://app?vid=02dbb44c-70e3-4a7a-b86e-6159cc35ba47","ios":"levelo://app?vid=02dbb44c-70e3-4a7a-b86e-6159cc35ba47"},"vehicle_type_id":"4","last_reported":1757960087,"current_range_meters":4000,"station_id":"ce4bgih2rcd13ifvqba0","pricing_plan_id":"cebpf4jnsgd1na2vs0mg"},{"bike_id":"7387c89a-8467-48b0-a31f-485197e7ff3b","system_id":"levelo_inurba_marseille","lat":43.297985,"lon":5.404083,"is_reserved":false,"is_disabled":false,"rental_uris":{"android":"levelo://app?vid=7387c89a-8467-48b0-a31f-485197e7ff3b","ios":"levelo://app?vid=7387c89a-8467-48b0-a31f-485197e7ff3b"},"vehicle_type_id":"4","last_reported":1757960087,"current_range_meters":4000,"station_id":"ce4bh112rcd13ifvqd90","pricing_plan_id":"cebpf4jnsgd1na2vs0mg"},{"bike_id":"a40a72d4-bc31-4df7-a863-a34b4bd8c57f","system_id":"levelo_inurba_marseille","lat":43.30086,"lon":5.39081,"is_reserved":false,"is_disabled":false,"rental_uris":{"android":"levelo://app?vid=a40a72d4-bc31-4df7-a863-a34b4bd8c57f","ios":"levelo://app?vid=a40a72d4-bc31-4df7-a863-a34b4bd8c57f"},"vehicle_type_id":"4","last_reported":1757960087,"current_range_meters":4400,"station_id":"ce4bh192rcd13ifvqdb0","pricing_plan_id":"cebpf4jnsgd1na2vs0mg"},{"bike_id":"da885065-f0e2-4903-847a-a135839851b4","system_id":"levelo_inurba_marseille","lat":43.280406,"lon":5.369459,"is_reserved":false,"is_disabled":false,"rental_uris":{"android":"levelo://app?vid=da885065-f0e2-4903-847a-a135839851b4","ios":"levelo://app?vid=da885065-f0e2-4903-847a-a135839851b4"},"vehicle_type_id":"4","last_reported":1757960087,"current_range_meters":4400,"station_id":"ce4bha12rcd13ifvqef0","pricing_plan_id":"cebpf4jnsgd1na2vs0mg"},{"bike_id":"e9b2bdcd-e17f-418e-bcce-4d04434ce4c4","system_id":"levelo_inurba_marseille","lat":43.30611,"lon":5.37203,"is_reserved":false,"is_disabled":false,"rental_uris":{"android":"levelo://app?vid=e9b2bdcd-e17f-418e-bcce-4d04434ce4c4","ios":"levelo://app?vid=e9b2bdcd-e17f-418e-bcce-4d04434ce4c4"},"vehicle_type_id":"4","last_reported":1757960087,"current_range_meters":4400,"station_id":"ce4bgqh2rcd13ifvqc4g","pricing_plan_id":"cebpf4jnsgd1na2vs0mg"},{"bike_id":"64fd3338-9664-4eab-9d69-526a809f8c3c","system_id":"levelo_inurba_marseille","lat":43.33748,"lon":5.36728,"is_reserved":false,"is_disabled":false,"rental_uris":{"android":"levelo://app?vid=64fd3338-9664-4eab-9d69-526a809f8c3c","ios":"levelo://app?vid=64fd3338-9664-4eab-9d69-526a809f8c3c"},"vehicle_type_id":"4","last_reported":1757960087,"current_range_meters":4400,"station_id":"","pricing_plan_id":"cebpf4jnsgd1na2vs0mg"},{"bike_id":"96b482fa-b312-4a3b-8baa-23ebfd3b4d16","system_id":"levelo_inurba_marseille","lat":43.26566,"lon":5.38999,"is_reserved":false,"is_disabled":false,"rental_uris":{"android":"levelo://app?vid=96b482fa-b312-4a3b-8baa-23ebfd3b4d16","ios":"levelo://app?vid=96b482fa-b312-4a3b-8baa-23ebfd3b4d16"},"vehicle_type_id":"4","last_reported":1757960087,"current_range_meters":4400,"station_id":"ce4bhe12rcd13ifvqf30","pricing_plan_id":"cebpf4jnsgd1na2vs0mg"},{"bike_id":"51a39aec-cb33-4049-8a8a-fc769b685dec","system_id":"levelo_inurba_marseille","lat":43.29203,"lon":5.35795,"is_reserved":false,"is_disabled":false,"rental_uris":{"android":"levelo://app?vid=51a39aec-cb33-4049-8a8a-fc769b685dec","ios":"levelo://app?vid=51a39aec-cb33-4049-8a8a-fc769b685dec"},"vehicle_type_id":"4","last_reported":1757960087,"current_range_meters":4400,"station_id":"ce4bhb12rcd13ifvqel0","pricing_plan_id":"cebpf4jnsgd1na2vs0mg"},{"bike_id":"c8c54fe0-f80f-446b-b5b6-23cb1ad762a6","system_id":"levelo_inurba_marseille","lat":43.28835,"lon":5.35771,"is_reserved":false,"is_disabled":false,"rental_uris":{"android":"levelo://app?vid=c8c54fe0-f80f-446b-b5b6-23cb1ad762a6","ios":"levelo://app?vid=c8c54fe0-f80f-446b-b5b6-23cb1ad762a6"},"vehicle_type_id":"4","last_reported":1757960087,"current_range_meters":4800,"station_id":"","pricing_plan_id":"cebpf4jnsgd1na2vs0mg"},{"bike_id":"041ac535-73d7-4e80-aec4-41370d8e477f","system_id":"levelo_inurba_marseille","lat":43.30883,"lon":5.396643,"is_reserved":false,"is_disabled":false,"rental_uris":{"android":"levelo://app?vid=041ac535-73d7-4e80-aec4-41370d8e477f","ios":"levelo://app?vid=041ac535-73d7-4e80-aec4-41370d8e477f"},"vehicle_type_id":"4","last_reported":1757960087,"current_range_meters":4800,"station_id":"ce4bh012rcd13ifvqcv0","pricing_plan_id":"cebpf4jnsgd1na2vs0mg"},{"bike_id":"78aa7aa3-fa4b-4702-80d2-59be4863fd0f","system_id":"levelo_inurba_marseille","lat":43.30254,"lon":5.40076,"is_reserved":false,"is_disabled":false,"rental_uris":{"android":"levelo://app?vid=78aa7aa3-fa4b-4702-80d2-59be4863fd0f","ios":"levelo://app?vid=78aa7aa3-fa4b-4702-80d2-59be4863fd0f"},"vehicle_type_id":"4","last_reported":1757960087,"current_range_meters":4800,"station_id":"ce4bgvh2rcd13ifvqcs0","pricing_plan_id":"cebpf4jnsgd1na2vs0mg"},{"bike_id":"e1338670-dc57-4831-85d5-8813247ad0b1","system_id":"levelo_inurba_marseille","lat":43.262265,"lon":5.404521,"is_reserved":false,"is_disabled":false,"rental_uris":{"android":"levelo://app?vid=e1338670-dc57-4831-85d5-8813247ad0b1","ios":"levelo://app?vid=e1338670-dc57-4831-85d5-8813247ad0b1"},"vehicle_type_id":"4","last_reported":1757960087,"current_range_meters":4800,"station_id":"ce4bhmh2rcd13ifvqgmg","pricing_plan_id":"cebpf4jnsgd1na2vs0mg"},{"bike_id":"5bc793c8-b745-45c4-acbb-39234a4c79b5","system_id":"levelo_inurba_marseille","lat":43.25332,"lon":5.42172,"is_reserved":false,"is_disabled":false,"rental_uris":{"android":"levelo://app?vid=5bc793c8-b745-45c4-acbb-39234a4c79b5","ios":"levelo://app?vid=5bc793c8-b745-45c4-acbb-39234a4c79b5"},"vehicle_type_id":"4","last_reported":1757960087,"current_range_meters":4800,"station_id":"st_d2m65c5bi1j21697t3ng","pricing_plan_id":"cebpf4jnsgd1na2vs0mg"},{"bike_id":"aa8c1252-e98e-442a-bdf0-180ed9d90ef5","system_id":"levelo_inurba_marseille","lat":43.29621,"lon":5.37148,"is_reserved":false,"is_disabled":false,"rental_uris":{"android":"levelo://app?vid=aa8c1252-e98e-442a-bdf0-180ed9d90ef5","ios":"levelo://app?vid=aa8c1252-e98e-442a-bdf0-180ed9d90ef5"},"vehicle_type_id":"4","last_reported":1757960087,"current_range_meters":4800,"station_id":"ce4bgnh2rcd13ifvqc0g","pricing_plan_id":"cebpf4jnsgd1na2vs0mg"},{"bike_id":"32ed2db0-4b28-4f1f-9db9-a0f0bfeb84d6","system_id":"levelo_inurba_marseille","lat":43.27068,"lon":5.4228,"is_reserved":false,"is_disabled":false,"rental_uris":{"android":"levelo://app?vid=32ed2db0-4b28-4f1f-9db9-a0f0bfeb84d6","ios":"levelo://app?vid=32ed2db0-4b28-4f1f-9db9-a0f0bfeb84d6"},"vehicle_type_id":"4","last_reported":1757960087,"current_range_meters":4800,"station_id":"ce4bhk92rcd13ifvqgb0","pricing_plan_id":"cebpf4jnsgd1na2vs0mg"},{"bike_id":"729aa0ab-ef3f-4eea-a1d2-1a7c78a820a8","system_id":"levelo_inurba_marseille","lat":43.254682,"lon":5.420497,"is_reserved":false,"is_disabled":false,"rental_uris":{"android":"levelo://app?vid=729aa0ab-ef3f-4eea-a1d2-1a7c78a820a8","ios":"levelo://app?vid=729aa0ab-ef3f-4eea-a1d2-1a7c78a820a8"},"vehicle_type_id":"4","last_reported":1757960087,"current_range_meters":5600,"station_id":"","pricing_plan_id":"cebpf4jnsgd1na2vs0mg"},{"bike_id":"c5cba6d7-e282-4417-a818-5fc0802dcb08","system_id":"levelo_inurba_marseille","lat":43.33761,"lon":5.3745,"is_reserved":false,"is_disabled":false,"rental_uris":{"android":"levelo://app?vid=c5cba6d7-e282-4417-a818-5fc0802dcb08","ios":"levelo://app?vid=c5cba6d7-e282-4417-a818-5fc0802dcb08"},"vehicle_type_id":"4","last_reported":1757960087,"current_range_meters":5600,"station_id":"","pricing_plan_id":"cebpf4jnsgd1na2vs0mg"},{"bike_id":"c9f066cf-937f-4b22-83aa-cf3e8c3469aa","system_id":"levelo_inurba_marseille","lat":43.29271,"lon":5.36852,"is_reserved":false,"is_disabled":false,"rental_uris":{"android":"levelo://app?vid=c9f066cf-937f-4b22-83aa-cf3e8c3469aa","ios":"levelo://app?vid=c9f066cf-937f-4b22-83aa-cf3e8c3469aa"},"vehicle_type_id":"4","last_reported":1757960087,"current_range_meters":5600,"station_id":"ce4bhbp2rcd13ifvqesg","pricing_plan_id":"cebpf4jnsgd1na2vs0mg"},{"bike_id":"cde85143-0216-400e-bdd4-67187d1a06fd","system_id":"levelo_inurba_marseille","lat":43.33766,"lon":5.37438,"is_reserved":false,"is_disabled":false,"rental_uris":{"android":"levelo://app?vid=cde85143-0216-400e-bdd4-67187d1a06fd","ios":"levelo://app?vid=cde85143-0216-400e-bdd4-67187d1a06fd"},"vehicle_type_id":"4","last_reported":1757960087,"current_range_meters":5600,"station_id":"","pricing_plan_id":"cebpf4jnsgd1na2vs0mg"},{"bike_id":"237698c3-f7a7-4aa0-a898-7a0e8095f7be","system_id":"levelo_inurba_marseille","lat":43.303047,"lon":5.392086,"is_reserved":false,"is_disabled":true,"rental_uris":{"android":"levelo://app?vid=237698c3-f7a7-4aa0-a898-7a0e8095f7be","ios":"levelo://app?vid=237698c3-f7a7-4aa0-a898-7a0e8095f7be"},"vehicle_type_id":"4","last_reported":1757960087,"current_range_meters":6000,"station_id":"","pricing_plan_id":"cebpf4jnsgd1na2vs0mg"},{"bike_id":"c02efad3-eb48-45f3-9f89-15e3147a6ff5","system_id":"levelo_inurba_marseille","lat":43.258194,"lon":5.394379,"is_reserved":false,"is_disabled":false,"rental_uris":{"android":"levelo://app?vid=c02efad3-eb48-45f3-9f89-15e3147a6ff5","ios":"levelo://app?vid=c02efad3-eb48-45f3-9f89-15e3147a6ff5"},"vehicle_type_id":"4","last_reported":1757960087,"current_range_meters":6000,"station_id":"ce4bhip2rcd13ifvqft0","pricing_plan_id":"cebpf4jnsgd1na2vs0mg"},{"bike_id":"d9c11a94-d122-4240-b95b-24fdee8810ac","system_id":"levelo_inurba_marseille","lat":43.282727,"lon":5.399063,"is_reserved":false,"is_disabled":false,"rental_uris":{"android":"levelo://app?vid=d9c11a94-d122-4240-b95b-24fdee8810ac","ios":"levelo://app?vid=d9c11a94-d122-4240-b95b-24fdee8810ac"},"vehicle_type_id":"4","last_reported":1757960087,"current_range_meters":6000,"station_id":"","pricing_plan_id":"cebpf4jnsgd1na2vs0mg"},{"bike_id":"7c1fc402-018d-497b-9f28-30d0925b8ff9","system_id":"levelo_inurba_marseille","lat":43.30246,"lon":5.40062,"is_reserved":false,"is_disabled":false,"rental_uris":{"android":"levelo://app?vid=7c1fc402-018d-497b-9f28-30d0925b8ff9","ios":"levelo://app?vid=7c1fc402-018d-497b-9f28-30d0925b8ff9"},"vehicle_type_id":"4","last_reported":1757960087,"current_range_meters":6000,"station_id":"ce4bgvh2rcd13ifvqcs0","pricing_plan_id":"cebpf4jnsgd1na2vs0mg"},{"bike_id":"152d8046-5e55-455a-9ac3-2109c76490e4","system_id":"levelo_inurba_marseille","lat":43.27822,"lon":5.39212,"is_reserved":false,"is_disabled":false,"rental_uris":{"android":"levelo://app?vid=152d8046-5e55-455a-9ac3-2109c76490e4","ios":"levelo://app?vid=152d8046-5e55-455a-9ac3-2109c76490e4"},"vehicle_type_id":"4","last_reported":1757960087,"current_range_meters":6000,"station_id":"ce4bhjp2rcd13ifvqga0","pricing_plan_id":"cebpf4jnsgd1na2vs0mg"},{"bike_id":"a3601723-38a1-4cee-83ef-fcb51e3b3705","system_id":"levelo_inurba_marseille","lat":43.28688,"lon":5.38644,"is_reserved":false,"is_disabled":false,"rental_uris":{"android":"levelo://app?vid=a3601723-38a1-4cee-83ef-fcb51e3b3705","ios":"levelo://app?vid=a3601723-38a1-4cee-83ef-fcb51e3b3705"},"vehicle_type_id":"4","last_reported":1757960087,"current_range_meters":6000,"station_id":"ce4bh492rcd13ifvqdug","pricing_plan_id":"cebpf4jnsgd1na2vs0mg"},{"bike_id":"58b2b423-350d-4856-b516-4fc2f60e0e6d","system_id":"levelo_inurba_marseille","lat":43.32483,"lon":5.36565,"is_reserved":false,"is_disabled":false,"rental_uris":{"android":"levelo://app?vid=58b2b423-350d-4856-b516-4fc2f60e0e6d","ios":"levelo://app?vid=58b2b423-350d-4856-b516-4fc2f60e0e6d"},"vehicle_type_id":"4","last_reported":1757960087,"current_range_meters":6400,"station_id":"ce4bhs12rcd13ifvqhvg","pricing_plan_id":"cebpf4jnsgd1na2vs0mg"},{"bike_id":"eefabda6-082e-41d7-9051-15af91c7b2ad","system_id":"levelo_inurba_marseille","lat":43.29275,"lon":5.36847,"is_reserved":false,"is_disabled":false,"rental_uris":{"android":"levelo://app?vid=eefabda6-082e-41d7-9051-15af91c7b2ad","ios":"levelo://app?vid=eefabda6-082e-41d7-9051-15af91c7b2ad"},"vehicle_type_id":"4","last_reported":1757960087,"current_range_meters":6400,"station_id":"ce4bhbp2rcd13ifvqesg","pricing_plan_id":"cebpf4jnsgd1na2vs0mg"},{"bike_id":"6232195a-e912-472e-a229-2cd01c2c5a6e","system_id":"levelo_inurba_marseille","lat":43.33029,"lon":5.39015,"is_reserved":false,"is_disabled":false,"rental_uris":{"android":"levelo://app?vid=6232195a-e912-472e-a229-2cd01c2c5a6e","ios":"levelo://app?vid=6232195a-e912-472e-a229-2cd01c2c5a6e"},"vehicle_type_id":"4","last_reported":1757960087,"current_range_meters":6400,"station_id":"ce4bhr92rcd13ifvqhrg","pricing_plan_id":"cebpf4jnsgd1na2vs0mg"},{"bike_id":"d3a52a8f-0965-48c0-aaae-fba9935b30d8","system_id":"levelo_inurba_marseille","lat":43.27613,"lon":5.36115,"is_reserved":false,"is_disabled":false,"rental_uris":{"android":"levelo://app?vid=d3a52a8f-0965-48c0-aaae-fba9935b30d8","ios":"levelo://app?vid=d3a52a8f-0965-48c0-aaae-fba9935b30d8"},"vehicle_type_id":"4","last_reported":1757960087,"current_range_meters":6400,"station_id":"ce4bgj92rcd13ifvqbe0","pricing_plan_id":"cebpf4jnsgd1na2vs0mg"},{"bike_id":"0f82ad53-6aba-42be-b44c-268cce04c744","system_id":"levelo_inurba_marseille","lat":43.28939,"lon":5.36636,"is_reserved":false,"is_disabled":false,"rental_uris":{"android":"levelo://app?vid=0f82ad53-6aba-42be-b44c-268cce04c744","ios":"levelo://app?vid=0f82ad53-6aba-42be-b44c-268cce04c744"},"vehicle_type_id":"4","last_reported":1757960087,"current_range_meters":6400,"station_id":"ce4bhap2rcd13ifvqek0","pricing_plan_id":"cebpf4jnsgd1na2vs0mg"},{"bike_id":"0311d3d7-9c3c-493c-97a4-a4becaaa6adc","system_id":"levelo_inurba_marseille","lat":43.2923,"lon":5.36047,"is_reserved":false,"is_disabled":false,"rental_uris":{"android":"levelo://app?vid=0311d3d7-9c3c-493c-97a4-a4becaaa6adc","ios":"levelo://app?vid=0311d3d7-9c3c-493c-97a4-a4becaaa6adc"},"vehicle_type_id":"4","last_reported":1757960087,"current_range_meters":6400,"station_id":"ce4bhbh2rcd13ifvqeqg","pricing_plan_id":"cebpf4jnsgd1na2vs0mg"},{"bike_id":"ff492c35-4bda-46c5-a136-906d9ef56ad9","system_id":"levelo_inurba_marseille","lat":43.28099,"lon":5.3787,"is_reserved":false,"is_disabled":false,"rental_uris":{"android":"levelo://app?vid=ff492c35-4bda-46c5-a136-906d9ef56ad9","ios":"levelo://app?vid=ff492c35-4bda-46c5-a136-906d9ef56ad9"},"vehicle_type_id":"4","last_reported":1757960087,"current_range_meters":6400,"station_id":"ce4bha12rcd13ifvqee0","pricing_plan_id":"cebpf4jnsgd1na2vs0mg"},{"bike_id":"f58c3cf8-9b40-430c-9888-1f65cde26d6b","system_id":"levelo_inurba_marseille","lat":43.34049,"lon":5.40104,"is_reserved":false,"is_disabled":false,"rental_uris":{"android":"levelo://app?vid=f58c3cf8-9b40-430c-9888-1f65cde26d6b","ios":"levelo://app?vid=f58c3cf8-9b40-430c-9888-1f65cde26d6b"},"vehicle_type_id":"4","last_reported":1757960087,"current_range_meters":6400,"station_id":"","pricing_plan_id":"cebpf4jnsgd1na2vs0mg"},{"bike_id":"30e85da9-4a4e-420a-bc64-cfe1eeea89eb","system_id":"levelo_inurba_marseille","lat":43.28333,"lon":5.3764,"is_reserved":false,"is_disabled":false,"rental_uris":{"android":"levelo://app?vid=30e85da9-4a4e-420a-bc64-cfe1eeea89eb","ios":"levelo://app?vid=30e85da9-4a4e-420a-bc64-cfe1eeea89eb"},"vehicle_type_id":"4","last_reported":1757960087,"current_range_meters":6400,"station_id":"","pricing_plan_id":"cebpf4jnsgd1na2vs0mg"},{"bike_id":"a41afc5e-eaeb-4d93-b7ea-7be1967b1171","system_id":"levelo_inurba_marseille","lat":43.29093,"lon":5.38128,"is_reserved":false,"is_disabled":false,"rental_uris":{"android":"levelo://app?vid=a41afc5e-eaeb-4d93-b7ea-7be1967b1171","ios":"levelo://app?vid=a41afc5e-eaeb-4d93-b7ea-7be1967b1171"},"vehicle_type_id":"4","last_reported":1757960087,"current_range_meters":6400,"station_id":"ce4bh512rcd13ifvqe2g","pricing_plan_id":"cebpf4jnsgd1na2vs0mg"},{"bike_id":"9552ee48-cc9d-4393-9adc-9f063f0e95ac","system_id":"levelo_inurba_marseille","lat":43.29891,"lon":5.38907,"is_reserved":false,"is_disabled":false,"rental_uris":{"android":"levelo://app?vid=9552ee48-cc9d-4393-9adc-9f063f0e95ac","ios":"levelo://app?vid=9552ee48-cc9d-4393-9adc-9f063f0e95ac"},"vehicle_type_id":"4","last_reported":1757960087,"current_range_meters":6400,"station_id":"ce4bh392rcd13ifvqdl0","pricing_plan_id":"cebpf4jnsgd1na2vs0mg"},{"bike_id":"56fa3e33-56e5-4cd4-a988-95981d6fc344","system_id":"levelo_inurba_marseille","lat":43.22537,"lon":5.34858,"is_reserved":false,"is_disabled":false,"rental_uris":{"android":"levelo://app?vid=56fa3e33-56e5-4cd4-a988-95981d6fc344","ios":"levelo://app?vid=56fa3e33-56e5-4cd4-a988-95981d6fc344"},"vehicle_type_id":"4","last_reported":1757960087,"current_range_meters":6800,"station_id":"","pricing_plan_id":"cebpf4jnsgd1na2vs0mg"},{"bike_id":"9489e451-a954-40de-b5f3-1b1d26ec3e53","system_id":"levelo_inurba_marseille","lat":43.28111,"lon":5.37848,"is_reserved":false,"is_disabled":false,"rental_uris":{"android":"levelo://app?vid=9489e451-a954-40de-b5f3-1b1d26ec3e53","ios":"levelo://app?vid=9489e451-a954-40de-b5f3-1b1d26ec3e53"},"vehicle_type_id":"4","last_reported":1757960087,"current_range_meters":6800,"station_id":"ce4bha12rcd13ifvqee0","pricing_plan_id":"cebpf4jnsgd1na2vs0mg"},{"bike_id":"4f9bd625-ea72-423e-9234-f59f397dfa3c","system_id":"levelo_inurba_marseille","lat":43.21198,"lon":5.35093,"is_reserved":false,"is_disabled":false,"rental_uris":{"android":"levelo://app?vid=4f9bd625-ea72-423e-9234-f59f397dfa3c","ios":"levelo://app?vid=4f9bd625-ea72-423e-9234-f59f397dfa3c"},"vehicle_type_id":"4","last_reported":1757960087,"current_range_meters":6800,"station_id":"st_cvj6sg6p6f1abm77japg","pricing_plan_id":"cebpf4jnsgd1na2vs0mg"},{"bike_id":"c4ab77ed-b6a0-4bf3-9860-0d1369dadc13","system_id":"levelo_inurba_marseille","lat":43.29877,"lon":5.38915,"is_reserved":false,"is_disabled":false,"rental_uris":{"android":"levelo://app?vid=c4ab77ed-b6a0-4bf3-9860-0d1369dadc13","ios":"levelo://app?vid=c4ab77ed-b6a0-4bf3-9860-0d1369dadc13"},"vehicle_type_id":"4","last_reported":1757960087,"current_range_meters":6800,"station_id":"ce4bh392rcd13ifvqdl0","pricing_plan_id":"cebpf4jnsgd1na2vs0mg"},{"bike_id":"c37933c6-f301-4e72-ae28-b86236887c46","system_id":"levelo_inurba_marseille","lat":43.21743,"lon":5.3461,"is_reserved":false,"is_disabled":false,"rental_uris":{"android":"levelo://app?vid=c37933c6-f301-4e72-ae28-b86236887c46","ios":"levelo://app?vid=c37933c6-f301-4e72-ae28-b86236887c46"},"vehicle_type_id":"4","last_reported":1757960087,"current_range_meters":6800,"station_id":"","pricing_plan_id":"cebpf4jnsgd1na2vs0mg"},{"bike_id":"90b99ccf-2b3c-4d75-9e45-7dd3a550aac1","system_id":"levelo_inurba_marseille","lat":43.23569,"lon":5.39891,"is_reserved":false,"is_disabled":true,"rental_uris":{"android":"levelo://app?vid=90b99ccf-2b3c-4d75-9e45-7dd3a550aac1","ios":"levelo://app?vid=90b99ccf-2b3c-4d75-9e45-7dd3a550aac1"},"vehicle_type_id":"4","last_reported":1757960087,"current_range_meters":6800,"station_id":"","pricing_plan_id":"cebpf4jnsgd1na2vs0mg"},{"bike_id":"8fdbcb1f-b2be-47e2-ad78-3427ce64cddb","system_id":"levelo_inurba_marseille","lat":43.28395,"lon":5.34985,"is_reserved":false,"is_disabled":false,"rental_uris":{"android":"levelo://app?vid=8fdbcb1f-b2be-47e2-ad78-3427ce64cddb","ios":"levelo://app?vid=8fdbcb1f-b2be-47e2-ad78-3427ce64cddb"},"vehicle_type_id":"4","last_reported":1757960087,"current_range_meters":6800,"station_id":"ce4bhbh2rcd13ifvqepg","pricing_plan_id":"cebpf4jnsgd1na2vs0mg"},{"bike_id":"92328f20-9c61-4621-aefd-c280af7d31a0","system_id":"levelo_inurba_marseille","lat":43.28859,"lon":5.42528,"is_reserved":false,"is_disabled":false,"rental_uris":{"android":"levelo://app?vid=92328f20-9c61-4621-aefd-c280af7d31a0","ios":"levelo://app?vid=92328f20-9c61-4621-aefd-c280af7d31a0"},"vehicle_type_id":"4","last_reported":1757960087,"current_range_meters":6800,"station_id":"","pricing_plan_id":"cebpf4jnsgd1na2vs0mg"},{"bike_id":"0633ea31-a373-4ccf-b8a9-8611a8321318","system_id":"levelo_inurba_marseille","lat":43.29095,"lon":5.38146,"is_reserved":false,"is_disabled":false,"rental_uris":{"android":"levelo://app?vid=0633ea31-a373-4ccf-b8a9-8611a8321318","ios":"levelo://app?vid=0633ea31-a373-4ccf-b8a9-8611a8321318"},"vehicle_type_id":"4","last_reported":1757960087,"current_range_meters":7200,"station_id":"ce4bh512rcd13ifvqe2g","pricing_plan_id":"cebpf4jnsgd1na2vs0mg"},{"bike_id":"fbfd7d25-cc31-468e-8fcc-d7f5583d0b31","system_id":"levelo_inurba_marseille","lat":43.286131,"lon":5.351059,"is_reserved":false,"is_disabled":false,"rental_uris":{"android":"levelo://app?vid=fbfd7d25-cc31-468e-8fcc-d7f5583d0b31","ios":"levelo://app?vid=fbfd7d25-cc31-468e-8fcc-d7f5583d0b31"},"vehicle_type_id":"4","last_reported":1757960087,"current_range_meters":7200,"station_id":"ce4bhch2rcd13ifvqeug","pricing_plan_id":"cebpf4jnsgd1na2vs0mg"},{"bike_id":"8b1da85b-c801-4f32-82f3-aa8491a5cfea","system_id":"levelo_inurba_marseille","lat":43.29256,"lon":5.36863,"is_reserved":false,"is_disabled":false,"rental_uris":{"android":"levelo://app?vid=8b1da85b-c801-4f32-82f3-aa8491a5cfea","ios":"levelo://app?vid=8b1da85b-c801-4f32-82f3-aa8491a5cfea"},"vehicle_type_id":"4","last_reported":1757960087,"current_range_meters":7200,"station_id":"ce4bhbp2rcd13ifvqesg","pricing_plan_id":"cebpf4jnsgd1na2vs0mg"},{"bike_id":"4784d109-c5c2-4095-8a24-d6e150d85f5f","system_id":"levelo_inurba_marseille","lat":43.319881,"lon":5.38161,"is_reserved":false,"is_disabled":false,"rental_uris":{"android":"levelo://app?vid=4784d109-c5c2-4095-8a24-d6e150d85f5f","ios":"levelo://app?vid=4784d109-c5c2-4095-8a24-d6e150d85f5f"},"vehicle_type_id":"4","last_reported":1757960087,"current_range_meters":7200,"station_id":"ce4bhr12rcd13ifvqhpg","pricing_plan_id":"cebpf4jnsgd1na2vs0mg"},{"bike_id":"18ad662e-80f9-48f5-9a47-75907aa2e7ea","system_id":"levelo_inurba_marseille","lat":43.30048,"lon":5.38328,"is_reserved":false,"is_disabled":false,"rental_uris":{"android":"levelo://app?vid=18ad662e-80f9-48f5-9a47-75907aa2e7ea","ios":"levelo://app?vid=18ad662e-80f9-48f5-9a47-75907aa2e7ea"},"vehicle_type_id":"4","last_reported":1757960087,"current_range_meters":7200,"station_id":"","pricing_plan_id":"cebpf4jnsgd1na2vs0mg"},{"bike_id":"95f41a2f-6127-4ef0-9bff-433437492fa7","system_id":"levelo_inurba_marseille","lat":43.30593,"lon":5.39346,"is_reserved":false,"is_disabled":false,"rental_uris":{"android":"levelo://app?vid=95f41a2f-6127-4ef0-9bff-433437492fa7","ios":"levelo://app?vid=95f41a2f-6127-4ef0-9bff-433437492fa7"},"vehicle_type_id":"4","last_reported":1757960087,"current_range_meters":7200,"station_id":"ce4bh0p2rcd13ifvqd80","pricing_plan_id":"cebpf4jnsgd1na2vs0mg"},{"bike_id":"fce0a7fc-822e-41d0-b49c-4175e15242ec","system_id":"levelo_inurba_marseille","lat":43.28845,"lon":5.35838,"is_reserved":false,"is_disabled":false,"rental_uris":{"android":"levelo://app?vid=fce0a7fc-822e-41d0-b49c-4175e15242ec","ios":"levelo://app?vid=fce0a7fc-822e-41d0-b49c-4175e15242ec"},"vehicle_type_id":"4","last_reported":1757960087,"current_range_meters":7200,"station_id":"ce4bhb12rcd13ifvqem0","pricing_plan_id":"cebpf4jnsgd1na2vs0mg"},{"bike_id":"f5b51d1b-545e-479f-91f1-895f323a850b","system_id":"levelo_inurba_marseille","lat":43.289947,"lon":5.378292,"is_reserved":false,"is_disabled":false,"rental_uris":{"android":"levelo://app?vid=f5b51d1b-545e-479f-91f1-895f323a850b","ios":"levelo://app?vid=f5b51d1b-545e-479f-91f1-895f323a850b"},"vehicle_type_id":"4","last_reported":1757960087,"current_range_meters":8000,"station_id":"ce4bh9p2rcd13ifvqed0","pricing_plan_id":"cebpf4jnsgd1na2vs0mg"},{"bike_id":"3c3bb462-9cc3-4055-9b3e-a095dd450a4a","system_id":"levelo_inurba_marseille","lat":43.28708,"lon":5.37391,"is_reserved":false,"is_disabled":false,"rental_uris":{"android":"levelo://app?vid=3c3bb462-9cc3-4055-9b3e-a095dd450a4a","ios":"levelo://app?vid=3c3bb462-9cc3-4055-9b3e-a095dd450a4a"},"vehicle_type_id":"4","last_reported":1757960087,"current_range_meters":8000,"station_id":"ce4bh3p2rcd13ifvqdq0","pricing_plan_id":"cebpf4jnsgd1na2vs0mg"},{"bike_id":"736fe72f-6b64-4c5d-9f67-a4f409a97eee","system_id":"levelo_inurba_marseille","lat":43.23965,"lon":5.36629,"is_reserved":false,"is_disabled":false,"rental_uris":{"android":"levelo://app?vid=736fe72f-6b64-4c5d-9f67-a4f409a97eee","ios":"levelo://app?vid=736fe72f-6b64-4c5d-9f67-a4f409a97eee"},"vehicle_type_id":"4","last_reported":1757960087,"current_range_meters":8000,"station_id":"ce4bhi12rcd13ifvqfp0","pricing_plan_id":"cebpf4jnsgd1na2vs0mg"},{"bike_id":"7b5fb456-4d3c-4892-991d-c8f9eef73612","system_id":"levelo_inurba_marseille","lat":43.29877,"lon":5.389,"is_reserved":false,"is_disabled":false,"rental_uris":{"android":"levelo://app?vid=7b5fb456-4d3c-4892-991d-c8f9eef73612","ios":"levelo://app?vid=7b5fb456-4d3c-4892-991d-c8f9eef73612"},"vehicle_type_id":"4","last_reported":1757960087,"current_range_meters":8000,"station_id":"ce4bh392rcd13ifvqdl0","pricing_plan_id":"cebpf4jnsgd1na2vs0mg"},{"bike_id":"a4e91179-5d0d-45c5-8f7c-053747f382b7","system_id":"levelo_inurba_marseille","lat":43.28248,"lon":5.4404,"is_reserved":false,"is_disabled":false,"rental_uris":{"android":"levelo://app?vid=a4e91179-5d0d-45c5-8f7c-053747f382b7","ios":"levelo://app?vid=a4e91179-5d0d-45c5-8f7c-053747f382b7"},"vehicle_type_id":"4","last_reported":1757960087,"current_range_meters":8000,"station_id":"","pricing_plan_id":"cebpf4jnsgd1na2vs0mg"},{"bike_id":"f1bed762-0246-46bf-93ce-2049cca9203e","system_id":"levelo_inurba_marseille","lat":43.29966,"lon":5.38498,"is_reserved":false,"is_disabled":false,"rental_uris":{"android":"levelo://app?vid=f1bed762-0246-46bf-93ce-2049cca9203e","ios":"levelo://app?vid=f1bed762-0246-46bf-93ce-2049cca9203e"},"vehicle_type_id":"4","last_reported":1757960087,"current_range_meters":11200,"station_id":"ce4bgj92rcd13ifvqbd0","pricing_plan_id":"cebpf4jnsgd1na2vs0mg"},{"bike_id":"99e6adaf-2542-407e-a6e1-6ef6e27013c8","system_id":"levelo_inurba_marseille","lat":43.28702,"lon":5.37393,"is_reserved":false,"is_disabled":false,"rental_uris":{"android":"levelo://app?vid=99e6adaf-2542-407e-a6e1-6ef6e27013c8","ios":"levelo://app?vid=99e6adaf-2542-407e-a6e1-6ef6e27013c8"},"vehicle_type_id":"4","last_reported":1757960087,"current_range_meters":8000,"station_id":"ce4bh3p2rcd13ifvqdq0","pricing_plan_id":"cebpf4jnsgd1na2vs0mg"},{"bike_id":"3a0cc4c0-a33a-4033-a328-8d10e470aa93","system_id":"levelo_inurba_marseille","lat":43.28104,"lon":5.37829,"is_reserved":false,"is_disabled":false,"rental_uris":{"android":"levelo://app?vid=3a0cc4c0-a33a-4033-a328-8d10e470aa93","ios":"levelo://app?vid=3a0cc4c0-a33a-4033-a328-8d10e470aa93"},"vehicle_type_id":"4","last_reported":1757960087,"current_range_meters":8000,"station_id":"ce4bha12rcd13ifvqee0","pricing_plan_id":"cebpf4jnsgd1na2vs0mg"},{"bike_id":"406d67c6-e2c3-47e7-9ef3-05dcb1765247","system_id":"levelo_inurba_marseille","lat":43.28159,"lon":5.42627,"is_reserved":false,"is_disabled":false,"rental_uris":{"android":"levelo://app?vid=406d67c6-e2c3-47e7-9ef3-05dcb1765247","ios":"levelo://app?vid=406d67c6-e2c3-47e7-9ef3-05dcb1765247"},"vehicle_type_id":"4","last_reported":1757960087,"current_range_meters":8000,"station_id":"ce4bhnh2rcd13ifvqgug","pricing_plan_id":"cebpf4jnsgd1na2vs0mg"},{"bike_id":"f07e9528-b55d-4760-8dd1-d97a96368fdd","system_id":"levelo_inurba_marseille","lat":43.2803,"lon":5.36937,"is_reserved":false,"is_disabled":false,"rental_uris":{"android":"levelo://app?vid=f07e9528-b55d-4760-8dd1-d97a96368fdd","ios":"levelo://app?vid=f07e9528-b55d-4760-8dd1-d97a96368fdd"},"vehicle_type_id":"4","last_reported":1757960087,"current_range_meters":8000,"station_id":"ce4bha12rcd13ifvqef0","pricing_plan_id":"cebpf4jnsgd1na2vs0mg"},{"bike_id":"610aff57-54c7-4f62-88cb-9407213fdfa2","system_id":"levelo_inurba_marseille","lat":43.28872,"lon":5.3583,"is_reserved":false,"is_disabled":false,"rental_uris":{"android":"levelo://app?vid=610aff57-54c7-4f62-88cb-9407213fdfa2","ios":"levelo://app?vid=610aff57-54c7-4f62-88cb-9407213fdfa2"},"vehicle_type_id":"4","last_reported":1757960087,"current_range_meters":8000,"station_id":"ce4bhb12rcd13ifvqem0","pricing_plan_id":"cebpf4jnsgd1na2vs0mg"},{"bike_id":"4c4b53a9-faf9-4aaf-8eb4-f1ccbd8fb62b","system_id":"levelo_inurba_marseille","lat":43.24072,"lon":5.37756,"is_reserved":false,"is_disabled":false,"rental_uris":{"android":"levelo://app?vid=4c4b53a9-faf9-4aaf-8eb4-f1ccbd8fb62b","ios":"levelo://app?vid=4c4b53a9-faf9-4aaf-8eb4-f1ccbd8fb62b"},"vehicle_type_id":"4","last_reported":1757960087,"current_range_meters":8400,"station_id":"ce4bhnp2rcd13ifvqgvg","pricing_plan_id":"cebpf4jnsgd1na2vs0mg"},{"bike_id":"80b72820-edc6-414f-8b40-fcb658661796","system_id":"levelo_inurba_marseille","lat":43.29915,"lon":5.37479,"is_reserved":false,"is_disabled":false,"rental_uris":{"android":"levelo://app?vid=80b72820-edc6-414f-8b40-fcb658661796","ios":"levelo://app?vid=80b72820-edc6-414f-8b40-fcb658661796"},"vehicle_type_id":"4","last_reported":1757960087,"current_range_meters":8400,"station_id":"ce4bgjh2rcd13ifvqbg0","pricing_plan_id":"cebpf4jnsgd1na2vs0mg"},{"bike_id":"f0940419-d28f-4091-991a-ea94592ac283","system_id":"levelo_inurba_marseille","lat":43.29541,"lon":5.39037,"is_reserved":false,"is_disabled":false,"rental_uris":{"android":"levelo://app?vid=f0940419-d28f-4091-991a-ea94592ac283","ios":"levelo://app?vid=f0940419-d28f-4091-991a-ea94592ac283"},"vehicle_type_id":"4","last_reported":1757960087,"current_range_meters":10000,"station_id":"ce4bh3p2rcd13ifvqdp0","pricing_plan_id":"cebpf4jnsgd1na2vs0mg"},{"bike_id":"7e82d94a-e378-425a-8ccc-0745f8ce2098","system_id":"levelo_inurba_marseille","lat":43.28928,"lon":5.36626,"is_reserved":false,"is_disabled":false,"rental_uris":{"android":"levelo://app?vid=7e82d94a-e378-425a-8ccc-0745f8ce2098","ios":"levelo://app?vid=7e82d94a-e378-425a-8ccc-0745f8ce2098"},"vehicle_type_id":"4","last_reported":1757960087,"current_range_meters":8400,"station_id":"ce4bhap2rcd13ifvqek0","pricing_plan_id":"cebpf4jnsgd1na2vs0mg"},{"bike_id":"f13f0df5-49ed-491b-920b-7d85fb8a09c7","system_id":"levelo_inurba_marseille","lat":43.28153,"lon":5.42631,"is_reserved":false,"is_disabled":false,"rental_uris":{"android":"levelo://app?vid=f13f0df5-49ed-491b-920b-7d85fb8a09c7","ios":"levelo://app?vid=f13f0df5-49ed-491b-920b-7d85fb8a09c7"},"vehicle_type_id":"4","last_reported":1757960087,"current_range_meters":8400,"station_id":"ce4bhnh2rcd13ifvqgug","pricing_plan_id":"cebpf4jnsgd1na2vs0mg"},{"bike_id":"e7b44f56-3fab-44bb-80a5-0c095f79e188","system_id":"levelo_inurba_marseille","lat":43.286735,"lon":5.386801,"is_reserved":false,"is_disabled":false,"rental_uris":{"android":"levelo://app?vid=e7b44f56-3fab-44bb-80a5-0c095f79e188","ios":"levelo://app?vid=e7b44f56-3fab-44bb-80a5-0c095f79e188"},"vehicle_type_id":"4","last_reported":1757960087,"current_range_meters":8400,"station_id":"","pricing_plan_id":"cebpf4jnsgd1na2vs0mg"},{"bike_id":"4ec115f7-70e2-44a0-950b-cc56db458600","system_id":"levelo_inurba_marseille","lat":43.21709,"lon":5.34627,"is_reserved":false,"is_disabled":true,"rental_uris":{"android":"levelo://app?vid=4ec115f7-70e2-44a0-950b-cc56db458600","ios":"levelo://app?vid=4ec115f7-70e2-44a0-950b-cc56db458600"},"vehicle_type_id":"4","last_reported":1757960087,"current_range_meters":8400,"station_id":"","pricing_plan_id":"cebpf4jnsgd1na2vs0mg"},{"bike_id":"2bd7f21a-db8c-4b47-acd6-edeafc6d9716","system_id":"levelo_inurba_marseille","lat":43.33029,"lon":5.39043,"is_reserved":false,"is_disabled":false,"rental_uris":{"android":"levelo://app?vid=2bd7f21a-db8c-4b47-acd6-edeafc6d9716","ios":"levelo://app?vid=2bd7f21a-db8c-4b47-acd6-edeafc6d9716"},"vehicle_type_id":"4","last_reported":1757960087,"current_range_meters":8400,"station_id":"ce4bhr92rcd13ifvqhrg","pricing_plan_id":"cebpf4jnsgd1na2vs0mg"},{"bike_id":"824c21cb-2914-4109-afe7-abf1a78c08b8","system_id":"levelo_inurba_marseille","lat":43.30318,"lon":5.40445,"is_reserved":false,"is_disabled":true,"rental_uris":{"android":"levelo://app?vid=824c21cb-2914-4109-afe7-abf1a78c08b8","ios":"levelo://app?vid=824c21cb-2914-4109-afe7-abf1a78c08b8"},"vehicle_type_id":"4","last_reported":1757960087,"current_range_meters":8800,"station_id":"ce4bh012rcd13ifvqd10","pricing_plan_id":"cebpf4jnsgd1na2vs0mg"},{"bike_id":"85db8ab9-6b24-4c23-8762-109e948df9cd","system_id":"levelo_inurba_marseille","lat":43.30595,"lon":5.40461,"is_reserved":false,"is_disabled":false,"rental_uris":{"android":"levelo://app?vid=85db8ab9-6b24-4c23-8762-109e948df9cd","ios":"levelo://app?vid=85db8ab9-6b24-4c23-8762-109e948df9cd"},"vehicle_type_id":"4","last_reported":1757960087,"current_range_meters":8800,"station_id":"","pricing_plan_id":"cebpf4jnsgd1na2vs0mg"},{"bike_id":"35866038-cbf8-4e92-8c2e-0dafe8c0741e","system_id":"levelo_inurba_marseille","lat":43.301727,"lon":5.366162,"is_reserved":false,"is_disabled":false,"rental_uris":{"android":"levelo://app?vid=35866038-cbf8-4e92-8c2e-0dafe8c0741e","ios":"levelo://app?vid=35866038-cbf8-4e92-8c2e-0dafe8c0741e"},"vehicle_type_id":"4","last_reported":1757960087,"current_range_meters":8800,"station_id":"ce4bgrh2rcd13ifvqc8g","pricing_plan_id":"cebpf4jnsgd1na2vs0mg"},{"bike_id":"79a4d33f-2089-44ca-8b46-1beda619736b","system_id":"levelo_inurba_marseille","lat":43.330731,"lon":5.390195,"is_reserved":false,"is_disabled":false,"rental_uris":{"android":"levelo://app?vid=79a4d33f-2089-44ca-8b46-1beda619736b","ios":"levelo://app?vid=79a4d33f-2089-44ca-8b46-1beda619736b"},"vehicle_type_id":"4","last_reported":1757960087,"current_range_meters":8800,"station_id":"ce4bhr92rcd13ifvqhrg","pricing_plan_id":"cebpf4jnsgd1na2vs0mg"},{"bike_id":"87b779c5-0742-4a22-a3eb-4d0dff87f077","system_id":"levelo_inurba_marseille","lat":43.29775,"lon":5.38103,"is_reserved":false,"is_disabled":true,"rental_uris":{"android":"levelo://app?vid=87b779c5-0742-4a22-a3eb-4d0dff87f077","ios":"levelo://app?vid=87b779c5-0742-4a22-a3eb-4d0dff87f077"},"vehicle_type_id":"4","last_reported":1757960087,"current_range_meters":8800,"station_id":"ce4bgip2rcd13ifvqbb0","pricing_plan_id":"cebpf4jnsgd1na2vs0mg"},{"bike_id":"3b040a40-2008-4153-8526-2aed883dd5eb","system_id":"levelo_inurba_marseille","lat":43.28462,"lon":5.3589,"is_reserved":false,"is_disabled":false,"rental_uris":{"android":"levelo://app?vid=3b040a40-2008-4153-8526-2aed883dd5eb","ios":"levelo://app?vid=3b040a40-2008-4153-8526-2aed883dd5eb"},"vehicle_type_id":"4","last_reported":1757960087,"current_range_meters":8800,"station_id":"ce4bhah2rcd13ifvqei0","pricing_plan_id":"cebpf4jnsgd1na2vs0mg"},{"bike_id":"9707a543-1444-4f30-8674-348a15814454","system_id":"levelo_inurba_marseille","lat":43.299087,"lon":5.404298,"is_reserved":false,"is_disabled":false,"rental_uris":{"android":"levelo://app?vid=9707a543-1444-4f30-8674-348a15814454","ios":"levelo://app?vid=9707a543-1444-4f30-8674-348a15814454"},"vehicle_type_id":"4","last_reported":1757960087,"current_range_meters":8800,"station_id":"ce4bh112rcd13ifvqd90","pricing_plan_id":"cebpf4jnsgd1na2vs0mg"},{"bike_id":"dd32f779-e928-424d-999f-b730cf475fa7","system_id":"levelo_inurba_marseille","lat":43.22399,"lon":5.34657,"is_reserved":false,"is_disabled":false,"rental_uris":{"android":"levelo://app?vid=dd32f779-e928-424d-999f-b730cf475fa7","ios":"levelo://app?vid=dd32f779-e928-424d-999f-b730cf475fa7"},"vehicle_type_id":"4","last_reported":1757960087,"current_range_meters":9200,"station_id":"","pricing_plan_id":"cebpf4jnsgd1na2vs0mg"},{"bike_id":"85030f7e-b830-4a0e-bb1d-5bb830103ab9","system_id":"levelo_inurba_marseille","lat":43.30883,"lon":5.39635,"is_reserved":false,"is_disabled":false,"rental_uris":{"android":"levelo://app?vid=85030f7e-b830-4a0e-bb1d-5bb830103ab9","ios":"levelo://app?vid=85030f7e-b830-4a0e-bb1d-5bb830103ab9"},"vehicle_type_id":"4","last_reported":1757960087,"current_range_meters":9200,"station_id":"ce4bh012rcd13ifvqcv0","pricing_plan_id":"cebpf4jnsgd1na2vs0mg"},{"bike_id":"443232ca-be03-49ec-a089-141c9315d78c","system_id":"levelo_inurba_marseille","lat":43.30591,"lon":5.39351,"is_reserved":false,"is_disabled":false,"rental_uris":{"android":"levelo://app?vid=443232ca-be03-49ec-a089-141c9315d78c","ios":"levelo://app?vid=443232ca-be03-49ec-a089-141c9315d78c"},"vehicle_type_id":"4","last_reported":1757960087,"current_range_meters":9200,"station_id":"ce4bh0p2rcd13ifvqd80","pricing_plan_id":"cebpf4jnsgd1na2vs0mg"},{"bike_id":"8bdc82db-210b-4ef2-87af-5989c93613d8","system_id":"levelo_inurba_marseille","lat":43.286273,"lon":5.350847,"is_reserved":false,"is_disabled":false,"rental_uris":{"android":"levelo://app?vid=8bdc82db-210b-4ef2-87af-5989c93613d8","ios":"levelo://app?vid=8bdc82db-210b-4ef2-87af-5989c93613d8"},"vehicle_type_id":"4","last_reported":1757960087,"current_range_meters":9200,"station_id":"ce4bhch2rcd13ifvqeug","pricing_plan_id":"cebpf4jnsgd1na2vs0mg"},{"bike_id":"4d6e6605-7f16-44fa-a19a-c138ee7cb360","system_id":"levelo_inurba_marseille","lat":43.33799,"lon":5.37446,"is_reserved":false,"is_disabled":false,"rental_uris":{"android":"levelo://app?vid=4d6e6605-7f16-44fa-a19a-c138ee7cb360","ios":"levelo://app?vid=4d6e6605-7f16-44fa-a19a-c138ee7cb360"},"vehicle_type_id":"4","last_reported":1757960087,"current_range_meters":9200,"station_id":"","pricing_plan_id":"cebpf4jnsgd1na2vs0mg"},{"bike_id":"ced98bd6-4588-48b6-bbd6-18eea68aba0b","system_id":"levelo_inurba_marseille","lat":43.28853,"lon":5.35851,"is_reserved":false,"is_disabled":false,"rental_uris":{"android":"levelo://app?vid=ced98bd6-4588-48b6-bbd6-18eea68aba0b","ios":"levelo://app?vid=ced98bd6-4588-48b6-bbd6-18eea68aba0b"},"vehicle_type_id":"4","last_reported":1757960087,"current_range_meters":9200,"station_id":"ce4bhb12rcd13ifvqem0","pricing_plan_id":"cebpf4jnsgd1na2vs0mg"},{"bike_id":"98b2e2e7-d55a-44fe-94a5-2d171c652b13","system_id":"levelo_inurba_marseille","lat":43.27832,"lon":5.39205,"is_reserved":false,"is_disabled":false,"rental_uris":{"android":"levelo://app?vid=98b2e2e7-d55a-44fe-94a5-2d171c652b13","ios":"levelo://app?vid=98b2e2e7-d55a-44fe-94a5-2d171c652b13"},"vehicle_type_id":"4","last_reported":1757960087,"current_range_meters":9200,"station_id":"ce4bhjp2rcd13ifvqga0","pricing_plan_id":"cebpf4jnsgd1na2vs0mg"},{"bike_id":"448bf9d1-b316-4eb3-8199-6300262f1b63","system_id":"levelo_inurba_marseille","lat":43.27958,"lon":5.38746,"is_reserved":false,"is_disabled":false,"rental_uris":{"android":"levelo://app?vid=448bf9d1-b316-4eb3-8199-6300262f1b63","ios":"levelo://app?vid=448bf9d1-b316-4eb3-8199-6300262f1b63"},"vehicle_type_id":"4","last_reported":1757960087,"current_range_meters":14000,"station_id":"ce4bhg12rcd13ifvqf80","pricing_plan_id":"cebpf4jnsgd1na2vs0mg"},{"bike_id":"0589168a-e350-4bb0-ab6e-56c1c7021f1c","system_id":"levelo_inurba_marseille","lat":43.24175,"lon":5.36381,"is_reserved":false,"is_disabled":true,"rental_uris":{"android":"levelo://app?vid=0589168a-e350-4bb0-ab6e-56c1c7021f1c","ios":"levelo://app?vid=0589168a-e350-4bb0-ab6e-56c1c7021f1c"},"vehicle_type_id":"4","last_reported":1757960087,"current_range_meters":9200,"station_id":"cpo36qri1sfpv3e86is0","pricing_plan_id":"cebpf4jnsgd1na2vs0mg"},{"bike_id":"6d08832a-5b3d-4860-a82f-e94b3a6575f2","system_id":"levelo_inurba_marseille","lat":43.2814,"lon":5.4278,"is_reserved":false,"is_disabled":false,"rental_uris":{"android":"levelo://app?vid=6d08832a-5b3d-4860-a82f-e94b3a6575f2","ios":"levelo://app?vid=6d08832a-5b3d-4860-a82f-e94b3a6575f2"},"vehicle_type_id":"4","last_reported":1757960087,"current_range_meters":9600,"station_id":"","pricing_plan_id":"cebpf4jnsgd1na2vs0mg"},{"bike_id":"33708f05-8452-457e-8535-c980c66aa2da","system_id":"levelo_inurba_marseille","lat":43.28478,"lon":5.3843,"is_reserved":false,"is_disabled":false,"rental_uris":{"android":"levelo://app?vid=33708f05-8452-457e-8535-c980c66aa2da","ios":"levelo://app?vid=33708f05-8452-457e-8535-c980c66aa2da"},"vehicle_type_id":"4","last_reported":1757960087,"current_range_meters":9600,"station_id":"ce4bhg12rcd13ifvqf80","pricing_plan_id":"cebpf4jnsgd1na2vs0mg"},{"bike_id":"96915f62-cebe-4919-b45e-d0c8da1d2f09","system_id":"levelo_inurba_marseille","lat":43.33725,"lon":5.39181,"is_reserved":false,"is_disabled":false,"rental_uris":{"android":"levelo://app?vid=96915f62-cebe-4919-b45e-d0c8da1d2f09","ios":"levelo://app?vid=96915f62-cebe-4919-b45e-d0c8da1d2f09"},"vehicle_type_id":"4","last_reported":1757960087,"current_range_meters":9600,"station_id":"ce4bhr92rcd13ifvqhsg","pricing_plan_id":"cebpf4jnsgd1na2vs0mg"},{"bike_id":"024caf71-4a13-43d6-8ce6-d81c20183dd2","system_id":"levelo_inurba_marseille","lat":43.21737,"lon":5.34607,"is_reserved":false,"is_disabled":false,"rental_uris":{"android":"levelo://app?vid=024caf71-4a13-43d6-8ce6-d81c20183dd2","ios":"levelo://app?vid=024caf71-4a13-43d6-8ce6-d81c20183dd2"},"vehicle_type_id":"4","last_reported":1757960087,"current_range_meters":9600,"station_id":"st_cvj6r9ubvosntc0bgbag","pricing_plan_id":"cebpf4jnsgd1na2vs0mg"},{"bike_id":"c3d1b797-0155-4099-8aad-fb39210cb4e3","system_id":"levelo_inurba_marseille","lat":43.304294,"lon":5.388859,"is_reserved":false,"is_disabled":false,"rental_uris":{"android":"levelo://app?vid=c3d1b797-0155-4099-8aad-fb39210cb4e3","ios":"levelo://app?vid=c3d1b797-0155-4099-8aad-fb39210cb4e3"},"vehicle_type_id":"4","last_reported":1757960087,"current_range_meters":9600,"station_id":"ce4bgk12rcd13ifvqbi0","pricing_plan_id":"cebpf4jnsgd1na2vs0mg"},{"bike_id":"72be3b92-bef5-4836-9040-58c95b695430","system_id":"levelo_inurba_marseille","lat":43.31253,"lon":5.40172,"is_reserved":false,"is_disabled":false,"rental_uris":{"android":"levelo://app?vid=72be3b92-bef5-4836-9040-58c95b695430","ios":"levelo://app?vid=72be3b92-bef5-4836-9040-58c95b695430"},"vehicle_type_id":"4","last_reported":1757960087,"current_range_meters":10000,"station_id":"ce4bh092rcd13ifvqd30","pricing_plan_id":"cebpf4jnsgd1na2vs0mg"},{"bike_id":"34b9d5b9-115e-4562-a1a5-ab51bafff736","system_id":"levelo_inurba_marseille","lat":43.29265,"lon":5.40897,"is_reserved":false,"is_disabled":false,"rental_uris":{"android":"levelo://app?vid=34b9d5b9-115e-4562-a1a5-ab51bafff736","ios":"levelo://app?vid=34b9d5b9-115e-4562-a1a5-ab51bafff736"},"vehicle_type_id":"4","last_reported":1757960087,"current_range_meters":10000,"station_id":"ce4bh192rcd13ifvqdc0","pricing_plan_id":"cebpf4jnsgd1na2vs0mg"},{"bike_id":"51c0d813-10a1-4c0c-b9ac-7313217511a0","system_id":"levelo_inurba_marseille","lat":43.29878,"lon":5.38897,"is_reserved":false,"is_disabled":false,"rental_uris":{"android":"levelo://app?vid=51c0d813-10a1-4c0c-b9ac-7313217511a0","ios":"levelo://app?vid=51c0d813-10a1-4c0c-b9ac-7313217511a0"},"vehicle_type_id":"4","last_reported":1757960087,"current_range_meters":10000,"station_id":"ce4bh392rcd13ifvqdl0","pricing_plan_id":"cebpf4jnsgd1na2vs0mg"},{"bike_id":"d292a4dd-9881-46b1-b123-ccda3b38f4e1","system_id":"levelo_inurba_marseille","lat":43.30922,"lon":5.40161,"is_reserved":false,"is_disabled":false,"rental_uris":{"android":"levelo://app?vid=d292a4dd-9881-46b1-b123-ccda3b38f4e1","ios":"levelo://app?vid=d292a4dd-9881-46b1-b123-ccda3b38f4e1"},"vehicle_type_id":"4","last_reported":1757960087,"current_range_meters":7200,"station_id":"ce4bgvp2rcd13ifvqct0","pricing_plan_id":"cebpf4jnsgd1na2vs0mg"},{"bike_id":"4b3d29e4-4d48-4f95-a652-be16bfec385d","system_id":"levelo_inurba_marseille","lat":43.29389,"lon":5.37319,"is_reserved":false,"is_disabled":false,"rental_uris":{"android":"levelo://app?vid=4b3d29e4-4d48-4f95-a652-be16bfec385d","ios":"levelo://app?vid=4b3d29e4-4d48-4f95-a652-be16bfec385d"},"vehicle_type_id":"4","last_reported":1757960087,"current_range_meters":10000,"station_id":"","pricing_plan_id":"cebpf4jnsgd1na2vs0mg"},{"bike_id":"2aa0764e-b27b-439b-8060-01c64bd885f7","system_id":"levelo_inurba_marseille","lat":43.297915,"lon":5.393378,"is_reserved":false,"is_disabled":false,"rental_uris":{"android":"levelo://app?vid=2aa0764e-b27b-439b-8060-01c64bd885f7","ios":"levelo://app?vid=2aa0764e-b27b-439b-8060-01c64bd885f7"},"vehicle_type_id":"4","last_reported":1757960087,"current_range_meters":10000,"station_id":"chh1huq6cuj3fo74tm60","pricing_plan_id":"cebpf4jnsgd1na2vs0mg"},{"bike_id":"c6687fa4-366c-4273-a731-aeb0854ebf90","system_id":"levelo_inurba_marseille","lat":43.28266,"lon":5.35076,"is_reserved":false,"is_disabled":true,"rental_uris":{"android":"levelo://app?vid=c6687fa4-366c-4273-a731-aeb0854ebf90","ios":"levelo://app?vid=c6687fa4-366c-4273-a731-aeb0854ebf90"},"vehicle_type_id":"4","last_reported":1757960087,"current_range_meters":10000,"station_id":"ce4bhbp2rcd13ifvqerg","pricing_plan_id":"cebpf4jnsgd1na2vs0mg"},{"bike_id":"5b71f0be-4481-4d84-a923-5ef3de65d795","system_id":"levelo_inurba_marseille","lat":43.28118,"lon":5.35035,"is_reserved":false,"is_disabled":false,"rental_uris":{"android":"levelo://app?vid=5b71f0be-4481-4d84-a923-5ef3de65d795","ios":"levelo://app?vid=5b71f0be-4481-4d84-a923-5ef3de65d795"},"vehicle_type_id":"4","last_reported":1757960087,"current_range_meters":10000,"station_id":"","pricing_plan_id":"cebpf4jnsgd1na2vs0mg"},{"bike_id":"d2a712c7-18ee-4fad-97ec-db96fd982a57","system_id":"levelo_inurba_marseille","lat":43.28864,"lon":5.42535,"is_reserved":false,"is_disabled":false,"rental_uris":{"android":"levelo://app?vid=d2a712c7-18ee-4fad-97ec-db96fd982a57","ios":"levelo://app?vid=d2a712c7-18ee-4fad-97ec-db96fd982a57"},"vehicle_type_id":"4","last_reported":1757960087,"current_range_meters":10800,"station_id":"","pricing_plan_id":"cebpf4jnsgd1na2vs0mg"},{"bike_id":"8a49c51f-4a92-4265-8b7a-80f9ba2e4bda","system_id":"levelo_inurba_marseille","lat":43.306,"lon":5.372278,"is_reserved":false,"is_disabled":false,"rental_uris":{"android":"levelo://app?vid=8a49c51f-4a92-4265-8b7a-80f9ba2e4bda","ios":"levelo://app?vid=8a49c51f-4a92-4265-8b7a-80f9ba2e4bda"},"vehicle_type_id":"4","last_reported":1757960087,"current_range_meters":10800,"station_id":"ce4bgqh2rcd13ifvqc4g","pricing_plan_id":"cebpf4jnsgd1na2vs0mg"},{"bike_id":"0c2fd0c9-6f34-4119-89c5-0f237e33148f","system_id":"levelo_inurba_marseille","lat":43.23062,"lon":5.35494,"is_reserved":false,"is_disabled":false,"rental_uris":{"android":"levelo://app?vid=0c2fd0c9-6f34-4119-89c5-0f237e33148f","ios":"levelo://app?vid=0c2fd0c9-6f34-4119-89c5-0f237e33148f"},"vehicle_type_id":"4","last_reported":1757960087,"current_range_meters":10800,"station_id":"cpo3342slgdg3j2ifvpg","pricing_plan_id":"cebpf4jnsgd1na2vs0mg"},{"bike_id":"32e22976-7c0e-4ffc-a804-0d3a485819a6","system_id":"levelo_inurba_marseille","lat":43.30131,"lon":5.39879,"is_reserved":false,"is_disabled":false,"rental_uris":{"android":"levelo://app?vid=32e22976-7c0e-4ffc-a804-0d3a485819a6","ios":"levelo://app?vid=32e22976-7c0e-4ffc-a804-0d3a485819a6"},"vehicle_type_id":"4","last_reported":1757960087,"current_range_meters":10800,"station_id":"ce4bh0h2rcd13ifvqd40","pricing_plan_id":"cebpf4jnsgd1na2vs0mg"},{"bike_id":"d0653ddb-0cde-4808-b349-e6e3a4a8b754","system_id":"levelo_inurba_marseille","lat":43.28343,"lon":5.38113,"is_reserved":false,"is_disabled":false,"rental_uris":{"android":"levelo://app?vid=d0653ddb-0cde-4808-b349-e6e3a4a8b754","ios":"levelo://app?vid=d0653ddb-0cde-4808-b349-e6e3a4a8b754"},"vehicle_type_id":"4","last_reported":1757960087,"current_range_meters":10800,"station_id":"ce4bh412rcd13ifvqdr0","pricing_plan_id":"cebpf4jnsgd1na2vs0mg"},{"bike_id":"3497e7a2-d1ac-45c8-b73f-5afe1dfc9c24","system_id":"levelo_inurba_marseille","lat":43.28605,"lon":5.37073,"is_reserved":false,"is_disabled":false,"rental_uris":{"android":"levelo://app?vid=3497e7a2-d1ac-45c8-b73f-5afe1dfc9c24","ios":"levelo://app?vid=3497e7a2-d1ac-45c8-b73f-5afe1dfc9c24"},"vehicle_type_id":"4","last_reported":1757960087,"current_range_meters":10800,"station_id":"ce4bht12rcd13ifvqi60","pricing_plan_id":"cebpf4jnsgd1na2vs0mg"},{"bike_id":"4d58f0ff-3445-4722-a22c-d8c4e0e157b1","system_id":"levelo_inurba_marseille","lat":43.28936,"lon":5.36398,"is_reserved":false,"is_disabled":false,"rental_uris":{"android":"levelo://app?vid=4d58f0ff-3445-4722-a22c-d8c4e0e157b1","ios":"levelo://app?vid=4d58f0ff-3445-4722-a22c-d8c4e0e157b1"},"vehicle_type_id":"4","last_reported":1757960087,"current_range_meters":10800,"station_id":"ce4bhc92rcd13ifvqetg","pricing_plan_id":"cebpf4jnsgd1na2vs0mg"},{"bike_id":"d79e4472-9d2b-4227-9a35-0cbaff6d9814","system_id":"levelo_inurba_marseille","lat":43.3032,"lon":5.40437,"is_reserved":false,"is_disabled":false,"rental_uris":{"android":"levelo://app?vid=d79e4472-9d2b-4227-9a35-0cbaff6d9814","ios":"levelo://app?vid=d79e4472-9d2b-4227-9a35-0cbaff6d9814"},"vehicle_type_id":"4","last_reported":1757960087,"current_range_meters":10800,"station_id":"ce4bh012rcd13ifvqd10","pricing_plan_id":"cebpf4jnsgd1na2vs0mg"},{"bike_id":"60df5be0-868d-496d-a7cc-2e097de1a47a","system_id":"levelo_inurba_marseille","lat":43.22567,"lon":5.41627,"is_reserved":false,"is_disabled":false,"rental_uris":{"android":"levelo://app?vid=60df5be0-868d-496d-a7cc-2e097de1a47a","ios":"levelo://app?vid=60df5be0-868d-496d-a7cc-2e097de1a47a"},"vehicle_type_id":"4","last_reported":1757960087,"current_range_meters":10800,"station_id":"st_d2o4gvlbi1j2169b742g","pricing_plan_id":"cebpf4jnsgd1na2vs0mg"},{"bike_id":"03b8b18e-ee5e-4a01-aa45-9e131491179a","system_id":"levelo_inurba_marseille","lat":43.31688,"lon":5.40477,"is_reserved":false,"is_disabled":false,"rental_uris":{"android":"levelo://app?vid=03b8b18e-ee5e-4a01-aa45-9e131491179a","ios":"levelo://app?vid=03b8b18e-ee5e-4a01-aa45-9e131491179a"},"vehicle_type_id":"4","last_reported":1757960087,"current_range_meters":10800,"station_id":"ce4bh012rcd13ifvqd00","pricing_plan_id":"cebpf4jnsgd1na2vs0mg"},{"bike_id":"5a4c56e4-f771-4e7d-b92a-ec5e2ad8cc6a","system_id":"levelo_inurba_marseille","lat":43.30736,"lon":5.42446,"is_reserved":false,"is_disabled":false,"rental_uris":{"android":"levelo://app?vid=5a4c56e4-f771-4e7d-b92a-ec5e2ad8cc6a","ios":"levelo://app?vid=5a4c56e4-f771-4e7d-b92a-ec5e2ad8cc6a"},"vehicle_type_id":"4","last_reported":1757960087,"current_range_meters":10800,"station_id":"st_cvj6ca6bvosntc0bfgr0","pricing_plan_id":"cebpf4jnsgd1na2vs0mg"},{"bike_id":"57127154-7e15-4346-89ed-ab9d76ef9c2c","system_id":"levelo_inurba_marseille","lat":43.28838,"lon":5.36326,"is_reserved":false,"is_disabled":false,"rental_uris":{"android":"levelo://app?vid=57127154-7e15-4346-89ed-ab9d76ef9c2c","ios":"levelo://app?vid=57127154-7e15-4346-89ed-ab9d76ef9c2c"},"vehicle_type_id":"4","last_reported":1757960087,"current_range_meters":10800,"station_id":"","pricing_plan_id":"cebpf4jnsgd1na2vs0mg"},{"bike_id":"184c75ba-a2ae-4bc5-b888-4c430b804879","system_id":"levelo_inurba_marseille","lat":43.28421,"lon":5.35003,"is_reserved":false,"is_disabled":false,"rental_uris":{"android":"levelo://app?vid=184c75ba-a2ae-4bc5-b888-4c430b804879","ios":"levelo://app?vid=184c75ba-a2ae-4bc5-b888-4c430b804879"},"vehicle_type_id":"4","last_reported":1757960087,"current_range_meters":11200,"station_id":"ce4bhbh2rcd13ifvqepg","pricing_plan_id":"cebpf4jnsgd1na2vs0mg"},{"bike_id":"e7a329bd-ed66-4ac7-aaba-63f2810ddd86","system_id":"levelo_inurba_marseille","lat":43.31859,"lon":5.37206,"is_reserved":false,"is_disabled":false,"rental_uris":{"android":"levelo://app?vid=e7a329bd-ed66-4ac7-aaba-63f2810ddd86","ios":"levelo://app?vid=e7a329bd-ed66-4ac7-aaba-63f2810ddd86"},"vehicle_type_id":"4","last_reported":1757960087,"current_range_meters":11200,"station_id":"","pricing_plan_id":"cebpf4jnsgd1na2vs0mg"},{"bike_id":"4f4599bb-5c77-4f9c-aca1-56716505b84a","system_id":"levelo_inurba_marseille","lat":43.29044,"lon":5.37559,"is_reserved":false,"is_disabled":false,"rental_uris":{"android":"levelo://app?vid=4f4599bb-5c77-4f9c-aca1-56716505b84a","ios":"levelo://app?vid=4f4599bb-5c77-4f9c-aca1-56716505b84a"},"vehicle_type_id":"4","last_reported":1757960087,"current_range_meters":11200,"station_id":"ce4bh692rcd13ifvqe90","pricing_plan_id":"cebpf4jnsgd1na2vs0mg"},{"bike_id":"d6fb6d0c-8ddf-4525-ba7b-cf38be4abbfa","system_id":"levelo_inurba_marseille","lat":43.28935,"lon":5.36376,"is_reserved":false,"is_disabled":false,"rental_uris":{"android":"levelo://app?vid=d6fb6d0c-8ddf-4525-ba7b-cf38be4abbfa","ios":"levelo://app?vid=d6fb6d0c-8ddf-4525-ba7b-cf38be4abbfa"},"vehicle_type_id":"4","last_reported":1757960087,"current_range_meters":11200,"station_id":"ce4bhc92rcd13ifvqetg","pricing_plan_id":"cebpf4jnsgd1na2vs0mg"},{"bike_id":"30d92779-838e-460b-bf7a-6371f6646707","system_id":"levelo_inurba_marseille","lat":43.21197,"lon":5.35085,"is_reserved":false,"is_disabled":true,"rental_uris":{"android":"levelo://app?vid=30d92779-838e-460b-bf7a-6371f6646707","ios":"levelo://app?vid=30d92779-838e-460b-bf7a-6371f6646707"},"vehicle_type_id":"4","last_reported":1757960087,"current_range_meters":11200,"station_id":"st_cvj6sg6p6f1abm77japg","pricing_plan_id":"cebpf4jnsgd1na2vs0mg"},{"bike_id":"460e17a5-6853-4fc4-9ced-9ba303f134c1","system_id":"levelo_inurba_marseille","lat":43.25725,"lon":5.41097,"is_reserved":false,"is_disabled":false,"rental_uris":{"android":"levelo://app?vid=460e17a5-6853-4fc4-9ced-9ba303f134c1","ios":"levelo://app?vid=460e17a5-6853-4fc4-9ced-9ba303f134c1"},"vehicle_type_id":"4","last_reported":1757960087,"current_range_meters":11200,"station_id":"ce4bhkp2rcd13ifvqgd0","pricing_plan_id":"cebpf4jnsgd1na2vs0mg"},{"bike_id":"b2715000-fdd7-45e5-9135-c0bfd2a9c4f0","system_id":"levelo_inurba_marseille","lat":43.27495,"lon":5.42449,"is_reserved":false,"is_disabled":false,"rental_uris":{"android":"levelo://app?vid=b2715000-fdd7-45e5-9135-c0bfd2a9c4f0","ios":"levelo://app?vid=b2715000-fdd7-45e5-9135-c0bfd2a9c4f0"},"vehicle_type_id":"4","last_reported":1757960087,"current_range_meters":11600,"station_id":"ce4bhn92rcd13ifvqgrg","pricing_plan_id":"cebpf4jnsgd1na2vs0mg"},{"bike_id":"0c6fe877-1024-4901-84e8-0fbaefe45584","system_id":"levelo_inurba_marseille","lat":43.33392,"lon":5.40105,"is_reserved":false,"is_disabled":false,"rental_uris":{"android":"levelo://app?vid=0c6fe877-1024-4901-84e8-0fbaefe45584","ios":"levelo://app?vid=0c6fe877-1024-4901-84e8-0fbaefe45584"},"vehicle_type_id":"4","last_reported":1757960087,"current_range_meters":11600,"station_id":"","pricing_plan_id":"cebpf4jnsgd1na2vs0mg"},{"bike_id":"38658ef0-e421-42d5-8780-094335fc573e","system_id":"levelo_inurba_marseille","lat":43.29981,"lon":5.38477,"is_reserved":false,"is_disabled":false,"rental_uris":{"android":"levelo://app?vid=38658ef0-e421-42d5-8780-094335fc573e","ios":"levelo://app?vid=38658ef0-e421-42d5-8780-094335fc573e"},"vehicle_type_id":"4","last_reported":1757960087,"current_range_meters":11600,"station_id":"ce4bgj92rcd13ifvqbd0","pricing_plan_id":"cebpf4jnsgd1na2vs0mg"},{"bike_id":"e124a1b2-b7c2-4237-bfc2-b30c0b1e12fe","system_id":"levelo_inurba_marseille","lat":43.31269,"lon":5.37731,"is_reserved":false,"is_disabled":false,"rental_uris":{"android":"levelo://app?vid=e124a1b2-b7c2-4237-bfc2-b30c0b1e12fe","ios":"levelo://app?vid=e124a1b2-b7c2-4237-bfc2-b30c0b1e12fe"},"vehicle_type_id":"4","last_reported":1757960087,"current_range_meters":11600,"station_id":"","pricing_plan_id":"cebpf4jnsgd1na2vs0mg"},{"bike_id":"e55ae905-9410-44da-8e6c-dadab4fedc17","system_id":"levelo_inurba_marseille","lat":43.21751,"lon":5.34608,"is_reserved":false,"is_disabled":false,"rental_uris":{"android":"levelo://app?vid=e55ae905-9410-44da-8e6c-dadab4fedc17","ios":"levelo://app?vid=e55ae905-9410-44da-8e6c-dadab4fedc17"},"vehicle_type_id":"4","last_reported":1757960087,"current_range_meters":11600,"station_id":"","pricing_plan_id":"cebpf4jnsgd1na2vs0mg"},{"bike_id":"0367bd6c-8d86-4dd5-a210-bf4630a201c0","system_id":"levelo_inurba_marseille","lat":43.28708,"lon":5.37367,"is_reserved":false,"is_disabled":false,"rental_uris":{"android":"levelo://app?vid=0367bd6c-8d86-4dd5-a210-bf4630a201c0","ios":"levelo://app?vid=0367bd6c-8d86-4dd5-a210-bf4630a201c0"},"vehicle_type_id":"4","last_reported":1757960087,"current_range_meters":11600,"station_id":"ce4bh3p2rcd13ifvqdq0","pricing_plan_id":"cebpf4jnsgd1na2vs0mg"},{"bike_id":"4f531a7e-6d32-440b-afa5-b4b8d4abbbbf","system_id":"levelo_inurba_marseille","lat":43.31759,"lon":5.39007,"is_reserved":false,"is_disabled":false,"rental_uris":{"android":"levelo://app?vid=4f531a7e-6d32-440b-afa5-b4b8d4abbbbf","ios":"levelo://app?vid=4f531a7e-6d32-440b-afa5-b4b8d4abbbbf"},"vehicle_type_id":"4","last_reported":1757960087,"current_range_meters":11600,"station_id":"ce4bhqp2rcd13ifvqhng","pricing_plan_id":"cebpf4jnsgd1na2vs0mg"},{"bike_id":"e29c3876-6c17-420a-b388-08b4cb1d1160","system_id":"levelo_inurba_marseille","lat":43.25127,"lon":5.40374,"is_reserved":false,"is_disabled":false,"rental_uris":{"android":"levelo://app?vid=e29c3876-6c17-420a-b388-08b4cb1d1160","ios":"levelo://app?vid=e29c3876-6c17-420a-b388-08b4cb1d1160"},"vehicle_type_id":"4","last_reported":1757960087,"current_range_meters":11600,"station_id":"","pricing_plan_id":"cebpf4jnsgd1na2vs0mg"},{"bike_id":"4fd8b329-ad1e-472a-b8bc-89186a2dd0e6","system_id":"levelo_inurba_marseille","lat":43.303314,"lon":5.404344,"is_reserved":false,"is_disabled":false,"rental_uris":{"android":"levelo://app?vid=4fd8b329-ad1e-472a-b8bc-89186a2dd0e6","ios":"levelo://app?vid=4fd8b329-ad1e-472a-b8bc-89186a2dd0e6"},"vehicle_type_id":"4","last_reported":1757960087,"current_range_meters":11600,"station_id":"ce4bh012rcd13ifvqd10","pricing_plan_id":"cebpf4jnsgd1na2vs0mg"},{"bike_id":"1fd94e10-f1a9-46a1-b215-c6129767b5da","system_id":"levelo_inurba_marseille","lat":43.28857,"lon":5.3584,"is_reserved":false,"is_disabled":false,"rental_uris":{"android":"levelo://app?vid=1fd94e10-f1a9-46a1-b215-c6129767b5da","ios":"levelo://app?vid=1fd94e10-f1a9-46a1-b215-c6129767b5da"},"vehicle_type_id":"4","last_reported":1757960087,"current_range_meters":12000,"station_id":"ce4bhb12rcd13ifvqem0","pricing_plan_id":"cebpf4jnsgd1na2vs0mg"},{"bike_id":"7372bacb-8fae-45d7-a888-ab7ec06d3ac9","system_id":"levelo_inurba_marseille","lat":43.25716,"lon":5.41113,"is_reserved":false,"is_disabled":false,"rental_uris":{"android":"levelo://app?vid=7372bacb-8fae-45d7-a888-ab7ec06d3ac9","ios":"levelo://app?vid=7372bacb-8fae-45d7-a888-ab7ec06d3ac9"},"vehicle_type_id":"4","last_reported":1757960087,"current_range_meters":12000,"station_id":"ce4bhkp2rcd13ifvqgd0","pricing_plan_id":"cebpf4jnsgd1na2vs0mg"},{"bike_id":"12cf40e0-9128-4a97-9044-bac8ceb26d05","system_id":"levelo_inurba_marseille","lat":43.28476,"lon":5.38424,"is_reserved":false,"is_disabled":false,"rental_uris":{"android":"levelo://app?vid=12cf40e0-9128-4a97-9044-bac8ceb26d05","ios":"levelo://app?vid=12cf40e0-9128-4a97-9044-bac8ceb26d05"},"vehicle_type_id":"4","last_reported":1757960087,"current_range_meters":12000,"station_id":"ce4bh512rcd13ifvqe3g","pricing_plan_id":"cebpf4jnsgd1na2vs0mg"},{"bike_id":"322c1f5a-85db-4ef6-bcd4-1b5c417c8ee0","system_id":"levelo_inurba_marseille","lat":43.3377,"lon":5.37488,"is_reserved":false,"is_disabled":false,"rental_uris":{"android":"levelo://app?vid=322c1f5a-85db-4ef6-bcd4-1b5c417c8ee0","ios":"levelo://app?vid=322c1f5a-85db-4ef6-bcd4-1b5c417c8ee0"},"vehicle_type_id":"4","last_reported":1757960087,"current_range_meters":12000,"station_id":"","pricing_plan_id":"cebpf4jnsgd1na2vs0mg"},{"bike_id":"e9c27457-8848-4957-bd16-06c46eb957db","system_id":"levelo_inurba_marseille","lat":43.29528,"lon":5.39039,"is_reserved":false,"is_disabled":false,"rental_uris":{"android":"levelo://app?vid=e9c27457-8848-4957-bd16-06c46eb957db","ios":"levelo://app?vid=e9c27457-8848-4957-bd16-06c46eb957db"},"vehicle_type_id":"4","last_reported":1757960087,"current_range_meters":12000,"station_id":"ce4bh3p2rcd13ifvqdp0","pricing_plan_id":"cebpf4jnsgd1na2vs0mg"},{"bike_id":"fcd53a0e-c604-4542-af6a-9b4b138bb5f3","system_id":"levelo_inurba_marseille","lat":43.25817,"lon":5.39428,"is_reserved":false,"is_disabled":false,"rental_uris":{"android":"levelo://app?vid=fcd53a0e-c604-4542-af6a-9b4b138bb5f3","ios":"levelo://app?vid=fcd53a0e-c604-4542-af6a-9b4b138bb5f3"},"vehicle_type_id":"4","last_reported":1757960087,"current_range_meters":12400,"station_id":"ce4bhip2rcd13ifvqft0","pricing_plan_id":"cebpf4jnsgd1na2vs0mg"},{"bike_id":"2acd2dbe-544f-41f0-a534-5b82d4d6d647","system_id":"levelo_inurba_marseille","lat":43.31685,"lon":5.40466,"is_reserved":false,"is_disabled":false,"rental_uris":{"android":"levelo://app?vid=2acd2dbe-544f-41f0-a534-5b82d4d6d647","ios":"levelo://app?vid=2acd2dbe-544f-41f0-a534-5b82d4d6d647"},"vehicle_type_id":"4","last_reported":1757960087,"current_range_meters":12400,"station_id":"ce4bh012rcd13ifvqd00","pricing_plan_id":"cebpf4jnsgd1na2vs0mg"},{"bike_id":"b18b0233-f381-432b-8549-9605484360ac","system_id":"levelo_inurba_marseille","lat":43.30243,"lon":5.40046,"is_reserved":false,"is_disabled":false,"rental_uris":{"android":"levelo://app?vid=b18b0233-f381-432b-8549-9605484360ac","ios":"levelo://app?vid=b18b0233-f381-432b-8549-9605484360ac"},"vehicle_type_id":"4","last_reported":1757960087,"current_range_meters":12400,"station_id":"ce4bgvh2rcd13ifvqcs0","pricing_plan_id":"cebpf4jnsgd1na2vs0mg"},{"bike_id":"8bc86739-4915-4d72-963b-3e78b1abf05b","system_id":"levelo_inurba_marseille","lat":43.31885,"lon":5.40739,"is_reserved":false,"is_disabled":false,"rental_uris":{"android":"levelo://app?vid=8bc86739-4915-4d72-963b-3e78b1abf05b","ios":"levelo://app?vid=8bc86739-4915-4d72-963b-3e78b1abf05b"},"vehicle_type_id":"4","last_reported":1757960087,"current_range_meters":12400,"station_id":"ce4bhq12rcd13ifvqhig","pricing_plan_id":"cebpf4jnsgd1na2vs0mg"},{"bike_id":"09ec2232-f4e5-4d30-8088-680e802bb188","system_id":"levelo_inurba_marseille","lat":43.29511,"lon":5.3906,"is_reserved":false,"is_disabled":false,"rental_uris":{"android":"levelo://app?vid=09ec2232-f4e5-4d30-8088-680e802bb188","ios":"levelo://app?vid=09ec2232-f4e5-4d30-8088-680e802bb188"},"vehicle_type_id":"4","last_reported":1757960087,"current_range_meters":12400,"station_id":"ce4bh3p2rcd13ifvqdp0","pricing_plan_id":"cebpf4jnsgd1na2vs0mg"},{"bike_id":"342c9ac1-bf83-4cd7-b9c4-9c89f6edb93f","system_id":"levelo_inurba_marseille","lat":43.29278,"lon":5.40144,"is_reserved":false,"is_disabled":false,"rental_uris":{"android":"levelo://app?vid=342c9ac1-bf83-4cd7-b9c4-9c89f6edb93f","ios":"levelo://app?vid=342c9ac1-bf83-4cd7-b9c4-9c89f6edb93f"},"vehicle_type_id":"4","last_reported":1757960087,"current_range_meters":12400,"station_id":"ce4bh312rcd13ifvqdk0","pricing_plan_id":"cebpf4jnsgd1na2vs0mg"},{"bike_id":"41de12a2-5382-4da2-9751-1300a8df4dc1","system_id":"levelo_inurba_marseille","lat":43.22541,"lon":5.4165,"is_reserved":false,"is_disabled":false,"rental_uris":{"android":"levelo://app?vid=41de12a2-5382-4da2-9751-1300a8df4dc1","ios":"levelo://app?vid=41de12a2-5382-4da2-9751-1300a8df4dc1"},"vehicle_type_id":"4","last_reported":1757960087,"current_range_meters":12400,"station_id":"st_d2o4gvlbi1j2169b742g","pricing_plan_id":"cebpf4jnsgd1na2vs0mg"},{"bike_id":"e92ad9e7-e713-4e75-965b-1c057f5eb0a5","system_id":"levelo_inurba_marseille","lat":43.25079,"lon":5.39509,"is_reserved":false,"is_disabled":false,"rental_uris":{"android":"levelo://app?vid=e92ad9e7-e713-4e75-965b-1c057f5eb0a5","ios":"levelo://app?vid=e92ad9e7-e713-4e75-965b-1c057f5eb0a5"},"vehicle_type_id":"4","last_reported":1757960087,"current_range_meters":12400,"station_id":"ce4bhm12rcd13ifvqgkg","pricing_plan_id":"cebpf4jnsgd1na2vs0mg"},{"bike_id":"a155e67d-bec0-4326-ae57-c035ef5e1c81","system_id":"levelo_inurba_marseille","lat":43.29893,"lon":5.43665,"is_reserved":false,"is_disabled":false,"rental_uris":{"android":"levelo://app?vid=a155e67d-bec0-4326-ae57-c035ef5e1c81","ios":"levelo://app?vid=a155e67d-bec0-4326-ae57-c035ef5e1c81"},"vehicle_type_id":"4","last_reported":1757960087,"current_range_meters":12800,"station_id":"ce4bhpp2rcd13ifvqhfg","pricing_plan_id":"cebpf4jnsgd1na2vs0mg"},{"bike_id":"4bfeaa60-a9a3-4408-a839-8aeb1188dfe5","system_id":"levelo_inurba_marseille","lat":43.28419,"lon":5.34977,"is_reserved":false,"is_disabled":false,"rental_uris":{"android":"levelo://app?vid=4bfeaa60-a9a3-4408-a839-8aeb1188dfe5","ios":"levelo://app?vid=4bfeaa60-a9a3-4408-a839-8aeb1188dfe5"},"vehicle_type_id":"4","last_reported":1757960087,"current_range_meters":12800,"station_id":"ce4bhbh2rcd13ifvqepg","pricing_plan_id":"cebpf4jnsgd1na2vs0mg"},{"bike_id":"ac2f3ca4-93ba-43d4-ae03-2d8aac2f0810","system_id":"levelo_inurba_marseille","lat":43.2841,"lon":5.34984,"is_reserved":false,"is_disabled":false,"rental_uris":{"android":"levelo://app?vid=ac2f3ca4-93ba-43d4-ae03-2d8aac2f0810","ios":"levelo://app?vid=ac2f3ca4-93ba-43d4-ae03-2d8aac2f0810"},"vehicle_type_id":"4","last_reported":1757960087,"current_range_meters":12800,"station_id":"ce4bhbh2rcd13ifvqepg","pricing_plan_id":"cebpf4jnsgd1na2vs0mg"},{"bike_id":"fff19c1b-f870-4284-aa90-a415d2239490","system_id":"levelo_inurba_marseille","lat":43.31526,"lon":5.38051,"is_reserved":false,"is_disabled":false,"rental_uris":{"android":"levelo://app?vid=fff19c1b-f870-4284-aa90-a415d2239490","ios":"levelo://app?vid=fff19c1b-f870-4284-aa90-a415d2239490"},"vehicle_type_id":"4","last_reported":1757960087,"current_range_meters":12800,"station_id":"ce4bhsp2rcd13ifvqi50","pricing_plan_id":"cebpf4jnsgd1na2vs0mg"},{"bike_id":"27772ad5-10be-4b1b-8d6e-18eabd0b9d08","system_id":"levelo_inurba_marseille","lat":43.29371,"lon":5.378547,"is_reserved":false,"is_disabled":true,"rental_uris":{"android":"levelo://app?vid=27772ad5-10be-4b1b-8d6e-18eabd0b9d08","ios":"levelo://app?vid=27772ad5-10be-4b1b-8d6e-18eabd0b9d08"},"vehicle_type_id":"4","last_reported":1757960087,"current_range_meters":13600,"station_id":"ce4bgjh2rcd13ifvqbf0","pricing_plan_id":"cebpf4jnsgd1na2vs0mg"},{"bike_id":"6f942017-dc4e-44d1-b747-dae1ed830356","system_id":"levelo_inurba_marseille","lat":43.290489,"lon":5.375985,"is_reserved":false,"is_disabled":false,"rental_uris":{"android":"levelo://app?vid=6f942017-dc4e-44d1-b747-dae1ed830356","ios":"levelo://app?vid=6f942017-dc4e-44d1-b747-dae1ed830356"},"vehicle_type_id":"4","last_reported":1757960087,"current_range_meters":13600,"station_id":"ce4bh692rcd13ifvqe90","pricing_plan_id":"cebpf4jnsgd1na2vs0mg"},{"bike_id":"4aee5631-01e1-4684-a174-d34d016f9411","system_id":"levelo_inurba_marseille","lat":43.31996,"lon":5.38156,"is_reserved":false,"is_disabled":false,"rental_uris":{"android":"levelo://app?vid=4aee5631-01e1-4684-a174-d34d016f9411","ios":"levelo://app?vid=4aee5631-01e1-4684-a174-d34d016f9411"},"vehicle_type_id":"4","last_reported":1757960087,"current_range_meters":13600,"station_id":"ce4bhr12rcd13ifvqhpg","pricing_plan_id":"cebpf4jnsgd1na2vs0mg"},{"bike_id":"6ef973e9-9fdd-4eb7-a96f-8697a7e78c83","system_id":"levelo_inurba_marseille","lat":43.30094,"lon":5.39058,"is_reserved":false,"is_disabled":false,"rental_uris":{"android":"levelo://app?vid=6ef973e9-9fdd-4eb7-a96f-8697a7e78c83","ios":"levelo://app?vid=6ef973e9-9fdd-4eb7-a96f-8697a7e78c83"},"vehicle_type_id":"4","last_reported":1757960087,"current_range_meters":13600,"station_id":"ce4bh192rcd13ifvqdb0","pricing_plan_id":"cebpf4jnsgd1na2vs0mg"},{"bike_id":"c97fbe63-59b3-4149-993f-3cce2c3e456e","system_id":"levelo_inurba_marseille","lat":43.25085,"lon":5.39531,"is_reserved":false,"is_disabled":false,"rental_uris":{"android":"levelo://app?vid=c97fbe63-59b3-4149-993f-3cce2c3e456e","ios":"levelo://app?vid=c97fbe63-59b3-4149-993f-3cce2c3e456e"},"vehicle_type_id":"4","last_reported":1757960087,"current_range_meters":13600,"station_id":"ce4bhm12rcd13ifvqgkg","pricing_plan_id":"cebpf4jnsgd1na2vs0mg"},{"bike_id":"c32083d7-1b20-47fb-9554-30f9b2a4184b","system_id":"levelo_inurba_marseille","lat":43.21745,"lon":5.34606,"is_reserved":false,"is_disabled":false,"rental_uris":{"android":"levelo://app?vid=c32083d7-1b20-47fb-9554-30f9b2a4184b","ios":"levelo://app?vid=c32083d7-1b20-47fb-9554-30f9b2a4184b"},"vehicle_type_id":"4","last_reported":1757960087,"current_range_meters":13600,"station_id":"st_cvj6r9ubvosntc0bgbag","pricing_plan_id":"cebpf4jnsgd1na2vs0mg"},{"bike_id":"771455dc-6ad5-4be2-88cc-0d407530a899","system_id":"levelo_inurba_marseille","lat":43.29525,"lon":5.39041,"is_reserved":false,"is_disabled":false,"rental_uris":{"android":"levelo://app?vid=771455dc-6ad5-4be2-88cc-0d407530a899","ios":"levelo://app?vid=771455dc-6ad5-4be2-88cc-0d407530a899"},"vehicle_type_id":"4","last_reported":1757960087,"current_range_meters":13600,"station_id":"ce4bh3p2rcd13ifvqdp0","pricing_plan_id":"cebpf4jnsgd1na2vs0mg"},{"bike_id":"4a9ede7f-98e5-4244-9e63-66c1a0b160b4","system_id":"levelo_inurba_marseille","lat":43.27901,"lon":5.38016,"is_reserved":false,"is_disabled":false,"rental_uris":{"android":"levelo://app?vid=4a9ede7f-98e5-4244-9e63-66c1a0b160b4","ios":"levelo://app?vid=4a9ede7f-98e5-4244-9e63-66c1a0b160b4"},"vehicle_type_id":"4","last_reported":1757960087,"current_range_meters":13600,"station_id":"ce4bhf92rcd13ifvqf50","pricing_plan_id":"cebpf4jnsgd1na2vs0mg"},{"bike_id":"ea57d8e7-ed45-4db9-a033-045985f732a3","system_id":"levelo_inurba_marseille","lat":43.318939,"lon":5.407363,"is_reserved":false,"is_disabled":false,"rental_uris":{"android":"levelo://app?vid=ea57d8e7-ed45-4db9-a033-045985f732a3","ios":"levelo://app?vid=ea57d8e7-ed45-4db9-a033-045985f732a3"},"vehicle_type_id":"4","last_reported":1757960087,"current_range_meters":13600,"station_id":"ce4bhq12rcd13ifvqhig","pricing_plan_id":"cebpf4jnsgd1na2vs0mg"},{"bike_id":"0f50ff96-9b8f-478a-b870-391549deb209","system_id":"levelo_inurba_marseille","lat":43.284081,"lon":5.37498,"is_reserved":false,"is_disabled":false,"rental_uris":{"android":"levelo://app?vid=0f50ff96-9b8f-478a-b870-391549deb209","ios":"levelo://app?vid=0f50ff96-9b8f-478a-b870-391549deb209"},"vehicle_type_id":"4","last_reported":1757960087,"current_range_meters":13600,"station_id":"ce4bh412rcd13ifvqds0","pricing_plan_id":"cebpf4jnsgd1na2vs0mg"},{"bike_id":"02ba6ddb-d381-495e-834d-85f9ef652a8f","system_id":"levelo_inurba_marseille","lat":43.2657,"lon":5.40317,"is_reserved":false,"is_disabled":false,"rental_uris":{"android":"levelo://app?vid=02ba6ddb-d381-495e-834d-85f9ef652a8f","ios":"levelo://app?vid=02ba6ddb-d381-495e-834d-85f9ef652a8f"},"vehicle_type_id":"4","last_reported":1757960087,"current_range_meters":13600,"station_id":"ce4bhmp2rcd13ifvqgng","pricing_plan_id":"cebpf4jnsgd1na2vs0mg"},{"bike_id":"d73ebff0-d957-41dc-a638-29b88edc4926","system_id":"levelo_inurba_marseille","lat":43.22562,"lon":5.41606,"is_reserved":false,"is_disabled":false,"rental_uris":{"android":"levelo://app?vid=d73ebff0-d957-41dc-a638-29b88edc4926","ios":"levelo://app?vid=d73ebff0-d957-41dc-a638-29b88edc4926"},"vehicle_type_id":"4","last_reported":1757960087,"current_range_meters":14000,"station_id":"st_d2o4gvlbi1j2169b742g","pricing_plan_id":"cebpf4jnsgd1na2vs0mg"},{"bike_id":"c2aef48e-087e-485f-beba-4555486558ab","system_id":"levelo_inurba_marseille","lat":43.29534,"lon":5.39036,"is_reserved":false,"is_disabled":false,"rental_uris":{"android":"levelo://app?vid=c2aef48e-087e-485f-beba-4555486558ab","ios":"levelo://app?vid=c2aef48e-087e-485f-beba-4555486558ab"},"vehicle_type_id":"4","last_reported":1757960087,"current_range_meters":14000,"station_id":"ce4bh3p2rcd13ifvqdp0","pricing_plan_id":"cebpf4jnsgd1na2vs0mg"},{"bike_id":"e824d254-16a6-4ae4-983a-05af083f4c81","system_id":"levelo_inurba_marseille","lat":43.21753,"lon":5.34607,"is_reserved":false,"is_disabled":false,"rental_uris":{"android":"levelo://app?vid=e824d254-16a6-4ae4-983a-05af083f4c81","ios":"levelo://app?vid=e824d254-16a6-4ae4-983a-05af083f4c81"},"vehicle_type_id":"4","last_reported":1757960087,"current_range_meters":14400,"station_id":"","pricing_plan_id":"cebpf4jnsgd1na2vs0mg"},{"bike_id":"20b393ed-ffc4-4043-b1a4-7260694ca59a","system_id":"levelo_inurba_marseille","lat":43.29277,"lon":5.36851,"is_reserved":false,"is_disabled":false,"rental_uris":{"android":"levelo://app?vid=20b393ed-ffc4-4043-b1a4-7260694ca59a","ios":"levelo://app?vid=20b393ed-ffc4-4043-b1a4-7260694ca59a"},"vehicle_type_id":"4","last_reported":1757960087,"current_range_meters":14400,"station_id":"ce4bhbp2rcd13ifvqesg","pricing_plan_id":"cebpf4jnsgd1na2vs0mg"},{"bike_id":"c07e7a2d-d8a6-4efd-8723-e965be4d1a74","system_id":"levelo_inurba_marseille","lat":43.22534,"lon":5.34831,"is_reserved":false,"is_disabled":false,"rental_uris":{"android":"levelo://app?vid=c07e7a2d-d8a6-4efd-8723-e965be4d1a74","ios":"levelo://app?vid=c07e7a2d-d8a6-4efd-8723-e965be4d1a74"},"vehicle_type_id":"4","last_reported":1757960087,"current_range_meters":14400,"station_id":"","pricing_plan_id":"cebpf4jnsgd1na2vs0mg"},{"bike_id":"1d17b734-0dd5-4f68-8ce6-6092552b34dd","system_id":"levelo_inurba_marseille","lat":43.29414,"lon":5.43287,"is_reserved":false,"is_disabled":false,"rental_uris":{"android":"levelo://app?vid=1d17b734-0dd5-4f68-8ce6-6092552b34dd","ios":"levelo://app?vid=1d17b734-0dd5-4f68-8ce6-6092552b34dd"},"vehicle_type_id":"4","last_reported":1757960087,"current_range_meters":14400,"station_id":"","pricing_plan_id":"cebpf4jnsgd1na2vs0mg"},{"bike_id":"7f89a805-7561-4728-9fb2-47ecaf142e18","system_id":"levelo_inurba_marseille","lat":43.30961,"lon":5.3904,"is_reserved":false,"is_disabled":true,"rental_uris":{"android":"levelo://app?vid=7f89a805-7561-4728-9fb2-47ecaf142e18","ios":"levelo://app?vid=7f89a805-7561-4728-9fb2-47ecaf142e18"},"vehicle_type_id":"4","last_reported":1757960087,"current_range_meters":14400,"station_id":"ce4bgup2rcd13ifvqco0","pricing_plan_id":"cebpf4jnsgd1na2vs0mg"},{"bike_id":"bcbe7a5e-7784-4d13-96dc-77fd6597b4e4","system_id":"levelo_inurba_marseille","lat":43.21182,"lon":5.35075,"is_reserved":false,"is_disabled":true,"rental_uris":{"android":"levelo://app?vid=bcbe7a5e-7784-4d13-96dc-77fd6597b4e4","ios":"levelo://app?vid=bcbe7a5e-7784-4d13-96dc-77fd6597b4e4"},"vehicle_type_id":"4","last_reported":1757960087,"current_range_meters":14400,"station_id":"st_cvj6sg6p6f1abm77japg","pricing_plan_id":"cebpf4jnsgd1na2vs0mg"},{"bike_id":"38af33db-b5f4-4681-ad1c-d41e7c1ba9d0","system_id":"levelo_inurba_marseille","lat":43.31255,"lon":5.40177,"is_reserved":false,"is_disabled":false,"rental_uris":{"android":"levelo://app?vid=38af33db-b5f4-4681-ad1c-d41e7c1ba9d0","ios":"levelo://app?vid=38af33db-b5f4-4681-ad1c-d41e7c1ba9d0"},"vehicle_type_id":"4","last_reported":1757960087,"current_range_meters":14400,"station_id":"ce4bh092rcd13ifvqd30","pricing_plan_id":"cebpf4jnsgd1na2vs0mg"},{"bike_id":"ce6e9f8a-6a48-4599-9e1a-300914298264","system_id":"levelo_inurba_marseille","lat":43.27914,"lon":5.39576,"is_reserved":false,"is_disabled":false,"rental_uris":{"android":"levelo://app?vid=ce6e9f8a-6a48-4599-9e1a-300914298264","ios":"levelo://app?vid=ce6e9f8a-6a48-4599-9e1a-300914298264"},"vehicle_type_id":"4","last_reported":1757960087,"current_range_meters":14400,"station_id":"ce4bhf92rcd13ifvqf40","pricing_plan_id":"cebpf4jnsgd1na2vs0mg"},{"bike_id":"e7fce199-40b5-411e-bd0e-f72f2a81320d","system_id":"levelo_inurba_marseille","lat":43.30884,"lon":5.39635,"is_reserved":false,"is_disabled":false,"rental_uris":{"android":"levelo://app?vid=e7fce199-40b5-411e-bd0e-f72f2a81320d","ios":"levelo://app?vid=e7fce199-40b5-411e-bd0e-f72f2a81320d"},"vehicle_type_id":"4","last_reported":1757960087,"current_range_meters":14800,"station_id":"ce4bh012rcd13ifvqcv0","pricing_plan_id":"cebpf4jnsgd1na2vs0mg"},{"bike_id":"8ef8bf7d-8a91-4724-8c2e-ddeef723e28a","system_id":"levelo_inurba_marseille","lat":43.27031,"lon":5.3793,"is_reserved":false,"is_disabled":false,"rental_uris":{"android":"levelo://app?vid=8ef8bf7d-8a91-4724-8c2e-ddeef723e28a","ios":"levelo://app?vid=8ef8bf7d-8a91-4724-8c2e-ddeef723e28a"},"vehicle_type_id":"4","last_reported":1757960087,"current_range_meters":14800,"station_id":"","pricing_plan_id":"cebpf4jnsgd1na2vs0mg"},{"bike_id":"2f07c768-2cda-4ea2-a1fb-1a39ecdd0048","system_id":"levelo_inurba_marseille","lat":43.31326,"lon":5.39688,"is_reserved":false,"is_disabled":false,"rental_uris":{"android":"levelo://app?vid=2f07c768-2cda-4ea2-a1fb-1a39ecdd0048","ios":"levelo://app?vid=2f07c768-2cda-4ea2-a1fb-1a39ecdd0048"},"vehicle_type_id":"4","last_reported":1757960087,"current_range_meters":14800,"station_id":"ce4bgvp2rcd13ifvqcu0","pricing_plan_id":"cebpf4jnsgd1na2vs0mg"},{"bike_id":"34539d66-9bce-4d1c-8b94-78e2e11c6e1a","system_id":"levelo_inurba_marseille","lat":43.28861,"lon":5.42511,"is_reserved":false,"is_disabled":false,"rental_uris":{"android":"levelo://app?vid=34539d66-9bce-4d1c-8b94-78e2e11c6e1a","ios":"levelo://app?vid=34539d66-9bce-4d1c-8b94-78e2e11c6e1a"},"vehicle_type_id":"4","last_reported":1757960087,"current_range_meters":14800,"station_id":"","pricing_plan_id":"cebpf4jnsgd1na2vs0mg"},{"bike_id":"12c29fa7-7821-41fd-a89e-635064b05a28","system_id":"levelo_inurba_marseille","lat":43.31101,"lon":5.38588,"is_reserved":false,"is_disabled":false,"rental_uris":{"android":"levelo://app?vid=12c29fa7-7821-41fd-a89e-635064b05a28","ios":"levelo://app?vid=12c29fa7-7821-41fd-a89e-635064b05a28"},"vehicle_type_id":"4","last_reported":1757960087,"current_range_meters":14800,"station_id":"","pricing_plan_id":"cebpf4jnsgd1na2vs0mg"},{"bike_id":"3dbaea07-3afd-403d-8367-7bfa92596a01","system_id":"levelo_inurba_marseille","lat":43.22535,"lon":5.34833,"is_reserved":false,"is_disabled":false,"rental_uris":{"android":"levelo://app?vid=3dbaea07-3afd-403d-8367-7bfa92596a01","ios":"levelo://app?vid=3dbaea07-3afd-403d-8367-7bfa92596a01"},"vehicle_type_id":"4","last_reported":1757960087,"current_range_meters":14800,"station_id":"","pricing_plan_id":"cebpf4jnsgd1na2vs0mg"},{"bike_id":"17d99821-54cc-4f91-a26d-ec9bc695fcf5","system_id":"levelo_inurba_marseille","lat":43.29534,"lon":5.38541,"is_reserved":false,"is_disabled":false,"rental_uris":{"android":"levelo://app?vid=17d99821-54cc-4f91-a26d-ec9bc695fcf5","ios":"levelo://app?vid=17d99821-54cc-4f91-a26d-ec9bc695fcf5"},"vehicle_type_id":"4","last_reported":1757960087,"current_range_meters":14800,"station_id":"ce4bgih2rcd13ifvqba0","pricing_plan_id":"cebpf4jnsgd1na2vs0mg"},{"bike_id":"35793b62-394b-41ba-a054-643e365b173d","system_id":"levelo_inurba_marseille","lat":43.2835,"lon":5.38114,"is_reserved":false,"is_disabled":false,"rental_uris":{"android":"levelo://app?vid=35793b62-394b-41ba-a054-643e365b173d","ios":"levelo://app?vid=35793b62-394b-41ba-a054-643e365b173d"},"vehicle_type_id":"4","last_reported":1757960087,"current_range_meters":16000,"station_id":"ce4bh412rcd13ifvqdr0","pricing_plan_id":"cebpf4jnsgd1na2vs0mg"},{"bike_id":"8fa96c01-3e71-49d8-b0ab-2687e4fc2226","system_id":"levelo_inurba_marseille","lat":43.29529,"lon":5.38546,"is_reserved":false,"is_disabled":false,"rental_uris":{"android":"levelo://app?vid=8fa96c01-3e71-49d8-b0ab-2687e4fc2226","ios":"levelo://app?vid=8fa96c01-3e71-49d8-b0ab-2687e4fc2226"},"vehicle_type_id":"4","last_reported":1757960087,"current_range_meters":15200,"station_id":"ce4bgih2rcd13ifvqba0","pricing_plan_id":"cebpf4jnsgd1na2vs0mg"},{"bike_id":"96fb9e77-dbc3-4ba6-98da-4602932ba9e4","system_id":"levelo_inurba_marseille","lat":43.2921,"lon":5.382695,"is_reserved":false,"is_disabled":false,"rental_uris":{"android":"levelo://app?vid=96fb9e77-dbc3-4ba6-98da-4602932ba9e4","ios":"levelo://app?vid=96fb9e77-dbc3-4ba6-98da-4602932ba9e4"},"vehicle_type_id":"4","last_reported":1757960087,"current_range_meters":16000,"station_id":"","pricing_plan_id":"cebpf4jnsgd1na2vs0mg"},{"bike_id":"c981724d-d2a6-4fee-a9b2-a99a19eb1959","system_id":"levelo_inurba_marseille","lat":43.287,"lon":5.37393,"is_reserved":false,"is_disabled":false,"rental_uris":{"android":"levelo://app?vid=c981724d-d2a6-4fee-a9b2-a99a19eb1959","ios":"levelo://app?vid=c981724d-d2a6-4fee-a9b2-a99a19eb1959"},"vehicle_type_id":"4","last_reported":1757960087,"current_range_meters":16000,"station_id":"ce4bh3p2rcd13ifvqdq0","pricing_plan_id":"cebpf4jnsgd1na2vs0mg"},{"bike_id":"8d6ac0e0-4f27-460b-ab0c-9a0f63260450","system_id":"levelo_inurba_marseille","lat":43.3108,"lon":5.42433,"is_reserved":false,"is_disabled":false,"rental_uris":{"android":"levelo://app?vid=8d6ac0e0-4f27-460b-ab0c-9a0f63260450","ios":"levelo://app?vid=8d6ac0e0-4f27-460b-ab0c-9a0f63260450"},"vehicle_type_id":"4","last_reported":1757960087,"current_range_meters":16000,"station_id":"ce4bhp92rcd13ifvqhag","pricing_plan_id":"cebpf4jnsgd1na2vs0mg"},{"bike_id":"67eac3de-01ca-4d90-a03b-e5bf63e50c9c","system_id":"levelo_inurba_marseille","lat":43.29542,"lon":5.37508,"is_reserved":false,"is_disabled":true,"rental_uris":{"android":"levelo://app?vid=67eac3de-01ca-4d90-a03b-e5bf63e50c9c","ios":"levelo://app?vid=67eac3de-01ca-4d90-a03b-e5bf63e50c9c"},"vehicle_type_id":"4","last_reported":1757960087,"current_range_meters":16000,"station_id":"ce4bgkp2rcd13ifvqbmg","pricing_plan_id":"cebpf4jnsgd1na2vs0mg"},{"bike_id":"501aeb78-7f84-44eb-92d7-55000136d0a5","system_id":"levelo_inurba_marseille","lat":43.292725,"lon":5.40113,"is_reserved":false,"is_disabled":false,"rental_uris":{"android":"levelo://app?vid=501aeb78-7f84-44eb-92d7-55000136d0a5","ios":"levelo://app?vid=501aeb78-7f84-44eb-92d7-55000136d0a5"},"vehicle_type_id":"4","last_reported":1757960087,"current_range_meters":16000,"station_id":"","pricing_plan_id":"cebpf4jnsgd1na2vs0mg"},{"bike_id":"9ee20162-9625-453f-af09-3012df7430b4","system_id":"levelo_inurba_marseille","lat":43.29441,"lon":5.3864,"is_reserved":false,"is_disabled":false,"rental_uris":{"android":"levelo://app?vid=9ee20162-9625-453f-af09-3012df7430b4","ios":"levelo://app?vid=9ee20162-9625-453f-af09-3012df7430b4"},"vehicle_type_id":"4","last_reported":1757960087,"current_range_meters":16000,"station_id":"","pricing_plan_id":"cebpf4jnsgd1na2vs0mg"},{"bike_id":"d9fde20e-88d5-4787-a97e-0ca0cd945134","system_id":"levelo_inurba_marseille","lat":43.25341,"lon":5.42178,"is_reserved":false,"is_disabled":false,"rental_uris":{"android":"levelo://app?vid=d9fde20e-88d5-4787-a97e-0ca0cd945134","ios":"levelo://app?vid=d9fde20e-88d5-4787-a97e-0ca0cd945134"},"vehicle_type_id":"4","last_reported":1757960087,"current_range_meters":16000,"station_id":"st_d2m65c5bi1j21697t3ng","pricing_plan_id":"cebpf4jnsgd1na2vs0mg"},{"bike_id":"0d135958-fcc1-4668-a3a2-507b0bda84c1","system_id":"levelo_inurba_marseille","lat":43.28466,"lon":5.35876,"is_reserved":false,"is_disabled":false,"rental_uris":{"android":"levelo://app?vid=0d135958-fcc1-4668-a3a2-507b0bda84c1","ios":"levelo://app?vid=0d135958-fcc1-4668-a3a2-507b0bda84c1"},"vehicle_type_id":"4","last_reported":1757960087,"current_range_meters":16000,"station_id":"ce4bhah2rcd13ifvqei0","pricing_plan_id":"cebpf4jnsgd1na2vs0mg"},{"bike_id":"b11fca66-3f58-48a8-8d9f-431ed50e61fa","system_id":"levelo_inurba_marseille","lat":43.2997,"lon":5.37184,"is_reserved":false,"is_disabled":false,"rental_uris":{"android":"levelo://app?vid=b11fca66-3f58-48a8-8d9f-431ed50e61fa","ios":"levelo://app?vid=b11fca66-3f58-48a8-8d9f-431ed50e61fa"},"vehicle_type_id":"4","last_reported":1757960087,"current_range_meters":17200,"station_id":"ce4bgr92rcd13ifvqc7g","pricing_plan_id":"cebpf4jnsgd1na2vs0mg"},{"bike_id":"43bca0e7-2f80-4c0c-a40a-f47ee06dac86","system_id":"levelo_inurba_marseille","lat":43.26565,"lon":5.39009,"is_reserved":false,"is_disabled":false,"rental_uris":{"android":"levelo://app?vid=43bca0e7-2f80-4c0c-a40a-f47ee06dac86","ios":"levelo://app?vid=43bca0e7-2f80-4c0c-a40a-f47ee06dac86"},"vehicle_type_id":"4","last_reported":1757960087,"current_range_meters":16400,"station_id":"ce4bhe12rcd13ifvqf30","pricing_plan_id":"cebpf4jnsgd1na2vs0mg"},{"bike_id":"dbd145e8-ae09-4562-82a3-cac3f4d215a1","system_id":"levelo_inurba_marseille","lat":43.27535,"lon":5.38512,"is_reserved":false,"is_disabled":false,"rental_uris":{"android":"levelo://app?vid=dbd145e8-ae09-4562-82a3-cac3f4d215a1","ios":"levelo://app?vid=dbd145e8-ae09-4562-82a3-cac3f4d215a1"},"vehicle_type_id":"4","last_reported":1757960087,"current_range_meters":16400,"station_id":"","pricing_plan_id":"cebpf4jnsgd1na2vs0mg"},{"bike_id":"743708b1-b75d-4e24-ba42-40ee9b03b062","system_id":"levelo_inurba_marseille","lat":43.26063,"lon":5.39399,"is_reserved":false,"is_disabled":false,"rental_uris":{"android":"levelo://app?vid=743708b1-b75d-4e24-ba42-40ee9b03b062","ios":"levelo://app?vid=743708b1-b75d-4e24-ba42-40ee9b03b062"},"vehicle_type_id":"4","last_reported":1757960087,"current_range_meters":16400,"station_id":"ce4bhh92rcd13ifvqfj0","pricing_plan_id":"cebpf4jnsgd1na2vs0mg"},{"bike_id":"d28c30f7-d993-418e-b279-e6e75970549b","system_id":"levelo_inurba_marseille","lat":43.29633,"lon":5.37698,"is_reserved":false,"is_disabled":true,"rental_uris":{"android":"levelo://app?vid=d28c30f7-d993-418e-b279-e6e75970549b","ios":"levelo://app?vid=d28c30f7-d993-418e-b279-e6e75970549b"},"vehicle_type_id":"4","last_reported":1757960087,"current_range_meters":16400,"station_id":"ce4bgi92rcd13ifvqb90","pricing_plan_id":"cebpf4jnsgd1na2vs0mg"},{"bike_id":"f4e0ee7b-2e0b-4285-8c24-af7f548f39e0","system_id":"levelo_inurba_marseille","lat":43.27822,"lon":5.40705,"is_reserved":false,"is_disabled":false,"rental_uris":{"android":"levelo://app?vid=f4e0ee7b-2e0b-4285-8c24-af7f548f39e0","ios":"levelo://app?vid=f4e0ee7b-2e0b-4285-8c24-af7f548f39e0"},"vehicle_type_id":"4","last_reported":1757960087,"current_range_meters":16400,"station_id":"ce4bhnh2rcd13ifvqgtg","pricing_plan_id":"cebpf4jnsgd1na2vs0mg"},{"bike_id":"3fa71835-1636-47eb-bafc-219bc5eee597","system_id":"levelo_inurba_marseille","lat":43.2885,"lon":5.39302,"is_reserved":false,"is_disabled":false,"rental_uris":{"android":"levelo://app?vid=3fa71835-1636-47eb-bafc-219bc5eee597","ios":"levelo://app?vid=3fa71835-1636-47eb-bafc-219bc5eee597"},"vehicle_type_id":"4","last_reported":1757960087,"current_range_meters":16400,"station_id":"ce4bh2p2rcd13ifvqdi0","pricing_plan_id":"cebpf4jnsgd1na2vs0mg"},{"bike_id":"6fcfaec1-ebda-48cb-9c7e-09a9b4534252","system_id":"levelo_inurba_marseille","lat":43.30922,"lon":5.40134,"is_reserved":false,"is_disabled":false,"rental_uris":{"android":"levelo://app?vid=6fcfaec1-ebda-48cb-9c7e-09a9b4534252","ios":"levelo://app?vid=6fcfaec1-ebda-48cb-9c7e-09a9b4534252"},"vehicle_type_id":"4","last_reported":1757960087,"current_range_meters":16400,"station_id":"ce4bgvp2rcd13ifvqct0","pricing_plan_id":"cebpf4jnsgd1na2vs0mg"},{"bike_id":"69a94824-5b00-4fd0-93c6-48aaf4daffb8","system_id":"levelo_inurba_marseille","lat":43.25064,"lon":5.39539,"is_reserved":false,"is_disabled":false,"rental_uris":{"android":"levelo://app?vid=69a94824-5b00-4fd0-93c6-48aaf4daffb8","ios":"levelo://app?vid=69a94824-5b00-4fd0-93c6-48aaf4daffb8"},"vehicle_type_id":"4","last_reported":1757960087,"current_range_meters":16800,"station_id":"ce4bhm12rcd13ifvqgkg","pricing_plan_id":"cebpf4jnsgd1na2vs0mg"},{"bike_id":"503ae19c-57ae-484e-8e1f-65f2e1feccc1","system_id":"levelo_inurba_marseille","lat":43.240776,"lon":5.377561,"is_reserved":false,"is_disabled":false,"rental_uris":{"android":"levelo://app?vid=503ae19c-57ae-484e-8e1f-65f2e1feccc1","ios":"levelo://app?vid=503ae19c-57ae-484e-8e1f-65f2e1feccc1"},"vehicle_type_id":"4","last_reported":1757960087,"current_range_meters":16800,"station_id":"ce4bhnp2rcd13ifvqgvg","pricing_plan_id":"cebpf4jnsgd1na2vs0mg"},{"bike_id":"5e0abc98-dd5d-485a-aeff-5971b73f192c","system_id":"levelo_inurba_marseille","lat":43.27175,"lon":5.40989,"is_reserved":false,"is_disabled":false,"rental_uris":{"android":"levelo://app?vid=5e0abc98-dd5d-485a-aeff-5971b73f192c","ios":"levelo://app?vid=5e0abc98-dd5d-485a-aeff-5971b73f192c"},"vehicle_type_id":"4","last_reported":1757960087,"current_range_meters":16800,"station_id":"ce4bhl12rcd13ifvqgf0","pricing_plan_id":"cebpf4jnsgd1na2vs0mg"},{"bike_id":"eccc38fe-21e8-43d0-a3b6-288e1a0449d4","system_id":"levelo_inurba_marseille","lat":43.29004,"lon":5.356116,"is_reserved":false,"is_disabled":false,"rental_uris":{"android":"levelo://app?vid=eccc38fe-21e8-43d0-a3b6-288e1a0449d4","ios":"levelo://app?vid=eccc38fe-21e8-43d0-a3b6-288e1a0449d4"},"vehicle_type_id":"4","last_reported":1757960087,"current_range_meters":17200,"station_id":"ce4bhb92rcd13ifvqen0","pricing_plan_id":"cebpf4jnsgd1na2vs0mg"},{"bike_id":"2fc8b5ed-5ba2-4a32-8574-34d78ca40c05","system_id":"levelo_inurba_marseille","lat":43.28425,"lon":5.37525,"is_reserved":false,"is_disabled":false,"rental_uris":{"android":"levelo://app?vid=2fc8b5ed-5ba2-4a32-8574-34d78ca40c05","ios":"levelo://app?vid=2fc8b5ed-5ba2-4a32-8574-34d78ca40c05"},"vehicle_type_id":"4","last_reported":1757960087,"current_range_meters":16800,"station_id":"ce4bh412rcd13ifvqds0","pricing_plan_id":"cebpf4jnsgd1na2vs0mg"},{"bike_id":"556a9e9e-7544-4a4b-8d1a-957ba773ee88","system_id":"levelo_inurba_marseille","lat":43.25864,"lon":5.39896,"is_reserved":false,"is_disabled":false,"rental_uris":{"android":"levelo://app?vid=556a9e9e-7544-4a4b-8d1a-957ba773ee88","ios":"levelo://app?vid=556a9e9e-7544-4a4b-8d1a-957ba773ee88"},"vehicle_type_id":"4","last_reported":1757960087,"current_range_meters":16800,"station_id":"ce4bhl92rcd13ifvqghg","pricing_plan_id":"cebpf4jnsgd1na2vs0mg"},{"bike_id":"2135d84c-f797-412c-93a7-045965aa3659","system_id":"levelo_inurba_marseille","lat":43.28396,"lon":5.37509,"is_reserved":false,"is_disabled":false,"rental_uris":{"android":"levelo://app?vid=2135d84c-f797-412c-93a7-045965aa3659","ios":"levelo://app?vid=2135d84c-f797-412c-93a7-045965aa3659"},"vehicle_type_id":"4","last_reported":1757960087,"current_range_meters":16800,"station_id":"ce4bh412rcd13ifvqds0","pricing_plan_id":"cebpf4jnsgd1na2vs0mg"},