{"last_updated":1744751387,"ttl":60,"version":"2.2","data":{"bikes":[{"bike_id":"48bba150-fed8-4c6b-851a-e559d23b71f3","system_id":"levelo_inurba_marseille","lat":43.313263,"lon":5.39702,"is_reserved":false,"is_disabled":false,"rental_uris":{"android":"levelo://app?vid=48bba150-fed8-4c6b-851a-e559d23b71f3","ios":"levelo://app?vid=48bba150-fed8-4c6b-851a-e559d23b71f3"},"vehicle_type_id":"4","last_reported":1744751387,"current_range_meters":3200,"station_id":"ce4bgvp2rcd13ifvqcu0","pricing_plan_id":"cebpf4jnsgd1na2vs0mg"},{"bike_id":"2a5d72f0-067a-40d9-80a0-d3b202c252f4","system_id":"levelo_inurba_marseille","lat":43.27817,"lon":5.40709,"is_reserved":false,"is_disabled":false,"rental_uris":{"android":"levelo://app?vid=2a5d72f0-067a-40d9-80a0-d3b202c252f4","ios":"levelo://app?vid=2a5d72f0-067a-40d9-80a0-d3b202c252f4"},"vehicle_type_id":"4","last_reported":1744751387,"current_range_meters":3600,"station_id":"ce4bhnh2rcd13ifvqgtg","pricing_plan_id":"cebpf4jnsgd1na2vs0mg"},{"bike_id":"66d9901e-dd09-493e-abc0-647b0a2cb05d","system_id":"levelo_inurba_marseille","lat":43.21717,"lon":5.34642,"is_reserved":false,"is_disabled":false,"rental_uris":{"android":"levelo://app?vid=66d9901e-dd09-493e-abc0-647b0a2cb05d","ios":"levelo://app?vid=66d9901e-dd09-493e-abc0-647b0a2cb05d"},"vehicle_type_id":"4","last_reported":1744751387,"current_range_meters":4000,"station_id":"st_cvj6r9ubvosntc0bgbag","pricing_plan_id":"cebpf4jnsgd1na2vs0mg"},{"bike_id":"1064b9a7-5947-42b0-b3ab-02b74ee64902","system_id":"levelo_inurba_marseille","lat":43.25008,"lon":5.38908,"is_reserved":false,"is_disabled":true,"rental_uris":{"android":"levelo://app?vid=1064b9a7-5947-42b0-b3ab-02b74ee64902","ios":"levelo://app?vid=1064b9a7-5947-42b0-b3ab-02b74ee64902"},"vehicle_type_id":"4","last_reported":1744751387,"current_range_meters":4400,"station_id":"ce4bhgp2rcd13ifvqfd0","pricing_plan_id":"cebpf4jnsgd1na2vs0mg"},{"bike_id":"ed914ecc-1bed-4dcf-83da-2508ed3b1862","system_id":"levelo_inurba_marseille","lat":43.314598,"lon":5.370744,"is_reserved":false,"is_disabled":false,"rental_uris":{"android":"levelo://app?vid=ed914ecc-1bed-4dcf-83da-2508ed3b1862","ios":"levelo://app?vid=ed914ecc-1bed-4dcf-83da-2508ed3b1862"},"vehicle_type_id":"4","last_reported":1744751387,"current_range_meters":4800,"station_id":"ce4bgl92rcd13ifvqbq0","pricing_plan_id":"cebpf4jnsgd1na2vs0mg"},{"bike_id":"93848785-82d0-4143-a030-37d589e660ea","system_id":"levelo_inurba_marseille","lat":43.29256,"lon":5.40902,"is_reserved":false,"is_disabled":false,"rental_uris":{"android":"levelo://app?vid=93848785-82d0-4143-a030-37d589e660ea","ios":"levelo://app?vid=93848785-82d0-4143-a030-37d589e660ea"},"vehicle_type_id":"4","last_reported":1744751387,"current_range_meters":4800,"station_id":"ce4bh192rcd13ifvqdc0","pricing_plan_id":"cebpf4jnsgd1na2vs0mg"},{"bike_id":"4a256a9b-f327-49f2-a6dd-aa25cd309e0c","system_id":"levelo_inurba_marseille","lat":43.28972,"lon":5.37827,"is_reserved":false,"is_disabled":false,"rental_uris":{"android":"levelo://app?vid=4a256a9b-f327-49f2-a6dd-aa25cd309e0c","ios":"levelo://app?vid=4a256a9b-f327-49f2-a6dd-aa25cd309e0c"},"vehicle_type_id":"4","last_reported":1744751387,"current_range_meters":3200,"station_id":"ce4bh9p2rcd13ifvqed0","pricing_plan_id":"cebpf4jnsgd1na2vs0mg"},{"bike_id":"6e813554-554a-49dd-9009-02d95efd3de7","system_id":"levelo_inurba_marseille","lat":43.32427,"lon":5.3911,"is_reserved":false,"is_disabled":true,"rental_uris":{"android":"levelo://app?vid=6e813554-554a-49dd-9009-02d95efd3de7","ios":"levelo://app?vid=6e813554-554a-49dd-9009-02d95efd3de7"},"vehicle_type_id":"4","last_reported":1744751387,"current_range_meters":6000,"station_id":"","pricing_plan_id":"cebpf4jnsgd1na2vs0mg"},{"bike_id":"bbf09b30-e51e-4569-8ee2-7259db6e8f8c","system_id":"levelo_inurba_marseille","lat":43.24998,"lon":5.38924,"is_reserved":false,"is_disabled":false,"rental_uris":{"android":"levelo://app?vid=bbf09b30-e51e-4569-8ee2-7259db6e8f8c","ios":"levelo://app?vid=bbf09b30-e51e-4569-8ee2-7259db6e8f8c"},"vehicle_type_id":"4","last_reported":1744751387,"current_range_meters":6000,"station_id":"ce4bhgp2rcd13ifvqfd0","pricing_plan_id":"cebpf4jnsgd1na2vs0mg"},{"bike_id":"199910c8-c965-4472-894a-547fa8667c6b","system_id":"levelo_inurba_marseille","lat":43.28458,"lon":5.35876,"is_reserved":false,"is_disabled":false,"rental_uris":{"android":"levelo://app?vid=199910c8-c965-4472-894a-547fa8667c6b","ios":"levelo://app?vid=199910c8-c965-4472-894a-547fa8667c6b"},"vehicle_type_id":"4","last_reported":1744751387,"current_range_meters":6000,"station_id":"ce4bhah2rcd13ifvqei0","pricing_plan_id":"cebpf4jnsgd1na2vs0mg"},{"bike_id":"8fb9e7bc-8a04-4f5d-9440-892df4b1b295","system_id":"levelo_inurba_marseille","lat":43.309527,"lon":5.390232,"is_reserved":false,"is_disabled":true,"rental_uris":{"android":"levelo://app?vid=8fb9e7bc-8a04-4f5d-9440-892df4b1b295","ios":"levelo://app?vid=8fb9e7bc-8a04-4f5d-9440-892df4b1b295"},"vehicle_type_id":"4","last_reported":1744751387,"current_range_meters":6400,"station_id":"ce4bgup2rcd13ifvqco0","pricing_plan_id":"cebpf4jnsgd1na2vs0mg"},{"bike_id":"8a5929f6-d19f-4a8e-97f1-5dec0e7ea5f9","system_id":"levelo_inurba_marseille","lat":43.31159,"lon":5.38731,"is_reserved":false,"is_disabled":false,"rental_uris":{"android":"levelo://app?vid=8a5929f6-d19f-4a8e-97f1-5dec0e7ea5f9","ios":"levelo://app?vid=8a5929f6-d19f-4a8e-97f1-5dec0e7ea5f9"},"vehicle_type_id":"4","last_reported":1744751387,"current_range_meters":6000,"station_id":"ce4bgv12rcd13ifvqcp0","pricing_plan_id":"cebpf4jnsgd1na2vs0mg"},{"bike_id":"45c77ecd-980e-4383-ab9a-31be7a98a675","system_id":"levelo_inurba_marseille","lat":43.24066,"lon":5.37758,"is_reserved":false,"is_disabled":false,"rental_uris":{"android":"levelo://app?vid=45c77ecd-980e-4383-ab9a-31be7a98a675","ios":"levelo://app?vid=45c77ecd-980e-4383-ab9a-31be7a98a675"},"vehicle_type_id":"4","last_reported":1744751387,"current_range_meters":6400,"station_id":"ce4bhnp2rcd13ifvqgvg","pricing_plan_id":"cebpf4jnsgd1na2vs0mg"},{"bike_id":"d64aa8f0-0884-41cf-84e6-ae25f8a6ae2a","system_id":"levelo_inurba_marseille","lat":43.28604,"lon":5.37788,"is_reserved":false,"is_disabled":false,"rental_uris":{"android":"levelo://app?vid=d64aa8f0-0884-41cf-84e6-ae25f8a6ae2a","ios":"levelo://app?vid=d64aa8f0-0884-41cf-84e6-ae25f8a6ae2a"},"vehicle_type_id":"4","last_reported":1744751387,"current_range_meters":6400,"station_id":"","pricing_plan_id":"cebpf4jnsgd1na2vs0mg"},{"bike_id":"1df60d2d-bb9a-433a-a8e7-88729772ae6e","system_id":"levelo_inurba_marseille","lat":43.27414,"lon":5.39408,"is_reserved":false,"is_disabled":false,"rental_uris":{"android":"levelo://app?vid=1df60d2d-bb9a-433a-a8e7-88729772ae6e","ios":"levelo://app?vid=1df60d2d-bb9a-433a-a8e7-88729772ae6e"},"vehicle_type_id":"4","last_reported":1744751387,"current_range_meters":6400,"station_id":"ce4bhdp2rcd13ifvqf20","pricing_plan_id":"cebpf4jnsgd1na2vs0mg"},{"bike_id":"4e6524b6-5132-41d3-a759-888a060ccf51","system_id":"levelo_inurba_marseille","lat":43.3004,"lon":5.36504,"is_reserved":false,"is_disabled":false,"rental_uris":{"android":"levelo://app?vid=4e6524b6-5132-41d3-a759-888a060ccf51","ios":"levelo://app?vid=4e6524b6-5132-41d3-a759-888a060ccf51"},"vehicle_type_id":"4","last_reported":1744751387,"current_range_meters":6800,"station_id":"","pricing_plan_id":"cebpf4jnsgd1na2vs0mg"},{"bike_id":"cbc427fb-38a2-4977-bce5-5c0b23cf8f99","system_id":"levelo_inurba_marseille","lat":43.28276,"lon":5.3507,"is_reserved":false,"is_disabled":false,"rental_uris":{"android":"levelo://app?vid=cbc427fb-38a2-4977-bce5-5c0b23cf8f99","ios":"levelo://app?vid=cbc427fb-38a2-4977-bce5-5c0b23cf8f99"},"vehicle_type_id":"4","last_reported":1744751387,"current_range_meters":6800,"station_id":"ce4bhbp2rcd13ifvqerg","pricing_plan_id":"cebpf4jnsgd1na2vs0mg"},{"bike_id":"0e262e1d-d85f-4b85-9573-166962666f8f","system_id":"levelo_inurba_marseille","lat":43.27093,"lon":5.42285,"is_reserved":false,"is_disabled":false,"rental_uris":{"android":"levelo://app?vid=0e262e1d-d85f-4b85-9573-166962666f8f","ios":"levelo://app?vid=0e262e1d-d85f-4b85-9573-166962666f8f"},"vehicle_type_id":"4","last_reported":1744751387,"current_range_meters":6800,"station_id":"ce4bhk92rcd13ifvqgb0","pricing_plan_id":"cebpf4jnsgd1na2vs0mg"},{"bike_id":"2f93173f-d02c-4e29-ab59-1fff882697d7","system_id":"levelo_inurba_marseille","lat":43.24033,"lon":5.37804,"is_reserved":false,"is_disabled":false,"rental_uris":{"android":"levelo://app?vid=2f93173f-d02c-4e29-ab59-1fff882697d7","ios":"levelo://app?vid=2f93173f-d02c-4e29-ab59-1fff882697d7"},"vehicle_type_id":"4","last_reported":1744751387,"current_range_meters":6800,"station_id":"","pricing_plan_id":"cebpf4jnsgd1na2vs0mg"},{"bike_id":"a80e51e8-b9b7-4ef2-ae4a-c07765b39d73","system_id":"levelo_inurba_marseille","lat":43.2845,"lon":5.35895,"is_reserved":false,"is_disabled":false,"rental_uris":{"android":"levelo://app?vid=a80e51e8-b9b7-4ef2-ae4a-c07765b39d73","ios":"levelo://app?vid=a80e51e8-b9b7-4ef2-ae4a-c07765b39d73"},"vehicle_type_id":"4","last_reported":1744751387,"current_range_meters":7200,"station_id":"ce4bhah2rcd13ifvqei0","pricing_plan_id":"cebpf4jnsgd1na2vs0mg"},{"bike_id":"ee50bdcc-cd01-4a0e-85b9-729774a400c8","system_id":"levelo_inurba_marseille","lat":43.29787,"lon":5.39344,"is_reserved":false,"is_disabled":true,"rental_uris":{"android":"levelo://app?vid=ee50bdcc-cd01-4a0e-85b9-729774a400c8","ios":"levelo://app?vid=ee50bdcc-cd01-4a0e-85b9-729774a400c8"},"vehicle_type_id":"4","last_reported":1744751387,"current_range_meters":7200,"station_id":"chh1huq6cuj3fo74tm60","pricing_plan_id":"cebpf4jnsgd1na2vs0mg"},{"bike_id":"16c57a16-1796-4461-a40d-0b5e34a202e1","system_id":"levelo_inurba_marseille","lat":43.28031,"lon":5.36946,"is_reserved":false,"is_disabled":false,"rental_uris":{"android":"levelo://app?vid=16c57a16-1796-4461-a40d-0b5e34a202e1","ios":"levelo://app?vid=16c57a16-1796-4461-a40d-0b5e34a202e1"},"vehicle_type_id":"4","last_reported":1744751387,"current_range_meters":7200,"station_id":"ce4bha12rcd13ifvqef0","pricing_plan_id":"cebpf4jnsgd1na2vs0mg"},{"bike_id":"ad4f0053-cdc4-4b5c-b1fa-51d4ed7339eb","system_id":"levelo_inurba_marseille","lat":43.28678,"lon":5.38684,"is_reserved":false,"is_disabled":false,"rental_uris":{"android":"levelo://app?vid=ad4f0053-cdc4-4b5c-b1fa-51d4ed7339eb","ios":"levelo://app?vid=ad4f0053-cdc4-4b5c-b1fa-51d4ed7339eb"},"vehicle_type_id":"4","last_reported":1744751387,"current_range_meters":8000,"station_id":"ce4bh492rcd13ifvqdug","pricing_plan_id":"cebpf4jnsgd1na2vs0mg"},{"bike_id":"bb3fa259-4909-465e-99f8-7d363c8fd144","system_id":"levelo_inurba_marseille","lat":43.30545,"lon":5.40173,"is_reserved":false,"is_disabled":false,"rental_uris":{"android":"levelo://app?vid=bb3fa259-4909-465e-99f8-7d363c8fd144","ios":"levelo://app?vid=bb3fa259-4909-465e-99f8-7d363c8fd144"},"vehicle_type_id":"4","last_reported":1744751387,"current_range_meters":8000,"station_id":"","pricing_plan_id":"cebpf4jnsgd1na2vs0mg"},{"bike_id":"cae589eb-10af-4a8f-8ef6-1f6b43e97ea4","system_id":"levelo_inurba_marseille","lat":43.31073,"lon":5.38331,"is_reserved":false,"is_disabled":false,"rental_uris":{"android":"levelo://app?vid=cae589eb-10af-4a8f-8ef6-1f6b43e97ea4","ios":"levelo://app?vid=cae589eb-10af-4a8f-8ef6-1f6b43e97ea4"},"vehicle_type_id":"4","last_reported":1744751387,"current_range_meters":8000,"station_id":"ce4bgv92rcd13ifvqcr0","pricing_plan_id":"cebpf4jnsgd1na2vs0mg"},{"bike_id":"48e042da-bf8d-49ad-9806-28ffd897dbce","system_id":"levelo_inurba_marseille","lat":43.3132,"lon":5.39689,"is_reserved":false,"is_disabled":false,"rental_uris":{"android":"levelo://app?vid=48e042da-bf8d-49ad-9806-28ffd897dbce","ios":"levelo://app?vid=48e042da-bf8d-49ad-9806-28ffd897dbce"},"vehicle_type_id":"4","last_reported":1744751387,"current_range_meters":8000,"station_id":"ce4bgvp2rcd13ifvqcu0","pricing_plan_id":"cebpf4jnsgd1na2vs0mg"},{"bike_id":"d0ded8d0-29b8-42f0-8e27-b304f7842b78","system_id":"levelo_inurba_marseille","lat":43.29252,"lon":5.38416,"is_reserved":false,"is_disabled":false,"rental_uris":{"android":"levelo://app?vid=d0ded8d0-29b8-42f0-8e27-b304f7842b78","ios":"levelo://app?vid=d0ded8d0-29b8-42f0-8e27-b304f7842b78"},"vehicle_type_id":"4","last_reported":1744751387,"current_range_meters":8000,"station_id":"ce4bh292rcd13ifvqdg0","pricing_plan_id":"cebpf4jnsgd1na2vs0mg"},{"bike_id":"2aa60530-acd9-4f16-bd61-40754a4a77d3","system_id":"levelo_inurba_marseille","lat":43.29714,"lon":5.36619,"is_reserved":false,"is_disabled":false,"rental_uris":{"android":"levelo://app?vid=2aa60530-acd9-4f16-bd61-40754a4a77d3","ios":"levelo://app?vid=2aa60530-acd9-4f16-bd61-40754a4a77d3"},"vehicle_type_id":"4","last_reported":1744751387,"current_range_meters":8000,"station_id":"ce4bgn12rcd13ifvqbt0","pricing_plan_id":"cebpf4jnsgd1na2vs0mg"},{"bike_id":"a668abbc-a092-49f5-9124-b0b71b0d2e46","system_id":"levelo_inurba_marseille","lat":43.22958,"lon":5.35371,"is_reserved":false,"is_disabled":false,"rental_uris":{"android":"levelo://app?vid=a668abbc-a092-49f5-9124-b0b71b0d2e46","ios":"levelo://app?vid=a668abbc-a092-49f5-9124-b0b71b0d2e46"},"vehicle_type_id":"4","last_reported":1744751387,"current_range_meters":8000,"station_id":"cpo3532slgdg3j2ikp40","pricing_plan_id":"cebpf4jnsgd1na2vs0mg"},{"bike_id":"207b15a7-69f1-4c4a-a29d-f91df1564475","system_id":"levelo_inurba_marseille","lat":43.24074,"lon":5.37754,"is_reserved":false,"is_disabled":false,"rental_uris":{"android":"levelo://app?vid=207b15a7-69f1-4c4a-a29d-f91df1564475","ios":"levelo://app?vid=207b15a7-69f1-4c4a-a29d-f91df1564475"},"vehicle_type_id":"4","last_reported":1744751387,"current_range_meters":8000,"station_id":"ce4bhnp2rcd13ifvqgvg","pricing_plan_id":"cebpf4jnsgd1na2vs0mg"},{"bike_id":"b527ed4f-7fd4-4654-bb8f-2515d5fe32fe","system_id":"levelo_inurba_marseille","lat":43.28476,"lon":5.38435,"is_reserved":false,"is_disabled":false,"rental_uris":{"android":"levelo://app?vid=b527ed4f-7fd4-4654-bb8f-2515d5fe32fe","ios":"levelo://app?vid=b527ed4f-7fd4-4654-bb8f-2515d5fe32fe"},"vehicle_type_id":"4","last_reported":1744751387,"current_range_meters":8000,"station_id":"ce4bh512rcd13ifvqe3g","pricing_plan_id":"cebpf4jnsgd1na2vs0mg"},{"bike_id":"0ee6e897-9651-4b0c-92a1-8a45e96d9917","system_id":"levelo_inurba_marseille","lat":43.3134,"lon":5.39711,"is_reserved":false,"is_disabled":false,"rental_uris":{"android":"levelo://app?vid=0ee6e897-9651-4b0c-92a1-8a45e96d9917","ios":"levelo://app?vid=0ee6e897-9651-4b0c-92a1-8a45e96d9917"},"vehicle_type_id":"4","last_reported":1744751387,"current_range_meters":8000,"station_id":"ce4bgvp2rcd13ifvqcu0","pricing_plan_id":"cebpf4jnsgd1na2vs0mg"},{"bike_id":"b5d978c8-0bb0-45d7-be49-b92cba244dc5","system_id":"levelo_inurba_marseille","lat":43.29284,"lon":5.3746,"is_reserved":false,"is_disabled":true,"rental_uris":{"android":"levelo://app?vid=b5d978c8-0bb0-45d7-be49-b92cba244dc5","ios":"levelo://app?vid=b5d978c8-0bb0-45d7-be49-b92cba244dc5"},"vehicle_type_id":"4","last_reported":1744751387,"current_range_meters":8000,"station_id":"ce4bgi12rcd13ifvqb70","pricing_plan_id":"cebpf4jnsgd1na2vs0mg"},{"bike_id":"2931a643-dda5-4fc3-95c6-414da5432646","system_id":"levelo_inurba_marseille","lat":43.30644,"lon":5.40072,"is_reserved":false,"is_disabled":false,"rental_uris":{"android":"levelo://app?vid=2931a643-dda5-4fc3-95c6-414da5432646","ios":"levelo://app?vid=2931a643-dda5-4fc3-95c6-414da5432646"},"vehicle_type_id":"4","last_reported":1744751387,"current_range_meters":8400,"station_id":"ce4bh112rcd13ifvqda0","pricing_plan_id":"cebpf4jnsgd1na2vs0mg"},{"bike_id":"c273cedc-5337-4dec-91b4-1636fd7d09ad","system_id":"levelo_inurba_marseille","lat":43.31439,"lon":5.37598,"is_reserved":false,"is_disabled":false,"rental_uris":{"android":"levelo://app?vid=c273cedc-5337-4dec-91b4-1636fd7d09ad","ios":"levelo://app?vid=c273cedc-5337-4dec-91b4-1636fd7d09ad"},"vehicle_type_id":"4","last_reported":1744751387,"current_range_meters":8400,"station_id":"","pricing_plan_id":"cebpf4jnsgd1na2vs0mg"},{"bike_id":"427689a9-0cd4-4119-82a4-9e9bd7ecd185","system_id":"levelo_inurba_marseille","lat":43.28612,"lon":5.37077,"is_reserved":false,"is_disabled":false,"rental_uris":{"android":"levelo://app?vid=427689a9-0cd4-4119-82a4-9e9bd7ecd185","ios":"levelo://app?vid=427689a9-0cd4-4119-82a4-9e9bd7ecd185"},"vehicle_type_id":"4","last_reported":1744751387,"current_range_meters":8400,"station_id":"ce4bht12rcd13ifvqi60","pricing_plan_id":"cebpf4jnsgd1na2vs0mg"},{"bike_id":"1395488a-de73-4c0c-99f8-ead07ddbb67d","system_id":"levelo_inurba_marseille","lat":43.23999,"lon":5.36691,"is_reserved":false,"is_disabled":false,"rental_uris":{"android":"levelo://app?vid=1395488a-de73-4c0c-99f8-ead07ddbb67d","ios":"levelo://app?vid=1395488a-de73-4c0c-99f8-ead07ddbb67d"},"vehicle_type_id":"4","last_reported":1744751387,"current_range_meters":8400,"station_id":"","pricing_plan_id":"cebpf4jnsgd1na2vs0mg"},{"bike_id":"faa3f464-210d-41c9-9545-8b13b120928b","system_id":"levelo_inurba_marseille","lat":43.26937,"lon":5.40256,"is_reserved":false,"is_disabled":false,"rental_uris":{"android":"levelo://app?vid=faa3f464-210d-41c9-9545-8b13b120928b","ios":"levelo://app?vid=faa3f464-210d-41c9-9545-8b13b120928b"},"vehicle_type_id":"4","last_reported":1744751387,"current_range_meters":8400,"station_id":"cjm6bp8fraef2m0cb0m0","pricing_plan_id":"cebpf4jnsgd1na2vs0mg"},{"bike_id":"2929bf40-9184-4429-bc11-46841c53dd56","system_id":"levelo_inurba_marseille","lat":43.28267,"lon":5.35053,"is_reserved":false,"is_disabled":false,"rental_uris":{"android":"levelo://app?vid=2929bf40-9184-4429-bc11-46841c53dd56","ios":"levelo://app?vid=2929bf40-9184-4429-bc11-46841c53dd56"},"vehicle_type_id":"4","last_reported":1744751387,"current_range_meters":8000,"station_id":"ce4bhbp2rcd13ifvqerg","pricing_plan_id":"cebpf4jnsgd1na2vs0mg"},{"bike_id":"fedf7c4f-c9e3-4ffc-8526-d46d99681b89","system_id":"levelo_inurba_marseille","lat":43.28601,"lon":5.38944,"is_reserved":false,"is_disabled":true,"rental_uris":{"android":"levelo://app?vid=fedf7c4f-c9e3-4ffc-8526-d46d99681b89","ios":"levelo://app?vid=fedf7c4f-c9e3-4ffc-8526-d46d99681b89"},"vehicle_type_id":"4","last_reported":1744751387,"current_range_meters":8400,"station_id":"","pricing_plan_id":"cebpf4jnsgd1na2vs0mg"},{"bike_id":"2cc39d04-b391-482f-981c-35d8fb224818","system_id":"levelo_inurba_marseille","lat":43.27074,"lon":5.40258,"is_reserved":false,"is_disabled":false,"rental_uris":{"android":"levelo://app?vid=2cc39d04-b391-482f-981c-35d8fb224818","ios":"levelo://app?vid=2cc39d04-b391-482f-981c-35d8fb224818"},"vehicle_type_id":"4","last_reported":1744751387,"current_range_meters":8800,"station_id":"ce4bhk92rcd13ifvqgc0","pricing_plan_id":"cebpf4jnsgd1na2vs0mg"},{"bike_id":"347598f2-7636-431d-aa2a-ee922a6e92de","system_id":"levelo_inurba_marseille","lat":43.28927,"lon":5.36425,"is_reserved":false,"is_disabled":false,"rental_uris":{"android":"levelo://app?vid=347598f2-7636-431d-aa2a-ee922a6e92de","ios":"levelo://app?vid=347598f2-7636-431d-aa2a-ee922a6e92de"},"vehicle_type_id":"4","last_reported":1744751387,"current_range_meters":8800,"station_id":"ce4bhc92rcd13ifvqetg","pricing_plan_id":"cebpf4jnsgd1na2vs0mg"},{"bike_id":"a0636e31-c89e-4ae1-aea4-880988d0da0e","system_id":"levelo_inurba_marseille","lat":43.29561,"lon":5.42283,"is_reserved":false,"is_disabled":false,"rental_uris":{"android":"levelo://app?vid=a0636e31-c89e-4ae1-aea4-880988d0da0e","ios":"levelo://app?vid=a0636e31-c89e-4ae1-aea4-880988d0da0e"},"vehicle_type_id":"4","last_reported":1744751387,"current_range_meters":8800,"station_id":"ce4bhph2rcd13ifvqhdg","pricing_plan_id":"cebpf4jnsgd1na2vs0mg"},{"bike_id":"3f6e6fd0-fab9-4f68-a6ca-15289375554f","system_id":"levelo_inurba_marseille","lat":43.27562,"lon":5.38404,"is_reserved":false,"is_disabled":false,"rental_uris":{"android":"levelo://app?vid=3f6e6fd0-fab9-4f68-a6ca-15289375554f","ios":"levelo://app?vid=3f6e6fd0-fab9-4f68-a6ca-15289375554f"},"vehicle_type_id":"4","last_reported":1744751387,"current_range_meters":8800,"station_id":"ce4bhh92rcd13ifvqfi0","pricing_plan_id":"cebpf4jnsgd1na2vs0mg"},{"bike_id":"e539c583-f075-4e1b-b80e-dfd76abea09d","system_id":"levelo_inurba_marseille","lat":43.28565,"lon":5.39522,"is_reserved":false,"is_disabled":false,"rental_uris":{"android":"levelo://app?vid=e539c583-f075-4e1b-b80e-dfd76abea09d","ios":"levelo://app?vid=e539c583-f075-4e1b-b80e-dfd76abea09d"},"vehicle_type_id":"4","last_reported":1744751387,"current_range_meters":8400,"station_id":"ce4bh292rcd13ifvqdg0","pricing_plan_id":"cebpf4jnsgd1na2vs0mg"},{"bike_id":"54899e6f-9f4f-43dc-afe6-8d8830cfd418","system_id":"levelo_inurba_marseille","lat":43.30135,"lon":5.38783,"is_reserved":false,"is_disabled":false,"rental_uris":{"android":"levelo://app?vid=54899e6f-9f4f-43dc-afe6-8d8830cfd418","ios":"levelo://app?vid=54899e6f-9f4f-43dc-afe6-8d8830cfd418"},"vehicle_type_id":"4","last_reported":1744751387,"current_range_meters":8400,"station_id":"ce4bghh2rcd13ifvqb60","pricing_plan_id":"cebpf4jnsgd1na2vs0mg"},{"bike_id":"797dd5e2-da39-473a-b854-cceac2c9f546","system_id":"levelo_inurba_marseille","lat":43.28727,"lon":5.36107,"is_reserved":false,"is_disabled":false,"rental_uris":{"android":"levelo://app?vid=797dd5e2-da39-473a-b854-cceac2c9f546","ios":"levelo://app?vid=797dd5e2-da39-473a-b854-cceac2c9f546"},"vehicle_type_id":"4","last_reported":1744751387,"current_range_meters":8800,"station_id":"cki0cbj6b192h4jlfktg","pricing_plan_id":"cebpf4jnsgd1na2vs0mg"},{"bike_id":"3b74ab54-5151-41f4-a56c-2041acf8a2e0","system_id":"levelo_inurba_marseille","lat":43.31987,"lon":5.38278,"is_reserved":false,"is_disabled":false,"rental_uris":{"android":"levelo://app?vid=3b74ab54-5151-41f4-a56c-2041acf8a2e0","ios":"levelo://app?vid=3b74ab54-5151-41f4-a56c-2041acf8a2e0"},"vehicle_type_id":"4","last_reported":1744751387,"current_range_meters":8800,"station_id":"","pricing_plan_id":"cebpf4jnsgd1na2vs0mg"},{"bike_id":"27a55245-8dd2-4f1a-af63-95a9d7b71690","system_id":"levelo_inurba_marseille","lat":43.31075,"lon":5.3785,"is_reserved":false,"is_disabled":false,"rental_uris":{"android":"levelo://app?vid=27a55245-8dd2-4f1a-af63-95a9d7b71690","ios":"levelo://app?vid=27a55245-8dd2-4f1a-af63-95a9d7b71690"},"vehicle_type_id":"4","last_reported":1744751387,"current_range_meters":8800,"station_id":"","pricing_plan_id":"cebpf4jnsgd1na2vs0mg"},{"bike_id":"8ad01582-139e-4521-af2b-dd4aedd66d09","system_id":"levelo_inurba_marseille","lat":43.25099,"lon":5.39533,"is_reserved":false,"is_disabled":false,"rental_uris":{"android":"levelo://app?vid=8ad01582-139e-4521-af2b-dd4aedd66d09","ios":"levelo://app?vid=8ad01582-139e-4521-af2b-dd4aedd66d09"},"vehicle_type_id":"4","last_reported":1744751387,"current_range_meters":9200,"station_id":"ce4bhm12rcd13ifvqgkg","pricing_plan_id":"cebpf4jnsgd1na2vs0mg"},{"bike_id":"9e5c4bc2-462f-423b-89dd-f6beb744b92f","system_id":"levelo_inurba_marseille","lat":43.28674,"lon":5.38667,"is_reserved":false,"is_disabled":false,"rental_uris":{"android":"levelo://app?vid=9e5c4bc2-462f-423b-89dd-f6beb744b92f","ios":"levelo://app?vid=9e5c4bc2-462f-423b-89dd-f6beb744b92f"},"vehicle_type_id":"4","last_reported":1744751387,"current_range_meters":9200,"station_id":"ce4bh492rcd13ifvqdug","pricing_plan_id":"cebpf4jnsgd1na2vs0mg"},{"bike_id":"e1103876-639d-4bb4-8300-d22110ae76d3","system_id":"levelo_inurba_marseille","lat":43.27292,"lon":5.41087,"is_reserved":false,"is_disabled":false,"rental_uris":{"android":"levelo://app?vid=e1103876-639d-4bb4-8300-d22110ae76d3","ios":"levelo://app?vid=e1103876-639d-4bb4-8300-d22110ae76d3"},"vehicle_type_id":"4","last_reported":1744751387,"current_range_meters":9200,"station_id":"","pricing_plan_id":"cebpf4jnsgd1na2vs0mg"},{"bike_id":"4ca1fc76-01c8-4686-94a5-a46dd951837f","system_id":"levelo_inurba_marseille","lat":43.27794,"lon":5.40737,"is_reserved":false,"is_disabled":false,"rental_uris":{"android":"levelo://app?vid=4ca1fc76-01c8-4686-94a5-a46dd951837f","ios":"levelo://app?vid=4ca1fc76-01c8-4686-94a5-a46dd951837f"},"vehicle_type_id":"4","last_reported":1744751387,"current_range_meters":9200,"station_id":"ce4bhnh2rcd13ifvqgtg","pricing_plan_id":"cebpf4jnsgd1na2vs0mg"},{"bike_id":"e9ea4020-1e98-44a3-8789-412fa57cd95c","system_id":"levelo_inurba_marseille","lat":43.28845,"lon":5.39326,"is_reserved":false,"is_disabled":false,"rental_uris":{"android":"levelo://app?vid=e9ea4020-1e98-44a3-8789-412fa57cd95c","ios":"levelo://app?vid=e9ea4020-1e98-44a3-8789-412fa57cd95c"},"vehicle_type_id":"4","last_reported":1744751387,"current_range_meters":9200,"station_id":"ce4bh2p2rcd13ifvqdi0","pricing_plan_id":"cebpf4jnsgd1na2vs0mg"},{"bike_id":"45152fd8-c07c-4d52-b7a7-6670add35e00","system_id":"levelo_inurba_marseille","lat":43.261163,"lon":5.42061,"is_reserved":false,"is_disabled":false,"rental_uris":{"android":"levelo://app?vid=45152fd8-c07c-4d52-b7a7-6670add35e00","ios":"levelo://app?vid=45152fd8-c07c-4d52-b7a7-6670add35e00"},"vehicle_type_id":"4","last_reported":1744751387,"current_range_meters":9200,"station_id":"","pricing_plan_id":"cebpf4jnsgd1na2vs0mg"},{"bike_id":"b7ab99ba-94bb-4274-aca7-e6131d0e5ab1","system_id":"levelo_inurba_marseille","lat":43.24135,"lon":5.36411,"is_reserved":false,"is_disabled":false,"rental_uris":{"android":"levelo://app?vid=b7ab99ba-94bb-4274-aca7-e6131d0e5ab1","ios":"levelo://app?vid=b7ab99ba-94bb-4274-aca7-e6131d0e5ab1"},"vehicle_type_id":"4","last_reported":1744751387,"current_range_meters":9600,"station_id":"cpo36qri1sfpv3e86is0","pricing_plan_id":"cebpf4jnsgd1na2vs0mg"},{"bike_id":"ecc26774-7f80-4834-883f-3a8990a5fcbe","system_id":"levelo_inurba_marseille","lat":43.23925,"lon":5.36605,"is_reserved":false,"is_disabled":false,"rental_uris":{"android":"levelo://app?vid=ecc26774-7f80-4834-883f-3a8990a5fcbe","ios":"levelo://app?vid=ecc26774-7f80-4834-883f-3a8990a5fcbe"},"vehicle_type_id":"4","last_reported":1744751387,"current_range_meters":9600,"station_id":"ce4bhi12rcd13ifvqfp0","pricing_plan_id":"cebpf4jnsgd1na2vs0mg"},{"bike_id":"bc55fce3-d3e1-44f9-9b95-b1ec9e892d86","system_id":"levelo_inurba_marseille","lat":43.27966,"lon":5.38722,"is_reserved":false,"is_disabled":false,"rental_uris":{"android":"levelo://app?vid=bc55fce3-d3e1-44f9-9b95-b1ec9e892d86","ios":"levelo://app?vid=bc55fce3-d3e1-44f9-9b95-b1ec9e892d86"},"vehicle_type_id":"4","last_reported":1744751387,"current_range_meters":9200,"station_id":"ce4bhg12rcd13ifvqf80","pricing_plan_id":"cebpf4jnsgd1na2vs0mg"},{"bike_id":"803ce35a-c634-48c2-a8a2-643b90ca630c","system_id":"levelo_inurba_marseille","lat":43.31075,"lon":5.38337,"is_reserved":false,"is_disabled":false,"rental_uris":{"android":"levelo://app?vid=803ce35a-c634-48c2-a8a2-643b90ca630c","ios":"levelo://app?vid=803ce35a-c634-48c2-a8a2-643b90ca630c"},"vehicle_type_id":"4","last_reported":1744751387,"current_range_meters":9600,"station_id":"ce4bgv92rcd13ifvqcr0","pricing_plan_id":"cebpf4jnsgd1na2vs0mg"},{"bike_id":"9f190578-2d0c-46d2-8d6a-3c71598f51e8","system_id":"levelo_inurba_marseille","lat":43.29003,"lon":5.37295,"is_reserved":false,"is_disabled":false,"rental_uris":{"android":"levelo://app?vid=9f190578-2d0c-46d2-8d6a-3c71598f51e8","ios":"levelo://app?vid=9f190578-2d0c-46d2-8d6a-3c71598f51e8"},"vehicle_type_id":"4","last_reported":1744751387,"current_range_meters":9600,"station_id":"","pricing_plan_id":"cebpf4jnsgd1na2vs0mg"},{"bike_id":"520d06f8-a88e-42eb-a725-b760ff68467d","system_id":"levelo_inurba_marseille","lat":43.292596,"lon":5.384385,"is_reserved":false,"is_disabled":false,"rental_uris":{"android":"levelo://app?vid=520d06f8-a88e-42eb-a725-b760ff68467d","ios":"levelo://app?vid=520d06f8-a88e-42eb-a725-b760ff68467d"},"vehicle_type_id":"4","last_reported":1744751387,"current_range_meters":9600,"station_id":"ce4bh2h2rcd13ifvqdh0","pricing_plan_id":"cebpf4jnsgd1na2vs0mg"},{"bike_id":"6086be1f-2f41-4b8c-9ce9-011bcea915da","system_id":"levelo_inurba_marseille","lat":43.31304,"lon":5.37315,"is_reserved":false,"is_disabled":false,"rental_uris":{"android":"levelo://app?vid=6086be1f-2f41-4b8c-9ce9-011bcea915da","ios":"levelo://app?vid=6086be1f-2f41-4b8c-9ce9-011bcea915da"},"vehicle_type_id":"4","last_reported":1744751387,"current_range_meters":9600,"station_id":"","pricing_plan_id":"cebpf4jnsgd1na2vs0mg"},{"bike_id":"1e0984b1-c3fd-414e-9ac8-77e32f786839","system_id":"levelo_inurba_marseille","lat":43.28462,"lon":5.35889,"is_reserved":false,"is_disabled":false,"rental_uris":{"android":"levelo://app?vid=1e0984b1-c3fd-414e-9ac8-77e32f786839","ios":"levelo://app?vid=1e0984b1-c3fd-414e-9ac8-77e32f786839"},"vehicle_type_id":"4","last_reported":1744751387,"current_range_meters":9600,"station_id":"ce4bhah2rcd13ifvqei0","pricing_plan_id":"cebpf4jnsgd1na2vs0mg"},{"bike_id":"37342bdf-d586-43ba-a25b-da22b3393da6","system_id":"levelo_inurba_marseille","lat":43.29171,"lon":5.37507,"is_reserved":false,"is_disabled":false,"rental_uris":{"android":"levelo://app?vid=37342bdf-d586-43ba-a25b-da22b3393da6","ios":"levelo://app?vid=37342bdf-d586-43ba-a25b-da22b3393da6"},"vehicle_type_id":"4","last_reported":1744751387,"current_range_meters":9600,"station_id":"","pricing_plan_id":"cebpf4jnsgd1na2vs0mg"},{"bike_id":"09a67e39-1e7a-4db6-a443-88ced1903a2f","system_id":"levelo_inurba_marseille","lat":43.29531,"lon":5.38548,"is_reserved":false,"is_disabled":false,"rental_uris":{"android":"levelo://app?vid=09a67e39-1e7a-4db6-a443-88ced1903a2f","ios":"levelo://app?vid=09a67e39-1e7a-4db6-a443-88ced1903a2f"},"vehicle_type_id":"4","last_reported":1744751387,"current_range_meters":9600,"station_id":"ce4bgih2rcd13ifvqba0","pricing_plan_id":"cebpf4jnsgd1na2vs0mg"},{"bike_id":"f9e5186e-c8c6-4c32-a6e4-fada6cb1325e","system_id":"levelo_inurba_marseille","lat":43.29246,"lon":5.40915,"is_reserved":false,"is_disabled":false,"rental_uris":{"android":"levelo://app?vid=f9e5186e-c8c6-4c32-a6e4-fada6cb1325e","ios":"levelo://app?vid=f9e5186e-c8c6-4c32-a6e4-fada6cb1325e"},"vehicle_type_id":"4","last_reported":1744751387,"current_range_meters":10000,"station_id":"ce4bh192rcd13ifvqdc0","pricing_plan_id":"cebpf4jnsgd1na2vs0mg"},{"bike_id":"cc019aaa-33a8-42d2-a2d4-ef26fcdd651f","system_id":"levelo_inurba_marseille","lat":43.30805,"lon":5.37336,"is_reserved":false,"is_disabled":false,"rental_uris":{"android":"levelo://app?vid=cc019aaa-33a8-42d2-a2d4-ef26fcdd651f","ios":"levelo://app?vid=cc019aaa-33a8-42d2-a2d4-ef26fcdd651f"},"vehicle_type_id":"4","last_reported":1744751387,"current_range_meters":10000,"station_id":"","pricing_plan_id":"cebpf4jnsgd1na2vs0mg"},{"bike_id":"4a2fdfe9-5135-4bdb-800a-463a15252b7b","system_id":"levelo_inurba_marseille","lat":43.28156,"lon":5.42643,"is_reserved":false,"is_disabled":false,"rental_uris":{"android":"levelo://app?vid=4a2fdfe9-5135-4bdb-800a-463a15252b7b","ios":"levelo://app?vid=4a2fdfe9-5135-4bdb-800a-463a15252b7b"},"vehicle_type_id":"4","last_reported":1744751387,"current_range_meters":10000,"station_id":"ce4bhnh2rcd13ifvqgug","pricing_plan_id":"cebpf4jnsgd1na2vs0mg"},{"bike_id":"7ca5fc71-e75b-49aa-87e6-6273562461c3","system_id":"levelo_inurba_marseille","lat":43.29299,"lon":5.38389,"is_reserved":false,"is_disabled":false,"rental_uris":{"android":"levelo://app?vid=7ca5fc71-e75b-49aa-87e6-6273562461c3","ios":"levelo://app?vid=7ca5fc71-e75b-49aa-87e6-6273562461c3"},"vehicle_type_id":"4","last_reported":1744751387,"current_range_meters":10000,"station_id":"ce4bh692rcd13ifvqea0","pricing_plan_id":"cebpf4jnsgd1na2vs0mg"},{"bike_id":"4c22d308-9236-442a-b4cb-a99690cb45a2","system_id":"levelo_inurba_marseille","lat":43.23179,"lon":5.3998,"is_reserved":false,"is_disabled":false,"rental_uris":{"android":"levelo://app?vid=4c22d308-9236-442a-b4cb-a99690cb45a2","ios":"levelo://app?vid=4c22d308-9236-442a-b4cb-a99690cb45a2"},"vehicle_type_id":"4","last_reported":1744751387,"current_range_meters":10000,"station_id":"ce4bhn12rcd13ifvqgqg","pricing_plan_id":"cebpf4jnsgd1na2vs0mg"},{"bike_id":"7a2e094b-19fc-4112-8f78-d6e65b66137c","system_id":"levelo_inurba_marseille","lat":43.30317,"lon":5.40442,"is_reserved":false,"is_disabled":false,"rental_uris":{"android":"levelo://app?vid=7a2e094b-19fc-4112-8f78-d6e65b66137c","ios":"levelo://app?vid=7a2e094b-19fc-4112-8f78-d6e65b66137c"},"vehicle_type_id":"4","last_reported":1744751387,"current_range_meters":10800,"station_id":"ce4bh012rcd13ifvqd10","pricing_plan_id":"cebpf4jnsgd1na2vs0mg"},{"bike_id":"e5a8463a-5b3f-4a43-961e-7322a50c6233","system_id":"levelo_inurba_marseille","lat":43.30411,"lon":5.41301,"is_reserved":false,"is_disabled":false,"rental_uris":{"android":"levelo://app?vid=e5a8463a-5b3f-4a43-961e-7322a50c6233","ios":"levelo://app?vid=e5a8463a-5b3f-4a43-961e-7322a50c6233"},"vehicle_type_id":"4","last_reported":1744751387,"current_range_meters":10800,"station_id":"ce4bhop2rcd13ifvqh8g","pricing_plan_id":"cebpf4jnsgd1na2vs0mg"},{"bike_id":"216d3497-6990-4841-8120-cedd33bcf19b","system_id":"levelo_inurba_marseille","lat":43.29417,"lon":5.39742,"is_reserved":false,"is_disabled":false,"rental_uris":{"android":"levelo://app?vid=216d3497-6990-4841-8120-cedd33bcf19b","ios":"levelo://app?vid=216d3497-6990-4841-8120-cedd33bcf19b"},"vehicle_type_id":"4","last_reported":1744751387,"current_range_meters":10800,"station_id":"ce4bh3h2rcd13ifvqdo0","pricing_plan_id":"cebpf4jnsgd1na2vs0mg"},{"bike_id":"f8d7f4dc-52ba-4442-ad7a-69218560bc30","system_id":"levelo_inurba_marseille","lat":43.29266,"lon":5.40155,"is_reserved":false,"is_disabled":false,"rental_uris":{"android":"levelo://app?vid=f8d7f4dc-52ba-4442-ad7a-69218560bc30","ios":"levelo://app?vid=f8d7f4dc-52ba-4442-ad7a-69218560bc30"},"vehicle_type_id":"4","last_reported":1744751387,"current_range_meters":11200,"station_id":"ce4bh312rcd13ifvqdk0","pricing_plan_id":"cebpf4jnsgd1na2vs0mg"},{"bike_id":"d3a0fbcc-8789-46e3-ad8a-8c877abb0794","system_id":"levelo_inurba_marseille","lat":43.29862,"lon":5.3975,"is_reserved":false,"is_disabled":false,"rental_uris":{"android":"levelo://app?vid=d3a0fbcc-8789-46e3-ad8a-8c877abb0794","ios":"levelo://app?vid=d3a0fbcc-8789-46e3-ad8a-8c877abb0794"},"vehicle_type_id":"4","last_reported":1744751387,"current_range_meters":11200,"station_id":"ce4bh0h2rcd13ifvqd50","pricing_plan_id":"cebpf4jnsgd1na2vs0mg"},{"bike_id":"b8fc41cd-41c8-4b48-bacc-bbafb8e021c1","system_id":"levelo_inurba_marseille","lat":43.31321,"lon":5.39692,"is_reserved":false,"is_disabled":false,"rental_uris":{"android":"levelo://app?vid=b8fc41cd-41c8-4b48-bacc-bbafb8e021c1","ios":"levelo://app?vid=b8fc41cd-41c8-4b48-bacc-bbafb8e021c1"},"vehicle_type_id":"4","last_reported":1744751387,"current_range_meters":11200,"station_id":"ce4bgvp2rcd13ifvqcu0","pricing_plan_id":"cebpf4jnsgd1na2vs0mg"},{"bike_id":"d2d37f01-fa46-4fbc-a721-7789f4003663","system_id":"levelo_inurba_marseille","lat":43.2497,"lon":5.3896,"is_reserved":false,"is_disabled":false,"rental_uris":{"android":"levelo://app?vid=d2d37f01-fa46-4fbc-a721-7789f4003663","ios":"levelo://app?vid=d2d37f01-fa46-4fbc-a721-7789f4003663"},"vehicle_type_id":"4","last_reported":1744751387,"current_range_meters":11200,"station_id":"","pricing_plan_id":"cebpf4jnsgd1na2vs0mg"},{"bike_id":"376f754b-7bba-4962-babe-b49b1468281c","system_id":"levelo_inurba_marseille","lat":43.30928,"lon":5.40153,"is_reserved":false,"is_disabled":true,"rental_uris":{"android":"levelo://app?vid=376f754b-7bba-4962-babe-b49b1468281c","ios":"levelo://app?vid=376f754b-7bba-4962-babe-b49b1468281c"},"vehicle_type_id":"4","last_reported":1744751387,"current_range_meters":11200,"station_id":"ce4bgvp2rcd13ifvqct0","pricing_plan_id":"cebpf4jnsgd1na2vs0mg"},{"bike_id":"e8d425db-317c-45de-adc5-3551ea60a986","system_id":"levelo_inurba_marseille","lat":43.29508,"lon":5.39413,"is_reserved":false,"is_disabled":false,"rental_uris":{"android":"levelo://app?vid=e8d425db-317c-45de-adc5-3551ea60a986","ios":"levelo://app?vid=e8d425db-317c-45de-adc5-3551ea60a986"},"vehicle_type_id":"4","last_reported":1744751387,"current_range_meters":11200,"station_id":"ce4bh292rcd13ifvqdf0","pricing_plan_id":"cebpf4jnsgd1na2vs0mg"},{"bike_id":"7fec5343-12dc-49a0-94dc-cb1a6873b80d","system_id":"levelo_inurba_marseille","lat":43.28715,"lon":5.37934,"is_reserved":false,"is_disabled":false,"rental_uris":{"android":"levelo://app?vid=7fec5343-12dc-49a0-94dc-cb1a6873b80d","ios":"levelo://app?vid=7fec5343-12dc-49a0-94dc-cb1a6873b80d"},"vehicle_type_id":"4","last_reported":1744751387,"current_range_meters":11600,"station_id":"ce4bh9p2rcd13ifvqec0","pricing_plan_id":"cebpf4jnsgd1na2vs0mg"},{"bike_id":"2797dcdb-c4e1-48b2-82d6-5677d371fa39","system_id":"levelo_inurba_marseille","lat":43.2417,"lon":5.36396,"is_reserved":false,"is_disabled":false,"rental_uris":{"android":"levelo://app?vid=2797dcdb-c4e1-48b2-82d6-5677d371fa39","ios":"levelo://app?vid=2797dcdb-c4e1-48b2-82d6-5677d371fa39"},"vehicle_type_id":"4","last_reported":1744751387,"current_range_meters":11600,"station_id":"cpo36qri1sfpv3e86is0","pricing_plan_id":"cebpf4jnsgd1na2vs0mg"},{"bike_id":"03c8cee0-a6a5-48f4-b783-f14451736b24","system_id":"levelo_inurba_marseille","lat":43.27201,"lon":5.41021,"is_reserved":false,"is_disabled":false,"rental_uris":{"android":"levelo://app?vid=03c8cee0-a6a5-48f4-b783-f14451736b24","ios":"levelo://app?vid=03c8cee0-a6a5-48f4-b783-f14451736b24"},"vehicle_type_id":"4","last_reported":1744751387,"current_range_meters":11600,"station_id":"ce4bhl12rcd13ifvqgf0","pricing_plan_id":"cebpf4jnsgd1na2vs0mg"},{"bike_id":"46b9d12b-d4e5-481e-8406-452fd0e34662","system_id":"levelo_inurba_marseille","lat":43.31326,"lon":5.39697,"is_reserved":false,"is_disabled":false,"rental_uris":{"android":"levelo://app?vid=46b9d12b-d4e5-481e-8406-452fd0e34662","ios":"levelo://app?vid=46b9d12b-d4e5-481e-8406-452fd0e34662"},"vehicle_type_id":"4","last_reported":1744751387,"current_range_meters":11600,"station_id":"ce4bgvp2rcd13ifvqcu0","pricing_plan_id":"cebpf4jnsgd1na2vs0mg"},{"bike_id":"68bb5c2f-fd19-492d-b0bb-5841e6724b4a","system_id":"levelo_inurba_marseille","lat":43.22934,"lon":5.3539,"is_reserved":false,"is_disabled":false,"rental_uris":{"android":"levelo://app?vid=68bb5c2f-fd19-492d-b0bb-5841e6724b4a","ios":"levelo://app?vid=68bb5c2f-fd19-492d-b0bb-5841e6724b4a"},"vehicle_type_id":"4","last_reported":1744751387,"current_range_meters":12000,"station_id":"cpo3532slgdg3j2ikp40","pricing_plan_id":"cebpf4jnsgd1na2vs0mg"},{"bike_id":"2c01b30f-4cf5-4b1c-a3df-7b247a205488","system_id":"levelo_inurba_marseille","lat":43.24648,"lon":5.38917,"is_reserved":false,"is_disabled":false,"rental_uris":{"android":"levelo://app?vid=2c01b30f-4cf5-4b1c-a3df-7b247a205488","ios":"levelo://app?vid=2c01b30f-4cf5-4b1c-a3df-7b247a205488"},"vehicle_type_id":"4","last_reported":1744751387,"current_range_meters":12000,"station_id":"ce4bhg12rcd13ifvqf60","pricing_plan_id":"cebpf4jnsgd1na2vs0mg"},{"bike_id":"76f43b9e-9d31-460d-bf30-9212c805f9cc","system_id":"levelo_inurba_marseille","lat":43.28855,"lon":5.393,"is_reserved":false,"is_disabled":false,"rental_uris":{"android":"levelo://app?vid=76f43b9e-9d31-460d-bf30-9212c805f9cc","ios":"levelo://app?vid=76f43b9e-9d31-460d-bf30-9212c805f9cc"},"vehicle_type_id":"4","last_reported":1744751387,"current_range_meters":12000,"station_id":"ce4bh2p2rcd13ifvqdi0","pricing_plan_id":"cebpf4jnsgd1na2vs0mg"},{"bike_id":"4bf95762-f540-4a84-9062-209f02f6ed6a","system_id":"levelo_inurba_marseille","lat":43.29264,"lon":5.38418,"is_reserved":false,"is_disabled":true,"rental_uris":{"android":"levelo://app?vid=4bf95762-f540-4a84-9062-209f02f6ed6a","ios":"levelo://app?vid=4bf95762-f540-4a84-9062-209f02f6ed6a"},"vehicle_type_id":"4","last_reported":1744751387,"current_range_meters":12000,"station_id":"ce4bh692rcd13ifvqea0","pricing_plan_id":"cebpf4jnsgd1na2vs0mg"},{"bike_id":"dd8f0ff9-117f-4fd9-bc7c-ef5d85c7f322","system_id":"levelo_inurba_marseille","lat":43.32005,"lon":5.38144,"is_reserved":false,"is_disabled":false,"rental_uris":{"android":"levelo://app?vid=dd8f0ff9-117f-4fd9-bc7c-ef5d85c7f322","ios":"levelo://app?vid=dd8f0ff9-117f-4fd9-bc7c-ef5d85c7f322"},"vehicle_type_id":"4","last_reported":1744751387,"current_range_meters":12000,"station_id":"ce4bhr12rcd13ifvqhpg","pricing_plan_id":"cebpf4jnsgd1na2vs0mg"},{"bike_id":"982b1a86-cd40-472c-8020-39a4110d0e44","system_id":"levelo_inurba_marseille","lat":43.31066,"lon":5.38334,"is_reserved":false,"is_disabled":false,"rental_uris":{"android":"levelo://app?vid=982b1a86-cd40-472c-8020-39a4110d0e44","ios":"levelo://app?vid=982b1a86-cd40-472c-8020-39a4110d0e44"},"vehicle_type_id":"4","last_reported":1744751387,"current_range_meters":12000,"station_id":"ce4bgv92rcd13ifvqcr0","pricing_plan_id":"cebpf4jnsgd1na2vs0mg"},{"bike_id":"b2a36e0e-0c9c-4052-8111-cd98e3a699e3","system_id":"levelo_inurba_marseille","lat":43.270542,"lon":5.42339,"is_reserved":false,"is_disabled":false,"rental_uris":{"android":"levelo://app?vid=b2a36e0e-0c9c-4052-8111-cd98e3a699e3","ios":"levelo://app?vid=b2a36e0e-0c9c-4052-8111-cd98e3a699e3"},"vehicle_type_id":"4","last_reported":1744751387,"current_range_meters":12000,"station_id":"ce4bhk92rcd13ifvqgb0","pricing_plan_id":"cebpf4jnsgd1na2vs0mg"},{"bike_id":"075fcdf5-b249-40b2-bc7e-7ad517887fb8","system_id":"levelo_inurba_marseille","lat":43.27503,"lon":5.42458,"is_reserved":false,"is_disabled":false,"rental_uris":{"android":"levelo://app?vid=075fcdf5-b249-40b2-bc7e-7ad517887fb8","ios":"levelo://app?vid=075fcdf5-b249-40b2-bc7e-7ad517887fb8"},"vehicle_type_id":"4","last_reported":1744751387,"current_range_meters":12000,"station_id":"ce4bhn92rcd13ifvqgrg","pricing_plan_id":"cebpf4jnsgd1na2vs0mg"},{"bike_id":"31ec0d9b-2863-4f99-981c-cc4e7c4c68bd","system_id":"levelo_inurba_marseille","lat":43.29271,"lon":5.38422,"is_reserved":false,"is_disabled":true,"rental_uris":{"android":"levelo://app?vid=31ec0d9b-2863-4f99-981c-cc4e7c4c68bd","ios":"levelo://app?vid=31ec0d9b-2863-4f99-981c-cc4e7c4c68bd"},"vehicle_type_id":"4","last_reported":1744751387,"current_range_meters":12400,"station_id":"ce4bh692rcd13ifvqea0","pricing_plan_id":"cebpf4jnsgd1na2vs0mg"},{"bike_id":"f6ef39bb-6d34-40d4-89d2-9d8cdb2062af","system_id":"levelo_inurba_marseille","lat":43.29872,"lon":5.3973,"is_reserved":false,"is_disabled":false,"rental_uris":{"android":"levelo://app?vid=f6ef39bb-6d34-40d4-89d2-9d8cdb2062af","ios":"levelo://app?vid=f6ef39bb-6d34-40d4-89d2-9d8cdb2062af"},"vehicle_type_id":"4","last_reported":1744751387,"current_range_meters":12400,"station_id":"ce4bh0h2rcd13ifvqd50","pricing_plan_id":"cebpf4jnsgd1na2vs0mg"},{"bike_id":"ac93b782-2c24-4c21-8bf5-8e2a67f7cc1b","system_id":"levelo_inurba_marseille","lat":43.27589,"lon":5.3841,"is_reserved":false,"is_disabled":false,"rental_uris":{"android":"levelo://app?vid=ac93b782-2c24-4c21-8bf5-8e2a67f7cc1b","ios":"levelo://app?vid=ac93b782-2c24-4c21-8bf5-8e2a67f7cc1b"},"vehicle_type_id":"4","last_reported":1744751387,"current_range_meters":12400,"station_id":"ce4bhh92rcd13ifvqfi0","pricing_plan_id":"cebpf4jnsgd1na2vs0mg"},{"bike_id":"e705baeb-f99f-4e66-8c31-5ba1b3f5805d","system_id":"levelo_inurba_marseille","lat":43.28471,"lon":5.35882,"is_reserved":false,"is_disabled":false,"rental_uris":{"android":"levelo://app?vid=e705baeb-f99f-4e66-8c31-5ba1b3f5805d","ios":"levelo://app?vid=e705baeb-f99f-4e66-8c31-5ba1b3f5805d"},"vehicle_type_id":"4","last_reported":1744751387,"current_range_meters":12400,"station_id":"ce4bhah2rcd13ifvqei0","pricing_plan_id":"cebpf4jnsgd1na2vs0mg"},{"bike_id":"a8132d22-4ce6-4e24-9e2c-e02042e4181b","system_id":"levelo_inurba_marseille","lat":43.21746,"lon":5.34597,"is_reserved":false,"is_disabled":false,"rental_uris":{"android":"levelo://app?vid=a8132d22-4ce6-4e24-9e2c-e02042e4181b","ios":"levelo://app?vid=a8132d22-4ce6-4e24-9e2c-e02042e4181b"},"vehicle_type_id":"4","last_reported":1744751387,"current_range_meters":12800,"station_id":"st_cvj6r9ubvosntc0bgbag","pricing_plan_id":"cebpf4jnsgd1na2vs0mg"},{"bike_id":"ed87816a-0690-4171-ac32-c3f2f170e77a","system_id":"levelo_inurba_marseille","lat":43.30257,"lon":5.40053,"is_reserved":false,"is_disabled":false,"rental_uris":{"android":"levelo://app?vid=ed87816a-0690-4171-ac32-c3f2f170e77a","ios":"levelo://app?vid=ed87816a-0690-4171-ac32-c3f2f170e77a"},"vehicle_type_id":"4","last_reported":1744751387,"current_range_meters":12400,"station_id":"ce4bgvh2rcd13ifvqcs0","pricing_plan_id":"cebpf4jnsgd1na2vs0mg"},{"bike_id":"6590500b-2ba9-4d8d-a948-76109a2d11e2","system_id":"levelo_inurba_marseille","lat":43.27325,"lon":5.39071,"is_reserved":false,"is_disabled":false,"rental_uris":{"android":"levelo://app?vid=6590500b-2ba9-4d8d-a948-76109a2d11e2","ios":"levelo://app?vid=6590500b-2ba9-4d8d-a948-76109a2d11e2"},"vehicle_type_id":"4","last_reported":1744751387,"current_range_meters":12800,"station_id":"ce4bhgp2rcd13ifvqfe0","pricing_plan_id":"cebpf4jnsgd1na2vs0mg"},{"bike_id":"9e10bc9d-2f0a-435c-a575-fb3163984fb2","system_id":"levelo_inurba_marseille","lat":43.26506,"lon":5.39529,"is_reserved":false,"is_disabled":false,"rental_uris":{"android":"levelo://app?vid=9e10bc9d-2f0a-435c-a575-fb3163984fb2","ios":"levelo://app?vid=9e10bc9d-2f0a-435c-a575-fb3163984fb2"},"vehicle_type_id":"4","last_reported":1744751387,"current_range_meters":12800,"station_id":"","pricing_plan_id":"cebpf4jnsgd1na2vs0mg"},{"bike_id":"bf12d5b3-9161-4567-a243-b60d8ede4227","system_id":"levelo_inurba_marseille","lat":43.25717,"lon":5.41098,"is_reserved":false,"is_disabled":false,"rental_uris":{"android":"levelo://app?vid=bf12d5b3-9161-4567-a243-b60d8ede4227","ios":"levelo://app?vid=bf12d5b3-9161-4567-a243-b60d8ede4227"},"vehicle_type_id":"4","last_reported":1744751387,"current_range_meters":12800,"station_id":"ce4bhkp2rcd13ifvqgd0","pricing_plan_id":"cebpf4jnsgd1na2vs0mg"},{"bike_id":"4f1d1494-67ea-4753-bf03-0ccb9aa7a513","system_id":"levelo_inurba_marseille","lat":43.30884,"lon":5.37193,"is_reserved":false,"is_disabled":false,"rental_uris":{"android":"levelo://app?vid=4f1d1494-67ea-4753-bf03-0ccb9aa7a513","ios":"levelo://app?vid=4f1d1494-67ea-4753-bf03-0ccb9aa7a513"},"vehicle_type_id":"4","last_reported":1744751387,"current_range_meters":12800,"station_id":"ce4bguh2rcd13ifvqckg","pricing_plan_id":"cebpf4jnsgd1na2vs0mg"},{"bike_id":"cc456307-4e57-4741-8544-99c65b3016d0","system_id":"levelo_inurba_marseille","lat":43.26561,"lon":5.39019,"is_reserved":false,"is_disabled":false,"rental_uris":{"android":"levelo://app?vid=cc456307-4e57-4741-8544-99c65b3016d0","ios":"levelo://app?vid=cc456307-4e57-4741-8544-99c65b3016d0"},"vehicle_type_id":"4","last_reported":1744751387,"current_range_meters":13600,"station_id":"ce4bhe12rcd13ifvqf30","pricing_plan_id":"cebpf4jnsgd1na2vs0mg"},{"bike_id":"0af8ce0b-ff66-42ed-8c74-94f3f2932b5c","system_id":"levelo_inurba_marseille","lat":43.30796,"lon":5.38164,"is_reserved":false,"is_disabled":false,"rental_uris":{"android":"levelo://app?vid=0af8ce0b-ff66-42ed-8c74-94f3f2932b5c","ios":"levelo://app?vid=0af8ce0b-ff66-42ed-8c74-94f3f2932b5c"},"vehicle_type_id":"4","last_reported":1744751387,"current_range_meters":13600,"station_id":"ce4bgt12rcd13ifvqce0","pricing_plan_id":"cebpf4jnsgd1na2vs0mg"},{"bike_id":"b04d8da2-4e58-4f17-ae53-0cc1d89b7f48","system_id":"levelo_inurba_marseille","lat":43.30214,"lon":5.39473,"is_reserved":false,"is_disabled":false,"rental_uris":{"android":"levelo://app?vid=b04d8da2-4e58-4f17-ae53-0cc1d89b7f48","ios":"levelo://app?vid=b04d8da2-4e58-4f17-ae53-0cc1d89b7f48"},"vehicle_type_id":"4","last_reported":1744751387,"current_range_meters":13600,"station_id":"ce4bh0p2rcd13ifvqd70","pricing_plan_id":"cebpf4jnsgd1na2vs0mg"},{"bike_id":"45c6b552-68fd-454d-84d3-cf79221aaee4","system_id":"levelo_inurba_marseille","lat":43.29849,"lon":5.40891,"is_reserved":false,"is_disabled":false,"rental_uris":{"android":"levelo://app?vid=45c6b552-68fd-454d-84d3-cf79221aaee4","ios":"levelo://app?vid=45c6b552-68fd-454d-84d3-cf79221aaee4"},"vehicle_type_id":"4","last_reported":1744751387,"current_range_meters":13600,"station_id":"","pricing_plan_id":"cebpf4jnsgd1na2vs0mg"},{"bike_id":"978f93e0-7c36-422d-9406-98e4e6340151","system_id":"levelo_inurba_marseille","lat":43.27915,"lon":5.39595,"is_reserved":false,"is_disabled":false,"rental_uris":{"android":"levelo://app?vid=978f93e0-7c36-422d-9406-98e4e6340151","ios":"levelo://app?vid=978f93e0-7c36-422d-9406-98e4e6340151"},"vehicle_type_id":"4","last_reported":1744751387,"current_range_meters":13600,"station_id":"ce4bhf92rcd13ifvqf40","pricing_plan_id":"cebpf4jnsgd1na2vs0mg"},{"bike_id":"c094c12b-e0b0-40f1-845d-b2e613e7ceed","system_id":"levelo_inurba_marseille","lat":43.28839,"lon":5.39343,"is_reserved":false,"is_disabled":false,"rental_uris":{"android":"levelo://app?vid=c094c12b-e0b0-40f1-845d-b2e613e7ceed","ios":"levelo://app?vid=c094c12b-e0b0-40f1-845d-b2e613e7ceed"},"vehicle_type_id":"4","last_reported":1744751387,"current_range_meters":13600,"station_id":"ce4bh2p2rcd13ifvqdi0","pricing_plan_id":"cebpf4jnsgd1na2vs0mg"},{"bike_id":"7eacb872-0584-4b06-8fad-feb612d3799a","system_id":"levelo_inurba_marseille","lat":43.29697,"lon":5.38124,"is_reserved":false,"is_disabled":false,"rental_uris":{"android":"levelo://app?vid=7eacb872-0584-4b06-8fad-feb612d3799a","ios":"levelo://app?vid=7eacb872-0584-4b06-8fad-feb612d3799a"},"vehicle_type_id":"4","last_reported":1744751387,"current_range_meters":14000,"station_id":"","pricing_plan_id":"cebpf4jnsgd1na2vs0mg"},{"bike_id":"bb1ce8f3-c5d0-4a28-9d1b-a251f8019cc5","system_id":"levelo_inurba_marseille","lat":43.29098,"lon":5.38147,"is_reserved":false,"is_disabled":false,"rental_uris":{"android":"levelo://app?vid=bb1ce8f3-c5d0-4a28-9d1b-a251f8019cc5","ios":"levelo://app?vid=bb1ce8f3-c5d0-4a28-9d1b-a251f8019cc5"},"vehicle_type_id":"4","last_reported":1744751387,"current_range_meters":14000,"station_id":"ce4bh512rcd13ifvqe2g","pricing_plan_id":"cebpf4jnsgd1na2vs0mg"},{"bike_id":"cdf46a3b-6926-43b1-bded-5b1a06e1a4e3","system_id":"levelo_inurba_marseille","lat":43.29268,"lon":5.40146,"is_reserved":false,"is_disabled":false,"rental_uris":{"android":"levelo://app?vid=cdf46a3b-6926-43b1-bded-5b1a06e1a4e3","ios":"levelo://app?vid=cdf46a3b-6926-43b1-bded-5b1a06e1a4e3"},"vehicle_type_id":"4","last_reported":1744751387,"current_range_meters":14000,"station_id":"ce4bh312rcd13ifvqdk0","pricing_plan_id":"cebpf4jnsgd1na2vs0mg"},{"bike_id":"8bdd182f-ecad-4fcd-bc6e-d8e4c14c179d","system_id":"levelo_inurba_marseille","lat":43.31706,"lon":5.37735,"is_reserved":false,"is_disabled":false,"rental_uris":{"android":"levelo://app?vid=8bdd182f-ecad-4fcd-bc6e-d8e4c14c179d","ios":"levelo://app?vid=8bdd182f-ecad-4fcd-bc6e-d8e4c14c179d"},"vehicle_type_id":"4","last_reported":1744751387,"current_range_meters":14400,"station_id":"ce4bgth2rcd13ifvqch0","pricing_plan_id":"cebpf4jnsgd1na2vs0mg"},{"bike_id":"6b041d15-067f-45fb-8b7a-8747405b170f","system_id":"levelo_inurba_marseille","lat":43.30921,"lon":5.40144,"is_reserved":false,"is_disabled":false,"rental_uris":{"android":"levelo://app?vid=6b041d15-067f-45fb-8b7a-8747405b170f","ios":"levelo://app?vid=6b041d15-067f-45fb-8b7a-8747405b170f"},"vehicle_type_id":"4","last_reported":1744751387,"current_range_meters":14400,"station_id":"ce4bgvp2rcd13ifvqct0","pricing_plan_id":"cebpf4jnsgd1na2vs0mg"},{"bike_id":"e4257eb6-3279-499f-8a4a-e01750851d1b","system_id":"levelo_inurba_marseille","lat":43.27996,"lon":5.41663,"is_reserved":false,"is_disabled":false,"rental_uris":{"android":"levelo://app?vid=e4257eb6-3279-499f-8a4a-e01750851d1b","ios":"levelo://app?vid=e4257eb6-3279-499f-8a4a-e01750851d1b"},"vehicle_type_id":"4","last_reported":1744751387,"current_range_meters":14400,"station_id":"ce4bho12rcd13ifvqh1g","pricing_plan_id":"cebpf4jnsgd1na2vs0mg"},{"bike_id":"e4154f87-139b-42c5-a1cb-cf085dd45b65","system_id":"levelo_inurba_marseille","lat":43.23182,"lon":5.39989,"is_reserved":false,"is_disabled":false,"rental_uris":{"android":"levelo://app?vid=e4154f87-139b-42c5-a1cb-cf085dd45b65","ios":"levelo://app?vid=e4154f87-139b-42c5-a1cb-cf085dd45b65"},"vehicle_type_id":"4","last_reported":1744751387,"current_range_meters":14400,"station_id":"ce4bhn12rcd13ifvqgqg","pricing_plan_id":"cebpf4jnsgd1na2vs0mg"},{"bike_id":"65939060-bb8f-4a23-b34c-33e31f1b6027","system_id":"levelo_inurba_marseille","lat":43.27187,"lon":5.40988,"is_reserved":false,"is_disabled":false,"rental_uris":{"android":"levelo://app?vid=65939060-bb8f-4a23-b34c-33e31f1b6027","ios":"levelo://app?vid=65939060-bb8f-4a23-b34c-33e31f1b6027"},"vehicle_type_id":"4","last_reported":1744751387,"current_range_meters":14400,"station_id":"ce4bhl12rcd13ifvqgf0","pricing_plan_id":"cebpf4jnsgd1na2vs0mg"},{"bike_id":"c14f8886-16ec-417e-9ac1-7c83f5ee23bf","system_id":"levelo_inurba_marseille","lat":43.24997,"lon":5.38926,"is_reserved":false,"is_disabled":false,"rental_uris":{"android":"levelo://app?vid=c14f8886-16ec-417e-9ac1-7c83f5ee23bf","ios":"levelo://app?vid=c14f8886-16ec-417e-9ac1-7c83f5ee23bf"},"vehicle_type_id":"4","last_reported":1744751387,"current_range_meters":14800,"station_id":"ce4bhgp2rcd13ifvqfd0","pricing_plan_id":"cebpf4jnsgd1na2vs0mg"},{"bike_id":"a70f9377-2043-4f72-b0d3-a7714abbc192","system_id":"levelo_inurba_marseille","lat":43.289318,"lon":5.396281,"is_reserved":false,"is_disabled":false,"rental_uris":{"android":"levelo://app?vid=a70f9377-2043-4f72-b0d3-a7714abbc192","ios":"levelo://app?vid=a70f9377-2043-4f72-b0d3-a7714abbc192"},"vehicle_type_id":"4","last_reported":1744751387,"current_range_meters":14800,"station_id":"ce4bgjh2rcd13ifvqbf0","pricing_plan_id":"cebpf4jnsgd1na2vs0mg"},{"bike_id":"4aef0fa6-a0da-4fa2-9099-9fa1ba81c16a","system_id":"levelo_inurba_marseille","lat":43.2816,"lon":5.40436,"is_reserved":false,"is_disabled":false,"rental_uris":{"android":"levelo://app?vid=4aef0fa6-a0da-4fa2-9099-9fa1ba81c16a","ios":"levelo://app?vid=4aef0fa6-a0da-4fa2-9099-9fa1ba81c16a"},"vehicle_type_id":"4","last_reported":1744751387,"current_range_meters":14800,"station_id":"","pricing_plan_id":"cebpf4jnsgd1na2vs0mg"},{"bike_id":"6931040d-a026-4a8c-9e6c-f7a8c5f89c6c","system_id":"levelo_inurba_marseille","lat":43.24655,"lon":5.38899,"is_reserved":false,"is_disabled":false,"rental_uris":{"android":"levelo://app?vid=6931040d-a026-4a8c-9e6c-f7a8c5f89c6c","ios":"levelo://app?vid=6931040d-a026-4a8c-9e6c-f7a8c5f89c6c"},"vehicle_type_id":"4","last_reported":1744751387,"current_range_meters":14800,"station_id":"ce4bhg12rcd13ifvqf60","pricing_plan_id":"cebpf4jnsgd1na2vs0mg"},{"bike_id":"a64c1bf8-86bc-4c11-9879-81cd45d3d031","system_id":"levelo_inurba_marseille","lat":43.3132,"lon":5.39713,"is_reserved":false,"is_disabled":true,"rental_uris":{"android":"levelo://app?vid=a64c1bf8-86bc-4c11-9879-81cd45d3d031","ios":"levelo://app?vid=a64c1bf8-86bc-4c11-9879-81cd45d3d031"},"vehicle_type_id":"4","last_reported":1744751387,"current_range_meters":14800,"station_id":"ce4bgvp2rcd13ifvqcu0","pricing_plan_id":"cebpf4jnsgd1na2vs0mg"},{"bike_id":"5b673cea-0552-4470-a6f9-92ba00958e88","system_id":"levelo_inurba_marseille","lat":43.28155,"lon":5.42635,"is_reserved":false,"is_disabled":false,"rental_uris":{"android":"levelo://app?vid=5b673cea-0552-4470-a6f9-92ba00958e88","ios":"levelo://app?vid=5b673cea-0552-4470-a6f9-92ba00958e88"},"vehicle_type_id":"4","last_reported":1744751387,"current_range_meters":14800,"station_id":"ce4bhnh2rcd13ifvqgug","pricing_plan_id":"cebpf4jnsgd1na2vs0mg"},{"bike_id":"cfc8eb5a-28ff-4121-8aac-7a3aaa8f1073","system_id":"levelo_inurba_marseille","lat":43.30538,"lon":5.3842,"is_reserved":false,"is_disabled":false,"rental_uris":{"android":"levelo://app?vid=cfc8eb5a-28ff-4121-8aac-7a3aaa8f1073","ios":"levelo://app?vid=cfc8eb5a-28ff-4121-8aac-7a3aaa8f1073"},"vehicle_type_id":"4","last_reported":1744751387,"current_range_meters":15200,"station_id":"ce4bgg92rcd13ifvqb30","pricing_plan_id":"cebpf4jnsgd1na2vs0mg"},{"bike_id":"67c5df41-b8f9-479f-8eb4-01212bb809db","system_id":"levelo_inurba_marseille","lat":43.29295,"lon":5.3718,"is_reserved":false,"is_disabled":true,"rental_uris":{"android":"levelo://app?vid=67c5df41-b8f9-479f-8eb4-01212bb809db","ios":"levelo://app?vid=67c5df41-b8f9-479f-8eb4-01212bb809db"},"vehicle_type_id":"4","last_reported":1744751387,"current_range_meters":15200,"station_id":"ce4bgh92rcd13ifvqb40","pricing_plan_id":"cebpf4jnsgd1na2vs0mg"},{"bike_id":"2992380d-1c79-482a-9835-4613d9464dce","system_id":"levelo_inurba_marseille","lat":43.300659,"lon":5.400753,"is_reserved":false,"is_disabled":false,"rental_uris":{"android":"levelo://app?vid=2992380d-1c79-482a-9835-4613d9464dce","ios":"levelo://app?vid=2992380d-1c79-482a-9835-4613d9464dce"},"vehicle_type_id":"4","last_reported":1744751387,"current_range_meters":15200,"station_id":"ce4bh292rcd13ifvqdf0","pricing_plan_id":"cebpf4jnsgd1na2vs0mg"},{"bike_id":"f14bce7a-b864-41f9-b089-fed11ce290ed","system_id":"levelo_inurba_marseille","lat":43.24088,"lon":5.37735,"is_reserved":false,"is_disabled":false,"rental_uris":{"android":"levelo://app?vid=f14bce7a-b864-41f9-b089-fed11ce290ed","ios":"levelo://app?vid=f14bce7a-b864-41f9-b089-fed11ce290ed"},"vehicle_type_id":"4","last_reported":1744751387,"current_range_meters":15200,"station_id":"ce4bhnp2rcd13ifvqgvg","pricing_plan_id":"cebpf4jnsgd1na2vs0mg"},{"bike_id":"b0b19754-995f-4d4b-bc89-b97285ed65c0","system_id":"levelo_inurba_marseille","lat":43.25502,"lon":5.376,"is_reserved":false,"is_disabled":false,"rental_uris":{"android":"levelo://app?vid=b0b19754-995f-4d4b-bc89-b97285ed65c0","ios":"levelo://app?vid=b0b19754-995f-4d4b-bc89-b97285ed65c0"},"vehicle_type_id":"4","last_reported":1744751387,"current_range_meters":15200,"station_id":"ce4bhh12rcd13ifvqff0","pricing_plan_id":"cebpf4jnsgd1na2vs0mg"},{"bike_id":"561936ef-54e4-4d15-b2a7-dfd018b9e12e","system_id":"levelo_inurba_marseille","lat":43.29815,"lon":5.40255,"is_reserved":false,"is_disabled":false,"rental_uris":{"android":"levelo://app?vid=561936ef-54e4-4d15-b2a7-dfd018b9e12e","ios":"levelo://app?vid=561936ef-54e4-4d15-b2a7-dfd018b9e12e"},"vehicle_type_id":"4","last_reported":1744751387,"current_range_meters":15200,"station_id":"","pricing_plan_id":"cebpf4jnsgd1na2vs0mg"},{"bike_id":"9df4d04c-49c0-4cc9-90fb-8c204c2453c2","system_id":"levelo_inurba_marseille","lat":43.25945,"lon":5.40896,"is_reserved":false,"is_disabled":false,"rental_uris":{"android":"levelo://app?vid=9df4d04c-49c0-4cc9-90fb-8c204c2453c2","ios":"levelo://app?vid=9df4d04c-49c0-4cc9-90fb-8c204c2453c2"},"vehicle_type_id":"4","last_reported":1744751387,"current_range_meters":15200,"station_id":"ce4bhm92rcd13ifvqglg","pricing_plan_id":"cebpf4jnsgd1na2vs0mg"},{"bike_id":"82a61513-b44b-42be-a95b-095699763b58","system_id":"levelo_inurba_marseille","lat":43.27902,"lon":5.37998,"is_reserved":false,"is_disabled":false,"rental_uris":{"android":"levelo://app?vid=82a61513-b44b-42be-a95b-095699763b58","ios":"levelo://app?vid=82a61513-b44b-42be-a95b-095699763b58"},"vehicle_type_id":"4","last_reported":1744751387,"current_range_meters":14800,"station_id":"ce4bhf92rcd13ifvqf50","pricing_plan_id":"cebpf4jnsgd1na2vs0mg"},{"bike_id":"4b633b43-ad99-4074-9a25-c62b5b95c6c5","system_id":"levelo_inurba_marseille","lat":43.28101,"lon":5.37841,"is_reserved":false,"is_disabled":false,"rental_uris":{"android":"levelo://app?vid=4b633b43-ad99-4074-9a25-c62b5b95c6c5","ios":"levelo://app?vid=4b633b43-ad99-4074-9a25-c62b5b95c6c5"},"vehicle_type_id":"4","last_reported":1744751387,"current_range_meters":16000,"station_id":"ce4bha12rcd13ifvqee0","pricing_plan_id":"cebpf4jnsgd1na2vs0mg"},{"bike_id":"e458d5a4-35ee-45f4-8308-6cd4ef90f061","system_id":"levelo_inurba_marseille","lat":43.30646,"lon":5.40072,"is_reserved":false,"is_disabled":false,"rental_uris":{"android":"levelo://app?vid=e458d5a4-35ee-45f4-8308-6cd4ef90f061","ios":"levelo://app?vid=e458d5a4-35ee-45f4-8308-6cd4ef90f061"},"vehicle_type_id":"4","last_reported":1744751387,"current_range_meters":16000,"station_id":"ce4bh112rcd13ifvqda0","pricing_plan_id":"cebpf4jnsgd1na2vs0mg"},{"bike_id":"98b073a9-6f8e-4345-ad47-65369c5611d5","system_id":"levelo_inurba_marseille","lat":43.28701,"lon":5.37437,"is_reserved":false,"is_disabled":false,"rental_uris":{"android":"levelo://app?vid=98b073a9-6f8e-4345-ad47-65369c5611d5","ios":"levelo://app?vid=98b073a9-6f8e-4345-ad47-65369c5611d5"},"vehicle_type_id":"4","last_reported":1744751387,"current_range_meters":16000,"station_id":"ce4bh3p2rcd13ifvqdq0","pricing_plan_id":"cebpf4jnsgd1na2vs0mg"},{"bike_id":"a0a3f78a-9eb3-4202-9b5b-5740274dffe5","system_id":"levelo_inurba_marseille","lat":43.290495,"lon":5.359213,"is_reserved":false,"is_disabled":false,"rental_uris":{"android":"levelo://app?vid=a0a3f78a-9eb3-4202-9b5b-5740274dffe5","ios":"levelo://app?vid=a0a3f78a-9eb3-4202-9b5b-5740274dffe5"},"vehicle_type_id":"4","last_reported":1744751387,"current_range_meters":15200,"station_id":"ce4bha92rcd13ifvqeg0","pricing_plan_id":"cebpf4jnsgd1na2vs0mg"},{"bike_id":"98a1f66a-6008-4877-8fe3-0bca1c5aaa2a","system_id":"levelo_inurba_marseille","lat":43.28282,"lon":5.35076,"is_reserved":false,"is_disabled":false,"rental_uris":{"android":"levelo://app?vid=98a1f66a-6008-4877-8fe3-0bca1c5aaa2a","ios":"levelo://app?vid=98a1f66a-6008-4877-8fe3-0bca1c5aaa2a"},"vehicle_type_id":"4","last_reported":1744751387,"current_range_meters":16000,"station_id":"ce4bhbp2rcd13ifvqerg","pricing_plan_id":"cebpf4jnsgd1na2vs0mg"},{"bike_id":"62c6c739-f04a-4496-be5e-ce38b6345be1","system_id":"levelo_inurba_marseille","lat":43.28105,"lon":5.37835,"is_reserved":false,"is_disabled":false,"rental_uris":{"android":"levelo://app?vid=62c6c739-f04a-4496-be5e-ce38b6345be1","ios":"levelo://app?vid=62c6c739-f04a-4496-be5e-ce38b6345be1"},"vehicle_type_id":"4","last_reported":1744751387,"current_range_meters":16000,"station_id":"ce4bha12rcd13ifvqee0","pricing_plan_id":"cebpf4jnsgd1na2vs0mg"},{"bike_id":"0101387c-30c4-448f-b8b9-438c84599330","system_id":"levelo_inurba_marseille","lat":43.26683,"lon":5.3827,"is_reserved":false,"is_disabled":false,"rental_uris":{"android":"levelo://app?vid=0101387c-30c4-448f-b8b9-438c84599330","ios":"levelo://app?vid=0101387c-30c4-448f-b8b9-438c84599330"},"vehicle_type_id":"4","last_reported":1744751387,"current_range_meters":15200,"station_id":"ce4bhg92rcd13ifvqf90","pricing_plan_id":"cebpf4jnsgd1na2vs0mg"},{"bike_id":"777e1f5b-b491-47d2-b2e2-7e223f4b178b","system_id":"levelo_inurba_marseille","lat":43.28568,"lon":5.39507,"is_reserved":false,"is_disabled":false,"rental_uris":{"android":"levelo://app?vid=777e1f5b-b491-47d2-b2e2-7e223f4b178b","ios":"levelo://app?vid=777e1f5b-b491-47d2-b2e2-7e223f4b178b"},"vehicle_type_id":"4","last_reported":1744751387,"current_range_meters":16000,"station_id":"ce4bh292rcd13ifvqdg0","pricing_plan_id":"cebpf4jnsgd1na2vs0mg"},{"bike_id":"09651454-ba98-489f-84d4-7c0b820526b4","system_id":"levelo_inurba_marseille","lat":43.31303,"lon":5.36839,"is_reserved":false,"is_disabled":true,"rental_uris":{"android":"levelo://app?vid=09651454-ba98-489f-84d4-7c0b820526b4","ios":"levelo://app?vid=09651454-ba98-489f-84d4-7c0b820526b4"},"vehicle_type_id":"4","last_reported":1744751387,"current_range_meters":16400,"station_id":"","pricing_plan_id":"cebpf4jnsgd1na2vs0mg"},{"bike_id":"c9298b54-4a04-4c79-9c3d-7afc65fe4ada","system_id":"levelo_inurba_marseille","lat":43.24674,"lon":5.38158,"is_reserved":false,"is_disabled":false,"rental_uris":{"android":"levelo://app?vid=c9298b54-4a04-4c79-9c3d-7afc65fe4ada","ios":"levelo://app?vid=c9298b54-4a04-4c79-9c3d-7afc65fe4ada"},"vehicle_type_id":"4","last_reported":1744751387,"current_range_meters":16400,"station_id":"ce4bhih2rcd13ifvqfr0","pricing_plan_id":"cebpf4jnsgd1na2vs0mg"},{"bike_id":"ef9a3c6b-98ce-42f1-93a1-07ec5fc6435d","system_id":"levelo_inurba_marseille","lat":43.29238,"lon":5.37648,"is_reserved":false,"is_disabled":false,"rental_uris":{"android":"levelo://app?vid=ef9a3c6b-98ce-42f1-93a1-07ec5fc6435d","ios":"levelo://app?vid=ef9a3c6b-98ce-42f1-93a1-07ec5fc6435d"},"vehicle_type_id":"4","last_reported":1744751387,"current_range_meters":16400,"station_id":"ce4bgi12rcd13ifvqb80","pricing_plan_id":"cebpf4jnsgd1na2vs0mg"},{"bike_id":"04ed3b79-97ab-4ee3-a73d-59cd9b37901f","system_id":"levelo_inurba_marseille","lat":43.31486,"lon":5.37271,"is_reserved":false,"is_disabled":false,"rental_uris":{"android":"levelo://app?vid=04ed3b79-97ab-4ee3-a73d-59cd9b37901f","ios":"levelo://app?vid=04ed3b79-97ab-4ee3-a73d-59cd9b37901f"},"vehicle_type_id":"4","last_reported":1744751387,"current_range_meters":16400,"station_id":"ce4bgt12rcd13ifvqcd0","pricing_plan_id":"cebpf4jnsgd1na2vs0mg"},{"bike_id":"ce86423c-7fda-4347-b51e-6014b639a5a1","system_id":"levelo_inurba_marseille","lat":43.3107,"lon":5.38367,"is_reserved":false,"is_disabled":false,"rental_uris":{"android":"levelo://app?vid=ce86423c-7fda-4347-b51e-6014b639a5a1","ios":"levelo://app?vid=ce86423c-7fda-4347-b51e-6014b639a5a1"},"vehicle_type_id":"4","last_reported":1744751387,"current_range_meters":16400,"station_id":"ce4bgv92rcd13ifvqcr0","pricing_plan_id":"cebpf4jnsgd1na2vs0mg"},{"bike_id":"9f546f24-cccf-434b-9d76-e2115f3f7851","system_id":"levelo_inurba_marseille","lat":43.30422,"lon":5.38884,"is_reserved":false,"is_disabled":false,"rental_uris":{"android":"levelo://app?vid=9f546f24-cccf-434b-9d76-e2115f3f7851","ios":"levelo://app?vid=9f546f24-cccf-434b-9d76-e2115f3f7851"},"vehicle_type_id":"4","last_reported":1744751387,"current_range_meters":16800,"station_id":"ce4bgk12rcd13ifvqbi0","pricing_plan_id":"cebpf4jnsgd1na2vs0mg"},{"bike_id":"08509805-377b-4852-bb40-34e8d449f5e6","system_id":"levelo_inurba_marseille","lat":43.28696,"lon":5.39982,"is_reserved":false,"is_disabled":false,"rental_uris":{"android":"levelo://app?vid=08509805-377b-4852-bb40-34e8d449f5e6","ios":"levelo://app?vid=08509805-377b-4852-bb40-34e8d449f5e6"},"vehicle_type_id":"4","last_reported":1744751387,"current_range_meters":16800,"station_id":"ce4bho92rcd13ifvqh3g","pricing_plan_id":"cebpf4jnsgd1na2vs0mg"},{"bike_id":"3c927e60-820a-4f22-a2c8-7fd8d467248c","system_id":"levelo_inurba_marseille","lat":43.29894,"lon":5.37478,"is_reserved":false,"is_disabled":false,"rental_uris":{"android":"levelo://app?vid=3c927e60-820a-4f22-a2c8-7fd8d467248c","ios":"levelo://app?vid=3c927e60-820a-4f22-a2c8-7fd8d467248c"},"vehicle_type_id":"4","last_reported":1744751387,"current_range_meters":16800,"station_id":"ce4bgjh2rcd13ifvqbg0","pricing_plan_id":"cebpf4jnsgd1na2vs0mg"},{"bike_id":"834ec9e1-9d50-4bee-85ae-d1db335c55e5","system_id":"levelo_inurba_marseille","lat":43.31794,"lon":5.36825,"is_reserved":false,"is_disabled":false,"rental_uris":{"android":"levelo://app?vid=834ec9e1-9d50-4bee-85ae-d1db335c55e5","ios":"levelo://app?vid=834ec9e1-9d50-4bee-85ae-d1db335c55e5"},"vehicle_type_id":"4","last_reported":1744751387,"current_range_meters":16800,"station_id":"","pricing_plan_id":"cebpf4jnsgd1na2vs0mg"},{"bike_id":"4c470df7-4cbb-413f-b587-893637313088","system_id":"levelo_inurba_marseille","lat":43.251271,"lon":5.4032,"is_reserved":false,"is_disabled":false,"rental_uris":{"android":"levelo://app?vid=4c470df7-4cbb-413f-b587-893637313088","ios":"levelo://app?vid=4c470df7-4cbb-413f-b587-893637313088"},"vehicle_type_id":"4","last_reported":1744751387,"current_range_meters":16800,"station_id":"ce4bhlh2rcd13ifvqgig","pricing_plan_id":"cebpf4jnsgd1na2vs0mg"},{"bike_id":"ddc48f36-a9f7-4cd3-be5d-6fc7efa3c3d9","system_id":"levelo_inurba_marseille","lat":43.31319,"lon":5.39708,"is_reserved":false,"is_disabled":false,"rental_uris":{"android":"levelo://app?vid=ddc48f36-a9f7-4cd3-be5d-6fc7efa3c3d9","ios":"levelo://app?vid=ddc48f36-a9f7-4cd3-be5d-6fc7efa3c3d9"},"vehicle_type_id":"4","last_reported":1744751387,"current_range_meters":16800,"station_id":"ce4bgvp2rcd13ifvqcu0","pricing_plan_id":"cebpf4jnsgd1na2vs0mg"},{"bike_id":"6f23923f-fc67-460a-b0b8-5119c016d5b0","system_id":"levelo_inurba_marseille","lat":43.269369,"lon":5.389271,"is_reserved":false,"is_disabled":true,"rental_uris":{"android":"levelo://app?vid=6f23923f-fc67-460a-b0b8-5119c016d5b0","ios":"levelo://app?vid=6f23923f-fc67-460a-b0b8-5119c016d5b0"},"vehicle_type_id":"4","last_reported":1744751387,"current_range_meters":16800,"station_id":"ce4bhhh2rcd13ifvqfl0","pricing_plan_id":"cebpf4jnsgd1na2vs0mg"},{"bike_id":"45155c3e-d9dd-443f-9db5-3129e2339708","system_id":"levelo_inurba_marseille","lat":43.23189,"lon":5.39989,"is_reserved":false,"is_disabled":false,"rental_uris":{"android":"levelo://app?vid=45155c3e-d9dd-443f-9db5-3129e2339708","ios":"levelo://app?vid=45155c3e-d9dd-443f-9db5-3129e2339708"},"vehicle_type_id":"4","last_reported":1744751387,"current_range_meters":16800,"station_id":"ce4bhn12rcd13ifvqgqg","pricing_plan_id":"cebpf4jnsgd1na2vs0mg"},{"bike_id":"a0ddb0a5-f7f0-4281-aa27-9e82747cc573","system_id":"levelo_inurba_marseille","lat":43.33769,"lon":5.37508,"is_reserved":false,"is_disabled":false,"rental_uris":{"android":"levelo://app?vid=a0ddb0a5-f7f0-4281-aa27-9e82747cc573","ios":"levelo://app?vid=a0ddb0a5-f7f0-4281-aa27-9e82747cc573"},"vehicle_type_id":"4","last_reported":1744751387,"current_range_meters":16800,"station_id":"","pricing_plan_id":"cebpf4jnsgd1na2vs0mg"},{"bike_id":"15839d76-0879-42d7-9bf8-b60f30413855","system_id":"levelo_inurba_marseille","lat":43.29271,"lon":5.36835,"is_reserved":false,"is_disabled":true,"rental_uris":{"android":"levelo://app?vid=15839d76-0879-42d7-9bf8-b60f30413855","ios":"levelo://app?vid=15839d76-0879-42d7-9bf8-b60f30413855"},"vehicle_type_id":"4","last_reported":1744751387,"current_range_meters":16800,"station_id":"ce4bhbp2rcd13ifvqesg","pricing_plan_id":"cebpf4jnsgd1na2vs0mg"},{"bike_id":"e98619ae-1cbf-4312-993a-cf2e62ab486c","system_id":"levelo_inurba_marseille","lat":43.27911,"lon":5.39576,"is_reserved":false,"is_disabled":false,"rental_uris":{"android":"levelo://app?vid=e98619ae-1cbf-4312-993a-cf2e62ab486c","ios":"levelo://app?vid=e98619ae-1cbf-4312-993a-cf2e62ab486c"},"vehicle_type_id":"4","last_reported":1744751387,"current_range_meters":17200,"station_id":"ce4bhf92rcd13ifvqf40","pricing_plan_id":"cebpf4jnsgd1na2vs0mg"},{"bike_id":"828b0227-ee3e-45fc-93b6-a6d6438b4fc9","system_id":"levelo_inurba_marseille","lat":43.31087,"lon":5.38339,"is_reserved":false,"is_disabled":false,"rental_uris":{"android":"levelo://app?vid=828b0227-ee3e-45fc-93b6-a6d6438b4fc9","ios":"levelo://app?vid=828b0227-ee3e-45fc-93b6-a6d6438b4fc9"},"vehicle_type_id":"4","last_reported":1744751387,"current_range_meters":17200,"station_id":"ce4bgv92rcd13ifvqcr0","pricing_plan_id":"cebpf4jnsgd1na2vs0mg"},{"bike_id":"9a978cdc-c49e-4fe9-a36a-b1e9b342cf79","system_id":"levelo_inurba_marseille","lat":43.25494,"lon":5.37645,"is_reserved":false,"is_disabled":false,"rental_uris":{"android":"levelo://app?vid=9a978cdc-c49e-4fe9-a36a-b1e9b342cf79","ios":"levelo://app?vid=9a978cdc-c49e-4fe9-a36a-b1e9b342cf79"},"vehicle_type_id":"4","last_reported":1744751387,"current_range_meters":17200,"station_id":"ce4bhh12rcd13ifvqff0","pricing_plan_id":"cebpf4jnsgd1na2vs0mg"},{"bike_id":"a7df947c-a7b2-4e01-ac4e-f41adb527cdf","system_id":"levelo_inurba_marseille","lat":43.31081,"lon":5.42433,"is_reserved":false,"is_disabled":false,"rental_uris":{"android":"levelo://app?vid=a7df947c-a7b2-4e01-ac4e-f41adb527cdf","ios":"levelo://app?vid=a7df947c-a7b2-4e01-ac4e-f41adb527cdf"},"vehicle_type_id":"4","last_reported":1744751387,"current_range_meters":17200,"station_id":"ce4bhp92rcd13ifvqhag","pricing_plan_id":"cebpf4jnsgd1na2vs0mg"},{"bike_id":"d34693e3-4b7f-4ed5-8929-fa8011f280b8","system_id":"levelo_inurba_marseille","lat":43.284036,"lon":5.375136,"is_reserved":false,"is_disabled":false,"rental_uris":{"android":"levelo://app?vid=d34693e3-4b7f-4ed5-8929-fa8011f280b8","ios":"levelo://app?vid=d34693e3-4b7f-4ed5-8929-fa8011f280b8"},"vehicle_type_id":"4","last_reported":1744751387,"current_range_meters":17200,"station_id":"ce4bh412rcd13ifvqds0","pricing_plan_id":"cebpf4jnsgd1na2vs0mg"},{"bike_id":"f8ca4a2d-42ce-4086-9a97-386275dfa10e","system_id":"levelo_inurba_marseille","lat":43.2657,"lon":5.39007,"is_reserved":false,"is_disabled":false,"rental_uris":{"android":"levelo://app?vid=f8ca4a2d-42ce-4086-9a97-386275dfa10e","ios":"levelo://app?vid=f8ca4a2d-42ce-4086-9a97-386275dfa10e"},"vehicle_type_id":"4","last_reported":1744751387,"current_range_meters":17200,"station_id":"ce4bhe12rcd13ifvqf30","pricing_plan_id":"cebpf4jnsgd1na2vs0mg"},{"bike_id":"927b4bbc-f630-46e1-b703-2866abd2e34d","system_id":"levelo_inurba_marseille","lat":43.30263,"lon":5.40081,"is_reserved":false,"is_disabled":false,"rental_uris":{"android":"levelo://app?vid=927b4bbc-f630-46e1-b703-2866abd2e34d","ios":"levelo://app?vid=927b4bbc-f630-46e1-b703-2866abd2e34d"},"vehicle_type_id":"4","last_reported":1744751387,"current_range_meters":17200,"station_id":"ce4bgvh2rcd13ifvqcs0","pricing_plan_id":"cebpf4jnsgd1na2vs0mg"},{"bike_id":"22360d30-36b9-4e98-8651-f94b98f596d4","system_id":"levelo_inurba_marseille","lat":43.30318,"lon":5.41898,"is_reserved":false,"is_disabled":false,"rental_uris":{"android":"levelo://app?vid=22360d30-36b9-4e98-8651-f94b98f596d4","ios":"levelo://app?vid=22360d30-36b9-4e98-8651-f94b98f596d4"},"vehicle_type_id":"4","last_reported":1744751387,"current_range_meters":17200,"station_id":"ce4bhop2rcd13ifvqh7g","pricing_plan_id":"cebpf4jnsgd1na2vs0mg"},{"bike_id":"17fdb649-f6ae-4510-a9ab-cf69023390db","system_id":"levelo_inurba_marseille","lat":43.2572,"lon":5.41113,"is_reserved":false,"is_disabled":false,"rental_uris":{"android":"levelo://app?vid=17fdb649-f6ae-4510-a9ab-cf69023390db","ios":"levelo://app?vid=17fdb649-f6ae-4510-a9ab-cf69023390db"},"vehicle_type_id":"4","last_reported":1744751387,"current_range_meters":17200,"station_id":"ce4bhkp2rcd13ifvqgd0","pricing_plan_id":"cebpf4jnsgd1na2vs0mg"},{"bike_id":"26524d11-ba40-4c37-a632-dbcc9b84e9d5","system_id":"levelo_inurba_marseille","lat":43.3132,"lon":5.39706,"is_reserved":false,"is_disabled":false,"rental_uris":{"android":"levelo://app?vid=26524d11-ba40-4c37-a632-dbcc9b84e9d5","ios":"levelo://app?vid=26524d11-ba40-4c37-a632-dbcc9b84e9d5"},"vehicle_type_id":"4","last_reported":1744751387,"current_range_meters":17600,"station_id":"ce4bgvp2rcd13ifvqcu0","pricing_plan_id":"cebpf4jnsgd1na2vs0mg"},{"bike_id":"67cb0b5e-c439-49e5-be99-2828584ac2e2","system_id":"levelo_inurba_marseille","lat":43.26555,"lon":5.37281,"is_reserved":false,"is_disabled":false,"rental_uris":{"android":"levelo://app?vid=67cb0b5e-c439-49e5-be99-2828584ac2e2","ios":"levelo://app?vid=67cb0b5e-c439-49e5-be99-2828584ac2e2"},"vehicle_type_id":"4","last_reported":1744751387,"current_range_meters":17600,"station_id":"ce4bhg12rcd13ifvqf70","pricing_plan_id":"cebpf4jnsgd1na2vs0mg"},{"bike_id":"ac970bb3-90dc-4094-8656-acfc9f25827f","system_id":"levelo_inurba_marseille","lat":43.30096,"lon":5.39091,"is_reserved":false,"is_disabled":false,"rental_uris":{"android":"levelo://app?vid=ac970bb3-90dc-4094-8656-acfc9f25827f","ios":"levelo://app?vid=ac970bb3-90dc-4094-8656-acfc9f25827f"},"vehicle_type_id":"4","last_reported":1744751387,"current_range_meters":17600,"station_id":"ce4bh192rcd13ifvqdb0","pricing_plan_id":"cebpf4jnsgd1na2vs0mg"},{"bike_id":"0e5bfebb-5d60-494a-b399-a223a55f1752","system_id":"levelo_inurba_marseille","lat":43.28685,"lon":5.38657,"is_reserved":false,"is_disabled":false,"rental_uris":{"android":"levelo://app?vid=0e5bfebb-5d60-494a-b399-a223a55f1752","ios":"levelo://app?vid=0e5bfebb-5d60-494a-b399-a223a55f1752"},"vehicle_type_id":"4","last_reported":1744751387,"current_range_meters":17600,"station_id":"ce4bh492rcd13ifvqdug","pricing_plan_id":"cebpf4jnsgd1na2vs0mg"},{"bike_id":"7ed27393-1449-41c9-8072-e5b10171ccb8","system_id":"levelo_inurba_marseille","lat":43.26939,"lon":5.40251,"is_reserved":false,"is_disabled":false,"rental_uris":{"android":"levelo://app?vid=7ed27393-1449-41c9-8072-e5b10171ccb8","ios":"levelo://app?vid=7ed27393-1449-41c9-8072-e5b10171ccb8"},"vehicle_type_id":"4","last_reported":1744751387,"current_range_meters":17600,"station_id":"cjm6bp8fraef2m0cb0m0","pricing_plan_id":"cebpf4jnsgd1na2vs0mg"},{"bike_id":"749d68ab-d999-4213-8b50-f5963d394e38","system_id":"levelo_inurba_marseille","lat":43.30777,"lon":5.37653,"is_reserved":false,"is_disabled":false,"rental_uris":{"android":"levelo://app?vid=749d68ab-d999-4213-8b50-f5963d394e38","ios":"levelo://app?vid=749d68ab-d999-4213-8b50-f5963d394e38"},"vehicle_type_id":"4","last_reported":1744751387,"current_range_meters":17600,"station_id":"ce4bgv92rcd13ifvqcq0","pricing_plan_id":"cebpf4jnsgd1na2vs0mg"},{"bike_id":"c8d69a1f-c74e-4299-8f35-b9dbcc282e24","system_id":"levelo_inurba_marseille","lat":43.31067,"lon":5.38355,"is_reserved":false,"is_disabled":false,"rental_uris":{"android":"levelo://app?vid=c8d69a1f-c74e-4299-8f35-b9dbcc282e24","ios":"levelo://app?vid=c8d69a1f-c74e-4299-8f35-b9dbcc282e24"},"vehicle_type_id":"4","last_reported":1744751387,"current_range_meters":17600,"station_id":"ce4bgv92rcd13ifvqcr0","pricing_plan_id":"cebpf4jnsgd1na2vs0mg"},{"bike_id":"04af032a-b271-496d-a38e-8e0daf2b640a","system_id":"levelo_inurba_marseille","lat":43.31477,"lon":5.37277,"is_reserved":false,"is_disabled":false,"rental_uris":{"android":"levelo://app?vid=04af032a-b271-496d-a38e-8e0daf2b640a","ios":"levelo://app?vid=04af032a-b271-496d-a38e-8e0daf2b640a"},"vehicle_type_id":"4","last_reported":1744751387,"current_range_meters":17600,"station_id":"ce4bgt12rcd13ifvqcd0","pricing_plan_id":"cebpf4jnsgd1na2vs0mg"},{"bike_id":"74ec87ab-fa5e-44d2-83e9-d18666eb1af3","system_id":"levelo_inurba_marseille","lat":43.28404,"lon":5.37526,"is_reserved":false,"is_disabled":false,"rental_uris":{"android":"levelo://app?vid=74ec87ab-fa5e-44d2-83e9-d18666eb1af3","ios":"levelo://app?vid=74ec87ab-fa5e-44d2-83e9-d18666eb1af3"},"vehicle_type_id":"4","last_reported":1744751387,"current_range_meters":18000,"station_id":"ce4bh412rcd13ifvqds0","pricing_plan_id":"cebpf4jnsgd1na2vs0mg"},{"bike_id":"296de341-dc7b-4750-ab63-0d82f81224ad","system_id":"levelo_inurba_marseille","lat":43.30208,"lon":5.39469,"is_reserved":false,"is_disabled":false,"rental_uris":{"android":"levelo://app?vid=296de341-dc7b-4750-ab63-0d82f81224ad","ios":"levelo://app?vid=296de341-dc7b-4750-ab63-0d82f81224ad"},"vehicle_type_id":"4","last_reported":1744751387,"current_range_meters":18000,"station_id":"ce4bh0p2rcd13ifvqd70","pricing_plan_id":"cebpf4jnsgd1na2vs0mg"},{"bike_id":"aef80ba4-75b4-4007-8c96-beccf136b2d3","system_id":"levelo_inurba_marseille","lat":43.29268,"lon":5.40136,"is_reserved":false,"is_disabled":false,"rental_uris":{"android":"levelo://app?vid=aef80ba4-75b4-4007-8c96-beccf136b2d3","ios":"levelo://app?vid=aef80ba4-75b4-4007-8c96-beccf136b2d3"},"vehicle_type_id":"4","last_reported":1744751387,"current_range_meters":18000,"station_id":"ce4bh312rcd13ifvqdk0","pricing_plan_id":"cebpf4jnsgd1na2vs0mg"},{"bike_id":"e563cec3-5ef6-4520-be15-e8848a75180a","system_id":"levelo_inurba_marseille","lat":43.28574,"lon":5.395,"is_reserved":false,"is_disabled":false,"rental_uris":{"android":"levelo://app?vid=e563cec3-5ef6-4520-be15-e8848a75180a","ios":"levelo://app?vid=e563cec3-5ef6-4520-be15-e8848a75180a"},"vehicle_type_id":"4","last_reported":1744751387,"current_range_meters":18000,"station_id":"ce4bh292rcd13ifvqdg0","pricing_plan_id":"cebpf4jnsgd1na2vs0mg"},{"bike_id":"f556879c-5c9c-404c-bfda-1bbcb0880b98","system_id":"levelo_inurba_marseille","lat":43.2951,"lon":5.37495,"is_reserved":false,"is_disabled":true,"rental_uris":{"android":"levelo://app?vid=f556879c-5c9c-404c-bfda-1bbcb0880b98","ios":"levelo://app?vid=f556879c-5c9c-404c-bfda-1bbcb0880b98"},"vehicle_type_id":"4","last_reported":1744751387,"current_range_meters":18000,"station_id":"ce4bgkp2rcd13ifvqbmg","pricing_plan_id":"cebpf4jnsgd1na2vs0mg"},{"bike_id":"6bf5a380-400e-4cd6-bc1e-356afac9ee45","system_id":"levelo_inurba_marseille","lat":43.24165,"lon":5.36395,"is_reserved":false,"is_disabled":false,"rental_uris":{"android":"levelo://app?vid=6bf5a380-400e-4cd6-bc1e-356afac9ee45","ios":"levelo://app?vid=6bf5a380-400e-4cd6-bc1e-356afac9ee45"},"vehicle_type_id":"4","last_reported":1744751387,"current_range_meters":18000,"station_id":"cpo36qri1sfpv3e86is0","pricing_plan_id":"cebpf4jnsgd1na2vs0mg"},{"bike_id":"ad954633-cbff-4cf3-b46c-9190d1a5c3ba","system_id":"levelo_inurba_marseille","lat":43.28719,"lon":5.37382,"is_reserved":false,"is_disabled":false,"rental_uris":{"android":"levelo://app?vid=ad954633-cbff-4cf3-b46c-9190d1a5c3ba","ios":"levelo://app?vid=ad954633-cbff-4cf3-b46c-9190d1a5c3ba"},"vehicle_type_id":"4","last_reported":1744751387,"current_range_meters":18000,"station_id":"ce4bh3p2rcd13ifvqdq0","pricing_plan_id":"cebpf4jnsgd1na2vs0mg"},{"bike_id":"4c0ede51-6b22-44f8-8575-b86906a20779","system_id":"levelo_inurba_marseille","lat":43.21763,"lon":5.34608,"is_reserved":false,"is_disabled":false,"rental_uris":{"android":"levelo://app?vid=4c0ede51-6b22-44f8-8575-b86906a20779","ios":"levelo://app?vid=4c0ede51-6b22-44f8-8575-b86906a20779"},"vehicle_type_id":"4","last_reported":1744751387,"current_range_meters":18000,"station_id":"st_cvj6r9ubvosntc0bgbag","pricing_plan_id":"cebpf4jnsgd1na2vs0mg"},{"bike_id":"1d42bf00-ac3d-4bcd-b058-d356740cab40","system_id":"levelo_inurba_marseille","lat":43.307918,"lon":5.376568,"is_reserved":false,"is_disabled":false,"rental_uris":{"android":"levelo://app?vid=1d42bf00-ac3d-4bcd-b058-d356740cab40","ios":"levelo://app?vid=1d42bf00-ac3d-4bcd-b058-d356740cab40"},"vehicle_type_id":"4","last_reported":1744751387,"current_range_meters":18000,"station_id":"ce4bgv92rcd13ifvqcq0","pricing_plan_id":"cebpf4jnsgd1na2vs0mg"},{"bike_id":"99e9bc03-129f-4fe5-9499-059f2b45ee99","system_id":"levelo_inurba_marseille","lat":43.28931,"lon":5.36636,"is_reserved":false,"is_disabled":false,"rental_uris":{"android":"levelo://app?vid=99e9bc03-129f-4fe5-9499-059f2b45ee99","ios":"levelo://app?vid=99e9bc03-129f-4fe5-9499-059f2b45ee99"},"vehicle_type_id":"4","last_reported":1744751387,"current_range_meters":18000,"station_id":"ce4bhap2rcd13ifvqek0","pricing_plan_id":"cebpf4jnsgd1na2vs0mg"},{"bike_id":"00c43884-9cc5-4bc8-b29d-2fe7b64e043c","system_id":"levelo_inurba_marseille","lat":43.30931,"lon":5.4015,"is_reserved":false,"is_disabled":false,"rental_uris":{"android":"levelo://app?vid=00c43884-9cc5-4bc8-b29d-2fe7b64e043c","ios":"levelo://app?vid=00c43884-9cc5-4bc8-b29d-2fe7b64e043c"},"vehicle_type_id":"4","last_reported":1744751387,"current_range_meters":18000,"station_id":"ce4bgvp2rcd13ifvqct0","pricing_plan_id":"cebpf4jnsgd1na2vs0mg"},{"bike_id":"3de426c9-05f1-467d-9020-cc2b6b85afd7","system_id":"levelo_inurba_marseille","lat":43.28345,"lon":5.38115,"is_reserved":false,"is_disabled":true,"rental_uris":{"android":"levelo://app?vid=3de426c9-05f1-467d-9020-cc2b6b85afd7","ios":"levelo://app?vid=3de426c9-05f1-467d-9020-cc2b6b85afd7"},"vehicle_type_id":"4","last_reported":1744751387,"current_range_meters":18000,"station_id":"ce4bh412rcd13ifvqdr0","pricing_plan_id":"cebpf4jnsgd1na2vs0mg"},{"bike_id":"fa8b5d88-c56b-4501-99c1-1b5a6dfd1f66","system_id":"levelo_inurba_marseille","lat":43.21196,"lon":5.35051,"is_reserved":false,"is_disabled":false,"rental_uris":{"android":"levelo://app?vid=fa8b5d88-c56b-4501-99c1-1b5a6dfd1f66","ios":"levelo://app?vid=fa8b5d88-c56b-4501-99c1-1b5a6dfd1f66"},"vehicle_type_id":"4","last_reported":1744751387,"current_range_meters":18000,"station_id":"st_cvj6sg6p6f1abm77japg","pricing_plan_id":"cebpf4jnsgd1na2vs0mg"},{"bike_id":"e1f653d3-9e6d-49ac-b26b-ab3926500e79","system_id":"levelo_inurba_marseille","lat":43.29039,"lon":5.35928,"is_reserved":false,"is_disabled":false,"rental_uris":{"android":"levelo://app?vid=e1f653d3-9e6d-49ac-b26b-ab3926500e79","ios":"levelo://app?vid=e1f653d3-9e6d-49ac-b26b-ab3926500e79"},"vehicle_type_id":"4","last_reported":1744751387,"current_range_meters":18000,"station_id":"ce4bha92rcd13ifvqeg0","pricing_plan_id":"cebpf4jnsgd1na2vs0mg"},{"bike_id":"4cc60183-f086-4946-9e35-7a75728daa73","system_id":"levelo_inurba_marseille","lat":43.25717,"lon":5.38652,"is_reserved":false,"is_disabled":false,"rental_uris":{"android":"levelo://app?vid=4cc60183-f086-4946-9e35-7a75728daa73","ios":"levelo://app?vid=4cc60183-f086-4946-9e35-7a75728daa73"},"vehicle_type_id":"4","last_reported":1744751387,"current_range_meters":18000,"station_id":"","pricing_plan_id":"cebpf4jnsgd1na2vs0mg"},{"bike_id":"9f723706-27af-409b-b34a-058ee9051d23","system_id":"levelo_inurba_marseille","lat":43.32659,"lon":5.40975,"is_reserved":false,"is_disabled":false,"rental_uris":{"android":"levelo://app?vid=9f723706-27af-409b-b34a-058ee9051d23","ios":"levelo://app?vid=9f723706-27af-409b-b34a-058ee9051d23"},"vehicle_type_id":"4","last_reported":1744751387,"current_range_meters":18800,"station_id":"ce4bhpp2rcd13ifvqhgg","pricing_plan_id":"cebpf4jnsgd1na2vs0mg"},{"bike_id":"e3670510-219d-4ce8-90e9-deef08906868","system_id":"levelo_inurba_marseille","lat":43.31998,"lon":5.38161,"is_reserved":false,"is_disabled":false,"rental_uris":{"android":"levelo://app?vid=e3670510-219d-4ce8-90e9-deef08906868","ios":"levelo://app?vid=e3670510-219d-4ce8-90e9-deef08906868"},"vehicle_type_id":"4","last_reported":1744751387,"current_range_meters":18800,"station_id":"ce4bhr12rcd13ifvqhpg","pricing_plan_id":"cebpf4jnsgd1na2vs0mg"},{"bike_id":"37af77cd-da0b-4d48-87c4-b37ee2687136","system_id":"levelo_inurba_marseille","lat":43.28859,"lon":5.35963,"is_reserved":false,"is_disabled":false,"rental_uris":{"android":"levelo://app?vid=37af77cd-da0b-4d48-87c4-b37ee2687136","ios":"levelo://app?vid=37af77cd-da0b-4d48-87c4-b37ee2687136"},"vehicle_type_id":"4","last_reported":1744751387,"current_range_meters":18800,"station_id":"","pricing_plan_id":"cebpf4jnsgd1na2vs0mg"},{"bike_id":"3f43a50c-05da-4e00-b1e1-be54458029bc","system_id":"levelo_inurba_marseille","lat":43.28269,"lon":5.35081,"is_reserved":false,"is_disabled":false,"rental_uris":{"android":"levelo://app?vid=3f43a50c-05da-4e00-b1e1-be54458029bc","ios":"levelo://app?vid=3f43a50c-05da-4e00-b1e1-be54458029bc"},"vehicle_type_id":"4","last_reported":1744751387,"current_range_meters":18800,"station_id":"ce4bhbp2rcd13ifvqerg","pricing_plan_id":"cebpf4jnsgd1na2vs0mg"},{"bike_id":"20574aa9-213c-4d7c-853e-18430449b58a","system_id":"levelo_inurba_marseille","lat":43.29185,"lon":5.39317,"is_reserved":false,"is_disabled":false,"rental_uris":{"android":"levelo://app?vid=20574aa9-213c-4d7c-853e-18430449b58a","ios":"levelo://app?vid=20574aa9-213c-4d7c-853e-18430449b58a"},"vehicle_type_id":"4","last_reported":1744751387,"current_range_meters":19200,"station_id":"ce4bh192rcd13ifvqdd0","pricing_plan_id":"cebpf4jnsgd1na2vs0mg"},{"bike_id":"c31c0ecc-e896-4522-8f59-f94ab8194ac3","system_id":"levelo_inurba_marseille","lat":43.316847,"lon":5.404735,"is_reserved":false,"is_disabled":false,"rental_uris":{"android":"levelo://app?vid=c31c0ecc-e896-4522-8f59-f94ab8194ac3","ios":"levelo://app?vid=c31c0ecc-e896-4522-8f59-f94ab8194ac3"},"vehicle_type_id":"4","last_reported":1744751387,"current_range_meters":19200,"station_id":"ce4bh012rcd13ifvqd00","pricing_plan_id":"cebpf4jnsgd1na2vs0mg"},{"bike_id":"ed97a721-7aee-47b1-b49b-a65ade99fd09","system_id":"levelo_inurba_marseille","lat":43.343,"lon":5.37811,"is_reserved":false,"is_disabled":false,"rental_uris":{"android":"levelo://app?vid=ed97a721-7aee-47b1-b49b-a65ade99fd09","ios":"levelo://app?vid=ed97a721-7aee-47b1-b49b-a65ade99fd09"},"vehicle_type_id":"4","last_reported":1744751387,"current_range_meters":19200,"station_id":"","pricing_plan_id":"cebpf4jnsgd1na2vs0mg"},{"bike_id":"7daa98bc-3cb2-468c-8b59-e3ea55bfbe3e","system_id":"levelo_inurba_marseille","lat":43.24664,"lon":5.38163,"is_reserved":false,"is_disabled":false,"rental_uris":{"android":"levelo://app?vid=7daa98bc-3cb2-468c-8b59-e3ea55bfbe3e","ios":"levelo://app?vid=7daa98bc-3cb2-468c-8b59-e3ea55bfbe3e"},"vehicle_type_id":"4","last_reported":1744751387,"current_range_meters":18800,"station_id":"ce4bhih2rcd13ifvqfr0","pricing_plan_id":"cebpf4jnsgd1na2vs0mg"},{"bike_id":"2be2e8c5-ff49-4a5a-963a-4bbeabb11512","system_id":"levelo_inurba_marseille","lat":43.30731,"lon":5.42439,"is_reserved":false,"is_disabled":false,"rental_uris":{"android":"levelo://app?vid=2be2e8c5-ff49-4a5a-963a-4bbeabb11512","ios":"levelo://app?vid=2be2e8c5-ff49-4a5a-963a-4bbeabb11512"},"vehicle_type_id":"4","last_reported":1744751387,"current_range_meters":19200,"station_id":"st_cvj6ca6bvosntc0bfgr0","pricing_plan_id":"cebpf4jnsgd1na2vs0mg"},{"bike_id":"88f3759b-2c1f-4762-b11a-067d1d7bb035","system_id":"levelo_inurba_marseille","lat":43.241616,"lon":5.397295,"is_reserved":false,"is_disabled":false,"rental_uris":{"android":"levelo://app?vid=88f3759b-2c1f-4762-b11a-067d1d7bb035","ios":"levelo://app?vid=88f3759b-2c1f-4762-b11a-067d1d7bb035"},"vehicle_type_id":"4","last_reported":1744751387,"current_range_meters":22800,"station_id":"ce4bhn12rcd13ifvqgpg","pricing_plan_id":"cebpf4jnsgd1na2vs0mg"},{"bike_id":"a88268f7-7d4e-425f-af3d-badb387bfdf2","system_id":"levelo_inurba_marseille","lat":43.26208,"lon":5.37442,"is_reserved":false,"is_disabled":false,"rental_uris":{"android":"levelo://app?vid=a88268f7-7d4e-425f-af3d-badb387bfdf2","ios":"levelo://app?vid=a88268f7-7d4e-425f-af3d-badb387bfdf2"},"vehicle_type_id":"4","last_reported":1744751387,"current_range_meters":19200,"station_id":"ce4bhgp2rcd13ifvqfc0","pricing_plan_id":"cebpf4jnsgd1na2vs0mg"},{"bike_id":"b082caf9-1aa9-41e8-8081-4da72e64e8e4","system_id":"levelo_inurba_marseille","lat":43.309236,"lon":5.401433,"is_reserved":false,"is_disabled":true,"rental_uris":{"android":"levelo://app?vid=b082caf9-1aa9-41e8-8081-4da72e64e8e4","ios":"levelo://app?vid=b082caf9-1aa9-41e8-8081-4da72e64e8e4"},"vehicle_type_id":"4","last_reported":1744751387,"current_range_meters":19200,"station_id":"ce4bgvp2rcd13ifvqct0","pricing_plan_id":"cebpf4jnsgd1na2vs0mg"},{"bike_id":"556aee59-d268-4708-9ed5-4cdb4430e320","system_id":"levelo_inurba_marseille","lat":43.2894,"lon":5.36634,"is_reserved":false,"is_disabled":false,"rental_uris":{"android":"levelo://app?vid=556aee59-d268-4708-9ed5-4cdb4430e320","ios":"levelo://app?vid=556aee59-d268-4708-9ed5-4cdb4430e320"},"vehicle_type_id":"4","last_reported":1744751387,"current_range_meters":19200,"station_id":"ce4bhap2rcd13ifvqek0","pricing_plan_id":"cebpf4jnsgd1na2vs0mg"},{"bike_id":"dce5e8ea-9442-4875-9be3-e585d2d3c5c4","system_id":"levelo_inurba_marseille","lat":43.28608,"lon":5.3509,"is_reserved":false,"is_disabled":false,"rental_uris":{"android":"levelo://app?vid=dce5e8ea-9442-4875-9be3-e585d2d3c5c4","ios":"levelo://app?vid=dce5e8ea-9442-4875-9be3-e585d2d3c5c4"},"vehicle_type_id":"4","last_reported":1744751387,"current_range_meters":19200,"station_id":"ce4bhch2rcd13ifvqeug","pricing_plan_id":"cebpf4jnsgd1na2vs0mg"},{"bike_id":"3dfbd23c-bec8-48b9-ab57-4cf9e8491e6f","system_id":"levelo_inurba_marseille","lat":43.295448,"lon":5.393999,"is_reserved":false,"is_disabled":false,"rental_uris":{"android":"levelo://app?vid=3dfbd23c-bec8-48b9-ab57-4cf9e8491e6f","ios":"levelo://app?vid=3dfbd23c-bec8-48b9-ab57-4cf9e8491e6f"},"vehicle_type_id":"4","last_reported":1744751387,"current_range_meters":19600,"station_id":"ce4bh292rcd13ifvqdf0","pricing_plan_id":"cebpf4jnsgd1na2vs0mg"},{"bike_id":"a548bab6-7dfb-457a-9a75-63b9e34d65d0","system_id":"levelo_inurba_marseille","lat":43.23181,"lon":5.40013,"is_reserved":false,"is_disabled":false,"rental_uris":{"android":"levelo://app?vid=a548bab6-7dfb-457a-9a75-63b9e34d65d0","ios":"levelo://app?vid=a548bab6-7dfb-457a-9a75-63b9e34d65d0"},"vehicle_type_id":"4","last_reported":1744751387,"current_range_meters":19600,"station_id":"ce4bhn12rcd13ifvqgqg","pricing_plan_id":"cebpf4jnsgd1na2vs0mg"},{"bike_id":"963714c3-a938-49e5-8aa6-ce7f1a407e26","system_id":"levelo_inurba_marseille","lat":43.28662,"lon":5.38667,"is_reserved":false,"is_disabled":false,"rental_uris":{"android":"levelo://app?vid=963714c3-a938-49e5-8aa6-ce7f1a407e26","ios":"levelo://app?vid=963714c3-a938-49e5-8aa6-ce7f1a407e26"},"vehicle_type_id":"4","last_reported":1744751387,"current_range_meters":19600,"station_id":"ce4bh492rcd13ifvqdug","pricing_plan_id":"cebpf4jnsgd1na2vs0mg"},{"bike_id":"3b2419ff-e39d-42de-a411-cb235cca0f02","system_id":"levelo_inurba_marseille","lat":43.28838,"lon":5.3931,"is_reserved":false,"is_disabled":false,"rental_uris":{"android":"levelo://app?vid=3b2419ff-e39d-42de-a411-cb235cca0f02","ios":"levelo://app?vid=3b2419ff-e39d-42de-a411-cb235cca0f02"},"vehicle_type_id":"4","last_reported":1744751387,"current_range_meters":19600,"station_id":"ce4bh2p2rcd13ifvqdi0","pricing_plan_id":"cebpf4jnsgd1na2vs0mg"},{"bike_id":"4c6745eb-406f-446c-a220-2c154e104cdb","system_id":"levelo_inurba_marseille","lat":43.28518,"lon":5.38563,"is_reserved":false,"is_disabled":false,"rental_uris":{"android":"levelo://app?vid=4c6745eb-406f-446c-a220-2c154e104cdb","ios":"levelo://app?vid=4c6745eb-406f-446c-a220-2c154e104cdb"},"vehicle_type_id":"4","last_reported":1744751387,"current_range_meters":19600,"station_id":"ce4bh8p2rcd13ifvqeb0","pricing_plan_id":"cebpf4jnsgd1na2vs0mg"},{"bike_id":"b5e608ec-54ff-4088-bdf2-41d55ef5547f","system_id":"levelo_inurba_marseille","lat":43.24395,"lon":5.37054,"is_reserved":false,"is_disabled":false,"rental_uris":{"android":"levelo://app?vid=b5e608ec-54ff-4088-bdf2-41d55ef5547f","ios":"levelo://app?vid=b5e608ec-54ff-4088-bdf2-41d55ef5547f"},"vehicle_type_id":"4","last_reported":1744751387,"current_range_meters":19600,"station_id":"ce4bhhh2rcd13ifvqfk0","pricing_plan_id":"cebpf4jnsgd1na2vs0mg"},{"bike_id":"fba2878e-7402-4d72-8270-526e40d485c8","system_id":"levelo_inurba_marseille","lat":43.31529,"lon":5.38035,"is_reserved":false,"is_disabled":false,"rental_uris":{"android":"levelo://app?vid=fba2878e-7402-4d72-8270-526e40d485c8","ios":"levelo://app?vid=fba2878e-7402-4d72-8270-526e40d485c8"},"vehicle_type_id":"4","last_reported":1744751387,"current_range_meters":19600,"station_id":"ce4bhsp2rcd13ifvqi50","pricing_plan_id":"cebpf4jnsgd1na2vs0mg"},{"bike_id":"d6fee597-3293-47ae-914e-c48760e9f772","system_id":"levelo_inurba_marseille","lat":43.24057,"lon":5.37815,"is_reserved":false,"is_disabled":false,"rental_uris":{"android":"levelo://app?vid=d6fee597-3293-47ae-914e-c48760e9f772","ios":"levelo://app?vid=d6fee597-3293-47ae-914e-c48760e9f772"},"vehicle_type_id":"4","last_reported":1744751387,"current_range_meters":19600,"station_id":"ce4bhnp2rcd13ifvqgvg","pricing_plan_id":"cebpf4jnsgd1na2vs0mg"},{"bike_id":"58422983-0d94-4112-993a-86a4c1f94262","system_id":"levelo_inurba_marseille","lat":43.287226,"lon":5.361,"is_reserved":false,"is_disabled":false,"rental_uris":{"android":"levelo://app?vid=58422983-0d94-4112-993a-86a4c1f94262","ios":"levelo://app?vid=58422983-0d94-4112-993a-86a4c1f94262"},"vehicle_type_id":"4","last_reported":1744751387,"current_range_meters":20000,"station_id":"cki0cbj6b192h4jlfktg","pricing_plan_id":"cebpf4jnsgd1na2vs0mg"},{"bike_id":"b76a366b-6464-49b8-8aea-9aa46635f1d1","system_id":"levelo_inurba_marseille","lat":43.28416,"lon":5.37531,"is_reserved":false,"is_disabled":false,"rental_uris":{"android":"levelo://app?vid=b76a366b-6464-49b8-8aea-9aa46635f1d1","ios":"levelo://app?vid=b76a366b-6464-49b8-8aea-9aa46635f1d1"},"vehicle_type_id":"4","last_reported":1744751387,"current_range_meters":20000,"station_id":"ce4bh412rcd13ifvqds0","pricing_plan_id":"cebpf4jnsgd1na2vs0mg"},{"bike_id":"5e10fe67-b683-45bd-867f-7bcf9362603a","system_id":"levelo_inurba_marseille","lat":43.29042,"lon":5.37599,"is_reserved":false,"is_disabled":false,"rental_uris":{"android":"levelo://app?vid=5e10fe67-b683-45bd-867f-7bcf9362603a","ios":"levelo://app?vid=5e10fe67-b683-45bd-867f-7bcf9362603a"},"vehicle_type_id":"4","last_reported":1744751387,"current_range_meters":20000,"station_id":"ce4bh692rcd13ifvqe90","pricing_plan_id":"cebpf4jnsgd1na2vs0mg"},{"bike_id":"10a05b79-c3d5-4be7-a18b-8140be240501","system_id":"levelo_inurba_marseille","lat":43.29583,"lon":5.38117,"is_reserved":false,"is_disabled":true,"rental_uris":{"android":"levelo://app?vid=10a05b79-c3d5-4be7-a18b-8140be240501","ios":"levelo://app?vid=10a05b79-c3d5-4be7-a18b-8140be240501"},"vehicle_type_id":"4","last_reported":1744751387,"current_range_meters":20000,"station_id":"ce4bgl12rcd13ifvqbo0","pricing_plan_id":"cebpf4jnsgd1na2vs0mg"},{"bike_id":"6c103f9f-c959-46ad-a2e8-e44f9660c68e","system_id":"levelo_inurba_marseille","lat":43.21193,"lon":5.35079,"is_reserved":false,"is_disabled":false,"rental_uris":{"android":"levelo://app?vid=6c103f9f-c959-46ad-a2e8-e44f9660c68e","ios":"levelo://app?vid=6c103f9f-c959-46ad-a2e8-e44f9660c68e"},"vehicle_type_id":"4","last_reported":1744751387,"current_range_meters":20000,"station_id":"st_cvj6sg6p6f1abm77japg","pricing_plan_id":"cebpf4jnsgd1na2vs0mg"},{"bike_id":"f3a17301-f4cd-4211-8c74-a7b1a492d742","system_id":"levelo_inurba_marseille","lat":43.280777,"lon":5.407759,"is_reserved":false,"is_disabled":false,"rental_uris":{"android":"levelo://app?vid=f3a17301-f4cd-4211-8c74-a7b1a492d742","ios":"levelo://app?vid=f3a17301-f4cd-4211-8c74-a7b1a492d742"},"vehicle_type_id":"4","last_reported":1744751387,"current_range_meters":20000,"station_id":"","pricing_plan_id":"cebpf4jnsgd1na2vs0mg"},{"bike_id":"90a27645-a5f6-487a-a1a8-67ca08ff4b5c","system_id":"levelo_inurba_marseille","lat":43.24387,"lon":5.37061,"is_reserved":false,"is_disabled":false,"rental_uris":{"android":"levelo://app?vid=90a27645-a5f6-487a-a1a8-67ca08ff4b5c","ios":"levelo://app?vid=90a27645-a5f6-487a-a1a8-67ca08ff4b5c"},"vehicle_type_id":"4","last_reported":1744751387,"current_range_meters":20000,"station_id":"ce4bhhh2rcd13ifvqfk0","pricing_plan_id":"cebpf4jnsgd1na2vs0mg"},{"bike_id":"71922e54-864c-469d-b6f3-dae000d24386","system_id":"levelo_inurba_marseille","lat":43.28457,"lon":5.35889,"is_reserved":false,"is_disabled":false,"rental_uris":{"android":"levelo://app?vid=71922e54-864c-469d-b6f3-dae000d24386","ios":"levelo://app?vid=71922e54-864c-469d-b6f3-dae000d24386"},"vehicle_type_id":"4","last_reported":1744751387,"current_range_meters":19600,"station_id":"ce4bhah2rcd13ifvqei0","pricing_plan_id":"cebpf4jnsgd1na2vs0mg"},{"bike_id":"c0b0ad3e-d09e-4c26-ad78-29b9490d5b29","system_id":"levelo_inurba_marseille","lat":43.29596,"lon":5.38097,"is_reserved":false,"is_disabled":false,"rental_uris":{"android":"levelo://app?vid=c0b0ad3e-d09e-4c26-ad78-29b9490d5b29","ios":"levelo://app?vid=c0b0ad3e-d09e-4c26-ad78-29b9490d5b29"},"vehicle_type_id":"4","last_reported":1744751387,"current_range_meters":20000,"station_id":"ce4bgl12rcd13ifvqbo0","pricing_plan_id":"cebpf4jnsgd1na2vs0mg"},{"bike_id":"5edfcb33-f5b3-40ad-8c59-c96eb2bba229","system_id":"levelo_inurba_marseille","lat":43.304225,"lon":5.397463,"is_reserved":false,"is_disabled":false,"rental_uris":{"android":"levelo://app?vid=5edfcb33-f5b3-40ad-8c59-c96eb2bba229","ios":"levelo://app?vid=5edfcb33-f5b3-40ad-8c59-c96eb2bba229"},"vehicle_type_id":"4","last_reported":1744751387,"current_range_meters":20000,"station_id":"ce4bh092rcd13ifvqd20","pricing_plan_id":"cebpf4jnsgd1na2vs0mg"},{"bike_id":"239cd7f4-917e-4c24-bd0a-f985f6b10e66","system_id":"levelo_inurba_marseille","lat":43.31325,"lon":5.39705,"is_reserved":false,"is_disabled":false,"rental_uris":{"android":"levelo://app?vid=239cd7f4-917e-4c24-bd0a-f985f6b10e66","ios":"levelo://app?vid=239cd7f4-917e-4c24-bd0a-f985f6b10e66"},"vehicle_type_id":"4","last_reported":1744751387,"current_range_meters":20000,"station_id":"ce4bgvp2rcd13ifvqcu0","pricing_plan_id":"cebpf4jnsgd1na2vs0mg"},{"bike_id":"6a8e9068-2a8d-4c93-8c2d-e30f03079545","system_id":"levelo_inurba_marseille","lat":43.25747,"lon":5.4115,"is_reserved":false,"is_disabled":true,"rental_uris":{"android":"levelo://app?vid=6a8e9068-2a8d-4c93-8c2d-e30f03079545","ios":"levelo://app?vid=6a8e9068-2a8d-4c93-8c2d-e30f03079545"},"vehicle_type_id":"4","last_reported":1744751387,"current_range_meters":20000,"station_id":"ce4bhkp2rcd13ifvqgd0","pricing_plan_id":"cebpf4jnsgd1na2vs0mg"},{"bike_id":"38a7297d-e2a7-4269-a073-28abab9d75ec","system_id":"levelo_inurba_marseille","lat":43.31264,"lon":5.40171,"is_reserved":false,"is_disabled":false,"rental_uris":{"android":"levelo://app?vid=38a7297d-e2a7-4269-a073-28abab9d75ec","ios":"levelo://app?vid=38a7297d-e2a7-4269-a073-28abab9d75ec"},"vehicle_type_id":"4","last_reported":1744751387,"current_range_meters":20400,"station_id":"ce4bh092rcd13ifvqd30","pricing_plan_id":"cebpf4jnsgd1na2vs0mg"},{"bike_id":"ab863a17-a8a2-4073-b516-607cb08fc41a","system_id":"levelo_inurba_marseille","lat":43.27503,"lon":5.42458,"is_reserved":false,"is_disabled":false,"rental_uris":{"android":"levelo://app?vid=ab863a17-a8a2-4073-b516-607cb08fc41a","ios":"levelo://app?vid=ab863a17-a8a2-4073-b516-607cb08fc41a"},"vehicle_type_id":"4","last_reported":1744751387,"current_range_meters":20400,"station_id":"ce4bhn92rcd13ifvqgrg","pricing_plan_id":"cebpf4jnsgd1na2vs0mg"},