{"last_updated":1746558468,"ttl":60,"version":"2.2","data":{"bikes":[{"bike_id":"9d3ba9e6-3126-40d8-b937-189cb62137e4","system_id":"levelo_inurba_marseille","lat":43.29919,"lon":5.38157,"is_reserved":false,"is_disabled":false,"rental_uris":{"android":"levelo://app?vid=9d3ba9e6-3126-40d8-b937-189cb62137e4","ios":"levelo://app?vid=9d3ba9e6-3126-40d8-b937-189cb62137e4"},"vehicle_type_id":"4","last_reported":1746558468,"current_range_meters":2800,"station_id":"ce4bgj12rcd13ifvqbc0","pricing_plan_id":"cebpf4jnsgd1na2vs0mg"},{"bike_id":"66b646b3-6352-44bb-9bfb-21570512e3e5","system_id":"levelo_inurba_marseille","lat":43.281054,"lon":5.403975,"is_reserved":false,"is_disabled":false,"rental_uris":{"android":"levelo://app?vid=66b646b3-6352-44bb-9bfb-21570512e3e5","ios":"levelo://app?vid=66b646b3-6352-44bb-9bfb-21570512e3e5"},"vehicle_type_id":"4","last_reported":1746558468,"current_range_meters":2800,"station_id":"","pricing_plan_id":"cebpf4jnsgd1na2vs0mg"},{"bike_id":"df5628dd-60ce-442a-996e-142b99f037e4","system_id":"levelo_inurba_marseille","lat":43.28663,"lon":5.36353,"is_reserved":false,"is_disabled":false,"rental_uris":{"android":"levelo://app?vid=df5628dd-60ce-442a-996e-142b99f037e4","ios":"levelo://app?vid=df5628dd-60ce-442a-996e-142b99f037e4"},"vehicle_type_id":"4","last_reported":1746558468,"current_range_meters":2800,"station_id":"ce4bhah2rcd13ifvqej0","pricing_plan_id":"cebpf4jnsgd1na2vs0mg"},{"bike_id":"30f4e86c-19a9-4963-b6e2-80cf73fcdabd","system_id":"levelo_inurba_marseille","lat":43.25118,"lon":5.4032,"is_reserved":false,"is_disabled":false,"rental_uris":{"android":"levelo://app?vid=30f4e86c-19a9-4963-b6e2-80cf73fcdabd","ios":"levelo://app?vid=30f4e86c-19a9-4963-b6e2-80cf73fcdabd"},"vehicle_type_id":"4","last_reported":1746558468,"current_range_meters":3200,"station_id":"ce4bhlh2rcd13ifvqgig","pricing_plan_id":"cebpf4jnsgd1na2vs0mg"},{"bike_id":"062d7f52-c4d8-4dc1-9663-505e56d21979","system_id":"levelo_inurba_marseille","lat":43.32369,"lon":5.38883,"is_reserved":false,"is_disabled":false,"rental_uris":{"android":"levelo://app?vid=062d7f52-c4d8-4dc1-9663-505e56d21979","ios":"levelo://app?vid=062d7f52-c4d8-4dc1-9663-505e56d21979"},"vehicle_type_id":"4","last_reported":1746558468,"current_range_meters":3200,"station_id":"ce4bhqp2rcd13ifvqhog","pricing_plan_id":"cebpf4jnsgd1na2vs0mg"},{"bike_id":"763da8a1-6279-4b7d-b246-ea39eaeb2dba","system_id":"levelo_inurba_marseille","lat":43.31071,"lon":5.38346,"is_reserved":false,"is_disabled":false,"rental_uris":{"android":"levelo://app?vid=763da8a1-6279-4b7d-b246-ea39eaeb2dba","ios":"levelo://app?vid=763da8a1-6279-4b7d-b246-ea39eaeb2dba"},"vehicle_type_id":"4","last_reported":1746558468,"current_range_meters":3200,"station_id":"ce4bgv92rcd13ifvqcr0","pricing_plan_id":"cebpf4jnsgd1na2vs0mg"},{"bike_id":"57080614-ae11-44bc-86e2-e8daf805b60b","system_id":"levelo_inurba_marseille","lat":43.28612,"lon":5.350998,"is_reserved":false,"is_disabled":true,"rental_uris":{"android":"levelo://app?vid=57080614-ae11-44bc-86e2-e8daf805b60b","ios":"levelo://app?vid=57080614-ae11-44bc-86e2-e8daf805b60b"},"vehicle_type_id":"4","last_reported":1746558468,"current_range_meters":3200,"station_id":"ce4bhch2rcd13ifvqeug","pricing_plan_id":"cebpf4jnsgd1na2vs0mg"},{"bike_id":"940e510f-8107-498a-bc8e-74ad700e56b4","system_id":"levelo_inurba_marseille","lat":43.29259,"lon":5.38444,"is_reserved":false,"is_disabled":false,"rental_uris":{"android":"levelo://app?vid=940e510f-8107-498a-bc8e-74ad700e56b4","ios":"levelo://app?vid=940e510f-8107-498a-bc8e-74ad700e56b4"},"vehicle_type_id":"4","last_reported":1746558468,"current_range_meters":3600,"station_id":"ce4bh692rcd13ifvqea0","pricing_plan_id":"cebpf4jnsgd1na2vs0mg"},{"bike_id":"5c5e9e56-338e-467b-aa97-0b219b3d40b7","system_id":"levelo_inurba_marseille","lat":43.29002,"lon":5.35613,"is_reserved":false,"is_disabled":false,"rental_uris":{"android":"levelo://app?vid=5c5e9e56-338e-467b-aa97-0b219b3d40b7","ios":"levelo://app?vid=5c5e9e56-338e-467b-aa97-0b219b3d40b7"},"vehicle_type_id":"4","last_reported":1746558468,"current_range_meters":3600,"station_id":"ce4bhb92rcd13ifvqen0","pricing_plan_id":"cebpf4jnsgd1na2vs0mg"},{"bike_id":"482344f1-460c-48ea-83dd-01b9a385e5cf","system_id":"levelo_inurba_marseille","lat":43.30671,"lon":5.36846,"is_reserved":false,"is_disabled":false,"rental_uris":{"android":"levelo://app?vid=482344f1-460c-48ea-83dd-01b9a385e5cf","ios":"levelo://app?vid=482344f1-460c-48ea-83dd-01b9a385e5cf"},"vehicle_type_id":"4","last_reported":1746558468,"current_range_meters":3600,"station_id":"","pricing_plan_id":"cebpf4jnsgd1na2vs0mg"},{"bike_id":"482905d1-6906-4cc7-a6e2-713ffe796c3f","system_id":"levelo_inurba_marseille","lat":43.29907,"lon":5.38142,"is_reserved":false,"is_disabled":false,"rental_uris":{"android":"levelo://app?vid=482905d1-6906-4cc7-a6e2-713ffe796c3f","ios":"levelo://app?vid=482905d1-6906-4cc7-a6e2-713ffe796c3f"},"vehicle_type_id":"4","last_reported":1746558468,"current_range_meters":3600,"station_id":"ce4bgj12rcd13ifvqbc0","pricing_plan_id":"cebpf4jnsgd1na2vs0mg"},{"bike_id":"e5ae5959-0f8a-4a89-8099-ccd729ffba3d","system_id":"levelo_inurba_marseille","lat":43.23143,"lon":5.43713,"is_reserved":false,"is_disabled":false,"rental_uris":{"android":"levelo://app?vid=e5ae5959-0f8a-4a89-8099-ccd729ffba3d","ios":"levelo://app?vid=e5ae5959-0f8a-4a89-8099-ccd729ffba3d"},"vehicle_type_id":"4","last_reported":1746558468,"current_range_meters":3600,"station_id":"ce4bhmp2rcd13ifvqgog","pricing_plan_id":"cebpf4jnsgd1na2vs0mg"},{"bike_id":"7e34f1b9-0a4d-4de8-a8a8-062d704eb515","system_id":"levelo_inurba_marseille","lat":43.30423,"lon":5.39752,"is_reserved":false,"is_disabled":false,"rental_uris":{"android":"levelo://app?vid=7e34f1b9-0a4d-4de8-a8a8-062d704eb515","ios":"levelo://app?vid=7e34f1b9-0a4d-4de8-a8a8-062d704eb515"},"vehicle_type_id":"4","last_reported":1746558468,"current_range_meters":4000,"station_id":"ce4bh092rcd13ifvqd20","pricing_plan_id":"cebpf4jnsgd1na2vs0mg"},{"bike_id":"ea0384f6-cdb1-4645-82e4-aed10e1105db","system_id":"levelo_inurba_marseille","lat":43.27899,"lon":5.38014,"is_reserved":false,"is_disabled":false,"rental_uris":{"android":"levelo://app?vid=ea0384f6-cdb1-4645-82e4-aed10e1105db","ios":"levelo://app?vid=ea0384f6-cdb1-4645-82e4-aed10e1105db"},"vehicle_type_id":"4","last_reported":1746558468,"current_range_meters":4000,"station_id":"ce4bhf92rcd13ifvqf50","pricing_plan_id":"cebpf4jnsgd1na2vs0mg"},{"bike_id":"33ed38e7-22ea-4db8-b3f6-45cd544d2906","system_id":"levelo_inurba_marseille","lat":43.24799,"lon":5.37454,"is_reserved":false,"is_disabled":false,"rental_uris":{"android":"levelo://app?vid=33ed38e7-22ea-4db8-b3f6-45cd544d2906","ios":"levelo://app?vid=33ed38e7-22ea-4db8-b3f6-45cd544d2906"},"vehicle_type_id":"4","last_reported":1746558468,"current_range_meters":4000,"station_id":"ce4bhgh2rcd13ifvqfb0","pricing_plan_id":"cebpf4jnsgd1na2vs0mg"},{"bike_id":"655e2f69-d1b9-428c-9c9c-2804bced0641","system_id":"levelo_inurba_marseille","lat":43.28852,"lon":5.35848,"is_reserved":false,"is_disabled":false,"rental_uris":{"android":"levelo://app?vid=655e2f69-d1b9-428c-9c9c-2804bced0641","ios":"levelo://app?vid=655e2f69-d1b9-428c-9c9c-2804bced0641"},"vehicle_type_id":"4","last_reported":1746558468,"current_range_meters":4000,"station_id":"ce4bhb12rcd13ifvqem0","pricing_plan_id":"cebpf4jnsgd1na2vs0mg"},{"bike_id":"e5d8e601-9739-4dc7-8653-c499ca021f57","system_id":"levelo_inurba_marseille","lat":43.29299,"lon":5.37453,"is_reserved":false,"is_disabled":false,"rental_uris":{"android":"levelo://app?vid=e5d8e601-9739-4dc7-8653-c499ca021f57","ios":"levelo://app?vid=e5d8e601-9739-4dc7-8653-c499ca021f57"},"vehicle_type_id":"4","last_reported":1746558468,"current_range_meters":1600,"station_id":"ce4bgi12rcd13ifvqb70","pricing_plan_id":"cebpf4jnsgd1na2vs0mg"},{"bike_id":"807dadbe-a48a-4ac3-89af-5136d44dea97","system_id":"levelo_inurba_marseille","lat":43.29254,"lon":5.40902,"is_reserved":false,"is_disabled":false,"rental_uris":{"android":"levelo://app?vid=807dadbe-a48a-4ac3-89af-5136d44dea97","ios":"levelo://app?vid=807dadbe-a48a-4ac3-89af-5136d44dea97"},"vehicle_type_id":"4","last_reported":1746558468,"current_range_meters":4400,"station_id":"ce4bh192rcd13ifvqdc0","pricing_plan_id":"cebpf4jnsgd1na2vs0mg"},{"bike_id":"6e25f966-014b-4f05-9500-e126e32dfb5a","system_id":"levelo_inurba_marseille","lat":43.28657,"lon":5.38332,"is_reserved":false,"is_disabled":false,"rental_uris":{"android":"levelo://app?vid=6e25f966-014b-4f05-9500-e126e32dfb5a","ios":"levelo://app?vid=6e25f966-014b-4f05-9500-e126e32dfb5a"},"vehicle_type_id":"4","last_reported":1746558468,"current_range_meters":4400,"station_id":"ce4bh9p2rcd13ifvqec0","pricing_plan_id":"cebpf4jnsgd1na2vs0mg"},{"bike_id":"be00aa36-5fb1-46b1-862b-fdf5678f54b2","system_id":"levelo_inurba_marseille","lat":43.29041,"lon":5.37569,"is_reserved":false,"is_disabled":false,"rental_uris":{"android":"levelo://app?vid=be00aa36-5fb1-46b1-862b-fdf5678f54b2","ios":"levelo://app?vid=be00aa36-5fb1-46b1-862b-fdf5678f54b2"},"vehicle_type_id":"4","last_reported":1746558468,"current_range_meters":3200,"station_id":"ce4bh692rcd13ifvqe90","pricing_plan_id":"cebpf4jnsgd1na2vs0mg"},{"bike_id":"9afdaa32-5437-40bb-b5dc-0e42f55a33ee","system_id":"levelo_inurba_marseille","lat":43.253933,"lon":5.418531,"is_reserved":false,"is_disabled":false,"rental_uris":{"android":"levelo://app?vid=9afdaa32-5437-40bb-b5dc-0e42f55a33ee","ios":"levelo://app?vid=9afdaa32-5437-40bb-b5dc-0e42f55a33ee"},"vehicle_type_id":"4","last_reported":1746558468,"current_range_meters":4800,"station_id":"","pricing_plan_id":"cebpf4jnsgd1na2vs0mg"},{"bike_id":"706353c6-3d3d-4516-9a95-e40a242257c1","system_id":"levelo_inurba_marseille","lat":43.29255,"lon":5.40894,"is_reserved":false,"is_disabled":false,"rental_uris":{"android":"levelo://app?vid=706353c6-3d3d-4516-9a95-e40a242257c1","ios":"levelo://app?vid=706353c6-3d3d-4516-9a95-e40a242257c1"},"vehicle_type_id":"4","last_reported":1746558468,"current_range_meters":4800,"station_id":"ce4bh192rcd13ifvqdc0","pricing_plan_id":"cebpf4jnsgd1na2vs0mg"},{"bike_id":"acd1a4f6-901b-46c1-af30-0a262f4729d4","system_id":"levelo_inurba_marseille","lat":43.23966,"lon":5.36629,"is_reserved":false,"is_disabled":false,"rental_uris":{"android":"levelo://app?vid=acd1a4f6-901b-46c1-af30-0a262f4729d4","ios":"levelo://app?vid=acd1a4f6-901b-46c1-af30-0a262f4729d4"},"vehicle_type_id":"4","last_reported":1746558468,"current_range_meters":4800,"station_id":"ce4bhi12rcd13ifvqfp0","pricing_plan_id":"cebpf4jnsgd1na2vs0mg"},{"bike_id":"44d07a80-2e7b-4452-a8dd-986d9de0b440","system_id":"levelo_inurba_marseille","lat":43.29413,"lon":5.38624,"is_reserved":false,"is_disabled":false,"rental_uris":{"android":"levelo://app?vid=44d07a80-2e7b-4452-a8dd-986d9de0b440","ios":"levelo://app?vid=44d07a80-2e7b-4452-a8dd-986d9de0b440"},"vehicle_type_id":"4","last_reported":1746558468,"current_range_meters":4800,"station_id":"ce4bh2h2rcd13ifvqdh0","pricing_plan_id":"cebpf4jnsgd1na2vs0mg"},{"bike_id":"9075ef07-9e23-4b59-8365-d04f7c40298a","system_id":"levelo_inurba_marseille","lat":43.2797,"lon":5.38719,"is_reserved":false,"is_disabled":false,"rental_uris":{"android":"levelo://app?vid=9075ef07-9e23-4b59-8365-d04f7c40298a","ios":"levelo://app?vid=9075ef07-9e23-4b59-8365-d04f7c40298a"},"vehicle_type_id":"4","last_reported":1746558468,"current_range_meters":4800,"station_id":"ce4bhg12rcd13ifvqf80","pricing_plan_id":"cebpf4jnsgd1na2vs0mg"},{"bike_id":"3b6d0d5a-ef6d-4dae-ab94-89e2c820cc2f","system_id":"levelo_inurba_marseille","lat":43.28524,"lon":5.38531,"is_reserved":false,"is_disabled":true,"rental_uris":{"android":"levelo://app?vid=3b6d0d5a-ef6d-4dae-ab94-89e2c820cc2f","ios":"levelo://app?vid=3b6d0d5a-ef6d-4dae-ab94-89e2c820cc2f"},"vehicle_type_id":"4","last_reported":1746558468,"current_range_meters":4800,"station_id":"ce4bh8p2rcd13ifvqeb0","pricing_plan_id":"cebpf4jnsgd1na2vs0mg"},{"bike_id":"8bc2ed8c-cb59-46fa-8a69-7078310b4106","system_id":"levelo_inurba_marseille","lat":43.27979,"lon":5.38756,"is_reserved":false,"is_disabled":false,"rental_uris":{"android":"levelo://app?vid=8bc2ed8c-cb59-46fa-8a69-7078310b4106","ios":"levelo://app?vid=8bc2ed8c-cb59-46fa-8a69-7078310b4106"},"vehicle_type_id":"4","last_reported":1746558468,"current_range_meters":4800,"station_id":"ce4bhg12rcd13ifvqf80","pricing_plan_id":"cebpf4jnsgd1na2vs0mg"},{"bike_id":"ad56ddbd-6cf6-4dce-84e2-42c4741b3491","system_id":"levelo_inurba_marseille","lat":43.2797,"lon":5.38736,"is_reserved":false,"is_disabled":false,"rental_uris":{"android":"levelo://app?vid=ad56ddbd-6cf6-4dce-84e2-42c4741b3491","ios":"levelo://app?vid=ad56ddbd-6cf6-4dce-84e2-42c4741b3491"},"vehicle_type_id":"4","last_reported":1746558468,"current_range_meters":5600,"station_id":"ce4bhg12rcd13ifvqf80","pricing_plan_id":"cebpf4jnsgd1na2vs0mg"},{"bike_id":"903d6e82-3c48-467a-b65c-eac4b14802bb","system_id":"levelo_inurba_marseille","lat":43.289219,"lon":5.384102,"is_reserved":false,"is_disabled":true,"rental_uris":{"android":"levelo://app?vid=903d6e82-3c48-467a-b65c-eac4b14802bb","ios":"levelo://app?vid=903d6e82-3c48-467a-b65c-eac4b14802bb"},"vehicle_type_id":"4","last_reported":1746558468,"current_range_meters":5600,"station_id":"ce4bh612rcd13ifvqe6g","pricing_plan_id":"cebpf4jnsgd1na2vs0mg"},{"bike_id":"416f578b-a76d-4698-b5ca-69135ef4b579","system_id":"levelo_inurba_marseille","lat":43.241641,"lon":5.36412,"is_reserved":false,"is_disabled":false,"rental_uris":{"android":"levelo://app?vid=416f578b-a76d-4698-b5ca-69135ef4b579","ios":"levelo://app?vid=416f578b-a76d-4698-b5ca-69135ef4b579"},"vehicle_type_id":"4","last_reported":1746558468,"current_range_meters":5600,"station_id":"cpo36qri1sfpv3e86is0","pricing_plan_id":"cebpf4jnsgd1na2vs0mg"},{"bike_id":"52359ef8-2583-4810-85bf-fee070ff4a5b","system_id":"levelo_inurba_marseille","lat":43.29029,"lon":5.3863,"is_reserved":false,"is_disabled":false,"rental_uris":{"android":"levelo://app?vid=52359ef8-2583-4810-85bf-fee070ff4a5b","ios":"levelo://app?vid=52359ef8-2583-4810-85bf-fee070ff4a5b"},"vehicle_type_id":"4","last_reported":1746558468,"current_range_meters":3200,"station_id":"ce4bh4p2rcd13ifvqe0g","pricing_plan_id":"cebpf4jnsgd1na2vs0mg"},{"bike_id":"b92231cb-319b-4279-9879-a6742a633366","system_id":"levelo_inurba_marseille","lat":43.31288,"lon":5.38692,"is_reserved":false,"is_disabled":false,"rental_uris":{"android":"levelo://app?vid=b92231cb-319b-4279-9879-a6742a633366","ios":"levelo://app?vid=b92231cb-319b-4279-9879-a6742a633366"},"vehicle_type_id":"4","last_reported":1746558468,"current_range_meters":5600,"station_id":"","pricing_plan_id":"cebpf4jnsgd1na2vs0mg"},{"bike_id":"235254c6-57bc-4901-aebb-9a5f97a7157b","system_id":"levelo_inurba_marseille","lat":43.28107,"lon":5.37835,"is_reserved":false,"is_disabled":false,"rental_uris":{"android":"levelo://app?vid=235254c6-57bc-4901-aebb-9a5f97a7157b","ios":"levelo://app?vid=235254c6-57bc-4901-aebb-9a5f97a7157b"},"vehicle_type_id":"4","last_reported":1746558468,"current_range_meters":5600,"station_id":"ce4bha12rcd13ifvqee0","pricing_plan_id":"cebpf4jnsgd1na2vs0mg"},{"bike_id":"b4fb5917-65cd-4586-99be-5ddc06be1cf6","system_id":"levelo_inurba_marseille","lat":43.30801,"lon":5.43522,"is_reserved":false,"is_disabled":false,"rental_uris":{"android":"levelo://app?vid=b4fb5917-65cd-4586-99be-5ddc06be1cf6","ios":"levelo://app?vid=b4fb5917-65cd-4586-99be-5ddc06be1cf6"},"vehicle_type_id":"4","last_reported":1746558468,"current_range_meters":6000,"station_id":"ce4bhph2rcd13ifvqheg","pricing_plan_id":"cebpf4jnsgd1na2vs0mg"},{"bike_id":"68736cbc-409c-4a24-be4d-487fe603415f","system_id":"levelo_inurba_marseille","lat":43.28716,"lon":5.379337,"is_reserved":false,"is_disabled":false,"rental_uris":{"android":"levelo://app?vid=68736cbc-409c-4a24-be4d-487fe603415f","ios":"levelo://app?vid=68736cbc-409c-4a24-be4d-487fe603415f"},"vehicle_type_id":"4","last_reported":1746558468,"current_range_meters":6000,"station_id":"ce4bh9p2rcd13ifvqec0","pricing_plan_id":"cebpf4jnsgd1na2vs0mg"},{"bike_id":"83cc1842-773c-46bc-8be1-caa63d83c3c2","system_id":"levelo_inurba_marseille","lat":43.25989,"lon":5.39472,"is_reserved":false,"is_disabled":false,"rental_uris":{"android":"levelo://app?vid=83cc1842-773c-46bc-8be1-caa63d83c3c2","ios":"levelo://app?vid=83cc1842-773c-46bc-8be1-caa63d83c3c2"},"vehicle_type_id":"4","last_reported":1746558468,"current_range_meters":6000,"station_id":"","pricing_plan_id":"cebpf4jnsgd1na2vs0mg"},{"bike_id":"63c3f49b-0878-46d3-83cc-897089abae50","system_id":"levelo_inurba_marseille","lat":43.29537,"lon":5.39406,"is_reserved":false,"is_disabled":false,"rental_uris":{"android":"levelo://app?vid=63c3f49b-0878-46d3-83cc-897089abae50","ios":"levelo://app?vid=63c3f49b-0878-46d3-83cc-897089abae50"},"vehicle_type_id":"4","last_reported":1746558468,"current_range_meters":6000,"station_id":"ce4bh292rcd13ifvqdf0","pricing_plan_id":"cebpf4jnsgd1na2vs0mg"},{"bike_id":"41eaff25-8fc7-43ff-a8a1-ee3e6795efb8","system_id":"levelo_inurba_marseille","lat":43.28711,"lon":5.36099,"is_reserved":false,"is_disabled":false,"rental_uris":{"android":"levelo://app?vid=41eaff25-8fc7-43ff-a8a1-ee3e6795efb8","ios":"levelo://app?vid=41eaff25-8fc7-43ff-a8a1-ee3e6795efb8"},"vehicle_type_id":"4","last_reported":1746558468,"current_range_meters":6400,"station_id":"cki0cbj6b192h4jlfktg","pricing_plan_id":"cebpf4jnsgd1na2vs0mg"},{"bike_id":"e7adc2c2-6808-4c63-a1b1-cceeef4a062c","system_id":"levelo_inurba_marseille","lat":43.311457,"lon":5.37271,"is_reserved":false,"is_disabled":false,"rental_uris":{"android":"levelo://app?vid=e7adc2c2-6808-4c63-a1b1-cceeef4a062c","ios":"levelo://app?vid=e7adc2c2-6808-4c63-a1b1-cceeef4a062c"},"vehicle_type_id":"4","last_reported":1746558468,"current_range_meters":6400,"station_id":"","pricing_plan_id":"cebpf4jnsgd1na2vs0mg"},{"bike_id":"459f06c8-9754-4af6-835c-bfac5c8e252a","system_id":"levelo_inurba_marseille","lat":43.29237,"lon":5.36079,"is_reserved":false,"is_disabled":false,"rental_uris":{"android":"levelo://app?vid=459f06c8-9754-4af6-835c-bfac5c8e252a","ios":"levelo://app?vid=459f06c8-9754-4af6-835c-bfac5c8e252a"},"vehicle_type_id":"4","last_reported":1746558468,"current_range_meters":6400,"station_id":"ce4bhbh2rcd13ifvqeqg","pricing_plan_id":"cebpf4jnsgd1na2vs0mg"},{"bike_id":"298d5d74-138e-47a0-a406-80d09a3758bc","system_id":"levelo_inurba_marseille","lat":43.28871,"lon":5.35837,"is_reserved":false,"is_disabled":false,"rental_uris":{"android":"levelo://app?vid=298d5d74-138e-47a0-a406-80d09a3758bc","ios":"levelo://app?vid=298d5d74-138e-47a0-a406-80d09a3758bc"},"vehicle_type_id":"4","last_reported":1746558468,"current_range_meters":6400,"station_id":"ce4bhb12rcd13ifvqem0","pricing_plan_id":"cebpf4jnsgd1na2vs0mg"},{"bike_id":"c411e786-be02-4243-b07b-051832b5987a","system_id":"levelo_inurba_marseille","lat":43.28654,"lon":5.36345,"is_reserved":false,"is_disabled":true,"rental_uris":{"android":"levelo://app?vid=c411e786-be02-4243-b07b-051832b5987a","ios":"levelo://app?vid=c411e786-be02-4243-b07b-051832b5987a"},"vehicle_type_id":"4","last_reported":1746558468,"current_range_meters":6400,"station_id":"ce4bhah2rcd13ifvqej0","pricing_plan_id":"cebpf4jnsgd1na2vs0mg"},{"bike_id":"0556279d-ca2a-4e9e-a5c5-1e01214d5082","system_id":"levelo_inurba_marseille","lat":43.30428,"lon":5.39737,"is_reserved":false,"is_disabled":false,"rental_uris":{"android":"levelo://app?vid=0556279d-ca2a-4e9e-a5c5-1e01214d5082","ios":"levelo://app?vid=0556279d-ca2a-4e9e-a5c5-1e01214d5082"},"vehicle_type_id":"4","last_reported":1746558468,"current_range_meters":6400,"station_id":"ce4bh092rcd13ifvqd20","pricing_plan_id":"cebpf4jnsgd1na2vs0mg"},{"bike_id":"56cef2ed-626f-4dc1-9168-897f2a83e252","system_id":"levelo_inurba_marseille","lat":43.28935,"lon":5.36645,"is_reserved":false,"is_disabled":false,"rental_uris":{"android":"levelo://app?vid=56cef2ed-626f-4dc1-9168-897f2a83e252","ios":"levelo://app?vid=56cef2ed-626f-4dc1-9168-897f2a83e252"},"vehicle_type_id":"4","last_reported":1746558468,"current_range_meters":6400,"station_id":"ce4bhap2rcd13ifvqek0","pricing_plan_id":"cebpf4jnsgd1na2vs0mg"},{"bike_id":"74ce093a-7b3d-4759-a42e-e470f846fd7e","system_id":"levelo_inurba_marseille","lat":43.28003,"lon":5.40005,"is_reserved":false,"is_disabled":false,"rental_uris":{"android":"levelo://app?vid=74ce093a-7b3d-4759-a42e-e470f846fd7e","ios":"levelo://app?vid=74ce093a-7b3d-4759-a42e-e470f846fd7e"},"vehicle_type_id":"4","last_reported":1746558468,"current_range_meters":6400,"station_id":"ce4bho92rcd13ifvqh4g","pricing_plan_id":"cebpf4jnsgd1na2vs0mg"},{"bike_id":"46fa8ab8-ece2-4385-b93c-10abd5e0c6c6","system_id":"levelo_inurba_marseille","lat":43.25576,"lon":5.38231,"is_reserved":false,"is_disabled":false,"rental_uris":{"android":"levelo://app?vid=46fa8ab8-ece2-4385-b93c-10abd5e0c6c6","ios":"levelo://app?vid=46fa8ab8-ece2-4385-b93c-10abd5e0c6c6"},"vehicle_type_id":"4","last_reported":1746558468,"current_range_meters":6800,"station_id":"ce4bhih2rcd13ifvqfs0","pricing_plan_id":"cebpf4jnsgd1na2vs0mg"},{"bike_id":"5e64a698-d714-4d99-8261-db4d12b9f278","system_id":"levelo_inurba_marseille","lat":43.30749,"lon":5.37214,"is_reserved":false,"is_disabled":false,"rental_uris":{"android":"levelo://app?vid=5e64a698-d714-4d99-8261-db4d12b9f278","ios":"levelo://app?vid=5e64a698-d714-4d99-8261-db4d12b9f278"},"vehicle_type_id":"4","last_reported":1746558468,"current_range_meters":6800,"station_id":"","pricing_plan_id":"cebpf4jnsgd1na2vs0mg"},{"bike_id":"bfe26aff-b52c-4015-ba43-736a10d29ef2","system_id":"levelo_inurba_marseille","lat":43.30319,"lon":5.40425,"is_reserved":false,"is_disabled":false,"rental_uris":{"android":"levelo://app?vid=bfe26aff-b52c-4015-ba43-736a10d29ef2","ios":"levelo://app?vid=bfe26aff-b52c-4015-ba43-736a10d29ef2"},"vehicle_type_id":"4","last_reported":1746558468,"current_range_meters":6800,"station_id":"ce4bh012rcd13ifvqd10","pricing_plan_id":"cebpf4jnsgd1na2vs0mg"},{"bike_id":"60786801-1916-4cee-9fd8-924ac8a203b1","system_id":"levelo_inurba_marseille","lat":43.289485,"lon":5.36637,"is_reserved":false,"is_disabled":false,"rental_uris":{"android":"levelo://app?vid=60786801-1916-4cee-9fd8-924ac8a203b1","ios":"levelo://app?vid=60786801-1916-4cee-9fd8-924ac8a203b1"},"vehicle_type_id":"4","last_reported":1746558468,"current_range_meters":6800,"station_id":"ce4bhap2rcd13ifvqek0","pricing_plan_id":"cebpf4jnsgd1na2vs0mg"},{"bike_id":"21ba9c67-0aa7-4ce3-abcb-d61abcf3e598","system_id":"levelo_inurba_marseille","lat":43.274292,"lon":5.39417,"is_reserved":false,"is_disabled":false,"rental_uris":{"android":"levelo://app?vid=21ba9c67-0aa7-4ce3-abcb-d61abcf3e598","ios":"levelo://app?vid=21ba9c67-0aa7-4ce3-abcb-d61abcf3e598"},"vehicle_type_id":"4","last_reported":1746558468,"current_range_meters":6800,"station_id":"ce4bhdp2rcd13ifvqf20","pricing_plan_id":"cebpf4jnsgd1na2vs0mg"},{"bike_id":"5d9c51dd-b90e-4bd3-a928-0461117b563c","system_id":"levelo_inurba_marseille","lat":43.30535,"lon":5.38421,"is_reserved":false,"is_disabled":false,"rental_uris":{"android":"levelo://app?vid=5d9c51dd-b90e-4bd3-a928-0461117b563c","ios":"levelo://app?vid=5d9c51dd-b90e-4bd3-a928-0461117b563c"},"vehicle_type_id":"4","last_reported":1746558468,"current_range_meters":6800,"station_id":"ce4bgg92rcd13ifvqb30","pricing_plan_id":"cebpf4jnsgd1na2vs0mg"},{"bike_id":"f688db27-6516-4d72-ae19-cb237477282c","system_id":"levelo_inurba_marseille","lat":43.30797,"lon":5.38151,"is_reserved":false,"is_disabled":false,"rental_uris":{"android":"levelo://app?vid=f688db27-6516-4d72-ae19-cb237477282c","ios":"levelo://app?vid=f688db27-6516-4d72-ae19-cb237477282c"},"vehicle_type_id":"4","last_reported":1746558468,"current_range_meters":6800,"station_id":"ce4bgt12rcd13ifvqce0","pricing_plan_id":"cebpf4jnsgd1na2vs0mg"},{"bike_id":"df997565-14e1-4c63-88de-58fa1bd201da","system_id":"levelo_inurba_marseille","lat":43.30441,"lon":5.39752,"is_reserved":false,"is_disabled":false,"rental_uris":{"android":"levelo://app?vid=df997565-14e1-4c63-88de-58fa1bd201da","ios":"levelo://app?vid=df997565-14e1-4c63-88de-58fa1bd201da"},"vehicle_type_id":"4","last_reported":1746558468,"current_range_meters":6800,"station_id":"ce4bh092rcd13ifvqd20","pricing_plan_id":"cebpf4jnsgd1na2vs0mg"},{"bike_id":"f58e2bf4-1fef-49a3-99e4-4f5bba038ba7","system_id":"levelo_inurba_marseille","lat":43.29703,"lon":5.3687,"is_reserved":false,"is_disabled":false,"rental_uris":{"android":"levelo://app?vid=f58e2bf4-1fef-49a3-99e4-4f5bba038ba7","ios":"levelo://app?vid=f58e2bf4-1fef-49a3-99e4-4f5bba038ba7"},"vehicle_type_id":"4","last_reported":1746558468,"current_range_meters":6800,"station_id":"","pricing_plan_id":"cebpf4jnsgd1na2vs0mg"},{"bike_id":"7edc8d93-d5e4-470e-a1af-4f08147fe6a6","system_id":"levelo_inurba_marseille","lat":43.292513,"lon":5.384395,"is_reserved":false,"is_disabled":false,"rental_uris":{"android":"levelo://app?vid=7edc8d93-d5e4-470e-a1af-4f08147fe6a6","ios":"levelo://app?vid=7edc8d93-d5e4-470e-a1af-4f08147fe6a6"},"vehicle_type_id":"4","last_reported":1746558468,"current_range_meters":6800,"station_id":"ce4bh692rcd13ifvqea0","pricing_plan_id":"cebpf4jnsgd1na2vs0mg"},{"bike_id":"f8b5bad2-bb28-41c7-afb5-f26863fdc601","system_id":"levelo_inurba_marseille","lat":43.28353,"lon":5.38104,"is_reserved":false,"is_disabled":false,"rental_uris":{"android":"levelo://app?vid=f8b5bad2-bb28-41c7-afb5-f26863fdc601","ios":"levelo://app?vid=f8b5bad2-bb28-41c7-afb5-f26863fdc601"},"vehicle_type_id":"4","last_reported":1746558468,"current_range_meters":6800,"station_id":"ce4bh412rcd13ifvqdr0","pricing_plan_id":"cebpf4jnsgd1na2vs0mg"},{"bike_id":"ed580773-ffd1-4ec0-9eac-ffd8cfb5dabb","system_id":"levelo_inurba_marseille","lat":43.26956,"lon":5.38638,"is_reserved":false,"is_disabled":false,"rental_uris":{"android":"levelo://app?vid=ed580773-ffd1-4ec0-9eac-ffd8cfb5dabb","ios":"levelo://app?vid=ed580773-ffd1-4ec0-9eac-ffd8cfb5dabb"},"vehicle_type_id":"4","last_reported":1746558468,"current_range_meters":7200,"station_id":"ce4bhh92rcd13ifvqfh0","pricing_plan_id":"cebpf4jnsgd1na2vs0mg"},{"bike_id":"f6466b48-50e6-4a74-8c77-2209957086c6","system_id":"levelo_inurba_marseille","lat":43.29281,"lon":5.36849,"is_reserved":false,"is_disabled":false,"rental_uris":{"android":"levelo://app?vid=f6466b48-50e6-4a74-8c77-2209957086c6","ios":"levelo://app?vid=f6466b48-50e6-4a74-8c77-2209957086c6"},"vehicle_type_id":"4","last_reported":1746558468,"current_range_meters":7200,"station_id":"ce4bhbp2rcd13ifvqesg","pricing_plan_id":"cebpf4jnsgd1na2vs0mg"},{"bike_id":"b7a37482-a150-46ec-9a15-2eaeffbb0491","system_id":"levelo_inurba_marseille","lat":43.28666,"lon":5.38664,"is_reserved":false,"is_disabled":false,"rental_uris":{"android":"levelo://app?vid=b7a37482-a150-46ec-9a15-2eaeffbb0491","ios":"levelo://app?vid=b7a37482-a150-46ec-9a15-2eaeffbb0491"},"vehicle_type_id":"4","last_reported":1746558468,"current_range_meters":4400,"station_id":"ce4bh492rcd13ifvqdug","pricing_plan_id":"cebpf4jnsgd1na2vs0mg"},{"bike_id":"c992896d-88a1-4382-b427-afd66a7e2133","system_id":"levelo_inurba_marseille","lat":43.29034,"lon":5.38635,"is_reserved":false,"is_disabled":false,"rental_uris":{"android":"levelo://app?vid=c992896d-88a1-4382-b427-afd66a7e2133","ios":"levelo://app?vid=c992896d-88a1-4382-b427-afd66a7e2133"},"vehicle_type_id":"4","last_reported":1746558468,"current_range_meters":7200,"station_id":"","pricing_plan_id":"cebpf4jnsgd1na2vs0mg"},{"bike_id":"d846bcde-819f-42fb-a9f5-dbe4501c6522","system_id":"levelo_inurba_marseille","lat":43.30588,"lon":5.39363,"is_reserved":false,"is_disabled":false,"rental_uris":{"android":"levelo://app?vid=d846bcde-819f-42fb-a9f5-dbe4501c6522","ios":"levelo://app?vid=d846bcde-819f-42fb-a9f5-dbe4501c6522"},"vehicle_type_id":"4","last_reported":1746558468,"current_range_meters":7200,"station_id":"ce4bh0p2rcd13ifvqd80","pricing_plan_id":"cebpf4jnsgd1na2vs0mg"},{"bike_id":"4299d56b-86ca-4649-92be-f3e730bb6d61","system_id":"levelo_inurba_marseille","lat":43.30133,"lon":5.39847,"is_reserved":false,"is_disabled":false,"rental_uris":{"android":"levelo://app?vid=4299d56b-86ca-4649-92be-f3e730bb6d61","ios":"levelo://app?vid=4299d56b-86ca-4649-92be-f3e730bb6d61"},"vehicle_type_id":"4","last_reported":1746558468,"current_range_meters":7200,"station_id":"ce4bh0h2rcd13ifvqd40","pricing_plan_id":"cebpf4jnsgd1na2vs0mg"},{"bike_id":"56b911ec-d1c1-4ea7-8f7c-e870a47647ed","system_id":"levelo_inurba_marseille","lat":43.28112,"lon":5.35162,"is_reserved":false,"is_disabled":false,"rental_uris":{"android":"levelo://app?vid=56b911ec-d1c1-4ea7-8f7c-e870a47647ed","ios":"levelo://app?vid=56b911ec-d1c1-4ea7-8f7c-e870a47647ed"},"vehicle_type_id":"4","last_reported":1746558468,"current_range_meters":7200,"station_id":"","pricing_plan_id":"cebpf4jnsgd1na2vs0mg"},{"bike_id":"0e518cf8-f87d-4c58-8929-def6bed9c909","system_id":"levelo_inurba_marseille","lat":43.29005,"lon":5.35619,"is_reserved":false,"is_disabled":false,"rental_uris":{"android":"levelo://app?vid=0e518cf8-f87d-4c58-8929-def6bed9c909","ios":"levelo://app?vid=0e518cf8-f87d-4c58-8929-def6bed9c909"},"vehicle_type_id":"4","last_reported":1746558468,"current_range_meters":7200,"station_id":"ce4bhb92rcd13ifvqen0","pricing_plan_id":"cebpf4jnsgd1na2vs0mg"},{"bike_id":"00c5494f-d862-4f12-90b7-18061d2bcde9","system_id":"levelo_inurba_marseille","lat":43.28407,"lon":5.37497,"is_reserved":false,"is_disabled":false,"rental_uris":{"android":"levelo://app?vid=00c5494f-d862-4f12-90b7-18061d2bcde9","ios":"levelo://app?vid=00c5494f-d862-4f12-90b7-18061d2bcde9"},"vehicle_type_id":"4","last_reported":1746558468,"current_range_meters":7200,"station_id":"ce4bh412rcd13ifvqds0","pricing_plan_id":"cebpf4jnsgd1na2vs0mg"},{"bike_id":"baa819ed-6c62-4637-8cd5-16e9cb19c879","system_id":"levelo_inurba_marseille","lat":43.25865,"lon":5.39898,"is_reserved":false,"is_disabled":false,"rental_uris":{"android":"levelo://app?vid=baa819ed-6c62-4637-8cd5-16e9cb19c879","ios":"levelo://app?vid=baa819ed-6c62-4637-8cd5-16e9cb19c879"},"vehicle_type_id":"4","last_reported":1746558468,"current_range_meters":8000,"station_id":"ce4bhl92rcd13ifvqghg","pricing_plan_id":"cebpf4jnsgd1na2vs0mg"},{"bike_id":"9d3fd1a0-e478-4ebd-9080-d3afe2d04ddf","system_id":"levelo_inurba_marseille","lat":43.33023,"lon":5.3904,"is_reserved":false,"is_disabled":false,"rental_uris":{"android":"levelo://app?vid=9d3fd1a0-e478-4ebd-9080-d3afe2d04ddf","ios":"levelo://app?vid=9d3fd1a0-e478-4ebd-9080-d3afe2d04ddf"},"vehicle_type_id":"4","last_reported":1746558468,"current_range_meters":8000,"station_id":"ce4bhr92rcd13ifvqhrg","pricing_plan_id":"cebpf4jnsgd1na2vs0mg"},{"bike_id":"84796d25-aade-4960-ae15-0172d7b5b77e","system_id":"levelo_inurba_marseille","lat":43.31397,"lon":5.39425,"is_reserved":false,"is_disabled":false,"rental_uris":{"android":"levelo://app?vid=84796d25-aade-4960-ae15-0172d7b5b77e","ios":"levelo://app?vid=84796d25-aade-4960-ae15-0172d7b5b77e"},"vehicle_type_id":"4","last_reported":1746558468,"current_range_meters":8000,"station_id":"","pricing_plan_id":"cebpf4jnsgd1na2vs0mg"},{"bike_id":"9e55c54e-6ae3-4f26-8d88-3ef6b9ffc53a","system_id":"levelo_inurba_marseille","lat":43.32365,"lon":5.38887,"is_reserved":false,"is_disabled":false,"rental_uris":{"android":"levelo://app?vid=9e55c54e-6ae3-4f26-8d88-3ef6b9ffc53a","ios":"levelo://app?vid=9e55c54e-6ae3-4f26-8d88-3ef6b9ffc53a"},"vehicle_type_id":"4","last_reported":1746558468,"current_range_meters":8000,"station_id":"ce4bhqp2rcd13ifvqhog","pricing_plan_id":"cebpf4jnsgd1na2vs0mg"},{"bike_id":"1a2d6ddf-1a49-45ec-a0d7-d63a2824d789","system_id":"levelo_inurba_marseille","lat":43.28926,"lon":5.38388,"is_reserved":false,"is_disabled":false,"rental_uris":{"android":"levelo://app?vid=1a2d6ddf-1a49-45ec-a0d7-d63a2824d789","ios":"levelo://app?vid=1a2d6ddf-1a49-45ec-a0d7-d63a2824d789"},"vehicle_type_id":"4","last_reported":1746558468,"current_range_meters":8000,"station_id":"ce4bh612rcd13ifvqe6g","pricing_plan_id":"cebpf4jnsgd1na2vs0mg"},{"bike_id":"9d8f73eb-df09-4699-86a7-d631e2319093","system_id":"levelo_inurba_marseille","lat":43.262684,"lon":5.374327,"is_reserved":false,"is_disabled":false,"rental_uris":{"android":"levelo://app?vid=9d8f73eb-df09-4699-86a7-d631e2319093","ios":"levelo://app?vid=9d8f73eb-df09-4699-86a7-d631e2319093"},"vehicle_type_id":"4","last_reported":1746558468,"current_range_meters":8000,"station_id":"","pricing_plan_id":"cebpf4jnsgd1na2vs0mg"},{"bike_id":"151c84bc-a73c-4518-8412-97178e344641","system_id":"levelo_inurba_marseille","lat":43.29368,"lon":5.37838,"is_reserved":false,"is_disabled":false,"rental_uris":{"android":"levelo://app?vid=151c84bc-a73c-4518-8412-97178e344641","ios":"levelo://app?vid=151c84bc-a73c-4518-8412-97178e344641"},"vehicle_type_id":"4","last_reported":1746558468,"current_range_meters":10800,"station_id":"ce4bgjh2rcd13ifvqbf0","pricing_plan_id":"cebpf4jnsgd1na2vs0mg"},{"bike_id":"6e2c21db-0baa-4ede-8c9b-539f044fc0a6","system_id":"levelo_inurba_marseille","lat":43.28078,"lon":5.39659,"is_reserved":false,"is_disabled":false,"rental_uris":{"android":"levelo://app?vid=6e2c21db-0baa-4ede-8c9b-539f044fc0a6","ios":"levelo://app?vid=6e2c21db-0baa-4ede-8c9b-539f044fc0a6"},"vehicle_type_id":"4","last_reported":1746558468,"current_range_meters":8000,"station_id":"ce4bho12rcd13ifvqh2g","pricing_plan_id":"cebpf4jnsgd1na2vs0mg"},{"bike_id":"6d4298a2-74f0-4f4d-b2af-4b7f55819dce","system_id":"levelo_inurba_marseille","lat":43.29266,"lon":5.38437,"is_reserved":false,"is_disabled":false,"rental_uris":{"android":"levelo://app?vid=6d4298a2-74f0-4f4d-b2af-4b7f55819dce","ios":"levelo://app?vid=6d4298a2-74f0-4f4d-b2af-4b7f55819dce"},"vehicle_type_id":"4","last_reported":1746558468,"current_range_meters":8400,"station_id":"ce4bh692rcd13ifvqea0","pricing_plan_id":"cebpf4jnsgd1na2vs0mg"},{"bike_id":"9f785001-05b7-4f3b-a2b4-ebf27005fa4a","system_id":"levelo_inurba_marseille","lat":43.292763,"lon":5.368406,"is_reserved":false,"is_disabled":true,"rental_uris":{"android":"levelo://app?vid=9f785001-05b7-4f3b-a2b4-ebf27005fa4a","ios":"levelo://app?vid=9f785001-05b7-4f3b-a2b4-ebf27005fa4a"},"vehicle_type_id":"4","last_reported":1746558468,"current_range_meters":8400,"station_id":"ce4bhbp2rcd13ifvqesg","pricing_plan_id":"cebpf4jnsgd1na2vs0mg"},{"bike_id":"a14a79a2-44d9-4f60-9a83-ed06adbbe1a2","system_id":"levelo_inurba_marseille","lat":43.298081,"lon":5.381051,"is_reserved":false,"is_disabled":true,"rental_uris":{"android":"levelo://app?vid=a14a79a2-44d9-4f60-9a83-ed06adbbe1a2","ios":"levelo://app?vid=a14a79a2-44d9-4f60-9a83-ed06adbbe1a2"},"vehicle_type_id":"4","last_reported":1746558468,"current_range_meters":8400,"station_id":"ce4bgip2rcd13ifvqbb0","pricing_plan_id":"cebpf4jnsgd1na2vs0mg"},{"bike_id":"c4ceeb31-6969-47f9-be42-1403afe3c0f7","system_id":"levelo_inurba_marseille","lat":43.33723,"lon":5.39189,"is_reserved":false,"is_disabled":false,"rental_uris":{"android":"levelo://app?vid=c4ceeb31-6969-47f9-be42-1403afe3c0f7","ios":"levelo://app?vid=c4ceeb31-6969-47f9-be42-1403afe3c0f7"},"vehicle_type_id":"4","last_reported":1746558468,"current_range_meters":8400,"station_id":"ce4bhr92rcd13ifvqhsg","pricing_plan_id":"cebpf4jnsgd1na2vs0mg"},{"bike_id":"47956ac4-b384-4e4d-8f86-d31ccfb14679","system_id":"levelo_inurba_marseille","lat":43.261892,"lon":5.374612,"is_reserved":false,"is_disabled":true,"rental_uris":{"android":"levelo://app?vid=47956ac4-b384-4e4d-8f86-d31ccfb14679","ios":"levelo://app?vid=47956ac4-b384-4e4d-8f86-d31ccfb14679"},"vehicle_type_id":"4","last_reported":1746558468,"current_range_meters":8400,"station_id":"ce4bhgp2rcd13ifvqfc0","pricing_plan_id":"cebpf4jnsgd1na2vs0mg"},{"bike_id":"6d57f894-f75b-4b63-9790-72146d9ac89e","system_id":"levelo_inurba_marseille","lat":43.278148,"lon":5.40707,"is_reserved":false,"is_disabled":false,"rental_uris":{"android":"levelo://app?vid=6d57f894-f75b-4b63-9790-72146d9ac89e","ios":"levelo://app?vid=6d57f894-f75b-4b63-9790-72146d9ac89e"},"vehicle_type_id":"4","last_reported":1746558468,"current_range_meters":8400,"station_id":"ce4bhnh2rcd13ifvqgtg","pricing_plan_id":"cebpf4jnsgd1na2vs0mg"},{"bike_id":"c2fff035-6128-402a-b38b-ebc94261b3d8","system_id":"levelo_inurba_marseille","lat":43.21193,"lon":5.35075,"is_reserved":false,"is_disabled":false,"rental_uris":{"android":"levelo://app?vid=c2fff035-6128-402a-b38b-ebc94261b3d8","ios":"levelo://app?vid=c2fff035-6128-402a-b38b-ebc94261b3d8"},"vehicle_type_id":"4","last_reported":1746558468,"current_range_meters":8400,"station_id":"st_cvj6sg6p6f1abm77japg","pricing_plan_id":"cebpf4jnsgd1na2vs0mg"},{"bike_id":"6e3c6a7f-22fc-4508-b06d-ebb3d18f9191","system_id":"levelo_inurba_marseille","lat":43.30986,"lon":5.41723,"is_reserved":false,"is_disabled":false,"rental_uris":{"android":"levelo://app?vid=6e3c6a7f-22fc-4508-b06d-ebb3d18f9191","ios":"levelo://app?vid=6e3c6a7f-22fc-4508-b06d-ebb3d18f9191"},"vehicle_type_id":"4","last_reported":1746558468,"current_range_meters":8400,"station_id":"","pricing_plan_id":"cebpf4jnsgd1na2vs0mg"},{"bike_id":"1e2e2a10-26ae-4f42-94f7-00cb090e7a1c","system_id":"levelo_inurba_marseille","lat":43.32475,"lon":5.3657,"is_reserved":false,"is_disabled":false,"rental_uris":{"android":"levelo://app?vid=1e2e2a10-26ae-4f42-94f7-00cb090e7a1c","ios":"levelo://app?vid=1e2e2a10-26ae-4f42-94f7-00cb090e7a1c"},"vehicle_type_id":"4","last_reported":1746558468,"current_range_meters":8400,"station_id":"ce4bhs12rcd13ifvqhvg","pricing_plan_id":"cebpf4jnsgd1na2vs0mg"},{"bike_id":"91e9def4-1f14-41ac-a356-c7853c6024ac","system_id":"levelo_inurba_marseille","lat":43.29782,"lon":5.39352,"is_reserved":false,"is_disabled":false,"rental_uris":{"android":"levelo://app?vid=91e9def4-1f14-41ac-a356-c7853c6024ac","ios":"levelo://app?vid=91e9def4-1f14-41ac-a356-c7853c6024ac"},"vehicle_type_id":"4","last_reported":1746558468,"current_range_meters":8800,"station_id":"chh1huq6cuj3fo74tm60","pricing_plan_id":"cebpf4jnsgd1na2vs0mg"},{"bike_id":"8518895d-e505-4635-8463-a83b14baaa2f","system_id":"levelo_inurba_marseille","lat":43.31065,"lon":5.38361,"is_reserved":false,"is_disabled":false,"rental_uris":{"android":"levelo://app?vid=8518895d-e505-4635-8463-a83b14baaa2f","ios":"levelo://app?vid=8518895d-e505-4635-8463-a83b14baaa2f"},"vehicle_type_id":"4","last_reported":1746558468,"current_range_meters":8800,"station_id":"ce4bgv92rcd13ifvqcr0","pricing_plan_id":"cebpf4jnsgd1na2vs0mg"},{"bike_id":"0c377d9d-9a3a-47a7-9944-6039314b5e15","system_id":"levelo_inurba_marseille","lat":43.24587,"lon":5.40476,"is_reserved":false,"is_disabled":false,"rental_uris":{"android":"levelo://app?vid=0c377d9d-9a3a-47a7-9944-6039314b5e15","ios":"levelo://app?vid=0c377d9d-9a3a-47a7-9944-6039314b5e15"},"vehicle_type_id":"4","last_reported":1746558468,"current_range_meters":8800,"station_id":"","pricing_plan_id":"cebpf4jnsgd1na2vs0mg"},{"bike_id":"503569af-07db-461f-918e-29f89d0c1c24","system_id":"levelo_inurba_marseille","lat":43.225058,"lon":5.347773,"is_reserved":false,"is_disabled":false,"rental_uris":{"android":"levelo://app?vid=503569af-07db-461f-918e-29f89d0c1c24","ios":"levelo://app?vid=503569af-07db-461f-918e-29f89d0c1c24"},"vehicle_type_id":"4","last_reported":1746558468,"current_range_meters":8800,"station_id":"st_cvj5dfep6f1abm77gieg","pricing_plan_id":"cebpf4jnsgd1na2vs0mg"},{"bike_id":"2cf86696-983d-4f5b-a4cb-606d4883a4aa","system_id":"levelo_inurba_marseille","lat":43.28944,"lon":5.36635,"is_reserved":false,"is_disabled":false,"rental_uris":{"android":"levelo://app?vid=2cf86696-983d-4f5b-a4cb-606d4883a4aa","ios":"levelo://app?vid=2cf86696-983d-4f5b-a4cb-606d4883a4aa"},"vehicle_type_id":"4","last_reported":1746558468,"current_range_meters":8800,"station_id":"ce4bhap2rcd13ifvqek0","pricing_plan_id":"cebpf4jnsgd1na2vs0mg"},{"bike_id":"5d072de5-6e26-44c1-bf10-91deefd526a7","system_id":"levelo_inurba_marseille","lat":43.29023,"lon":5.38635,"is_reserved":false,"is_disabled":false,"rental_uris":{"android":"levelo://app?vid=5d072de5-6e26-44c1-bf10-91deefd526a7","ios":"levelo://app?vid=5d072de5-6e26-44c1-bf10-91deefd526a7"},"vehicle_type_id":"4","last_reported":1746558468,"current_range_meters":9200,"station_id":"ce4bh4p2rcd13ifvqe0g","pricing_plan_id":"cebpf4jnsgd1na2vs0mg"},{"bike_id":"2717ba12-4de0-4525-9a47-4a711d39b0b5","system_id":"levelo_inurba_marseille","lat":43.28722,"lon":5.37935,"is_reserved":false,"is_disabled":false,"rental_uris":{"android":"levelo://app?vid=2717ba12-4de0-4525-9a47-4a711d39b0b5","ios":"levelo://app?vid=2717ba12-4de0-4525-9a47-4a711d39b0b5"},"vehicle_type_id":"4","last_reported":1746558468,"current_range_meters":9200,"station_id":"ce4bh9p2rcd13ifvqec0","pricing_plan_id":"cebpf4jnsgd1na2vs0mg"},{"bike_id":"5319b284-9fdf-41a9-9bbb-dfcfbe13b2d2","system_id":"levelo_inurba_marseille","lat":43.30143,"lon":5.39856,"is_reserved":false,"is_disabled":false,"rental_uris":{"android":"levelo://app?vid=5319b284-9fdf-41a9-9bbb-dfcfbe13b2d2","ios":"levelo://app?vid=5319b284-9fdf-41a9-9bbb-dfcfbe13b2d2"},"vehicle_type_id":"4","last_reported":1746558468,"current_range_meters":9200,"station_id":"ce4bh0h2rcd13ifvqd40","pricing_plan_id":"cebpf4jnsgd1na2vs0mg"},{"bike_id":"934592e9-d06e-4c95-8d4e-847b06115897","system_id":"levelo_inurba_marseille","lat":43.29711,"lon":5.36611,"is_reserved":false,"is_disabled":false,"rental_uris":{"android":"levelo://app?vid=934592e9-d06e-4c95-8d4e-847b06115897","ios":"levelo://app?vid=934592e9-d06e-4c95-8d4e-847b06115897"},"vehicle_type_id":"4","last_reported":1746558468,"current_range_meters":9200,"station_id":"ce4bgn12rcd13ifvqbt0","pricing_plan_id":"cebpf4jnsgd1na2vs0mg"},{"bike_id":"63d47356-dd9a-4684-a110-ebfcdc1131dc","system_id":"levelo_inurba_marseille","lat":43.28603,"lon":5.35071,"is_reserved":false,"is_disabled":false,"rental_uris":{"android":"levelo://app?vid=63d47356-dd9a-4684-a110-ebfcdc1131dc","ios":"levelo://app?vid=63d47356-dd9a-4684-a110-ebfcdc1131dc"},"vehicle_type_id":"4","last_reported":1746558468,"current_range_meters":9200,"station_id":"ce4bhch2rcd13ifvqeug","pricing_plan_id":"cebpf4jnsgd1na2vs0mg"},{"bike_id":"d225b036-ceb2-4e04-9c1c-ca069da40902","system_id":"levelo_inurba_marseille","lat":43.30329,"lon":5.4043,"is_reserved":false,"is_disabled":false,"rental_uris":{"android":"levelo://app?vid=d225b036-ceb2-4e04-9c1c-ca069da40902","ios":"levelo://app?vid=d225b036-ceb2-4e04-9c1c-ca069da40902"},"vehicle_type_id":"4","last_reported":1746558468,"current_range_meters":9200,"station_id":"ce4bh012rcd13ifvqd10","pricing_plan_id":"cebpf4jnsgd1na2vs0mg"},{"bike_id":"07703910-12f2-4099-94a5-1e86138e7f33","system_id":"levelo_inurba_marseille","lat":43.28403,"lon":5.37508,"is_reserved":false,"is_disabled":false,"rental_uris":{"android":"levelo://app?vid=07703910-12f2-4099-94a5-1e86138e7f33","ios":"levelo://app?vid=07703910-12f2-4099-94a5-1e86138e7f33"},"vehicle_type_id":"4","last_reported":1746558468,"current_range_meters":9600,"station_id":"ce4bh412rcd13ifvqds0","pricing_plan_id":"cebpf4jnsgd1na2vs0mg"},{"bike_id":"f91c9c6a-ca19-4d5a-abd8-e4e8f161df08","system_id":"levelo_inurba_marseille","lat":43.303078,"lon":5.369148,"is_reserved":false,"is_disabled":false,"rental_uris":{"android":"levelo://app?vid=f91c9c6a-ca19-4d5a-abd8-e4e8f161df08","ios":"levelo://app?vid=f91c9c6a-ca19-4d5a-abd8-e4e8f161df08"},"vehicle_type_id":"4","last_reported":1746558468,"current_range_meters":9600,"station_id":"ce4bgqh2rcd13ifvqc5g","pricing_plan_id":"cebpf4jnsgd1na2vs0mg"},{"bike_id":"fc453207-e37b-4b13-ae20-4430b65eb533","system_id":"levelo_inurba_marseille","lat":43.32442,"lon":5.39127,"is_reserved":false,"is_disabled":false,"rental_uris":{"android":"levelo://app?vid=fc453207-e37b-4b13-ae20-4430b65eb533","ios":"levelo://app?vid=fc453207-e37b-4b13-ae20-4430b65eb533"},"vehicle_type_id":"4","last_reported":1746558468,"current_range_meters":9600,"station_id":"","pricing_plan_id":"cebpf4jnsgd1na2vs0mg"},{"bike_id":"c9592205-9409-4f74-aed1-7c4141a58caa","system_id":"levelo_inurba_marseille","lat":43.2715,"lon":5.36351,"is_reserved":false,"is_disabled":false,"rental_uris":{"android":"levelo://app?vid=c9592205-9409-4f74-aed1-7c4141a58caa","ios":"levelo://app?vid=c9592205-9409-4f74-aed1-7c4141a58caa"},"vehicle_type_id":"4","last_reported":1746558468,"current_range_meters":9600,"station_id":"","pricing_plan_id":"cebpf4jnsgd1na2vs0mg"},{"bike_id":"57b26eed-5d79-410e-acb8-672086e6cbac","system_id":"levelo_inurba_marseille","lat":43.28497,"lon":5.38568,"is_reserved":false,"is_disabled":false,"rental_uris":{"android":"levelo://app?vid=57b26eed-5d79-410e-acb8-672086e6cbac","ios":"levelo://app?vid=57b26eed-5d79-410e-acb8-672086e6cbac"},"vehicle_type_id":"4","last_reported":1746558468,"current_range_meters":9600,"station_id":"ce4bh8p2rcd13ifvqeb0","pricing_plan_id":"cebpf4jnsgd1na2vs0mg"},{"bike_id":"8c8761aa-874b-475e-ae4a-26f1c1e4a64c","system_id":"levelo_inurba_marseille","lat":43.303139,"lon":5.368987,"is_reserved":false,"is_disabled":false,"rental_uris":{"android":"levelo://app?vid=8c8761aa-874b-475e-ae4a-26f1c1e4a64c","ios":"levelo://app?vid=8c8761aa-874b-475e-ae4a-26f1c1e4a64c"},"vehicle_type_id":"4","last_reported":1746558468,"current_range_meters":8800,"station_id":"ce4bgqh2rcd13ifvqc5g","pricing_plan_id":"cebpf4jnsgd1na2vs0mg"},{"bike_id":"b1f906fb-b80f-4138-9fb4-7aacfd3e5498","system_id":"levelo_inurba_marseille","lat":43.2894,"lon":5.36635,"is_reserved":false,"is_disabled":false,"rental_uris":{"android":"levelo://app?vid=b1f906fb-b80f-4138-9fb4-7aacfd3e5498","ios":"levelo://app?vid=b1f906fb-b80f-4138-9fb4-7aacfd3e5498"},"vehicle_type_id":"4","last_reported":1746558468,"current_range_meters":9600,"station_id":"ce4bhap2rcd13ifvqek0","pricing_plan_id":"cebpf4jnsgd1na2vs0mg"},{"bike_id":"943d0601-5d73-468b-922c-7ef604961a21","system_id":"levelo_inurba_marseille","lat":43.21191,"lon":5.35087,"is_reserved":false,"is_disabled":false,"rental_uris":{"android":"levelo://app?vid=943d0601-5d73-468b-922c-7ef604961a21","ios":"levelo://app?vid=943d0601-5d73-468b-922c-7ef604961a21"},"vehicle_type_id":"4","last_reported":1746558468,"current_range_meters":9600,"station_id":"st_cvj6sg6p6f1abm77japg","pricing_plan_id":"cebpf4jnsgd1na2vs0mg"},{"bike_id":"f4c55194-bbe2-400d-9776-850d55caf59f","system_id":"levelo_inurba_marseille","lat":43.25106,"lon":5.4032,"is_reserved":false,"is_disabled":false,"rental_uris":{"android":"levelo://app?vid=f4c55194-bbe2-400d-9776-850d55caf59f","ios":"levelo://app?vid=f4c55194-bbe2-400d-9776-850d55caf59f"},"vehicle_type_id":"4","last_reported":1746558468,"current_range_meters":9600,"station_id":"ce4bhlh2rcd13ifvqgig","pricing_plan_id":"cebpf4jnsgd1na2vs0mg"},{"bike_id":"9ca898e2-58aa-4a6b-b98c-56b6e5fbd4ff","system_id":"levelo_inurba_marseille","lat":43.28365,"lon":5.386273,"is_reserved":false,"is_disabled":false,"rental_uris":{"android":"levelo://app?vid=9ca898e2-58aa-4a6b-b98c-56b6e5fbd4ff","ios":"levelo://app?vid=9ca898e2-58aa-4a6b-b98c-56b6e5fbd4ff"},"vehicle_type_id":"4","last_reported":1746558468,"current_range_meters":9600,"station_id":"ce4bh492rcd13ifvqdvg","pricing_plan_id":"cebpf4jnsgd1na2vs0mg"},{"bike_id":"2a165751-3c21-4ed3-bda5-aaf3aeab8496","system_id":"levelo_inurba_marseille","lat":43.28877,"lon":5.35869,"is_reserved":false,"is_disabled":false,"rental_uris":{"android":"levelo://app?vid=2a165751-3c21-4ed3-bda5-aaf3aeab8496","ios":"levelo://app?vid=2a165751-3c21-4ed3-bda5-aaf3aeab8496"},"vehicle_type_id":"4","last_reported":1746558468,"current_range_meters":10000,"station_id":"ce4bhb12rcd13ifvqem0","pricing_plan_id":"cebpf4jnsgd1na2vs0mg"},{"bike_id":"3f84d55c-f7b3-443f-a8ba-1f83ba8291a2","system_id":"levelo_inurba_marseille","lat":43.21187,"lon":5.35072,"is_reserved":false,"is_disabled":false,"rental_uris":{"android":"levelo://app?vid=3f84d55c-f7b3-443f-a8ba-1f83ba8291a2","ios":"levelo://app?vid=3f84d55c-f7b3-443f-a8ba-1f83ba8291a2"},"vehicle_type_id":"4","last_reported":1746558468,"current_range_meters":10000,"station_id":"st_cvj6sg6p6f1abm77japg","pricing_plan_id":"cebpf4jnsgd1na2vs0mg"},{"bike_id":"547b2863-0f59-49f2-a94a-9a675706d217","system_id":"levelo_inurba_marseille","lat":43.24806,"lon":5.37457,"is_reserved":false,"is_disabled":false,"rental_uris":{"android":"levelo://app?vid=547b2863-0f59-49f2-a94a-9a675706d217","ios":"levelo://app?vid=547b2863-0f59-49f2-a94a-9a675706d217"},"vehicle_type_id":"4","last_reported":1746558468,"current_range_meters":10000,"station_id":"ce4bhgh2rcd13ifvqfb0","pricing_plan_id":"cebpf4jnsgd1na2vs0mg"},{"bike_id":"6dfdb266-0779-4e92-a863-a5f0ccfd8e31","system_id":"levelo_inurba_marseille","lat":43.2407,"lon":5.37708,"is_reserved":false,"is_disabled":false,"rental_uris":{"android":"levelo://app?vid=6dfdb266-0779-4e92-a863-a5f0ccfd8e31","ios":"levelo://app?vid=6dfdb266-0779-4e92-a863-a5f0ccfd8e31"},"vehicle_type_id":"4","last_reported":1746558468,"current_range_meters":10800,"station_id":"ce4bhnp2rcd13ifvqgvg","pricing_plan_id":"cebpf4jnsgd1na2vs0mg"},{"bike_id":"bb389934-3759-479e-8c4c-c11566cc6c30","system_id":"levelo_inurba_marseille","lat":43.23182,"lon":5.39988,"is_reserved":false,"is_disabled":false,"rental_uris":{"android":"levelo://app?vid=bb389934-3759-479e-8c4c-c11566cc6c30","ios":"levelo://app?vid=bb389934-3759-479e-8c4c-c11566cc6c30"},"vehicle_type_id":"4","last_reported":1746558468,"current_range_meters":10800,"station_id":"ce4bhn12rcd13ifvqgqg","pricing_plan_id":"cebpf4jnsgd1na2vs0mg"},{"bike_id":"d4cd43a4-8d72-4dd2-85aa-8bd944a205ec","system_id":"levelo_inurba_marseille","lat":43.290039,"lon":5.356157,"is_reserved":false,"is_disabled":false,"rental_uris":{"android":"levelo://app?vid=d4cd43a4-8d72-4dd2-85aa-8bd944a205ec","ios":"levelo://app?vid=d4cd43a4-8d72-4dd2-85aa-8bd944a205ec"},"vehicle_type_id":"4","last_reported":1746558468,"current_range_meters":10800,"station_id":"ce4bhb92rcd13ifvqen0","pricing_plan_id":"cebpf4jnsgd1na2vs0mg"},{"bike_id":"1e6ef1b5-4779-4cb6-b6c7-5c78c344b341","system_id":"levelo_inurba_marseille","lat":43.23187,"lon":5.39975,"is_reserved":false,"is_disabled":false,"rental_uris":{"android":"levelo://app?vid=1e6ef1b5-4779-4cb6-b6c7-5c78c344b341","ios":"levelo://app?vid=1e6ef1b5-4779-4cb6-b6c7-5c78c344b341"},"vehicle_type_id":"4","last_reported":1746558468,"current_range_meters":10800,"station_id":"ce4bhn12rcd13ifvqgqg","pricing_plan_id":"cebpf4jnsgd1na2vs0mg"},{"bike_id":"ca7629e2-6b7e-438d-98fc-1f6b5f93a86d","system_id":"levelo_inurba_marseille","lat":43.29569,"lon":5.37515,"is_reserved":false,"is_disabled":false,"rental_uris":{"android":"levelo://app?vid=ca7629e2-6b7e-438d-98fc-1f6b5f93a86d","ios":"levelo://app?vid=ca7629e2-6b7e-438d-98fc-1f6b5f93a86d"},"vehicle_type_id":"4","last_reported":1746558468,"current_range_meters":10800,"station_id":"ce4bgh92rcd13ifvqb50","pricing_plan_id":"cebpf4jnsgd1na2vs0mg"},{"bike_id":"54b46741-8284-4ace-92ab-407b5aa505d3","system_id":"levelo_inurba_marseille","lat":43.28724,"lon":5.36088,"is_reserved":false,"is_disabled":false,"rental_uris":{"android":"levelo://app?vid=54b46741-8284-4ace-92ab-407b5aa505d3","ios":"levelo://app?vid=54b46741-8284-4ace-92ab-407b5aa505d3"},"vehicle_type_id":"4","last_reported":1746558468,"current_range_meters":10800,"station_id":"cki0cbj6b192h4jlfktg","pricing_plan_id":"cebpf4jnsgd1na2vs0mg"},{"bike_id":"d6918ebc-6bfa-45b6-9f2f-bdf2010f816b","system_id":"levelo_inurba_marseille","lat":43.30811,"lon":5.43544,"is_reserved":false,"is_disabled":false,"rental_uris":{"android":"levelo://app?vid=d6918ebc-6bfa-45b6-9f2f-bdf2010f816b","ios":"levelo://app?vid=d6918ebc-6bfa-45b6-9f2f-bdf2010f816b"},"vehicle_type_id":"4","last_reported":1746558468,"current_range_meters":10800,"station_id":"ce4bhph2rcd13ifvqheg","pricing_plan_id":"cebpf4jnsgd1na2vs0mg"},{"bike_id":"70e9affb-ae2b-41a9-b8f4-5c105ea25fa4","system_id":"levelo_inurba_marseille","lat":43.33721,"lon":5.39186,"is_reserved":false,"is_disabled":false,"rental_uris":{"android":"levelo://app?vid=70e9affb-ae2b-41a9-b8f4-5c105ea25fa4","ios":"levelo://app?vid=70e9affb-ae2b-41a9-b8f4-5c105ea25fa4"},"vehicle_type_id":"4","last_reported":1746558468,"current_range_meters":10800,"station_id":"ce4bhr92rcd13ifvqhsg","pricing_plan_id":"cebpf4jnsgd1na2vs0mg"},{"bike_id":"4306f184-814c-4b81-9e97-53fa35efac10","system_id":"levelo_inurba_marseille","lat":43.25864,"lon":5.39892,"is_reserved":false,"is_disabled":false,"rental_uris":{"android":"levelo://app?vid=4306f184-814c-4b81-9e97-53fa35efac10","ios":"levelo://app?vid=4306f184-814c-4b81-9e97-53fa35efac10"},"vehicle_type_id":"4","last_reported":1746558468,"current_range_meters":10800,"station_id":"ce4bhl92rcd13ifvqghg","pricing_plan_id":"cebpf4jnsgd1na2vs0mg"},{"bike_id":"06429970-9694-4a4a-9f8c-82218d92605a","system_id":"levelo_inurba_marseille","lat":43.2998,"lon":5.37177,"is_reserved":false,"is_disabled":false,"rental_uris":{"android":"levelo://app?vid=06429970-9694-4a4a-9f8c-82218d92605a","ios":"levelo://app?vid=06429970-9694-4a4a-9f8c-82218d92605a"},"vehicle_type_id":"4","last_reported":1746558468,"current_range_meters":10800,"station_id":"ce4bgr92rcd13ifvqc7g","pricing_plan_id":"cebpf4jnsgd1na2vs0mg"},{"bike_id":"78de74c5-63f4-4626-a114-606b26a16755","system_id":"levelo_inurba_marseille","lat":43.291323,"lon":5.404794,"is_reserved":false,"is_disabled":false,"rental_uris":{"android":"levelo://app?vid=78de74c5-63f4-4626-a114-606b26a16755","ios":"levelo://app?vid=78de74c5-63f4-4626-a114-606b26a16755"},"vehicle_type_id":"4","last_reported":1746558468,"current_range_meters":10800,"station_id":"ce4bgt92rcd13ifvqcg0","pricing_plan_id":"cebpf4jnsgd1na2vs0mg"},{"bike_id":"e61d9d28-a387-4a61-b1c5-1cbde5b83087","system_id":"levelo_inurba_marseille","lat":43.28418,"lon":5.34978,"is_reserved":false,"is_disabled":false,"rental_uris":{"android":"levelo://app?vid=e61d9d28-a387-4a61-b1c5-1cbde5b83087","ios":"levelo://app?vid=e61d9d28-a387-4a61-b1c5-1cbde5b83087"},"vehicle_type_id":"4","last_reported":1746558468,"current_range_meters":11200,"station_id":"ce4bhbh2rcd13ifvqepg","pricing_plan_id":"cebpf4jnsgd1na2vs0mg"},{"bike_id":"cc330a67-93ec-42aa-a6a1-316e0188c175","system_id":"levelo_inurba_marseille","lat":43.27998,"lon":5.40009,"is_reserved":false,"is_disabled":false,"rental_uris":{"android":"levelo://app?vid=cc330a67-93ec-42aa-a6a1-316e0188c175","ios":"levelo://app?vid=cc330a67-93ec-42aa-a6a1-316e0188c175"},"vehicle_type_id":"4","last_reported":1746558468,"current_range_meters":11200,"station_id":"ce4bho92rcd13ifvqh4g","pricing_plan_id":"cebpf4jnsgd1na2vs0mg"},{"bike_id":"b46d723b-8f06-4357-b119-704e101feadd","system_id":"levelo_inurba_marseille","lat":43.25118,"lon":5.40315,"is_reserved":false,"is_disabled":false,"rental_uris":{"android":"levelo://app?vid=b46d723b-8f06-4357-b119-704e101feadd","ios":"levelo://app?vid=b46d723b-8f06-4357-b119-704e101feadd"},"vehicle_type_id":"4","last_reported":1746558468,"current_range_meters":11200,"station_id":"ce4bhlh2rcd13ifvqgig","pricing_plan_id":"cebpf4jnsgd1na2vs0mg"},{"bike_id":"f211c71f-a384-40ca-85fb-549ebc533646","system_id":"levelo_inurba_marseille","lat":43.29525,"lon":5.39405,"is_reserved":false,"is_disabled":false,"rental_uris":{"android":"levelo://app?vid=f211c71f-a384-40ca-85fb-549ebc533646","ios":"levelo://app?vid=f211c71f-a384-40ca-85fb-549ebc533646"},"vehicle_type_id":"4","last_reported":1746558468,"current_range_meters":11200,"station_id":"ce4bh292rcd13ifvqdf0","pricing_plan_id":"cebpf4jnsgd1na2vs0mg"},{"bike_id":"259f3af3-79c9-447f-9ddf-4ef9f2059b0b","system_id":"levelo_inurba_marseille","lat":43.28346,"lon":5.38114,"is_reserved":false,"is_disabled":false,"rental_uris":{"android":"levelo://app?vid=259f3af3-79c9-447f-9ddf-4ef9f2059b0b","ios":"levelo://app?vid=259f3af3-79c9-447f-9ddf-4ef9f2059b0b"},"vehicle_type_id":"4","last_reported":1746558468,"current_range_meters":11200,"station_id":"ce4bh412rcd13ifvqdr0","pricing_plan_id":"cebpf4jnsgd1na2vs0mg"},{"bike_id":"4d41f66c-f615-49b2-a6d7-735e22d421fb","system_id":"levelo_inurba_marseille","lat":43.23182,"lon":5.39977,"is_reserved":false,"is_disabled":false,"rental_uris":{"android":"levelo://app?vid=4d41f66c-f615-49b2-a6d7-735e22d421fb","ios":"levelo://app?vid=4d41f66c-f615-49b2-a6d7-735e22d421fb"},"vehicle_type_id":"4","last_reported":1746558468,"current_range_meters":11200,"station_id":"ce4bhn12rcd13ifvqgqg","pricing_plan_id":"cebpf4jnsgd1na2vs0mg"},{"bike_id":"8d31de6f-b022-4d8a-a11c-2fb279e9f105","system_id":"levelo_inurba_marseille","lat":43.284043,"lon":5.350036,"is_reserved":false,"is_disabled":false,"rental_uris":{"android":"levelo://app?vid=8d31de6f-b022-4d8a-a11c-2fb279e9f105","ios":"levelo://app?vid=8d31de6f-b022-4d8a-a11c-2fb279e9f105"},"vehicle_type_id":"4","last_reported":1746558468,"current_range_meters":11200,"station_id":"ce4bhbh2rcd13ifvqepg","pricing_plan_id":"cebpf4jnsgd1na2vs0mg"},{"bike_id":"aa0ff8ba-f75a-4963-8e38-b1ad71967fad","system_id":"levelo_inurba_marseille","lat":43.265033,"lon":5.395053,"is_reserved":false,"is_disabled":false,"rental_uris":{"android":"levelo://app?vid=aa0ff8ba-f75a-4963-8e38-b1ad71967fad","ios":"levelo://app?vid=aa0ff8ba-f75a-4963-8e38-b1ad71967fad"},"vehicle_type_id":"4","last_reported":1746558468,"current_range_meters":11600,"station_id":"ce4bhi12rcd13ifvqfq0","pricing_plan_id":"cebpf4jnsgd1na2vs0mg"},{"bike_id":"b9d889a1-6f8f-4145-8432-407a3df656c7","system_id":"levelo_inurba_marseille","lat":43.2415,"lon":5.364,"is_reserved":false,"is_disabled":false,"rental_uris":{"android":"levelo://app?vid=b9d889a1-6f8f-4145-8432-407a3df656c7","ios":"levelo://app?vid=b9d889a1-6f8f-4145-8432-407a3df656c7"},"vehicle_type_id":"4","last_reported":1746558468,"current_range_meters":11600,"station_id":"cpo36qri1sfpv3e86is0","pricing_plan_id":"cebpf4jnsgd1na2vs0mg"},{"bike_id":"8a8fd79a-1a57-4265-824d-bac8064bcc57","system_id":"levelo_inurba_marseille","lat":43.30416,"lon":5.39751,"is_reserved":false,"is_disabled":false,"rental_uris":{"android":"levelo://app?vid=8a8fd79a-1a57-4265-824d-bac8064bcc57","ios":"levelo://app?vid=8a8fd79a-1a57-4265-824d-bac8064bcc57"},"vehicle_type_id":"4","last_reported":1746558468,"current_range_meters":11600,"station_id":"ce4bh092rcd13ifvqd20","pricing_plan_id":"cebpf4jnsgd1na2vs0mg"},{"bike_id":"6bcc1792-d954-4f19-a71b-5fed526aa645","system_id":"levelo_inurba_marseille","lat":43.23959,"lon":5.36628,"is_reserved":false,"is_disabled":false,"rental_uris":{"android":"levelo://app?vid=6bcc1792-d954-4f19-a71b-5fed526aa645","ios":"levelo://app?vid=6bcc1792-d954-4f19-a71b-5fed526aa645"},"vehicle_type_id":"4","last_reported":1746558468,"current_range_meters":11600,"station_id":"ce4bhi12rcd13ifvqfp0","pricing_plan_id":"cebpf4jnsgd1na2vs0mg"},{"bike_id":"b6be7bf1-9d8c-4b04-8ff2-edb645f0d4fc","system_id":"levelo_inurba_marseille","lat":43.28408,"lon":5.37511,"is_reserved":false,"is_disabled":false,"rental_uris":{"android":"levelo://app?vid=b6be7bf1-9d8c-4b04-8ff2-edb645f0d4fc","ios":"levelo://app?vid=b6be7bf1-9d8c-4b04-8ff2-edb645f0d4fc"},"vehicle_type_id":"4","last_reported":1746558468,"current_range_meters":11600,"station_id":"ce4bh412rcd13ifvqds0","pricing_plan_id":"cebpf4jnsgd1na2vs0mg"},{"bike_id":"2d73ce65-24f5-4297-9a15-a1a2ba8c1d9a","system_id":"levelo_inurba_marseille","lat":43.24646,"lon":5.38897,"is_reserved":false,"is_disabled":false,"rental_uris":{"android":"levelo://app?vid=2d73ce65-24f5-4297-9a15-a1a2ba8c1d9a","ios":"levelo://app?vid=2d73ce65-24f5-4297-9a15-a1a2ba8c1d9a"},"vehicle_type_id":"4","last_reported":1746558468,"current_range_meters":11600,"station_id":"ce4bhg12rcd13ifvqf60","pricing_plan_id":"cebpf4jnsgd1na2vs0mg"},{"bike_id":"1b756e6c-c8cb-4927-a571-fd986fba6543","system_id":"levelo_inurba_marseille","lat":43.28611,"lon":5.37056,"is_reserved":false,"is_disabled":false,"rental_uris":{"android":"levelo://app?vid=1b756e6c-c8cb-4927-a571-fd986fba6543","ios":"levelo://app?vid=1b756e6c-c8cb-4927-a571-fd986fba6543"},"vehicle_type_id":"4","last_reported":1746558468,"current_range_meters":11600,"station_id":"ce4bht12rcd13ifvqi60","pricing_plan_id":"cebpf4jnsgd1na2vs0mg"},{"bike_id":"483ab54c-d982-4120-96aa-95bad8859e8a","system_id":"levelo_inurba_marseille","lat":43.279725,"lon":5.397391,"is_reserved":false,"is_disabled":false,"rental_uris":{"android":"levelo://app?vid=483ab54c-d982-4120-96aa-95bad8859e8a","ios":"levelo://app?vid=483ab54c-d982-4120-96aa-95bad8859e8a"},"vehicle_type_id":"4","last_reported":1746558468,"current_range_meters":11600,"station_id":"ce4bhf92rcd13ifvqf40","pricing_plan_id":"cebpf4jnsgd1na2vs0mg"},{"bike_id":"73b5c333-97cd-43b6-9d08-007bad2ca597","system_id":"levelo_inurba_marseille","lat":43.32276,"lon":5.38263,"is_reserved":false,"is_disabled":false,"rental_uris":{"android":"levelo://app?vid=73b5c333-97cd-43b6-9d08-007bad2ca597","ios":"levelo://app?vid=73b5c333-97cd-43b6-9d08-007bad2ca597"},"vehicle_type_id":"4","last_reported":1746558468,"current_range_meters":11600,"station_id":"ce4bhr12rcd13ifvqhqg","pricing_plan_id":"cebpf4jnsgd1na2vs0mg"},{"bike_id":"2d34c47c-7e86-4bb4-ab5f-8da030cb95d8","system_id":"levelo_inurba_marseille","lat":43.26226,"lon":5.40456,"is_reserved":false,"is_disabled":false,"rental_uris":{"android":"levelo://app?vid=2d34c47c-7e86-4bb4-ab5f-8da030cb95d8","ios":"levelo://app?vid=2d34c47c-7e86-4bb4-ab5f-8da030cb95d8"},"vehicle_type_id":"4","last_reported":1746558468,"current_range_meters":12000,"station_id":"ce4bhmh2rcd13ifvqgmg","pricing_plan_id":"cebpf4jnsgd1na2vs0mg"},{"bike_id":"fbe5b04d-50b7-4cef-84de-a325f66b60f2","system_id":"levelo_inurba_marseille","lat":43.25819,"lon":5.39425,"is_reserved":false,"is_disabled":false,"rental_uris":{"android":"levelo://app?vid=fbe5b04d-50b7-4cef-84de-a325f66b60f2","ios":"levelo://app?vid=fbe5b04d-50b7-4cef-84de-a325f66b60f2"},"vehicle_type_id":"4","last_reported":1746558468,"current_range_meters":12000,"station_id":"ce4bhip2rcd13ifvqft0","pricing_plan_id":"cebpf4jnsgd1na2vs0mg"},{"bike_id":"fdf6e58c-1804-4551-a077-0288af349026","system_id":"levelo_inurba_marseille","lat":43.30413,"lon":5.39764,"is_reserved":false,"is_disabled":false,"rental_uris":{"android":"levelo://app?vid=fdf6e58c-1804-4551-a077-0288af349026","ios":"levelo://app?vid=fdf6e58c-1804-4551-a077-0288af349026"},"vehicle_type_id":"4","last_reported":1746558468,"current_range_meters":12000,"station_id":"ce4bh092rcd13ifvqd20","pricing_plan_id":"cebpf4jnsgd1na2vs0mg"},{"bike_id":"bab57e29-1b43-40e7-87ee-968e5ea56319","system_id":"levelo_inurba_marseille","lat":43.32368,"lon":5.38877,"is_reserved":false,"is_disabled":false,"rental_uris":{"android":"levelo://app?vid=bab57e29-1b43-40e7-87ee-968e5ea56319","ios":"levelo://app?vid=bab57e29-1b43-40e7-87ee-968e5ea56319"},"vehicle_type_id":"4","last_reported":1746558468,"current_range_meters":12000,"station_id":"ce4bhqp2rcd13ifvqhog","pricing_plan_id":"cebpf4jnsgd1na2vs0mg"},{"bike_id":"8948fd36-c574-4150-bdac-cf1ea4f54ae5","system_id":"levelo_inurba_marseille","lat":43.32283,"lon":5.38276,"is_reserved":false,"is_disabled":false,"rental_uris":{"android":"levelo://app?vid=8948fd36-c574-4150-bdac-cf1ea4f54ae5","ios":"levelo://app?vid=8948fd36-c574-4150-bdac-cf1ea4f54ae5"},"vehicle_type_id":"4","last_reported":1746558468,"current_range_meters":12000,"station_id":"ce4bhr12rcd13ifvqhqg","pricing_plan_id":"cebpf4jnsgd1na2vs0mg"},{"bike_id":"01e8ba8a-d090-4627-9d1b-6b37b8fc33f6","system_id":"levelo_inurba_marseille","lat":43.31136,"lon":5.37759,"is_reserved":false,"is_disabled":false,"rental_uris":{"android":"levelo://app?vid=01e8ba8a-d090-4627-9d1b-6b37b8fc33f6","ios":"levelo://app?vid=01e8ba8a-d090-4627-9d1b-6b37b8fc33f6"},"vehicle_type_id":"4","last_reported":1746558468,"current_range_meters":12000,"station_id":"ce4bgt92rcd13ifvqcg0","pricing_plan_id":"cebpf4jnsgd1na2vs0mg"},{"bike_id":"f6f8be95-bd77-427a-b7a3-805ab4a78fe7","system_id":"levelo_inurba_marseille","lat":43.28402,"lon":5.34987,"is_reserved":false,"is_disabled":false,"rental_uris":{"android":"levelo://app?vid=f6f8be95-bd77-427a-b7a3-805ab4a78fe7","ios":"levelo://app?vid=f6f8be95-bd77-427a-b7a3-805ab4a78fe7"},"vehicle_type_id":"4","last_reported":1746558468,"current_range_meters":12000,"station_id":"ce4bhbh2rcd13ifvqepg","pricing_plan_id":"cebpf4jnsgd1na2vs0mg"},{"bike_id":"88886cff-ff3e-4ef1-87fd-ca4c5cbf29da","system_id":"levelo_inurba_marseille","lat":43.27993,"lon":5.40002,"is_reserved":false,"is_disabled":false,"rental_uris":{"android":"levelo://app?vid=88886cff-ff3e-4ef1-87fd-ca4c5cbf29da","ios":"levelo://app?vid=88886cff-ff3e-4ef1-87fd-ca4c5cbf29da"},"vehicle_type_id":"4","last_reported":1746558468,"current_range_meters":12400,"station_id":"ce4bho92rcd13ifvqh4g","pricing_plan_id":"cebpf4jnsgd1na2vs0mg"},{"bike_id":"b4bac287-3615-423a-bca2-a11fb80cb066","system_id":"levelo_inurba_marseille","lat":43.23059,"lon":5.3552,"is_reserved":false,"is_disabled":false,"rental_uris":{"android":"levelo://app?vid=b4bac287-3615-423a-bca2-a11fb80cb066","ios":"levelo://app?vid=b4bac287-3615-423a-bca2-a11fb80cb066"},"vehicle_type_id":"4","last_reported":1746558468,"current_range_meters":12400,"station_id":"cpo3342slgdg3j2ifvpg","pricing_plan_id":"cebpf4jnsgd1na2vs0mg"},{"bike_id":"065dfa79-5129-4665-ba10-4a802102a715","system_id":"levelo_inurba_marseille","lat":43.317294,"lon":5.424026,"is_reserved":false,"is_disabled":false,"rental_uris":{"android":"levelo://app?vid=065dfa79-5129-4665-ba10-4a802102a715","ios":"levelo://app?vid=065dfa79-5129-4665-ba10-4a802102a715"},"vehicle_type_id":"4","last_reported":1746558468,"current_range_meters":12400,"station_id":"ce4bhp92rcd13ifvqhbg","pricing_plan_id":"cebpf4jnsgd1na2vs0mg"},{"bike_id":"d5100ce8-dc7c-4305-896a-12a1cb76d6ad","system_id":"levelo_inurba_marseille","lat":43.29871,"lon":5.39732,"is_reserved":false,"is_disabled":false,"rental_uris":{"android":"levelo://app?vid=d5100ce8-dc7c-4305-896a-12a1cb76d6ad","ios":"levelo://app?vid=d5100ce8-dc7c-4305-896a-12a1cb76d6ad"},"vehicle_type_id":"4","last_reported":1746558468,"current_range_meters":12400,"station_id":"ce4bh0h2rcd13ifvqd50","pricing_plan_id":"cebpf4jnsgd1na2vs0mg"},{"bike_id":"01fcec95-3428-4909-8b09-3e9bffa7dbcf","system_id":"levelo_inurba_marseille","lat":43.24806,"lon":5.37453,"is_reserved":false,"is_disabled":false,"rental_uris":{"android":"levelo://app?vid=01fcec95-3428-4909-8b09-3e9bffa7dbcf","ios":"levelo://app?vid=01fcec95-3428-4909-8b09-3e9bffa7dbcf"},"vehicle_type_id":"4","last_reported":1746558468,"current_range_meters":12400,"station_id":"ce4bhgh2rcd13ifvqfb0","pricing_plan_id":"cebpf4jnsgd1na2vs0mg"},{"bike_id":"971f0407-6520-42bd-a553-96af86cafd7e","system_id":"levelo_inurba_marseille","lat":43.31072,"lon":5.38355,"is_reserved":false,"is_disabled":false,"rental_uris":{"android":"levelo://app?vid=971f0407-6520-42bd-a553-96af86cafd7e","ios":"levelo://app?vid=971f0407-6520-42bd-a553-96af86cafd7e"},"vehicle_type_id":"4","last_reported":1746558468,"current_range_meters":12400,"station_id":"ce4bgv92rcd13ifvqcr0","pricing_plan_id":"cebpf4jnsgd1na2vs0mg"},{"bike_id":"084e446d-94e6-48a4-8a45-501eaaf97335","system_id":"levelo_inurba_marseille","lat":43.297893,"lon":5.393514,"is_reserved":false,"is_disabled":false,"rental_uris":{"android":"levelo://app?vid=084e446d-94e6-48a4-8a45-501eaaf97335","ios":"levelo://app?vid=084e446d-94e6-48a4-8a45-501eaaf97335"},"vehicle_type_id":"4","last_reported":1746558468,"current_range_meters":12400,"station_id":"chh1huq6cuj3fo74tm60","pricing_plan_id":"cebpf4jnsgd1na2vs0mg"},{"bike_id":"195b0ab4-89bd-4a4a-933c-5f3d91cd9f3e","system_id":"levelo_inurba_marseille","lat":43.29533,"lon":5.37508,"is_reserved":false,"is_disabled":false,"rental_uris":{"android":"levelo://app?vid=195b0ab4-89bd-4a4a-933c-5f3d91cd9f3e","ios":"levelo://app?vid=195b0ab4-89bd-4a4a-933c-5f3d91cd9f3e"},"vehicle_type_id":"4","last_reported":1746558468,"current_range_meters":12400,"station_id":"ce4bgkp2rcd13ifvqbmg","pricing_plan_id":"cebpf4jnsgd1na2vs0mg"},{"bike_id":"4b717f06-ead9-4d1e-afdc-d51ea5fbfe8b","system_id":"levelo_inurba_marseille","lat":43.27797,"lon":5.40691,"is_reserved":false,"is_disabled":false,"rental_uris":{"android":"levelo://app?vid=4b717f06-ead9-4d1e-afdc-d51ea5fbfe8b","ios":"levelo://app?vid=4b717f06-ead9-4d1e-afdc-d51ea5fbfe8b"},"vehicle_type_id":"4","last_reported":1746558468,"current_range_meters":12800,"station_id":"ce4bhnh2rcd13ifvqgtg","pricing_plan_id":"cebpf4jnsgd1na2vs0mg"},{"bike_id":"b3920b57-95ec-4fd9-9773-ab280cf43e13","system_id":"levelo_inurba_marseille","lat":43.2887,"lon":5.35844,"is_reserved":false,"is_disabled":false,"rental_uris":{"android":"levelo://app?vid=b3920b57-95ec-4fd9-9773-ab280cf43e13","ios":"levelo://app?vid=b3920b57-95ec-4fd9-9773-ab280cf43e13"},"vehicle_type_id":"4","last_reported":1746558468,"current_range_meters":12800,"station_id":"ce4bhb12rcd13ifvqem0","pricing_plan_id":"cebpf4jnsgd1na2vs0mg"},{"bike_id":"cd8437e8-91c3-475f-a86d-677c41b3e1c6","system_id":"levelo_inurba_marseille","lat":43.29258,"lon":5.40911,"is_reserved":false,"is_disabled":false,"rental_uris":{"android":"levelo://app?vid=cd8437e8-91c3-475f-a86d-677c41b3e1c6","ios":"levelo://app?vid=cd8437e8-91c3-475f-a86d-677c41b3e1c6"},"vehicle_type_id":"4","last_reported":1746558468,"current_range_meters":12800,"station_id":"ce4bh192rcd13ifvqdc0","pricing_plan_id":"cebpf4jnsgd1na2vs0mg"},{"bike_id":"8a5554a2-b62f-4371-8d49-519ad97fb9f1","system_id":"levelo_inurba_marseille","lat":43.33016,"lon":5.39036,"is_reserved":false,"is_disabled":false,"rental_uris":{"android":"levelo://app?vid=8a5554a2-b62f-4371-8d49-519ad97fb9f1","ios":"levelo://app?vid=8a5554a2-b62f-4371-8d49-519ad97fb9f1"},"vehicle_type_id":"4","last_reported":1746558468,"current_range_meters":12800,"station_id":"ce4bhr92rcd13ifvqhrg","pricing_plan_id":"cebpf4jnsgd1na2vs0mg"},{"bike_id":"775e3c01-f645-4ada-ae8a-03269c8d670c","system_id":"levelo_inurba_marseille","lat":43.29781,"lon":5.39355,"is_reserved":false,"is_disabled":false,"rental_uris":{"android":"levelo://app?vid=775e3c01-f645-4ada-ae8a-03269c8d670c","ios":"levelo://app?vid=775e3c01-f645-4ada-ae8a-03269c8d670c"},"vehicle_type_id":"4","last_reported":1746558468,"current_range_meters":13600,"station_id":"chh1huq6cuj3fo74tm60","pricing_plan_id":"cebpf4jnsgd1na2vs0mg"},{"bike_id":"3bc057d9-25f5-4f99-89d6-46a70121c5b9","system_id":"levelo_inurba_marseille","lat":43.29006,"lon":5.35614,"is_reserved":false,"is_disabled":false,"rental_uris":{"android":"levelo://app?vid=3bc057d9-25f5-4f99-89d6-46a70121c5b9","ios":"levelo://app?vid=3bc057d9-25f5-4f99-89d6-46a70121c5b9"},"vehicle_type_id":"4","last_reported":1746558468,"current_range_meters":14400,"station_id":"ce4bhb92rcd13ifvqen0","pricing_plan_id":"cebpf4jnsgd1na2vs0mg"},{"bike_id":"741922f7-49ff-4751-a228-5a73f2c8c24d","system_id":"levelo_inurba_marseille","lat":43.24169,"lon":5.36413,"is_reserved":false,"is_disabled":false,"rental_uris":{"android":"levelo://app?vid=741922f7-49ff-4751-a228-5a73f2c8c24d","ios":"levelo://app?vid=741922f7-49ff-4751-a228-5a73f2c8c24d"},"vehicle_type_id":"4","last_reported":1746558468,"current_range_meters":13600,"station_id":"cpo36qri1sfpv3e86is0","pricing_plan_id":"cebpf4jnsgd1na2vs0mg"},{"bike_id":"dc90576c-f730-41fd-9e01-287913e4bb42","system_id":"levelo_inurba_marseille","lat":43.31694,"lon":5.40461,"is_reserved":false,"is_disabled":false,"rental_uris":{"android":"levelo://app?vid=dc90576c-f730-41fd-9e01-287913e4bb42","ios":"levelo://app?vid=dc90576c-f730-41fd-9e01-287913e4bb42"},"vehicle_type_id":"4","last_reported":1746558468,"current_range_meters":16400,"station_id":"ce4bh012rcd13ifvqd00","pricing_plan_id":"cebpf4jnsgd1na2vs0mg"},{"bike_id":"045f1e36-2098-4186-9c6e-0401ef46e996","system_id":"levelo_inurba_marseille","lat":43.28924,"lon":5.36395,"is_reserved":false,"is_disabled":false,"rental_uris":{"android":"levelo://app?vid=045f1e36-2098-4186-9c6e-0401ef46e996","ios":"levelo://app?vid=045f1e36-2098-4186-9c6e-0401ef46e996"},"vehicle_type_id":"4","last_reported":1746558468,"current_range_meters":14000,"station_id":"ce4bhc92rcd13ifvqetg","pricing_plan_id":"cebpf4jnsgd1na2vs0mg"},{"bike_id":"5ca0cdd3-986b-405d-a3f7-122ee59b5450","system_id":"levelo_inurba_marseille","lat":43.2867,"lon":5.36359,"is_reserved":false,"is_disabled":false,"rental_uris":{"android":"levelo://app?vid=5ca0cdd3-986b-405d-a3f7-122ee59b5450","ios":"levelo://app?vid=5ca0cdd3-986b-405d-a3f7-122ee59b5450"},"vehicle_type_id":"4","last_reported":1746558468,"current_range_meters":14000,"station_id":"ce4bhah2rcd13ifvqej0","pricing_plan_id":"cebpf4jnsgd1na2vs0mg"},{"bike_id":"a72b9f11-2337-45cd-934a-1a5dcb26adef","system_id":"levelo_inurba_marseille","lat":43.30245,"lon":5.40055,"is_reserved":false,"is_disabled":false,"rental_uris":{"android":"levelo://app?vid=a72b9f11-2337-45cd-934a-1a5dcb26adef","ios":"levelo://app?vid=a72b9f11-2337-45cd-934a-1a5dcb26adef"},"vehicle_type_id":"4","last_reported":1746558468,"current_range_meters":14000,"station_id":"ce4bgvh2rcd13ifvqcs0","pricing_plan_id":"cebpf4jnsgd1na2vs0mg"},{"bike_id":"c65b64f5-a38f-4b33-a48f-6bb6c6b32a53","system_id":"levelo_inurba_marseille","lat":43.2117,"lon":5.35076,"is_reserved":false,"is_disabled":false,"rental_uris":{"android":"levelo://app?vid=c65b64f5-a38f-4b33-a48f-6bb6c6b32a53","ios":"levelo://app?vid=c65b64f5-a38f-4b33-a48f-6bb6c6b32a53"},"vehicle_type_id":"4","last_reported":1746558468,"current_range_meters":14000,"station_id":"st_cvj6sg6p6f1abm77japg","pricing_plan_id":"cebpf4jnsgd1na2vs0mg"},{"bike_id":"e53f6154-d4c1-4ccf-bb29-99f8ff031a67","system_id":"levelo_inurba_marseille","lat":43.29297,"lon":5.3746,"is_reserved":false,"is_disabled":false,"rental_uris":{"android":"levelo://app?vid=e53f6154-d4c1-4ccf-bb29-99f8ff031a67","ios":"levelo://app?vid=e53f6154-d4c1-4ccf-bb29-99f8ff031a67"},"vehicle_type_id":"4","last_reported":1746558468,"current_range_meters":14000,"station_id":"ce4bgi12rcd13ifvqb70","pricing_plan_id":"cebpf4jnsgd1na2vs0mg"},{"bike_id":"841b3378-f2a0-468e-8e16-6029eea4b796","system_id":"levelo_inurba_marseille","lat":43.302644,"lon":5.397238,"is_reserved":false,"is_disabled":false,"rental_uris":{"android":"levelo://app?vid=841b3378-f2a0-468e-8e16-6029eea4b796","ios":"levelo://app?vid=841b3378-f2a0-468e-8e16-6029eea4b796"},"vehicle_type_id":"4","last_reported":1746558468,"current_range_meters":14800,"station_id":"ce4bgi12rcd13ifvqb70","pricing_plan_id":"cebpf4jnsgd1na2vs0mg"},{"bike_id":"c0c9b625-2ed9-4025-8036-243e1cf4c3d6","system_id":"levelo_inurba_marseille","lat":43.25125,"lon":5.4032,"is_reserved":false,"is_disabled":false,"rental_uris":{"android":"levelo://app?vid=c0c9b625-2ed9-4025-8036-243e1cf4c3d6","ios":"levelo://app?vid=c0c9b625-2ed9-4025-8036-243e1cf4c3d6"},"vehicle_type_id":"4","last_reported":1746558468,"current_range_meters":14000,"station_id":"ce4bhlh2rcd13ifvqgig","pricing_plan_id":"cebpf4jnsgd1na2vs0mg"},{"bike_id":"e0259c6f-61df-44c2-a968-1623b664c2b5","system_id":"levelo_inurba_marseille","lat":43.245433,"lon":5.395337,"is_reserved":false,"is_disabled":false,"rental_uris":{"android":"levelo://app?vid=e0259c6f-61df-44c2-a968-1623b664c2b5","ios":"levelo://app?vid=e0259c6f-61df-44c2-a968-1623b664c2b5"},"vehicle_type_id":"4","last_reported":1746558468,"current_range_meters":14400,"station_id":"ce4bhlp2rcd13ifvqgjg","pricing_plan_id":"cebpf4jnsgd1na2vs0mg"},{"bike_id":"2f253e50-e18c-4e13-a886-aa02db76619d","system_id":"levelo_inurba_marseille","lat":43.29245,"lon":5.40905,"is_reserved":false,"is_disabled":false,"rental_uris":{"android":"levelo://app?vid=2f253e50-e18c-4e13-a886-aa02db76619d","ios":"levelo://app?vid=2f253e50-e18c-4e13-a886-aa02db76619d"},"vehicle_type_id":"4","last_reported":1746558468,"current_range_meters":14400,"station_id":"ce4bh192rcd13ifvqdc0","pricing_plan_id":"cebpf4jnsgd1na2vs0mg"},{"bike_id":"747da85d-16f7-46ac-bee6-c3f3a0c126c7","system_id":"levelo_inurba_marseille","lat":43.31531,"lon":5.3803,"is_reserved":false,"is_disabled":false,"rental_uris":{"android":"levelo://app?vid=747da85d-16f7-46ac-bee6-c3f3a0c126c7","ios":"levelo://app?vid=747da85d-16f7-46ac-bee6-c3f3a0c126c7"},"vehicle_type_id":"4","last_reported":1746558468,"current_range_meters":14400,"station_id":"ce4bhsp2rcd13ifvqi50","pricing_plan_id":"cebpf4jnsgd1na2vs0mg"},{"bike_id":"ef85df44-c572-4b38-9810-58afe892c9f4","system_id":"levelo_inurba_marseille","lat":43.271787,"lon":5.409906,"is_reserved":false,"is_disabled":false,"rental_uris":{"android":"levelo://app?vid=ef85df44-c572-4b38-9810-58afe892c9f4","ios":"levelo://app?vid=ef85df44-c572-4b38-9810-58afe892c9f4"},"vehicle_type_id":"4","last_reported":1746558468,"current_range_meters":14400,"station_id":"ce4bhl12rcd13ifvqgf0","pricing_plan_id":"cebpf4jnsgd1na2vs0mg"},{"bike_id":"741b5e6c-e68b-4cb1-9a29-8e3cb21e4228","system_id":"levelo_inurba_marseille","lat":43.29257,"lon":5.384472,"is_reserved":false,"is_disabled":false,"rental_uris":{"android":"levelo://app?vid=741b5e6c-e68b-4cb1-9a29-8e3cb21e4228","ios":"levelo://app?vid=741b5e6c-e68b-4cb1-9a29-8e3cb21e4228"},"vehicle_type_id":"4","last_reported":1746558468,"current_range_meters":14800,"station_id":"ce4bh692rcd13ifvqea0","pricing_plan_id":"cebpf4jnsgd1na2vs0mg"},{"bike_id":"45e935bb-12b3-487a-8c03-8e3cc190c27e","system_id":"levelo_inurba_marseille","lat":43.29775,"lon":5.3935,"is_reserved":false,"is_disabled":false,"rental_uris":{"android":"levelo://app?vid=45e935bb-12b3-487a-8c03-8e3cc190c27e","ios":"levelo://app?vid=45e935bb-12b3-487a-8c03-8e3cc190c27e"},"vehicle_type_id":"4","last_reported":1746558468,"current_range_meters":14800,"station_id":"chh1huq6cuj3fo74tm60","pricing_plan_id":"cebpf4jnsgd1na2vs0mg"},{"bike_id":"3449f5a6-3a32-42e4-80f5-febe993551c6","system_id":"levelo_inurba_marseille","lat":43.26226,"lon":5.40451,"is_reserved":false,"is_disabled":false,"rental_uris":{"android":"levelo://app?vid=3449f5a6-3a32-42e4-80f5-febe993551c6","ios":"levelo://app?vid=3449f5a6-3a32-42e4-80f5-febe993551c6"},"vehicle_type_id":"4","last_reported":1746558468,"current_range_meters":14800,"station_id":"ce4bhmh2rcd13ifvqgmg","pricing_plan_id":"cebpf4jnsgd1na2vs0mg"},{"bike_id":"a51a1fd0-69f0-475f-9ec0-30d5889779ac","system_id":"levelo_inurba_marseille","lat":43.32282,"lon":5.382625,"is_reserved":false,"is_disabled":false,"rental_uris":{"android":"levelo://app?vid=a51a1fd0-69f0-475f-9ec0-30d5889779ac","ios":"levelo://app?vid=a51a1fd0-69f0-475f-9ec0-30d5889779ac"},"vehicle_type_id":"4","last_reported":1746558468,"current_range_meters":14800,"station_id":"ce4bhr12rcd13ifvqhqg","pricing_plan_id":"cebpf4jnsgd1na2vs0mg"},{"bike_id":"9b8a00ec-fdb2-49a0-ab5c-2b782631ffeb","system_id":"levelo_inurba_marseille","lat":43.29005,"lon":5.356,"is_reserved":false,"is_disabled":false,"rental_uris":{"android":"levelo://app?vid=9b8a00ec-fdb2-49a0-ab5c-2b782631ffeb","ios":"levelo://app?vid=9b8a00ec-fdb2-49a0-ab5c-2b782631ffeb"},"vehicle_type_id":"4","last_reported":1746558468,"current_range_meters":15200,"station_id":"ce4bhb92rcd13ifvqen0","pricing_plan_id":"cebpf4jnsgd1na2vs0mg"},{"bike_id":"05777be0-d2e1-4b71-8c20-31bdf8bdaa36","system_id":"levelo_inurba_marseille","lat":43.292634,"lon":5.37627,"is_reserved":false,"is_disabled":false,"rental_uris":{"android":"levelo://app?vid=05777be0-d2e1-4b71-8c20-31bdf8bdaa36","ios":"levelo://app?vid=05777be0-d2e1-4b71-8c20-31bdf8bdaa36"},"vehicle_type_id":"4","last_reported":1746558468,"current_range_meters":15200,"station_id":"ce4bgi12rcd13ifvqb80","pricing_plan_id":"cebpf4jnsgd1na2vs0mg"},{"bike_id":"b924cd14-1512-49a3-aadb-c4fd99a0106d","system_id":"levelo_inurba_marseille","lat":43.29004,"lon":5.35617,"is_reserved":false,"is_disabled":false,"rental_uris":{"android":"levelo://app?vid=b924cd14-1512-49a3-aadb-c4fd99a0106d","ios":"levelo://app?vid=b924cd14-1512-49a3-aadb-c4fd99a0106d"},"vehicle_type_id":"4","last_reported":1746558468,"current_range_meters":15200,"station_id":"ce4bhb92rcd13ifvqen0","pricing_plan_id":"cebpf4jnsgd1na2vs0mg"},{"bike_id":"99eeff29-fc2f-4687-8dc7-d8505cafdca3","system_id":"levelo_inurba_marseille","lat":43.28088,"lon":5.39636,"is_reserved":false,"is_disabled":false,"rental_uris":{"android":"levelo://app?vid=99eeff29-fc2f-4687-8dc7-d8505cafdca3","ios":"levelo://app?vid=99eeff29-fc2f-4687-8dc7-d8505cafdca3"},"vehicle_type_id":"4","last_reported":1746558468,"current_range_meters":16000,"station_id":"ce4bho12rcd13ifvqh2g","pricing_plan_id":"cebpf4jnsgd1na2vs0mg"},{"bike_id":"c761457c-43c6-4500-9aec-e5e2c152850c","system_id":"levelo_inurba_marseille","lat":43.31538,"lon":5.3802,"is_reserved":false,"is_disabled":true,"rental_uris":{"android":"levelo://app?vid=c761457c-43c6-4500-9aec-e5e2c152850c","ios":"levelo://app?vid=c761457c-43c6-4500-9aec-e5e2c152850c"},"vehicle_type_id":"4","last_reported":1746558468,"current_range_meters":16000,"station_id":"ce4bhsp2rcd13ifvqi50","pricing_plan_id":"cebpf4jnsgd1na2vs0mg"},{"bike_id":"21e3558b-d293-48c6-b1d4-2e58f9b1e6ce","system_id":"levelo_inurba_marseille","lat":43.32056,"lon":5.41543,"is_reserved":false,"is_disabled":false,"rental_uris":{"android":"levelo://app?vid=21e3558b-d293-48c6-b1d4-2e58f9b1e6ce","ios":"levelo://app?vid=21e3558b-d293-48c6-b1d4-2e58f9b1e6ce"},"vehicle_type_id":"4","last_reported":1746558468,"current_range_meters":16000,"station_id":"ce4bhq92rcd13ifvqhkg","pricing_plan_id":"cebpf4jnsgd1na2vs0mg"},{"bike_id":"9d1fb91b-a583-4f7e-a291-0828737edb62","system_id":"levelo_inurba_marseille","lat":43.30246,"lon":5.40051,"is_reserved":false,"is_disabled":false,"rental_uris":{"android":"levelo://app?vid=9d1fb91b-a583-4f7e-a291-0828737edb62","ios":"levelo://app?vid=9d1fb91b-a583-4f7e-a291-0828737edb62"},"vehicle_type_id":"4","last_reported":1746558468,"current_range_meters":14800,"station_id":"ce4bgvh2rcd13ifvqcs0","pricing_plan_id":"cebpf4jnsgd1na2vs0mg"},{"bike_id":"d1a330da-6328-41bd-a21e-8f5936f057f3","system_id":"levelo_inurba_marseille","lat":43.27822,"lon":5.40716,"is_reserved":false,"is_disabled":false,"rental_uris":{"android":"levelo://app?vid=d1a330da-6328-41bd-a21e-8f5936f057f3","ios":"levelo://app?vid=d1a330da-6328-41bd-a21e-8f5936f057f3"},"vehicle_type_id":"4","last_reported":1746558468,"current_range_meters":16000,"station_id":"ce4bhnh2rcd13ifvqgtg","pricing_plan_id":"cebpf4jnsgd1na2vs0mg"},{"bike_id":"47d2fd70-6980-4296-bfaf-01fe22c02520","system_id":"levelo_inurba_marseille","lat":43.30794,"lon":5.43535,"is_reserved":false,"is_disabled":false,"rental_uris":{"android":"levelo://app?vid=47d2fd70-6980-4296-bfaf-01fe22c02520","ios":"levelo://app?vid=47d2fd70-6980-4296-bfaf-01fe22c02520"},"vehicle_type_id":"4","last_reported":1746558468,"current_range_meters":16400,"station_id":"ce4bhph2rcd13ifvqheg","pricing_plan_id":"cebpf4jnsgd1na2vs0mg"},{"bike_id":"2d4427e7-a7a4-433d-a972-af2598822e0f","system_id":"levelo_inurba_marseille","lat":43.28406,"lon":5.34985,"is_reserved":false,"is_disabled":false,"rental_uris":{"android":"levelo://app?vid=2d4427e7-a7a4-433d-a972-af2598822e0f","ios":"levelo://app?vid=2d4427e7-a7a4-433d-a972-af2598822e0f"},"vehicle_type_id":"4","last_reported":1746558468,"current_range_meters":16400,"station_id":"ce4bhbh2rcd13ifvqepg","pricing_plan_id":"cebpf4jnsgd1na2vs0mg"},{"bike_id":"49adf419-1d44-4ce4-8e45-39dfe254ee3e","system_id":"levelo_inurba_marseille","lat":43.287271,"lon":5.360937,"is_reserved":false,"is_disabled":false,"rental_uris":{"android":"levelo://app?vid=49adf419-1d44-4ce4-8e45-39dfe254ee3e","ios":"levelo://app?vid=49adf419-1d44-4ce4-8e45-39dfe254ee3e"},"vehicle_type_id":"4","last_reported":1746558468,"current_range_meters":16400,"station_id":"cki0cbj6b192h4jlfktg","pricing_plan_id":"cebpf4jnsgd1na2vs0mg"},{"bike_id":"b1a97ec7-993f-4a2d-83e7-6ed722a41c26","system_id":"levelo_inurba_marseille","lat":43.27818,"lon":5.39204,"is_reserved":false,"is_disabled":true,"rental_uris":{"android":"levelo://app?vid=b1a97ec7-993f-4a2d-83e7-6ed722a41c26","ios":"levelo://app?vid=b1a97ec7-993f-4a2d-83e7-6ed722a41c26"},"vehicle_type_id":"4","last_reported":1746558468,"current_range_meters":16400,"station_id":"ce4bhjp2rcd13ifvqga0","pricing_plan_id":"cebpf4jnsgd1na2vs0mg"},{"bike_id":"d8ab2afd-9ce4-473f-9b40-2284ea885ca4","system_id":"levelo_inurba_marseille","lat":43.23966,"lon":5.36635,"is_reserved":false,"is_disabled":false,"rental_uris":{"android":"levelo://app?vid=d8ab2afd-9ce4-473f-9b40-2284ea885ca4","ios":"levelo://app?vid=d8ab2afd-9ce4-473f-9b40-2284ea885ca4"},"vehicle_type_id":"4","last_reported":1746558468,"current_range_meters":16400,"station_id":"ce4bhi12rcd13ifvqfp0","pricing_plan_id":"cebpf4jnsgd1na2vs0mg"},{"bike_id":"49b3fa0f-8662-4f28-ae7a-5a32827b07d3","system_id":"levelo_inurba_marseille","lat":43.28264,"lon":5.35066,"is_reserved":false,"is_disabled":false,"rental_uris":{"android":"levelo://app?vid=49b3fa0f-8662-4f28-ae7a-5a32827b07d3","ios":"levelo://app?vid=49b3fa0f-8662-4f28-ae7a-5a32827b07d3"},"vehicle_type_id":"4","last_reported":1746558468,"current_range_meters":16400,"station_id":"ce4bhbp2rcd13ifvqerg","pricing_plan_id":"cebpf4jnsgd1na2vs0mg"},{"bike_id":"537dd953-8c79-4265-92f0-0179cdafd76b","system_id":"levelo_inurba_marseille","lat":43.28422,"lon":5.34975,"is_reserved":false,"is_disabled":false,"rental_uris":{"android":"levelo://app?vid=537dd953-8c79-4265-92f0-0179cdafd76b","ios":"levelo://app?vid=537dd953-8c79-4265-92f0-0179cdafd76b"},"vehicle_type_id":"4","last_reported":1746558468,"current_range_meters":16400,"station_id":"ce4bhbh2rcd13ifvqepg","pricing_plan_id":"cebpf4jnsgd1na2vs0mg"},{"bike_id":"387a6276-06fd-4748-9222-63df581f8ac6","system_id":"levelo_inurba_marseille","lat":43.29536,"lon":5.38549,"is_reserved":false,"is_disabled":true,"rental_uris":{"android":"levelo://app?vid=387a6276-06fd-4748-9222-63df581f8ac6","ios":"levelo://app?vid=387a6276-06fd-4748-9222-63df581f8ac6"},"vehicle_type_id":"4","last_reported":1746558468,"current_range_meters":16400,"station_id":"ce4bgih2rcd13ifvqba0","pricing_plan_id":"cebpf4jnsgd1na2vs0mg"},{"bike_id":"2714f713-c769-4f6a-ac44-441a635e9cba","system_id":"levelo_inurba_marseille","lat":43.21615,"lon":5.34222,"is_reserved":false,"is_disabled":false,"rental_uris":{"android":"levelo://app?vid=2714f713-c769-4f6a-ac44-441a635e9cba","ios":"levelo://app?vid=2714f713-c769-4f6a-ac44-441a635e9cba"},"vehicle_type_id":"4","last_reported":1746558468,"current_range_meters":16400,"station_id":"","pricing_plan_id":"cebpf4jnsgd1na2vs0mg"},{"bike_id":"e2d95a62-27f2-483b-871e-05c84b46aaa8","system_id":"levelo_inurba_marseille","lat":43.30807,"lon":5.43525,"is_reserved":false,"is_disabled":false,"rental_uris":{"android":"levelo://app?vid=e2d95a62-27f2-483b-871e-05c84b46aaa8","ios":"levelo://app?vid=e2d95a62-27f2-483b-871e-05c84b46aaa8"},"vehicle_type_id":"4","last_reported":1746558468,"current_range_meters":16400,"station_id":"ce4bhph2rcd13ifvqheg","pricing_plan_id":"cebpf4jnsgd1na2vs0mg"},{"bike_id":"3029db95-9878-4455-82e0-702bdd2a6f8e","system_id":"levelo_inurba_marseille","lat":43.29534,"lon":5.38543,"is_reserved":false,"is_disabled":false,"rental_uris":{"android":"levelo://app?vid=3029db95-9878-4455-82e0-702bdd2a6f8e","ios":"levelo://app?vid=3029db95-9878-4455-82e0-702bdd2a6f8e"},"vehicle_type_id":"4","last_reported":1746558468,"current_range_meters":16800,"station_id":"","pricing_plan_id":"cebpf4jnsgd1na2vs0mg"},{"bike_id":"e1f8d96b-2dbb-4cf1-814f-c53d79e44e14","system_id":"levelo_inurba_marseille","lat":43.29924,"lon":5.36535,"is_reserved":false,"is_disabled":false,"rental_uris":{"android":"levelo://app?vid=e1f8d96b-2dbb-4cf1-814f-c53d79e44e14","ios":"levelo://app?vid=e1f8d96b-2dbb-4cf1-814f-c53d79e44e14"},"vehicle_type_id":"4","last_reported":1746558468,"current_range_meters":16800,"station_id":"ce4bgm92rcd13ifvqbr0","pricing_plan_id":"cebpf4jnsgd1na2vs0mg"},{"bike_id":"3488de24-d248-4ccb-be5b-0f7cd36a3f68","system_id":"levelo_inurba_marseille","lat":43.24668,"lon":5.38161,"is_reserved":false,"is_disabled":false,"rental_uris":{"android":"levelo://app?vid=3488de24-d248-4ccb-be5b-0f7cd36a3f68","ios":"levelo://app?vid=3488de24-d248-4ccb-be5b-0f7cd36a3f68"},"vehicle_type_id":"4","last_reported":1746558468,"current_range_meters":16800,"station_id":"ce4bhih2rcd13ifvqfr0","pricing_plan_id":"cebpf4jnsgd1na2vs0mg"},{"bike_id":"c1ea240d-5dfc-4daf-8645-5bad5952f855","system_id":"levelo_inurba_marseille","lat":43.28611,"lon":5.35102,"is_reserved":false,"is_disabled":false,"rental_uris":{"android":"levelo://app?vid=c1ea240d-5dfc-4daf-8645-5bad5952f855","ios":"levelo://app?vid=c1ea240d-5dfc-4daf-8645-5bad5952f855"},"vehicle_type_id":"4","last_reported":1746558468,"current_range_meters":16800,"station_id":"ce4bhch2rcd13ifvqeug","pricing_plan_id":"cebpf4jnsgd1na2vs0mg"},{"bike_id":"b02dd700-e1d0-4736-93d7-81d9f5d4b73b","system_id":"levelo_inurba_marseille","lat":43.25109,"lon":5.40323,"is_reserved":false,"is_disabled":false,"rental_uris":{"android":"levelo://app?vid=b02dd700-e1d0-4736-93d7-81d9f5d4b73b","ios":"levelo://app?vid=b02dd700-e1d0-4736-93d7-81d9f5d4b73b"},"vehicle_type_id":"4","last_reported":1746558468,"current_range_meters":16800,"station_id":"ce4bhlh2rcd13ifvqgig","pricing_plan_id":"cebpf4jnsgd1na2vs0mg"},{"bike_id":"cab3fb7b-47c3-404c-a8dc-80f54b39d4cd","system_id":"levelo_inurba_marseille","lat":43.29496,"lon":5.3903,"is_reserved":false,"is_disabled":true,"rental_uris":{"android":"levelo://app?vid=cab3fb7b-47c3-404c-a8dc-80f54b39d4cd","ios":"levelo://app?vid=cab3fb7b-47c3-404c-a8dc-80f54b39d4cd"},"vehicle_type_id":"4","last_reported":1746558468,"current_range_meters":16800,"station_id":"ce4bh3p2rcd13ifvqdp0","pricing_plan_id":"cebpf4jnsgd1na2vs0mg"},{"bike_id":"36cfbc4d-3506-41b9-9db9-c31980340859","system_id":"levelo_inurba_marseille","lat":43.286892,"lon":5.373976,"is_reserved":false,"is_disabled":false,"rental_uris":{"android":"levelo://app?vid=36cfbc4d-3506-41b9-9db9-c31980340859","ios":"levelo://app?vid=36cfbc4d-3506-41b9-9db9-c31980340859"},"vehicle_type_id":"4","last_reported":1746558468,"current_range_meters":16800,"station_id":"ce4bh3p2rcd13ifvqdq0","pricing_plan_id":"cebpf4jnsgd1na2vs0mg"},{"bike_id":"05771fbf-0119-466b-9e2a-36e102286bda","system_id":"levelo_inurba_marseille","lat":43.26195,"lon":5.37933,"is_reserved":false,"is_disabled":false,"rental_uris":{"android":"levelo://app?vid=05771fbf-0119-466b-9e2a-36e102286bda","ios":"levelo://app?vid=05771fbf-0119-466b-9e2a-36e102286bda"},"vehicle_type_id":"4","last_reported":1746558468,"current_range_meters":17200,"station_id":"ce4bhjp2rcd13ifvqg90","pricing_plan_id":"cebpf4jnsgd1na2vs0mg"},{"bike_id":"ac700e2e-c129-4f82-a3c3-f628077933a6","system_id":"levelo_inurba_marseille","lat":43.21204,"lon":5.3508,"is_reserved":false,"is_disabled":false,"rental_uris":{"android":"levelo://app?vid=ac700e2e-c129-4f82-a3c3-f628077933a6","ios":"levelo://app?vid=ac700e2e-c129-4f82-a3c3-f628077933a6"},"vehicle_type_id":"4","last_reported":1746558468,"current_range_meters":17200,"station_id":"st_cvj6sg6p6f1abm77japg","pricing_plan_id":"cebpf4jnsgd1na2vs0mg"},{"bike_id":"8ab16166-cd1d-4349-8461-ef36c43bb302","system_id":"levelo_inurba_marseille","lat":43.29254,"lon":5.38444,"is_reserved":false,"is_disabled":false,"rental_uris":{"android":"levelo://app?vid=8ab16166-cd1d-4349-8461-ef36c43bb302","ios":"levelo://app?vid=8ab16166-cd1d-4349-8461-ef36c43bb302"},"vehicle_type_id":"4","last_reported":1746558468,"current_range_meters":17600,"station_id":"ce4bh692rcd13ifvqea0","pricing_plan_id":"cebpf4jnsgd1na2vs0mg"},{"bike_id":"c6505e48-e7c1-47d1-9535-f8d163f914b7","system_id":"levelo_inurba_marseille","lat":43.31757,"lon":5.39013,"is_reserved":false,"is_disabled":false,"rental_uris":{"android":"levelo://app?vid=c6505e48-e7c1-47d1-9535-f8d163f914b7","ios":"levelo://app?vid=c6505e48-e7c1-47d1-9535-f8d163f914b7"},"vehicle_type_id":"4","last_reported":1746558468,"current_range_meters":17600,"station_id":"ce4bhqp2rcd13ifvqhng","pricing_plan_id":"cebpf4jnsgd1na2vs0mg"},{"bike_id":"cad73dbd-538c-461e-8f5d-9f9cb63b32c3","system_id":"levelo_inurba_marseille","lat":43.21182,"lon":5.35076,"is_reserved":false,"is_disabled":true,"rental_uris":{"android":"levelo://app?vid=cad73dbd-538c-461e-8f5d-9f9cb63b32c3","ios":"levelo://app?vid=cad73dbd-538c-461e-8f5d-9f9cb63b32c3"},"vehicle_type_id":"4","last_reported":1746558468,"current_range_meters":17600,"station_id":"st_cvj6sg6p6f1abm77japg","pricing_plan_id":"cebpf4jnsgd1na2vs0mg"},{"bike_id":"f45321ad-a54b-404d-981b-802d3c9e0607","system_id":"levelo_inurba_marseille","lat":43.21197,"lon":5.35062,"is_reserved":false,"is_disabled":true,"rental_uris":{"android":"levelo://app?vid=f45321ad-a54b-404d-981b-802d3c9e0607","ios":"levelo://app?vid=f45321ad-a54b-404d-981b-802d3c9e0607"},"vehicle_type_id":"4","last_reported":1746558468,"current_range_meters":18000,"station_id":"st_cvj6sg6p6f1abm77japg","pricing_plan_id":"cebpf4jnsgd1na2vs0mg"},{"bike_id":"cb349f0e-4ffd-48c0-8e50-21cbad52f9e1","system_id":"levelo_inurba_marseille","lat":43.30425,"lon":5.38891,"is_reserved":false,"is_disabled":false,"rental_uris":{"android":"levelo://app?vid=cb349f0e-4ffd-48c0-8e50-21cbad52f9e1","ios":"levelo://app?vid=cb349f0e-4ffd-48c0-8e50-21cbad52f9e1"},"vehicle_type_id":"4","last_reported":1746558468,"current_range_meters":18000,"station_id":"ce4bgk12rcd13ifvqbi0","pricing_plan_id":"cebpf4jnsgd1na2vs0mg"},{"bike_id":"4fa44a4d-c738-41bc-9022-213fbeae4065","system_id":"levelo_inurba_marseille","lat":43.23197,"lon":5.39972,"is_reserved":false,"is_disabled":false,"rental_uris":{"android":"levelo://app?vid=4fa44a4d-c738-41bc-9022-213fbeae4065","ios":"levelo://app?vid=4fa44a4d-c738-41bc-9022-213fbeae4065"},"vehicle_type_id":"4","last_reported":1746558468,"current_range_meters":18000,"station_id":"ce4bhn12rcd13ifvqgqg","pricing_plan_id":"cebpf4jnsgd1na2vs0mg"},{"bike_id":"3b67e693-9c6b-4ac0-b784-6a9ef1b182e5","system_id":"levelo_inurba_marseille","lat":43.28708,"lon":5.37939,"is_reserved":false,"is_disabled":false,"rental_uris":{"android":"levelo://app?vid=3b67e693-9c6b-4ac0-b784-6a9ef1b182e5","ios":"levelo://app?vid=3b67e693-9c6b-4ac0-b784-6a9ef1b182e5"},"vehicle_type_id":"4","last_reported":1746558468,"current_range_meters":18800,"station_id":"ce4bh9p2rcd13ifvqec0","pricing_plan_id":"cebpf4jnsgd1na2vs0mg"},{"bike_id":"50f3fcab-2f9e-4031-bf4d-a64e50e1255e","system_id":"levelo_inurba_marseille","lat":43.3154,"lon":5.38018,"is_reserved":false,"is_disabled":false,"rental_uris":{"android":"levelo://app?vid=50f3fcab-2f9e-4031-bf4d-a64e50e1255e","ios":"levelo://app?vid=50f3fcab-2f9e-4031-bf4d-a64e50e1255e"},"vehicle_type_id":"4","last_reported":1746558468,"current_range_meters":18800,"station_id":"ce4bhsp2rcd13ifvqi50","pricing_plan_id":"cebpf4jnsgd1na2vs0mg"},{"bike_id":"f50f9915-2f22-4c76-828c-7839b9116b8e","system_id":"levelo_inurba_marseille","lat":43.29259,"lon":5.384442,"is_reserved":false,"is_disabled":false,"rental_uris":{"android":"levelo://app?vid=f50f9915-2f22-4c76-828c-7839b9116b8e","ios":"levelo://app?vid=f50f9915-2f22-4c76-828c-7839b9116b8e"},"vehicle_type_id":"4","last_reported":1746558468,"current_range_meters":18800,"station_id":"ce4bh692rcd13ifvqea0","pricing_plan_id":"cebpf4jnsgd1na2vs0mg"},{"bike_id":"ca8ba1d2-cca8-4915-8ad3-d3cccd0aa04c","system_id":"levelo_inurba_marseille","lat":43.288354,"lon":5.378813,"is_reserved":false,"is_disabled":false,"rental_uris":{"android":"levelo://app?vid=ca8ba1d2-cca8-4915-8ad3-d3cccd0aa04c","ios":"levelo://app?vid=ca8ba1d2-cca8-4915-8ad3-d3cccd0aa04c"},"vehicle_type_id":"4","last_reported":1746558468,"current_range_meters":18800,"station_id":"ce4bhe12rcd13ifvqf30","pricing_plan_id":"cebpf4jnsgd1na2vs0mg"},{"bike_id":"f1c74381-c866-41d0-adb7-eed54f82ea3c","system_id":"levelo_inurba_marseille","lat":43.29905,"lon":5.3814,"is_reserved":false,"is_disabled":false,"rental_uris":{"android":"levelo://app?vid=f1c74381-c866-41d0-adb7-eed54f82ea3c","ios":"levelo://app?vid=f1c74381-c866-41d0-adb7-eed54f82ea3c"},"vehicle_type_id":"4","last_reported":1746558468,"current_range_meters":20000,"station_id":"ce4bgj12rcd13ifvqbc0","pricing_plan_id":"cebpf4jnsgd1na2vs0mg"},{"bike_id":"5b7c813e-8a01-4cab-bedc-2fef8b455485","system_id":"levelo_inurba_marseille","lat":43.294281,"lon":5.386097,"is_reserved":false,"is_disabled":true,"rental_uris":{"android":"levelo://app?vid=5b7c813e-8a01-4cab-bedc-2fef8b455485","ios":"levelo://app?vid=5b7c813e-8a01-4cab-bedc-2fef8b455485"},"vehicle_type_id":"4","last_reported":1746558468,"current_range_meters":19200,"station_id":"ce4bh2h2rcd13ifvqdh0","pricing_plan_id":"cebpf4jnsgd1na2vs0mg"},{"bike_id":"86aac975-5efa-4471-b431-8ed509ade609","system_id":"levelo_inurba_marseille","lat":43.28629,"lon":5.35086,"is_reserved":false,"is_disabled":false,"rental_uris":{"android":"levelo://app?vid=86aac975-5efa-4471-b431-8ed509ade609","ios":"levelo://app?vid=86aac975-5efa-4471-b431-8ed509ade609"},"vehicle_type_id":"4","last_reported":1746558468,"current_range_meters":19200,"station_id":"ce4bhch2rcd13ifvqeug","pricing_plan_id":"cebpf4jnsgd1na2vs0mg"},{"bike_id":"fd76d4ca-f3ad-4fc8-b8d8-1513582aff5f","system_id":"levelo_inurba_marseille","lat":43.22933,"lon":5.35421,"is_reserved":false,"is_disabled":false,"rental_uris":{"android":"levelo://app?vid=fd76d4ca-f3ad-4fc8-b8d8-1513582aff5f","ios":"levelo://app?vid=fd76d4ca-f3ad-4fc8-b8d8-1513582aff5f"},"vehicle_type_id":"4","last_reported":1746558468,"current_range_meters":19200,"station_id":"cpo3532slgdg3j2ikp40","pricing_plan_id":"cebpf4jnsgd1na2vs0mg"},{"bike_id":"39c2d253-d796-4aa4-9856-9e665e77b6da","system_id":"levelo_inurba_marseille","lat":43.32039,"lon":5.41543,"is_reserved":false,"is_disabled":false,"rental_uris":{"android":"levelo://app?vid=39c2d253-d796-4aa4-9856-9e665e77b6da","ios":"levelo://app?vid=39c2d253-d796-4aa4-9856-9e665e77b6da"},"vehicle_type_id":"4","last_reported":1746558468,"current_range_meters":20000,"station_id":"ce4bhq92rcd13ifvqhkg","pricing_plan_id":"cebpf4jnsgd1na2vs0mg"},{"bike_id":"81dd1c4b-6a3b-4570-b1e2-1c9b93ab7410","system_id":"levelo_inurba_marseille","lat":43.22512,"lon":5.34779,"is_reserved":false,"is_disabled":false,"rental_uris":{"android":"levelo://app?vid=81dd1c4b-6a3b-4570-b1e2-1c9b93ab7410","ios":"levelo://app?vid=81dd1c4b-6a3b-4570-b1e2-1c9b93ab7410"},"vehicle_type_id":"4","last_reported":1746558468,"current_range_meters":19600,"station_id":"st_cvj5dfep6f1abm77gieg","pricing_plan_id":"cebpf4jnsgd1na2vs0mg"},{"bike_id":"c8747254-2aeb-4450-807e-a3c2254c1e76","system_id":"levelo_inurba_marseille","lat":43.2872,"lon":5.37934,"is_reserved":false,"is_disabled":false,"rental_uris":{"android":"levelo://app?vid=c8747254-2aeb-4450-807e-a3c2254c1e76","ios":"levelo://app?vid=c8747254-2aeb-4450-807e-a3c2254c1e76"},"vehicle_type_id":"4","last_reported":1746558468,"current_range_meters":19600,"station_id":"ce4bh9p2rcd13ifvqec0","pricing_plan_id":"cebpf4jnsgd1na2vs0mg"},{"bike_id":"059c4c3d-1641-4827-afdd-e1fda8390046","system_id":"levelo_inurba_marseille","lat":43.27991,"lon":5.41668,"is_reserved":false,"is_disabled":false,"rental_uris":{"android":"levelo://app?vid=059c4c3d-1641-4827-afdd-e1fda8390046","ios":"levelo://app?vid=059c4c3d-1641-4827-afdd-e1fda8390046"},"vehicle_type_id":"4","last_reported":1746558468,"current_range_meters":17600,"station_id":"ce4bho12rcd13ifvqh1g","pricing_plan_id":"cebpf4jnsgd1na2vs0mg"},{"bike_id":"c0c08b22-43ab-403e-ad8c-024e9261186a","system_id":"levelo_inurba_marseille","lat":43.28925,"lon":5.36398,"is_reserved":false,"is_disabled":false,"rental_uris":{"android":"levelo://app?vid=c0c08b22-43ab-403e-ad8c-024e9261186a","ios":"levelo://app?vid=c0c08b22-43ab-403e-ad8c-024e9261186a"},"vehicle_type_id":"4","last_reported":1746558468,"current_range_meters":20000,"station_id":"ce4bhc92rcd13ifvqetg","pricing_plan_id":"cebpf4jnsgd1na2vs0mg"},{"bike_id":"4bd70568-9034-4b4d-a9a2-d4957c3553ab","system_id":"levelo_inurba_marseille","lat":43.30156,"lon":5.39868,"is_reserved":false,"is_disabled":false,"rental_uris":{"android":"levelo://app?vid=4bd70568-9034-4b4d-a9a2-d4957c3553ab","ios":"levelo://app?vid=4bd70568-9034-4b4d-a9a2-d4957c3553ab"},"vehicle_type_id":"4","last_reported":1746558468,"current_range_meters":20000,"station_id":"ce4bh0h2rcd13ifvqd40","pricing_plan_id":"cebpf4jnsgd1na2vs0mg"},{"bike_id":"b2856c79-1297-4740-b8be-f67da9cd1d43","system_id":"levelo_inurba_marseille","lat":43.31882,"lon":5.40738,"is_reserved":false,"is_disabled":false,"rental_uris":{"android":"levelo://app?vid=b2856c79-1297-4740-b8be-f67da9cd1d43","ios":"levelo://app?vid=b2856c79-1297-4740-b8be-f67da9cd1d43"},"vehicle_type_id":"4","last_reported":1746558468,"current_range_meters":20000,"station_id":"ce4bhq12rcd13ifvqhig","pricing_plan_id":"cebpf4jnsgd1na2vs0mg"},