{"last_updated":1748870731,"ttl":60,"version":"2.2","data":{"bikes":[{"bike_id":"5736accb-991c-4877-a612-8be882a83c2f","system_id":"levelo_inurba_marseille","lat":43.33771,"lon":5.37424,"is_reserved":false,"is_disabled":true,"rental_uris":{"android":"levelo://app?vid=5736accb-991c-4877-a612-8be882a83c2f","ios":"levelo://app?vid=5736accb-991c-4877-a612-8be882a83c2f"},"vehicle_type_id":"4","last_reported":1748870732,"current_range_meters":0,"station_id":"","pricing_plan_id":"cebpf4jnsgd1na2vs0mg"},{"bike_id":"55a5c057-4e97-4693-8616-8ebd3dc507dc","system_id":"levelo_inurba_marseille","lat":43.337499,"lon":5.374469,"is_reserved":false,"is_disabled":true,"rental_uris":{"android":"levelo://app?vid=55a5c057-4e97-4693-8616-8ebd3dc507dc","ios":"levelo://app?vid=55a5c057-4e97-4693-8616-8ebd3dc507dc"},"vehicle_type_id":"4","last_reported":1748870732,"current_range_meters":0,"station_id":"","pricing_plan_id":"cebpf4jnsgd1na2vs0mg"},{"bike_id":"58872a66-6d13-4e73-8bc3-e26429814b74","system_id":"levelo_inurba_marseille","lat":43.337444,"lon":5.374475,"is_reserved":false,"is_disabled":true,"rental_uris":{"android":"levelo://app?vid=58872a66-6d13-4e73-8bc3-e26429814b74","ios":"levelo://app?vid=58872a66-6d13-4e73-8bc3-e26429814b74"},"vehicle_type_id":"4","last_reported":1748870732,"current_range_meters":0,"station_id":"","pricing_plan_id":"cebpf4jnsgd1na2vs0mg"},{"bike_id":"aedab83c-b9e3-4c27-91f4-79f4c3b37920","system_id":"levelo_inurba_marseille","lat":43.337444,"lon":5.374475,"is_reserved":false,"is_disabled":true,"rental_uris":{"android":"levelo://app?vid=aedab83c-b9e3-4c27-91f4-79f4c3b37920","ios":"levelo://app?vid=aedab83c-b9e3-4c27-91f4-79f4c3b37920"},"vehicle_type_id":"4","last_reported":1748870732,"current_range_meters":0,"station_id":"","pricing_plan_id":"cebpf4jnsgd1na2vs0mg"},{"bike_id":"0e5c7fc5-efe6-4da0-bbfc-434e48e22be5","system_id":"levelo_inurba_marseille","lat":43.31931,"lon":5.44175,"is_reserved":false,"is_disabled":true,"rental_uris":{"android":"levelo://app?vid=0e5c7fc5-efe6-4da0-bbfc-434e48e22be5","ios":"levelo://app?vid=0e5c7fc5-efe6-4da0-bbfc-434e48e22be5"},"vehicle_type_id":"4","last_reported":1748870732,"current_range_meters":0,"station_id":"","pricing_plan_id":"cebpf4jnsgd1na2vs0mg"},{"bike_id":"6e7e5163-991a-4d7d-9c2b-4faf721e9959","system_id":"levelo_inurba_marseille","lat":43.279114,"lon":5.353266,"is_reserved":false,"is_disabled":true,"rental_uris":{"android":"levelo://app?vid=6e7e5163-991a-4d7d-9c2b-4faf721e9959","ios":"levelo://app?vid=6e7e5163-991a-4d7d-9c2b-4faf721e9959"},"vehicle_type_id":"4","last_reported":1748870732,"current_range_meters":0,"station_id":"","pricing_plan_id":"cebpf4jnsgd1na2vs0mg"},{"bike_id":"a39717e7-4923-4bb4-8b8d-f06788e0cdc7","system_id":"levelo_inurba_marseille","lat":43.29297,"lon":5.37469,"is_reserved":false,"is_disabled":true,"rental_uris":{"android":"levelo://app?vid=a39717e7-4923-4bb4-8b8d-f06788e0cdc7","ios":"levelo://app?vid=a39717e7-4923-4bb4-8b8d-f06788e0cdc7"},"vehicle_type_id":"4","last_reported":1748870732,"current_range_meters":0,"station_id":"ce4bgi12rcd13ifvqb70","pricing_plan_id":"cebpf4jnsgd1na2vs0mg"},{"bike_id":"2a947de8-9cfd-41d6-af72-99c3a4e16622","system_id":"levelo_inurba_marseille","lat":43.30643,"lon":5.401,"is_reserved":false,"is_disabled":true,"rental_uris":{"android":"levelo://app?vid=2a947de8-9cfd-41d6-af72-99c3a4e16622","ios":"levelo://app?vid=2a947de8-9cfd-41d6-af72-99c3a4e16622"},"vehicle_type_id":"4","last_reported":1748870732,"current_range_meters":0,"station_id":"ce4bh112rcd13ifvqda0","pricing_plan_id":"cebpf4jnsgd1na2vs0mg"},{"bike_id":"2998d79e-f4f8-4f43-b494-2bb41f885d03","system_id":"levelo_inurba_marseille","lat":43.29026,"lon":5.38645,"is_reserved":false,"is_disabled":true,"rental_uris":{"android":"levelo://app?vid=2998d79e-f4f8-4f43-b494-2bb41f885d03","ios":"levelo://app?vid=2998d79e-f4f8-4f43-b494-2bb41f885d03"},"vehicle_type_id":"4","last_reported":1748870732,"current_range_meters":0,"station_id":"ce4bh4p2rcd13ifvqe0g","pricing_plan_id":"cebpf4jnsgd1na2vs0mg"},{"bike_id":"50e1d617-b5b7-4339-8a5a-10d685af70a2","system_id":"levelo_inurba_marseille","lat":43.27056,"lon":5.40262,"is_reserved":false,"is_disabled":true,"rental_uris":{"android":"levelo://app?vid=50e1d617-b5b7-4339-8a5a-10d685af70a2","ios":"levelo://app?vid=50e1d617-b5b7-4339-8a5a-10d685af70a2"},"vehicle_type_id":"4","last_reported":1748870732,"current_range_meters":0,"station_id":"ce4bhk92rcd13ifvqgc0","pricing_plan_id":"cebpf4jnsgd1na2vs0mg"},{"bike_id":"fcbc34f8-63c9-4976-857b-e9a123ada28d","system_id":"levelo_inurba_marseille","lat":43.23146,"lon":5.43723,"is_reserved":false,"is_disabled":true,"rental_uris":{"android":"levelo://app?vid=fcbc34f8-63c9-4976-857b-e9a123ada28d","ios":"levelo://app?vid=fcbc34f8-63c9-4976-857b-e9a123ada28d"},"vehicle_type_id":"4","last_reported":1748870732,"current_range_meters":0,"station_id":"ce4bhmp2rcd13ifvqgog","pricing_plan_id":"cebpf4jnsgd1na2vs0mg"},{"bike_id":"cf756898-c31b-49f0-8c52-f4f328b44e27","system_id":"levelo_inurba_marseille","lat":43.231468,"lon":5.436982,"is_reserved":false,"is_disabled":true,"rental_uris":{"android":"levelo://app?vid=cf756898-c31b-49f0-8c52-f4f328b44e27","ios":"levelo://app?vid=cf756898-c31b-49f0-8c52-f4f328b44e27"},"vehicle_type_id":"4","last_reported":1748870732,"current_range_meters":0,"station_id":"ce4bhmp2rcd13ifvqgog","pricing_plan_id":"cebpf4jnsgd1na2vs0mg"},{"bike_id":"35f03121-a847-4e1c-8722-7092db8e1702","system_id":"levelo_inurba_marseille","lat":43.27944,"lon":5.41052,"is_reserved":false,"is_disabled":true,"rental_uris":{"android":"levelo://app?vid=35f03121-a847-4e1c-8722-7092db8e1702","ios":"levelo://app?vid=35f03121-a847-4e1c-8722-7092db8e1702"},"vehicle_type_id":"4","last_reported":1748870732,"current_range_meters":0,"station_id":"ce4bhnp2rcd13ifvqh0g","pricing_plan_id":"cebpf4jnsgd1na2vs0mg"},{"bike_id":"69c85748-6e89-4d2e-9dbb-f4e5396b6443","system_id":"levelo_inurba_marseille","lat":43.22936,"lon":5.35384,"is_reserved":false,"is_disabled":true,"rental_uris":{"android":"levelo://app?vid=69c85748-6e89-4d2e-9dbb-f4e5396b6443","ios":"levelo://app?vid=69c85748-6e89-4d2e-9dbb-f4e5396b6443"},"vehicle_type_id":"4","last_reported":1748870732,"current_range_meters":0,"station_id":"cpo3532slgdg3j2ikp40","pricing_plan_id":"cebpf4jnsgd1na2vs0mg"},{"bike_id":"169ae0e2-d7a2-42e7-9171-4f3488b254bf","system_id":"levelo_inurba_marseille","lat":43.31341,"lon":5.36738,"is_reserved":false,"is_disabled":true,"rental_uris":{"android":"levelo://app?vid=169ae0e2-d7a2-42e7-9171-4f3488b254bf","ios":"levelo://app?vid=169ae0e2-d7a2-42e7-9171-4f3488b254bf"},"vehicle_type_id":"4","last_reported":1748870732,"current_range_meters":400,"station_id":"ce4bgr92rcd13ifvqc6g","pricing_plan_id":"cebpf4jnsgd1na2vs0mg"},{"bike_id":"8b4ac011-f2e9-4d44-ad50-19d42a2b6d07","system_id":"levelo_inurba_marseille","lat":43.31365,"lon":5.36738,"is_reserved":false,"is_disabled":true,"rental_uris":{"android":"levelo://app?vid=8b4ac011-f2e9-4d44-ad50-19d42a2b6d07","ios":"levelo://app?vid=8b4ac011-f2e9-4d44-ad50-19d42a2b6d07"},"vehicle_type_id":"4","last_reported":1748870732,"current_range_meters":800,"station_id":"ce4bgr92rcd13ifvqc6g","pricing_plan_id":"cebpf4jnsgd1na2vs0mg"},{"bike_id":"bef906b5-c73f-4c37-9b9c-66053873551e","system_id":"levelo_inurba_marseille","lat":43.26816,"lon":5.40264,"is_reserved":false,"is_disabled":true,"rental_uris":{"android":"levelo://app?vid=bef906b5-c73f-4c37-9b9c-66053873551e","ios":"levelo://app?vid=bef906b5-c73f-4c37-9b9c-66053873551e"},"vehicle_type_id":"4","last_reported":1748870732,"current_range_meters":800,"station_id":"ce501612rcd8frsf0b60","pricing_plan_id":"cebpf4jnsgd1na2vs0mg"},{"bike_id":"13591a12-0cc9-4536-b09c-5e2f4b5b2088","system_id":"levelo_inurba_marseille","lat":43.27617,"lon":5.36116,"is_reserved":false,"is_disabled":true,"rental_uris":{"android":"levelo://app?vid=13591a12-0cc9-4536-b09c-5e2f4b5b2088","ios":"levelo://app?vid=13591a12-0cc9-4536-b09c-5e2f4b5b2088"},"vehicle_type_id":"4","last_reported":1748870732,"current_range_meters":1200,"station_id":"ce4bgj92rcd13ifvqbe0","pricing_plan_id":"cebpf4jnsgd1na2vs0mg"},{"bike_id":"73096a38-4d6a-440e-b6e7-6b96f30d1e00","system_id":"levelo_inurba_marseille","lat":43.295288,"lon":5.375082,"is_reserved":false,"is_disabled":false,"rental_uris":{"android":"levelo://app?vid=73096a38-4d6a-440e-b6e7-6b96f30d1e00","ios":"levelo://app?vid=73096a38-4d6a-440e-b6e7-6b96f30d1e00"},"vehicle_type_id":"4","last_reported":1748870732,"current_range_meters":1200,"station_id":"ce4bgkp2rcd13ifvqbmg","pricing_plan_id":"cebpf4jnsgd1na2vs0mg"},{"bike_id":"1ee7de8f-03c4-4dd3-96d8-1633ee03ef7f","system_id":"levelo_inurba_marseille","lat":43.32545,"lon":5.41438,"is_reserved":false,"is_disabled":true,"rental_uris":{"android":"levelo://app?vid=1ee7de8f-03c4-4dd3-96d8-1633ee03ef7f","ios":"levelo://app?vid=1ee7de8f-03c4-4dd3-96d8-1633ee03ef7f"},"vehicle_type_id":"4","last_reported":1748870732,"current_range_meters":1200,"station_id":"ce4bhq12rcd13ifvqhhg","pricing_plan_id":"cebpf4jnsgd1na2vs0mg"},{"bike_id":"b26d57e3-0ebd-4df9-989c-af1e227e078d","system_id":"levelo_inurba_marseille","lat":43.29376,"lon":5.37839,"is_reserved":false,"is_disabled":true,"rental_uris":{"android":"levelo://app?vid=b26d57e3-0ebd-4df9-989c-af1e227e078d","ios":"levelo://app?vid=b26d57e3-0ebd-4df9-989c-af1e227e078d"},"vehicle_type_id":"4","last_reported":1748870732,"current_range_meters":1600,"station_id":"ce4bgjh2rcd13ifvqbf0","pricing_plan_id":"cebpf4jnsgd1na2vs0mg"},{"bike_id":"eeedf0fe-972e-4a5e-8e58-8c523f478774","system_id":"levelo_inurba_marseille","lat":43.31368,"lon":5.36725,"is_reserved":false,"is_disabled":true,"rental_uris":{"android":"levelo://app?vid=eeedf0fe-972e-4a5e-8e58-8c523f478774","ios":"levelo://app?vid=eeedf0fe-972e-4a5e-8e58-8c523f478774"},"vehicle_type_id":"4","last_reported":1748870732,"current_range_meters":2000,"station_id":"ce4bgr92rcd13ifvqc6g","pricing_plan_id":"cebpf4jnsgd1na2vs0mg"},{"bike_id":"80de2729-cb32-495e-bf9b-f8803e25f4e2","system_id":"levelo_inurba_marseille","lat":43.28346,"lon":5.38102,"is_reserved":false,"is_disabled":true,"rental_uris":{"android":"levelo://app?vid=80de2729-cb32-495e-bf9b-f8803e25f4e2","ios":"levelo://app?vid=80de2729-cb32-495e-bf9b-f8803e25f4e2"},"vehicle_type_id":"4","last_reported":1748870732,"current_range_meters":2000,"station_id":"ce4bh412rcd13ifvqdr0","pricing_plan_id":"cebpf4jnsgd1na2vs0mg"},{"bike_id":"d5359315-c0f5-4184-b549-f009b6673e1c","system_id":"levelo_inurba_marseille","lat":43.275,"lon":5.42446,"is_reserved":false,"is_disabled":true,"rental_uris":{"android":"levelo://app?vid=d5359315-c0f5-4184-b549-f009b6673e1c","ios":"levelo://app?vid=d5359315-c0f5-4184-b549-f009b6673e1c"},"vehicle_type_id":"4","last_reported":1748870732,"current_range_meters":2000,"station_id":"ce4bhn92rcd13ifvqgrg","pricing_plan_id":"cebpf4jnsgd1na2vs0mg"},{"bike_id":"856921fa-71f2-4879-a42b-58fd6d7b6a14","system_id":"levelo_inurba_marseille","lat":43.320069,"lon":5.394663,"is_reserved":false,"is_disabled":false,"rental_uris":{"android":"levelo://app?vid=856921fa-71f2-4879-a42b-58fd6d7b6a14","ios":"levelo://app?vid=856921fa-71f2-4879-a42b-58fd6d7b6a14"},"vehicle_type_id":"4","last_reported":1748870732,"current_range_meters":3200,"station_id":"","pricing_plan_id":"cebpf4jnsgd1na2vs0mg"},{"bike_id":"1dace7ea-26d9-4c85-9d01-671f021f08e4","system_id":"levelo_inurba_marseille","lat":43.25404,"lon":5.4145,"is_reserved":false,"is_disabled":false,"rental_uris":{"android":"levelo://app?vid=1dace7ea-26d9-4c85-9d01-671f021f08e4","ios":"levelo://app?vid=1dace7ea-26d9-4c85-9d01-671f021f08e4"},"vehicle_type_id":"4","last_reported":1748870732,"current_range_meters":3600,"station_id":"","pricing_plan_id":"cebpf4jnsgd1na2vs0mg"},{"bike_id":"140b9572-3ab8-48df-ab53-652809cd95c7","system_id":"levelo_inurba_marseille","lat":43.313297,"lon":5.396911,"is_reserved":false,"is_disabled":false,"rental_uris":{"android":"levelo://app?vid=140b9572-3ab8-48df-ab53-652809cd95c7","ios":"levelo://app?vid=140b9572-3ab8-48df-ab53-652809cd95c7"},"vehicle_type_id":"4","last_reported":1748870732,"current_range_meters":3600,"station_id":"ce4bgvp2rcd13ifvqcu0","pricing_plan_id":"cebpf4jnsgd1na2vs0mg"},{"bike_id":"b3f143ee-a5ad-4ad8-aa9c-af1a0709d3fa","system_id":"levelo_inurba_marseille","lat":43.29416,"lon":5.38628,"is_reserved":false,"is_disabled":false,"rental_uris":{"android":"levelo://app?vid=b3f143ee-a5ad-4ad8-aa9c-af1a0709d3fa","ios":"levelo://app?vid=b3f143ee-a5ad-4ad8-aa9c-af1a0709d3fa"},"vehicle_type_id":"4","last_reported":1748870732,"current_range_meters":3600,"station_id":"ce4bh2h2rcd13ifvqdh0","pricing_plan_id":"cebpf4jnsgd1na2vs0mg"},{"bike_id":"badeab5a-9057-4868-9aef-cc03071bc655","system_id":"levelo_inurba_marseille","lat":43.29846,"lon":5.36278,"is_reserved":false,"is_disabled":false,"rental_uris":{"android":"levelo://app?vid=badeab5a-9057-4868-9aef-cc03071bc655","ios":"levelo://app?vid=badeab5a-9057-4868-9aef-cc03071bc655"},"vehicle_type_id":"4","last_reported":1748870732,"current_range_meters":4000,"station_id":"ce4bgpp2rcd13ifvqc3g","pricing_plan_id":"cebpf4jnsgd1na2vs0mg"},{"bike_id":"895b9bab-a21a-4489-addd-fb20f7271f23","system_id":"levelo_inurba_marseille","lat":43.30329,"lon":5.40428,"is_reserved":false,"is_disabled":false,"rental_uris":{"android":"levelo://app?vid=895b9bab-a21a-4489-addd-fb20f7271f23","ios":"levelo://app?vid=895b9bab-a21a-4489-addd-fb20f7271f23"},"vehicle_type_id":"4","last_reported":1748870732,"current_range_meters":4000,"station_id":"ce4bh012rcd13ifvqd10","pricing_plan_id":"cebpf4jnsgd1na2vs0mg"},{"bike_id":"62d09e51-cd7a-47d9-bb45-069315c0e75a","system_id":"levelo_inurba_marseille","lat":43.24416,"lon":5.37046,"is_reserved":false,"is_disabled":false,"rental_uris":{"android":"levelo://app?vid=62d09e51-cd7a-47d9-bb45-069315c0e75a","ios":"levelo://app?vid=62d09e51-cd7a-47d9-bb45-069315c0e75a"},"vehicle_type_id":"4","last_reported":1748870732,"current_range_meters":4000,"station_id":"ce4bhhh2rcd13ifvqfk0","pricing_plan_id":"cebpf4jnsgd1na2vs0mg"},{"bike_id":"4787cf29-7a77-468c-bcd7-6f39fde186bb","system_id":"levelo_inurba_marseille","lat":43.26796,"lon":5.3941,"is_reserved":false,"is_disabled":false,"rental_uris":{"android":"levelo://app?vid=4787cf29-7a77-468c-bcd7-6f39fde186bb","ios":"levelo://app?vid=4787cf29-7a77-468c-bcd7-6f39fde186bb"},"vehicle_type_id":"4","last_reported":1748870732,"current_range_meters":4400,"station_id":"ce4bhh12rcd13ifvqfg0","pricing_plan_id":"cebpf4jnsgd1na2vs0mg"},{"bike_id":"c4873049-6570-4194-8e97-f1b21b6384a1","system_id":"levelo_inurba_marseille","lat":43.25117,"lon":5.40324,"is_reserved":false,"is_disabled":false,"rental_uris":{"android":"levelo://app?vid=c4873049-6570-4194-8e97-f1b21b6384a1","ios":"levelo://app?vid=c4873049-6570-4194-8e97-f1b21b6384a1"},"vehicle_type_id":"4","last_reported":1748870732,"current_range_meters":4400,"station_id":"ce4bhlh2rcd13ifvqgig","pricing_plan_id":"cebpf4jnsgd1na2vs0mg"},{"bike_id":"2d40e21d-f49d-4df7-a785-58cb54a62c47","system_id":"levelo_inurba_marseille","lat":43.23253,"lon":5.3547,"is_reserved":false,"is_disabled":false,"rental_uris":{"android":"levelo://app?vid=2d40e21d-f49d-4df7-a785-58cb54a62c47","ios":"levelo://app?vid=2d40e21d-f49d-4df7-a785-58cb54a62c47"},"vehicle_type_id":"4","last_reported":1748870732,"current_range_meters":4400,"station_id":"ce4bhu92rcd13ifvqi70","pricing_plan_id":"cebpf4jnsgd1na2vs0mg"},{"bike_id":"5e2b08eb-6161-4944-9221-a58db361c85e","system_id":"levelo_inurba_marseille","lat":43.271729,"lon":5.409964,"is_reserved":false,"is_disabled":false,"rental_uris":{"android":"levelo://app?vid=5e2b08eb-6161-4944-9221-a58db361c85e","ios":"levelo://app?vid=5e2b08eb-6161-4944-9221-a58db361c85e"},"vehicle_type_id":"4","last_reported":1748870732,"current_range_meters":4800,"station_id":"ce4bhl12rcd13ifvqgf0","pricing_plan_id":"cebpf4jnsgd1na2vs0mg"},{"bike_id":"973a0cfa-222d-487c-830d-1313bf055f4b","system_id":"levelo_inurba_marseille","lat":43.2681,"lon":5.40271,"is_reserved":false,"is_disabled":false,"rental_uris":{"android":"levelo://app?vid=973a0cfa-222d-487c-830d-1313bf055f4b","ios":"levelo://app?vid=973a0cfa-222d-487c-830d-1313bf055f4b"},"vehicle_type_id":"4","last_reported":1748870732,"current_range_meters":4800,"station_id":"ce501612rcd8frsf0b60","pricing_plan_id":"cebpf4jnsgd1na2vs0mg"},{"bike_id":"c97038f3-4518-4c9d-afaa-4920937e02fa","system_id":"levelo_inurba_marseille","lat":43.24624,"lon":5.39322,"is_reserved":false,"is_disabled":false,"rental_uris":{"android":"levelo://app?vid=c97038f3-4518-4c9d-afaa-4920937e02fa","ios":"levelo://app?vid=c97038f3-4518-4c9d-afaa-4920937e02fa"},"vehicle_type_id":"4","last_reported":1748870732,"current_range_meters":5600,"station_id":"","pricing_plan_id":"cebpf4jnsgd1na2vs0mg"},{"bike_id":"bff91e46-d50f-47f4-abcc-a302e9440288","system_id":"levelo_inurba_marseille","lat":43.33148,"lon":5.38963,"is_reserved":false,"is_disabled":false,"rental_uris":{"android":"levelo://app?vid=bff91e46-d50f-47f4-abcc-a302e9440288","ios":"levelo://app?vid=bff91e46-d50f-47f4-abcc-a302e9440288"},"vehicle_type_id":"4","last_reported":1748870732,"current_range_meters":5600,"station_id":"","pricing_plan_id":"cebpf4jnsgd1na2vs0mg"},{"bike_id":"364240c0-b2e2-4f1b-8baa-fe68b60acd15","system_id":"levelo_inurba_marseille","lat":43.243884,"lon":5.370595,"is_reserved":false,"is_disabled":false,"rental_uris":{"android":"levelo://app?vid=364240c0-b2e2-4f1b-8baa-fe68b60acd15","ios":"levelo://app?vid=364240c0-b2e2-4f1b-8baa-fe68b60acd15"},"vehicle_type_id":"4","last_reported":1748870732,"current_range_meters":5600,"station_id":"ce4bhhh2rcd13ifvqfk0","pricing_plan_id":"cebpf4jnsgd1na2vs0mg"},{"bike_id":"1a180c67-ccc3-4a54-89d1-c999cec66108","system_id":"levelo_inurba_marseille","lat":43.30411,"lon":5.413,"is_reserved":false,"is_disabled":false,"rental_uris":{"android":"levelo://app?vid=1a180c67-ccc3-4a54-89d1-c999cec66108","ios":"levelo://app?vid=1a180c67-ccc3-4a54-89d1-c999cec66108"},"vehicle_type_id":"4","last_reported":1748870732,"current_range_meters":5600,"station_id":"ce4bhop2rcd13ifvqh8g","pricing_plan_id":"cebpf4jnsgd1na2vs0mg"},{"bike_id":"67908fa4-4243-4e2e-a32f-2cd0c3f9c5d0","system_id":"levelo_inurba_marseille","lat":43.29626,"lon":5.37725,"is_reserved":false,"is_disabled":false,"rental_uris":{"android":"levelo://app?vid=67908fa4-4243-4e2e-a32f-2cd0c3f9c5d0","ios":"levelo://app?vid=67908fa4-4243-4e2e-a32f-2cd0c3f9c5d0"},"vehicle_type_id":"4","last_reported":1748870732,"current_range_meters":6000,"station_id":"ce4bgi92rcd13ifvqb90","pricing_plan_id":"cebpf4jnsgd1na2vs0mg"},{"bike_id":"4fb1c657-8fe0-46da-b3cf-1795380c0f39","system_id":"levelo_inurba_marseille","lat":43.2996,"lon":5.413145,"is_reserved":false,"is_disabled":false,"rental_uris":{"android":"levelo://app?vid=4fb1c657-8fe0-46da-b3cf-1795380c0f39","ios":"levelo://app?vid=4fb1c657-8fe0-46da-b3cf-1795380c0f39"},"vehicle_type_id":"4","last_reported":1748870732,"current_range_meters":6000,"station_id":"ce4bhp12rcd13ifvqh9g","pricing_plan_id":"cebpf4jnsgd1na2vs0mg"},{"bike_id":"c79ccd7b-ccfc-4842-ae3b-a5d97cf87c57","system_id":"levelo_inurba_marseille","lat":43.31529,"lon":5.38035,"is_reserved":false,"is_disabled":false,"rental_uris":{"android":"levelo://app?vid=c79ccd7b-ccfc-4842-ae3b-a5d97cf87c57","ios":"levelo://app?vid=c79ccd7b-ccfc-4842-ae3b-a5d97cf87c57"},"vehicle_type_id":"4","last_reported":1748870732,"current_range_meters":6000,"station_id":"ce4bhsp2rcd13ifvqi50","pricing_plan_id":"cebpf4jnsgd1na2vs0mg"},{"bike_id":"aadb95fc-d156-41e0-9614-75d762b11d28","system_id":"levelo_inurba_marseille","lat":43.319437,"lon":5.440573,"is_reserved":false,"is_disabled":false,"rental_uris":{"android":"levelo://app?vid=aadb95fc-d156-41e0-9614-75d762b11d28","ios":"levelo://app?vid=aadb95fc-d156-41e0-9614-75d762b11d28"},"vehicle_type_id":"4","last_reported":1748870732,"current_range_meters":6400,"station_id":"","pricing_plan_id":"cebpf4jnsgd1na2vs0mg"},{"bike_id":"3bb92c33-91d8-4f88-8f2c-672c7868f4ad","system_id":"levelo_inurba_marseille","lat":43.328792,"lon":5.405324,"is_reserved":false,"is_disabled":false,"rental_uris":{"android":"levelo://app?vid=3bb92c33-91d8-4f88-8f2c-672c7868f4ad","ios":"levelo://app?vid=3bb92c33-91d8-4f88-8f2c-672c7868f4ad"},"vehicle_type_id":"4","last_reported":1748870732,"current_range_meters":6800,"station_id":"","pricing_plan_id":"cebpf4jnsgd1na2vs0mg"},{"bike_id":"bfc5ef3f-b45a-4475-9ae4-9a0465f66e15","system_id":"levelo_inurba_marseille","lat":43.2513,"lon":5.39373,"is_reserved":false,"is_disabled":false,"rental_uris":{"android":"levelo://app?vid=bfc5ef3f-b45a-4475-9ae4-9a0465f66e15","ios":"levelo://app?vid=bfc5ef3f-b45a-4475-9ae4-9a0465f66e15"},"vehicle_type_id":"4","last_reported":1748870732,"current_range_meters":6800,"station_id":"","pricing_plan_id":"cebpf4jnsgd1na2vs0mg"},{"bike_id":"a28d69b7-8694-4eb2-a7ed-5f35abb3e935","system_id":"levelo_inurba_marseille","lat":43.30889,"lon":5.39653,"is_reserved":false,"is_disabled":false,"rental_uris":{"android":"levelo://app?vid=a28d69b7-8694-4eb2-a7ed-5f35abb3e935","ios":"levelo://app?vid=a28d69b7-8694-4eb2-a7ed-5f35abb3e935"},"vehicle_type_id":"4","last_reported":1748870732,"current_range_meters":6800,"station_id":"ce4bh012rcd13ifvqcv0","pricing_plan_id":"cebpf4jnsgd1na2vs0mg"},{"bike_id":"1345f79e-958b-4ea1-bc9f-3743ac90ee68","system_id":"levelo_inurba_marseille","lat":43.30326,"lon":5.40456,"is_reserved":false,"is_disabled":false,"rental_uris":{"android":"levelo://app?vid=1345f79e-958b-4ea1-bc9f-3743ac90ee68","ios":"levelo://app?vid=1345f79e-958b-4ea1-bc9f-3743ac90ee68"},"vehicle_type_id":"4","last_reported":1748870732,"current_range_meters":6800,"station_id":"ce4bh012rcd13ifvqd10","pricing_plan_id":"cebpf4jnsgd1na2vs0mg"},{"bike_id":"d995c949-8088-452c-b5c8-a1370380f844","system_id":"levelo_inurba_marseille","lat":43.28159,"lon":5.42642,"is_reserved":false,"is_disabled":false,"rental_uris":{"android":"levelo://app?vid=d995c949-8088-452c-b5c8-a1370380f844","ios":"levelo://app?vid=d995c949-8088-452c-b5c8-a1370380f844"},"vehicle_type_id":"4","last_reported":1748870732,"current_range_meters":6800,"station_id":"ce4bhnh2rcd13ifvqgug","pricing_plan_id":"cebpf4jnsgd1na2vs0mg"},{"bike_id":"3ce2adc0-e17b-4fe7-8bc0-bbf0f922e730","system_id":"levelo_inurba_marseille","lat":43.290287,"lon":5.386512,"is_reserved":false,"is_disabled":false,"rental_uris":{"android":"levelo://app?vid=3ce2adc0-e17b-4fe7-8bc0-bbf0f922e730","ios":"levelo://app?vid=3ce2adc0-e17b-4fe7-8bc0-bbf0f922e730"},"vehicle_type_id":"4","last_reported":1748870732,"current_range_meters":6800,"station_id":"ce4bho12rcd13ifvqh2g","pricing_plan_id":"cebpf4jnsgd1na2vs0mg"},{"bike_id":"c7aa496f-5556-4272-bc79-3012a4604f0a","system_id":"levelo_inurba_marseille","lat":43.33726,"lon":5.391841,"is_reserved":false,"is_disabled":false,"rental_uris":{"android":"levelo://app?vid=c7aa496f-5556-4272-bc79-3012a4604f0a","ios":"levelo://app?vid=c7aa496f-5556-4272-bc79-3012a4604f0a"},"vehicle_type_id":"4","last_reported":1748870732,"current_range_meters":6800,"station_id":"ce4bhr92rcd13ifvqhsg","pricing_plan_id":"cebpf4jnsgd1na2vs0mg"},{"bike_id":"2182590a-48e3-45a3-bf23-d7b6403e553e","system_id":"levelo_inurba_marseille","lat":43.23054,"lon":5.35499,"is_reserved":false,"is_disabled":false,"rental_uris":{"android":"levelo://app?vid=2182590a-48e3-45a3-bf23-d7b6403e553e","ios":"levelo://app?vid=2182590a-48e3-45a3-bf23-d7b6403e553e"},"vehicle_type_id":"4","last_reported":1748870732,"current_range_meters":6800,"station_id":"cpo3342slgdg3j2ifvpg","pricing_plan_id":"cebpf4jnsgd1na2vs0mg"},{"bike_id":"036a3f84-6c04-4f85-bd69-c60fcc1a093a","system_id":"levelo_inurba_marseille","lat":43.3307,"lon":5.39083,"is_reserved":false,"is_disabled":false,"rental_uris":{"android":"levelo://app?vid=036a3f84-6c04-4f85-bd69-c60fcc1a093a","ios":"levelo://app?vid=036a3f84-6c04-4f85-bd69-c60fcc1a093a"},"vehicle_type_id":"4","last_reported":1748870732,"current_range_meters":7200,"station_id":"","pricing_plan_id":"cebpf4jnsgd1na2vs0mg"},{"bike_id":"e2b0829f-0011-455b-b598-dd9e3edebe57","system_id":"levelo_inurba_marseille","lat":43.30145,"lon":5.38076,"is_reserved":false,"is_disabled":false,"rental_uris":{"android":"levelo://app?vid=e2b0829f-0011-455b-b598-dd9e3edebe57","ios":"levelo://app?vid=e2b0829f-0011-455b-b598-dd9e3edebe57"},"vehicle_type_id":"4","last_reported":1748870732,"current_range_meters":7200,"station_id":"ce4bgjp2rcd13ifvqbh0","pricing_plan_id":"cebpf4jnsgd1na2vs0mg"},{"bike_id":"b167860e-ba43-430e-b997-0e4cce039eda","system_id":"levelo_inurba_marseille","lat":43.27815,"lon":5.40718,"is_reserved":false,"is_disabled":false,"rental_uris":{"android":"levelo://app?vid=b167860e-ba43-430e-b997-0e4cce039eda","ios":"levelo://app?vid=b167860e-ba43-430e-b997-0e4cce039eda"},"vehicle_type_id":"4","last_reported":1748870732,"current_range_meters":7200,"station_id":"ce4bhnh2rcd13ifvqgtg","pricing_plan_id":"cebpf4jnsgd1na2vs0mg"},{"bike_id":"43df8678-f7df-481c-9ada-60e3f3db1487","system_id":"levelo_inurba_marseille","lat":43.283376,"lon":5.350264,"is_reserved":false,"is_disabled":false,"rental_uris":{"android":"levelo://app?vid=43df8678-f7df-481c-9ada-60e3f3db1487","ios":"levelo://app?vid=43df8678-f7df-481c-9ada-60e3f3db1487"},"vehicle_type_id":"4","last_reported":1748870732,"current_range_meters":8000,"station_id":"","pricing_plan_id":"cebpf4jnsgd1na2vs0mg"},{"bike_id":"c94b197a-b686-4fe6-bcab-5f66c81add56","system_id":"levelo_inurba_marseille","lat":43.231487,"lon":5.437157,"is_reserved":false,"is_disabled":false,"rental_uris":{"android":"levelo://app?vid=c94b197a-b686-4fe6-bcab-5f66c81add56","ios":"levelo://app?vid=c94b197a-b686-4fe6-bcab-5f66c81add56"},"vehicle_type_id":"4","last_reported":1748870732,"current_range_meters":8000,"station_id":"ce4bhmp2rcd13ifvqgog","pricing_plan_id":"cebpf4jnsgd1na2vs0mg"},{"bike_id":"1fbdb284-044b-45b9-a174-9369f7ceefa8","system_id":"levelo_inurba_marseille","lat":43.23155,"lon":5.43715,"is_reserved":false,"is_disabled":false,"rental_uris":{"android":"levelo://app?vid=1fbdb284-044b-45b9-a174-9369f7ceefa8","ios":"levelo://app?vid=1fbdb284-044b-45b9-a174-9369f7ceefa8"},"vehicle_type_id":"4","last_reported":1748870732,"current_range_meters":8000,"station_id":"ce4bhmp2rcd13ifvqgog","pricing_plan_id":"cebpf4jnsgd1na2vs0mg"},{"bike_id":"42fb4aba-8737-45d7-94d7-28da9797bed4","system_id":"levelo_inurba_marseille","lat":43.28087,"lon":5.39663,"is_reserved":false,"is_disabled":false,"rental_uris":{"android":"levelo://app?vid=42fb4aba-8737-45d7-94d7-28da9797bed4","ios":"levelo://app?vid=42fb4aba-8737-45d7-94d7-28da9797bed4"},"vehicle_type_id":"4","last_reported":1748870732,"current_range_meters":8000,"station_id":"ce4bho12rcd13ifvqh2g","pricing_plan_id":"cebpf4jnsgd1na2vs0mg"},{"bike_id":"6c58d642-0f6d-4103-85ab-59d593919366","system_id":"levelo_inurba_marseille","lat":43.34141,"lon":5.4092,"is_reserved":false,"is_disabled":false,"rental_uris":{"android":"levelo://app?vid=6c58d642-0f6d-4103-85ab-59d593919366","ios":"levelo://app?vid=6c58d642-0f6d-4103-85ab-59d593919366"},"vehicle_type_id":"4","last_reported":1748870732,"current_range_meters":8000,"station_id":"ce4bhqh2rcd13ifvqhlg","pricing_plan_id":"cebpf4jnsgd1na2vs0mg"},{"bike_id":"77563c89-0ac2-4043-bd50-220ab97bc1f7","system_id":"levelo_inurba_marseille","lat":43.32302,"lon":5.38283,"is_reserved":false,"is_disabled":false,"rental_uris":{"android":"levelo://app?vid=77563c89-0ac2-4043-bd50-220ab97bc1f7","ios":"levelo://app?vid=77563c89-0ac2-4043-bd50-220ab97bc1f7"},"vehicle_type_id":"4","last_reported":1748870732,"current_range_meters":8000,"station_id":"ce4bhr12rcd13ifvqhqg","pricing_plan_id":"cebpf4jnsgd1na2vs0mg"},{"bike_id":"0c6fa11b-5c75-4d8f-822c-dfe4612c4860","system_id":"levelo_inurba_marseille","lat":43.23199,"lon":5.3555,"is_reserved":false,"is_disabled":false,"rental_uris":{"android":"levelo://app?vid=0c6fa11b-5c75-4d8f-822c-dfe4612c4860","ios":"levelo://app?vid=0c6fa11b-5c75-4d8f-822c-dfe4612c4860"},"vehicle_type_id":"4","last_reported":1748870732,"current_range_meters":8000,"station_id":"ce4bhu92rcd13ifvqi70","pricing_plan_id":"cebpf4jnsgd1na2vs0mg"},{"bike_id":"6e1e084d-419e-47d5-bff7-09534e7c70ef","system_id":"levelo_inurba_marseille","lat":43.26938,"lon":5.40275,"is_reserved":false,"is_disabled":false,"rental_uris":{"android":"levelo://app?vid=6e1e084d-419e-47d5-bff7-09534e7c70ef","ios":"levelo://app?vid=6e1e084d-419e-47d5-bff7-09534e7c70ef"},"vehicle_type_id":"4","last_reported":1748870732,"current_range_meters":8000,"station_id":"cjm6bp8fraef2m0cb0m0","pricing_plan_id":"cebpf4jnsgd1na2vs0mg"},{"bike_id":"bd474dda-9635-4458-9aa3-df6fcb1ca6f4","system_id":"levelo_inurba_marseille","lat":43.30158,"lon":5.38074,"is_reserved":false,"is_disabled":false,"rental_uris":{"android":"levelo://app?vid=bd474dda-9635-4458-9aa3-df6fcb1ca6f4","ios":"levelo://app?vid=bd474dda-9635-4458-9aa3-df6fcb1ca6f4"},"vehicle_type_id":"4","last_reported":1748870732,"current_range_meters":8400,"station_id":"ce4bgjp2rcd13ifvqbh0","pricing_plan_id":"cebpf4jnsgd1na2vs0mg"},{"bike_id":"38559938-19ab-4f2d-b2f4-e4dae6cb6c20","system_id":"levelo_inurba_marseille","lat":43.28706,"lon":5.37387,"is_reserved":false,"is_disabled":false,"rental_uris":{"android":"levelo://app?vid=38559938-19ab-4f2d-b2f4-e4dae6cb6c20","ios":"levelo://app?vid=38559938-19ab-4f2d-b2f4-e4dae6cb6c20"},"vehicle_type_id":"4","last_reported":1748870732,"current_range_meters":8400,"station_id":"ce4bh3p2rcd13ifvqdq0","pricing_plan_id":"cebpf4jnsgd1na2vs0mg"},{"bike_id":"ceb2ae28-3eea-4ac8-9e9f-5e4e6a0456b4","system_id":"levelo_inurba_marseille","lat":43.27974,"lon":5.38739,"is_reserved":false,"is_disabled":false,"rental_uris":{"android":"levelo://app?vid=ceb2ae28-3eea-4ac8-9e9f-5e4e6a0456b4","ios":"levelo://app?vid=ceb2ae28-3eea-4ac8-9e9f-5e4e6a0456b4"},"vehicle_type_id":"4","last_reported":1748870732,"current_range_meters":8400,"station_id":"ce4bhg12rcd13ifvqf80","pricing_plan_id":"cebpf4jnsgd1na2vs0mg"},{"bike_id":"5dead81c-52cf-467b-885d-461d40fb80a5","system_id":"levelo_inurba_marseille","lat":43.25088,"lon":5.40963,"is_reserved":false,"is_disabled":false,"rental_uris":{"android":"levelo://app?vid=5dead81c-52cf-467b-885d-461d40fb80a5","ios":"levelo://app?vid=5dead81c-52cf-467b-885d-461d40fb80a5"},"vehicle_type_id":"4","last_reported":1748870732,"current_range_meters":8800,"station_id":"","pricing_plan_id":"cebpf4jnsgd1na2vs0mg"},{"bike_id":"48bb8681-8587-4d2d-9b4b-5a41fd7557e0","system_id":"levelo_inurba_marseille","lat":43.28704,"lon":5.37386,"is_reserved":false,"is_disabled":false,"rental_uris":{"android":"levelo://app?vid=48bb8681-8587-4d2d-9b4b-5a41fd7557e0","ios":"levelo://app?vid=48bb8681-8587-4d2d-9b4b-5a41fd7557e0"},"vehicle_type_id":"4","last_reported":1748870732,"current_range_meters":8800,"station_id":"ce4bh3p2rcd13ifvqdq0","pricing_plan_id":"cebpf4jnsgd1na2vs0mg"},{"bike_id":"6276418e-79e1-4161-a207-7a4112bed4bc","system_id":"levelo_inurba_marseille","lat":43.24666,"lon":5.38162,"is_reserved":false,"is_disabled":false,"rental_uris":{"android":"levelo://app?vid=6276418e-79e1-4161-a207-7a4112bed4bc","ios":"levelo://app?vid=6276418e-79e1-4161-a207-7a4112bed4bc"},"vehicle_type_id":"4","last_reported":1748870732,"current_range_meters":8800,"station_id":"ce4bhih2rcd13ifvqfr0","pricing_plan_id":"cebpf4jnsgd1na2vs0mg"},{"bike_id":"ad0764c8-527f-4cde-b961-4de405f923eb","system_id":"levelo_inurba_marseille","lat":43.231523,"lon":5.436947,"is_reserved":false,"is_disabled":false,"rental_uris":{"android":"levelo://app?vid=ad0764c8-527f-4cde-b961-4de405f923eb","ios":"levelo://app?vid=ad0764c8-527f-4cde-b961-4de405f923eb"},"vehicle_type_id":"4","last_reported":1748870732,"current_range_meters":8800,"station_id":"ce4bhmp2rcd13ifvqgog","pricing_plan_id":"cebpf4jnsgd1na2vs0mg"},{"bike_id":"a1f8de0f-1c03-4691-831a-981baa9dd178","system_id":"levelo_inurba_marseille","lat":43.33751,"lon":5.3919,"is_reserved":false,"is_disabled":false,"rental_uris":{"android":"levelo://app?vid=a1f8de0f-1c03-4691-831a-981baa9dd178","ios":"levelo://app?vid=a1f8de0f-1c03-4691-831a-981baa9dd178"},"vehicle_type_id":"4","last_reported":1748870732,"current_range_meters":8800,"station_id":"ce4bhr92rcd13ifvqhsg","pricing_plan_id":"cebpf4jnsgd1na2vs0mg"},{"bike_id":"480dcae9-db49-48af-825f-8b78c4939e55","system_id":"levelo_inurba_marseille","lat":43.21197,"lon":5.35076,"is_reserved":false,"is_disabled":false,"rental_uris":{"android":"levelo://app?vid=480dcae9-db49-48af-825f-8b78c4939e55","ios":"levelo://app?vid=480dcae9-db49-48af-825f-8b78c4939e55"},"vehicle_type_id":"4","last_reported":1748870732,"current_range_meters":8800,"station_id":"st_cvj6sg6p6f1abm77japg","pricing_plan_id":"cebpf4jnsgd1na2vs0mg"},{"bike_id":"d72d5a5e-a033-4555-a5b7-2e9b101d2f01","system_id":"levelo_inurba_marseille","lat":43.24312,"lon":5.41144,"is_reserved":false,"is_disabled":false,"rental_uris":{"android":"levelo://app?vid=d72d5a5e-a033-4555-a5b7-2e9b101d2f01","ios":"levelo://app?vid=d72d5a5e-a033-4555-a5b7-2e9b101d2f01"},"vehicle_type_id":"4","last_reported":1748870732,"current_range_meters":9200,"station_id":"","pricing_plan_id":"cebpf4jnsgd1na2vs0mg"},{"bike_id":"0a92e517-9363-41c9-a3fa-8f6e6cc909f6","system_id":"levelo_inurba_marseille","lat":43.29234,"lon":5.37908,"is_reserved":false,"is_disabled":false,"rental_uris":{"android":"levelo://app?vid=0a92e517-9363-41c9-a3fa-8f6e6cc909f6","ios":"levelo://app?vid=0a92e517-9363-41c9-a3fa-8f6e6cc909f6"},"vehicle_type_id":"4","last_reported":1748870732,"current_range_meters":9200,"station_id":"","pricing_plan_id":"cebpf4jnsgd1na2vs0mg"},{"bike_id":"0b3654db-33dc-4a56-850c-0b6b7ac0b481","system_id":"levelo_inurba_marseille","lat":43.23078,"lon":5.40192,"is_reserved":false,"is_disabled":false,"rental_uris":{"android":"levelo://app?vid=0b3654db-33dc-4a56-850c-0b6b7ac0b481","ios":"levelo://app?vid=0b3654db-33dc-4a56-850c-0b6b7ac0b481"},"vehicle_type_id":"4","last_reported":1748870732,"current_range_meters":9200,"station_id":"","pricing_plan_id":"cebpf4jnsgd1na2vs0mg"},{"bike_id":"c36bd383-74a7-41fe-8c4e-b4e265509657","system_id":"levelo_inurba_marseille","lat":43.30169,"lon":5.36637,"is_reserved":false,"is_disabled":false,"rental_uris":{"android":"levelo://app?vid=c36bd383-74a7-41fe-8c4e-b4e265509657","ios":"levelo://app?vid=c36bd383-74a7-41fe-8c4e-b4e265509657"},"vehicle_type_id":"4","last_reported":1748870732,"current_range_meters":9200,"station_id":"ce4bgrh2rcd13ifvqc8g","pricing_plan_id":"cebpf4jnsgd1na2vs0mg"},{"bike_id":"f7913772-9f2f-4a18-9c41-6bb568766f35","system_id":"levelo_inurba_marseille","lat":43.27814,"lon":5.40693,"is_reserved":false,"is_disabled":false,"rental_uris":{"android":"levelo://app?vid=f7913772-9f2f-4a18-9c41-6bb568766f35","ios":"levelo://app?vid=f7913772-9f2f-4a18-9c41-6bb568766f35"},"vehicle_type_id":"4","last_reported":1748870732,"current_range_meters":9200,"station_id":"ce4bhnh2rcd13ifvqgtg","pricing_plan_id":"cebpf4jnsgd1na2vs0mg"},{"bike_id":"6fe9f2cd-da0e-42e5-9d1a-1fc060ca7d28","system_id":"levelo_inurba_marseille","lat":43.29784,"lon":5.39337,"is_reserved":false,"is_disabled":false,"rental_uris":{"android":"levelo://app?vid=6fe9f2cd-da0e-42e5-9d1a-1fc060ca7d28","ios":"levelo://app?vid=6fe9f2cd-da0e-42e5-9d1a-1fc060ca7d28"},"vehicle_type_id":"4","last_reported":1748870732,"current_range_meters":9200,"station_id":"chh1huq6cuj3fo74tm60","pricing_plan_id":"cebpf4jnsgd1na2vs0mg"},{"bike_id":"0ce29571-45c3-4ad8-bbe0-648fed70aa51","system_id":"levelo_inurba_marseille","lat":43.284653,"lon":5.35893,"is_reserved":false,"is_disabled":false,"rental_uris":{"android":"levelo://app?vid=0ce29571-45c3-4ad8-bbe0-648fed70aa51","ios":"levelo://app?vid=0ce29571-45c3-4ad8-bbe0-648fed70aa51"},"vehicle_type_id":"4","last_reported":1748870732,"current_range_meters":9600,"station_id":"ce4bhah2rcd13ifvqei0","pricing_plan_id":"cebpf4jnsgd1na2vs0mg"},{"bike_id":"a306e21e-4ba4-4356-abe3-d704b6e23945","system_id":"levelo_inurba_marseille","lat":43.265713,"lon":5.39004,"is_reserved":false,"is_disabled":false,"rental_uris":{"android":"levelo://app?vid=a306e21e-4ba4-4356-abe3-d704b6e23945","ios":"levelo://app?vid=a306e21e-4ba4-4356-abe3-d704b6e23945"},"vehicle_type_id":"4","last_reported":1748870732,"current_range_meters":9600,"station_id":"ce4bhe12rcd13ifvqf30","pricing_plan_id":"cebpf4jnsgd1na2vs0mg"},{"bike_id":"7587982e-c137-4a04-a88e-73a8a90abe5a","system_id":"levelo_inurba_marseille","lat":43.27208,"lon":5.3919,"is_reserved":false,"is_disabled":false,"rental_uris":{"android":"levelo://app?vid=7587982e-c137-4a04-a88e-73a8a90abe5a","ios":"levelo://app?vid=7587982e-c137-4a04-a88e-73a8a90abe5a"},"vehicle_type_id":"4","last_reported":1748870732,"current_range_meters":9600,"station_id":"ce4bhhp2rcd13ifvqfm0","pricing_plan_id":"cebpf4jnsgd1na2vs0mg"},{"bike_id":"75c664b5-8c32-42f6-9085-436c62fd99be","system_id":"levelo_inurba_marseille","lat":43.3236,"lon":5.36737,"is_reserved":false,"is_disabled":false,"rental_uris":{"android":"levelo://app?vid=75c664b5-8c32-42f6-9085-436c62fd99be","ios":"levelo://app?vid=75c664b5-8c32-42f6-9085-436c62fd99be"},"vehicle_type_id":"4","last_reported":1748870732,"current_range_meters":9600,"station_id":"ce4bhsh2rcd13ifvqi2g","pricing_plan_id":"cebpf4jnsgd1na2vs0mg"},{"bike_id":"9376123c-1d7b-4fd1-a6da-d86eaa91c545","system_id":"levelo_inurba_marseille","lat":43.26959,"lon":5.40313,"is_reserved":false,"is_disabled":false,"rental_uris":{"android":"levelo://app?vid=9376123c-1d7b-4fd1-a6da-d86eaa91c545","ios":"levelo://app?vid=9376123c-1d7b-4fd1-a6da-d86eaa91c545"},"vehicle_type_id":"4","last_reported":1748870732,"current_range_meters":9600,"station_id":"cjm6bp8fraef2m0cb0m0","pricing_plan_id":"cebpf4jnsgd1na2vs0mg"},{"bike_id":"afe42cf5-b493-4fb7-b710-2b3f0a107bae","system_id":"levelo_inurba_marseille","lat":43.31752,"lon":5.38754,"is_reserved":false,"is_disabled":false,"rental_uris":{"android":"levelo://app?vid=afe42cf5-b493-4fb7-b710-2b3f0a107bae","ios":"levelo://app?vid=afe42cf5-b493-4fb7-b710-2b3f0a107bae"},"vehicle_type_id":"4","last_reported":1748870732,"current_range_meters":10000,"station_id":"","pricing_plan_id":"cebpf4jnsgd1na2vs0mg"},{"bike_id":"edb2b4a9-acc2-42eb-836b-beae950e740b","system_id":"levelo_inurba_marseille","lat":43.26787,"lon":5.394135,"is_reserved":false,"is_disabled":false,"rental_uris":{"android":"levelo://app?vid=edb2b4a9-acc2-42eb-836b-beae950e740b","ios":"levelo://app?vid=edb2b4a9-acc2-42eb-836b-beae950e740b"},"vehicle_type_id":"4","last_reported":1748870732,"current_range_meters":10000,"station_id":"ce4bhh12rcd13ifvqfg0","pricing_plan_id":"cebpf4jnsgd1na2vs0mg"},{"bike_id":"ec5291cc-fdc7-4362-8cf3-af39754fd9b3","system_id":"levelo_inurba_marseille","lat":43.31409,"lon":5.36745,"is_reserved":false,"is_disabled":false,"rental_uris":{"android":"levelo://app?vid=ec5291cc-fdc7-4362-8cf3-af39754fd9b3","ios":"levelo://app?vid=ec5291cc-fdc7-4362-8cf3-af39754fd9b3"},"vehicle_type_id":"4","last_reported":1748870732,"current_range_meters":10800,"station_id":"","pricing_plan_id":"cebpf4jnsgd1na2vs0mg"},{"bike_id":"29eb6220-aa4d-4c9f-8853-ef0c9316b20d","system_id":"levelo_inurba_marseille","lat":43.31137,"lon":5.37815,"is_reserved":false,"is_disabled":false,"rental_uris":{"android":"levelo://app?vid=29eb6220-aa4d-4c9f-8853-ef0c9316b20d","ios":"levelo://app?vid=29eb6220-aa4d-4c9f-8853-ef0c9316b20d"},"vehicle_type_id":"4","last_reported":1748870732,"current_range_meters":10800,"station_id":"ce4bgt92rcd13ifvqcg0","pricing_plan_id":"cebpf4jnsgd1na2vs0mg"},{"bike_id":"ea5d828c-ef58-49c2-a222-4a3e55c9c134","system_id":"levelo_inurba_marseille","lat":43.304444,"lon":5.397477,"is_reserved":false,"is_disabled":false,"rental_uris":{"android":"levelo://app?vid=ea5d828c-ef58-49c2-a222-4a3e55c9c134","ios":"levelo://app?vid=ea5d828c-ef58-49c2-a222-4a3e55c9c134"},"vehicle_type_id":"4","last_reported":1748870732,"current_range_meters":10800,"station_id":"ce4bh092rcd13ifvqd20","pricing_plan_id":"cebpf4jnsgd1na2vs0mg"},{"bike_id":"8b5e74ea-d324-48bc-b431-1327e4a1f651","system_id":"levelo_inurba_marseille","lat":43.2836,"lon":5.38635,"is_reserved":false,"is_disabled":false,"rental_uris":{"android":"levelo://app?vid=8b5e74ea-d324-48bc-b431-1327e4a1f651","ios":"levelo://app?vid=8b5e74ea-d324-48bc-b431-1327e4a1f651"},"vehicle_type_id":"4","last_reported":1748870732,"current_range_meters":10800,"station_id":"ce4bh492rcd13ifvqdvg","pricing_plan_id":"cebpf4jnsgd1na2vs0mg"},{"bike_id":"045c1fc3-3758-4f6f-aebd-f2ede4003be6","system_id":"levelo_inurba_marseille","lat":43.2669,"lon":5.38273,"is_reserved":false,"is_disabled":false,"rental_uris":{"android":"levelo://app?vid=045c1fc3-3758-4f6f-aebd-f2ede4003be6","ios":"levelo://app?vid=045c1fc3-3758-4f6f-aebd-f2ede4003be6"},"vehicle_type_id":"4","last_reported":1748870732,"current_range_meters":10800,"station_id":"ce4bhg92rcd13ifvqf90","pricing_plan_id":"cebpf4jnsgd1na2vs0mg"},{"bike_id":"fb065aca-871b-449b-ae68-ad74721c5c25","system_id":"levelo_inurba_marseille","lat":43.29623,"lon":5.3771,"is_reserved":false,"is_disabled":false,"rental_uris":{"android":"levelo://app?vid=fb065aca-871b-449b-ae68-ad74721c5c25","ios":"levelo://app?vid=fb065aca-871b-449b-ae68-ad74721c5c25"},"vehicle_type_id":"4","last_reported":1748870732,"current_range_meters":11200,"station_id":"","pricing_plan_id":"cebpf4jnsgd1na2vs0mg"},{"bike_id":"005bcc6c-5313-491c-af50-25a503840f66","system_id":"levelo_inurba_marseille","lat":43.21753,"lon":5.3461,"is_reserved":false,"is_disabled":false,"rental_uris":{"android":"levelo://app?vid=005bcc6c-5313-491c-af50-25a503840f66","ios":"levelo://app?vid=005bcc6c-5313-491c-af50-25a503840f66"},"vehicle_type_id":"4","last_reported":1748870732,"current_range_meters":11200,"station_id":"","pricing_plan_id":"cebpf4jnsgd1na2vs0mg"},{"bike_id":"376bea1a-29f8-4f0f-80fa-105506aa890a","system_id":"levelo_inurba_marseille","lat":43.29715,"lon":5.36608,"is_reserved":false,"is_disabled":false,"rental_uris":{"android":"levelo://app?vid=376bea1a-29f8-4f0f-80fa-105506aa890a","ios":"levelo://app?vid=376bea1a-29f8-4f0f-80fa-105506aa890a"},"vehicle_type_id":"4","last_reported":1748870732,"current_range_meters":11200,"station_id":"ce4bgn12rcd13ifvqbt0","pricing_plan_id":"cebpf4jnsgd1na2vs0mg"},{"bike_id":"48100533-f0e4-422b-8a83-18d9e6eb5bcd","system_id":"levelo_inurba_marseille","lat":43.30537,"lon":5.36557,"is_reserved":false,"is_disabled":false,"rental_uris":{"android":"levelo://app?vid=48100533-f0e4-422b-8a83-18d9e6eb5bcd","ios":"levelo://app?vid=48100533-f0e4-422b-8a83-18d9e6eb5bcd"},"vehicle_type_id":"4","last_reported":1748870732,"current_range_meters":11600,"station_id":"ce4bgs12rcd13ifvqcag","pricing_plan_id":"cebpf4jnsgd1na2vs0mg"},{"bike_id":"7a6151c7-a921-4835-8394-2344c58e4547","system_id":"levelo_inurba_marseille","lat":43.25721,"lon":5.411235,"is_reserved":false,"is_disabled":false,"rental_uris":{"android":"levelo://app?vid=7a6151c7-a921-4835-8394-2344c58e4547","ios":"levelo://app?vid=7a6151c7-a921-4835-8394-2344c58e4547"},"vehicle_type_id":"4","last_reported":1748870732,"current_range_meters":11600,"station_id":"ce4bhkp2rcd13ifvqgd0","pricing_plan_id":"cebpf4jnsgd1na2vs0mg"},{"bike_id":"a6954edc-8075-48da-a861-4f13d3fdacf2","system_id":"levelo_inurba_marseille","lat":43.241996,"lon":5.397312,"is_reserved":false,"is_disabled":false,"rental_uris":{"android":"levelo://app?vid=a6954edc-8075-48da-a861-4f13d3fdacf2","ios":"levelo://app?vid=a6954edc-8075-48da-a861-4f13d3fdacf2"},"vehicle_type_id":"4","last_reported":1748870732,"current_range_meters":11600,"station_id":"ce4bhn12rcd13ifvqgpg","pricing_plan_id":"cebpf4jnsgd1na2vs0mg"},{"bike_id":"a79d1f14-488a-4717-9122-17153b9e053b","system_id":"levelo_inurba_marseille","lat":43.21747,"lon":5.34618,"is_reserved":false,"is_disabled":false,"rental_uris":{"android":"levelo://app?vid=a79d1f14-488a-4717-9122-17153b9e053b","ios":"levelo://app?vid=a79d1f14-488a-4717-9122-17153b9e053b"},"vehicle_type_id":"4","last_reported":1748870732,"current_range_meters":11600,"station_id":"st_cvj6r9ubvosntc0bgbag","pricing_plan_id":"cebpf4jnsgd1na2vs0mg"},{"bike_id":"218f6c8d-e3e4-4093-9e7b-4362ebcd001c","system_id":"levelo_inurba_marseille","lat":43.21777,"lon":5.34558,"is_reserved":false,"is_disabled":false,"rental_uris":{"android":"levelo://app?vid=218f6c8d-e3e4-4093-9e7b-4362ebcd001c","ios":"levelo://app?vid=218f6c8d-e3e4-4093-9e7b-4362ebcd001c"},"vehicle_type_id":"4","last_reported":1748870732,"current_range_meters":11600,"station_id":"st_cvj6r9ubvosntc0bgbag","pricing_plan_id":"cebpf4jnsgd1na2vs0mg"},{"bike_id":"d54bad3a-7ff1-4a15-aeab-92cdac98e952","system_id":"levelo_inurba_marseille","lat":43.27882,"lon":5.3961,"is_reserved":false,"is_disabled":false,"rental_uris":{"android":"levelo://app?vid=d54bad3a-7ff1-4a15-aeab-92cdac98e952","ios":"levelo://app?vid=d54bad3a-7ff1-4a15-aeab-92cdac98e952"},"vehicle_type_id":"4","last_reported":1748870732,"current_range_meters":12000,"station_id":"","pricing_plan_id":"cebpf4jnsgd1na2vs0mg"},{"bike_id":"24c02bc7-5e2f-4e6c-bf53-a135697db5da","system_id":"levelo_inurba_marseille","lat":43.29616,"lon":5.38104,"is_reserved":false,"is_disabled":false,"rental_uris":{"android":"levelo://app?vid=24c02bc7-5e2f-4e6c-bf53-a135697db5da","ios":"levelo://app?vid=24c02bc7-5e2f-4e6c-bf53-a135697db5da"},"vehicle_type_id":"4","last_reported":1748870732,"current_range_meters":12000,"station_id":"ce4bgl12rcd13ifvqbo0","pricing_plan_id":"cebpf4jnsgd1na2vs0mg"},{"bike_id":"76b0b81f-50fe-4535-8566-b94a5878d6f8","system_id":"levelo_inurba_marseille","lat":43.308928,"lon":5.396408,"is_reserved":false,"is_disabled":false,"rental_uris":{"android":"levelo://app?vid=76b0b81f-50fe-4535-8566-b94a5878d6f8","ios":"levelo://app?vid=76b0b81f-50fe-4535-8566-b94a5878d6f8"},"vehicle_type_id":"4","last_reported":1748870732,"current_range_meters":12000,"station_id":"ce4bh012rcd13ifvqcv0","pricing_plan_id":"cebpf4jnsgd1na2vs0mg"},{"bike_id":"8e64d6de-8887-4b68-a9b5-85ff423fdaee","system_id":"levelo_inurba_marseille","lat":43.29069,"lon":5.37154,"is_reserved":false,"is_disabled":false,"rental_uris":{"android":"levelo://app?vid=8e64d6de-8887-4b68-a9b5-85ff423fdaee","ios":"levelo://app?vid=8e64d6de-8887-4b68-a9b5-85ff423fdaee"},"vehicle_type_id":"4","last_reported":1748870732,"current_range_meters":12000,"station_id":"ce4bh5p2rcd13ifvqe4g","pricing_plan_id":"cebpf4jnsgd1na2vs0mg"},{"bike_id":"569ee311-0d90-4f86-aecd-d0afa7bdb281","system_id":"levelo_inurba_marseille","lat":43.26559,"lon":5.39027,"is_reserved":false,"is_disabled":false,"rental_uris":{"android":"levelo://app?vid=569ee311-0d90-4f86-aecd-d0afa7bdb281","ios":"levelo://app?vid=569ee311-0d90-4f86-aecd-d0afa7bdb281"},"vehicle_type_id":"4","last_reported":1748870732,"current_range_meters":12000,"station_id":"ce4bhe12rcd13ifvqf30","pricing_plan_id":"cebpf4jnsgd1na2vs0mg"},{"bike_id":"574dceb7-82c3-4f01-a992-0391d1461390","system_id":"levelo_inurba_marseille","lat":43.28148,"lon":5.42654,"is_reserved":false,"is_disabled":false,"rental_uris":{"android":"levelo://app?vid=574dceb7-82c3-4f01-a992-0391d1461390","ios":"levelo://app?vid=574dceb7-82c3-4f01-a992-0391d1461390"},"vehicle_type_id":"4","last_reported":1748870732,"current_range_meters":12000,"station_id":"ce4bhnh2rcd13ifvqgug","pricing_plan_id":"cebpf4jnsgd1na2vs0mg"},{"bike_id":"41ab561b-deed-4743-a96c-0360e4ec4d0e","system_id":"levelo_inurba_marseille","lat":43.29894,"lon":5.43659,"is_reserved":false,"is_disabled":false,"rental_uris":{"android":"levelo://app?vid=41ab561b-deed-4743-a96c-0360e4ec4d0e","ios":"levelo://app?vid=41ab561b-deed-4743-a96c-0360e4ec4d0e"},"vehicle_type_id":"4","last_reported":1748870732,"current_range_meters":12000,"station_id":"ce4bhpp2rcd13ifvqhfg","pricing_plan_id":"cebpf4jnsgd1na2vs0mg"},{"bike_id":"59387ad6-d210-4239-8e55-53547c26e18a","system_id":"levelo_inurba_marseille","lat":43.22509,"lon":5.347843,"is_reserved":false,"is_disabled":false,"rental_uris":{"android":"levelo://app?vid=59387ad6-d210-4239-8e55-53547c26e18a","ios":"levelo://app?vid=59387ad6-d210-4239-8e55-53547c26e18a"},"vehicle_type_id":"4","last_reported":1748870732,"current_range_meters":12000,"station_id":"st_cvj5dfep6f1abm77gieg","pricing_plan_id":"cebpf4jnsgd1na2vs0mg"},{"bike_id":"c42192fb-ca44-4a56-a3ed-3a91e2fbbff2","system_id":"levelo_inurba_marseille","lat":43.29518,"lon":5.37512,"is_reserved":false,"is_disabled":false,"rental_uris":{"android":"levelo://app?vid=c42192fb-ca44-4a56-a3ed-3a91e2fbbff2","ios":"levelo://app?vid=c42192fb-ca44-4a56-a3ed-3a91e2fbbff2"},"vehicle_type_id":"4","last_reported":1748870732,"current_range_meters":12400,"station_id":"ce4bgkp2rcd13ifvqbmg","pricing_plan_id":"cebpf4jnsgd1na2vs0mg"},{"bike_id":"eb573956-0029-454f-ae80-5818fe636f7e","system_id":"levelo_inurba_marseille","lat":43.29706,"lon":5.36616,"is_reserved":false,"is_disabled":false,"rental_uris":{"android":"levelo://app?vid=eb573956-0029-454f-ae80-5818fe636f7e","ios":"levelo://app?vid=eb573956-0029-454f-ae80-5818fe636f7e"},"vehicle_type_id":"4","last_reported":1748870732,"current_range_meters":12400,"station_id":"ce4bgn12rcd13ifvqbt0","pricing_plan_id":"cebpf4jnsgd1na2vs0mg"},{"bike_id":"b7334162-1737-4a7f-962a-7876019eb29e","system_id":"levelo_inurba_marseille","lat":43.29256,"lon":5.40894,"is_reserved":false,"is_disabled":false,"rental_uris":{"android":"levelo://app?vid=b7334162-1737-4a7f-962a-7876019eb29e","ios":"levelo://app?vid=b7334162-1737-4a7f-962a-7876019eb29e"},"vehicle_type_id":"4","last_reported":1748870732,"current_range_meters":12400,"station_id":"ce4bh192rcd13ifvqdc0","pricing_plan_id":"cebpf4jnsgd1na2vs0mg"},{"bike_id":"716ae743-21da-48ff-a8cd-4d872669e845","system_id":"levelo_inurba_marseille","lat":43.28104,"lon":5.37849,"is_reserved":false,"is_disabled":false,"rental_uris":{"android":"levelo://app?vid=716ae743-21da-48ff-a8cd-4d872669e845","ios":"levelo://app?vid=716ae743-21da-48ff-a8cd-4d872669e845"},"vehicle_type_id":"4","last_reported":1748870732,"current_range_meters":12400,"station_id":"ce4bha12rcd13ifvqee0","pricing_plan_id":"cebpf4jnsgd1na2vs0mg"},{"bike_id":"46f4a156-2bca-4717-98c0-04717abc8971","system_id":"levelo_inurba_marseille","lat":43.23199,"lon":5.35553,"is_reserved":false,"is_disabled":false,"rental_uris":{"android":"levelo://app?vid=46f4a156-2bca-4717-98c0-04717abc8971","ios":"levelo://app?vid=46f4a156-2bca-4717-98c0-04717abc8971"},"vehicle_type_id":"4","last_reported":1748870732,"current_range_meters":12400,"station_id":"ce4bhu92rcd13ifvqi70","pricing_plan_id":"cebpf4jnsgd1na2vs0mg"},{"bike_id":"3d55b845-5c54-4369-aeeb-6eab9ba1b9a0","system_id":"levelo_inurba_marseille","lat":43.265549,"lon":5.372813,"is_reserved":false,"is_disabled":false,"rental_uris":{"android":"levelo://app?vid=3d55b845-5c54-4369-aeeb-6eab9ba1b9a0","ios":"levelo://app?vid=3d55b845-5c54-4369-aeeb-6eab9ba1b9a0"},"vehicle_type_id":"4","last_reported":1748870732,"current_range_meters":12800,"station_id":"","pricing_plan_id":"cebpf4jnsgd1na2vs0mg"},{"bike_id":"00631d3c-2231-4625-9d84-019f18cef5bc","system_id":"levelo_inurba_marseille","lat":43.29248,"lon":5.3762,"is_reserved":false,"is_disabled":false,"rental_uris":{"android":"levelo://app?vid=00631d3c-2231-4625-9d84-019f18cef5bc","ios":"levelo://app?vid=00631d3c-2231-4625-9d84-019f18cef5bc"},"vehicle_type_id":"4","last_reported":1748870732,"current_range_meters":12800,"station_id":"ce4bgi12rcd13ifvqb80","pricing_plan_id":"cebpf4jnsgd1na2vs0mg"},{"bike_id":"f628c84e-0fb6-46a3-9c24-db9f3927c549","system_id":"levelo_inurba_marseille","lat":43.30333,"lon":5.40434,"is_reserved":false,"is_disabled":false,"rental_uris":{"android":"levelo://app?vid=f628c84e-0fb6-46a3-9c24-db9f3927c549","ios":"levelo://app?vid=f628c84e-0fb6-46a3-9c24-db9f3927c549"},"vehicle_type_id":"4","last_reported":1748870732,"current_range_meters":12800,"station_id":"ce4bh012rcd13ifvqd10","pricing_plan_id":"cebpf4jnsgd1na2vs0mg"},{"bike_id":"7df127ef-fcc8-4410-961f-c4cd6b650d43","system_id":"levelo_inurba_marseille","lat":43.24696,"lon":5.38105,"is_reserved":false,"is_disabled":false,"rental_uris":{"android":"levelo://app?vid=7df127ef-fcc8-4410-961f-c4cd6b650d43","ios":"levelo://app?vid=7df127ef-fcc8-4410-961f-c4cd6b650d43"},"vehicle_type_id":"4","last_reported":1748870732,"current_range_meters":12800,"station_id":"ce4bhih2rcd13ifvqfr0","pricing_plan_id":"cebpf4jnsgd1na2vs0mg"},{"bike_id":"8e4d421b-9a96-4b99-8137-915430664cc9","system_id":"levelo_inurba_marseille","lat":43.24175,"lon":5.36396,"is_reserved":false,"is_disabled":false,"rental_uris":{"android":"levelo://app?vid=8e4d421b-9a96-4b99-8137-915430664cc9","ios":"levelo://app?vid=8e4d421b-9a96-4b99-8137-915430664cc9"},"vehicle_type_id":"4","last_reported":1748870732,"current_range_meters":12800,"station_id":"cpo36qri1sfpv3e86is0","pricing_plan_id":"cebpf4jnsgd1na2vs0mg"},{"bike_id":"f1c8c7e1-3f34-4d38-a503-caa580ebde75","system_id":"levelo_inurba_marseille","lat":43.22508,"lon":5.34791,"is_reserved":false,"is_disabled":false,"rental_uris":{"android":"levelo://app?vid=f1c8c7e1-3f34-4d38-a503-caa580ebde75","ios":"levelo://app?vid=f1c8c7e1-3f34-4d38-a503-caa580ebde75"},"vehicle_type_id":"4","last_reported":1748870732,"current_range_meters":13600,"station_id":"","pricing_plan_id":"cebpf4jnsgd1na2vs0mg"},{"bike_id":"4129cac4-5893-4452-a234-f800d8ab0cb1","system_id":"levelo_inurba_marseille","lat":43.3014,"lon":5.380696,"is_reserved":false,"is_disabled":false,"rental_uris":{"android":"levelo://app?vid=4129cac4-5893-4452-a234-f800d8ab0cb1","ios":"levelo://app?vid=4129cac4-5893-4452-a234-f800d8ab0cb1"},"vehicle_type_id":"4","last_reported":1748870732,"current_range_meters":13600,"station_id":"ce4bgjp2rcd13ifvqbh0","pricing_plan_id":"cebpf4jnsgd1na2vs0mg"},{"bike_id":"9535560b-9f7e-41de-b5da-8aa34c38e486","system_id":"levelo_inurba_marseille","lat":43.29698,"lon":5.36598,"is_reserved":false,"is_disabled":false,"rental_uris":{"android":"levelo://app?vid=9535560b-9f7e-41de-b5da-8aa34c38e486","ios":"levelo://app?vid=9535560b-9f7e-41de-b5da-8aa34c38e486"},"vehicle_type_id":"4","last_reported":1748870732,"current_range_meters":13600,"station_id":"ce4bgn12rcd13ifvqbt0","pricing_plan_id":"cebpf4jnsgd1na2vs0mg"},{"bike_id":"181464a3-c7c0-4d2b-85cf-03396f7bebab","system_id":"levelo_inurba_marseille","lat":43.29845,"lon":5.36269,"is_reserved":false,"is_disabled":false,"rental_uris":{"android":"levelo://app?vid=181464a3-c7c0-4d2b-85cf-03396f7bebab","ios":"levelo://app?vid=181464a3-c7c0-4d2b-85cf-03396f7bebab"},"vehicle_type_id":"4","last_reported":1748870732,"current_range_meters":13600,"station_id":"ce4bgpp2rcd13ifvqc3g","pricing_plan_id":"cebpf4jnsgd1na2vs0mg"},{"bike_id":"6cf1e739-d7d0-4181-8975-0cc3358abac3","system_id":"levelo_inurba_marseille","lat":43.30248,"lon":5.40047,"is_reserved":false,"is_disabled":false,"rental_uris":{"android":"levelo://app?vid=6cf1e739-d7d0-4181-8975-0cc3358abac3","ios":"levelo://app?vid=6cf1e739-d7d0-4181-8975-0cc3358abac3"},"vehicle_type_id":"4","last_reported":1748870732,"current_range_meters":13600,"station_id":"ce4bgvh2rcd13ifvqcs0","pricing_plan_id":"cebpf4jnsgd1na2vs0mg"},{"bike_id":"a5ef64a0-9027-4826-813b-2620fd6750d1","system_id":"levelo_inurba_marseille","lat":43.3133,"lon":5.39697,"is_reserved":false,"is_disabled":false,"rental_uris":{"android":"levelo://app?vid=a5ef64a0-9027-4826-813b-2620fd6750d1","ios":"levelo://app?vid=a5ef64a0-9027-4826-813b-2620fd6750d1"},"vehicle_type_id":"4","last_reported":1748870732,"current_range_meters":13600,"station_id":"ce4bgvp2rcd13ifvqcu0","pricing_plan_id":"cebpf4jnsgd1na2vs0mg"},{"bike_id":"9667cac9-f44c-41c2-a8ae-3bb07c830d05","system_id":"levelo_inurba_marseille","lat":43.25867,"lon":5.39902,"is_reserved":false,"is_disabled":false,"rental_uris":{"android":"levelo://app?vid=9667cac9-f44c-41c2-a8ae-3bb07c830d05","ios":"levelo://app?vid=9667cac9-f44c-41c2-a8ae-3bb07c830d05"},"vehicle_type_id":"4","last_reported":1748870732,"current_range_meters":13600,"station_id":"ce4bhl92rcd13ifvqghg","pricing_plan_id":"cebpf4jnsgd1na2vs0mg"},{"bike_id":"f9ba8850-482d-43cd-93c6-da015477c7af","system_id":"levelo_inurba_marseille","lat":43.28596,"lon":5.3838,"is_reserved":false,"is_disabled":false,"rental_uris":{"android":"levelo://app?vid=f9ba8850-482d-43cd-93c6-da015477c7af","ios":"levelo://app?vid=f9ba8850-482d-43cd-93c6-da015477c7af"},"vehicle_type_id":"4","last_reported":1748870732,"current_range_meters":14000,"station_id":"","pricing_plan_id":"cebpf4jnsgd1na2vs0mg"},{"bike_id":"eca45143-16af-4fbb-8c61-2374cc75d18f","system_id":"levelo_inurba_marseille","lat":43.298188,"lon":5.380924,"is_reserved":false,"is_disabled":false,"rental_uris":{"android":"levelo://app?vid=eca45143-16af-4fbb-8c61-2374cc75d18f","ios":"levelo://app?vid=eca45143-16af-4fbb-8c61-2374cc75d18f"},"vehicle_type_id":"4","last_reported":1748870732,"current_range_meters":14000,"station_id":"ce4bgip2rcd13ifvqbb0","pricing_plan_id":"cebpf4jnsgd1na2vs0mg"},{"bike_id":"5536fd8e-2b93-4420-afb5-0df5f0939ff9","system_id":"levelo_inurba_marseille","lat":43.30162,"lon":5.38089,"is_reserved":false,"is_disabled":false,"rental_uris":{"android":"levelo://app?vid=5536fd8e-2b93-4420-afb5-0df5f0939ff9","ios":"levelo://app?vid=5536fd8e-2b93-4420-afb5-0df5f0939ff9"},"vehicle_type_id":"4","last_reported":1748870732,"current_range_meters":14000,"station_id":"ce4bgjp2rcd13ifvqbh0","pricing_plan_id":"cebpf4jnsgd1na2vs0mg"},{"bike_id":"a74c57a5-af33-4bb7-8193-f4303537c548","system_id":"levelo_inurba_marseille","lat":43.29261,"lon":5.40908,"is_reserved":false,"is_disabled":false,"rental_uris":{"android":"levelo://app?vid=a74c57a5-af33-4bb7-8193-f4303537c548","ios":"levelo://app?vid=a74c57a5-af33-4bb7-8193-f4303537c548"},"vehicle_type_id":"4","last_reported":1748870732,"current_range_meters":14000,"station_id":"ce4bh192rcd13ifvqdc0","pricing_plan_id":"cebpf4jnsgd1na2vs0mg"},{"bike_id":"e5c05754-7020-47d3-9700-6a7e9ff38e0d","system_id":"levelo_inurba_marseille","lat":43.28413,"lon":5.3751,"is_reserved":false,"is_disabled":false,"rental_uris":{"android":"levelo://app?vid=e5c05754-7020-47d3-9700-6a7e9ff38e0d","ios":"levelo://app?vid=e5c05754-7020-47d3-9700-6a7e9ff38e0d"},"vehicle_type_id":"4","last_reported":1748870732,"current_range_meters":14000,"station_id":"ce4bh412rcd13ifvqds0","pricing_plan_id":"cebpf4jnsgd1na2vs0mg"},{"bike_id":"03655554-b101-43e0-b723-d5cd08234949","system_id":"levelo_inurba_marseille","lat":43.25502,"lon":5.37652,"is_reserved":false,"is_disabled":false,"rental_uris":{"android":"levelo://app?vid=03655554-b101-43e0-b723-d5cd08234949","ios":"levelo://app?vid=03655554-b101-43e0-b723-d5cd08234949"},"vehicle_type_id":"4","last_reported":1748870732,"current_range_meters":14000,"station_id":"ce4bhh12rcd13ifvqff0","pricing_plan_id":"cebpf4jnsgd1na2vs0mg"},{"bike_id":"f36d0fcd-f8bd-4666-baf6-f41745d7572d","system_id":"levelo_inurba_marseille","lat":43.27996,"lon":5.40015,"is_reserved":false,"is_disabled":false,"rental_uris":{"android":"levelo://app?vid=f36d0fcd-f8bd-4666-baf6-f41745d7572d","ios":"levelo://app?vid=f36d0fcd-f8bd-4666-baf6-f41745d7572d"},"vehicle_type_id":"4","last_reported":1748870732,"current_range_meters":14000,"station_id":"ce4bho92rcd13ifvqh4g","pricing_plan_id":"cebpf4jnsgd1na2vs0mg"},{"bike_id":"d1376fdb-bb8d-40aa-8de5-84acb3706c2e","system_id":"levelo_inurba_marseille","lat":43.323585,"lon":5.367587,"is_reserved":false,"is_disabled":false,"rental_uris":{"android":"levelo://app?vid=d1376fdb-bb8d-40aa-8de5-84acb3706c2e","ios":"levelo://app?vid=d1376fdb-bb8d-40aa-8de5-84acb3706c2e"},"vehicle_type_id":"4","last_reported":1748870732,"current_range_meters":14000,"station_id":"ce4bhsh2rcd13ifvqi2g","pricing_plan_id":"cebpf4jnsgd1na2vs0mg"},{"bike_id":"499fb29d-0d16-4a40-9c2e-e16e069b3a26","system_id":"levelo_inurba_marseille","lat":43.295844,"lon":5.374916,"is_reserved":false,"is_disabled":false,"rental_uris":{"android":"levelo://app?vid=499fb29d-0d16-4a40-9c2e-e16e069b3a26","ios":"levelo://app?vid=499fb29d-0d16-4a40-9c2e-e16e069b3a26"},"vehicle_type_id":"4","last_reported":1748870732,"current_range_meters":14400,"station_id":"ce4bgh92rcd13ifvqb50","pricing_plan_id":"cebpf4jnsgd1na2vs0mg"},{"bike_id":"ab6e4084-c12e-44b7-bddb-0c1970117956","system_id":"levelo_inurba_marseille","lat":43.312333,"lon":5.368393,"is_reserved":false,"is_disabled":false,"rental_uris":{"android":"levelo://app?vid=ab6e4084-c12e-44b7-bddb-0c1970117956","ios":"levelo://app?vid=ab6e4084-c12e-44b7-bddb-0c1970117956"},"vehicle_type_id":"4","last_reported":1748870732,"current_range_meters":14400,"station_id":"ce4bgl92rcd13ifvqbq0","pricing_plan_id":"cebpf4jnsgd1na2vs0mg"},{"bike_id":"2025ef7d-4c38-41d7-b1bd-650bba2e3ce1","system_id":"levelo_inurba_marseille","lat":43.29932,"lon":5.36542,"is_reserved":false,"is_disabled":false,"rental_uris":{"android":"levelo://app?vid=2025ef7d-4c38-41d7-b1bd-650bba2e3ce1","ios":"levelo://app?vid=2025ef7d-4c38-41d7-b1bd-650bba2e3ce1"},"vehicle_type_id":"4","last_reported":1748870732,"current_range_meters":14400,"station_id":"ce4bgm92rcd13ifvqbr0","pricing_plan_id":"cebpf4jnsgd1na2vs0mg"},{"bike_id":"7f408ccb-ea43-4112-b28a-61d09ffa7030","system_id":"levelo_inurba_marseille","lat":43.30899,"lon":5.37188,"is_reserved":false,"is_disabled":false,"rental_uris":{"android":"levelo://app?vid=7f408ccb-ea43-4112-b28a-61d09ffa7030","ios":"levelo://app?vid=7f408ccb-ea43-4112-b28a-61d09ffa7030"},"vehicle_type_id":"4","last_reported":1748870732,"current_range_meters":14400,"station_id":"ce4bguh2rcd13ifvqckg","pricing_plan_id":"cebpf4jnsgd1na2vs0mg"},{"bike_id":"5dd8de81-1418-4bdc-8ec8-0985c44139d9","system_id":"levelo_inurba_marseille","lat":43.31691,"lon":5.40474,"is_reserved":false,"is_disabled":false,"rental_uris":{"android":"levelo://app?vid=5dd8de81-1418-4bdc-8ec8-0985c44139d9","ios":"levelo://app?vid=5dd8de81-1418-4bdc-8ec8-0985c44139d9"},"vehicle_type_id":"4","last_reported":1748870732,"current_range_meters":14400,"station_id":"ce4bh012rcd13ifvqd00","pricing_plan_id":"cebpf4jnsgd1na2vs0mg"},{"bike_id":"5b0c04c7-3e5d-4981-ba91-7d65704822b2","system_id":"levelo_inurba_marseille","lat":43.27905,"lon":5.38013,"is_reserved":false,"is_disabled":false,"rental_uris":{"android":"levelo://app?vid=5b0c04c7-3e5d-4981-ba91-7d65704822b2","ios":"levelo://app?vid=5b0c04c7-3e5d-4981-ba91-7d65704822b2"},"vehicle_type_id":"4","last_reported":1748870732,"current_range_meters":14400,"station_id":"ce4bhf92rcd13ifvqf50","pricing_plan_id":"cebpf4jnsgd1na2vs0mg"},{"bike_id":"784180dd-9bbc-4a7e-817b-24dd293372b0","system_id":"levelo_inurba_marseille","lat":43.27998,"lon":5.40017,"is_reserved":false,"is_disabled":false,"rental_uris":{"android":"levelo://app?vid=784180dd-9bbc-4a7e-817b-24dd293372b0","ios":"levelo://app?vid=784180dd-9bbc-4a7e-817b-24dd293372b0"},"vehicle_type_id":"4","last_reported":1748870732,"current_range_meters":14400,"station_id":"ce4bho92rcd13ifvqh4g","pricing_plan_id":"cebpf4jnsgd1na2vs0mg"},{"bike_id":"9c99e6d3-dc3c-4a1d-88ad-8e44dc120da6","system_id":"levelo_inurba_marseille","lat":43.26929,"lon":5.38658,"is_reserved":false,"is_disabled":false,"rental_uris":{"android":"levelo://app?vid=9c99e6d3-dc3c-4a1d-88ad-8e44dc120da6","ios":"levelo://app?vid=9c99e6d3-dc3c-4a1d-88ad-8e44dc120da6"},"vehicle_type_id":"4","last_reported":1748870732,"current_range_meters":14800,"station_id":"ce4bhh92rcd13ifvqfh0","pricing_plan_id":"cebpf4jnsgd1na2vs0mg"},{"bike_id":"1e0a1263-2d49-46a8-b582-8ca914271a59","system_id":"levelo_inurba_marseille","lat":43.25863,"lon":5.3991,"is_reserved":false,"is_disabled":false,"rental_uris":{"android":"levelo://app?vid=1e0a1263-2d49-46a8-b582-8ca914271a59","ios":"levelo://app?vid=1e0a1263-2d49-46a8-b582-8ca914271a59"},"vehicle_type_id":"4","last_reported":1748870732,"current_range_meters":14800,"station_id":"ce4bhl92rcd13ifvqghg","pricing_plan_id":"cebpf4jnsgd1na2vs0mg"},{"bike_id":"65ef1e47-c760-40b6-9075-b7e984ccec5a","system_id":"levelo_inurba_marseille","lat":43.25941,"lon":5.40848,"is_reserved":false,"is_disabled":false,"rental_uris":{"android":"levelo://app?vid=65ef1e47-c760-40b6-9075-b7e984ccec5a","ios":"levelo://app?vid=65ef1e47-c760-40b6-9075-b7e984ccec5a"},"vehicle_type_id":"4","last_reported":1748870732,"current_range_meters":14800,"station_id":"ce4bhm92rcd13ifvqglg","pricing_plan_id":"cebpf4jnsgd1na2vs0mg"},{"bike_id":"65618225-bb32-4e2c-8cb5-9009cbc8d45a","system_id":"levelo_inurba_marseille","lat":43.23153,"lon":5.43713,"is_reserved":false,"is_disabled":false,"rental_uris":{"android":"levelo://app?vid=65618225-bb32-4e2c-8cb5-9009cbc8d45a","ios":"levelo://app?vid=65618225-bb32-4e2c-8cb5-9009cbc8d45a"},"vehicle_type_id":"4","last_reported":1748870732,"current_range_meters":14800,"station_id":"ce4bhmp2rcd13ifvqgog","pricing_plan_id":"cebpf4jnsgd1na2vs0mg"},{"bike_id":"74d5de7c-ebf0-47ff-b754-bcefcf1b83b8","system_id":"levelo_inurba_marseille","lat":43.32369,"lon":5.38889,"is_reserved":false,"is_disabled":false,"rental_uris":{"android":"levelo://app?vid=74d5de7c-ebf0-47ff-b754-bcefcf1b83b8","ios":"levelo://app?vid=74d5de7c-ebf0-47ff-b754-bcefcf1b83b8"},"vehicle_type_id":"4","last_reported":1748870732,"current_range_meters":14800,"station_id":"ce4bhqp2rcd13ifvqhog","pricing_plan_id":"cebpf4jnsgd1na2vs0mg"},{"bike_id":"fa62253e-e4db-42d1-9a63-6ab16922bf00","system_id":"levelo_inurba_marseille","lat":43.32014,"lon":5.36821,"is_reserved":false,"is_disabled":false,"rental_uris":{"android":"levelo://app?vid=fa62253e-e4db-42d1-9a63-6ab16922bf00","ios":"levelo://app?vid=fa62253e-e4db-42d1-9a63-6ab16922bf00"},"vehicle_type_id":"4","last_reported":1748870732,"current_range_meters":15200,"station_id":"","pricing_plan_id":"cebpf4jnsgd1na2vs0mg"},{"bike_id":"84f07d9e-f274-494b-ba22-ec6cda2a2271","system_id":"levelo_inurba_marseille","lat":43.29788,"lon":5.38103,"is_reserved":false,"is_disabled":false,"rental_uris":{"android":"levelo://app?vid=84f07d9e-f274-494b-ba22-ec6cda2a2271","ios":"levelo://app?vid=84f07d9e-f274-494b-ba22-ec6cda2a2271"},"vehicle_type_id":"4","last_reported":1748870732,"current_range_meters":15200,"station_id":"ce4bgip2rcd13ifvqbb0","pricing_plan_id":"cebpf4jnsgd1na2vs0mg"},{"bike_id":"ef702923-b6ce-45d0-bd83-2de442ad8c7d","system_id":"levelo_inurba_marseille","lat":43.30329,"lon":5.40443,"is_reserved":false,"is_disabled":false,"rental_uris":{"android":"levelo://app?vid=ef702923-b6ce-45d0-bd83-2de442ad8c7d","ios":"levelo://app?vid=ef702923-b6ce-45d0-bd83-2de442ad8c7d"},"vehicle_type_id":"4","last_reported":1748870732,"current_range_meters":15200,"station_id":"ce4bh012rcd13ifvqd10","pricing_plan_id":"cebpf4jnsgd1na2vs0mg"},{"bike_id":"3082751b-d3f4-42ac-b6c0-bf946931c7e5","system_id":"levelo_inurba_marseille","lat":43.21198,"lon":5.35071,"is_reserved":false,"is_disabled":false,"rental_uris":{"android":"levelo://app?vid=3082751b-d3f4-42ac-b6c0-bf946931c7e5","ios":"levelo://app?vid=3082751b-d3f4-42ac-b6c0-bf946931c7e5"},"vehicle_type_id":"4","last_reported":1748870732,"current_range_meters":15200,"station_id":"st_cvj6sg6p6f1abm77japg","pricing_plan_id":"cebpf4jnsgd1na2vs0mg"},{"bike_id":"e1185c3f-87a6-4d0a-a6c5-956e916d3e0f","system_id":"levelo_inurba_marseille","lat":43.21196,"lon":5.35071,"is_reserved":false,"is_disabled":false,"rental_uris":{"android":"levelo://app?vid=e1185c3f-87a6-4d0a-a6c5-956e916d3e0f","ios":"levelo://app?vid=e1185c3f-87a6-4d0a-a6c5-956e916d3e0f"},"vehicle_type_id":"4","last_reported":1748870732,"current_range_meters":15200,"station_id":"st_cvj6sg6p6f1abm77japg","pricing_plan_id":"cebpf4jnsgd1na2vs0mg"},{"bike_id":"c4aea8e6-a6f2-4d96-830e-57e046402925","system_id":"levelo_inurba_marseille","lat":43.30538,"lon":5.36562,"is_reserved":false,"is_disabled":false,"rental_uris":{"android":"levelo://app?vid=c4aea8e6-a6f2-4d96-830e-57e046402925","ios":"levelo://app?vid=c4aea8e6-a6f2-4d96-830e-57e046402925"},"vehicle_type_id":"4","last_reported":1748870732,"current_range_meters":16000,"station_id":"ce4bgs12rcd13ifvqcag","pricing_plan_id":"cebpf4jnsgd1na2vs0mg"},{"bike_id":"892d0868-b63c-4a0a-9f8b-47b73e4ab569","system_id":"levelo_inurba_marseille","lat":43.30414,"lon":5.39756,"is_reserved":false,"is_disabled":false,"rental_uris":{"android":"levelo://app?vid=892d0868-b63c-4a0a-9f8b-47b73e4ab569","ios":"levelo://app?vid=892d0868-b63c-4a0a-9f8b-47b73e4ab569"},"vehicle_type_id":"4","last_reported":1748870732,"current_range_meters":16000,"station_id":"ce4bh092rcd13ifvqd20","pricing_plan_id":"cebpf4jnsgd1na2vs0mg"},{"bike_id":"f68b568c-19c3-4299-b1fc-d195d756dfea","system_id":"levelo_inurba_marseille","lat":43.28267,"lon":5.350607,"is_reserved":false,"is_disabled":false,"rental_uris":{"android":"levelo://app?vid=f68b568c-19c3-4299-b1fc-d195d756dfea","ios":"levelo://app?vid=f68b568c-19c3-4299-b1fc-d195d756dfea"},"vehicle_type_id":"4","last_reported":1748870732,"current_range_meters":16000,"station_id":"ce4bhbp2rcd13ifvqerg","pricing_plan_id":"cebpf4jnsgd1na2vs0mg"},{"bike_id":"cd5c49c2-83b4-4247-99ad-9f9ed6defa6d","system_id":"levelo_inurba_marseille","lat":43.26217,"lon":5.37439,"is_reserved":false,"is_disabled":false,"rental_uris":{"android":"levelo://app?vid=cd5c49c2-83b4-4247-99ad-9f9ed6defa6d","ios":"levelo://app?vid=cd5c49c2-83b4-4247-99ad-9f9ed6defa6d"},"vehicle_type_id":"4","last_reported":1748870732,"current_range_meters":16000,"station_id":"ce4bhgp2rcd13ifvqfc0","pricing_plan_id":"cebpf4jnsgd1na2vs0mg"},{"bike_id":"2171c9f1-57c0-4bf3-b436-aee76219ed87","system_id":"levelo_inurba_marseille","lat":43.27817,"lon":5.40717,"is_reserved":false,"is_disabled":false,"rental_uris":{"android":"levelo://app?vid=2171c9f1-57c0-4bf3-b436-aee76219ed87","ios":"levelo://app?vid=2171c9f1-57c0-4bf3-b436-aee76219ed87"},"vehicle_type_id":"4","last_reported":1748870732,"current_range_meters":16000,"station_id":"ce4bhnh2rcd13ifvqgtg","pricing_plan_id":"cebpf4jnsgd1na2vs0mg"},{"bike_id":"50e4ca6a-4a4a-44e5-aa73-72f4fd4506e6","system_id":"levelo_inurba_marseille","lat":43.21752,"lon":5.3462,"is_reserved":false,"is_disabled":false,"rental_uris":{"android":"levelo://app?vid=50e4ca6a-4a4a-44e5-aa73-72f4fd4506e6","ios":"levelo://app?vid=50e4ca6a-4a4a-44e5-aa73-72f4fd4506e6"},"vehicle_type_id":"4","last_reported":1748870732,"current_range_meters":16000,"station_id":"st_cvj6r9ubvosntc0bgbag","pricing_plan_id":"cebpf4jnsgd1na2vs0mg"},{"bike_id":"dcf11d28-6f02-4602-9c51-5f0a021771bb","system_id":"levelo_inurba_marseille","lat":43.21186,"lon":5.35068,"is_reserved":false,"is_disabled":false,"rental_uris":{"android":"levelo://app?vid=dcf11d28-6f02-4602-9c51-5f0a021771bb","ios":"levelo://app?vid=dcf11d28-6f02-4602-9c51-5f0a021771bb"},"vehicle_type_id":"4","last_reported":1748870732,"current_range_meters":16000,"station_id":"st_cvj6sg6p6f1abm77japg","pricing_plan_id":"cebpf4jnsgd1na2vs0mg"},{"bike_id":"0448020e-38d2-492b-991a-276a7f2dd5b2","system_id":"levelo_inurba_marseille","lat":43.30137,"lon":5.38071,"is_reserved":false,"is_disabled":false,"rental_uris":{"android":"levelo://app?vid=0448020e-38d2-492b-991a-276a7f2dd5b2","ios":"levelo://app?vid=0448020e-38d2-492b-991a-276a7f2dd5b2"},"vehicle_type_id":"4","last_reported":1748870732,"current_range_meters":16400,"station_id":"ce4bgjp2rcd13ifvqbh0","pricing_plan_id":"cebpf4jnsgd1na2vs0mg"},{"bike_id":"a688aa03-5584-43d6-8aef-3f6b47566496","system_id":"levelo_inurba_marseille","lat":43.28268,"lon":5.35072,"is_reserved":false,"is_disabled":false,"rental_uris":{"android":"levelo://app?vid=a688aa03-5584-43d6-8aef-3f6b47566496","ios":"levelo://app?vid=a688aa03-5584-43d6-8aef-3f6b47566496"},"vehicle_type_id":"4","last_reported":1748870732,"current_range_meters":16400,"station_id":"ce4bhbp2rcd13ifvqerg","pricing_plan_id":"cebpf4jnsgd1na2vs0mg"},{"bike_id":"7c90cf00-0246-4c18-9e73-4ff3914fd8bd","system_id":"levelo_inurba_marseille","lat":43.25014,"lon":5.38929,"is_reserved":false,"is_disabled":false,"rental_uris":{"android":"levelo://app?vid=7c90cf00-0246-4c18-9e73-4ff3914fd8bd","ios":"levelo://app?vid=7c90cf00-0246-4c18-9e73-4ff3914fd8bd"},"vehicle_type_id":"4","last_reported":1748870732,"current_range_meters":16400,"station_id":"ce4bhgp2rcd13ifvqfd0","pricing_plan_id":"cebpf4jnsgd1na2vs0mg"},{"bike_id":"26d6f250-774a-44dd-bee1-562e64385162","system_id":"levelo_inurba_marseille","lat":43.2471,"lon":5.38121,"is_reserved":false,"is_disabled":false,"rental_uris":{"android":"levelo://app?vid=26d6f250-774a-44dd-bee1-562e64385162","ios":"levelo://app?vid=26d6f250-774a-44dd-bee1-562e64385162"},"vehicle_type_id":"4","last_reported":1748870732,"current_range_meters":16400,"station_id":"ce4bhih2rcd13ifvqfr0","pricing_plan_id":"cebpf4jnsgd1na2vs0mg"},{"bike_id":"d181378e-63f0-434d-ab37-12e8e8f0cb32","system_id":"levelo_inurba_marseille","lat":43.22943,"lon":5.35369,"is_reserved":false,"is_disabled":false,"rental_uris":{"android":"levelo://app?vid=d181378e-63f0-434d-ab37-12e8e8f0cb32","ios":"levelo://app?vid=d181378e-63f0-434d-ab37-12e8e8f0cb32"},"vehicle_type_id":"4","last_reported":1748870732,"current_range_meters":16400,"station_id":"cpo3532slgdg3j2ikp40","pricing_plan_id":"cebpf4jnsgd1na2vs0mg"},{"bike_id":"9deb248a-acd5-48b0-b82c-6dc3cf8f274e","system_id":"levelo_inurba_marseille","lat":43.29795,"lon":5.381106,"is_reserved":false,"is_disabled":false,"rental_uris":{"android":"levelo://app?vid=9deb248a-acd5-48b0-b82c-6dc3cf8f274e","ios":"levelo://app?vid=9deb248a-acd5-48b0-b82c-6dc3cf8f274e"},"vehicle_type_id":"4","last_reported":1748870732,"current_range_meters":16800,"station_id":"ce4bgip2rcd13ifvqbb0","pricing_plan_id":"cebpf4jnsgd1na2vs0mg"},{"bike_id":"3b683aa6-b9d3-4776-919c-96da9481b6a5","system_id":"levelo_inurba_marseille","lat":43.25045,"lon":5.3885,"is_reserved":false,"is_disabled":false,"rental_uris":{"android":"levelo://app?vid=3b683aa6-b9d3-4776-919c-96da9481b6a5","ios":"levelo://app?vid=3b683aa6-b9d3-4776-919c-96da9481b6a5"},"vehicle_type_id":"4","last_reported":1748870732,"current_range_meters":17200,"station_id":"","pricing_plan_id":"cebpf4jnsgd1na2vs0mg"},{"bike_id":"ec488bb4-0fd8-4bc9-80f8-f907c5574e33","system_id":"levelo_inurba_marseille","lat":43.29795,"lon":5.3811,"is_reserved":false,"is_disabled":false,"rental_uris":{"android":"levelo://app?vid=ec488bb4-0fd8-4bc9-80f8-f907c5574e33","ios":"levelo://app?vid=ec488bb4-0fd8-4bc9-80f8-f907c5574e33"},"vehicle_type_id":"4","last_reported":1748870732,"current_range_meters":17200,"station_id":"ce4bgip2rcd13ifvqbb0","pricing_plan_id":"cebpf4jnsgd1na2vs0mg"},{"bike_id":"1c49fb93-aa0e-4784-835f-f5d95a43e453","system_id":"levelo_inurba_marseille","lat":43.29629,"lon":5.37167,"is_reserved":false,"is_disabled":false,"rental_uris":{"android":"levelo://app?vid=1c49fb93-aa0e-4784-835f-f5d95a43e453","ios":"levelo://app?vid=1c49fb93-aa0e-4784-835f-f5d95a43e453"},"vehicle_type_id":"4","last_reported":1748870732,"current_range_meters":17200,"station_id":"ce4bgnh2rcd13ifvqc0g","pricing_plan_id":"cebpf4jnsgd1na2vs0mg"},{"bike_id":"598a02d1-ba59-4da1-8242-4340f6602a91","system_id":"levelo_inurba_marseille","lat":43.305893,"lon":5.393589,"is_reserved":false,"is_disabled":false,"rental_uris":{"android":"levelo://app?vid=598a02d1-ba59-4da1-8242-4340f6602a91","ios":"levelo://app?vid=598a02d1-ba59-4da1-8242-4340f6602a91"},"vehicle_type_id":"4","last_reported":1748870732,"current_range_meters":17200,"station_id":"ce4bh0p2rcd13ifvqd80","pricing_plan_id":"cebpf4jnsgd1na2vs0mg"},{"bike_id":"b06ea5b4-1fc5-413b-9ae6-2a73cf063c07","system_id":"levelo_inurba_marseille","lat":43.29796,"lon":5.38097,"is_reserved":false,"is_disabled":false,"rental_uris":{"android":"levelo://app?vid=b06ea5b4-1fc5-413b-9ae6-2a73cf063c07","ios":"levelo://app?vid=b06ea5b4-1fc5-413b-9ae6-2a73cf063c07"},"vehicle_type_id":"4","last_reported":1748870732,"current_range_meters":17600,"station_id":"ce4bgip2rcd13ifvqbb0","pricing_plan_id":"cebpf4jnsgd1na2vs0mg"},{"bike_id":"1ec80b7c-189b-44a6-a856-4fb261a2c1b9","system_id":"levelo_inurba_marseille","lat":43.29007,"lon":5.35615,"is_reserved":false,"is_disabled":false,"rental_uris":{"android":"levelo://app?vid=1ec80b7c-189b-44a6-a856-4fb261a2c1b9","ios":"levelo://app?vid=1ec80b7c-189b-44a6-a856-4fb261a2c1b9"},"vehicle_type_id":"4","last_reported":1748870732,"current_range_meters":17600,"station_id":"ce4bhb92rcd13ifvqen0","pricing_plan_id":"cebpf4jnsgd1na2vs0mg"},{"bike_id":"48da913c-189e-4adb-8b41-df2f525f675f","system_id":"levelo_inurba_marseille","lat":43.27909,"lon":5.37957,"is_reserved":false,"is_disabled":false,"rental_uris":{"android":"levelo://app?vid=48da913c-189e-4adb-8b41-df2f525f675f","ios":"levelo://app?vid=48da913c-189e-4adb-8b41-df2f525f675f"},"vehicle_type_id":"4","last_reported":1748870732,"current_range_meters":17600,"station_id":"ce4bhf92rcd13ifvqf50","pricing_plan_id":"cebpf4jnsgd1na2vs0mg"},{"bike_id":"f7c222b7-121f-4289-83d7-a78068e28d1f","system_id":"levelo_inurba_marseille","lat":43.260305,"lon":5.375465,"is_reserved":false,"is_disabled":false,"rental_uris":{"android":"levelo://app?vid=f7c222b7-121f-4289-83d7-a78068e28d1f","ios":"levelo://app?vid=f7c222b7-121f-4289-83d7-a78068e28d1f"},"vehicle_type_id":"4","last_reported":1748870732,"current_range_meters":17600,"station_id":"ce4bhgh2rcd13ifvqfa0","pricing_plan_id":"cebpf4jnsgd1na2vs0mg"},{"bike_id":"6d1d683c-6b3f-453b-8290-782931564682","system_id":"levelo_inurba_marseille","lat":43.27499,"lon":5.42443,"is_reserved":false,"is_disabled":false,"rental_uris":{"android":"levelo://app?vid=6d1d683c-6b3f-453b-8290-782931564682","ios":"levelo://app?vid=6d1d683c-6b3f-453b-8290-782931564682"},"vehicle_type_id":"4","last_reported":1748870732,"current_range_meters":17600,"station_id":"ce4bhn92rcd13ifvqgrg","pricing_plan_id":"cebpf4jnsgd1na2vs0mg"},{"bike_id":"122c0a0c-3cf8-4a90-b5bf-5ce67d42b100","system_id":"levelo_inurba_marseille","lat":43.27996,"lon":5.40018,"is_reserved":false,"is_disabled":false,"rental_uris":{"android":"levelo://app?vid=122c0a0c-3cf8-4a90-b5bf-5ce67d42b100","ios":"levelo://app?vid=122c0a0c-3cf8-4a90-b5bf-5ce67d42b100"},"vehicle_type_id":"4","last_reported":1748870732,"current_range_meters":17600,"station_id":"ce4bho92rcd13ifvqh4g","pricing_plan_id":"cebpf4jnsgd1na2vs0mg"},{"bike_id":"c102e8d6-5a09-4dbf-8c5c-f836847662f2","system_id":"levelo_inurba_marseille","lat":43.28614,"lon":5.37059,"is_reserved":false,"is_disabled":false,"rental_uris":{"android":"levelo://app?vid=c102e8d6-5a09-4dbf-8c5c-f836847662f2","ios":"levelo://app?vid=c102e8d6-5a09-4dbf-8c5c-f836847662f2"},"vehicle_type_id":"4","last_reported":1748870732,"current_range_meters":17600,"station_id":"ce4bht12rcd13ifvqi60","pricing_plan_id":"cebpf4jnsgd1na2vs0mg"},{"bike_id":"e7c936cb-6ce4-4b14-afe0-254bd46648bf","system_id":"levelo_inurba_marseille","lat":43.30146,"lon":5.37406,"is_reserved":false,"is_disabled":false,"rental_uris":{"android":"levelo://app?vid=e7c936cb-6ce4-4b14-afe0-254bd46648bf","ios":"levelo://app?vid=e7c936cb-6ce4-4b14-afe0-254bd46648bf"},"vehicle_type_id":"4","last_reported":1748870732,"current_range_meters":18000,"station_id":"ce4bgs92rcd13ifvqcc0","pricing_plan_id":"cebpf4jnsgd1na2vs0mg"},{"bike_id":"357d48fa-d01e-475d-9293-9c49d84e3875","system_id":"levelo_inurba_marseille","lat":43.30935,"lon":5.40137,"is_reserved":false,"is_disabled":false,"rental_uris":{"android":"levelo://app?vid=357d48fa-d01e-475d-9293-9c49d84e3875","ios":"levelo://app?vid=357d48fa-d01e-475d-9293-9c49d84e3875"},"vehicle_type_id":"4","last_reported":1748870732,"current_range_meters":18000,"station_id":"ce4bgvp2rcd13ifvqct0","pricing_plan_id":"cebpf4jnsgd1na2vs0mg"},{"bike_id":"4501ef29-c7e4-4354-b9e8-fe05b9e81f5c","system_id":"levelo_inurba_marseille","lat":43.29891,"lon":5.39749,"is_reserved":false,"is_disabled":false,"rental_uris":{"android":"levelo://app?vid=4501ef29-c7e4-4354-b9e8-fe05b9e81f5c","ios":"levelo://app?vid=4501ef29-c7e4-4354-b9e8-fe05b9e81f5c"},"vehicle_type_id":"4","last_reported":1748870732,"current_range_meters":18000,"station_id":"ce4bh0h2rcd13ifvqd50","pricing_plan_id":"cebpf4jnsgd1na2vs0mg"},{"bike_id":"207887e6-2ae4-416f-88d4-762e419331b7","system_id":"levelo_inurba_marseille","lat":43.231509,"lon":5.437044,"is_reserved":false,"is_disabled":false,"rental_uris":{"android":"levelo://app?vid=207887e6-2ae4-416f-88d4-762e419331b7","ios":"levelo://app?vid=207887e6-2ae4-416f-88d4-762e419331b7"},"vehicle_type_id":"4","last_reported":1748870732,"current_range_meters":18000,"station_id":"ce4bhmp2rcd13ifvqgog","pricing_plan_id":"cebpf4jnsgd1na2vs0mg"},{"bike_id":"56ebd079-5325-4146-a252-c6e09bfabc00","system_id":"levelo_inurba_marseille","lat":43.319,"lon":5.40746,"is_reserved":false,"is_disabled":false,"rental_uris":{"android":"levelo://app?vid=56ebd079-5325-4146-a252-c6e09bfabc00","ios":"levelo://app?vid=56ebd079-5325-4146-a252-c6e09bfabc00"},"vehicle_type_id":"4","last_reported":1748870732,"current_range_meters":18000,"station_id":"ce4bhq12rcd13ifvqhig","pricing_plan_id":"cebpf4jnsgd1na2vs0mg"},{"bike_id":"4b8c821f-5909-479c-9528-00d8a8dde4ef","system_id":"levelo_inurba_marseille","lat":43.292595,"lon":5.37619,"is_reserved":false,"is_disabled":false,"rental_uris":{"android":"levelo://app?vid=4b8c821f-5909-479c-9528-00d8a8dde4ef","ios":"levelo://app?vid=4b8c821f-5909-479c-9528-00d8a8dde4ef"},"vehicle_type_id":"4","last_reported":1748870732,"current_range_meters":18800,"station_id":"ce4bgi12rcd13ifvqb80","pricing_plan_id":"cebpf4jnsgd1na2vs0mg"},{"bike_id":"7410e84d-ec23-4cc4-a474-c69ee88713af","system_id":"levelo_inurba_marseille","lat":43.30439,"lon":5.38899,"is_reserved":false,"is_disabled":false,"rental_uris":{"android":"levelo://app?vid=7410e84d-ec23-4cc4-a474-c69ee88713af","ios":"levelo://app?vid=7410e84d-ec23-4cc4-a474-c69ee88713af"},"vehicle_type_id":"4","last_reported":1748870732,"current_range_meters":18800,"station_id":"ce4bgk12rcd13ifvqbi0","pricing_plan_id":"cebpf4jnsgd1na2vs0mg"},{"bike_id":"239003fa-f4b9-4ee3-8e84-c3f4d9265df8","system_id":"levelo_inurba_marseille","lat":43.3107,"lon":5.38361,"is_reserved":false,"is_disabled":false,"rental_uris":{"android":"levelo://app?vid=239003fa-f4b9-4ee3-8e84-c3f4d9265df8","ios":"levelo://app?vid=239003fa-f4b9-4ee3-8e84-c3f4d9265df8"},"vehicle_type_id":"4","last_reported":1748870732,"current_range_meters":18800,"station_id":"ce4bgv92rcd13ifvqcr0","pricing_plan_id":"cebpf4jnsgd1na2vs0mg"},{"bike_id":"b9197249-9974-4bb9-94ba-e1247cc93366","system_id":"levelo_inurba_marseille","lat":43.29536,"lon":5.39034,"is_reserved":false,"is_disabled":false,"rental_uris":{"android":"levelo://app?vid=b9197249-9974-4bb9-94ba-e1247cc93366","ios":"levelo://app?vid=b9197249-9974-4bb9-94ba-e1247cc93366"},"vehicle_type_id":"4","last_reported":1748870732,"current_range_meters":18800,"station_id":"ce4bh3p2rcd13ifvqdp0","pricing_plan_id":"cebpf4jnsgd1na2vs0mg"},{"bike_id":"553acccc-08a5-49d9-a182-20620ee804ff","system_id":"levelo_inurba_marseille","lat":43.28714,"lon":5.37366,"is_reserved":false,"is_disabled":false,"rental_uris":{"android":"levelo://app?vid=553acccc-08a5-49d9-a182-20620ee804ff","ios":"levelo://app?vid=553acccc-08a5-49d9-a182-20620ee804ff"},"vehicle_type_id":"4","last_reported":1748870732,"current_range_meters":18800,"station_id":"ce4bh3p2rcd13ifvqdq0","pricing_plan_id":"cebpf4jnsgd1na2vs0mg"},{"bike_id":"b4950782-b022-43cd-9ef9-f8b2624d358d","system_id":"levelo_inurba_marseille","lat":43.28408,"lon":5.37523,"is_reserved":false,"is_disabled":false,"rental_uris":{"android":"levelo://app?vid=b4950782-b022-43cd-9ef9-f8b2624d358d","ios":"levelo://app?vid=b4950782-b022-43cd-9ef9-f8b2624d358d"},"vehicle_type_id":"4","last_reported":1748870732,"current_range_meters":18800,"station_id":"ce4bh412rcd13ifvqds0","pricing_plan_id":"cebpf4jnsgd1na2vs0mg"},{"bike_id":"62ebcf99-52d8-4ec8-a1af-b944e399c355","system_id":"levelo_inurba_marseille","lat":43.2738,"lon":5.3626,"is_reserved":false,"is_disabled":false,"rental_uris":{"android":"levelo://app?vid=62ebcf99-52d8-4ec8-a1af-b944e399c355","ios":"levelo://app?vid=62ebcf99-52d8-4ec8-a1af-b944e399c355"},"vehicle_type_id":"4","last_reported":1748870732,"current_range_meters":18800,"station_id":"ce4bhbh2rcd13ifvqeo0","pricing_plan_id":"cebpf4jnsgd1na2vs0mg"},{"bike_id":"6818edb9-0c61-48e4-b04a-f018df160ae0","system_id":"levelo_inurba_marseille","lat":43.28271,"lon":5.35066,"is_reserved":false,"is_disabled":false,"rental_uris":{"android":"levelo://app?vid=6818edb9-0c61-48e4-b04a-f018df160ae0","ios":"levelo://app?vid=6818edb9-0c61-48e4-b04a-f018df160ae0"},"vehicle_type_id":"4","last_reported":1748870732,"current_range_meters":18800,"station_id":"ce4bhbp2rcd13ifvqerg","pricing_plan_id":"cebpf4jnsgd1na2vs0mg"},{"bike_id":"206735aa-cc71-47f7-9c67-d08fbdf682ee","system_id":"levelo_inurba_marseille","lat":43.251178,"lon":5.403254,"is_reserved":false,"is_disabled":false,"rental_uris":{"android":"levelo://app?vid=206735aa-cc71-47f7-9c67-d08fbdf682ee","ios":"levelo://app?vid=206735aa-cc71-47f7-9c67-d08fbdf682ee"},"vehicle_type_id":"4","last_reported":1748870732,"current_range_meters":18800,"station_id":"ce4bhlh2rcd13ifvqgig","pricing_plan_id":"cebpf4jnsgd1na2vs0mg"},{"bike_id":"1cb7c0a1-48f8-49ab-9106-52040059037c","system_id":"levelo_inurba_marseille","lat":43.23077,"lon":5.35521,"is_reserved":false,"is_disabled":false,"rental_uris":{"android":"levelo://app?vid=1cb7c0a1-48f8-49ab-9106-52040059037c","ios":"levelo://app?vid=1cb7c0a1-48f8-49ab-9106-52040059037c"},"vehicle_type_id":"4","last_reported":1748870732,"current_range_meters":18800,"station_id":"cpo3342slgdg3j2ifvpg","pricing_plan_id":"cebpf4jnsgd1na2vs0mg"},{"bike_id":"6db8da9d-ed27-45cf-9935-6e37c99d0be9","system_id":"levelo_inurba_marseille","lat":43.26232,"lon":5.40147,"is_reserved":false,"is_disabled":false,"rental_uris":{"android":"levelo://app?vid=6db8da9d-ed27-45cf-9935-6e37c99d0be9","ios":"levelo://app?vid=6db8da9d-ed27-45cf-9935-6e37c99d0be9"},"vehicle_type_id":"4","last_reported":1748870732,"current_range_meters":19200,"station_id":"","pricing_plan_id":"cebpf4jnsgd1na2vs0mg"},{"bike_id":"ef17b56f-9789-4b73-9b86-3e177d4d12f6","system_id":"levelo_inurba_marseille","lat":43.297839,"lon":5.380881,"is_reserved":false,"is_disabled":false,"rental_uris":{"android":"levelo://app?vid=ef17b56f-9789-4b73-9b86-3e177d4d12f6","ios":"levelo://app?vid=ef17b56f-9789-4b73-9b86-3e177d4d12f6"},"vehicle_type_id":"4","last_reported":1748870732,"current_range_meters":19200,"station_id":"ce4bgip2rcd13ifvqbb0","pricing_plan_id":"cebpf4jnsgd1na2vs0mg"},{"bike_id":"0ac8b05b-f3e3-440e-b830-810f3755a704","system_id":"levelo_inurba_marseille","lat":43.29806,"lon":5.38093,"is_reserved":false,"is_disabled":false,"rental_uris":{"android":"levelo://app?vid=0ac8b05b-f3e3-440e-b830-810f3755a704","ios":"levelo://app?vid=0ac8b05b-f3e3-440e-b830-810f3755a704"},"vehicle_type_id":"4","last_reported":1748870732,"current_range_meters":19200,"station_id":"ce4bgip2rcd13ifvqbb0","pricing_plan_id":"cebpf4jnsgd1na2vs0mg"},{"bike_id":"f2a7ada7-b328-4509-a930-8c4ff1a1cca8","system_id":"levelo_inurba_marseille","lat":43.30152,"lon":5.38095,"is_reserved":false,"is_disabled":false,"rental_uris":{"android":"levelo://app?vid=f2a7ada7-b328-4509-a930-8c4ff1a1cca8","ios":"levelo://app?vid=f2a7ada7-b328-4509-a930-8c4ff1a1cca8"},"vehicle_type_id":"4","last_reported":1748870732,"current_range_meters":19200,"station_id":"ce4bgjp2rcd13ifvqbh0","pricing_plan_id":"cebpf4jnsgd1na2vs0mg"},{"bike_id":"0719e304-787d-4942-8ac7-f7e9c5a426ff","system_id":"levelo_inurba_marseille","lat":43.297119,"lon":5.366039,"is_reserved":false,"is_disabled":false,"rental_uris":{"android":"levelo://app?vid=0719e304-787d-4942-8ac7-f7e9c5a426ff","ios":"levelo://app?vid=0719e304-787d-4942-8ac7-f7e9c5a426ff"},"vehicle_type_id":"4","last_reported":1748870732,"current_range_meters":19200,"station_id":"ce4bgn12rcd13ifvqbt0","pricing_plan_id":"cebpf4jnsgd1na2vs0mg"},{"bike_id":"961f3f7b-0f2c-4d42-9f49-7462bebe5264","system_id":"levelo_inurba_marseille","lat":43.314891,"lon":5.372963,"is_reserved":false,"is_disabled":false,"rental_uris":{"android":"levelo://app?vid=961f3f7b-0f2c-4d42-9f49-7462bebe5264","ios":"levelo://app?vid=961f3f7b-0f2c-4d42-9f49-7462bebe5264"},"vehicle_type_id":"4","last_reported":1748870732,"current_range_meters":19200,"station_id":"ce4bgt12rcd13ifvqcd0","pricing_plan_id":"cebpf4jnsgd1na2vs0mg"},{"bike_id":"0359ab15-265b-4b37-87ab-468d233892c5","system_id":"levelo_inurba_marseille","lat":43.259401,"lon":5.409079,"is_reserved":false,"is_disabled":false,"rental_uris":{"android":"levelo://app?vid=0359ab15-265b-4b37-87ab-468d233892c5","ios":"levelo://app?vid=0359ab15-265b-4b37-87ab-468d233892c5"},"vehicle_type_id":"4","last_reported":1748870732,"current_range_meters":19200,"station_id":"ce4bhm92rcd13ifvqglg","pricing_plan_id":"cebpf4jnsgd1na2vs0mg"},{"bike_id":"0e8c3011-1b8d-403e-ba65-b9120be128f1","system_id":"levelo_inurba_marseille","lat":43.27825,"lon":5.40707,"is_reserved":false,"is_disabled":false,"rental_uris":{"android":"levelo://app?vid=0e8c3011-1b8d-403e-ba65-b9120be128f1","ios":"levelo://app?vid=0e8c3011-1b8d-403e-ba65-b9120be128f1"},"vehicle_type_id":"4","last_reported":1748870732,"current_range_meters":19200,"station_id":"ce4bhnh2rcd13ifvqgtg","pricing_plan_id":"cebpf4jnsgd1na2vs0mg"},{"bike_id":"cec6c8d7-488a-4d69-860f-429583fefc3f","system_id":"levelo_inurba_marseille","lat":43.323626,"lon":5.367517,"is_reserved":false,"is_disabled":false,"rental_uris":{"android":"levelo://app?vid=cec6c8d7-488a-4d69-860f-429583fefc3f","ios":"levelo://app?vid=cec6c8d7-488a-4d69-860f-429583fefc3f"},"vehicle_type_id":"4","last_reported":1748870732,"current_range_meters":19200,"station_id":"ce4bhsh2rcd13ifvqi2g","pricing_plan_id":"cebpf4jnsgd1na2vs0mg"},{"bike_id":"eb72deed-44e7-4a3e-982b-5b4df113534f","system_id":"levelo_inurba_marseille","lat":43.21734,"lon":5.34621,"is_reserved":false,"is_disabled":false,"rental_uris":{"android":"levelo://app?vid=eb72deed-44e7-4a3e-982b-5b4df113534f","ios":"levelo://app?vid=eb72deed-44e7-4a3e-982b-5b4df113534f"},"vehicle_type_id":"4","last_reported":1748870732,"current_range_meters":19200,"station_id":"st_cvj6r9ubvosntc0bgbag","pricing_plan_id":"cebpf4jnsgd1na2vs0mg"},{"bike_id":"47f602ed-2cd6-4cf3-8da2-b75f54ef794d","system_id":"levelo_inurba_marseille","lat":43.29706,"lon":5.36598,"is_reserved":false,"is_disabled":false,"rental_uris":{"android":"levelo://app?vid=47f602ed-2cd6-4cf3-8da2-b75f54ef794d","ios":"levelo://app?vid=47f602ed-2cd6-4cf3-8da2-b75f54ef794d"},"vehicle_type_id":"4","last_reported":1748870732,"current_range_meters":19600,"station_id":"ce4bgn12rcd13ifvqbt0","pricing_plan_id":"cebpf4jnsgd1na2vs0mg"},{"bike_id":"776e37dd-843d-46f1-ba7c-7b8b067e65b6","system_id":"levelo_inurba_marseille","lat":43.30603,"lon":5.37229,"is_reserved":false,"is_disabled":false,"rental_uris":{"android":"levelo://app?vid=776e37dd-843d-46f1-ba7c-7b8b067e65b6","ios":"levelo://app?vid=776e37dd-843d-46f1-ba7c-7b8b067e65b6"},"vehicle_type_id":"4","last_reported":1748870732,"current_range_meters":19600,"station_id":"ce4bgqh2rcd13ifvqc4g","pricing_plan_id":"cebpf4jnsgd1na2vs0mg"},{"bike_id":"aad0cfda-0f95-4bdf-bfc2-c8fa12e9b626","system_id":"levelo_inurba_marseille","lat":43.28339,"lon":5.38111,"is_reserved":false,"is_disabled":false,"rental_uris":{"android":"levelo://app?vid=aad0cfda-0f95-4bdf-bfc2-c8fa12e9b626","ios":"levelo://app?vid=aad0cfda-0f95-4bdf-bfc2-c8fa12e9b626"},"vehicle_type_id":"4","last_reported":1748870732,"current_range_meters":19600,"station_id":"ce4bh412rcd13ifvqdr0","pricing_plan_id":"cebpf4jnsgd1na2vs0mg"},{"bike_id":"4ca9b78a-80b6-4828-b4eb-dcebf2766968","system_id":"levelo_inurba_marseille","lat":43.28617,"lon":5.35104,"is_reserved":false,"is_disabled":false,"rental_uris":{"android":"levelo://app?vid=4ca9b78a-80b6-4828-b4eb-dcebf2766968","ios":"levelo://app?vid=4ca9b78a-80b6-4828-b4eb-dcebf2766968"},"vehicle_type_id":"4","last_reported":1748870732,"current_range_meters":19600,"station_id":"ce4bhch2rcd13ifvqeug","pricing_plan_id":"cebpf4jnsgd1na2vs0mg"},{"bike_id":"1bebd82d-26c0-4e20-8f0a-10d3fd8e22f7","system_id":"levelo_inurba_marseille","lat":43.2658,"lon":5.38961,"is_reserved":false,"is_disabled":false,"rental_uris":{"android":"levelo://app?vid=1bebd82d-26c0-4e20-8f0a-10d3fd8e22f7","ios":"levelo://app?vid=1bebd82d-26c0-4e20-8f0a-10d3fd8e22f7"},"vehicle_type_id":"4","last_reported":1748870732,"current_range_meters":19600,"station_id":"ce4bhe12rcd13ifvqf30","pricing_plan_id":"cebpf4jnsgd1na2vs0mg"},{"bike_id":"8e45c534-9f38-4aaf-bfc0-20831aa0c778","system_id":"levelo_inurba_marseille","lat":43.26049,"lon":5.39404,"is_reserved":false,"is_disabled":false,"rental_uris":{"android":"levelo://app?vid=8e45c534-9f38-4aaf-bfc0-20831aa0c778","ios":"levelo://app?vid=8e45c534-9f38-4aaf-bfc0-20831aa0c778"},"vehicle_type_id":"4","last_reported":1748870732,"current_range_meters":19600,"station_id":"ce4bhh92rcd13ifvqfj0","pricing_plan_id":"cebpf4jnsgd1na2vs0mg"},{"bike_id":"8cffa249-8640-4845-ab9d-8759cd0147e9","system_id":"levelo_inurba_marseille","lat":43.28007,"lon":5.40014,"is_reserved":false,"is_disabled":false,"rental_uris":{"android":"levelo://app?vid=8cffa249-8640-4845-ab9d-8759cd0147e9","ios":"levelo://app?vid=8cffa249-8640-4845-ab9d-8759cd0147e9"},"vehicle_type_id":"4","last_reported":1748870732,"current_range_meters":19600,"station_id":"ce4bho92rcd13ifvqh4g","pricing_plan_id":"cebpf4jnsgd1na2vs0mg"},{"bike_id":"faaa3ff7-1150-423e-bcd8-bd66cc44ddbe","system_id":"levelo_inurba_marseille","lat":43.28617,"lon":5.3706,"is_reserved":false,"is_disabled":false,"rental_uris":{"android":"levelo://app?vid=faaa3ff7-1150-423e-bcd8-bd66cc44ddbe","ios":"levelo://app?vid=faaa3ff7-1150-423e-bcd8-bd66cc44ddbe"},"vehicle_type_id":"4","last_reported":1748870732,"current_range_meters":19600,"station_id":"ce4bht12rcd13ifvqi60","pricing_plan_id":"cebpf4jnsgd1na2vs0mg"},{"bike_id":"cb651541-c1f7-4b7c-be66-eb30362ea2fa","system_id":"levelo_inurba_marseille","lat":43.27325,"lon":5.42437,"is_reserved":false,"is_disabled":false,"rental_uris":{"android":"levelo://app?vid=cb651541-c1f7-4b7c-be66-eb30362ea2fa","ios":"levelo://app?vid=cb651541-c1f7-4b7c-be66-eb30362ea2fa"},"vehicle_type_id":"4","last_reported":1748870732,"current_range_meters":20000,"station_id":"","pricing_plan_id":"cebpf4jnsgd1na2vs0mg"},{"bike_id":"4e0e3f60-f3a9-4b5b-83f1-4a18dd8d2ebc","system_id":"levelo_inurba_marseille","lat":43.30436,"lon":5.38882,"is_reserved":false,"is_disabled":false,"rental_uris":{"android":"levelo://app?vid=4e0e3f60-f3a9-4b5b-83f1-4a18dd8d2ebc","ios":"levelo://app?vid=4e0e3f60-f3a9-4b5b-83f1-4a18dd8d2ebc"},"vehicle_type_id":"4","last_reported":1748870732,"current_range_meters":20000,"station_id":"ce4bgk12rcd13ifvqbi0","pricing_plan_id":"cebpf4jnsgd1na2vs0mg"},{"bike_id":"9140e7bd-6d9a-402a-b559-fe3145a58a16","system_id":"levelo_inurba_marseille","lat":43.30305,"lon":5.36906,"is_reserved":false,"is_disabled":false,"rental_uris":{"android":"levelo://app?vid=9140e7bd-6d9a-402a-b559-fe3145a58a16","ios":"levelo://app?vid=9140e7bd-6d9a-402a-b559-fe3145a58a16"},"vehicle_type_id":"4","last_reported":1748870732,"current_range_meters":20000,"station_id":"ce4bgqh2rcd13ifvqc5g","pricing_plan_id":"cebpf4jnsgd1na2vs0mg"},{"bike_id":"50e711d3-f527-436a-b8c2-0e834de9f076","system_id":"levelo_inurba_marseille","lat":43.31362,"lon":5.38503,"is_reserved":false,"is_disabled":false,"rental_uris":{"android":"levelo://app?vid=50e711d3-f527-436a-b8c2-0e834de9f076","ios":"levelo://app?vid=50e711d3-f527-436a-b8c2-0e834de9f076"},"vehicle_type_id":"4","last_reported":1748870732,"current_range_meters":20000,"station_id":"ce4bgt92rcd13ifvqcf0","pricing_plan_id":"cebpf4jnsgd1na2vs0mg"},{"bike_id":"3408de5f-225a-415a-95f7-6ce37e756842","system_id":"levelo_inurba_marseille","lat":43.2902,"lon":5.35597,"is_reserved":false,"is_disabled":false,"rental_uris":{"android":"levelo://app?vid=3408de5f-225a-415a-95f7-6ce37e756842","ios":"levelo://app?vid=3408de5f-225a-415a-95f7-6ce37e756842"},"vehicle_type_id":"4","last_reported":1748870732,"current_range_meters":20000,"station_id":"ce4bhb92rcd13ifvqen0","pricing_plan_id":"cebpf4jnsgd1na2vs0mg"},{"bike_id":"8e1399e1-3fc8-4bcf-980c-b779509d3daf","system_id":"levelo_inurba_marseille","lat":43.27909,"lon":5.38018,"is_reserved":false,"is_disabled":false,"rental_uris":{"android":"levelo://app?vid=8e1399e1-3fc8-4bcf-980c-b779509d3daf","ios":"levelo://app?vid=8e1399e1-3fc8-4bcf-980c-b779509d3daf"},"vehicle_type_id":"4","last_reported":1748870732,"current_range_meters":20000,"station_id":"ce4bhf92rcd13ifvqf50","pricing_plan_id":"cebpf4jnsgd1na2vs0mg"},{"bike_id":"06901057-f219-4cb8-a3e5-e218897b745f","system_id":"levelo_inurba_marseille","lat":43.28618,"lon":5.37058,"is_reserved":false,"is_disabled":false,"rental_uris":{"android":"levelo://app?vid=06901057-f219-4cb8-a3e5-e218897b745f","ios":"levelo://app?vid=06901057-f219-4cb8-a3e5-e218897b745f"},"vehicle_type_id":"4","last_reported":1748870732,"current_range_meters":20000,"station_id":"ce4bht12rcd13ifvqi60","pricing_plan_id":"cebpf4jnsgd1na2vs0mg"},{"bike_id":"4e17c123-8236-4a02-a8a2-a61cdc625d7e","system_id":"levelo_inurba_marseille","lat":43.304785,"lon":5.370822,"is_reserved":false,"is_disabled":false,"rental_uris":{"android":"levelo://app?vid=4e17c123-8236-4a02-a8a2-a61cdc625d7e","ios":"levelo://app?vid=4e17c123-8236-4a02-a8a2-a61cdc625d7e"},"vehicle_type_id":"4","last_reported":1748870732,"current_range_meters":20400,"station_id":"","pricing_plan_id":"cebpf4jnsgd1na2vs0mg"},{"bike_id":"68e1e601-772b-44e8-9cdb-db3e890c1158","system_id":"levelo_inurba_marseille","lat":43.30298,"lon":5.36885,"is_reserved":false,"is_disabled":false,"rental_uris":{"android":"levelo://app?vid=68e1e601-772b-44e8-9cdb-db3e890c1158","ios":"levelo://app?vid=68e1e601-772b-44e8-9cdb-db3e890c1158"},"vehicle_type_id":"4","last_reported":1748870732,"current_range_meters":20400,"station_id":"ce4bgqh2rcd13ifvqc5g","pricing_plan_id":"cebpf4jnsgd1na2vs0mg"},{"bike_id":"8f1abff6-43f5-4c08-b8bc-78edfa30c78a","system_id":"levelo_inurba_marseille","lat":43.313581,"lon":5.367398,"is_reserved":false,"is_disabled":false,"rental_uris":{"android":"levelo://app?vid=8f1abff6-43f5-4c08-b8bc-78edfa30c78a","ios":"levelo://app?vid=8f1abff6-43f5-4c08-b8bc-78edfa30c78a"},"vehicle_type_id":"4","last_reported":1748870732,"current_range_meters":20400,"station_id":"ce4bgr92rcd13ifvqc6g","pricing_plan_id":"cebpf4jnsgd1na2vs0mg"},{"bike_id":"f379db0f-d3c7-48dd-b031-4e246dedd871","system_id":"levelo_inurba_marseille","lat":43.279703,"lon":5.387443,"is_reserved":false,"is_disabled":false,"rental_uris":{"android":"levelo://app?vid=f379db0f-d3c7-48dd-b031-4e246dedd871","ios":"levelo://app?vid=f379db0f-d3c7-48dd-b031-4e246dedd871"},"vehicle_type_id":"4","last_reported":1748870732,"current_range_meters":20400,"station_id":"ce4bhg12rcd13ifvqf80","pricing_plan_id":"cebpf4jnsgd1na2vs0mg"},{"bike_id":"3201aaf4-2734-45b1-aaac-7b9c394694d6","system_id":"levelo_inurba_marseille","lat":43.25584,"lon":5.38229,"is_reserved":false,"is_disabled":false,"rental_uris":{"android":"levelo://app?vid=3201aaf4-2734-45b1-aaac-7b9c394694d6","ios":"levelo://app?vid=3201aaf4-2734-45b1-aaac-7b9c394694d6"},"vehicle_type_id":"4","last_reported":1748870732,"current_range_meters":20400,"station_id":"ce4bhih2rcd13ifvqfs0","pricing_plan_id":"cebpf4jnsgd1na2vs0mg"},{"bike_id":"4df26af5-179f-4272-bfdd-905e0f9a4c56","system_id":"levelo_inurba_marseille","lat":43.27058,"lon":5.40268,"is_reserved":false,"is_disabled":false,"rental_uris":{"android":"levelo://app?vid=4df26af5-179f-4272-bfdd-905e0f9a4c56","ios":"levelo://app?vid=4df26af5-179f-4272-bfdd-905e0f9a4c56"},"vehicle_type_id":"4","last_reported":1748870732,"current_range_meters":20400,"station_id":"ce4bhk92rcd13ifvqgc0","pricing_plan_id":"cebpf4jnsgd1na2vs0mg"},{"bike_id":"c843076b-a0b7-4017-a0c7-62d1049e9aab","system_id":"levelo_inurba_marseille","lat":43.29786,"lon":5.3808,"is_reserved":false,"is_disabled":false,"rental_uris":{"android":"levelo://app?vid=c843076b-a0b7-4017-a0c7-62d1049e9aab","ios":"levelo://app?vid=c843076b-a0b7-4017-a0c7-62d1049e9aab"},"vehicle_type_id":"4","last_reported":1748870732,"current_range_meters":20800,"station_id":"ce4bgip2rcd13ifvqbb0","pricing_plan_id":"cebpf4jnsgd1na2vs0mg"},{"bike_id":"a55df6ea-d306-4d28-8081-f199cbbf3985","system_id":"levelo_inurba_marseille","lat":43.30142,"lon":5.38057,"is_reserved":false,"is_disabled":false,"rental_uris":{"android":"levelo://app?vid=a55df6ea-d306-4d28-8081-f199cbbf3985","ios":"levelo://app?vid=a55df6ea-d306-4d28-8081-f199cbbf3985"},"vehicle_type_id":"4","last_reported":1748870732,"current_range_meters":20800,"station_id":"ce4bgjp2rcd13ifvqbh0","pricing_plan_id":"cebpf4jnsgd1na2vs0mg"},