{"last_updated":1767879190,"ttl":60,"version":"2.2","data":{"bikes":[{"bike_id":"92008bef-994f-49a4-a9a3-42a7f0f28ed4","system_id":"levelo_inurba_marseille","lat":43.29551,"lon":5.42293,"is_reserved":false,"is_disabled":false,"rental_uris":{"android":"levelo://app?vid=92008bef-994f-49a4-a9a3-42a7f0f28ed4","ios":"levelo://app?vid=92008bef-994f-49a4-a9a3-42a7f0f28ed4"},"vehicle_type_id":"4","last_reported":1767879190,"current_range_meters":2800,"station_id":"ce4bhph2rcd13ifvqhdg","pricing_plan_id":"cebpf4jnsgd1na2vs0mg"},{"bike_id":"392514f8-9a36-43a5-9b89-e2ab1d47c731","system_id":"levelo_inurba_marseille","lat":43.26882,"lon":5.40368,"is_reserved":false,"is_disabled":false,"rental_uris":{"android":"levelo://app?vid=392514f8-9a36-43a5-9b89-e2ab1d47c731","ios":"levelo://app?vid=392514f8-9a36-43a5-9b89-e2ab1d47c731"},"vehicle_type_id":"4","last_reported":1767879190,"current_range_meters":2800,"station_id":"","pricing_plan_id":"cebpf4jnsgd1na2vs0mg"},{"bike_id":"067ca337-309a-4444-a755-1124e864d8c9","system_id":"levelo_inurba_marseille","lat":43.29513,"lon":5.39396,"is_reserved":false,"is_disabled":true,"rental_uris":{"android":"levelo://app?vid=067ca337-309a-4444-a755-1124e864d8c9","ios":"levelo://app?vid=067ca337-309a-4444-a755-1124e864d8c9"},"vehicle_type_id":"4","last_reported":1767879190,"current_range_meters":2800,"station_id":"ce4bh292rcd13ifvqdf0","pricing_plan_id":"cebpf4jnsgd1na2vs0mg"},{"bike_id":"8df7faae-0e58-441d-a18a-942970def967","system_id":"levelo_inurba_marseille","lat":43.28456,"lon":5.35886,"is_reserved":false,"is_disabled":false,"rental_uris":{"android":"levelo://app?vid=8df7faae-0e58-441d-a18a-942970def967","ios":"levelo://app?vid=8df7faae-0e58-441d-a18a-942970def967"},"vehicle_type_id":"4","last_reported":1767879190,"current_range_meters":2800,"station_id":"ce4bhah2rcd13ifvqei0","pricing_plan_id":"cebpf4jnsgd1na2vs0mg"},{"bike_id":"f323eec5-f654-4bdf-8118-8c8db52565b4","system_id":"levelo_inurba_marseille","lat":43.28497,"lon":5.38662,"is_reserved":false,"is_disabled":false,"rental_uris":{"android":"levelo://app?vid=f323eec5-f654-4bdf-8118-8c8db52565b4","ios":"levelo://app?vid=f323eec5-f654-4bdf-8118-8c8db52565b4"},"vehicle_type_id":"4","last_reported":1767879190,"current_range_meters":2800,"station_id":"","pricing_plan_id":"cebpf4jnsgd1na2vs0mg"},{"bike_id":"9daab9d6-bb59-4616-8bb6-41010470fd49","system_id":"levelo_inurba_marseille","lat":43.28343,"lon":5.38102,"is_reserved":false,"is_disabled":false,"rental_uris":{"android":"levelo://app?vid=9daab9d6-bb59-4616-8bb6-41010470fd49","ios":"levelo://app?vid=9daab9d6-bb59-4616-8bb6-41010470fd49"},"vehicle_type_id":"4","last_reported":1767879190,"current_range_meters":2800,"station_id":"ce4bh412rcd13ifvqdr0","pricing_plan_id":"cebpf4jnsgd1na2vs0mg"},{"bike_id":"6ab38413-b79a-4c5b-9d76-57adb79b4b48","system_id":"levelo_inurba_marseille","lat":43.30155,"lon":5.37409,"is_reserved":false,"is_disabled":false,"rental_uris":{"android":"levelo://app?vid=6ab38413-b79a-4c5b-9d76-57adb79b4b48","ios":"levelo://app?vid=6ab38413-b79a-4c5b-9d76-57adb79b4b48"},"vehicle_type_id":"4","last_reported":1767879190,"current_range_meters":2800,"station_id":"ce4bgs92rcd13ifvqcc0","pricing_plan_id":"cebpf4jnsgd1na2vs0mg"},{"bike_id":"4b4a53ce-6685-4c48-92e4-9aa87114a53f","system_id":"levelo_inurba_marseille","lat":43.28085,"lon":5.40742,"is_reserved":false,"is_disabled":false,"rental_uris":{"android":"levelo://app?vid=4b4a53ce-6685-4c48-92e4-9aa87114a53f","ios":"levelo://app?vid=4b4a53ce-6685-4c48-92e4-9aa87114a53f"},"vehicle_type_id":"4","last_reported":1767879190,"current_range_meters":3200,"station_id":"","pricing_plan_id":"cebpf4jnsgd1na2vs0mg"},{"bike_id":"3ea11dde-0ebe-4a97-bebb-551c95955e29","system_id":"levelo_inurba_marseille","lat":43.29022,"lon":5.39993,"is_reserved":false,"is_disabled":false,"rental_uris":{"android":"levelo://app?vid=3ea11dde-0ebe-4a97-bebb-551c95955e29","ios":"levelo://app?vid=3ea11dde-0ebe-4a97-bebb-551c95955e29"},"vehicle_type_id":"4","last_reported":1767879190,"current_range_meters":3200,"station_id":"ce4bh392rcd13ifvqdm0","pricing_plan_id":"cebpf4jnsgd1na2vs0mg"},{"bike_id":"70f2b819-969f-4880-9cef-7eac515c69e5","system_id":"levelo_inurba_marseille","lat":43.270595,"lon":5.402635,"is_reserved":false,"is_disabled":false,"rental_uris":{"android":"levelo://app?vid=70f2b819-969f-4880-9cef-7eac515c69e5","ios":"levelo://app?vid=70f2b819-969f-4880-9cef-7eac515c69e5"},"vehicle_type_id":"4","last_reported":1767879190,"current_range_meters":3200,"station_id":"ce4bhk92rcd13ifvqgc0","pricing_plan_id":"cebpf4jnsgd1na2vs0mg"},{"bike_id":"63f6344b-da4b-4ecd-b4b6-aa0485790825","system_id":"levelo_inurba_marseille","lat":43.26565,"lon":5.40327,"is_reserved":false,"is_disabled":false,"rental_uris":{"android":"levelo://app?vid=63f6344b-da4b-4ecd-b4b6-aa0485790825","ios":"levelo://app?vid=63f6344b-da4b-4ecd-b4b6-aa0485790825"},"vehicle_type_id":"4","last_reported":1767879190,"current_range_meters":3200,"station_id":"ce4bhmp2rcd13ifvqgng","pricing_plan_id":"cebpf4jnsgd1na2vs0mg"},{"bike_id":"f96412fb-997e-42d9-b749-fc2d5aec351b","system_id":"levelo_inurba_marseille","lat":43.323693,"lon":5.38885,"is_reserved":false,"is_disabled":false,"rental_uris":{"android":"levelo://app?vid=f96412fb-997e-42d9-b749-fc2d5aec351b","ios":"levelo://app?vid=f96412fb-997e-42d9-b749-fc2d5aec351b"},"vehicle_type_id":"4","last_reported":1767879190,"current_range_meters":3200,"station_id":"ce4bhqp2rcd13ifvqhog","pricing_plan_id":"cebpf4jnsgd1na2vs0mg"},{"bike_id":"35c3cbbb-0469-478d-b4da-bfb159e2f13b","system_id":"levelo_inurba_marseille","lat":43.25921,"lon":5.40896,"is_reserved":false,"is_disabled":false,"rental_uris":{"android":"levelo://app?vid=35c3cbbb-0469-478d-b4da-bfb159e2f13b","ios":"levelo://app?vid=35c3cbbb-0469-478d-b4da-bfb159e2f13b"},"vehicle_type_id":"4","last_reported":1767879190,"current_range_meters":3200,"station_id":"ce4bhm92rcd13ifvqglg","pricing_plan_id":"cebpf4jnsgd1na2vs0mg"},{"bike_id":"ffd3e781-5d7a-402d-b3cd-fe187c01f227","system_id":"levelo_inurba_marseille","lat":43.29201,"lon":5.40313,"is_reserved":false,"is_disabled":false,"rental_uris":{"android":"levelo://app?vid=ffd3e781-5d7a-402d-b3cd-fe187c01f227","ios":"levelo://app?vid=ffd3e781-5d7a-402d-b3cd-fe187c01f227"},"vehicle_type_id":"4","last_reported":1767879190,"current_range_meters":3200,"station_id":"","pricing_plan_id":"cebpf4jnsgd1na2vs0mg"},{"bike_id":"dd8cdbaa-c414-4136-a415-a859fcf9d7b4","system_id":"levelo_inurba_marseille","lat":43.32553,"lon":5.4146,"is_reserved":false,"is_disabled":false,"rental_uris":{"android":"levelo://app?vid=dd8cdbaa-c414-4136-a415-a859fcf9d7b4","ios":"levelo://app?vid=dd8cdbaa-c414-4136-a415-a859fcf9d7b4"},"vehicle_type_id":"4","last_reported":1767879190,"current_range_meters":3600,"station_id":"ce4bhq12rcd13ifvqhhg","pricing_plan_id":"cebpf4jnsgd1na2vs0mg"},{"bike_id":"733f4e3d-bc5d-4d42-b0ec-f580acd8b151","system_id":"levelo_inurba_marseille","lat":43.30125,"lon":5.39859,"is_reserved":false,"is_disabled":false,"rental_uris":{"android":"levelo://app?vid=733f4e3d-bc5d-4d42-b0ec-f580acd8b151","ios":"levelo://app?vid=733f4e3d-bc5d-4d42-b0ec-f580acd8b151"},"vehicle_type_id":"4","last_reported":1767879190,"current_range_meters":3600,"station_id":"ce4bh0h2rcd13ifvqd40","pricing_plan_id":"cebpf4jnsgd1na2vs0mg"},{"bike_id":"772bf3b5-2fb2-4abd-a529-fdf3012df8cc","system_id":"levelo_inurba_marseille","lat":43.25191,"lon":5.40595,"is_reserved":false,"is_disabled":false,"rental_uris":{"android":"levelo://app?vid=772bf3b5-2fb2-4abd-a529-fdf3012df8cc","ios":"levelo://app?vid=772bf3b5-2fb2-4abd-a529-fdf3012df8cc"},"vehicle_type_id":"4","last_reported":1767879190,"current_range_meters":3600,"station_id":"","pricing_plan_id":"cebpf4jnsgd1na2vs0mg"},{"bike_id":"ea450acb-6919-4abf-a377-57a51d1d6762","system_id":"levelo_inurba_marseille","lat":43.29279,"lon":5.36845,"is_reserved":false,"is_disabled":false,"rental_uris":{"android":"levelo://app?vid=ea450acb-6919-4abf-a377-57a51d1d6762","ios":"levelo://app?vid=ea450acb-6919-4abf-a377-57a51d1d6762"},"vehicle_type_id":"4","last_reported":1767879190,"current_range_meters":3600,"station_id":"ce4bhbp2rcd13ifvqesg","pricing_plan_id":"cebpf4jnsgd1na2vs0mg"},{"bike_id":"44833d54-0e08-4546-b788-0c7150b05378","system_id":"levelo_inurba_marseille","lat":43.284781,"lon":5.483934,"is_reserved":false,"is_disabled":false,"rental_uris":{"android":"levelo://app?vid=44833d54-0e08-4546-b788-0c7150b05378","ios":"levelo://app?vid=44833d54-0e08-4546-b788-0c7150b05378"},"vehicle_type_id":"4","last_reported":1767879190,"current_range_meters":3600,"station_id":"st_d3svhcjqgbts73a3dn0g","pricing_plan_id":"cebpf4jnsgd1na2vs0mg"},{"bike_id":"138edadd-eb1a-4b60-9d89-5db13b009bd1","system_id":"levelo_inurba_marseille","lat":43.25914,"lon":5.40901,"is_reserved":false,"is_disabled":false,"rental_uris":{"android":"levelo://app?vid=138edadd-eb1a-4b60-9d89-5db13b009bd1","ios":"levelo://app?vid=138edadd-eb1a-4b60-9d89-5db13b009bd1"},"vehicle_type_id":"4","last_reported":1767879190,"current_range_meters":3600,"station_id":"ce4bhm92rcd13ifvqglg","pricing_plan_id":"cebpf4jnsgd1na2vs0mg"},{"bike_id":"a7e8b4f8-15c7-4593-b8a1-1dc1d30ad189","system_id":"levelo_inurba_marseille","lat":43.32053,"lon":5.38408,"is_reserved":false,"is_disabled":false,"rental_uris":{"android":"levelo://app?vid=a7e8b4f8-15c7-4593-b8a1-1dc1d30ad189","ios":"levelo://app?vid=a7e8b4f8-15c7-4593-b8a1-1dc1d30ad189"},"vehicle_type_id":"4","last_reported":1767879190,"current_range_meters":3600,"station_id":"","pricing_plan_id":"cebpf4jnsgd1na2vs0mg"},{"bike_id":"ce52b8f8-9066-45a8-8b05-34bc7d40a28f","system_id":"levelo_inurba_marseille","lat":43.284118,"lon":5.349969,"is_reserved":false,"is_disabled":false,"rental_uris":{"android":"levelo://app?vid=ce52b8f8-9066-45a8-8b05-34bc7d40a28f","ios":"levelo://app?vid=ce52b8f8-9066-45a8-8b05-34bc7d40a28f"},"vehicle_type_id":"4","last_reported":1767879190,"current_range_meters":3600,"station_id":"ce4bhbh2rcd13ifvqepg","pricing_plan_id":"cebpf4jnsgd1na2vs0mg"},{"bike_id":"870a302a-4149-492b-a93d-5631ff07a3cf","system_id":"levelo_inurba_marseille","lat":43.27615,"lon":5.361073,"is_reserved":false,"is_disabled":false,"rental_uris":{"android":"levelo://app?vid=870a302a-4149-492b-a93d-5631ff07a3cf","ios":"levelo://app?vid=870a302a-4149-492b-a93d-5631ff07a3cf"},"vehicle_type_id":"4","last_reported":1767879190,"current_range_meters":3600,"station_id":"ce4bgj92rcd13ifvqbe0","pricing_plan_id":"cebpf4jnsgd1na2vs0mg"},{"bike_id":"ff8302a9-d32b-4626-86db-b5e36f362cd5","system_id":"levelo_inurba_marseille","lat":43.33748,"lon":5.37455,"is_reserved":false,"is_disabled":false,"rental_uris":{"android":"levelo://app?vid=ff8302a9-d32b-4626-86db-b5e36f362cd5","ios":"levelo://app?vid=ff8302a9-d32b-4626-86db-b5e36f362cd5"},"vehicle_type_id":"4","last_reported":1767879190,"current_range_meters":3600,"station_id":"","pricing_plan_id":"cebpf4jnsgd1na2vs0mg"},{"bike_id":"a0876bd7-39c9-4062-809c-d7e427c3f764","system_id":"levelo_inurba_marseille","lat":43.28416,"lon":5.37508,"is_reserved":false,"is_disabled":false,"rental_uris":{"android":"levelo://app?vid=a0876bd7-39c9-4062-809c-d7e427c3f764","ios":"levelo://app?vid=a0876bd7-39c9-4062-809c-d7e427c3f764"},"vehicle_type_id":"4","last_reported":1767879190,"current_range_meters":3600,"station_id":"ce4bh412rcd13ifvqds0","pricing_plan_id":"cebpf4jnsgd1na2vs0mg"},{"bike_id":"67d11be0-e6fc-45cf-9510-ea8c0226d011","system_id":"levelo_inurba_marseille","lat":43.29816,"lon":5.44073,"is_reserved":false,"is_disabled":true,"rental_uris":{"android":"levelo://app?vid=67d11be0-e6fc-45cf-9510-ea8c0226d011","ios":"levelo://app?vid=67d11be0-e6fc-45cf-9510-ea8c0226d011"},"vehicle_type_id":"4","last_reported":1767879190,"current_range_meters":3600,"station_id":"st_d3jp68qikq2c7381ktn0","pricing_plan_id":"cebpf4jnsgd1na2vs0mg"},{"bike_id":"98249e23-d727-42e2-bc64-1013f35aedc9","system_id":"levelo_inurba_marseille","lat":43.23059,"lon":5.35495,"is_reserved":false,"is_disabled":false,"rental_uris":{"android":"levelo://app?vid=98249e23-d727-42e2-bc64-1013f35aedc9","ios":"levelo://app?vid=98249e23-d727-42e2-bc64-1013f35aedc9"},"vehicle_type_id":"4","last_reported":1767879190,"current_range_meters":4000,"station_id":"cpo3342slgdg3j2ifvpg","pricing_plan_id":"cebpf4jnsgd1na2vs0mg"},{"bike_id":"0622f7c5-ee76-4fc8-a5df-57e2aa3c0085","system_id":"levelo_inurba_marseille","lat":43.29906,"lon":5.38051,"is_reserved":false,"is_disabled":false,"rental_uris":{"android":"levelo://app?vid=0622f7c5-ee76-4fc8-a5df-57e2aa3c0085","ios":"levelo://app?vid=0622f7c5-ee76-4fc8-a5df-57e2aa3c0085"},"vehicle_type_id":"4","last_reported":1767879190,"current_range_meters":4000,"station_id":"","pricing_plan_id":"cebpf4jnsgd1na2vs0mg"},{"bike_id":"948bd2ed-8fdc-4ef6-9827-a943cc835e12","system_id":"levelo_inurba_marseille","lat":43.301313,"lon":5.431188,"is_reserved":false,"is_disabled":false,"rental_uris":{"android":"levelo://app?vid=948bd2ed-8fdc-4ef6-9827-a943cc835e12","ios":"levelo://app?vid=948bd2ed-8fdc-4ef6-9827-a943cc835e12"},"vehicle_type_id":"4","last_reported":1767879190,"current_range_meters":4000,"station_id":"st_d3js3co5814s73ftftug","pricing_plan_id":"cebpf4jnsgd1na2vs0mg"},{"bike_id":"b20f2698-37ad-43b3-8970-8d8c2984bbfd","system_id":"levelo_inurba_marseille","lat":43.29273,"lon":5.36838,"is_reserved":false,"is_disabled":false,"rental_uris":{"android":"levelo://app?vid=b20f2698-37ad-43b3-8970-8d8c2984bbfd","ios":"levelo://app?vid=b20f2698-37ad-43b3-8970-8d8c2984bbfd"},"vehicle_type_id":"4","last_reported":1767879190,"current_range_meters":4000,"station_id":"ce4bhbp2rcd13ifvqesg","pricing_plan_id":"cebpf4jnsgd1na2vs0mg"},{"bike_id":"796165dd-6233-4b3e-bc69-5c2707fdcdd0","system_id":"levelo_inurba_marseille","lat":43.25506,"lon":5.37645,"is_reserved":false,"is_disabled":false,"rental_uris":{"android":"levelo://app?vid=796165dd-6233-4b3e-bc69-5c2707fdcdd0","ios":"levelo://app?vid=796165dd-6233-4b3e-bc69-5c2707fdcdd0"},"vehicle_type_id":"4","last_reported":1767879190,"current_range_meters":4000,"station_id":"ce4bhh12rcd13ifvqff0","pricing_plan_id":"cebpf4jnsgd1na2vs0mg"},{"bike_id":"4db89cd4-c5c0-4b0d-9bc8-e5c1ff64bca0","system_id":"levelo_inurba_marseille","lat":43.29634,"lon":5.38112,"is_reserved":false,"is_disabled":true,"rental_uris":{"android":"levelo://app?vid=4db89cd4-c5c0-4b0d-9bc8-e5c1ff64bca0","ios":"levelo://app?vid=4db89cd4-c5c0-4b0d-9bc8-e5c1ff64bca0"},"vehicle_type_id":"4","last_reported":1767879190,"current_range_meters":4000,"station_id":"ce4bgl12rcd13ifvqbo0","pricing_plan_id":"cebpf4jnsgd1na2vs0mg"},{"bike_id":"1474699b-b954-474a-8344-bbf94fd2e604","system_id":"levelo_inurba_marseille","lat":43.258357,"lon":5.394286,"is_reserved":false,"is_disabled":false,"rental_uris":{"android":"levelo://app?vid=1474699b-b954-474a-8344-bbf94fd2e604","ios":"levelo://app?vid=1474699b-b954-474a-8344-bbf94fd2e604"},"vehicle_type_id":"4","last_reported":1767879190,"current_range_meters":4000,"station_id":"ce4bhip2rcd13ifvqft0","pricing_plan_id":"cebpf4jnsgd1na2vs0mg"},{"bike_id":"06e70399-fed8-4811-a700-508cb82f0cbd","system_id":"levelo_inurba_marseille","lat":43.28841,"lon":5.39317,"is_reserved":false,"is_disabled":false,"rental_uris":{"android":"levelo://app?vid=06e70399-fed8-4811-a700-508cb82f0cbd","ios":"levelo://app?vid=06e70399-fed8-4811-a700-508cb82f0cbd"},"vehicle_type_id":"4","last_reported":1767879190,"current_range_meters":4000,"station_id":"ce4bh2p2rcd13ifvqdi0","pricing_plan_id":"cebpf4jnsgd1na2vs0mg"},{"bike_id":"3c5d2cd4-8f31-4cd7-8802-f2f40d37f848","system_id":"levelo_inurba_marseille","lat":43.289261,"lon":5.384022,"is_reserved":false,"is_disabled":false,"rental_uris":{"android":"levelo://app?vid=3c5d2cd4-8f31-4cd7-8802-f2f40d37f848","ios":"levelo://app?vid=3c5d2cd4-8f31-4cd7-8802-f2f40d37f848"},"vehicle_type_id":"4","last_reported":1767879190,"current_range_meters":4000,"station_id":"ce4bh612rcd13ifvqe6g","pricing_plan_id":"cebpf4jnsgd1na2vs0mg"},{"bike_id":"f16f244d-e53c-48b4-9080-e759cc487522","system_id":"levelo_inurba_marseille","lat":43.27971,"lon":5.38707,"is_reserved":false,"is_disabled":false,"rental_uris":{"android":"levelo://app?vid=f16f244d-e53c-48b4-9080-e759cc487522","ios":"levelo://app?vid=f16f244d-e53c-48b4-9080-e759cc487522"},"vehicle_type_id":"4","last_reported":1767879190,"current_range_meters":4000,"station_id":"ce4bhg12rcd13ifvqf80","pricing_plan_id":"cebpf4jnsgd1na2vs0mg"},{"bike_id":"d0d67774-3af3-4c86-b7b6-8109c321647b","system_id":"levelo_inurba_marseille","lat":43.22927,"lon":5.35386,"is_reserved":false,"is_disabled":false,"rental_uris":{"android":"levelo://app?vid=d0d67774-3af3-4c86-b7b6-8109c321647b","ios":"levelo://app?vid=d0d67774-3af3-4c86-b7b6-8109c321647b"},"vehicle_type_id":"4","last_reported":1767879190,"current_range_meters":4000,"station_id":"cpo3532slgdg3j2ikp40","pricing_plan_id":"cebpf4jnsgd1na2vs0mg"},{"bike_id":"8f8477b6-07ed-4fdd-aa03-c89764869fff","system_id":"levelo_inurba_marseille","lat":43.297926,"lon":5.381096,"is_reserved":false,"is_disabled":false,"rental_uris":{"android":"levelo://app?vid=8f8477b6-07ed-4fdd-aa03-c89764869fff","ios":"levelo://app?vid=8f8477b6-07ed-4fdd-aa03-c89764869fff"},"vehicle_type_id":"4","last_reported":1767879190,"current_range_meters":4000,"station_id":"ce4bgip2rcd13ifvqbb0","pricing_plan_id":"cebpf4jnsgd1na2vs0mg"},{"bike_id":"f9694d4b-6e2f-4fc5-ae06-59dad6b1ea4d","system_id":"levelo_inurba_marseille","lat":43.25012,"lon":5.3753,"is_reserved":false,"is_disabled":false,"rental_uris":{"android":"levelo://app?vid=f9694d4b-6e2f-4fc5-ae06-59dad6b1ea4d","ios":"levelo://app?vid=f9694d4b-6e2f-4fc5-ae06-59dad6b1ea4d"},"vehicle_type_id":"4","last_reported":1767879190,"current_range_meters":4400,"station_id":"","pricing_plan_id":"cebpf4jnsgd1na2vs0mg"},{"bike_id":"8929357c-cb49-4a53-aed9-5ca03e306e34","system_id":"levelo_inurba_marseille","lat":43.30463,"lon":5.379007,"is_reserved":false,"is_disabled":false,"rental_uris":{"android":"levelo://app?vid=8929357c-cb49-4a53-aed9-5ca03e306e34","ios":"levelo://app?vid=8929357c-cb49-4a53-aed9-5ca03e306e34"},"vehicle_type_id":"4","last_reported":1767879190,"current_range_meters":4400,"station_id":"","pricing_plan_id":"cebpf4jnsgd1na2vs0mg"},{"bike_id":"b149c117-98ef-4c38-aceb-298ce1f4a106","system_id":"levelo_inurba_marseille","lat":43.30766,"lon":5.37645,"is_reserved":false,"is_disabled":false,"rental_uris":{"android":"levelo://app?vid=b149c117-98ef-4c38-aceb-298ce1f4a106","ios":"levelo://app?vid=b149c117-98ef-4c38-aceb-298ce1f4a106"},"vehicle_type_id":"4","last_reported":1767879190,"current_range_meters":4400,"station_id":"ce4bgv92rcd13ifvqcq0","pricing_plan_id":"cebpf4jnsgd1na2vs0mg"},{"bike_id":"318ab7ee-cd4e-4fbb-a198-dc67360e53a7","system_id":"levelo_inurba_marseille","lat":43.22927,"lon":5.35374,"is_reserved":false,"is_disabled":false,"rental_uris":{"android":"levelo://app?vid=318ab7ee-cd4e-4fbb-a198-dc67360e53a7","ios":"levelo://app?vid=318ab7ee-cd4e-4fbb-a198-dc67360e53a7"},"vehicle_type_id":"4","last_reported":1767879190,"current_range_meters":4400,"station_id":"cpo3532slgdg3j2ikp40","pricing_plan_id":"cebpf4jnsgd1na2vs0mg"},{"bike_id":"5638ec59-2379-4499-957f-09dedede7f6a","system_id":"levelo_inurba_marseille","lat":43.25826,"lon":5.39417,"is_reserved":false,"is_disabled":false,"rental_uris":{"android":"levelo://app?vid=5638ec59-2379-4499-957f-09dedede7f6a","ios":"levelo://app?vid=5638ec59-2379-4499-957f-09dedede7f6a"},"vehicle_type_id":"4","last_reported":1767879190,"current_range_meters":4400,"station_id":"ce4bhip2rcd13ifvqft0","pricing_plan_id":"cebpf4jnsgd1na2vs0mg"},{"bike_id":"9b9e7c0d-8b05-4d0a-9b2e-71cd579eefc9","system_id":"levelo_inurba_marseille","lat":43.32361,"lon":5.36739,"is_reserved":false,"is_disabled":false,"rental_uris":{"android":"levelo://app?vid=9b9e7c0d-8b05-4d0a-9b2e-71cd579eefc9","ios":"levelo://app?vid=9b9e7c0d-8b05-4d0a-9b2e-71cd579eefc9"},"vehicle_type_id":"4","last_reported":1767879190,"current_range_meters":4400,"station_id":"ce4bhsh2rcd13ifvqi2g","pricing_plan_id":"cebpf4jnsgd1na2vs0mg"},{"bike_id":"cb85a0c8-91d1-4ec6-9391-cb8576a2629d","system_id":"levelo_inurba_marseille","lat":43.30534,"lon":5.36524,"is_reserved":false,"is_disabled":false,"rental_uris":{"android":"levelo://app?vid=cb85a0c8-91d1-4ec6-9391-cb8576a2629d","ios":"levelo://app?vid=cb85a0c8-91d1-4ec6-9391-cb8576a2629d"},"vehicle_type_id":"4","last_reported":1767879190,"current_range_meters":4400,"station_id":"ce4bgs12rcd13ifvqcag","pricing_plan_id":"cebpf4jnsgd1na2vs0mg"},{"bike_id":"1039f4ac-6919-4160-9646-5892ca401c41","system_id":"levelo_inurba_marseille","lat":43.25567,"lon":5.38241,"is_reserved":false,"is_disabled":false,"rental_uris":{"android":"levelo://app?vid=1039f4ac-6919-4160-9646-5892ca401c41","ios":"levelo://app?vid=1039f4ac-6919-4160-9646-5892ca401c41"},"vehicle_type_id":"4","last_reported":1767879190,"current_range_meters":4800,"station_id":"ce4bhih2rcd13ifvqfs0","pricing_plan_id":"cebpf4jnsgd1na2vs0mg"},{"bike_id":"c8ec83ab-15ee-4c03-b988-a448ec4c8d61","system_id":"levelo_inurba_marseille","lat":43.28971,"lon":5.37834,"is_reserved":false,"is_disabled":false,"rental_uris":{"android":"levelo://app?vid=c8ec83ab-15ee-4c03-b988-a448ec4c8d61","ios":"levelo://app?vid=c8ec83ab-15ee-4c03-b988-a448ec4c8d61"},"vehicle_type_id":"4","last_reported":1767879190,"current_range_meters":4800,"station_id":"ce4bh9p2rcd13ifvqed0","pricing_plan_id":"cebpf4jnsgd1na2vs0mg"},{"bike_id":"8e9cd320-222e-4849-8f3f-db8fcd5c5954","system_id":"levelo_inurba_marseille","lat":43.31815,"lon":5.3686,"is_reserved":false,"is_disabled":false,"rental_uris":{"android":"levelo://app?vid=8e9cd320-222e-4849-8f3f-db8fcd5c5954","ios":"levelo://app?vid=8e9cd320-222e-4849-8f3f-db8fcd5c5954"},"vehicle_type_id":"4","last_reported":1767879190,"current_range_meters":4800,"station_id":"","pricing_plan_id":"cebpf4jnsgd1na2vs0mg"},{"bike_id":"74b422ba-b607-45fd-8791-07c49495afc3","system_id":"levelo_inurba_marseille","lat":43.250025,"lon":5.389248,"is_reserved":false,"is_disabled":false,"rental_uris":{"android":"levelo://app?vid=74b422ba-b607-45fd-8791-07c49495afc3","ios":"levelo://app?vid=74b422ba-b607-45fd-8791-07c49495afc3"},"vehicle_type_id":"4","last_reported":1767879190,"current_range_meters":4800,"station_id":"ce4bhgp2rcd13ifvqfd0","pricing_plan_id":"cebpf4jnsgd1na2vs0mg"},{"bike_id":"eb861559-f4a9-4c83-89aa-289b16e18c99","system_id":"levelo_inurba_marseille","lat":43.295434,"lon":5.374733,"is_reserved":false,"is_disabled":false,"rental_uris":{"android":"levelo://app?vid=eb861559-f4a9-4c83-89aa-289b16e18c99","ios":"levelo://app?vid=eb861559-f4a9-4c83-89aa-289b16e18c99"},"vehicle_type_id":"4","last_reported":1767879190,"current_range_meters":5600,"station_id":"","pricing_plan_id":"cebpf4jnsgd1na2vs0mg"},{"bike_id":"7e56ead6-0dcc-483d-86d1-d4af73c68e4a","system_id":"levelo_inurba_marseille","lat":43.29407,"lon":5.386,"is_reserved":false,"is_disabled":true,"rental_uris":{"android":"levelo://app?vid=7e56ead6-0dcc-483d-86d1-d4af73c68e4a","ios":"levelo://app?vid=7e56ead6-0dcc-483d-86d1-d4af73c68e4a"},"vehicle_type_id":"4","last_reported":1767879190,"current_range_meters":5600,"station_id":"","pricing_plan_id":"cebpf4jnsgd1na2vs0mg"},{"bike_id":"01b7341c-b3a7-4a3f-a5cd-de1c6082dfb5","system_id":"levelo_inurba_marseille","lat":43.270525,"lon":5.383124,"is_reserved":false,"is_disabled":false,"rental_uris":{"android":"levelo://app?vid=01b7341c-b3a7-4a3f-a5cd-de1c6082dfb5","ios":"levelo://app?vid=01b7341c-b3a7-4a3f-a5cd-de1c6082dfb5"},"vehicle_type_id":"4","last_reported":1767879190,"current_range_meters":5600,"station_id":"st_d3n2fo6cfp8s73cte1j0","pricing_plan_id":"cebpf4jnsgd1na2vs0mg"},{"bike_id":"a9182ab3-9abf-4e5f-ab82-cb067396a0ff","system_id":"levelo_inurba_marseille","lat":43.266796,"lon":5.382703,"is_reserved":false,"is_disabled":false,"rental_uris":{"android":"levelo://app?vid=a9182ab3-9abf-4e5f-ab82-cb067396a0ff","ios":"levelo://app?vid=a9182ab3-9abf-4e5f-ab82-cb067396a0ff"},"vehicle_type_id":"4","last_reported":1767879190,"current_range_meters":5600,"station_id":"ce4bhg92rcd13ifvqf90","pricing_plan_id":"cebpf4jnsgd1na2vs0mg"},{"bike_id":"e3ffb854-e428-4a18-904d-ea5ddd084e10","system_id":"levelo_inurba_marseille","lat":43.323674,"lon":5.367289,"is_reserved":false,"is_disabled":false,"rental_uris":{"android":"levelo://app?vid=e3ffb854-e428-4a18-904d-ea5ddd084e10","ios":"levelo://app?vid=e3ffb854-e428-4a18-904d-ea5ddd084e10"},"vehicle_type_id":"4","last_reported":1767879190,"current_range_meters":5600,"station_id":"","pricing_plan_id":"cebpf4jnsgd1na2vs0mg"},{"bike_id":"dee1e9d8-96a9-4dec-91e8-d51fb72112fd","system_id":"levelo_inurba_marseille","lat":43.225686,"lon":5.416249,"is_reserved":false,"is_disabled":false,"rental_uris":{"android":"levelo://app?vid=dee1e9d8-96a9-4dec-91e8-d51fb72112fd","ios":"levelo://app?vid=dee1e9d8-96a9-4dec-91e8-d51fb72112fd"},"vehicle_type_id":"4","last_reported":1767879190,"current_range_meters":5600,"station_id":"st_d2o4gvlbi1j2169b742g","pricing_plan_id":"cebpf4jnsgd1na2vs0mg"},{"bike_id":"b0cfeff3-23b5-44cb-abb3-55aee7bc37c3","system_id":"levelo_inurba_marseille","lat":43.29582,"lon":5.39976,"is_reserved":false,"is_disabled":false,"rental_uris":{"android":"levelo://app?vid=b0cfeff3-23b5-44cb-abb3-55aee7bc37c3","ios":"levelo://app?vid=b0cfeff3-23b5-44cb-abb3-55aee7bc37c3"},"vehicle_type_id":"4","last_reported":1767879190,"current_range_meters":5600,"station_id":"ce4bh312rcd13ifvqdj0","pricing_plan_id":"cebpf4jnsgd1na2vs0mg"},{"bike_id":"d75a90cd-5dce-4bdd-84ef-6b9526859b57","system_id":"levelo_inurba_marseille","lat":43.32514,"lon":5.38282,"is_reserved":false,"is_disabled":false,"rental_uris":{"android":"levelo://app?vid=d75a90cd-5dce-4bdd-84ef-6b9526859b57","ios":"levelo://app?vid=d75a90cd-5dce-4bdd-84ef-6b9526859b57"},"vehicle_type_id":"4","last_reported":1767879190,"current_range_meters":5600,"station_id":"st_d4asgbiv49dc73anf9m0","pricing_plan_id":"cebpf4jnsgd1na2vs0mg"},{"bike_id":"f139dc33-0315-4e3b-806c-1c4763fe230a","system_id":"levelo_inurba_marseille","lat":43.32367,"lon":5.3674,"is_reserved":false,"is_disabled":false,"rental_uris":{"android":"levelo://app?vid=f139dc33-0315-4e3b-806c-1c4763fe230a","ios":"levelo://app?vid=f139dc33-0315-4e3b-806c-1c4763fe230a"},"vehicle_type_id":"4","last_reported":1767879190,"current_range_meters":5600,"station_id":"ce4bhsh2rcd13ifvqi2g","pricing_plan_id":"cebpf4jnsgd1na2vs0mg"},{"bike_id":"79b7d8b5-754a-46a7-978e-2332282b2168","system_id":"levelo_inurba_marseille","lat":43.29026,"lon":5.38133,"is_reserved":false,"is_disabled":false,"rental_uris":{"android":"levelo://app?vid=79b7d8b5-754a-46a7-978e-2332282b2168","ios":"levelo://app?vid=79b7d8b5-754a-46a7-978e-2332282b2168"},"vehicle_type_id":"4","last_reported":1767879190,"current_range_meters":5600,"station_id":"ce4bh4p2rcd13ifvqe1g","pricing_plan_id":"cebpf4jnsgd1na2vs0mg"},{"bike_id":"5a68ff48-3ca4-4b8d-81f5-0545c9e06ce5","system_id":"levelo_inurba_marseille","lat":43.28868,"lon":5.42524,"is_reserved":false,"is_disabled":false,"rental_uris":{"android":"levelo://app?vid=5a68ff48-3ca4-4b8d-81f5-0545c9e06ce5","ios":"levelo://app?vid=5a68ff48-3ca4-4b8d-81f5-0545c9e06ce5"},"vehicle_type_id":"4","last_reported":1767879190,"current_range_meters":6000,"station_id":"st_d3b462108ojc7389ooeg","pricing_plan_id":"cebpf4jnsgd1na2vs0mg"},{"bike_id":"bcffa3a6-ff3c-45db-9b63-989d56235791","system_id":"levelo_inurba_marseille","lat":43.24481,"lon":5.42535,"is_reserved":false,"is_disabled":false,"rental_uris":{"android":"levelo://app?vid=bcffa3a6-ff3c-45db-9b63-989d56235791","ios":"levelo://app?vid=bcffa3a6-ff3c-45db-9b63-989d56235791"},"vehicle_type_id":"4","last_reported":1767879190,"current_range_meters":6000,"station_id":"st_d4a3vfp97mjs738cd8kg","pricing_plan_id":"cebpf4jnsgd1na2vs0mg"},{"bike_id":"4df48156-dd6c-425a-aaac-7de4e5d50530","system_id":"levelo_inurba_marseille","lat":43.29005,"lon":5.35753,"is_reserved":false,"is_disabled":false,"rental_uris":{"android":"levelo://app?vid=4df48156-dd6c-425a-aaac-7de4e5d50530","ios":"levelo://app?vid=4df48156-dd6c-425a-aaac-7de4e5d50530"},"vehicle_type_id":"4","last_reported":1767879190,"current_range_meters":6000,"station_id":"","pricing_plan_id":"cebpf4jnsgd1na2vs0mg"},{"bike_id":"d3f08c69-867a-4c64-bb56-309f7b47b9eb","system_id":"levelo_inurba_marseille","lat":43.30325,"lon":5.39234,"is_reserved":false,"is_disabled":false,"rental_uris":{"android":"levelo://app?vid=d3f08c69-867a-4c64-bb56-309f7b47b9eb","ios":"levelo://app?vid=d3f08c69-867a-4c64-bb56-309f7b47b9eb"},"vehicle_type_id":"4","last_reported":1767879190,"current_range_meters":6000,"station_id":"ce4bgkh2rcd13ifvqbk0","pricing_plan_id":"cebpf4jnsgd1na2vs0mg"},{"bike_id":"40f08c9f-1db3-428a-bccb-f339a21698d1","system_id":"levelo_inurba_marseille","lat":43.29931,"lon":5.38117,"is_reserved":false,"is_disabled":false,"rental_uris":{"android":"levelo://app?vid=40f08c9f-1db3-428a-bccb-f339a21698d1","ios":"levelo://app?vid=40f08c9f-1db3-428a-bccb-f339a21698d1"},"vehicle_type_id":"4","last_reported":1767879190,"current_range_meters":6000,"station_id":"ce4bgj12rcd13ifvqbc0","pricing_plan_id":"cebpf4jnsgd1na2vs0mg"},{"bike_id":"cca37f41-75c9-4589-a8ae-12bfd7f639e2","system_id":"levelo_inurba_marseille","lat":43.28926,"lon":5.42523,"is_reserved":false,"is_disabled":false,"rental_uris":{"android":"levelo://app?vid=cca37f41-75c9-4589-a8ae-12bfd7f639e2","ios":"levelo://app?vid=cca37f41-75c9-4589-a8ae-12bfd7f639e2"},"vehicle_type_id":"4","last_reported":1767879190,"current_range_meters":6000,"station_id":"","pricing_plan_id":"cebpf4jnsgd1na2vs0mg"},{"bike_id":"d1b3cdc7-bda6-4645-bd49-fbb3124ac1cb","system_id":"levelo_inurba_marseille","lat":43.27489,"lon":5.42452,"is_reserved":false,"is_disabled":false,"rental_uris":{"android":"levelo://app?vid=d1b3cdc7-bda6-4645-bd49-fbb3124ac1cb","ios":"levelo://app?vid=d1b3cdc7-bda6-4645-bd49-fbb3124ac1cb"},"vehicle_type_id":"4","last_reported":1767879190,"current_range_meters":6000,"station_id":"ce4bhn92rcd13ifvqgrg","pricing_plan_id":"cebpf4jnsgd1na2vs0mg"},{"bike_id":"fe99a84f-5ce7-4cef-a997-e79fffe9bddd","system_id":"levelo_inurba_marseille","lat":43.320965,"lon":5.367757,"is_reserved":false,"is_disabled":false,"rental_uris":{"android":"levelo://app?vid=fe99a84f-5ce7-4cef-a997-e79fffe9bddd","ios":"levelo://app?vid=fe99a84f-5ce7-4cef-a997-e79fffe9bddd"},"vehicle_type_id":"4","last_reported":1767879190,"current_range_meters":6000,"station_id":"ce4bhrh2rcd13ifvqhug","pricing_plan_id":"cebpf4jnsgd1na2vs0mg"},{"bike_id":"17ffc005-fa72-4d1f-9413-b31aab6a3fd6","system_id":"levelo_inurba_marseille","lat":43.32349,"lon":5.36737,"is_reserved":false,"is_disabled":false,"rental_uris":{"android":"levelo://app?vid=17ffc005-fa72-4d1f-9413-b31aab6a3fd6","ios":"levelo://app?vid=17ffc005-fa72-4d1f-9413-b31aab6a3fd6"},"vehicle_type_id":"4","last_reported":1767879190,"current_range_meters":6000,"station_id":"ce4bhsh2rcd13ifvqi2g","pricing_plan_id":"cebpf4jnsgd1na2vs0mg"},{"bike_id":"01d8e2c9-d4ce-48e6-afef-8bf3104cf069","system_id":"levelo_inurba_marseille","lat":43.27179,"lon":5.4101,"is_reserved":false,"is_disabled":false,"rental_uris":{"android":"levelo://app?vid=01d8e2c9-d4ce-48e6-afef-8bf3104cf069","ios":"levelo://app?vid=01d8e2c9-d4ce-48e6-afef-8bf3104cf069"},"vehicle_type_id":"4","last_reported":1767879190,"current_range_meters":6000,"station_id":"ce4bhl12rcd13ifvqgf0","pricing_plan_id":"cebpf4jnsgd1na2vs0mg"},{"bike_id":"627ad4fb-d3f7-406d-9fa6-760355e4142d","system_id":"levelo_inurba_marseille","lat":43.231999,"lon":5.355461,"is_reserved":false,"is_disabled":false,"rental_uris":{"android":"levelo://app?vid=627ad4fb-d3f7-406d-9fa6-760355e4142d","ios":"levelo://app?vid=627ad4fb-d3f7-406d-9fa6-760355e4142d"},"vehicle_type_id":"4","last_reported":1767879190,"current_range_meters":6000,"station_id":"ce4bhu92rcd13ifvqi70","pricing_plan_id":"cebpf4jnsgd1na2vs0mg"},{"bike_id":"e8c34c4a-7c8b-4704-b631-04bf63abaf6b","system_id":"levelo_inurba_marseille","lat":43.25822,"lon":5.39422,"is_reserved":false,"is_disabled":false,"rental_uris":{"android":"levelo://app?vid=e8c34c4a-7c8b-4704-b631-04bf63abaf6b","ios":"levelo://app?vid=e8c34c4a-7c8b-4704-b631-04bf63abaf6b"},"vehicle_type_id":"4","last_reported":1767879190,"current_range_meters":6000,"station_id":"ce4bhip2rcd13ifvqft0","pricing_plan_id":"cebpf4jnsgd1na2vs0mg"},{"bike_id":"4c29e1bd-a48f-4464-b516-3e83c71fdcf7","system_id":"levelo_inurba_marseille","lat":43.32495,"lon":5.38295,"is_reserved":false,"is_disabled":false,"rental_uris":{"android":"levelo://app?vid=4c29e1bd-a48f-4464-b516-3e83c71fdcf7","ios":"levelo://app?vid=4c29e1bd-a48f-4464-b516-3e83c71fdcf7"},"vehicle_type_id":"4","last_reported":1767879190,"current_range_meters":6000,"station_id":"st_d4asgbiv49dc73anf9m0","pricing_plan_id":"cebpf4jnsgd1na2vs0mg"},{"bike_id":"e333ef92-9481-476e-a416-b4070e2823b7","system_id":"levelo_inurba_marseille","lat":43.25493,"lon":5.37648,"is_reserved":false,"is_disabled":false,"rental_uris":{"android":"levelo://app?vid=e333ef92-9481-476e-a416-b4070e2823b7","ios":"levelo://app?vid=e333ef92-9481-476e-a416-b4070e2823b7"},"vehicle_type_id":"4","last_reported":1767879190,"current_range_meters":6000,"station_id":"ce4bhh12rcd13ifvqff0","pricing_plan_id":"cebpf4jnsgd1na2vs0mg"},{"bike_id":"028756d9-bfe4-42e7-8035-4b002ff65672","system_id":"levelo_inurba_marseille","lat":43.229244,"lon":5.353785,"is_reserved":false,"is_disabled":false,"rental_uris":{"android":"levelo://app?vid=028756d9-bfe4-42e7-8035-4b002ff65672","ios":"levelo://app?vid=028756d9-bfe4-42e7-8035-4b002ff65672"},"vehicle_type_id":"4","last_reported":1767879190,"current_range_meters":6000,"station_id":"cpo3532slgdg3j2ikp40","pricing_plan_id":"cebpf4jnsgd1na2vs0mg"},{"bike_id":"31ef6104-524a-4758-8a5c-811acc4ab6a4","system_id":"levelo_inurba_marseille","lat":43.28507,"lon":5.48458,"is_reserved":false,"is_disabled":false,"rental_uris":{"android":"levelo://app?vid=31ef6104-524a-4758-8a5c-811acc4ab6a4","ios":"levelo://app?vid=31ef6104-524a-4758-8a5c-811acc4ab6a4"},"vehicle_type_id":"4","last_reported":1767879190,"current_range_meters":6000,"station_id":"st_d3svhcjqgbts73a3dn0g","pricing_plan_id":"cebpf4jnsgd1na2vs0mg"},{"bike_id":"5f3933f1-8f15-451a-843e-42960e021121","system_id":"levelo_inurba_marseille","lat":43.296,"lon":5.37505,"is_reserved":false,"is_disabled":false,"rental_uris":{"android":"levelo://app?vid=5f3933f1-8f15-451a-843e-42960e021121","ios":"levelo://app?vid=5f3933f1-8f15-451a-843e-42960e021121"},"vehicle_type_id":"4","last_reported":1767879190,"current_range_meters":6400,"station_id":"ce4bgh92rcd13ifvqb50","pricing_plan_id":"cebpf4jnsgd1na2vs0mg"},{"bike_id":"42f02f13-932e-40dd-ae79-3a7a1a874e34","system_id":"levelo_inurba_marseille","lat":43.29476,"lon":5.43303,"is_reserved":false,"is_disabled":false,"rental_uris":{"android":"levelo://app?vid=42f02f13-932e-40dd-ae79-3a7a1a874e34","ios":"levelo://app?vid=42f02f13-932e-40dd-ae79-3a7a1a874e34"},"vehicle_type_id":"4","last_reported":1767879190,"current_range_meters":6400,"station_id":"st_d3j5ugp08ojc73fj9d10","pricing_plan_id":"cebpf4jnsgd1na2vs0mg"},{"bike_id":"b0fc992c-b034-4256-b199-935b86901d2f","system_id":"levelo_inurba_marseille","lat":43.22944,"lon":5.35381,"is_reserved":false,"is_disabled":false,"rental_uris":{"android":"levelo://app?vid=b0fc992c-b034-4256-b199-935b86901d2f","ios":"levelo://app?vid=b0fc992c-b034-4256-b199-935b86901d2f"},"vehicle_type_id":"4","last_reported":1767879190,"current_range_meters":6400,"station_id":"cpo3532slgdg3j2ikp40","pricing_plan_id":"cebpf4jnsgd1na2vs0mg"},{"bike_id":"aba7ea30-1026-499d-8351-ae41547f888c","system_id":"levelo_inurba_marseille","lat":43.30304,"lon":5.36903,"is_reserved":false,"is_disabled":false,"rental_uris":{"android":"levelo://app?vid=aba7ea30-1026-499d-8351-ae41547f888c","ios":"levelo://app?vid=aba7ea30-1026-499d-8351-ae41547f888c"},"vehicle_type_id":"4","last_reported":1767879190,"current_range_meters":6400,"station_id":"ce4bgqh2rcd13ifvqc5g","pricing_plan_id":"cebpf4jnsgd1na2vs0mg"},{"bike_id":"e1eb0afe-fe8a-460e-bf4a-daa974bf1ad8","system_id":"levelo_inurba_marseille","lat":43.271709,"lon":5.409947,"is_reserved":false,"is_disabled":false,"rental_uris":{"android":"levelo://app?vid=e1eb0afe-fe8a-460e-bf4a-daa974bf1ad8","ios":"levelo://app?vid=e1eb0afe-fe8a-460e-bf4a-daa974bf1ad8"},"vehicle_type_id":"4","last_reported":1767879190,"current_range_meters":6400,"station_id":"ce4bhl12rcd13ifvqgf0","pricing_plan_id":"cebpf4jnsgd1na2vs0mg"},{"bike_id":"99791fe2-9946-4480-bd44-d68e606642df","system_id":"levelo_inurba_marseille","lat":43.27965,"lon":5.41046,"is_reserved":false,"is_disabled":false,"rental_uris":{"android":"levelo://app?vid=99791fe2-9946-4480-bd44-d68e606642df","ios":"levelo://app?vid=99791fe2-9946-4480-bd44-d68e606642df"},"vehicle_type_id":"4","last_reported":1767879190,"current_range_meters":6400,"station_id":"ce4bhnp2rcd13ifvqh0g","pricing_plan_id":"cebpf4jnsgd1na2vs0mg"},{"bike_id":"212da61f-e45f-49da-8ac8-22c9c61d8835","system_id":"levelo_inurba_marseille","lat":43.31741,"lon":5.38515,"is_reserved":false,"is_disabled":false,"rental_uris":{"android":"levelo://app?vid=212da61f-e45f-49da-8ac8-22c9c61d8835","ios":"levelo://app?vid=212da61f-e45f-49da-8ac8-22c9c61d8835"},"vehicle_type_id":"4","last_reported":1767879190,"current_range_meters":6400,"station_id":"","pricing_plan_id":"cebpf4jnsgd1na2vs0mg"},{"bike_id":"ecd3c884-b625-4122-929d-6367a66201b9","system_id":"levelo_inurba_marseille","lat":43.30286,"lon":5.36918,"is_reserved":false,"is_disabled":false,"rental_uris":{"android":"levelo://app?vid=ecd3c884-b625-4122-929d-6367a66201b9","ios":"levelo://app?vid=ecd3c884-b625-4122-929d-6367a66201b9"},"vehicle_type_id":"4","last_reported":1767879190,"current_range_meters":6400,"station_id":"ce4bgqh2rcd13ifvqc5g","pricing_plan_id":"cebpf4jnsgd1na2vs0mg"},{"bike_id":"7ae2676e-e662-4a9a-a79a-d5011de94824","system_id":"levelo_inurba_marseille","lat":43.24145,"lon":5.36412,"is_reserved":false,"is_disabled":false,"rental_uris":{"android":"levelo://app?vid=7ae2676e-e662-4a9a-a79a-d5011de94824","ios":"levelo://app?vid=7ae2676e-e662-4a9a-a79a-d5011de94824"},"vehicle_type_id":"4","last_reported":1767879190,"current_range_meters":6400,"station_id":"cpo36qri1sfpv3e86is0","pricing_plan_id":"cebpf4jnsgd1na2vs0mg"},{"bike_id":"e986fce2-0dcf-4a72-8226-b2117b200211","system_id":"levelo_inurba_marseille","lat":43.23151,"lon":5.4371,"is_reserved":false,"is_disabled":false,"rental_uris":{"android":"levelo://app?vid=e986fce2-0dcf-4a72-8226-b2117b200211","ios":"levelo://app?vid=e986fce2-0dcf-4a72-8226-b2117b200211"},"vehicle_type_id":"4","last_reported":1767879190,"current_range_meters":6400,"station_id":"ce4bhmp2rcd13ifvqgog","pricing_plan_id":"cebpf4jnsgd1na2vs0mg"},{"bike_id":"193cd76b-9bcc-4fab-ad90-2f66f28ef687","system_id":"levelo_inurba_marseille","lat":43.240771,"lon":5.377607,"is_reserved":false,"is_disabled":false,"rental_uris":{"android":"levelo://app?vid=193cd76b-9bcc-4fab-ad90-2f66f28ef687","ios":"levelo://app?vid=193cd76b-9bcc-4fab-ad90-2f66f28ef687"},"vehicle_type_id":"4","last_reported":1767879190,"current_range_meters":6400,"station_id":"ce4bhnp2rcd13ifvqgvg","pricing_plan_id":"cebpf4jnsgd1na2vs0mg"},{"bike_id":"3aa4c52a-6551-4534-8c13-7666b1fb1bca","system_id":"levelo_inurba_marseille","lat":43.29526,"lon":5.39053,"is_reserved":false,"is_disabled":false,"rental_uris":{"android":"levelo://app?vid=3aa4c52a-6551-4534-8c13-7666b1fb1bca","ios":"levelo://app?vid=3aa4c52a-6551-4534-8c13-7666b1fb1bca"},"vehicle_type_id":"4","last_reported":1767879190,"current_range_meters":6400,"station_id":"ce4bh3p2rcd13ifvqdp0","pricing_plan_id":"cebpf4jnsgd1na2vs0mg"},{"bike_id":"80bdd1a4-b1ab-42ae-bb23-cfddeda5c12d","system_id":"levelo_inurba_marseille","lat":43.29883,"lon":5.38343,"is_reserved":false,"is_disabled":true,"rental_uris":{"android":"levelo://app?vid=80bdd1a4-b1ab-42ae-bb23-cfddeda5c12d","ios":"levelo://app?vid=80bdd1a4-b1ab-42ae-bb23-cfddeda5c12d"},"vehicle_type_id":"4","last_reported":1767879190,"current_range_meters":6400,"station_id":"","pricing_plan_id":"cebpf4jnsgd1na2vs0mg"},{"bike_id":"83ae8e35-28b0-4598-98d3-98b2988179db","system_id":"levelo_inurba_marseille","lat":43.3043,"lon":5.39744,"is_reserved":false,"is_disabled":false,"rental_uris":{"android":"levelo://app?vid=83ae8e35-28b0-4598-98d3-98b2988179db","ios":"levelo://app?vid=83ae8e35-28b0-4598-98d3-98b2988179db"},"vehicle_type_id":"4","last_reported":1767879190,"current_range_meters":6400,"station_id":"ce4bh092rcd13ifvqd20","pricing_plan_id":"cebpf4jnsgd1na2vs0mg"},{"bike_id":"c69b63f6-3f3e-4cc1-a8c2-4fc96af8c4e3","system_id":"levelo_inurba_marseille","lat":43.286999,"lon":5.373748,"is_reserved":false,"is_disabled":false,"rental_uris":{"android":"levelo://app?vid=c69b63f6-3f3e-4cc1-a8c2-4fc96af8c4e3","ios":"levelo://app?vid=c69b63f6-3f3e-4cc1-a8c2-4fc96af8c4e3"},"vehicle_type_id":"4","last_reported":1767879190,"current_range_meters":6400,"station_id":"ce4bh3p2rcd13ifvqdq0","pricing_plan_id":"cebpf4jnsgd1na2vs0mg"},{"bike_id":"2590ea77-d26b-43db-9aed-d9b6ef556761","system_id":"levelo_inurba_marseille","lat":43.3132,"lon":5.36725,"is_reserved":false,"is_disabled":false,"rental_uris":{"android":"levelo://app?vid=2590ea77-d26b-43db-9aed-d9b6ef556761","ios":"levelo://app?vid=2590ea77-d26b-43db-9aed-d9b6ef556761"},"vehicle_type_id":"4","last_reported":1767879190,"current_range_meters":6400,"station_id":"ce4bgr92rcd13ifvqc6g","pricing_plan_id":"cebpf4jnsgd1na2vs0mg"},{"bike_id":"204793df-02ef-4789-9cba-e7eb0cbe17e8","system_id":"levelo_inurba_marseille","lat":43.31176,"lon":5.38716,"is_reserved":false,"is_disabled":false,"rental_uris":{"android":"levelo://app?vid=204793df-02ef-4789-9cba-e7eb0cbe17e8","ios":"levelo://app?vid=204793df-02ef-4789-9cba-e7eb0cbe17e8"},"vehicle_type_id":"4","last_reported":1767879190,"current_range_meters":6400,"station_id":"ce4bgv12rcd13ifvqcp0","pricing_plan_id":"cebpf4jnsgd1na2vs0mg"},{"bike_id":"193e45c2-364c-423e-a140-ddc02a071b0f","system_id":"levelo_inurba_marseille","lat":43.2844,"lon":5.34985,"is_reserved":false,"is_disabled":false,"rental_uris":{"android":"levelo://app?vid=193e45c2-364c-423e-a140-ddc02a071b0f","ios":"levelo://app?vid=193e45c2-364c-423e-a140-ddc02a071b0f"},"vehicle_type_id":"4","last_reported":1767879190,"current_range_meters":6400,"station_id":"ce4bhbh2rcd13ifvqepg","pricing_plan_id":"cebpf4jnsgd1na2vs0mg"},{"bike_id":"5ddc36fe-25ae-4411-85cc-e5b7ed02f34a","system_id":"levelo_inurba_marseille","lat":43.2861,"lon":5.37052,"is_reserved":false,"is_disabled":false,"rental_uris":{"android":"levelo://app?vid=5ddc36fe-25ae-4411-85cc-e5b7ed02f34a","ios":"levelo://app?vid=5ddc36fe-25ae-4411-85cc-e5b7ed02f34a"},"vehicle_type_id":"4","last_reported":1767879190,"current_range_meters":6400,"station_id":"ce4bht12rcd13ifvqi60","pricing_plan_id":"cebpf4jnsgd1na2vs0mg"},{"bike_id":"50658340-35f1-4f1d-b90f-08cda8fb0917","system_id":"levelo_inurba_marseille","lat":43.29832,"lon":5.37826,"is_reserved":false,"is_disabled":false,"rental_uris":{"android":"levelo://app?vid=50658340-35f1-4f1d-b90f-08cda8fb0917","ios":"levelo://app?vid=50658340-35f1-4f1d-b90f-08cda8fb0917"},"vehicle_type_id":"4","last_reported":1767879190,"current_range_meters":6400,"station_id":"","pricing_plan_id":"cebpf4jnsgd1na2vs0mg"},{"bike_id":"2d6741f0-29af-4870-8d39-b2659468a455","system_id":"levelo_inurba_marseille","lat":43.30254,"lon":5.40083,"is_reserved":false,"is_disabled":false,"rental_uris":{"android":"levelo://app?vid=2d6741f0-29af-4870-8d39-b2659468a455","ios":"levelo://app?vid=2d6741f0-29af-4870-8d39-b2659468a455"},"vehicle_type_id":"4","last_reported":1767879190,"current_range_meters":6400,"station_id":"ce4bgvh2rcd13ifvqcs0","pricing_plan_id":"cebpf4jnsgd1na2vs0mg"},{"bike_id":"a714f327-3325-430d-a62a-219ddf12f989","system_id":"levelo_inurba_marseille","lat":43.27373,"lon":5.36239,"is_reserved":false,"is_disabled":false,"rental_uris":{"android":"levelo://app?vid=a714f327-3325-430d-a62a-219ddf12f989","ios":"levelo://app?vid=a714f327-3325-430d-a62a-219ddf12f989"},"vehicle_type_id":"4","last_reported":1767879190,"current_range_meters":6400,"station_id":"ce4bhbh2rcd13ifvqeo0","pricing_plan_id":"cebpf4jnsgd1na2vs0mg"},{"bike_id":"b7a5c3d8-1312-4b0c-9c85-9d927fb06d12","system_id":"levelo_inurba_marseille","lat":43.28488,"lon":5.38415,"is_reserved":false,"is_disabled":false,"rental_uris":{"android":"levelo://app?vid=b7a5c3d8-1312-4b0c-9c85-9d927fb06d12","ios":"levelo://app?vid=b7a5c3d8-1312-4b0c-9c85-9d927fb06d12"},"vehicle_type_id":"4","last_reported":1767879190,"current_range_meters":6800,"station_id":"ce4bh512rcd13ifvqe3g","pricing_plan_id":"cebpf4jnsgd1na2vs0mg"},{"bike_id":"19e15d06-cf4c-459d-8887-b3feaa0bcacf","system_id":"levelo_inurba_marseille","lat":43.32847,"lon":5.40459,"is_reserved":false,"is_disabled":false,"rental_uris":{"android":"levelo://app?vid=19e15d06-cf4c-459d-8887-b3feaa0bcacf","ios":"levelo://app?vid=19e15d06-cf4c-459d-8887-b3feaa0bcacf"},"vehicle_type_id":"4","last_reported":1767879190,"current_range_meters":6800,"station_id":"ce4bhq92rcd13ifvqhkg","pricing_plan_id":"cebpf4jnsgd1na2vs0mg"},{"bike_id":"c10c03af-eba1-4f9f-a373-ad08e2aac44e","system_id":"levelo_inurba_marseille","lat":43.25923,"lon":5.40905,"is_reserved":false,"is_disabled":false,"rental_uris":{"android":"levelo://app?vid=c10c03af-eba1-4f9f-a373-ad08e2aac44e","ios":"levelo://app?vid=c10c03af-eba1-4f9f-a373-ad08e2aac44e"},"vehicle_type_id":"4","last_reported":1767879190,"current_range_meters":6800,"station_id":"ce4bhm92rcd13ifvqglg","pricing_plan_id":"cebpf4jnsgd1na2vs0mg"},{"bike_id":"6df19930-e3eb-4eb3-9a45-a01da3418078","system_id":"levelo_inurba_marseille","lat":43.25814,"lon":5.39421,"is_reserved":false,"is_disabled":false,"rental_uris":{"android":"levelo://app?vid=6df19930-e3eb-4eb3-9a45-a01da3418078","ios":"levelo://app?vid=6df19930-e3eb-4eb3-9a45-a01da3418078"},"vehicle_type_id":"4","last_reported":1767879190,"current_range_meters":6800,"station_id":"ce4bhip2rcd13ifvqft0","pricing_plan_id":"cebpf4jnsgd1na2vs0mg"},{"bike_id":"b9ef6aa6-7590-46c5-a49a-18293bf99c6e","system_id":"levelo_inurba_marseille","lat":43.27333,"lon":5.3908,"is_reserved":false,"is_disabled":false,"rental_uris":{"android":"levelo://app?vid=b9ef6aa6-7590-46c5-a49a-18293bf99c6e","ios":"levelo://app?vid=b9ef6aa6-7590-46c5-a49a-18293bf99c6e"},"vehicle_type_id":"4","last_reported":1767879190,"current_range_meters":6800,"station_id":"ce4bhgp2rcd13ifvqfe0","pricing_plan_id":"cebpf4jnsgd1na2vs0mg"},{"bike_id":"6dd96e51-0ed6-4297-9c0e-283504dcbf10","system_id":"levelo_inurba_marseille","lat":43.28082,"lon":5.3967,"is_reserved":false,"is_disabled":false,"rental_uris":{"android":"levelo://app?vid=6dd96e51-0ed6-4297-9c0e-283504dcbf10","ios":"levelo://app?vid=6dd96e51-0ed6-4297-9c0e-283504dcbf10"},"vehicle_type_id":"4","last_reported":1767879190,"current_range_meters":6800,"station_id":"ce4bho12rcd13ifvqh2g","pricing_plan_id":"cebpf4jnsgd1na2vs0mg"},{"bike_id":"a6462651-ffd6-4de0-ac89-ac14a3f92140","system_id":"levelo_inurba_marseille","lat":43.237893,"lon":5.366303,"is_reserved":false,"is_disabled":false,"rental_uris":{"android":"levelo://app?vid=a6462651-ffd6-4de0-ac89-ac14a3f92140","ios":"levelo://app?vid=a6462651-ffd6-4de0-ac89-ac14a3f92140"},"vehicle_type_id":"4","last_reported":1767879190,"current_range_meters":6800,"station_id":"st_d3nk18o9ro0c73en2l3g","pricing_plan_id":"cebpf4jnsgd1na2vs0mg"},{"bike_id":"1f6bbb69-96ec-4774-a668-2cc90004d313","system_id":"levelo_inurba_marseille","lat":43.283775,"lon":5.386473,"is_reserved":false,"is_disabled":false,"rental_uris":{"android":"levelo://app?vid=1f6bbb69-96ec-4774-a668-2cc90004d313","ios":"levelo://app?vid=1f6bbb69-96ec-4774-a668-2cc90004d313"},"vehicle_type_id":"4","last_reported":1767879190,"current_range_meters":6800,"station_id":"ce4bh492rcd13ifvqdvg","pricing_plan_id":"cebpf4jnsgd1na2vs0mg"},{"bike_id":"0c9a66df-f705-45c0-ae22-047d0e6bf3f7","system_id":"levelo_inurba_marseille","lat":43.21746,"lon":5.34605,"is_reserved":false,"is_disabled":false,"rental_uris":{"android":"levelo://app?vid=0c9a66df-f705-45c0-ae22-047d0e6bf3f7","ios":"levelo://app?vid=0c9a66df-f705-45c0-ae22-047d0e6bf3f7"},"vehicle_type_id":"4","last_reported":1767879190,"current_range_meters":6800,"station_id":"st_cvj6r9ubvosntc0bgbag","pricing_plan_id":"cebpf4jnsgd1na2vs0mg"},{"bike_id":"d19d32de-fe7f-42ca-93fe-613a15438278","system_id":"levelo_inurba_marseille","lat":43.28429,"lon":5.35,"is_reserved":false,"is_disabled":false,"rental_uris":{"android":"levelo://app?vid=d19d32de-fe7f-42ca-93fe-613a15438278","ios":"levelo://app?vid=d19d32de-fe7f-42ca-93fe-613a15438278"},"vehicle_type_id":"4","last_reported":1767879190,"current_range_meters":6800,"station_id":"ce4bhbh2rcd13ifvqepg","pricing_plan_id":"cebpf4jnsgd1na2vs0mg"},{"bike_id":"26251df8-74b6-4622-a854-fef4826e7216","system_id":"levelo_inurba_marseille","lat":43.29581,"lon":5.37517,"is_reserved":false,"is_disabled":false,"rental_uris":{"android":"levelo://app?vid=26251df8-74b6-4622-a854-fef4826e7216","ios":"levelo://app?vid=26251df8-74b6-4622-a854-fef4826e7216"},"vehicle_type_id":"4","last_reported":1767879190,"current_range_meters":6800,"station_id":"ce4bgh92rcd13ifvqb50","pricing_plan_id":"cebpf4jnsgd1na2vs0mg"},{"bike_id":"6bddaefd-cff1-4799-8b05-460a68cec860","system_id":"levelo_inurba_marseille","lat":43.33027,"lon":5.39049,"is_reserved":false,"is_disabled":false,"rental_uris":{"android":"levelo://app?vid=6bddaefd-cff1-4799-8b05-460a68cec860","ios":"levelo://app?vid=6bddaefd-cff1-4799-8b05-460a68cec860"},"vehicle_type_id":"4","last_reported":1767879190,"current_range_meters":6800,"station_id":"ce4bhr92rcd13ifvqhrg","pricing_plan_id":"cebpf4jnsgd1na2vs0mg"},{"bike_id":"e87e13ae-d69b-4129-94d6-fdb38119b5d3","system_id":"levelo_inurba_marseille","lat":43.28406,"lon":5.34988,"is_reserved":false,"is_disabled":false,"rental_uris":{"android":"levelo://app?vid=e87e13ae-d69b-4129-94d6-fdb38119b5d3","ios":"levelo://app?vid=e87e13ae-d69b-4129-94d6-fdb38119b5d3"},"vehicle_type_id":"4","last_reported":1767879190,"current_range_meters":6800,"station_id":"ce4bhbh2rcd13ifvqepg","pricing_plan_id":"cebpf4jnsgd1na2vs0mg"},{"bike_id":"7401be6f-cce5-4127-bfd0-4e81a357cf0d","system_id":"levelo_inurba_marseille","lat":43.25599,"lon":5.38289,"is_reserved":false,"is_disabled":false,"rental_uris":{"android":"levelo://app?vid=7401be6f-cce5-4127-bfd0-4e81a357cf0d","ios":"levelo://app?vid=7401be6f-cce5-4127-bfd0-4e81a357cf0d"},"vehicle_type_id":"4","last_reported":1767879190,"current_range_meters":6800,"station_id":"ce4bhih2rcd13ifvqfs0","pricing_plan_id":"cebpf4jnsgd1na2vs0mg"},{"bike_id":"d732fcd7-f8ed-43d6-b6ef-d29b2b97a6d4","system_id":"levelo_inurba_marseille","lat":43.27371,"lon":5.36244,"is_reserved":false,"is_disabled":false,"rental_uris":{"android":"levelo://app?vid=d732fcd7-f8ed-43d6-b6ef-d29b2b97a6d4","ios":"levelo://app?vid=d732fcd7-f8ed-43d6-b6ef-d29b2b97a6d4"},"vehicle_type_id":"4","last_reported":1767879190,"current_range_meters":6800,"station_id":"ce4bhbh2rcd13ifvqeo0","pricing_plan_id":"cebpf4jnsgd1na2vs0mg"},{"bike_id":"d69421a5-b7f8-4b7c-ab70-ef6718fb423f","system_id":"levelo_inurba_marseille","lat":43.29873,"lon":5.38893,"is_reserved":false,"is_disabled":false,"rental_uris":{"android":"levelo://app?vid=d69421a5-b7f8-4b7c-ab70-ef6718fb423f","ios":"levelo://app?vid=d69421a5-b7f8-4b7c-ab70-ef6718fb423f"},"vehicle_type_id":"4","last_reported":1767879190,"current_range_meters":6800,"station_id":"ce4bh392rcd13ifvqdl0","pricing_plan_id":"cebpf4jnsgd1na2vs0mg"},{"bike_id":"47d0a8b3-c4fc-4d20-befe-0d9c69ad92a9","system_id":"levelo_inurba_marseille","lat":43.23782,"lon":5.3663,"is_reserved":false,"is_disabled":false,"rental_uris":{"android":"levelo://app?vid=47d0a8b3-c4fc-4d20-befe-0d9c69ad92a9","ios":"levelo://app?vid=47d0a8b3-c4fc-4d20-befe-0d9c69ad92a9"},"vehicle_type_id":"4","last_reported":1767879190,"current_range_meters":6800,"station_id":"st_d3nk18o9ro0c73en2l3g","pricing_plan_id":"cebpf4jnsgd1na2vs0mg"},{"bike_id":"84d7a35c-f0ae-49a9-8cd1-325e7f1ca1d6","system_id":"levelo_inurba_marseille","lat":43.3056,"lon":5.36514,"is_reserved":false,"is_disabled":false,"rental_uris":{"android":"levelo://app?vid=84d7a35c-f0ae-49a9-8cd1-325e7f1ca1d6","ios":"levelo://app?vid=84d7a35c-f0ae-49a9-8cd1-325e7f1ca1d6"},"vehicle_type_id":"4","last_reported":1767879190,"current_range_meters":7200,"station_id":"ce4bgs12rcd13ifvqcag","pricing_plan_id":"cebpf4jnsgd1na2vs0mg"},{"bike_id":"9c202c24-a1c8-4fad-95ee-379e797dad6e","system_id":"levelo_inurba_marseille","lat":43.29804,"lon":5.38075,"is_reserved":false,"is_disabled":false,"rental_uris":{"android":"levelo://app?vid=9c202c24-a1c8-4fad-95ee-379e797dad6e","ios":"levelo://app?vid=9c202c24-a1c8-4fad-95ee-379e797dad6e"},"vehicle_type_id":"4","last_reported":1767879190,"current_range_meters":7200,"station_id":"ce4bgip2rcd13ifvqbb0","pricing_plan_id":"cebpf4jnsgd1na2vs0mg"},{"bike_id":"1b08f614-a7af-4991-a2ca-51bd6579f7cb","system_id":"levelo_inurba_marseille","lat":43.29832,"lon":5.3807,"is_reserved":false,"is_disabled":false,"rental_uris":{"android":"levelo://app?vid=1b08f614-a7af-4991-a2ca-51bd6579f7cb","ios":"levelo://app?vid=1b08f614-a7af-4991-a2ca-51bd6579f7cb"},"vehicle_type_id":"4","last_reported":1767879190,"current_range_meters":7200,"station_id":"ce4bgip2rcd13ifvqbb0","pricing_plan_id":"cebpf4jnsgd1na2vs0mg"},{"bike_id":"79b07b5a-ec48-494b-80f5-1c129a1f1ef3","system_id":"levelo_inurba_marseille","lat":43.30155,"lon":5.38076,"is_reserved":false,"is_disabled":false,"rental_uris":{"android":"levelo://app?vid=79b07b5a-ec48-494b-80f5-1c129a1f1ef3","ios":"levelo://app?vid=79b07b5a-ec48-494b-80f5-1c129a1f1ef3"},"vehicle_type_id":"4","last_reported":1767879190,"current_range_meters":7200,"station_id":"ce4bgjp2rcd13ifvqbh0","pricing_plan_id":"cebpf4jnsgd1na2vs0mg"},{"bike_id":"0753808a-bb36-4a4b-9cb3-11f3d3daa7d7","system_id":"levelo_inurba_marseille","lat":43.25923,"lon":5.40904,"is_reserved":false,"is_disabled":false,"rental_uris":{"android":"levelo://app?vid=0753808a-bb36-4a4b-9cb3-11f3d3daa7d7","ios":"levelo://app?vid=0753808a-bb36-4a4b-9cb3-11f3d3daa7d7"},"vehicle_type_id":"4","last_reported":1767879190,"current_range_meters":7200,"station_id":"ce4bhm92rcd13ifvqglg","pricing_plan_id":"cebpf4jnsgd1na2vs0mg"},{"bike_id":"def7dce9-fdc4-4df2-baea-27b2ff2b32ca","system_id":"levelo_inurba_marseille","lat":43.2916,"lon":5.37154,"is_reserved":false,"is_disabled":false,"rental_uris":{"android":"levelo://app?vid=def7dce9-fdc4-4df2-baea-27b2ff2b32ca","ios":"levelo://app?vid=def7dce9-fdc4-4df2-baea-27b2ff2b32ca"},"vehicle_type_id":"4","last_reported":1767879190,"current_range_meters":7200,"station_id":"ce4bha92rcd13ifvqeh0","pricing_plan_id":"cebpf4jnsgd1na2vs0mg"},{"bike_id":"a95fa656-0322-460d-8134-27abb4fbb1a3","system_id":"levelo_inurba_marseille","lat":43.29037,"lon":5.399586,"is_reserved":false,"is_disabled":false,"rental_uris":{"android":"levelo://app?vid=a95fa656-0322-460d-8134-27abb4fbb1a3","ios":"levelo://app?vid=a95fa656-0322-460d-8134-27abb4fbb1a3"},"vehicle_type_id":"4","last_reported":1767879190,"current_range_meters":7200,"station_id":"ce4bh392rcd13ifvqdm0","pricing_plan_id":"cebpf4jnsgd1na2vs0mg"},{"bike_id":"abd4f237-c812-4344-bfeb-7094dc895bf0","system_id":"levelo_inurba_marseille","lat":43.30311,"lon":5.368977,"is_reserved":false,"is_disabled":false,"rental_uris":{"android":"levelo://app?vid=abd4f237-c812-4344-bfeb-7094dc895bf0","ios":"levelo://app?vid=abd4f237-c812-4344-bfeb-7094dc895bf0"},"vehicle_type_id":"4","last_reported":1767879190,"current_range_meters":7200,"station_id":"ce4bgqh2rcd13ifvqc5g","pricing_plan_id":"cebpf4jnsgd1na2vs0mg"},{"bike_id":"7edef108-1958-464e-8800-a78c62ae143c","system_id":"levelo_inurba_marseille","lat":43.26574,"lon":5.39036,"is_reserved":false,"is_disabled":false,"rental_uris":{"android":"levelo://app?vid=7edef108-1958-464e-8800-a78c62ae143c","ios":"levelo://app?vid=7edef108-1958-464e-8800-a78c62ae143c"},"vehicle_type_id":"4","last_reported":1767879190,"current_range_meters":7200,"station_id":"ce4bhe12rcd13ifvqf30","pricing_plan_id":"cebpf4jnsgd1na2vs0mg"},{"bike_id":"2ce5ca3c-d9fc-49d9-af2f-f360b5f5b714","system_id":"levelo_inurba_marseille","lat":43.27211,"lon":5.39143,"is_reserved":false,"is_disabled":false,"rental_uris":{"android":"levelo://app?vid=2ce5ca3c-d9fc-49d9-af2f-f360b5f5b714","ios":"levelo://app?vid=2ce5ca3c-d9fc-49d9-af2f-f360b5f5b714"},"vehicle_type_id":"4","last_reported":1767879190,"current_range_meters":7200,"station_id":"ce4bhhp2rcd13ifvqfm0","pricing_plan_id":"cebpf4jnsgd1na2vs0mg"},{"bike_id":"63e4976f-7d93-49f6-a2b3-f7ce857422dd","system_id":"levelo_inurba_marseille","lat":43.30318,"lon":5.39255,"is_reserved":false,"is_disabled":true,"rental_uris":{"android":"levelo://app?vid=63e4976f-7d93-49f6-a2b3-f7ce857422dd","ios":"levelo://app?vid=63e4976f-7d93-49f6-a2b3-f7ce857422dd"},"vehicle_type_id":"4","last_reported":1767879190,"current_range_meters":7200,"station_id":"ce4bgkh2rcd13ifvqbk0","pricing_plan_id":"cebpf4jnsgd1na2vs0mg"},{"bike_id":"4b5489ac-67eb-4672-844f-b7522eb4941d","system_id":"levelo_inurba_marseille","lat":43.28669,"lon":5.38667,"is_reserved":false,"is_disabled":false,"rental_uris":{"android":"levelo://app?vid=4b5489ac-67eb-4672-844f-b7522eb4941d","ios":"levelo://app?vid=4b5489ac-67eb-4672-844f-b7522eb4941d"},"vehicle_type_id":"4","last_reported":1767879190,"current_range_meters":7200,"station_id":"ce4bh492rcd13ifvqdug","pricing_plan_id":"cebpf4jnsgd1na2vs0mg"},{"bike_id":"61e533a6-acc9-488b-a636-f42dc7ec3e94","system_id":"levelo_inurba_marseille","lat":43.23965,"lon":5.36633,"is_reserved":false,"is_disabled":false,"rental_uris":{"android":"levelo://app?vid=61e533a6-acc9-488b-a636-f42dc7ec3e94","ios":"levelo://app?vid=61e533a6-acc9-488b-a636-f42dc7ec3e94"},"vehicle_type_id":"4","last_reported":1767879190,"current_range_meters":7200,"station_id":"ce4bhi12rcd13ifvqfp0","pricing_plan_id":"cebpf4jnsgd1na2vs0mg"},{"bike_id":"ef8b8eb6-6226-4146-95a1-d01c656eb60d","system_id":"levelo_inurba_marseille","lat":43.28476,"lon":5.48395,"is_reserved":false,"is_disabled":false,"rental_uris":{"android":"levelo://app?vid=ef8b8eb6-6226-4146-95a1-d01c656eb60d","ios":"levelo://app?vid=ef8b8eb6-6226-4146-95a1-d01c656eb60d"},"vehicle_type_id":"4","last_reported":1767879190,"current_range_meters":7200,"station_id":"st_d3svhcjqgbts73a3dn0g","pricing_plan_id":"cebpf4jnsgd1na2vs0mg"},{"bike_id":"d24d285e-9609-4a05-b62d-3c973f9ec4cd","system_id":"levelo_inurba_marseille","lat":43.27381,"lon":5.36234,"is_reserved":false,"is_disabled":false,"rental_uris":{"android":"levelo://app?vid=d24d285e-9609-4a05-b62d-3c973f9ec4cd","ios":"levelo://app?vid=d24d285e-9609-4a05-b62d-3c973f9ec4cd"},"vehicle_type_id":"4","last_reported":1767879190,"current_range_meters":7200,"station_id":"ce4bhbh2rcd13ifvqeo0","pricing_plan_id":"cebpf4jnsgd1na2vs0mg"},{"bike_id":"9f104fb5-7730-4e7c-bb41-0658a1b93946","system_id":"levelo_inurba_marseille","lat":43.27173,"lon":5.40999,"is_reserved":false,"is_disabled":false,"rental_uris":{"android":"levelo://app?vid=9f104fb5-7730-4e7c-bb41-0658a1b93946","ios":"levelo://app?vid=9f104fb5-7730-4e7c-bb41-0658a1b93946"},"vehicle_type_id":"4","last_reported":1767879190,"current_range_meters":7200,"station_id":"ce4bhl12rcd13ifvqgf0","pricing_plan_id":"cebpf4jnsgd1na2vs0mg"},{"bike_id":"357563d8-d33e-4f70-862e-8fab05436ef0","system_id":"levelo_inurba_marseille","lat":43.289776,"lon":5.378228,"is_reserved":false,"is_disabled":false,"rental_uris":{"android":"levelo://app?vid=357563d8-d33e-4f70-862e-8fab05436ef0","ios":"levelo://app?vid=357563d8-d33e-4f70-862e-8fab05436ef0"},"vehicle_type_id":"4","last_reported":1767879190,"current_range_meters":7200,"station_id":"","pricing_plan_id":"cebpf4jnsgd1na2vs0mg"},{"bike_id":"b7478445-5f6a-4340-adac-fb734b2f2129","system_id":"levelo_inurba_marseille","lat":43.24963,"lon":5.40493,"is_reserved":false,"is_disabled":false,"rental_uris":{"android":"levelo://app?vid=b7478445-5f6a-4340-adac-fb734b2f2129","ios":"levelo://app?vid=b7478445-5f6a-4340-adac-fb734b2f2129"},"vehicle_type_id":"4","last_reported":1767879190,"current_range_meters":7200,"station_id":"st_d2ngiaodas8pm72gd1h0","pricing_plan_id":"cebpf4jnsgd1na2vs0mg"},{"bike_id":"b3ecbe6a-bbab-4bb0-bf18-c1d5b68694f7","system_id":"levelo_inurba_marseille","lat":43.28969,"lon":5.37812,"is_reserved":false,"is_disabled":false,"rental_uris":{"android":"levelo://app?vid=b3ecbe6a-bbab-4bb0-bf18-c1d5b68694f7","ios":"levelo://app?vid=b3ecbe6a-bbab-4bb0-bf18-c1d5b68694f7"},"vehicle_type_id":"4","last_reported":1767879190,"current_range_meters":7200,"station_id":"ce4bh9p2rcd13ifvqed0","pricing_plan_id":"cebpf4jnsgd1na2vs0mg"},{"bike_id":"0fd80f10-4304-4c12-9af3-a94a305f109a","system_id":"levelo_inurba_marseille","lat":43.26088,"lon":5.39402,"is_reserved":false,"is_disabled":false,"rental_uris":{"android":"levelo://app?vid=0fd80f10-4304-4c12-9af3-a94a305f109a","ios":"levelo://app?vid=0fd80f10-4304-4c12-9af3-a94a305f109a"},"vehicle_type_id":"4","last_reported":1767879190,"current_range_meters":7200,"station_id":"ce4bhh92rcd13ifvqfj0","pricing_plan_id":"cebpf4jnsgd1na2vs0mg"},{"bike_id":"9cfeff17-a54a-4b3c-baa8-c7ed795fc5f2","system_id":"levelo_inurba_marseille","lat":43.24161,"lon":5.36389,"is_reserved":false,"is_disabled":false,"rental_uris":{"android":"levelo://app?vid=9cfeff17-a54a-4b3c-baa8-c7ed795fc5f2","ios":"levelo://app?vid=9cfeff17-a54a-4b3c-baa8-c7ed795fc5f2"},"vehicle_type_id":"4","last_reported":1767879190,"current_range_meters":8000,"station_id":"cpo36qri1sfpv3e86is0","pricing_plan_id":"cebpf4jnsgd1na2vs0mg"},{"bike_id":"dfe5a3d6-a632-4015-9d6d-e392452a5f87","system_id":"levelo_inurba_marseille","lat":43.24808,"lon":5.3746,"is_reserved":false,"is_disabled":false,"rental_uris":{"android":"levelo://app?vid=dfe5a3d6-a632-4015-9d6d-e392452a5f87","ios":"levelo://app?vid=dfe5a3d6-a632-4015-9d6d-e392452a5f87"},"vehicle_type_id":"4","last_reported":1767879190,"current_range_meters":8000,"station_id":"ce4bhgh2rcd13ifvqfb0","pricing_plan_id":"cebpf4jnsgd1na2vs0mg"},{"bike_id":"b86cdf0c-e60e-44b1-8077-42145bab1514","system_id":"levelo_inurba_marseille","lat":43.29087,"lon":5.37152,"is_reserved":false,"is_disabled":false,"rental_uris":{"android":"levelo://app?vid=b86cdf0c-e60e-44b1-8077-42145bab1514","ios":"levelo://app?vid=b86cdf0c-e60e-44b1-8077-42145bab1514"},"vehicle_type_id":"4","last_reported":1767879190,"current_range_meters":8000,"station_id":"ce4bh5p2rcd13ifvqe4g","pricing_plan_id":"cebpf4jnsgd1na2vs0mg"},{"bike_id":"92ec400a-1816-464b-b776-d8ae8599bbc7","system_id":"levelo_inurba_marseille","lat":43.253127,"lon":5.381125,"is_reserved":false,"is_disabled":false,"rental_uris":{"android":"levelo://app?vid=92ec400a-1816-464b-b776-d8ae8599bbc7","ios":"levelo://app?vid=92ec400a-1816-464b-b776-d8ae8599bbc7"},"vehicle_type_id":"4","last_reported":1767879190,"current_range_meters":8000,"station_id":"","pricing_plan_id":"cebpf4jnsgd1na2vs0mg"},{"bike_id":"39efe3e1-9d88-48e5-bb46-2b1e39c86adc","system_id":"levelo_inurba_marseille","lat":43.30544,"lon":5.36517,"is_reserved":false,"is_disabled":false,"rental_uris":{"android":"levelo://app?vid=39efe3e1-9d88-48e5-bb46-2b1e39c86adc","ios":"levelo://app?vid=39efe3e1-9d88-48e5-bb46-2b1e39c86adc"},"vehicle_type_id":"4","last_reported":1767879190,"current_range_meters":8000,"station_id":"ce4bgs12rcd13ifvqcag","pricing_plan_id":"cebpf4jnsgd1na2vs0mg"},{"bike_id":"2b667aa7-ffcd-409d-a569-4231154dcf99","system_id":"levelo_inurba_marseille","lat":43.29797,"lon":5.38084,"is_reserved":false,"is_disabled":false,"rental_uris":{"android":"levelo://app?vid=2b667aa7-ffcd-409d-a569-4231154dcf99","ios":"levelo://app?vid=2b667aa7-ffcd-409d-a569-4231154dcf99"},"vehicle_type_id":"4","last_reported":1767879190,"current_range_meters":8000,"station_id":"ce4bgip2rcd13ifvqbb0","pricing_plan_id":"cebpf4jnsgd1na2vs0mg"},{"bike_id":"873ae146-395a-40ee-8fdf-3d973ffd9442","system_id":"levelo_inurba_marseille","lat":43.25928,"lon":5.40911,"is_reserved":false,"is_disabled":false,"rental_uris":{"android":"levelo://app?vid=873ae146-395a-40ee-8fdf-3d973ffd9442","ios":"levelo://app?vid=873ae146-395a-40ee-8fdf-3d973ffd9442"},"vehicle_type_id":"4","last_reported":1767879190,"current_range_meters":8000,"station_id":"ce4bhm92rcd13ifvqglg","pricing_plan_id":"cebpf4jnsgd1na2vs0mg"},{"bike_id":"064c8191-3107-4a12-b80e-6dc34a12a072","system_id":"levelo_inurba_marseille","lat":43.24817,"lon":5.37447,"is_reserved":false,"is_disabled":false,"rental_uris":{"android":"levelo://app?vid=064c8191-3107-4a12-b80e-6dc34a12a072","ios":"levelo://app?vid=064c8191-3107-4a12-b80e-6dc34a12a072"},"vehicle_type_id":"4","last_reported":1767879190,"current_range_meters":8000,"station_id":"ce4bhgh2rcd13ifvqfb0","pricing_plan_id":"cebpf4jnsgd1na2vs0mg"},{"bike_id":"dad606a3-a526-4692-8263-0109fd95822e","system_id":"levelo_inurba_marseille","lat":43.29914,"lon":5.3747,"is_reserved":false,"is_disabled":false,"rental_uris":{"android":"levelo://app?vid=dad606a3-a526-4692-8263-0109fd95822e","ios":"levelo://app?vid=dad606a3-a526-4692-8263-0109fd95822e"},"vehicle_type_id":"4","last_reported":1767879190,"current_range_meters":8000,"station_id":"ce4bgjh2rcd13ifvqbg0","pricing_plan_id":"cebpf4jnsgd1na2vs0mg"},{"bike_id":"377e74e1-63b3-4033-856b-885a92deac06","system_id":"levelo_inurba_marseille","lat":43.24073,"lon":5.37763,"is_reserved":false,"is_disabled":false,"rental_uris":{"android":"levelo://app?vid=377e74e1-63b3-4033-856b-885a92deac06","ios":"levelo://app?vid=377e74e1-63b3-4033-856b-885a92deac06"},"vehicle_type_id":"4","last_reported":1767879190,"current_range_meters":8000,"station_id":"ce4bhnp2rcd13ifvqgvg","pricing_plan_id":"cebpf4jnsgd1na2vs0mg"},{"bike_id":"ac64f432-9ab8-4dd9-b132-5f28fccbe7fd","system_id":"levelo_inurba_marseille","lat":43.30534,"lon":5.36773,"is_reserved":false,"is_disabled":false,"rental_uris":{"android":"levelo://app?vid=ac64f432-9ab8-4dd9-b132-5f28fccbe7fd","ios":"levelo://app?vid=ac64f432-9ab8-4dd9-b132-5f28fccbe7fd"},"vehicle_type_id":"4","last_reported":1767879190,"current_range_meters":8000,"station_id":"ce4bgrp2rcd13ifvqc9g","pricing_plan_id":"cebpf4jnsgd1na2vs0mg"},{"bike_id":"82582fec-7dfe-4668-947f-7bf0439e6b8e","system_id":"levelo_inurba_marseille","lat":43.28478,"lon":5.48403,"is_reserved":false,"is_disabled":false,"rental_uris":{"android":"levelo://app?vid=82582fec-7dfe-4668-947f-7bf0439e6b8e","ios":"levelo://app?vid=82582fec-7dfe-4668-947f-7bf0439e6b8e"},"vehicle_type_id":"4","last_reported":1767879190,"current_range_meters":8000,"station_id":"","pricing_plan_id":"cebpf4jnsgd1na2vs0mg"},{"bike_id":"e7ae9442-528d-4e6e-9257-e247add9ef1b","system_id":"levelo_inurba_marseille","lat":43.2557,"lon":5.38246,"is_reserved":false,"is_disabled":false,"rental_uris":{"android":"levelo://app?vid=e7ae9442-528d-4e6e-9257-e247add9ef1b","ios":"levelo://app?vid=e7ae9442-528d-4e6e-9257-e247add9ef1b"},"vehicle_type_id":"4","last_reported":1767879190,"current_range_meters":8000,"station_id":"ce4bhih2rcd13ifvqfs0","pricing_plan_id":"cebpf4jnsgd1na2vs0mg"},{"bike_id":"1a68cb84-5015-4254-8743-ae34d93b9057","system_id":"levelo_inurba_marseille","lat":43.28615,"lon":5.351053,"is_reserved":false,"is_disabled":false,"rental_uris":{"android":"levelo://app?vid=1a68cb84-5015-4254-8743-ae34d93b9057","ios":"levelo://app?vid=1a68cb84-5015-4254-8743-ae34d93b9057"},"vehicle_type_id":"4","last_reported":1767879190,"current_range_meters":8000,"station_id":"ce4bhch2rcd13ifvqeug","pricing_plan_id":"cebpf4jnsgd1na2vs0mg"},{"bike_id":"e412bd1f-9559-40df-baea-da06ff8409ea","system_id":"levelo_inurba_marseille","lat":43.31046,"lon":5.37165,"is_reserved":false,"is_disabled":true,"rental_uris":{"android":"levelo://app?vid=e412bd1f-9559-40df-baea-da06ff8409ea","ios":"levelo://app?vid=e412bd1f-9559-40df-baea-da06ff8409ea"},"vehicle_type_id":"4","last_reported":1767879190,"current_range_meters":8000,"station_id":"st_d4kl2rp97mjs73e7tdfg","pricing_plan_id":"cebpf4jnsgd1na2vs0mg"},{"bike_id":"ca952edf-7616-4a9b-8a99-3a013bbb51d1","system_id":"levelo_inurba_marseille","lat":43.27528,"lon":5.3834,"is_reserved":false,"is_disabled":false,"rental_uris":{"android":"levelo://app?vid=ca952edf-7616-4a9b-8a99-3a013bbb51d1","ios":"levelo://app?vid=ca952edf-7616-4a9b-8a99-3a013bbb51d1"},"vehicle_type_id":"4","last_reported":1767879190,"current_range_meters":8000,"station_id":"ce4bhh92rcd13ifvqfi0","pricing_plan_id":"cebpf4jnsgd1na2vs0mg"},{"bike_id":"ccdc0493-5cc5-4df9-bd5e-9b13cb7be565","system_id":"levelo_inurba_marseille","lat":43.30141,"lon":5.38071,"is_reserved":false,"is_disabled":false,"rental_uris":{"android":"levelo://app?vid=ccdc0493-5cc5-4df9-bd5e-9b13cb7be565","ios":"levelo://app?vid=ccdc0493-5cc5-4df9-bd5e-9b13cb7be565"},"vehicle_type_id":"4","last_reported":1767879190,"current_range_meters":8000,"station_id":"ce4bgjp2rcd13ifvqbh0","pricing_plan_id":"cebpf4jnsgd1na2vs0mg"},{"bike_id":"c0d110cb-c847-4491-a701-512e5f656242","system_id":"levelo_inurba_marseille","lat":43.28447,"lon":5.39201,"is_reserved":false,"is_disabled":false,"rental_uris":{"android":"levelo://app?vid=c0d110cb-c847-4491-a701-512e5f656242","ios":"levelo://app?vid=c0d110cb-c847-4491-a701-512e5f656242"},"vehicle_type_id":"4","last_reported":1767879190,"current_range_meters":8000,"station_id":"ce4bhoh2rcd13ifvqh5g","pricing_plan_id":"cebpf4jnsgd1na2vs0mg"},{"bike_id":"d5c1c553-9204-43c8-8cf5-216603484439","system_id":"levelo_inurba_marseille","lat":43.29529,"lon":5.37511,"is_reserved":false,"is_disabled":false,"rental_uris":{"android":"levelo://app?vid=d5c1c553-9204-43c8-8cf5-216603484439","ios":"levelo://app?vid=d5c1c553-9204-43c8-8cf5-216603484439"},"vehicle_type_id":"4","last_reported":1767879190,"current_range_meters":8000,"station_id":"ce4bgkp2rcd13ifvqbmg","pricing_plan_id":"cebpf4jnsgd1na2vs0mg"},{"bike_id":"804bced5-7779-4d7f-a23b-cc26efc4cdbd","system_id":"levelo_inurba_marseille","lat":43.330319,"lon":5.390432,"is_reserved":false,"is_disabled":false,"rental_uris":{"android":"levelo://app?vid=804bced5-7779-4d7f-a23b-cc26efc4cdbd","ios":"levelo://app?vid=804bced5-7779-4d7f-a23b-cc26efc4cdbd"},"vehicle_type_id":"4","last_reported":1767879190,"current_range_meters":8000,"station_id":"ce4bhr92rcd13ifvqhrg","pricing_plan_id":"cebpf4jnsgd1na2vs0mg"},{"bike_id":"dcb3d777-2d83-4ce0-89de-e4ed9431dd5f","system_id":"levelo_inurba_marseille","lat":43.29716,"lon":5.36609,"is_reserved":false,"is_disabled":false,"rental_uris":{"android":"levelo://app?vid=dcb3d777-2d83-4ce0-89de-e4ed9431dd5f","ios":"levelo://app?vid=dcb3d777-2d83-4ce0-89de-e4ed9431dd5f"},"vehicle_type_id":"4","last_reported":1767879190,"current_range_meters":8000,"station_id":"ce4bgn12rcd13ifvqbt0","pricing_plan_id":"cebpf4jnsgd1na2vs0mg"},{"bike_id":"1ebedbae-928a-4b4b-9a79-d3cbb323887a","system_id":"levelo_inurba_marseille","lat":43.25328,"lon":5.42153,"is_reserved":false,"is_disabled":false,"rental_uris":{"android":"levelo://app?vid=1ebedbae-928a-4b4b-9a79-d3cbb323887a","ios":"levelo://app?vid=1ebedbae-928a-4b4b-9a79-d3cbb323887a"},"vehicle_type_id":"4","last_reported":1767879190,"current_range_meters":8400,"station_id":"st_d2m65c5bi1j21697t3ng","pricing_plan_id":"cebpf4jnsgd1na2vs0mg"},{"bike_id":"6fad9ca1-61fd-4cab-8c8e-75dda08e921f","system_id":"levelo_inurba_marseille","lat":43.31974,"lon":5.37438,"is_reserved":false,"is_disabled":false,"rental_uris":{"android":"levelo://app?vid=6fad9ca1-61fd-4cab-8c8e-75dda08e921f","ios":"levelo://app?vid=6fad9ca1-61fd-4cab-8c8e-75dda08e921f"},"vehicle_type_id":"4","last_reported":1767879190,"current_range_meters":8400,"station_id":"","pricing_plan_id":"cebpf4jnsgd1na2vs0mg"},{"bike_id":"4b822c13-eacd-4dc0-b387-adef5557c622","system_id":"levelo_inurba_marseille","lat":43.26215,"lon":5.37461,"is_reserved":false,"is_disabled":false,"rental_uris":{"android":"levelo://app?vid=4b822c13-eacd-4dc0-b387-adef5557c622","ios":"levelo://app?vid=4b822c13-eacd-4dc0-b387-adef5557c622"},"vehicle_type_id":"4","last_reported":1767879190,"current_range_meters":8400,"station_id":"ce4bhgp2rcd13ifvqfc0","pricing_plan_id":"cebpf4jnsgd1na2vs0mg"},{"bike_id":"52c545a6-4990-49e9-b5f1-ef579ddc71f3","system_id":"levelo_inurba_marseille","lat":43.25575,"lon":5.38239,"is_reserved":false,"is_disabled":false,"rental_uris":{"android":"levelo://app?vid=52c545a6-4990-49e9-b5f1-ef579ddc71f3","ios":"levelo://app?vid=52c545a6-4990-49e9-b5f1-ef579ddc71f3"},"vehicle_type_id":"4","last_reported":1767879190,"current_range_meters":8400,"station_id":"ce4bhih2rcd13ifvqfs0","pricing_plan_id":"cebpf4jnsgd1na2vs0mg"},{"bike_id":"97452125-5d86-4a9e-b4a3-a2dd4fe9ffac","system_id":"levelo_inurba_marseille","lat":43.25497,"lon":5.3765,"is_reserved":false,"is_disabled":false,"rental_uris":{"android":"levelo://app?vid=97452125-5d86-4a9e-b4a3-a2dd4fe9ffac","ios":"levelo://app?vid=97452125-5d86-4a9e-b4a3-a2dd4fe9ffac"},"vehicle_type_id":"4","last_reported":1767879190,"current_range_meters":8400,"station_id":"ce4bhh12rcd13ifvqff0","pricing_plan_id":"cebpf4jnsgd1na2vs0mg"},{"bike_id":"3e14d0f1-1ab2-46b7-a760-c908c28eb465","system_id":"levelo_inurba_marseille","lat":43.297887,"lon":5.381086,"is_reserved":false,"is_disabled":false,"rental_uris":{"android":"levelo://app?vid=3e14d0f1-1ab2-46b7-a760-c908c28eb465","ios":"levelo://app?vid=3e14d0f1-1ab2-46b7-a760-c908c28eb465"},"vehicle_type_id":"4","last_reported":1767879190,"current_range_meters":8400,"station_id":"ce4bgip2rcd13ifvqbb0","pricing_plan_id":"cebpf4jnsgd1na2vs0mg"},{"bike_id":"49693813-6422-4c0b-883f-2f9444f40ff2","system_id":"levelo_inurba_marseille","lat":43.25492,"lon":5.37647,"is_reserved":false,"is_disabled":false,"rental_uris":{"android":"levelo://app?vid=49693813-6422-4c0b-883f-2f9444f40ff2","ios":"levelo://app?vid=49693813-6422-4c0b-883f-2f9444f40ff2"},"vehicle_type_id":"4","last_reported":1767879190,"current_range_meters":8400,"station_id":"ce4bhh12rcd13ifvqff0","pricing_plan_id":"cebpf4jnsgd1na2vs0mg"},{"bike_id":"01fa0578-e389-4da5-b9e5-c6c2599c3ede","system_id":"levelo_inurba_marseille","lat":43.26364,"lon":5.41076,"is_reserved":false,"is_disabled":false,"rental_uris":{"android":"levelo://app?vid=01fa0578-e389-4da5-b9e5-c6c2599c3ede","ios":"levelo://app?vid=01fa0578-e389-4da5-b9e5-c6c2599c3ede"},"vehicle_type_id":"4","last_reported":1767879190,"current_range_meters":8400,"station_id":"st_d4e5ca6na9uc73bfl5fg","pricing_plan_id":"cebpf4jnsgd1na2vs0mg"},{"bike_id":"8ddd903e-4b58-445b-933d-a20697560094","system_id":"levelo_inurba_marseille","lat":43.33441,"lon":5.40059,"is_reserved":false,"is_disabled":false,"rental_uris":{"android":"levelo://app?vid=8ddd903e-4b58-445b-933d-a20697560094","ios":"levelo://app?vid=8ddd903e-4b58-445b-933d-a20697560094"},"vehicle_type_id":"4","last_reported":1767879190,"current_range_meters":8400,"station_id":"","pricing_plan_id":"cebpf4jnsgd1na2vs0mg"},{"bike_id":"137e8e5b-07cc-44f5-8b08-088e7a0bd4e2","system_id":"levelo_inurba_marseille","lat":43.25929,"lon":5.40919,"is_reserved":false,"is_disabled":false,"rental_uris":{"android":"levelo://app?vid=137e8e5b-07cc-44f5-8b08-088e7a0bd4e2","ios":"levelo://app?vid=137e8e5b-07cc-44f5-8b08-088e7a0bd4e2"},"vehicle_type_id":"4","last_reported":1767879190,"current_range_meters":8400,"station_id":"ce4bhm92rcd13ifvqglg","pricing_plan_id":"cebpf4jnsgd1na2vs0mg"},{"bike_id":"79544bb9-349f-409e-b2bb-723f19511937","system_id":"levelo_inurba_marseille","lat":43.28529,"lon":5.44097,"is_reserved":false,"is_disabled":false,"rental_uris":{"android":"levelo://app?vid=79544bb9-349f-409e-b2bb-723f19511937","ios":"levelo://app?vid=79544bb9-349f-409e-b2bb-723f19511937"},"vehicle_type_id":"4","last_reported":1767879190,"current_range_meters":8400,"station_id":"st_d3j3df2ikq2c7380ej80","pricing_plan_id":"cebpf4jnsgd1na2vs0mg"},{"bike_id":"d4b705c7-f272-4e74-9bb5-d6b4b6d22e0b","system_id":"levelo_inurba_marseille","lat":43.29169,"lon":5.37153,"is_reserved":false,"is_disabled":false,"rental_uris":{"android":"levelo://app?vid=d4b705c7-f272-4e74-9bb5-d6b4b6d22e0b","ios":"levelo://app?vid=d4b705c7-f272-4e74-9bb5-d6b4b6d22e0b"},"vehicle_type_id":"4","last_reported":1767879190,"current_range_meters":8400,"station_id":"ce4bha92rcd13ifvqeh0","pricing_plan_id":"cebpf4jnsgd1na2vs0mg"},{"bike_id":"748e6a5e-97a9-489d-8fdc-20f62045411a","system_id":"levelo_inurba_marseille","lat":43.2891,"lon":5.39676,"is_reserved":false,"is_disabled":false,"rental_uris":{"android":"levelo://app?vid=748e6a5e-97a9-489d-8fdc-20f62045411a","ios":"levelo://app?vid=748e6a5e-97a9-489d-8fdc-20f62045411a"},"vehicle_type_id":"4","last_reported":1767879190,"current_range_meters":8400,"station_id":"ce4bh3h2rcd13ifvqdn0","pricing_plan_id":"cebpf4jnsgd1na2vs0mg"},{"bike_id":"08f98311-1098-47c1-aad4-24d1eee10af1","system_id":"levelo_inurba_marseille","lat":43.32135,"lon":5.3686,"is_reserved":false,"is_disabled":false,"rental_uris":{"android":"levelo://app?vid=08f98311-1098-47c1-aad4-24d1eee10af1","ios":"levelo://app?vid=08f98311-1098-47c1-aad4-24d1eee10af1"},"vehicle_type_id":"4","last_reported":1767879190,"current_range_meters":8400,"station_id":"","pricing_plan_id":"cebpf4jnsgd1na2vs0mg"},{"bike_id":"969dd82b-7ec3-49d9-a194-8ae1c84e7739","system_id":"levelo_inurba_marseille","lat":43.30459,"lon":5.36339,"is_reserved":false,"is_disabled":false,"rental_uris":{"android":"levelo://app?vid=969dd82b-7ec3-49d9-a194-8ae1c84e7739","ios":"levelo://app?vid=969dd82b-7ec3-49d9-a194-8ae1c84e7739"},"vehicle_type_id":"4","last_reported":1767879190,"current_range_meters":8400,"station_id":"ce4bgs12rcd13ifvqcag","pricing_plan_id":"cebpf4jnsgd1na2vs0mg"},{"bike_id":"ff6050c1-b018-4b4f-8f2f-311a8d971a27","system_id":"levelo_inurba_marseille","lat":43.29295,"lon":5.37635,"is_reserved":false,"is_disabled":false,"rental_uris":{"android":"levelo://app?vid=ff6050c1-b018-4b4f-8f2f-311a8d971a27","ios":"levelo://app?vid=ff6050c1-b018-4b4f-8f2f-311a8d971a27"},"vehicle_type_id":"4","last_reported":1767879190,"current_range_meters":8400,"station_id":"ce4bgi12rcd13ifvqb80","pricing_plan_id":"cebpf4jnsgd1na2vs0mg"},{"bike_id":"ae4ea6af-ac8e-4f9d-acb8-d08926e47bb1","system_id":"levelo_inurba_marseille","lat":43.33081,"lon":5.37919,"is_reserved":false,"is_disabled":false,"rental_uris":{"android":"levelo://app?vid=ae4ea6af-ac8e-4f9d-acb8-d08926e47bb1","ios":"levelo://app?vid=ae4ea6af-ac8e-4f9d-acb8-d08926e47bb1"},"vehicle_type_id":"4","last_reported":1767879190,"current_range_meters":8800,"station_id":"st_d46cu089ee8s73dldbu0","pricing_plan_id":"cebpf4jnsgd1na2vs0mg"},{"bike_id":"4fc027f3-6d21-4416-b1aa-984a0cb31570","system_id":"levelo_inurba_marseille","lat":43.29823,"lon":5.40414,"is_reserved":false,"is_disabled":false,"rental_uris":{"android":"levelo://app?vid=4fc027f3-6d21-4416-b1aa-984a0cb31570","ios":"levelo://app?vid=4fc027f3-6d21-4416-b1aa-984a0cb31570"},"vehicle_type_id":"4","last_reported":1767879190,"current_range_meters":8800,"station_id":"ce4bh112rcd13ifvqd90","pricing_plan_id":"cebpf4jnsgd1na2vs0mg"},{"bike_id":"8f870c12-c0c3-4b7a-8d0a-24f628ad1788","system_id":"levelo_inurba_marseille","lat":43.31003,"lon":5.3794,"is_reserved":false,"is_disabled":false,"rental_uris":{"android":"levelo://app?vid=8f870c12-c0c3-4b7a-8d0a-24f628ad1788","ios":"levelo://app?vid=8f870c12-c0c3-4b7a-8d0a-24f628ad1788"},"vehicle_type_id":"4","last_reported":1767879190,"current_range_meters":8800,"station_id":"","pricing_plan_id":"cebpf4jnsgd1na2vs0mg"},{"bike_id":"7934d010-f2d3-4873-969e-5816454b4a28","system_id":"levelo_inurba_marseille","lat":43.29939,"lon":5.36518,"is_reserved":false,"is_disabled":false,"rental_uris":{"android":"levelo://app?vid=7934d010-f2d3-4873-969e-5816454b4a28","ios":"levelo://app?vid=7934d010-f2d3-4873-969e-5816454b4a28"},"vehicle_type_id":"4","last_reported":1767879190,"current_range_meters":8800,"station_id":"ce4bgm92rcd13ifvqbr0","pricing_plan_id":"cebpf4jnsgd1na2vs0mg"},{"bike_id":"b2a3da8f-bf56-4eb9-9359-d00614059d44","system_id":"levelo_inurba_marseille","lat":43.29069,"lon":5.3811,"is_reserved":false,"is_disabled":false,"rental_uris":{"android":"levelo://app?vid=b2a3da8f-bf56-4eb9-9359-d00614059d44","ios":"levelo://app?vid=b2a3da8f-bf56-4eb9-9359-d00614059d44"},"vehicle_type_id":"4","last_reported":1767879190,"current_range_meters":8800,"station_id":"ce4bh512rcd13ifvqe2g","pricing_plan_id":"cebpf4jnsgd1na2vs0mg"},{"bike_id":"e98dc820-6aac-4f48-9094-e49c757a1537","system_id":"levelo_inurba_marseille","lat":43.30511,"lon":5.36541,"is_reserved":false,"is_disabled":false,"rental_uris":{"android":"levelo://app?vid=e98dc820-6aac-4f48-9094-e49c757a1537","ios":"levelo://app?vid=e98dc820-6aac-4f48-9094-e49c757a1537"},"vehicle_type_id":"4","last_reported":1767879190,"current_range_meters":8800,"station_id":"","pricing_plan_id":"cebpf4jnsgd1na2vs0mg"},{"bike_id":"eaffd57a-3197-447c-8eb4-bde90670f73c","system_id":"levelo_inurba_marseille","lat":43.24067,"lon":5.37763,"is_reserved":false,"is_disabled":false,"rental_uris":{"android":"levelo://app?vid=eaffd57a-3197-447c-8eb4-bde90670f73c","ios":"levelo://app?vid=eaffd57a-3197-447c-8eb4-bde90670f73c"},"vehicle_type_id":"4","last_reported":1767879190,"current_range_meters":8800,"station_id":"ce4bhnp2rcd13ifvqgvg","pricing_plan_id":"cebpf4jnsgd1na2vs0mg"},{"bike_id":"e41d8bea-ffd2-440d-b446-b472b1d04e4d","system_id":"levelo_inurba_marseille","lat":43.239606,"lon":5.36623,"is_reserved":false,"is_disabled":false,"rental_uris":{"android":"levelo://app?vid=e41d8bea-ffd2-440d-b446-b472b1d04e4d","ios":"levelo://app?vid=e41d8bea-ffd2-440d-b446-b472b1d04e4d"},"vehicle_type_id":"4","last_reported":1767879190,"current_range_meters":8800,"station_id":"ce4bhi12rcd13ifvqfp0","pricing_plan_id":"cebpf4jnsgd1na2vs0mg"},{"bike_id":"08763cfa-f8a3-4140-bbe3-bb5180406344","system_id":"levelo_inurba_marseille","lat":43.232,"lon":5.35574,"is_reserved":false,"is_disabled":false,"rental_uris":{"android":"levelo://app?vid=08763cfa-f8a3-4140-bbe3-bb5180406344","ios":"levelo://app?vid=08763cfa-f8a3-4140-bbe3-bb5180406344"},"vehicle_type_id":"4","last_reported":1767879190,"current_range_meters":8800,"station_id":"ce4bhu92rcd13ifvqi70","pricing_plan_id":"cebpf4jnsgd1na2vs0mg"},{"bike_id":"deebbad2-3d9f-4a3a-9f32-10dfba089115","system_id":"levelo_inurba_marseille","lat":43.30153,"lon":5.38079,"is_reserved":false,"is_disabled":false,"rental_uris":{"android":"levelo://app?vid=deebbad2-3d9f-4a3a-9f32-10dfba089115","ios":"levelo://app?vid=deebbad2-3d9f-4a3a-9f32-10dfba089115"},"vehicle_type_id":"4","last_reported":1767879190,"current_range_meters":8800,"station_id":"ce4bgjp2rcd13ifvqbh0","pricing_plan_id":"cebpf4jnsgd1na2vs0mg"},{"bike_id":"ce3cc1d9-9ec8-4064-92e2-4915f0b7e6ce","system_id":"levelo_inurba_marseille","lat":43.24621,"lon":5.43165,"is_reserved":false,"is_disabled":false,"rental_uris":{"android":"levelo://app?vid=ce3cc1d9-9ec8-4064-92e2-4915f0b7e6ce","ios":"levelo://app?vid=ce3cc1d9-9ec8-4064-92e2-4915f0b7e6ce"},"vehicle_type_id":"4","last_reported":1767879190,"current_range_meters":8800,"station_id":"st_d2m6c4gdas8pm72e190g","pricing_plan_id":"cebpf4jnsgd1na2vs0mg"},{"bike_id":"a7bec8e9-4105-440a-8946-331bd74a2d1f","system_id":"levelo_inurba_marseille","lat":43.27317,"lon":5.39073,"is_reserved":false,"is_disabled":false,"rental_uris":{"android":"levelo://app?vid=a7bec8e9-4105-440a-8946-331bd74a2d1f","ios":"levelo://app?vid=a7bec8e9-4105-440a-8946-331bd74a2d1f"},"vehicle_type_id":"4","last_reported":1767879190,"current_range_meters":8800,"station_id":"ce4bhgp2rcd13ifvqfe0","pricing_plan_id":"cebpf4jnsgd1na2vs0mg"},{"bike_id":"6e25dc48-4fec-4f46-b8f0-01cdde0a6af0","system_id":"levelo_inurba_marseille","lat":43.30197,"lon":5.36622,"is_reserved":false,"is_disabled":false,"rental_uris":{"android":"levelo://app?vid=6e25dc48-4fec-4f46-b8f0-01cdde0a6af0","ios":"levelo://app?vid=6e25dc48-4fec-4f46-b8f0-01cdde0a6af0"},"vehicle_type_id":"4","last_reported":1767879190,"current_range_meters":8800,"station_id":"ce4bgrh2rcd13ifvqc8g","pricing_plan_id":"cebpf4jnsgd1na2vs0mg"},{"bike_id":"31447a0e-5f20-40ed-81c7-81b3e7eb8db6","system_id":"levelo_inurba_marseille","lat":43.31371,"lon":5.38579,"is_reserved":false,"is_disabled":false,"rental_uris":{"android":"levelo://app?vid=31447a0e-5f20-40ed-81c7-81b3e7eb8db6","ios":"levelo://app?vid=31447a0e-5f20-40ed-81c7-81b3e7eb8db6"},"vehicle_type_id":"4","last_reported":1767879190,"current_range_meters":8800,"station_id":"","pricing_plan_id":"cebpf4jnsgd1na2vs0mg"},{"bike_id":"51273839-cbf2-4f06-a0ae-7cd213f5b6f3","system_id":"levelo_inurba_marseille","lat":43.32113,"lon":5.36787,"is_reserved":false,"is_disabled":false,"rental_uris":{"android":"levelo://app?vid=51273839-cbf2-4f06-a0ae-7cd213f5b6f3","ios":"levelo://app?vid=51273839-cbf2-4f06-a0ae-7cd213f5b6f3"},"vehicle_type_id":"4","last_reported":1767879190,"current_range_meters":8800,"station_id":"ce4bhrh2rcd13ifvqhug","pricing_plan_id":"cebpf4jnsgd1na2vs0mg"},{"bike_id":"634a43ea-af4c-4fa0-bf1e-b4855aa287d3","system_id":"levelo_inurba_marseille","lat":43.26784,"lon":5.39415,"is_reserved":false,"is_disabled":false,"rental_uris":{"android":"levelo://app?vid=634a43ea-af4c-4fa0-bf1e-b4855aa287d3","ios":"levelo://app?vid=634a43ea-af4c-4fa0-bf1e-b4855aa287d3"},"vehicle_type_id":"4","last_reported":1767879190,"current_range_meters":8800,"station_id":"ce4bhh12rcd13ifvqfg0","pricing_plan_id":"cebpf4jnsgd1na2vs0mg"},{"bike_id":"755fddff-196e-4df8-9ed5-b269f8727526","system_id":"levelo_inurba_marseille","lat":43.27206,"lon":5.41,"is_reserved":false,"is_disabled":false,"rental_uris":{"android":"levelo://app?vid=755fddff-196e-4df8-9ed5-b269f8727526","ios":"levelo://app?vid=755fddff-196e-4df8-9ed5-b269f8727526"},"vehicle_type_id":"4","last_reported":1767879190,"current_range_meters":8800,"station_id":"ce4bhl12rcd13ifvqgf0","pricing_plan_id":"cebpf4jnsgd1na2vs0mg"},{"bike_id":"73f996f8-b1a7-469b-bbf1-d90a74e20589","system_id":"levelo_inurba_marseille","lat":43.23182,"lon":5.39982,"is_reserved":false,"is_disabled":false,"rental_uris":{"android":"levelo://app?vid=73f996f8-b1a7-469b-bbf1-d90a74e20589","ios":"levelo://app?vid=73f996f8-b1a7-469b-bbf1-d90a74e20589"},"vehicle_type_id":"4","last_reported":1767879190,"current_range_meters":8800,"station_id":"ce4bhn12rcd13ifvqgqg","pricing_plan_id":"cebpf4jnsgd1na2vs0mg"},{"bike_id":"df8ff779-90c8-4b65-a5d0-99687c060dae","system_id":"levelo_inurba_marseille","lat":43.3233,"lon":5.367,"is_reserved":false,"is_disabled":false,"rental_uris":{"android":"levelo://app?vid=df8ff779-90c8-4b65-a5d0-99687c060dae","ios":"levelo://app?vid=df8ff779-90c8-4b65-a5d0-99687c060dae"},"vehicle_type_id":"4","last_reported":1767879190,"current_range_meters":8800,"station_id":"ce4bhsh2rcd13ifvqi2g","pricing_plan_id":"cebpf4jnsgd1na2vs0mg"},{"bike_id":"83d5f245-fb0f-4ec6-9063-867f9d0f37e7","system_id":"levelo_inurba_marseille","lat":43.23165,"lon":5.43712,"is_reserved":false,"is_disabled":false,"rental_uris":{"android":"levelo://app?vid=83d5f245-fb0f-4ec6-9063-867f9d0f37e7","ios":"levelo://app?vid=83d5f245-fb0f-4ec6-9063-867f9d0f37e7"},"vehicle_type_id":"4","last_reported":1767879190,"current_range_meters":8800,"station_id":"ce4bhmp2rcd13ifvqgog","pricing_plan_id":"cebpf4jnsgd1na2vs0mg"},{"bike_id":"7a631b64-15fe-4f3c-8962-0c8af4bff951","system_id":"levelo_inurba_marseille","lat":43.29756,"lon":5.37659,"is_reserved":false,"is_disabled":false,"rental_uris":{"android":"levelo://app?vid=7a631b64-15fe-4f3c-8962-0c8af4bff951","ios":"levelo://app?vid=7a631b64-15fe-4f3c-8962-0c8af4bff951"},"vehicle_type_id":"4","last_reported":1767879190,"current_range_meters":8800,"station_id":"","pricing_plan_id":"cebpf4jnsgd1na2vs0mg"},{"bike_id":"36c3097c-2122-4b98-a149-c16b13fb82b9","system_id":"levelo_inurba_marseille","lat":43.26082,"lon":5.39393,"is_reserved":false,"is_disabled":false,"rental_uris":{"android":"levelo://app?vid=36c3097c-2122-4b98-a149-c16b13fb82b9","ios":"levelo://app?vid=36c3097c-2122-4b98-a149-c16b13fb82b9"},"vehicle_type_id":"4","last_reported":1767879190,"current_range_meters":8800,"station_id":"ce4bhh92rcd13ifvqfj0","pricing_plan_id":"cebpf4jnsgd1na2vs0mg"},{"bike_id":"2cd86e88-efa3-4ab1-bb9b-07b5f1f7ed16","system_id":"levelo_inurba_marseille","lat":43.30218,"lon":5.394805,"is_reserved":false,"is_disabled":false,"rental_uris":{"android":"levelo://app?vid=2cd86e88-efa3-4ab1-bb9b-07b5f1f7ed16","ios":"levelo://app?vid=2cd86e88-efa3-4ab1-bb9b-07b5f1f7ed16"},"vehicle_type_id":"4","last_reported":1767879190,"current_range_meters":8800,"station_id":"ce4bh0p2rcd13ifvqd70","pricing_plan_id":"cebpf4jnsgd1na2vs0mg"},{"bike_id":"bd6c9987-bcf7-478a-bd36-5b8fa7291fe9","system_id":"levelo_inurba_marseille","lat":43.29539,"lon":5.37485,"is_reserved":false,"is_disabled":false,"rental_uris":{"android":"levelo://app?vid=bd6c9987-bcf7-478a-bd36-5b8fa7291fe9","ios":"levelo://app?vid=bd6c9987-bcf7-478a-bd36-5b8fa7291fe9"},"vehicle_type_id":"4","last_reported":1767879190,"current_range_meters":8800,"station_id":"ce4bgkp2rcd13ifvqbmg","pricing_plan_id":"cebpf4jnsgd1na2vs0mg"},{"bike_id":"f6e97619-c3b0-42b6-b03b-7ec6023f5aca","system_id":"levelo_inurba_marseille","lat":43.28428,"lon":5.34993,"is_reserved":false,"is_disabled":false,"rental_uris":{"android":"levelo://app?vid=f6e97619-c3b0-42b6-b03b-7ec6023f5aca","ios":"levelo://app?vid=f6e97619-c3b0-42b6-b03b-7ec6023f5aca"},"vehicle_type_id":"4","last_reported":1767879190,"current_range_meters":8800,"station_id":"ce4bhbh2rcd13ifvqepg","pricing_plan_id":"cebpf4jnsgd1na2vs0mg"},{"bike_id":"a05e4379-7c2e-4edc-831a-4c3fbe80a60c","system_id":"levelo_inurba_marseille","lat":43.30125,"lon":5.43117,"is_reserved":false,"is_disabled":false,"rental_uris":{"android":"levelo://app?vid=a05e4379-7c2e-4edc-831a-4c3fbe80a60c","ios":"levelo://app?vid=a05e4379-7c2e-4edc-831a-4c3fbe80a60c"},"vehicle_type_id":"4","last_reported":1767879190,"current_range_meters":9200,"station_id":"st_d3js3co5814s73ftftug","pricing_plan_id":"cebpf4jnsgd1na2vs0mg"},{"bike_id":"0bec0663-b486-4c9d-acb8-bb51adf3fe8c","system_id":"levelo_inurba_marseille","lat":43.267718,"lon":5.394253,"is_reserved":false,"is_disabled":false,"rental_uris":{"android":"levelo://app?vid=0bec0663-b486-4c9d-acb8-bb51adf3fe8c","ios":"levelo://app?vid=0bec0663-b486-4c9d-acb8-bb51adf3fe8c"},"vehicle_type_id":"4","last_reported":1767879190,"current_range_meters":9200,"station_id":"ce4bhh12rcd13ifvqfg0","pricing_plan_id":"cebpf4jnsgd1na2vs0mg"},{"bike_id":"75f78644-8c40-4fbe-ab0f-aa79aaadb7e6","system_id":"levelo_inurba_marseille","lat":43.22555,"lon":5.41632,"is_reserved":false,"is_disabled":false,"rental_uris":{"android":"levelo://app?vid=75f78644-8c40-4fbe-ab0f-aa79aaadb7e6","ios":"levelo://app?vid=75f78644-8c40-4fbe-ab0f-aa79aaadb7e6"},"vehicle_type_id":"4","last_reported":1767879190,"current_range_meters":9200,"station_id":"st_d2o4gvlbi1j2169b742g","pricing_plan_id":"cebpf4jnsgd1na2vs0mg"},{"bike_id":"528852f0-b3e1-4361-91fd-d35d5de704d7","system_id":"levelo_inurba_marseille","lat":43.25575,"lon":5.37665,"is_reserved":false,"is_disabled":false,"rental_uris":{"android":"levelo://app?vid=528852f0-b3e1-4361-91fd-d35d5de704d7","ios":"levelo://app?vid=528852f0-b3e1-4361-91fd-d35d5de704d7"},"vehicle_type_id":"4","last_reported":1767879190,"current_range_meters":9200,"station_id":"","pricing_plan_id":"cebpf4jnsgd1na2vs0mg"},{"bike_id":"c674c454-2af5-49f7-821c-c3b83a90b616","system_id":"levelo_inurba_marseille","lat":43.311647,"lon":5.40717,"is_reserved":false,"is_disabled":false,"rental_uris":{"android":"levelo://app?vid=c674c454-2af5-49f7-821c-c3b83a90b616","ios":"levelo://app?vid=c674c454-2af5-49f7-821c-c3b83a90b616"},"vehicle_type_id":"4","last_reported":1767879190,"current_range_meters":9200,"station_id":"","pricing_plan_id":"cebpf4jnsgd1na2vs0mg"},{"bike_id":"18afa7e5-a060-43b9-bd3e-ab224bbb7669","system_id":"levelo_inurba_marseille","lat":43.28867,"lon":5.42526,"is_reserved":false,"is_disabled":false,"rental_uris":{"android":"levelo://app?vid=18afa7e5-a060-43b9-bd3e-ab224bbb7669","ios":"levelo://app?vid=18afa7e5-a060-43b9-bd3e-ab224bbb7669"},"vehicle_type_id":"4","last_reported":1767879190,"current_range_meters":9200,"station_id":"st_d3b462108ojc7389ooeg","pricing_plan_id":"cebpf4jnsgd1na2vs0mg"},{"bike_id":"528bf2be-bd1b-4559-86fa-2049d5079bc9","system_id":"levelo_inurba_marseille","lat":43.30168,"lon":5.3741,"is_reserved":false,"is_disabled":false,"rental_uris":{"android":"levelo://app?vid=528bf2be-bd1b-4559-86fa-2049d5079bc9","ios":"levelo://app?vid=528bf2be-bd1b-4559-86fa-2049d5079bc9"},"vehicle_type_id":"4","last_reported":1767879190,"current_range_meters":9200,"station_id":"ce4bgs92rcd13ifvqcc0","pricing_plan_id":"cebpf4jnsgd1na2vs0mg"},{"bike_id":"9998da3e-2cb9-4177-a40d-a24c49c6d9c9","system_id":"levelo_inurba_marseille","lat":43.31036,"lon":5.37176,"is_reserved":false,"is_disabled":false,"rental_uris":{"android":"levelo://app?vid=9998da3e-2cb9-4177-a40d-a24c49c6d9c9","ios":"levelo://app?vid=9998da3e-2cb9-4177-a40d-a24c49c6d9c9"},"vehicle_type_id":"4","last_reported":1767879190,"current_range_meters":9200,"station_id":"st_d4kl2rp97mjs73e7tdfg","pricing_plan_id":"cebpf4jnsgd1na2vs0mg"},{"bike_id":"617ca6f2-1481-4c5f-a165-87db9947444a","system_id":"levelo_inurba_marseille","lat":43.28482,"lon":5.48389,"is_reserved":false,"is_disabled":false,"rental_uris":{"android":"levelo://app?vid=617ca6f2-1481-4c5f-a165-87db9947444a","ios":"levelo://app?vid=617ca6f2-1481-4c5f-a165-87db9947444a"},"vehicle_type_id":"4","last_reported":1767879190,"current_range_meters":9200,"station_id":"st_d3svhcjqgbts73a3dn0g","pricing_plan_id":"cebpf4jnsgd1na2vs0mg"},{"bike_id":"84be322d-3f5a-42b3-b4ff-9332fdae0ce8","system_id":"levelo_inurba_marseille","lat":43.3316,"lon":5.37706,"is_reserved":false,"is_disabled":false,"rental_uris":{"android":"levelo://app?vid=84be322d-3f5a-42b3-b4ff-9332fdae0ce8","ios":"levelo://app?vid=84be322d-3f5a-42b3-b4ff-9332fdae0ce8"},"vehicle_type_id":"4","last_reported":1767879190,"current_range_meters":9200,"station_id":"st_d46cu089ee8s73dldbu0","pricing_plan_id":"cebpf4jnsgd1na2vs0mg"},{"bike_id":"945704af-5f4f-4ea9-b631-8f726d1fc948","system_id":"levelo_inurba_marseille","lat":43.2378,"lon":5.36634,"is_reserved":false,"is_disabled":false,"rental_uris":{"android":"levelo://app?vid=945704af-5f4f-4ea9-b631-8f726d1fc948","ios":"levelo://app?vid=945704af-5f4f-4ea9-b631-8f726d1fc948"},"vehicle_type_id":"4","last_reported":1767879190,"current_range_meters":9200,"station_id":"st_d3nk18o9ro0c73en2l3g","pricing_plan_id":"cebpf4jnsgd1na2vs0mg"},{"bike_id":"02fbedcf-0ea4-4d04-a895-b6fc85e856b0","system_id":"levelo_inurba_marseille","lat":43.23964,"lon":5.366353,"is_reserved":false,"is_disabled":false,"rental_uris":{"android":"levelo://app?vid=02fbedcf-0ea4-4d04-a895-b6fc85e856b0","ios":"levelo://app?vid=02fbedcf-0ea4-4d04-a895-b6fc85e856b0"},"vehicle_type_id":"4","last_reported":1767879190,"current_range_meters":9200,"station_id":"ce4bhi12rcd13ifvqfp0","pricing_plan_id":"cebpf4jnsgd1na2vs0mg"},{"bike_id":"1ec94ba1-41d1-4288-80e5-6a131d1cb21d","system_id":"levelo_inurba_marseille","lat":43.25328,"lon":5.42164,"is_reserved":false,"is_disabled":false,"rental_uris":{"android":"levelo://app?vid=1ec94ba1-41d1-4288-80e5-6a131d1cb21d","ios":"levelo://app?vid=1ec94ba1-41d1-4288-80e5-6a131d1cb21d"},"vehicle_type_id":"4","last_reported":1767879190,"current_range_meters":9200,"station_id":"st_d2m65c5bi1j21697t3ng","pricing_plan_id":"cebpf4jnsgd1na2vs0mg"},{"bike_id":"b09fbb82-87d8-45bc-ac2a-88c5b2e8559a","system_id":"levelo_inurba_marseille","lat":43.28499,"lon":5.38421,"is_reserved":false,"is_disabled":false,"rental_uris":{"android":"levelo://app?vid=b09fbb82-87d8-45bc-ac2a-88c5b2e8559a","ios":"levelo://app?vid=b09fbb82-87d8-45bc-ac2a-88c5b2e8559a"},"vehicle_type_id":"4","last_reported":1767879190,"current_range_meters":9200,"station_id":"ce4bh512rcd13ifvqe3g","pricing_plan_id":"cebpf4jnsgd1na2vs0mg"},{"bike_id":"8c90c973-d813-4351-b024-6a22ded6d260","system_id":"levelo_inurba_marseille","lat":43.323588,"lon":5.367395,"is_reserved":false,"is_disabled":false,"rental_uris":{"android":"levelo://app?vid=8c90c973-d813-4351-b024-6a22ded6d260","ios":"levelo://app?vid=8c90c973-d813-4351-b024-6a22ded6d260"},"vehicle_type_id":"4","last_reported":1767879190,"current_range_meters":9200,"station_id":"ce4bhsh2rcd13ifvqi2g","pricing_plan_id":"cebpf4jnsgd1na2vs0mg"},{"bike_id":"eaa3ec55-50cc-48b3-879b-aff258e91fe9","system_id":"levelo_inurba_marseille","lat":43.2593,"lon":5.40913,"is_reserved":false,"is_disabled":false,"rental_uris":{"android":"levelo://app?vid=eaa3ec55-50cc-48b3-879b-aff258e91fe9","ios":"levelo://app?vid=eaa3ec55-50cc-48b3-879b-aff258e91fe9"},"vehicle_type_id":"4","last_reported":1767879190,"current_range_meters":9200,"station_id":"ce4bhm92rcd13ifvqglg","pricing_plan_id":"cebpf4jnsgd1na2vs0mg"},{"bike_id":"6a11b4ad-1d70-4e18-8100-809af5124d27","system_id":"levelo_inurba_marseille","lat":43.24068,"lon":5.37747,"is_reserved":false,"is_disabled":false,"rental_uris":{"android":"levelo://app?vid=6a11b4ad-1d70-4e18-8100-809af5124d27","ios":"levelo://app?vid=6a11b4ad-1d70-4e18-8100-809af5124d27"},"vehicle_type_id":"4","last_reported":1767879190,"current_range_meters":9200,"station_id":"ce4bhnp2rcd13ifvqgvg","pricing_plan_id":"cebpf4jnsgd1na2vs0mg"},{"bike_id":"a3e91a5a-7662-4e52-ab37-6e70e798d805","system_id":"levelo_inurba_marseille","lat":43.28601,"lon":5.39916,"is_reserved":false,"is_disabled":false,"rental_uris":{"android":"levelo://app?vid=a3e91a5a-7662-4e52-ab37-6e70e798d805","ios":"levelo://app?vid=a3e91a5a-7662-4e52-ab37-6e70e798d805"},"vehicle_type_id":"4","last_reported":1767879190,"current_range_meters":9200,"station_id":"st_d4a7ka997mjs738ck50g","pricing_plan_id":"cebpf4jnsgd1na2vs0mg"},{"bike_id":"1cc12d4b-b70a-4230-b219-03165b2726da","system_id":"levelo_inurba_marseille","lat":43.2952,"lon":5.37492,"is_reserved":false,"is_disabled":false,"rental_uris":{"android":"levelo://app?vid=1cc12d4b-b70a-4230-b219-03165b2726da","ios":"levelo://app?vid=1cc12d4b-b70a-4230-b219-03165b2726da"},"vehicle_type_id":"4","last_reported":1767879190,"current_range_meters":9200,"station_id":"ce4bgkp2rcd13ifvqbmg","pricing_plan_id":"cebpf4jnsgd1na2vs0mg"},{"bike_id":"88ad2eff-3086-4a93-ba03-b1d3df4be0c3","system_id":"levelo_inurba_marseille","lat":43.22563,"lon":5.41633,"is_reserved":false,"is_disabled":false,"rental_uris":{"android":"levelo://app?vid=88ad2eff-3086-4a93-ba03-b1d3df4be0c3","ios":"levelo://app?vid=88ad2eff-3086-4a93-ba03-b1d3df4be0c3"},"vehicle_type_id":"4","last_reported":1767879190,"current_range_meters":9200,"station_id":"st_d2o4gvlbi1j2169b742g","pricing_plan_id":"cebpf4jnsgd1na2vs0mg"},{"bike_id":"9a92b24d-1459-4de5-9c15-79ca944140cd","system_id":"levelo_inurba_marseille","lat":43.28213,"lon":5.39046,"is_reserved":false,"is_disabled":false,"rental_uris":{"android":"levelo://app?vid=9a92b24d-1459-4de5-9c15-79ca944140cd","ios":"levelo://app?vid=9a92b24d-1459-4de5-9c15-79ca944140cd"},"vehicle_type_id":"4","last_reported":1767879190,"current_range_meters":9200,"station_id":"ce4bhn92rcd13ifvqgsg","pricing_plan_id":"cebpf4jnsgd1na2vs0mg"},{"bike_id":"7f8ca498-975c-4992-a577-c40689ae1abb","system_id":"levelo_inurba_marseille","lat":43.28556,"lon":5.37928,"is_reserved":false,"is_disabled":false,"rental_uris":{"android":"levelo://app?vid=7f8ca498-975c-4992-a577-c40689ae1abb","ios":"levelo://app?vid=7f8ca498-975c-4992-a577-c40689ae1abb"},"vehicle_type_id":"4","last_reported":1767879190,"current_range_meters":9200,"station_id":"","pricing_plan_id":"cebpf4jnsgd1na2vs0mg"},{"bike_id":"98437e2e-6787-4de3-9d87-777e7f0115f1","system_id":"levelo_inurba_marseille","lat":43.29798,"lon":5.38091,"is_reserved":false,"is_disabled":false,"rental_uris":{"android":"levelo://app?vid=98437e2e-6787-4de3-9d87-777e7f0115f1","ios":"levelo://app?vid=98437e2e-6787-4de3-9d87-777e7f0115f1"},"vehicle_type_id":"4","last_reported":1767879190,"current_range_meters":9600,"station_id":"ce4bgip2rcd13ifvqbb0","pricing_plan_id":"cebpf4jnsgd1na2vs0mg"},{"bike_id":"38a434cd-ec16-49a5-bbd4-0d1e5ec8ec2c","system_id":"levelo_inurba_marseille","lat":43.29579,"lon":5.37504,"is_reserved":false,"is_disabled":false,"rental_uris":{"android":"levelo://app?vid=38a434cd-ec16-49a5-bbd4-0d1e5ec8ec2c","ios":"levelo://app?vid=38a434cd-ec16-49a5-bbd4-0d1e5ec8ec2c"},"vehicle_type_id":"4","last_reported":1767879190,"current_range_meters":9600,"station_id":"ce4bgh92rcd13ifvqb50","pricing_plan_id":"cebpf4jnsgd1na2vs0mg"},