{"last_updated":1736716066,"ttl":60,"version":"2.2","data":{"bikes":[{"bike_id":"a0f446b3-bf7d-4d28-bb5f-201e4ab2c3ed","system_id":"levelo_inurba_marseille","lat":43.31163,"lon":5.38707,"is_reserved":false,"is_disabled":false,"rental_uris":{"android":"levelo://app?vid=a0f446b3-bf7d-4d28-bb5f-201e4ab2c3ed","ios":"levelo://app?vid=a0f446b3-bf7d-4d28-bb5f-201e4ab2c3ed"},"vehicle_type_id":"4","last_reported":1736716067,"current_range_meters":35200,"station_id":"ce4bgv12rcd13ifvqcp0","pricing_plan_id":"cebpf4jnsgd1na2vs0mg"},{"bike_id":"bc37dd74-c92d-4c9e-aa7f-5c12df367800","system_id":"levelo_inurba_marseille","lat":43.28452,"lon":5.39166,"is_reserved":false,"is_disabled":false,"rental_uris":{"android":"levelo://app?vid=bc37dd74-c92d-4c9e-aa7f-5c12df367800","ios":"levelo://app?vid=bc37dd74-c92d-4c9e-aa7f-5c12df367800"},"vehicle_type_id":"4","last_reported":1736716067,"current_range_meters":9600,"station_id":"ce4bhoh2rcd13ifvqh5g","pricing_plan_id":"cebpf4jnsgd1na2vs0mg"},{"bike_id":"cb366934-7053-4fcc-afbf-a36479197bd4","system_id":"levelo_inurba_marseille","lat":43.28269,"lon":5.35075,"is_reserved":false,"is_disabled":false,"rental_uris":{"android":"levelo://app?vid=cb366934-7053-4fcc-afbf-a36479197bd4","ios":"levelo://app?vid=cb366934-7053-4fcc-afbf-a36479197bd4"},"vehicle_type_id":"4","last_reported":1736716067,"current_range_meters":38400,"station_id":"ce4bhbp2rcd13ifvqerg","pricing_plan_id":"cebpf4jnsgd1na2vs0mg"},{"bike_id":"bf582a73-1ecf-4d59-8037-e49aa4c8ed83","system_id":"levelo_inurba_marseille","lat":43.25101,"lon":5.40291,"is_reserved":false,"is_disabled":true,"rental_uris":{"android":"levelo://app?vid=bf582a73-1ecf-4d59-8037-e49aa4c8ed83","ios":"levelo://app?vid=bf582a73-1ecf-4d59-8037-e49aa4c8ed83"},"vehicle_type_id":"4","last_reported":1736716067,"current_range_meters":1200,"station_id":"ce4bhlh2rcd13ifvqgig","pricing_plan_id":"cebpf4jnsgd1na2vs0mg"},{"bike_id":"3edcf1f9-6234-45fe-a176-b590e8580ebc","system_id":"levelo_inurba_marseille","lat":43.32286,"lon":5.38273,"is_reserved":false,"is_disabled":false,"rental_uris":{"android":"levelo://app?vid=3edcf1f9-6234-45fe-a176-b590e8580ebc","ios":"levelo://app?vid=3edcf1f9-6234-45fe-a176-b590e8580ebc"},"vehicle_type_id":"4","last_reported":1736716067,"current_range_meters":28000,"station_id":"ce4bhr12rcd13ifvqhqg","pricing_plan_id":"cebpf4jnsgd1na2vs0mg"},{"bike_id":"4e48955e-2d7c-4fc4-85f1-de44a9c42e69","system_id":"levelo_inurba_marseille","lat":43.2811,"lon":5.37815,"is_reserved":false,"is_disabled":false,"rental_uris":{"android":"levelo://app?vid=4e48955e-2d7c-4fc4-85f1-de44a9c42e69","ios":"levelo://app?vid=4e48955e-2d7c-4fc4-85f1-de44a9c42e69"},"vehicle_type_id":"4","last_reported":1736716067,"current_range_meters":16000,"station_id":"ce4bha12rcd13ifvqee0","pricing_plan_id":"cebpf4jnsgd1na2vs0mg"},{"bike_id":"e8822eea-23ed-4bb6-8613-f2dc5f679272","system_id":"levelo_inurba_marseille","lat":43.30288,"lon":5.39209,"is_reserved":false,"is_disabled":false,"rental_uris":{"android":"levelo://app?vid=e8822eea-23ed-4bb6-8613-f2dc5f679272","ios":"levelo://app?vid=e8822eea-23ed-4bb6-8613-f2dc5f679272"},"vehicle_type_id":"4","last_reported":1736716067,"current_range_meters":11600,"station_id":"ce4bgkh2rcd13ifvqbk0","pricing_plan_id":"cebpf4jnsgd1na2vs0mg"},{"bike_id":"0ea60a2f-cda4-4308-83fa-1ed45460e073","system_id":"levelo_inurba_marseille","lat":43.32289,"lon":5.38272,"is_reserved":false,"is_disabled":false,"rental_uris":{"android":"levelo://app?vid=0ea60a2f-cda4-4308-83fa-1ed45460e073","ios":"levelo://app?vid=0ea60a2f-cda4-4308-83fa-1ed45460e073"},"vehicle_type_id":"4","last_reported":1736716067,"current_range_meters":37600,"station_id":"ce4bhr12rcd13ifvqhqg","pricing_plan_id":"cebpf4jnsgd1na2vs0mg"},{"bike_id":"00c30042-4a66-4113-8d33-7a2597299481","system_id":"levelo_inurba_marseille","lat":43.24391,"lon":5.37043,"is_reserved":false,"is_disabled":false,"rental_uris":{"android":"levelo://app?vid=00c30042-4a66-4113-8d33-7a2597299481","ios":"levelo://app?vid=00c30042-4a66-4113-8d33-7a2597299481"},"vehicle_type_id":"4","last_reported":1736716067,"current_range_meters":38800,"station_id":"ce4bhhh2rcd13ifvqfk0","pricing_plan_id":"cebpf4jnsgd1na2vs0mg"},{"bike_id":"63c0a98d-2054-463f-872b-46950ce187cb","system_id":"levelo_inurba_marseille","lat":43.25109,"lon":5.40318,"is_reserved":false,"is_disabled":false,"rental_uris":{"android":"levelo://app?vid=63c0a98d-2054-463f-872b-46950ce187cb","ios":"levelo://app?vid=63c0a98d-2054-463f-872b-46950ce187cb"},"vehicle_type_id":"4","last_reported":1736716067,"current_range_meters":38400,"station_id":"ce4bhlh2rcd13ifvqgig","pricing_plan_id":"cebpf4jnsgd1na2vs0mg"},{"bike_id":"6ba53d8a-7aed-4e82-aa8e-de48e43b55a1","system_id":"levelo_inurba_marseille","lat":43.26044,"lon":5.37554,"is_reserved":false,"is_disabled":false,"rental_uris":{"android":"levelo://app?vid=6ba53d8a-7aed-4e82-aa8e-de48e43b55a1","ios":"levelo://app?vid=6ba53d8a-7aed-4e82-aa8e-de48e43b55a1"},"vehicle_type_id":"4","last_reported":1736716067,"current_range_meters":31200,"station_id":"ce4bhgh2rcd13ifvqfa0","pricing_plan_id":"cebpf4jnsgd1na2vs0mg"},{"bike_id":"16a0ec8c-48c2-474f-a5c0-6c5a74010f79","system_id":"levelo_inurba_marseille","lat":43.24763,"lon":5.37439,"is_reserved":false,"is_disabled":false,"rental_uris":{"android":"levelo://app?vid=16a0ec8c-48c2-474f-a5c0-6c5a74010f79","ios":"levelo://app?vid=16a0ec8c-48c2-474f-a5c0-6c5a74010f79"},"vehicle_type_id":"4","last_reported":1736716067,"current_range_meters":21600,"station_id":"ce4bhgh2rcd13ifvqfb0","pricing_plan_id":"cebpf4jnsgd1na2vs0mg"},{"bike_id":"a0e18b66-d415-4717-b912-f32572b58b45","system_id":"levelo_inurba_marseille","lat":43.28032,"lon":5.36947,"is_reserved":false,"is_disabled":false,"rental_uris":{"android":"levelo://app?vid=a0e18b66-d415-4717-b912-f32572b58b45","ios":"levelo://app?vid=a0e18b66-d415-4717-b912-f32572b58b45"},"vehicle_type_id":"4","last_reported":1736716067,"current_range_meters":37600,"station_id":"ce4bha12rcd13ifvqef0","pricing_plan_id":"cebpf4jnsgd1na2vs0mg"},{"bike_id":"9e2cb889-1ce6-4b85-9167-634444565dfc","system_id":"levelo_inurba_marseille","lat":43.31275,"lon":5.40156,"is_reserved":false,"is_disabled":false,"rental_uris":{"android":"levelo://app?vid=9e2cb889-1ce6-4b85-9167-634444565dfc","ios":"levelo://app?vid=9e2cb889-1ce6-4b85-9167-634444565dfc"},"vehicle_type_id":"4","last_reported":1736716067,"current_range_meters":38800,"station_id":"ce4bh092rcd13ifvqd30","pricing_plan_id":"cebpf4jnsgd1na2vs0mg"},{"bike_id":"c2904927-ca0d-44f2-8fd7-d3be65556eb6","system_id":"levelo_inurba_marseille","lat":43.26555,"lon":5.37277,"is_reserved":false,"is_disabled":false,"rental_uris":{"android":"levelo://app?vid=c2904927-ca0d-44f2-8fd7-d3be65556eb6","ios":"levelo://app?vid=c2904927-ca0d-44f2-8fd7-d3be65556eb6"},"vehicle_type_id":"4","last_reported":1736716067,"current_range_meters":38800,"station_id":"ce4bhg12rcd13ifvqf70","pricing_plan_id":"cebpf4jnsgd1na2vs0mg"},{"bike_id":"b5d5f5d2-fa16-4719-9107-c34d35246a6a","system_id":"levelo_inurba_marseille","lat":43.29888,"lon":5.39738,"is_reserved":false,"is_disabled":false,"rental_uris":{"android":"levelo://app?vid=b5d5f5d2-fa16-4719-9107-c34d35246a6a","ios":"levelo://app?vid=b5d5f5d2-fa16-4719-9107-c34d35246a6a"},"vehicle_type_id":"4","last_reported":1736716067,"current_range_meters":18000,"station_id":"ce4bh0h2rcd13ifvqd50","pricing_plan_id":"cebpf4jnsgd1na2vs0mg"},{"bike_id":"a2e4a5ef-e31e-4a50-9b9c-add198cc4943","system_id":"levelo_inurba_marseille","lat":43.30121,"lon":5.39854,"is_reserved":false,"is_disabled":false,"rental_uris":{"android":"levelo://app?vid=a2e4a5ef-e31e-4a50-9b9c-add198cc4943","ios":"levelo://app?vid=a2e4a5ef-e31e-4a50-9b9c-add198cc4943"},"vehicle_type_id":"4","last_reported":1736716067,"current_range_meters":32800,"station_id":"ce4bh0h2rcd13ifvqd40","pricing_plan_id":"cebpf4jnsgd1na2vs0mg"},{"bike_id":"a83099fc-4d15-4ab6-bb76-4d1619a94871","system_id":"levelo_inurba_marseille","lat":43.29883,"lon":5.38901,"is_reserved":false,"is_disabled":false,"rental_uris":{"android":"levelo://app?vid=a83099fc-4d15-4ab6-bb76-4d1619a94871","ios":"levelo://app?vid=a83099fc-4d15-4ab6-bb76-4d1619a94871"},"vehicle_type_id":"4","last_reported":1736716067,"current_range_meters":38800,"station_id":"ce4bh392rcd13ifvqdl0","pricing_plan_id":"cebpf4jnsgd1na2vs0mg"},{"bike_id":"b0abe0fe-a759-4e38-8911-6c6ac9828654","system_id":"levelo_inurba_marseille","lat":43.30886,"lon":5.37191,"is_reserved":false,"is_disabled":false,"rental_uris":{"android":"levelo://app?vid=b0abe0fe-a759-4e38-8911-6c6ac9828654","ios":"levelo://app?vid=b0abe0fe-a759-4e38-8911-6c6ac9828654"},"vehicle_type_id":"4","last_reported":1736716067,"current_range_meters":19200,"station_id":"ce4bguh2rcd13ifvqckg","pricing_plan_id":"cebpf4jnsgd1na2vs0mg"},{"bike_id":"92705c80-6cf5-4aa6-ad20-7bc1e3d1c4f4","system_id":"levelo_inurba_marseille","lat":43.31128,"lon":5.37766,"is_reserved":false,"is_disabled":false,"rental_uris":{"android":"levelo://app?vid=92705c80-6cf5-4aa6-ad20-7bc1e3d1c4f4","ios":"levelo://app?vid=92705c80-6cf5-4aa6-ad20-7bc1e3d1c4f4"},"vehicle_type_id":"4","last_reported":1736716067,"current_range_meters":39200,"station_id":"ce4bgt92rcd13ifvqcg0","pricing_plan_id":"cebpf4jnsgd1na2vs0mg"},{"bike_id":"004c2ac5-7f25-4e48-8a80-9a02537f6ba6","system_id":"levelo_inurba_marseille","lat":43.32109,"lon":5.3679,"is_reserved":false,"is_disabled":false,"rental_uris":{"android":"levelo://app?vid=004c2ac5-7f25-4e48-8a80-9a02537f6ba6","ios":"levelo://app?vid=004c2ac5-7f25-4e48-8a80-9a02537f6ba6"},"vehicle_type_id":"4","last_reported":1736716067,"current_range_meters":24400,"station_id":"ce4bhrh2rcd13ifvqhug","pricing_plan_id":"cebpf4jnsgd1na2vs0mg"},{"bike_id":"6a8dc65c-8c47-4239-8815-8efa2acdc338","system_id":"levelo_inurba_marseille","lat":43.27991,"lon":5.4165,"is_reserved":false,"is_disabled":true,"rental_uris":{"android":"levelo://app?vid=6a8dc65c-8c47-4239-8815-8efa2acdc338","ios":"levelo://app?vid=6a8dc65c-8c47-4239-8815-8efa2acdc338"},"vehicle_type_id":"4","last_reported":1736716067,"current_range_meters":6800,"station_id":"ce4bho12rcd13ifvqh1g","pricing_plan_id":"cebpf4jnsgd1na2vs0mg"},{"bike_id":"14a4de5f-9bd3-47db-a585-25c24971a15e","system_id":"levelo_inurba_marseille","lat":43.29329,"lon":5.39122,"is_reserved":false,"is_disabled":false,"rental_uris":{"android":"levelo://app?vid=14a4de5f-9bd3-47db-a585-25c24971a15e","ios":"levelo://app?vid=14a4de5f-9bd3-47db-a585-25c24971a15e"},"vehicle_type_id":"4","last_reported":1736716067,"current_range_meters":16400,"station_id":"","pricing_plan_id":"cebpf4jnsgd1na2vs0mg"},{"bike_id":"94d00723-79f7-443c-bc62-0c89ddbb1d1c","system_id":"levelo_inurba_marseille","lat":43.28144,"lon":5.42622,"is_reserved":false,"is_disabled":true,"rental_uris":{"android":"levelo://app?vid=94d00723-79f7-443c-bc62-0c89ddbb1d1c","ios":"levelo://app?vid=94d00723-79f7-443c-bc62-0c89ddbb1d1c"},"vehicle_type_id":"4","last_reported":1736716067,"current_range_meters":24400,"station_id":"ce4bhnh2rcd13ifvqgug","pricing_plan_id":"cebpf4jnsgd1na2vs0mg"},{"bike_id":"e8aa01a1-b078-4806-9030-f9edcabec4c1","system_id":"levelo_inurba_marseille","lat":43.29029,"lon":5.386439,"is_reserved":false,"is_disabled":false,"rental_uris":{"android":"levelo://app?vid=e8aa01a1-b078-4806-9030-f9edcabec4c1","ios":"levelo://app?vid=e8aa01a1-b078-4806-9030-f9edcabec4c1"},"vehicle_type_id":"4","last_reported":1736716067,"current_range_meters":16800,"station_id":"ce4bh4p2rcd13ifvqe0g","pricing_plan_id":"cebpf4jnsgd1na2vs0mg"},{"bike_id":"cb757ed5-7db8-4012-bb42-f608fe69c61e","system_id":"levelo_inurba_marseille","lat":43.27062,"lon":5.4228,"is_reserved":false,"is_disabled":false,"rental_uris":{"android":"levelo://app?vid=cb757ed5-7db8-4012-bb42-f608fe69c61e","ios":"levelo://app?vid=cb757ed5-7db8-4012-bb42-f608fe69c61e"},"vehicle_type_id":"4","last_reported":1736716067,"current_range_meters":27200,"station_id":"ce4bhk92rcd13ifvqgb0","pricing_plan_id":"cebpf4jnsgd1na2vs0mg"},{"bike_id":"1d5714a3-926f-469f-ac0b-59445a34b902","system_id":"levelo_inurba_marseille","lat":43.26676,"lon":5.38255,"is_reserved":false,"is_disabled":false,"rental_uris":{"android":"levelo://app?vid=1d5714a3-926f-469f-ac0b-59445a34b902","ios":"levelo://app?vid=1d5714a3-926f-469f-ac0b-59445a34b902"},"vehicle_type_id":"4","last_reported":1736716067,"current_range_meters":38800,"station_id":"ce4bhg92rcd13ifvqf90","pricing_plan_id":"cebpf4jnsgd1na2vs0mg"},{"bike_id":"e35d110b-0ca6-4c99-b711-04ba364d3860","system_id":"levelo_inurba_marseille","lat":43.23201,"lon":5.3554,"is_reserved":false,"is_disabled":false,"rental_uris":{"android":"levelo://app?vid=e35d110b-0ca6-4c99-b711-04ba364d3860","ios":"levelo://app?vid=e35d110b-0ca6-4c99-b711-04ba364d3860"},"vehicle_type_id":"4","last_reported":1736716067,"current_range_meters":38800,"station_id":"ce4bhu92rcd13ifvqi70","pricing_plan_id":"cebpf4jnsgd1na2vs0mg"},{"bike_id":"c1dea8eb-dedb-48c3-82b9-ba4d059a0755","system_id":"levelo_inurba_marseille","lat":43.2655,"lon":5.37287,"is_reserved":false,"is_disabled":true,"rental_uris":{"android":"levelo://app?vid=c1dea8eb-dedb-48c3-82b9-ba4d059a0755","ios":"levelo://app?vid=c1dea8eb-dedb-48c3-82b9-ba4d059a0755"},"vehicle_type_id":"4","last_reported":1736716067,"current_range_meters":38400,"station_id":"ce4bhg12rcd13ifvqf70","pricing_plan_id":"cebpf4jnsgd1na2vs0mg"},{"bike_id":"c0f4cf69-602e-4c19-827d-88c2fa9b89af","system_id":"levelo_inurba_marseille","lat":43.31281,"lon":5.40151,"is_reserved":false,"is_disabled":false,"rental_uris":{"android":"levelo://app?vid=c0f4cf69-602e-4c19-827d-88c2fa9b89af","ios":"levelo://app?vid=c0f4cf69-602e-4c19-827d-88c2fa9b89af"},"vehicle_type_id":"4","last_reported":1736716067,"current_range_meters":22000,"station_id":"ce4bh092rcd13ifvqd30","pricing_plan_id":"cebpf4jnsgd1na2vs0mg"},{"bike_id":"92a16257-c803-43e8-baae-6259f92b5ff5","system_id":"levelo_inurba_marseille","lat":43.29178,"lon":5.35772,"is_reserved":false,"is_disabled":true,"rental_uris":{"android":"levelo://app?vid=92a16257-c803-43e8-baae-6259f92b5ff5","ios":"levelo://app?vid=92a16257-c803-43e8-baae-6259f92b5ff5"},"vehicle_type_id":"4","last_reported":1736716067,"current_range_meters":5600,"station_id":"ce4bhb12rcd13ifvqel0","pricing_plan_id":"cebpf4jnsgd1na2vs0mg"},{"bike_id":"d5cb2050-1585-47e8-bcb5-b5ecbecd7058","system_id":"levelo_inurba_marseille","lat":43.25727,"lon":5.41093,"is_reserved":false,"is_disabled":false,"rental_uris":{"android":"levelo://app?vid=d5cb2050-1585-47e8-bcb5-b5ecbecd7058","ios":"levelo://app?vid=d5cb2050-1585-47e8-bcb5-b5ecbecd7058"},"vehicle_type_id":"4","last_reported":1736716067,"current_range_meters":19600,"station_id":"ce4bhkp2rcd13ifvqgd0","pricing_plan_id":"cebpf4jnsgd1na2vs0mg"},{"bike_id":"b71ea370-fcfa-4bf7-9a7e-62a13e6c22cc","system_id":"levelo_inurba_marseille","lat":43.28454,"lon":5.35888,"is_reserved":false,"is_disabled":false,"rental_uris":{"android":"levelo://app?vid=b71ea370-fcfa-4bf7-9a7e-62a13e6c22cc","ios":"levelo://app?vid=b71ea370-fcfa-4bf7-9a7e-62a13e6c22cc"},"vehicle_type_id":"4","last_reported":1736716067,"current_range_meters":22000,"station_id":"ce4bhah2rcd13ifvqei0","pricing_plan_id":"cebpf4jnsgd1na2vs0mg"},{"bike_id":"321acacf-fe17-4c04-843c-07685acbb4b3","system_id":"levelo_inurba_marseille","lat":43.31286,"lon":5.4016,"is_reserved":false,"is_disabled":false,"rental_uris":{"android":"levelo://app?vid=321acacf-fe17-4c04-843c-07685acbb4b3","ios":"levelo://app?vid=321acacf-fe17-4c04-843c-07685acbb4b3"},"vehicle_type_id":"4","last_reported":1736716067,"current_range_meters":39200,"station_id":"ce4bh092rcd13ifvqd30","pricing_plan_id":"cebpf4jnsgd1na2vs0mg"},{"bike_id":"8314a285-c806-4058-b0b6-aad8af2ea3ad","system_id":"levelo_inurba_marseille","lat":43.28155,"lon":5.42647,"is_reserved":false,"is_disabled":false,"rental_uris":{"android":"levelo://app?vid=8314a285-c806-4058-b0b6-aad8af2ea3ad","ios":"levelo://app?vid=8314a285-c806-4058-b0b6-aad8af2ea3ad"},"vehicle_type_id":"4","last_reported":1736716067,"current_range_meters":6000,"station_id":"ce4bhnh2rcd13ifvqgug","pricing_plan_id":"cebpf4jnsgd1na2vs0mg"},{"bike_id":"4536007d-0cfb-4e9d-a914-9b715b46ce6f","system_id":"levelo_inurba_marseille","lat":43.27322,"lon":5.39102,"is_reserved":false,"is_disabled":true,"rental_uris":{"android":"levelo://app?vid=4536007d-0cfb-4e9d-a914-9b715b46ce6f","ios":"levelo://app?vid=4536007d-0cfb-4e9d-a914-9b715b46ce6f"},"vehicle_type_id":"4","last_reported":1736716067,"current_range_meters":22000,"station_id":"ce4bhgp2rcd13ifvqfe0","pricing_plan_id":"cebpf4jnsgd1na2vs0mg"},{"bike_id":"d9a2338c-fbdf-437e-8e6e-e4b91c7adb96","system_id":"levelo_inurba_marseille","lat":43.28027,"lon":5.36939,"is_reserved":false,"is_disabled":false,"rental_uris":{"android":"levelo://app?vid=d9a2338c-fbdf-437e-8e6e-e4b91c7adb96","ios":"levelo://app?vid=d9a2338c-fbdf-437e-8e6e-e4b91c7adb96"},"vehicle_type_id":"4","last_reported":1736716067,"current_range_meters":39200,"station_id":"ce4bha12rcd13ifvqef0","pricing_plan_id":"cebpf4jnsgd1na2vs0mg"},{"bike_id":"6b750947-fb43-40e2-9931-495446cc2b3f","system_id":"levelo_inurba_marseille","lat":43.22928,"lon":5.35371,"is_reserved":false,"is_disabled":false,"rental_uris":{"android":"levelo://app?vid=6b750947-fb43-40e2-9931-495446cc2b3f","ios":"levelo://app?vid=6b750947-fb43-40e2-9931-495446cc2b3f"},"vehicle_type_id":"4","last_reported":1736716067,"current_range_meters":32000,"station_id":"cpo3532slgdg3j2ikp40","pricing_plan_id":"cebpf4jnsgd1na2vs0mg"},{"bike_id":"c8e997c0-8580-4d0f-8d9f-0766596381e1","system_id":"levelo_inurba_marseille","lat":43.34031,"lon":5.37547,"is_reserved":false,"is_disabled":true,"rental_uris":{"android":"levelo://app?vid=c8e997c0-8580-4d0f-8d9f-0766596381e1","ios":"levelo://app?vid=c8e997c0-8580-4d0f-8d9f-0766596381e1"},"vehicle_type_id":"4","last_reported":1736716067,"current_range_meters":0,"station_id":"","pricing_plan_id":"cebpf4jnsgd1na2vs0mg"},{"bike_id":"9f93caf0-0908-4204-9e48-d71941f61a3a","system_id":"levelo_inurba_marseille","lat":43.28937,"lon":5.36608,"is_reserved":false,"is_disabled":false,"rental_uris":{"android":"levelo://app?vid=9f93caf0-0908-4204-9e48-d71941f61a3a","ios":"levelo://app?vid=9f93caf0-0908-4204-9e48-d71941f61a3a"},"vehicle_type_id":"4","last_reported":1736716067,"current_range_meters":32400,"station_id":"ce4bhap2rcd13ifvqek0","pricing_plan_id":"cebpf4jnsgd1na2vs0mg"},{"bike_id":"ba5df164-d25c-4a1c-8679-1bd1a1db0642","system_id":"levelo_inurba_marseille","lat":43.33723,"lon":5.39184,"is_reserved":false,"is_disabled":false,"rental_uris":{"android":"levelo://app?vid=ba5df164-d25c-4a1c-8679-1bd1a1db0642","ios":"levelo://app?vid=ba5df164-d25c-4a1c-8679-1bd1a1db0642"},"vehicle_type_id":"4","last_reported":1736716067,"current_range_meters":23200,"station_id":"ce4bhr92rcd13ifvqhsg","pricing_plan_id":"cebpf4jnsgd1na2vs0mg"},{"bike_id":"5108b6cf-4ded-4fbc-8c1c-5e566aa11fad","system_id":"levelo_inurba_marseille","lat":43.29885,"lon":5.4364,"is_reserved":false,"is_disabled":false,"rental_uris":{"android":"levelo://app?vid=5108b6cf-4ded-4fbc-8c1c-5e566aa11fad","ios":"levelo://app?vid=5108b6cf-4ded-4fbc-8c1c-5e566aa11fad"},"vehicle_type_id":"4","last_reported":1736716067,"current_range_meters":38400,"station_id":"ce4bhpp2rcd13ifvqhfg","pricing_plan_id":"cebpf4jnsgd1na2vs0mg"},{"bike_id":"e57d17b0-d3d8-41e4-b068-54d2fa99b620","system_id":"levelo_inurba_marseille","lat":43.28361,"lon":5.38618,"is_reserved":false,"is_disabled":false,"rental_uris":{"android":"levelo://app?vid=e57d17b0-d3d8-41e4-b068-54d2fa99b620","ios":"levelo://app?vid=e57d17b0-d3d8-41e4-b068-54d2fa99b620"},"vehicle_type_id":"4","last_reported":1736716067,"current_range_meters":22400,"station_id":"ce4bh492rcd13ifvqdvg","pricing_plan_id":"cebpf4jnsgd1na2vs0mg"},{"bike_id":"335df88b-5f34-4ca9-a903-3ac5b9737f79","system_id":"levelo_inurba_marseille","lat":43.29044,"lon":5.35896,"is_reserved":false,"is_disabled":false,"rental_uris":{"android":"levelo://app?vid=335df88b-5f34-4ca9-a903-3ac5b9737f79","ios":"levelo://app?vid=335df88b-5f34-4ca9-a903-3ac5b9737f79"},"vehicle_type_id":"4","last_reported":1736716067,"current_range_meters":38000,"station_id":"ce4bha92rcd13ifvqeg0","pricing_plan_id":"cebpf4jnsgd1na2vs0mg"},{"bike_id":"057ecb4c-c813-47f4-bd45-228ae869bbbc","system_id":"levelo_inurba_marseille","lat":43.28041,"lon":5.3695,"is_reserved":false,"is_disabled":false,"rental_uris":{"android":"levelo://app?vid=057ecb4c-c813-47f4-bd45-228ae869bbbc","ios":"levelo://app?vid=057ecb4c-c813-47f4-bd45-228ae869bbbc"},"vehicle_type_id":"4","last_reported":1736716067,"current_range_meters":35200,"station_id":"ce4bha12rcd13ifvqef0","pricing_plan_id":"cebpf4jnsgd1na2vs0mg"},{"bike_id":"7dd5dd5e-1d75-4c5b-b5b8-248a34302cca","system_id":"levelo_inurba_marseille","lat":43.304724,"lon":5.378973,"is_reserved":false,"is_disabled":true,"rental_uris":{"android":"levelo://app?vid=7dd5dd5e-1d75-4c5b-b5b8-248a34302cca","ios":"levelo://app?vid=7dd5dd5e-1d75-4c5b-b5b8-248a34302cca"},"vehicle_type_id":"4","last_reported":1736716067,"current_range_meters":28800,"station_id":"ce4bgup2rcd13ifvqcn0","pricing_plan_id":"cebpf4jnsgd1na2vs0mg"},{"bike_id":"d912dc3c-ecc3-4af2-8b7b-cb91a53c7e64","system_id":"levelo_inurba_marseille","lat":43.26028,"lon":5.375447,"is_reserved":false,"is_disabled":false,"rental_uris":{"android":"levelo://app?vid=d912dc3c-ecc3-4af2-8b7b-cb91a53c7e64","ios":"levelo://app?vid=d912dc3c-ecc3-4af2-8b7b-cb91a53c7e64"},"vehicle_type_id":"4","last_reported":1736716067,"current_range_meters":38000,"station_id":"ce4bhgh2rcd13ifvqfa0","pricing_plan_id":"cebpf4jnsgd1na2vs0mg"},{"bike_id":"87ccb34b-daa2-44da-8614-ae9242a2c3e3","system_id":"levelo_inurba_marseille","lat":43.31169,"lon":5.38708,"is_reserved":false,"is_disabled":false,"rental_uris":{"android":"levelo://app?vid=87ccb34b-daa2-44da-8614-ae9242a2c3e3","ios":"levelo://app?vid=87ccb34b-daa2-44da-8614-ae9242a2c3e3"},"vehicle_type_id":"4","last_reported":1736716067,"current_range_meters":28800,"station_id":"ce4bgv12rcd13ifvqcp0","pricing_plan_id":"cebpf4jnsgd1na2vs0mg"},{"bike_id":"d8327471-e10e-4e1d-a46b-c43156fc0620","system_id":"levelo_inurba_marseille","lat":43.26791,"lon":5.39427,"is_reserved":false,"is_disabled":true,"rental_uris":{"android":"levelo://app?vid=d8327471-e10e-4e1d-a46b-c43156fc0620","ios":"levelo://app?vid=d8327471-e10e-4e1d-a46b-c43156fc0620"},"vehicle_type_id":"4","last_reported":1736716067,"current_range_meters":0,"station_id":"ce4bhh12rcd13ifvqfg0","pricing_plan_id":"cebpf4jnsgd1na2vs0mg"},{"bike_id":"e85c2ebe-b11f-4128-a631-201393738b41","system_id":"levelo_inurba_marseille","lat":43.31532,"lon":5.38037,"is_reserved":false,"is_disabled":false,"rental_uris":{"android":"levelo://app?vid=e85c2ebe-b11f-4128-a631-201393738b41","ios":"levelo://app?vid=e85c2ebe-b11f-4128-a631-201393738b41"},"vehicle_type_id":"4","last_reported":1736716067,"current_range_meters":39200,"station_id":"ce4bhsp2rcd13ifvqi50","pricing_plan_id":"cebpf4jnsgd1na2vs0mg"},{"bike_id":"c5ff6db6-8de9-42d1-8f1a-7952d737cffb","system_id":"levelo_inurba_marseille","lat":43.32475,"lon":5.36561,"is_reserved":false,"is_disabled":false,"rental_uris":{"android":"levelo://app?vid=c5ff6db6-8de9-42d1-8f1a-7952d737cffb","ios":"levelo://app?vid=c5ff6db6-8de9-42d1-8f1a-7952d737cffb"},"vehicle_type_id":"4","last_reported":1736716067,"current_range_meters":35600,"station_id":"ce4bhs12rcd13ifvqhvg","pricing_plan_id":"cebpf4jnsgd1na2vs0mg"},{"bike_id":"7d959c37-4d60-4094-901d-194afd224ca0","system_id":"levelo_inurba_marseille","lat":43.28363,"lon":5.38623,"is_reserved":false,"is_disabled":true,"rental_uris":{"android":"levelo://app?vid=7d959c37-4d60-4094-901d-194afd224ca0","ios":"levelo://app?vid=7d959c37-4d60-4094-901d-194afd224ca0"},"vehicle_type_id":"4","last_reported":1736716067,"current_range_meters":9200,"station_id":"ce4bh492rcd13ifvqdvg","pricing_plan_id":"cebpf4jnsgd1na2vs0mg"},{"bike_id":"732bf5b6-a885-437d-ad41-db20874b76ae","system_id":"levelo_inurba_marseille","lat":43.28589,"lon":5.35118,"is_reserved":false,"is_disabled":false,"rental_uris":{"android":"levelo://app?vid=732bf5b6-a885-437d-ad41-db20874b76ae","ios":"levelo://app?vid=732bf5b6-a885-437d-ad41-db20874b76ae"},"vehicle_type_id":"4","last_reported":1736716067,"current_range_meters":38400,"station_id":"ce4bhch2rcd13ifvqeug","pricing_plan_id":"cebpf4jnsgd1na2vs0mg"},{"bike_id":"4742796d-6201-4132-b59f-b3631229772b","system_id":"levelo_inurba_marseille","lat":43.28157,"lon":5.42645,"is_reserved":false,"is_disabled":false,"rental_uris":{"android":"levelo://app?vid=4742796d-6201-4132-b59f-b3631229772b","ios":"levelo://app?vid=4742796d-6201-4132-b59f-b3631229772b"},"vehicle_type_id":"4","last_reported":1736716067,"current_range_meters":19600,"station_id":"ce4bhnh2rcd13ifvqgug","pricing_plan_id":"cebpf4jnsgd1na2vs0mg"},{"bike_id":"8602f1cc-8333-4ad1-84b1-f0f3deafd565","system_id":"levelo_inurba_marseille","lat":43.28471,"lon":5.35899,"is_reserved":false,"is_disabled":false,"rental_uris":{"android":"levelo://app?vid=8602f1cc-8333-4ad1-84b1-f0f3deafd565","ios":"levelo://app?vid=8602f1cc-8333-4ad1-84b1-f0f3deafd565"},"vehicle_type_id":"4","last_reported":1736716067,"current_range_meters":37600,"station_id":"ce4bhah2rcd13ifvqei0","pricing_plan_id":"cebpf4jnsgd1na2vs0mg"},{"bike_id":"426ee80e-06b0-4d0f-86a5-ea8ad64aaa11","system_id":"levelo_inurba_marseille","lat":43.28923,"lon":5.43765,"is_reserved":false,"is_disabled":false,"rental_uris":{"android":"levelo://app?vid=426ee80e-06b0-4d0f-86a5-ea8ad64aaa11","ios":"levelo://app?vid=426ee80e-06b0-4d0f-86a5-ea8ad64aaa11"},"vehicle_type_id":"4","last_reported":1736716067,"current_range_meters":11200,"station_id":"","pricing_plan_id":"cebpf4jnsgd1na2vs0mg"},{"bike_id":"4d32177d-3c44-439e-ad0d-695d0e029c30","system_id":"levelo_inurba_marseille","lat":43.29273,"lon":5.38451,"is_reserved":false,"is_disabled":false,"rental_uris":{"android":"levelo://app?vid=4d32177d-3c44-439e-ad0d-695d0e029c30","ios":"levelo://app?vid=4d32177d-3c44-439e-ad0d-695d0e029c30"},"vehicle_type_id":"4","last_reported":1736716067,"current_range_meters":8400,"station_id":"ce4bh692rcd13ifvqea0","pricing_plan_id":"cebpf4jnsgd1na2vs0mg"},{"bike_id":"b29dca30-1f99-4556-8d02-1cd94cfb8ea1","system_id":"levelo_inurba_marseille","lat":43.32487,"lon":5.36567,"is_reserved":false,"is_disabled":false,"rental_uris":{"android":"levelo://app?vid=b29dca30-1f99-4556-8d02-1cd94cfb8ea1","ios":"levelo://app?vid=b29dca30-1f99-4556-8d02-1cd94cfb8ea1"},"vehicle_type_id":"4","last_reported":1736716067,"current_range_meters":12000,"station_id":"ce4bhs12rcd13ifvqhvg","pricing_plan_id":"cebpf4jnsgd1na2vs0mg"},{"bike_id":"dd15698d-3355-441f-958d-000db943f9ca","system_id":"levelo_inurba_marseille","lat":43.29534,"lon":5.385349,"is_reserved":false,"is_disabled":false,"rental_uris":{"android":"levelo://app?vid=dd15698d-3355-441f-958d-000db943f9ca","ios":"levelo://app?vid=dd15698d-3355-441f-958d-000db943f9ca"},"vehicle_type_id":"4","last_reported":1736716067,"current_range_meters":10800,"station_id":"ce4bgih2rcd13ifvqba0","pricing_plan_id":"cebpf4jnsgd1na2vs0mg"},{"bike_id":"969e27ab-5a9e-459e-9526-3b57e6f57682","system_id":"levelo_inurba_marseille","lat":43.229239,"lon":5.353755,"is_reserved":false,"is_disabled":false,"rental_uris":{"android":"levelo://app?vid=969e27ab-5a9e-459e-9526-3b57e6f57682","ios":"levelo://app?vid=969e27ab-5a9e-459e-9526-3b57e6f57682"},"vehicle_type_id":"4","last_reported":1736716067,"current_range_meters":8000,"station_id":"cpo3532slgdg3j2ikp40","pricing_plan_id":"cebpf4jnsgd1na2vs0mg"},{"bike_id":"b40b0d13-568c-4b69-8f04-0f9704ad6133","system_id":"levelo_inurba_marseille","lat":43.29261,"lon":5.40905,"is_reserved":false,"is_disabled":false,"rental_uris":{"android":"levelo://app?vid=b40b0d13-568c-4b69-8f04-0f9704ad6133","ios":"levelo://app?vid=b40b0d13-568c-4b69-8f04-0f9704ad6133"},"vehicle_type_id":"4","last_reported":1736716067,"current_range_meters":39200,"station_id":"ce4bh192rcd13ifvqdc0","pricing_plan_id":"cebpf4jnsgd1na2vs0mg"},{"bike_id":"8fb8f674-c6af-4e1e-bc3c-f16a04fe6e1a","system_id":"levelo_inurba_marseille","lat":43.290473,"lon":5.359034,"is_reserved":false,"is_disabled":false,"rental_uris":{"android":"levelo://app?vid=8fb8f674-c6af-4e1e-bc3c-f16a04fe6e1a","ios":"levelo://app?vid=8fb8f674-c6af-4e1e-bc3c-f16a04fe6e1a"},"vehicle_type_id":"4","last_reported":1736716067,"current_range_meters":38000,"station_id":"ce4bha92rcd13ifvqeg0","pricing_plan_id":"cebpf4jnsgd1na2vs0mg"},{"bike_id":"b96313d8-2431-4ad9-8394-fe09b175b756","system_id":"levelo_inurba_marseille","lat":43.28029,"lon":5.36934,"is_reserved":false,"is_disabled":false,"rental_uris":{"android":"levelo://app?vid=b96313d8-2431-4ad9-8394-fe09b175b756","ios":"levelo://app?vid=b96313d8-2431-4ad9-8394-fe09b175b756"},"vehicle_type_id":"4","last_reported":1736716067,"current_range_meters":38000,"station_id":"ce4bha12rcd13ifvqef0","pricing_plan_id":"cebpf4jnsgd1na2vs0mg"},{"bike_id":"c57472a4-4d7d-4e98-a197-dfe0bfa4547f","system_id":"levelo_inurba_marseille","lat":43.286161,"lon":5.351003,"is_reserved":false,"is_disabled":false,"rental_uris":{"android":"levelo://app?vid=c57472a4-4d7d-4e98-a197-dfe0bfa4547f","ios":"levelo://app?vid=c57472a4-4d7d-4e98-a197-dfe0bfa4547f"},"vehicle_type_id":"4","last_reported":1736716067,"current_range_meters":30000,"station_id":"ce4bhch2rcd13ifvqeug","pricing_plan_id":"cebpf4jnsgd1na2vs0mg"},{"bike_id":"0ccd9dc9-42fb-4722-abf3-9f54fe93ec90","system_id":"levelo_inurba_marseille","lat":43.30872,"lon":5.37179,"is_reserved":false,"is_disabled":false,"rental_uris":{"android":"levelo://app?vid=0ccd9dc9-42fb-4722-abf3-9f54fe93ec90","ios":"levelo://app?vid=0ccd9dc9-42fb-4722-abf3-9f54fe93ec90"},"vehicle_type_id":"4","last_reported":1736716067,"current_range_meters":28400,"station_id":"ce4bguh2rcd13ifvqckg","pricing_plan_id":"cebpf4jnsgd1na2vs0mg"},{"bike_id":"7fcb04d8-ebf0-4f63-a7a4-6b609716deb6","system_id":"levelo_inurba_marseille","lat":43.29195,"lon":5.39325,"is_reserved":false,"is_disabled":true,"rental_uris":{"android":"levelo://app?vid=7fcb04d8-ebf0-4f63-a7a4-6b609716deb6","ios":"levelo://app?vid=7fcb04d8-ebf0-4f63-a7a4-6b609716deb6"},"vehicle_type_id":"4","last_reported":1736716067,"current_range_meters":22400,"station_id":"ce4bh192rcd13ifvqdd0","pricing_plan_id":"cebpf4jnsgd1na2vs0mg"},{"bike_id":"f4dbc556-58b0-4dfd-be99-18a51c032520","system_id":"levelo_inurba_marseille","lat":43.24174,"lon":5.39696,"is_reserved":false,"is_disabled":true,"rental_uris":{"android":"levelo://app?vid=f4dbc556-58b0-4dfd-be99-18a51c032520","ios":"levelo://app?vid=f4dbc556-58b0-4dfd-be99-18a51c032520"},"vehicle_type_id":"4","last_reported":1736716067,"current_range_meters":33600,"station_id":"ce4bhn12rcd13ifvqgpg","pricing_plan_id":"cebpf4jnsgd1na2vs0mg"},{"bike_id":"9c62e164-6cf9-4292-996f-7c2ed5673e8e","system_id":"levelo_inurba_marseille","lat":43.23963,"lon":5.36614,"is_reserved":false,"is_disabled":false,"rental_uris":{"android":"levelo://app?vid=9c62e164-6cf9-4292-996f-7c2ed5673e8e","ios":"levelo://app?vid=9c62e164-6cf9-4292-996f-7c2ed5673e8e"},"vehicle_type_id":"4","last_reported":1736716067,"current_range_meters":26000,"station_id":"ce4bhi12rcd13ifvqfp0","pricing_plan_id":"cebpf4jnsgd1na2vs0mg"},{"bike_id":"2c8b9a91-d113-453c-9d2c-fe906339173f","system_id":"levelo_inurba_marseille","lat":43.337251,"lon":5.391914,"is_reserved":false,"is_disabled":false,"rental_uris":{"android":"levelo://app?vid=2c8b9a91-d113-453c-9d2c-fe906339173f","ios":"levelo://app?vid=2c8b9a91-d113-453c-9d2c-fe906339173f"},"vehicle_type_id":"4","last_reported":1736716067,"current_range_meters":38000,"station_id":"ce4bhr92rcd13ifvqhsg","pricing_plan_id":"cebpf4jnsgd1na2vs0mg"},{"bike_id":"b93cb14a-f38b-4b9b-b178-a60c8f45c1a4","system_id":"levelo_inurba_marseille","lat":43.25721,"lon":5.41103,"is_reserved":false,"is_disabled":false,"rental_uris":{"android":"levelo://app?vid=b93cb14a-f38b-4b9b-b178-a60c8f45c1a4","ios":"levelo://app?vid=b93cb14a-f38b-4b9b-b178-a60c8f45c1a4"},"vehicle_type_id":"4","last_reported":1736716067,"current_range_meters":7200,"station_id":"ce4bhkp2rcd13ifvqgd0","pricing_plan_id":"cebpf4jnsgd1na2vs0mg"},{"bike_id":"45636413-29bd-43b6-bd8b-1246eb3c7c1a","system_id":"levelo_inurba_marseille","lat":43.27121,"lon":5.38498,"is_reserved":false,"is_disabled":false,"rental_uris":{"android":"levelo://app?vid=45636413-29bd-43b6-bd8b-1246eb3c7c1a","ios":"levelo://app?vid=45636413-29bd-43b6-bd8b-1246eb3c7c1a"},"vehicle_type_id":"4","last_reported":1736716067,"current_range_meters":8000,"station_id":"","pricing_plan_id":"cebpf4jnsgd1na2vs0mg"},{"bike_id":"4cfd0365-8b1d-4e49-bb82-5f4c01d5fe09","system_id":"levelo_inurba_marseille","lat":43.28272,"lon":5.35089,"is_reserved":false,"is_disabled":false,"rental_uris":{"android":"levelo://app?vid=4cfd0365-8b1d-4e49-bb82-5f4c01d5fe09","ios":"levelo://app?vid=4cfd0365-8b1d-4e49-bb82-5f4c01d5fe09"},"vehicle_type_id":"4","last_reported":1736716067,"current_range_meters":39200,"station_id":"ce4bhbp2rcd13ifvqerg","pricing_plan_id":"cebpf4jnsgd1na2vs0mg"},{"bike_id":"5e9a699a-7d90-4ab5-ac81-97b8281a731a","system_id":"levelo_inurba_marseille","lat":43.28686,"lon":5.38661,"is_reserved":false,"is_disabled":false,"rental_uris":{"android":"levelo://app?vid=5e9a699a-7d90-4ab5-ac81-97b8281a731a","ios":"levelo://app?vid=5e9a699a-7d90-4ab5-ac81-97b8281a731a"},"vehicle_type_id":"4","last_reported":1736716067,"current_range_meters":36000,"station_id":"ce4bh492rcd13ifvqdug","pricing_plan_id":"cebpf4jnsgd1na2vs0mg"},{"bike_id":"80609ff8-7d7d-4ae2-9159-aea837c7c52b","system_id":"levelo_inurba_marseille","lat":43.23957,"lon":5.36635,"is_reserved":false,"is_disabled":false,"rental_uris":{"android":"levelo://app?vid=80609ff8-7d7d-4ae2-9159-aea837c7c52b","ios":"levelo://app?vid=80609ff8-7d7d-4ae2-9159-aea837c7c52b"},"vehicle_type_id":"4","last_reported":1736716067,"current_range_meters":38800,"station_id":"ce4bhi12rcd13ifvqfp0","pricing_plan_id":"cebpf4jnsgd1na2vs0mg"},{"bike_id":"38a88ea6-a94b-4e4b-81db-6e3ebb97fafa","system_id":"levelo_inurba_marseille","lat":43.24073,"lon":5.37757,"is_reserved":false,"is_disabled":false,"rental_uris":{"android":"levelo://app?vid=38a88ea6-a94b-4e4b-81db-6e3ebb97fafa","ios":"levelo://app?vid=38a88ea6-a94b-4e4b-81db-6e3ebb97fafa"},"vehicle_type_id":"4","last_reported":1736716067,"current_range_meters":38800,"station_id":"ce4bhnp2rcd13ifvqgvg","pricing_plan_id":"cebpf4jnsgd1na2vs0mg"},{"bike_id":"c2b657e0-67fb-4721-a4d6-0ebb2fa0fcbe","system_id":"levelo_inurba_marseille","lat":43.28624,"lon":5.35105,"is_reserved":false,"is_disabled":false,"rental_uris":{"android":"levelo://app?vid=c2b657e0-67fb-4721-a4d6-0ebb2fa0fcbe","ios":"levelo://app?vid=c2b657e0-67fb-4721-a4d6-0ebb2fa0fcbe"},"vehicle_type_id":"4","last_reported":1736716067,"current_range_meters":36400,"station_id":"ce4bhch2rcd13ifvqeug","pricing_plan_id":"cebpf4jnsgd1na2vs0mg"},{"bike_id":"0457911c-0fb8-4df6-a57f-b7328df49140","system_id":"levelo_inurba_marseille","lat":43.25815,"lon":5.39424,"is_reserved":false,"is_disabled":false,"rental_uris":{"android":"levelo://app?vid=0457911c-0fb8-4df6-a57f-b7328df49140","ios":"levelo://app?vid=0457911c-0fb8-4df6-a57f-b7328df49140"},"vehicle_type_id":"4","last_reported":1736716067,"current_range_meters":17200,"station_id":"ce4bhip2rcd13ifvqft0","pricing_plan_id":"cebpf4jnsgd1na2vs0mg"},{"bike_id":"4cd495b0-13c4-4d69-ab12-b52b60b6d364","system_id":"levelo_inurba_marseille","lat":43.29193,"lon":5.35795,"is_reserved":false,"is_disabled":false,"rental_uris":{"android":"levelo://app?vid=4cd495b0-13c4-4d69-ab12-b52b60b6d364","ios":"levelo://app?vid=4cd495b0-13c4-4d69-ab12-b52b60b6d364"},"vehicle_type_id":"4","last_reported":1736716067,"current_range_meters":38000,"station_id":"ce4bhb12rcd13ifvqel0","pricing_plan_id":"cebpf4jnsgd1na2vs0mg"},{"bike_id":"f1805b0c-d111-44a3-94d4-cc8e4243a1d5","system_id":"levelo_inurba_marseille","lat":43.26556,"lon":5.39017,"is_reserved":false,"is_disabled":false,"rental_uris":{"android":"levelo://app?vid=f1805b0c-d111-44a3-94d4-cc8e4243a1d5","ios":"levelo://app?vid=f1805b0c-d111-44a3-94d4-cc8e4243a1d5"},"vehicle_type_id":"4","last_reported":1736716067,"current_range_meters":28000,"station_id":"ce4bhe12rcd13ifvqf30","pricing_plan_id":"cebpf4jnsgd1na2vs0mg"},{"bike_id":"0a356036-1a61-4215-9149-8e2dc8e5c8d1","system_id":"levelo_inurba_marseille","lat":43.25578,"lon":5.38244,"is_reserved":false,"is_disabled":false,"rental_uris":{"android":"levelo://app?vid=0a356036-1a61-4215-9149-8e2dc8e5c8d1","ios":"levelo://app?vid=0a356036-1a61-4215-9149-8e2dc8e5c8d1"},"vehicle_type_id":"4","last_reported":1736716067,"current_range_meters":35200,"station_id":"ce4bhih2rcd13ifvqfs0","pricing_plan_id":"cebpf4jnsgd1na2vs0mg"},{"bike_id":"2a5234d1-78a9-4a56-9169-d91f21347beb","system_id":"levelo_inurba_marseille","lat":43.29523,"lon":5.39039,"is_reserved":false,"is_disabled":false,"rental_uris":{"android":"levelo://app?vid=2a5234d1-78a9-4a56-9169-d91f21347beb","ios":"levelo://app?vid=2a5234d1-78a9-4a56-9169-d91f21347beb"},"vehicle_type_id":"4","last_reported":1736716067,"current_range_meters":22000,"station_id":"ce4bh3p2rcd13ifvqdp0","pricing_plan_id":"cebpf4jnsgd1na2vs0mg"},{"bike_id":"33f772a9-3316-47c9-ba2c-b8bb5b0473dc","system_id":"levelo_inurba_marseille","lat":43.29587,"lon":5.36722,"is_reserved":false,"is_disabled":true,"rental_uris":{"android":"levelo://app?vid=33f772a9-3316-47c9-ba2c-b8bb5b0473dc","ios":"levelo://app?vid=33f772a9-3316-47c9-ba2c-b8bb5b0473dc"},"vehicle_type_id":"4","last_reported":1736716067,"current_range_meters":38800,"station_id":"ce4bgph2rcd13ifvqc2g","pricing_plan_id":"cebpf4jnsgd1na2vs0mg"},{"bike_id":"e6e7af23-a54b-4039-acd2-27946349d00e","system_id":"levelo_inurba_marseille","lat":43.27911,"lon":5.38005,"is_reserved":false,"is_disabled":false,"rental_uris":{"android":"levelo://app?vid=e6e7af23-a54b-4039-acd2-27946349d00e","ios":"levelo://app?vid=e6e7af23-a54b-4039-acd2-27946349d00e"},"vehicle_type_id":"4","last_reported":1736716067,"current_range_meters":33200,"station_id":"ce4bhf92rcd13ifvqf50","pricing_plan_id":"cebpf4jnsgd1na2vs0mg"},{"bike_id":"5a0e07d9-f4aa-403e-97c8-e83ce916c0d9","system_id":"levelo_inurba_marseille","lat":43.29375,"lon":5.37844,"is_reserved":false,"is_disabled":false,"rental_uris":{"android":"levelo://app?vid=5a0e07d9-f4aa-403e-97c8-e83ce916c0d9","ios":"levelo://app?vid=5a0e07d9-f4aa-403e-97c8-e83ce916c0d9"},"vehicle_type_id":"4","last_reported":1736716067,"current_range_meters":18800,"station_id":"ce4bgjh2rcd13ifvqbf0","pricing_plan_id":"cebpf4jnsgd1na2vs0mg"},{"bike_id":"9c8c0f19-6acd-4047-9b73-cd2d2daf7c61","system_id":"levelo_inurba_marseille","lat":43.32122,"lon":5.36784,"is_reserved":false,"is_disabled":false,"rental_uris":{"android":"levelo://app?vid=9c8c0f19-6acd-4047-9b73-cd2d2daf7c61","ios":"levelo://app?vid=9c8c0f19-6acd-4047-9b73-cd2d2daf7c61"},"vehicle_type_id":"4","last_reported":1736716067,"current_range_meters":20800,"station_id":"ce4bhrh2rcd13ifvqhug","pricing_plan_id":"cebpf4jnsgd1na2vs0mg"},{"bike_id":"8f52b658-e721-4ac1-9b5e-2b1ca9e5b89a","system_id":"levelo_inurba_marseille","lat":43.28918,"lon":5.36611,"is_reserved":false,"is_disabled":false,"rental_uris":{"android":"levelo://app?vid=8f52b658-e721-4ac1-9b5e-2b1ca9e5b89a","ios":"levelo://app?vid=8f52b658-e721-4ac1-9b5e-2b1ca9e5b89a"},"vehicle_type_id":"4","last_reported":1736716067,"current_range_meters":23200,"station_id":"ce4bhap2rcd13ifvqek0","pricing_plan_id":"cebpf4jnsgd1na2vs0mg"},{"bike_id":"0eb698f2-da54-433e-aaca-63e88e827aba","system_id":"levelo_inurba_marseille","lat":43.27429,"lon":5.39421,"is_reserved":false,"is_disabled":false,"rental_uris":{"android":"levelo://app?vid=0eb698f2-da54-433e-aaca-63e88e827aba","ios":"levelo://app?vid=0eb698f2-da54-433e-aaca-63e88e827aba"},"vehicle_type_id":"4","last_reported":1736716067,"current_range_meters":38000,"station_id":"ce4bhdp2rcd13ifvqf20","pricing_plan_id":"cebpf4jnsgd1na2vs0mg"},{"bike_id":"0756869f-d496-490d-b5d4-ec25e039f4fb","system_id":"levelo_inurba_marseille","lat":43.28946,"lon":5.36621,"is_reserved":false,"is_disabled":true,"rental_uris":{"android":"levelo://app?vid=0756869f-d496-490d-b5d4-ec25e039f4fb","ios":"levelo://app?vid=0756869f-d496-490d-b5d4-ec25e039f4fb"},"vehicle_type_id":"4","last_reported":1736716067,"current_range_meters":8000,"station_id":"ce4bhap2rcd13ifvqek0","pricing_plan_id":"cebpf4jnsgd1na2vs0mg"},{"bike_id":"23fa248b-a29f-4809-83a2-8dfa8df2caa7","system_id":"levelo_inurba_marseille","lat":43.28614,"lon":5.35096,"is_reserved":false,"is_disabled":false,"rental_uris":{"android":"levelo://app?vid=23fa248b-a29f-4809-83a2-8dfa8df2caa7","ios":"levelo://app?vid=23fa248b-a29f-4809-83a2-8dfa8df2caa7"},"vehicle_type_id":"4","last_reported":1736716067,"current_range_meters":11600,"station_id":"ce4bhch2rcd13ifvqeug","pricing_plan_id":"cebpf4jnsgd1na2vs0mg"},{"bike_id":"1a2e9a5f-350d-4625-a0c2-b651b9dbe16c","system_id":"levelo_inurba_marseille","lat":43.28142,"lon":5.42632,"is_reserved":false,"is_disabled":false,"rental_uris":{"android":"levelo://app?vid=1a2e9a5f-350d-4625-a0c2-b651b9dbe16c","ios":"levelo://app?vid=1a2e9a5f-350d-4625-a0c2-b651b9dbe16c"},"vehicle_type_id":"4","last_reported":1736716067,"current_range_meters":28800,"station_id":"ce4bhnh2rcd13ifvqgug","pricing_plan_id":"cebpf4jnsgd1na2vs0mg"},{"bike_id":"066fc890-cce1-4b7e-a941-320c51e991c9","system_id":"levelo_inurba_marseille","lat":43.23961,"lon":5.36607,"is_reserved":false,"is_disabled":false,"rental_uris":{"android":"levelo://app?vid=066fc890-cce1-4b7e-a941-320c51e991c9","ios":"levelo://app?vid=066fc890-cce1-4b7e-a941-320c51e991c9"},"vehicle_type_id":"4","last_reported":1736716067,"current_range_meters":16000,"station_id":"ce4bhi12rcd13ifvqfp0","pricing_plan_id":"cebpf4jnsgd1na2vs0mg"},{"bike_id":"415cd49c-226b-4775-b563-42af67c9bd42","system_id":"levelo_inurba_marseille","lat":43.30775,"lon":5.37647,"is_reserved":false,"is_disabled":false,"rental_uris":{"android":"levelo://app?vid=415cd49c-226b-4775-b563-42af67c9bd42","ios":"levelo://app?vid=415cd49c-226b-4775-b563-42af67c9bd42"},"vehicle_type_id":"4","last_reported":1736716067,"current_range_meters":33200,"station_id":"ce4bgv92rcd13ifvqcq0","pricing_plan_id":"cebpf4jnsgd1na2vs0mg"},{"bike_id":"0fc074de-fef1-41e6-abbc-80d03e90afb6","system_id":"levelo_inurba_marseille","lat":43.24141,"lon":5.39717,"is_reserved":false,"is_disabled":false,"rental_uris":{"android":"levelo://app?vid=0fc074de-fef1-41e6-abbc-80d03e90afb6","ios":"levelo://app?vid=0fc074de-fef1-41e6-abbc-80d03e90afb6"},"vehicle_type_id":"4","last_reported":1736716067,"current_range_meters":28000,"station_id":"ce4bhn12rcd13ifvqgpg","pricing_plan_id":"cebpf4jnsgd1na2vs0mg"},{"bike_id":"869bb141-7007-4b1c-987d-7b78a1b94a69","system_id":"levelo_inurba_marseille","lat":43.28617,"lon":5.35104,"is_reserved":false,"is_disabled":false,"rental_uris":{"android":"levelo://app?vid=869bb141-7007-4b1c-987d-7b78a1b94a69","ios":"levelo://app?vid=869bb141-7007-4b1c-987d-7b78a1b94a69"},"vehicle_type_id":"4","last_reported":1736716067,"current_range_meters":26800,"station_id":"ce4bhch2rcd13ifvqeug","pricing_plan_id":"cebpf4jnsgd1na2vs0mg"},{"bike_id":"c4a9f4d8-3097-4c73-b16c-f476d0136944","system_id":"levelo_inurba_marseille","lat":43.25007,"lon":5.38931,"is_reserved":false,"is_disabled":false,"rental_uris":{"android":"levelo://app?vid=c4a9f4d8-3097-4c73-b16c-f476d0136944","ios":"levelo://app?vid=c4a9f4d8-3097-4c73-b16c-f476d0136944"},"vehicle_type_id":"4","last_reported":1736716067,"current_range_meters":16400,"station_id":"ce4bhgp2rcd13ifvqfd0","pricing_plan_id":"cebpf4jnsgd1na2vs0mg"},{"bike_id":"17f0efb9-3fad-4272-96d0-6997cdfb0f4a","system_id":"levelo_inurba_marseille","lat":43.31721,"lon":5.43696,"is_reserved":false,"is_disabled":false,"rental_uris":{"android":"levelo://app?vid=17f0efb9-3fad-4272-96d0-6997cdfb0f4a","ios":"levelo://app?vid=17f0efb9-3fad-4272-96d0-6997cdfb0f4a"},"vehicle_type_id":"4","last_reported":1736716067,"current_range_meters":36800,"station_id":"ce4bhp92rcd13ifvqhcg","pricing_plan_id":"cebpf4jnsgd1na2vs0mg"},{"bike_id":"51bb6953-dea8-4e82-96bf-52696267905f","system_id":"levelo_inurba_marseille","lat":43.230548,"lon":5.35492,"is_reserved":false,"is_disabled":true,"rental_uris":{"android":"levelo://app?vid=51bb6953-dea8-4e82-96bf-52696267905f","ios":"levelo://app?vid=51bb6953-dea8-4e82-96bf-52696267905f"},"vehicle_type_id":"4","last_reported":1736716067,"current_range_meters":16800,"station_id":"cpo3342slgdg3j2ifvpg","pricing_plan_id":"cebpf4jnsgd1na2vs0mg"},{"bike_id":"6ba93968-d6c1-4012-863f-d7b9473e5b4e","system_id":"levelo_inurba_marseille","lat":43.28687,"lon":5.38656,"is_reserved":false,"is_disabled":false,"rental_uris":{"android":"levelo://app?vid=6ba93968-d6c1-4012-863f-d7b9473e5b4e","ios":"levelo://app?vid=6ba93968-d6c1-4012-863f-d7b9473e5b4e"},"vehicle_type_id":"4","last_reported":1736716067,"current_range_meters":16400,"station_id":"ce4bh492rcd13ifvqdug","pricing_plan_id":"cebpf4jnsgd1na2vs0mg"},{"bike_id":"8456e528-df8d-4a24-b1ff-bd96e9686306","system_id":"levelo_inurba_marseille","lat":43.28277,"lon":5.35063,"is_reserved":false,"is_disabled":false,"rental_uris":{"android":"levelo://app?vid=8456e528-df8d-4a24-b1ff-bd96e9686306","ios":"levelo://app?vid=8456e528-df8d-4a24-b1ff-bd96e9686306"},"vehicle_type_id":"4","last_reported":1736716067,"current_range_meters":24800,"station_id":"ce4bhbp2rcd13ifvqerg","pricing_plan_id":"cebpf4jnsgd1na2vs0mg"},{"bike_id":"dc388f0e-5ba4-4401-b2b7-3e59da087469","system_id":"levelo_inurba_marseille","lat":43.28614,"lon":5.35103,"is_reserved":false,"is_disabled":false,"rental_uris":{"android":"levelo://app?vid=dc388f0e-5ba4-4401-b2b7-3e59da087469","ios":"levelo://app?vid=dc388f0e-5ba4-4401-b2b7-3e59da087469"},"vehicle_type_id":"4","last_reported":1736716067,"current_range_meters":16000,"station_id":"ce4bhch2rcd13ifvqeug","pricing_plan_id":"cebpf4jnsgd1na2vs0mg"},{"bike_id":"96f0d2b4-e030-4d72-9ca1-16e79d81e73a","system_id":"levelo_inurba_marseille","lat":43.27184,"lon":5.40985,"is_reserved":false,"is_disabled":false,"rental_uris":{"android":"levelo://app?vid=96f0d2b4-e030-4d72-9ca1-16e79d81e73a","ios":"levelo://app?vid=96f0d2b4-e030-4d72-9ca1-16e79d81e73a"},"vehicle_type_id":"4","last_reported":1736716067,"current_range_meters":22800,"station_id":"ce4bhl12rcd13ifvqgf0","pricing_plan_id":"cebpf4jnsgd1na2vs0mg"},{"bike_id":"a2cf45d8-4ef3-4c3b-98d6-e733cf669766","system_id":"levelo_inurba_marseille","lat":43.28735,"lon":5.36068,"is_reserved":false,"is_disabled":false,"rental_uris":{"android":"levelo://app?vid=a2cf45d8-4ef3-4c3b-98d6-e733cf669766","ios":"levelo://app?vid=a2cf45d8-4ef3-4c3b-98d6-e733cf669766"},"vehicle_type_id":"4","last_reported":1736716067,"current_range_meters":38800,"station_id":"cki0cbj6b192h4jlfktg","pricing_plan_id":"cebpf4jnsgd1na2vs0mg"},{"bike_id":"c84c60ce-c7f6-42eb-bb3c-f11a697bd396","system_id":"levelo_inurba_marseille","lat":43.29972,"lon":5.38484,"is_reserved":false,"is_disabled":true,"rental_uris":{"android":"levelo://app?vid=c84c60ce-c7f6-42eb-bb3c-f11a697bd396","ios":"levelo://app?vid=c84c60ce-c7f6-42eb-bb3c-f11a697bd396"},"vehicle_type_id":"4","last_reported":1736716067,"current_range_meters":3600,"station_id":"ce4bgj92rcd13ifvqbd0","pricing_plan_id":"cebpf4jnsgd1na2vs0mg"},{"bike_id":"2cb3366d-1a2d-42fc-96af-d32f2a24cffd","system_id":"levelo_inurba_marseille","lat":43.2954,"lon":5.39028,"is_reserved":false,"is_disabled":false,"rental_uris":{"android":"levelo://app?vid=2cb3366d-1a2d-42fc-96af-d32f2a24cffd","ios":"levelo://app?vid=2cb3366d-1a2d-42fc-96af-d32f2a24cffd"},"vehicle_type_id":"4","last_reported":1736716067,"current_range_meters":34800,"station_id":"ce4bh3p2rcd13ifvqdp0","pricing_plan_id":"cebpf4jnsgd1na2vs0mg"},{"bike_id":"139c6b3e-cefd-4de6-b959-befc5579d4ce","system_id":"levelo_inurba_marseille","lat":43.24816,"lon":5.37458,"is_reserved":false,"is_disabled":false,"rental_uris":{"android":"levelo://app?vid=139c6b3e-cefd-4de6-b959-befc5579d4ce","ios":"levelo://app?vid=139c6b3e-cefd-4de6-b959-befc5579d4ce"},"vehicle_type_id":"4","last_reported":1736716067,"current_range_meters":27200,"station_id":"ce4bhgh2rcd13ifvqfb0","pricing_plan_id":"cebpf4jnsgd1na2vs0mg"},{"bike_id":"bb2c6734-3bde-49c2-b205-412e6ed0ca55","system_id":"levelo_inurba_marseille","lat":43.23966,"lon":5.36635,"is_reserved":false,"is_disabled":false,"rental_uris":{"android":"levelo://app?vid=bb2c6734-3bde-49c2-b205-412e6ed0ca55","ios":"levelo://app?vid=bb2c6734-3bde-49c2-b205-412e6ed0ca55"},"vehicle_type_id":"4","last_reported":1736716067,"current_range_meters":38400,"station_id":"ce4bhi12rcd13ifvqfp0","pricing_plan_id":"cebpf4jnsgd1na2vs0mg"},{"bike_id":"4f0f7639-bf2d-4ba3-ba00-24e7b217bba7","system_id":"levelo_inurba_marseille","lat":43.25104,"lon":5.40298,"is_reserved":false,"is_disabled":true,"rental_uris":{"android":"levelo://app?vid=4f0f7639-bf2d-4ba3-ba00-24e7b217bba7","ios":"levelo://app?vid=4f0f7639-bf2d-4ba3-ba00-24e7b217bba7"},"vehicle_type_id":"4","last_reported":1736716067,"current_range_meters":0,"station_id":"ce4bhlh2rcd13ifvqgig","pricing_plan_id":"cebpf4jnsgd1na2vs0mg"},{"bike_id":"d4a1c371-336e-4a9f-bd59-f2cfc71fd153","system_id":"levelo_inurba_marseille","lat":43.2408,"lon":5.37762,"is_reserved":false,"is_disabled":false,"rental_uris":{"android":"levelo://app?vid=d4a1c371-336e-4a9f-bd59-f2cfc71fd153","ios":"levelo://app?vid=d4a1c371-336e-4a9f-bd59-f2cfc71fd153"},"vehicle_type_id":"4","last_reported":1736716067,"current_range_meters":24400,"station_id":"ce4bhnp2rcd13ifvqgvg","pricing_plan_id":"cebpf4jnsgd1na2vs0mg"},{"bike_id":"c1c51f67-6348-4482-a3d4-31704cefaf37","system_id":"levelo_inurba_marseille","lat":43.28615,"lon":5.35101,"is_reserved":false,"is_disabled":false,"rental_uris":{"android":"levelo://app?vid=c1c51f67-6348-4482-a3d4-31704cefaf37","ios":"levelo://app?vid=c1c51f67-6348-4482-a3d4-31704cefaf37"},"vehicle_type_id":"4","last_reported":1736716067,"current_range_meters":36800,"station_id":"ce4bhch2rcd13ifvqeug","pricing_plan_id":"cebpf4jnsgd1na2vs0mg"},{"bike_id":"b88fcfe2-e906-48dc-b10d-96b9ef58544e","system_id":"levelo_inurba_marseille","lat":43.31707,"lon":5.40465,"is_reserved":false,"is_disabled":false,"rental_uris":{"android":"levelo://app?vid=b88fcfe2-e906-48dc-b10d-96b9ef58544e","ios":"levelo://app?vid=b88fcfe2-e906-48dc-b10d-96b9ef58544e"},"vehicle_type_id":"4","last_reported":1736716067,"current_range_meters":25600,"station_id":"ce4bh012rcd13ifvqd00","pricing_plan_id":"cebpf4jnsgd1na2vs0mg"},{"bike_id":"a1f1f268-04ca-4934-a758-448d0aeedcd1","system_id":"levelo_inurba_marseille","lat":43.28725,"lon":5.39957,"is_reserved":false,"is_disabled":true,"rental_uris":{"android":"levelo://app?vid=a1f1f268-04ca-4934-a758-448d0aeedcd1","ios":"levelo://app?vid=a1f1f268-04ca-4934-a758-448d0aeedcd1"},"vehicle_type_id":"4","last_reported":1736716067,"current_range_meters":36400,"station_id":"ce4bho92rcd13ifvqh3g","pricing_plan_id":"cebpf4jnsgd1na2vs0mg"},{"bike_id":"f5af3afc-707a-47cb-9ea7-21ea8cbf39c3","system_id":"levelo_inurba_marseille","lat":43.23189,"lon":5.39982,"is_reserved":false,"is_disabled":false,"rental_uris":{"android":"levelo://app?vid=f5af3afc-707a-47cb-9ea7-21ea8cbf39c3","ios":"levelo://app?vid=f5af3afc-707a-47cb-9ea7-21ea8cbf39c3"},"vehicle_type_id":"4","last_reported":1736716067,"current_range_meters":39200,"station_id":"ce4bhn12rcd13ifvqgqg","pricing_plan_id":"cebpf4jnsgd1na2vs0mg"},{"bike_id":"691b5a61-4b08-45ed-a744-e5437a0deb46","system_id":"levelo_inurba_marseille","lat":43.2957,"lon":5.39031,"is_reserved":false,"is_disabled":false,"rental_uris":{"android":"levelo://app?vid=691b5a61-4b08-45ed-a744-e5437a0deb46","ios":"levelo://app?vid=691b5a61-4b08-45ed-a744-e5437a0deb46"},"vehicle_type_id":"4","last_reported":1736716067,"current_range_meters":36000,"station_id":"ce4bh3p2rcd13ifvqdp0","pricing_plan_id":"cebpf4jnsgd1na2vs0mg"},{"bike_id":"43d1392c-f8d8-4498-8ddc-43615aba88c5","system_id":"levelo_inurba_marseille","lat":43.27959,"lon":5.38707,"is_reserved":false,"is_disabled":false,"rental_uris":{"android":"levelo://app?vid=43d1392c-f8d8-4498-8ddc-43615aba88c5","ios":"levelo://app?vid=43d1392c-f8d8-4498-8ddc-43615aba88c5"},"vehicle_type_id":"4","last_reported":1736716067,"current_range_meters":9600,"station_id":"ce4bhg12rcd13ifvqf80","pricing_plan_id":"cebpf4jnsgd1na2vs0mg"},{"bike_id":"a754abf4-87cb-4915-a97f-0b4d0e8971f5","system_id":"levelo_inurba_marseille","lat":43.28616,"lon":5.351,"is_reserved":false,"is_disabled":false,"rental_uris":{"android":"levelo://app?vid=a754abf4-87cb-4915-a97f-0b4d0e8971f5","ios":"levelo://app?vid=a754abf4-87cb-4915-a97f-0b4d0e8971f5"},"vehicle_type_id":"4","last_reported":1736716067,"current_range_meters":36400,"station_id":"ce4bhch2rcd13ifvqeug","pricing_plan_id":"cebpf4jnsgd1na2vs0mg"},{"bike_id":"b51b8509-c21e-40ac-802b-edd56e55cdd0","system_id":"levelo_inurba_marseille","lat":43.303713,"lon":5.418951,"is_reserved":false,"is_disabled":true,"rental_uris":{"android":"levelo://app?vid=b51b8509-c21e-40ac-802b-edd56e55cdd0","ios":"levelo://app?vid=b51b8509-c21e-40ac-802b-edd56e55cdd0"},"vehicle_type_id":"4","last_reported":1736716067,"current_range_meters":25600,"station_id":"ce4bhop2rcd13ifvqh7g","pricing_plan_id":"cebpf4jnsgd1na2vs0mg"},{"bike_id":"984325b0-34ed-4e66-aa38-ae384583f87e","system_id":"levelo_inurba_marseille","lat":43.33083,"lon":5.40824,"is_reserved":false,"is_disabled":false,"rental_uris":{"android":"levelo://app?vid=984325b0-34ed-4e66-aa38-ae384583f87e","ios":"levelo://app?vid=984325b0-34ed-4e66-aa38-ae384583f87e"},"vehicle_type_id":"4","last_reported":1736716067,"current_range_meters":24800,"station_id":"","pricing_plan_id":"cebpf4jnsgd1na2vs0mg"},{"bike_id":"78fc2529-851e-44ea-9e17-e5a76c9197b1","system_id":"levelo_inurba_marseille","lat":43.29741,"lon":5.37679,"is_reserved":false,"is_disabled":true,"rental_uris":{"android":"levelo://app?vid=78fc2529-851e-44ea-9e17-e5a76c9197b1","ios":"levelo://app?vid=78fc2529-851e-44ea-9e17-e5a76c9197b1"},"vehicle_type_id":"4","last_reported":1736716067,"current_range_meters":38800,"station_id":"ce4bgkh2rcd13ifvqbl0","pricing_plan_id":"cebpf4jnsgd1na2vs0mg"},{"bike_id":"6e0b7390-3f03-4896-850a-30b735b3a5fe","system_id":"levelo_inurba_marseille","lat":43.25501,"lon":5.37638,"is_reserved":false,"is_disabled":false,"rental_uris":{"android":"levelo://app?vid=6e0b7390-3f03-4896-850a-30b735b3a5fe","ios":"levelo://app?vid=6e0b7390-3f03-4896-850a-30b735b3a5fe"},"vehicle_type_id":"4","last_reported":1736716067,"current_range_meters":14400,"station_id":"ce4bhh12rcd13ifvqff0","pricing_plan_id":"cebpf4jnsgd1na2vs0mg"},{"bike_id":"759d91c5-2392-48f6-8f2b-fc1cfd9b9ecd","system_id":"levelo_inurba_marseille","lat":43.28282,"lon":5.35061,"is_reserved":false,"is_disabled":true,"rental_uris":{"android":"levelo://app?vid=759d91c5-2392-48f6-8f2b-fc1cfd9b9ecd","ios":"levelo://app?vid=759d91c5-2392-48f6-8f2b-fc1cfd9b9ecd"},"vehicle_type_id":"4","last_reported":1736716067,"current_range_meters":27200,"station_id":"ce4bhbp2rcd13ifvqerg","pricing_plan_id":"cebpf4jnsgd1na2vs0mg"},{"bike_id":"ebc55eb9-194f-4e99-8e23-b42fca6cc43d","system_id":"levelo_inurba_marseille","lat":43.27657,"lon":5.38921,"is_reserved":false,"is_disabled":true,"rental_uris":{"android":"levelo://app?vid=ebc55eb9-194f-4e99-8e23-b42fca6cc43d","ios":"levelo://app?vid=ebc55eb9-194f-4e99-8e23-b42fca6cc43d"},"vehicle_type_id":"4","last_reported":1736716067,"current_range_meters":36000,"station_id":"ce4bhi12rcd13ifvqfo0","pricing_plan_id":"cebpf4jnsgd1na2vs0mg"},{"bike_id":"4df89c5f-ad35-4858-8e73-2c663853f2e7","system_id":"levelo_inurba_marseille","lat":43.27502,"lon":5.42452,"is_reserved":false,"is_disabled":true,"rental_uris":{"android":"levelo://app?vid=4df89c5f-ad35-4858-8e73-2c663853f2e7","ios":"levelo://app?vid=4df89c5f-ad35-4858-8e73-2c663853f2e7"},"vehicle_type_id":"4","last_reported":1736716067,"current_range_meters":1600,"station_id":"ce4bhn92rcd13ifvqgrg","pricing_plan_id":"cebpf4jnsgd1na2vs0mg"},{"bike_id":"5bec3609-8767-43d5-9ee5-df80b90ff61b","system_id":"levelo_inurba_marseille","lat":43.28718,"lon":5.36078,"is_reserved":false,"is_disabled":false,"rental_uris":{"android":"levelo://app?vid=5bec3609-8767-43d5-9ee5-df80b90ff61b","ios":"levelo://app?vid=5bec3609-8767-43d5-9ee5-df80b90ff61b"},"vehicle_type_id":"4","last_reported":1736716067,"current_range_meters":39200,"station_id":"cki0cbj6b192h4jlfktg","pricing_plan_id":"cebpf4jnsgd1na2vs0mg"},{"bike_id":"81894d57-6961-4ca9-8a73-3302ecbe940c","system_id":"levelo_inurba_marseille","lat":43.248,"lon":5.37438,"is_reserved":false,"is_disabled":false,"rental_uris":{"android":"levelo://app?vid=81894d57-6961-4ca9-8a73-3302ecbe940c","ios":"levelo://app?vid=81894d57-6961-4ca9-8a73-3302ecbe940c"},"vehicle_type_id":"4","last_reported":1736716067,"current_range_meters":12400,"station_id":"ce4bhgh2rcd13ifvqfb0","pricing_plan_id":"cebpf4jnsgd1na2vs0mg"},{"bike_id":"d679e8ad-e35b-4604-a475-064f331d9c01","system_id":"levelo_inurba_marseille","lat":43.31523,"lon":5.38034,"is_reserved":false,"is_disabled":true,"rental_uris":{"android":"levelo://app?vid=d679e8ad-e35b-4604-a475-064f331d9c01","ios":"levelo://app?vid=d679e8ad-e35b-4604-a475-064f331d9c01"},"vehicle_type_id":"4","last_reported":1736716067,"current_range_meters":38800,"station_id":"ce4bhsp2rcd13ifvqi50","pricing_plan_id":"cebpf4jnsgd1na2vs0mg"},{"bike_id":"45324790-abcf-4a91-8b9e-6b7c17eae013","system_id":"levelo_inurba_marseille","lat":43.27374,"lon":5.36251,"is_reserved":false,"is_disabled":false,"rental_uris":{"android":"levelo://app?vid=45324790-abcf-4a91-8b9e-6b7c17eae013","ios":"levelo://app?vid=45324790-abcf-4a91-8b9e-6b7c17eae013"},"vehicle_type_id":"4","last_reported":1736716067,"current_range_meters":12000,"station_id":"ce4bhbh2rcd13ifvqeo0","pricing_plan_id":"cebpf4jnsgd1na2vs0mg"},{"bike_id":"2fe6ed4b-4c39-409b-94fd-8d9acfb75f3f","system_id":"levelo_inurba_marseille","lat":43.27495,"lon":5.42448,"is_reserved":false,"is_disabled":false,"rental_uris":{"android":"levelo://app?vid=2fe6ed4b-4c39-409b-94fd-8d9acfb75f3f","ios":"levelo://app?vid=2fe6ed4b-4c39-409b-94fd-8d9acfb75f3f"},"vehicle_type_id":"4","last_reported":1736716067,"current_range_meters":24400,"station_id":"ce4bhn92rcd13ifvqgrg","pricing_plan_id":"cebpf4jnsgd1na2vs0mg"},{"bike_id":"c8d882ec-994f-40f1-b811-bbbcb14d388d","system_id":"levelo_inurba_marseille","lat":43.28103,"lon":5.37837,"is_reserved":false,"is_disabled":false,"rental_uris":{"android":"levelo://app?vid=c8d882ec-994f-40f1-b811-bbbcb14d388d","ios":"levelo://app?vid=c8d882ec-994f-40f1-b811-bbbcb14d388d"},"vehicle_type_id":"4","last_reported":1736716067,"current_range_meters":20400,"station_id":"ce4bha12rcd13ifvqee0","pricing_plan_id":"cebpf4jnsgd1na2vs0mg"},{"bike_id":"13d77e31-974d-4a43-9955-3ba1ffe5a9ff","system_id":"levelo_inurba_marseille","lat":43.28695,"lon":5.37389,"is_reserved":false,"is_disabled":false,"rental_uris":{"android":"levelo://app?vid=13d77e31-974d-4a43-9955-3ba1ffe5a9ff","ios":"levelo://app?vid=13d77e31-974d-4a43-9955-3ba1ffe5a9ff"},"vehicle_type_id":"4","last_reported":1736716067,"current_range_meters":38400,"station_id":"ce4bh3p2rcd13ifvqdq0","pricing_plan_id":"cebpf4jnsgd1na2vs0mg"},{"bike_id":"f01beec4-400e-477c-983a-efc8993148d3","system_id":"levelo_inurba_marseille","lat":43.32366,"lon":5.38891,"is_reserved":false,"is_disabled":false,"rental_uris":{"android":"levelo://app?vid=f01beec4-400e-477c-983a-efc8993148d3","ios":"levelo://app?vid=f01beec4-400e-477c-983a-efc8993148d3"},"vehicle_type_id":"4","last_reported":1736716067,"current_range_meters":30800,"station_id":"ce4bhqp2rcd13ifvqhog","pricing_plan_id":"cebpf4jnsgd1na2vs0mg"},{"bike_id":"7abc0742-0d6a-40d7-8137-deb5e8e48177","system_id":"levelo_inurba_marseille","lat":43.25119,"lon":5.39401,"is_reserved":false,"is_disabled":false,"rental_uris":{"android":"levelo://app?vid=7abc0742-0d6a-40d7-8137-deb5e8e48177","ios":"levelo://app?vid=7abc0742-0d6a-40d7-8137-deb5e8e48177"},"vehicle_type_id":"4","last_reported":1736716067,"current_range_meters":38800,"station_id":"ce4bhm12rcd13ifvqgkg","pricing_plan_id":"cebpf4jnsgd1na2vs0mg"},{"bike_id":"d9edb216-ee47-40a8-8ccd-82ecd79a1993","system_id":"levelo_inurba_marseille","lat":43.29027,"lon":5.38141,"is_reserved":false,"is_disabled":true,"rental_uris":{"android":"levelo://app?vid=d9edb216-ee47-40a8-8ccd-82ecd79a1993","ios":"levelo://app?vid=d9edb216-ee47-40a8-8ccd-82ecd79a1993"},"vehicle_type_id":"4","last_reported":1736716067,"current_range_meters":38800,"station_id":"ce4bh4p2rcd13ifvqe1g","pricing_plan_id":"cebpf4jnsgd1na2vs0mg"},{"bike_id":"99d61781-e309-4a75-9d67-a072b825165c","system_id":"levelo_inurba_marseille","lat":43.28408,"lon":5.37512,"is_reserved":false,"is_disabled":false,"rental_uris":{"android":"levelo://app?vid=99d61781-e309-4a75-9d67-a072b825165c","ios":"levelo://app?vid=99d61781-e309-4a75-9d67-a072b825165c"},"vehicle_type_id":"4","last_reported":1736716067,"current_range_meters":33600,"station_id":"ce4bh412rcd13ifvqds0","pricing_plan_id":"cebpf4jnsgd1na2vs0mg"},{"bike_id":"7190806d-6efc-4d5f-adc8-8e7c04344e9c","system_id":"levelo_inurba_marseille","lat":43.30524,"lon":5.36515,"is_reserved":false,"is_disabled":true,"rental_uris":{"android":"levelo://app?vid=7190806d-6efc-4d5f-adc8-8e7c04344e9c","ios":"levelo://app?vid=7190806d-6efc-4d5f-adc8-8e7c04344e9c"},"vehicle_type_id":"4","last_reported":1736716067,"current_range_meters":0,"station_id":"","pricing_plan_id":"cebpf4jnsgd1na2vs0mg"},{"bike_id":"717c9b7d-e3d6-441e-a2b5-35caee37f8e8","system_id":"levelo_inurba_marseille","lat":43.2861,"lon":5.351,"is_reserved":false,"is_disabled":false,"rental_uris":{"android":"levelo://app?vid=717c9b7d-e3d6-441e-a2b5-35caee37f8e8","ios":"levelo://app?vid=717c9b7d-e3d6-441e-a2b5-35caee37f8e8"},"vehicle_type_id":"4","last_reported":1736716067,"current_range_meters":35600,"station_id":"ce4bhch2rcd13ifvqeug","pricing_plan_id":"cebpf4jnsgd1na2vs0mg"},{"bike_id":"fed252d4-8a96-4918-8909-8c985d1de4fb","system_id":"levelo_inurba_marseille","lat":43.32473,"lon":5.36577,"is_reserved":false,"is_disabled":false,"rental_uris":{"android":"levelo://app?vid=fed252d4-8a96-4918-8909-8c985d1de4fb","ios":"levelo://app?vid=fed252d4-8a96-4918-8909-8c985d1de4fb"},"vehicle_type_id":"4","last_reported":1736716067,"current_range_meters":25600,"station_id":"ce4bhs12rcd13ifvqhvg","pricing_plan_id":"cebpf4jnsgd1na2vs0mg"},{"bike_id":"1ff4d6af-d168-4206-80a1-8f85ab0c0a00","system_id":"levelo_inurba_marseille","lat":43.25857,"lon":5.39905,"is_reserved":false,"is_disabled":true,"rental_uris":{"android":"levelo://app?vid=1ff4d6af-d168-4206-80a1-8f85ab0c0a00","ios":"levelo://app?vid=1ff4d6af-d168-4206-80a1-8f85ab0c0a00"},"vehicle_type_id":"4","last_reported":1736716067,"current_range_meters":10800,"station_id":"ce4bhl92rcd13ifvqghg","pricing_plan_id":"cebpf4jnsgd1na2vs0mg"},{"bike_id":"a16fd609-1fc6-4798-b9e0-3ea7526c402a","system_id":"levelo_inurba_marseille","lat":43.23556,"lon":5.37872,"is_reserved":false,"is_disabled":false,"rental_uris":{"android":"levelo://app?vid=a16fd609-1fc6-4798-b9e0-3ea7526c402a","ios":"levelo://app?vid=a16fd609-1fc6-4798-b9e0-3ea7526c402a"},"vehicle_type_id":"4","last_reported":1736716067,"current_range_meters":26800,"station_id":"","pricing_plan_id":"cebpf4jnsgd1na2vs0mg"},{"bike_id":"55e10a13-573c-4876-a3f3-1d7244726716","system_id":"levelo_inurba_marseille","lat":43.24798,"lon":5.37447,"is_reserved":false,"is_disabled":false,"rental_uris":{"android":"levelo://app?vid=55e10a13-573c-4876-a3f3-1d7244726716","ios":"levelo://app?vid=55e10a13-573c-4876-a3f3-1d7244726716"},"vehicle_type_id":"4","last_reported":1736716067,"current_range_meters":39200,"station_id":"ce4bhgh2rcd13ifvqfb0","pricing_plan_id":"cebpf4jnsgd1na2vs0mg"},{"bike_id":"86abeea7-c434-4e10-8df8-12c24097eeb0","system_id":"levelo_inurba_marseille","lat":43.30408,"lon":5.39743,"is_reserved":false,"is_disabled":true,"rental_uris":{"android":"levelo://app?vid=86abeea7-c434-4e10-8df8-12c24097eeb0","ios":"levelo://app?vid=86abeea7-c434-4e10-8df8-12c24097eeb0"},"vehicle_type_id":"4","last_reported":1736716067,"current_range_meters":17200,"station_id":"ce4bh092rcd13ifvqd20","pricing_plan_id":"cebpf4jnsgd1na2vs0mg"},{"bike_id":"9e4b700b-0bd2-4742-b6bd-c75a8782c39a","system_id":"levelo_inurba_marseille","lat":43.26972,"lon":5.38922,"is_reserved":false,"is_disabled":false,"rental_uris":{"android":"levelo://app?vid=9e4b700b-0bd2-4742-b6bd-c75a8782c39a","ios":"levelo://app?vid=9e4b700b-0bd2-4742-b6bd-c75a8782c39a"},"vehicle_type_id":"4","last_reported":1736716067,"current_range_meters":13600,"station_id":"ce4bhhh2rcd13ifvqfl0","pricing_plan_id":"cebpf4jnsgd1na2vs0mg"},{"bike_id":"51cbd015-955b-4051-8ad8-e68b8c256e5d","system_id":"levelo_inurba_marseille","lat":43.25079,"lon":5.39501,"is_reserved":false,"is_disabled":false,"rental_uris":{"android":"levelo://app?vid=51cbd015-955b-4051-8ad8-e68b8c256e5d","ios":"levelo://app?vid=51cbd015-955b-4051-8ad8-e68b8c256e5d"},"vehicle_type_id":"4","last_reported":1736716067,"current_range_meters":30000,"station_id":"ce4bhm12rcd13ifvqgkg","pricing_plan_id":"cebpf4jnsgd1na2vs0mg"},{"bike_id":"769729bd-8fab-4e72-84d8-bbe498aa709c","system_id":"levelo_inurba_marseille","lat":43.31282,"lon":5.40159,"is_reserved":false,"is_disabled":false,"rental_uris":{"android":"levelo://app?vid=769729bd-8fab-4e72-84d8-bbe498aa709c","ios":"levelo://app?vid=769729bd-8fab-4e72-84d8-bbe498aa709c"},"vehicle_type_id":"4","last_reported":1736716067,"current_range_meters":27600,"station_id":"ce4bh092rcd13ifvqd30","pricing_plan_id":"cebpf4jnsgd1na2vs0mg"},{"bike_id":"67490c1a-4c8d-4b21-b7b8-579ae1cb249a","system_id":"levelo_inurba_marseille","lat":43.27877,"lon":5.37991,"is_reserved":false,"is_disabled":false,"rental_uris":{"android":"levelo://app?vid=67490c1a-4c8d-4b21-b7b8-579ae1cb249a","ios":"levelo://app?vid=67490c1a-4c8d-4b21-b7b8-579ae1cb249a"},"vehicle_type_id":"4","last_reported":1736716067,"current_range_meters":39200,"station_id":"ce4bhf92rcd13ifvqf50","pricing_plan_id":"cebpf4jnsgd1na2vs0mg"},{"bike_id":"49d95079-84f0-4760-a442-2325f3134ecf","system_id":"levelo_inurba_marseille","lat":43.24276,"lon":5.394161,"is_reserved":false,"is_disabled":false,"rental_uris":{"android":"levelo://app?vid=49d95079-84f0-4760-a442-2325f3134ecf","ios":"levelo://app?vid=49d95079-84f0-4760-a442-2325f3134ecf"},"vehicle_type_id":"4","last_reported":1736716067,"current_range_meters":38800,"station_id":"ce4bhgh2rcd13ifvqfb0","pricing_plan_id":"cebpf4jnsgd1na2vs0mg"},{"bike_id":"c7a817d3-63e5-4652-8814-98e74bb31058","system_id":"levelo_inurba_marseille","lat":43.23965,"lon":5.36653,"is_reserved":false,"is_disabled":false,"rental_uris":{"android":"levelo://app?vid=c7a817d3-63e5-4652-8814-98e74bb31058","ios":"levelo://app?vid=c7a817d3-63e5-4652-8814-98e74bb31058"},"vehicle_type_id":"4","last_reported":1736716067,"current_range_meters":37600,"station_id":"ce4bhi12rcd13ifvqfp0","pricing_plan_id":"cebpf4jnsgd1na2vs0mg"},{"bike_id":"10f7d31a-ef8d-4e8a-acbf-8aa9a8c72143","system_id":"levelo_inurba_marseille","lat":43.24374,"lon":5.37056,"is_reserved":false,"is_disabled":false,"rental_uris":{"android":"levelo://app?vid=10f7d31a-ef8d-4e8a-acbf-8aa9a8c72143","ios":"levelo://app?vid=10f7d31a-ef8d-4e8a-acbf-8aa9a8c72143"},"vehicle_type_id":"4","last_reported":1736716067,"current_range_meters":10000,"station_id":"ce4bhhh2rcd13ifvqfk0","pricing_plan_id":"cebpf4jnsgd1na2vs0mg"},{"bike_id":"0c7815e5-63e2-4503-bec1-c463f8bd496d","system_id":"levelo_inurba_marseille","lat":43.26182,"lon":5.37457,"is_reserved":false,"is_disabled":false,"rental_uris":{"android":"levelo://app?vid=0c7815e5-63e2-4503-bec1-c463f8bd496d","ios":"levelo://app?vid=0c7815e5-63e2-4503-bec1-c463f8bd496d"},"vehicle_type_id":"4","last_reported":1736716067,"current_range_meters":18800,"station_id":"ce4bhgp2rcd13ifvqfc0","pricing_plan_id":"cebpf4jnsgd1na2vs0mg"},{"bike_id":"488e5d3f-7080-456a-8875-7f1a5dce4fa1","system_id":"levelo_inurba_marseille","lat":43.3011,"lon":5.38749,"is_reserved":false,"is_disabled":true,"rental_uris":{"android":"levelo://app?vid=488e5d3f-7080-456a-8875-7f1a5dce4fa1","ios":"levelo://app?vid=488e5d3f-7080-456a-8875-7f1a5dce4fa1"},"vehicle_type_id":"4","last_reported":1736716067,"current_range_meters":30800,"station_id":"ce4bghh2rcd13ifvqb60","pricing_plan_id":"cebpf4jnsgd1na2vs0mg"},{"bike_id":"5cb642f7-d3b4-4c50-8a34-b999cca9da0f","system_id":"levelo_inurba_marseille","lat":43.28728,"lon":5.360907,"is_reserved":false,"is_disabled":false,"rental_uris":{"android":"levelo://app?vid=5cb642f7-d3b4-4c50-8a34-b999cca9da0f","ios":"levelo://app?vid=5cb642f7-d3b4-4c50-8a34-b999cca9da0f"},"vehicle_type_id":"4","last_reported":1736716067,"current_range_meters":38000,"station_id":"cki0cbj6b192h4jlfktg","pricing_plan_id":"cebpf4jnsgd1na2vs0mg"},{"bike_id":"295bd26f-64bb-4f9a-b1ce-9227768f18ec","system_id":"levelo_inurba_marseille","lat":43.29193,"lon":5.37137,"is_reserved":false,"is_disabled":true,"rental_uris":{"android":"levelo://app?vid=295bd26f-64bb-4f9a-b1ce-9227768f18ec","ios":"levelo://app?vid=295bd26f-64bb-4f9a-b1ce-9227768f18ec"},"vehicle_type_id":"4","last_reported":1736716067,"current_range_meters":32000,"station_id":"ce4bha92rcd13ifvqeh0","pricing_plan_id":"cebpf4jnsgd1na2vs0mg"},{"bike_id":"77e629d5-dc9f-4420-a677-161c9895cd66","system_id":"levelo_inurba_marseille","lat":43.26937,"lon":5.38916,"is_reserved":false,"is_disabled":false,"rental_uris":{"android":"levelo://app?vid=77e629d5-dc9f-4420-a677-161c9895cd66","ios":"levelo://app?vid=77e629d5-dc9f-4420-a677-161c9895cd66"},"vehicle_type_id":"4","last_reported":1736716067,"current_range_meters":38000,"station_id":"ce4bhhh2rcd13ifvqfl0","pricing_plan_id":"cebpf4jnsgd1na2vs0mg"},{"bike_id":"1bff2bac-4883-4019-adbe-2dc598af8aad","system_id":"levelo_inurba_marseille","lat":43.27428,"lon":5.39395,"is_reserved":false,"is_disabled":true,"rental_uris":{"android":"levelo://app?vid=1bff2bac-4883-4019-adbe-2dc598af8aad","ios":"levelo://app?vid=1bff2bac-4883-4019-adbe-2dc598af8aad"},"vehicle_type_id":"4","last_reported":1736716067,"current_range_meters":24400,"station_id":"ce4bhdp2rcd13ifvqf20","pricing_plan_id":"cebpf4jnsgd1na2vs0mg"},{"bike_id":"ae29e0de-7b5a-45d6-ace3-313c5e88010a","system_id":"levelo_inurba_marseille","lat":43.279918,"lon":5.41654,"is_reserved":false,"is_disabled":true,"rental_uris":{"android":"levelo://app?vid=ae29e0de-7b5a-45d6-ace3-313c5e88010a","ios":"levelo://app?vid=ae29e0de-7b5a-45d6-ace3-313c5e88010a"},"vehicle_type_id":"4","last_reported":1736716067,"current_range_meters":0,"station_id":"ce4bho12rcd13ifvqh1g","pricing_plan_id":"cebpf4jnsgd1na2vs0mg"},{"bike_id":"0bc3f5f5-60c2-41a0-a6ff-a38fba6be8aa","system_id":"levelo_inurba_marseille","lat":43.25482,"lon":5.37641,"is_reserved":false,"is_disabled":true,"rental_uris":{"android":"levelo://app?vid=0bc3f5f5-60c2-41a0-a6ff-a38fba6be8aa","ios":"levelo://app?vid=0bc3f5f5-60c2-41a0-a6ff-a38fba6be8aa"},"vehicle_type_id":"4","last_reported":1736716067,"current_range_meters":28400,"station_id":"ce4bhh12rcd13ifvqff0","pricing_plan_id":"cebpf4jnsgd1na2vs0mg"},{"bike_id":"572f0254-11cf-4ef2-b3f9-66737ed8298a","system_id":"levelo_inurba_marseille","lat":43.2842,"lon":5.34985,"is_reserved":false,"is_disabled":true,"rental_uris":{"android":"levelo://app?vid=572f0254-11cf-4ef2-b3f9-66737ed8298a","ios":"levelo://app?vid=572f0254-11cf-4ef2-b3f9-66737ed8298a"},"vehicle_type_id":"4","last_reported":1736716067,"current_range_meters":0,"station_id":"ce4bhbh2rcd13ifvqepg","pricing_plan_id":"cebpf4jnsgd1na2vs0mg"},{"bike_id":"6d0a47d0-f7b9-4eee-94ba-01f18cca51b9","system_id":"levelo_inurba_marseille","lat":43.29377,"lon":5.37829,"is_reserved":false,"is_disabled":false,"rental_uris":{"android":"levelo://app?vid=6d0a47d0-f7b9-4eee-94ba-01f18cca51b9","ios":"levelo://app?vid=6d0a47d0-f7b9-4eee-94ba-01f18cca51b9"},"vehicle_type_id":"4","last_reported":1736716067,"current_range_meters":35600,"station_id":"ce4bgjh2rcd13ifvqbf0","pricing_plan_id":"cebpf4jnsgd1na2vs0mg"},{"bike_id":"1ef6b3c4-4b27-4675-a358-1719262d79cc","system_id":"levelo_inurba_marseille","lat":43.28852,"lon":5.35823,"is_reserved":false,"is_disabled":false,"rental_uris":{"android":"levelo://app?vid=1ef6b3c4-4b27-4675-a358-1719262d79cc","ios":"levelo://app?vid=1ef6b3c4-4b27-4675-a358-1719262d79cc"},"vehicle_type_id":"4","last_reported":1736716067,"current_range_meters":32800,"station_id":"ce4bhb12rcd13ifvqem0","pricing_plan_id":"cebpf4jnsgd1na2vs0mg"},{"bike_id":"75dfb7de-b85b-4a20-91bc-b13e741ad9a2","system_id":"levelo_inurba_marseille","lat":43.27892,"lon":5.37997,"is_reserved":false,"is_disabled":false,"rental_uris":{"android":"levelo://app?vid=75dfb7de-b85b-4a20-91bc-b13e741ad9a2","ios":"levelo://app?vid=75dfb7de-b85b-4a20-91bc-b13e741ad9a2"},"vehicle_type_id":"4","last_reported":1736716067,"current_range_meters":39200,"station_id":"ce4bhf92rcd13ifvqf50","pricing_plan_id":"cebpf4jnsgd1na2vs0mg"},{"bike_id":"136c61aa-a244-4f82-9113-620a348666ce","system_id":"levelo_inurba_marseille","lat":43.27515,"lon":5.38396,"is_reserved":false,"is_disabled":true,"rental_uris":{"android":"levelo://app?vid=136c61aa-a244-4f82-9113-620a348666ce","ios":"levelo://app?vid=136c61aa-a244-4f82-9113-620a348666ce"},"vehicle_type_id":"4","last_reported":1736716067,"current_range_meters":28000,"station_id":"ce4bhh92rcd13ifvqfi0","pricing_plan_id":"cebpf4jnsgd1na2vs0mg"},{"bike_id":"79b89b25-d2d1-4373-bc65-b9e3be776d40","system_id":"levelo_inurba_marseille","lat":43.30296,"lon":5.39211,"is_reserved":false,"is_disabled":false,"rental_uris":{"android":"levelo://app?vid=79b89b25-d2d1-4373-bc65-b9e3be776d40","ios":"levelo://app?vid=79b89b25-d2d1-4373-bc65-b9e3be776d40"},"vehicle_type_id":"4","last_reported":1736716067,"current_range_meters":38000,"station_id":"ce4bgkh2rcd13ifvqbk0","pricing_plan_id":"cebpf4jnsgd1na2vs0mg"},{"bike_id":"42ecc464-da44-487e-b0da-d25d9d2043d6","system_id":"levelo_inurba_marseille","lat":43.25718,"lon":5.41093,"is_reserved":false,"is_disabled":false,"rental_uris":{"android":"levelo://app?vid=42ecc464-da44-487e-b0da-d25d9d2043d6","ios":"levelo://app?vid=42ecc464-da44-487e-b0da-d25d9d2043d6"},"vehicle_type_id":"4","last_reported":1736716067,"current_range_meters":38800,"station_id":"ce4bhkp2rcd13ifvqgd0","pricing_plan_id":"cebpf4jnsgd1na2vs0mg"},{"bike_id":"1f225056-776d-46f3-8174-db158c35feef","system_id":"levelo_inurba_marseille","lat":43.32004,"lon":5.38148,"is_reserved":false,"is_disabled":false,"rental_uris":{"android":"levelo://app?vid=1f225056-776d-46f3-8174-db158c35feef","ios":"levelo://app?vid=1f225056-776d-46f3-8174-db158c35feef"},"vehicle_type_id":"4","last_reported":1736716067,"current_range_meters":38000,"station_id":"ce4bhr12rcd13ifvqhpg","pricing_plan_id":"cebpf4jnsgd1na2vs0mg"},{"bike_id":"1880c00a-fca8-4c2e-800a-d038e5f58931","system_id":"levelo_inurba_marseille","lat":43.31107,"lon":5.37774,"is_reserved":false,"is_disabled":false,"rental_uris":{"android":"levelo://app?vid=1880c00a-fca8-4c2e-800a-d038e5f58931","ios":"levelo://app?vid=1880c00a-fca8-4c2e-800a-d038e5f58931"},"vehicle_type_id":"4","last_reported":1736716067,"current_range_meters":15200,"station_id":"ce4bgt92rcd13ifvqcg0","pricing_plan_id":"cebpf4jnsgd1na2vs0mg"},{"bike_id":"65e8b99d-cb00-44f8-a57f-7740743f51e0","system_id":"levelo_inurba_marseille","lat":43.25,"lon":5.38906,"is_reserved":false,"is_disabled":true,"rental_uris":{"android":"levelo://app?vid=65e8b99d-cb00-44f8-a57f-7740743f51e0","ios":"levelo://app?vid=65e8b99d-cb00-44f8-a57f-7740743f51e0"},"vehicle_type_id":"4","last_reported":1736716067,"current_range_meters":26800,"station_id":"ce4bhgp2rcd13ifvqfd0","pricing_plan_id":"cebpf4jnsgd1na2vs0mg"},{"bike_id":"e7bed24c-76b8-4bfe-8ea5-51efa81df6c2","system_id":"levelo_inurba_marseille","lat":43.27492,"lon":5.42454,"is_reserved":false,"is_disabled":true,"rental_uris":{"android":"levelo://app?vid=e7bed24c-76b8-4bfe-8ea5-51efa81df6c2","ios":"levelo://app?vid=e7bed24c-76b8-4bfe-8ea5-51efa81df6c2"},"vehicle_type_id":"4","last_reported":1736716067,"current_range_meters":0,"station_id":"ce4bhn92rcd13ifvqgrg","pricing_plan_id":"cebpf4jnsgd1na2vs0mg"},{"bike_id":"3db2fa11-1dd9-4dc9-ae46-77da55522d93","system_id":"levelo_inurba_marseille","lat":43.25533,"lon":5.4007,"is_reserved":false,"is_disabled":true,"rental_uris":{"android":"levelo://app?vid=3db2fa11-1dd9-4dc9-ae46-77da55522d93","ios":"levelo://app?vid=3db2fa11-1dd9-4dc9-ae46-77da55522d93"},"vehicle_type_id":"4","last_reported":1736716067,"current_range_meters":0,"station_id":"","pricing_plan_id":"cebpf4jnsgd1na2vs0mg"},{"bike_id":"f129d598-3b81-45ec-8cf4-bad96c44200a","system_id":"levelo_inurba_marseille","lat":43.29279,"lon":5.40113,"is_reserved":false,"is_disabled":false,"rental_uris":{"android":"levelo://app?vid=f129d598-3b81-45ec-8cf4-bad96c44200a","ios":"levelo://app?vid=f129d598-3b81-45ec-8cf4-bad96c44200a"},"vehicle_type_id":"4","last_reported":1736716067,"current_range_meters":36000,"station_id":"ce4bh312rcd13ifvqdk0","pricing_plan_id":"cebpf4jnsgd1na2vs0mg"},{"bike_id":"17fc5f82-df83-4518-8848-786705e23111","system_id":"levelo_inurba_marseille","lat":43.29275,"lon":5.40114,"is_reserved":false,"is_disabled":false,"rental_uris":{"android":"levelo://app?vid=17fc5f82-df83-4518-8848-786705e23111","ios":"levelo://app?vid=17fc5f82-df83-4518-8848-786705e23111"},"vehicle_type_id":"4","last_reported":1736716067,"current_range_meters":16000,"station_id":"ce4bh312rcd13ifvqdk0","pricing_plan_id":"cebpf4jnsgd1na2vs0mg"},{"bike_id":"0e61ec43-c876-45d3-a431-7ad6cb87fc6c","system_id":"levelo_inurba_marseille","lat":43.25711,"lon":5.411,"is_reserved":false,"is_disabled":false,"rental_uris":{"android":"levelo://app?vid=0e61ec43-c876-45d3-a431-7ad6cb87fc6c","ios":"levelo://app?vid=0e61ec43-c876-45d3-a431-7ad6cb87fc6c"},"vehicle_type_id":"4","last_reported":1736716067,"current_range_meters":38800,"station_id":"ce4bhkp2rcd13ifvqgd0","pricing_plan_id":"cebpf4jnsgd1na2vs0mg"},{"bike_id":"b704bf42-2bc7-4506-b669-8ca7a3330fef","system_id":"levelo_inurba_marseille","lat":43.28153,"lon":5.4264,"is_reserved":false,"is_disabled":true,"rental_uris":{"android":"levelo://app?vid=b704bf42-2bc7-4506-b669-8ca7a3330fef","ios":"levelo://app?vid=b704bf42-2bc7-4506-b669-8ca7a3330fef"},"vehicle_type_id":"4","last_reported":1736716067,"current_range_meters":27200,"station_id":"ce4bhnh2rcd13ifvqgug","pricing_plan_id":"cebpf4jnsgd1na2vs0mg"},{"bike_id":"040cfb55-fc40-419d-84c5-4cddd102aa38","system_id":"levelo_inurba_marseille","lat":43.29812,"lon":5.40393,"is_reserved":false,"is_disabled":false,"rental_uris":{"android":"levelo://app?vid=040cfb55-fc40-419d-84c5-4cddd102aa38","ios":"levelo://app?vid=040cfb55-fc40-419d-84c5-4cddd102aa38"},"vehicle_type_id":"4","last_reported":1736716067,"current_range_meters":39200,"station_id":"ce4bh112rcd13ifvqd90","pricing_plan_id":"cebpf4jnsgd1na2vs0mg"},{"bike_id":"123d6c96-173c-4eb1-af84-3affdc067521","system_id":"levelo_inurba_marseille","lat":43.25581,"lon":5.38233,"is_reserved":false,"is_disabled":false,"rental_uris":{"android":"levelo://app?vid=123d6c96-173c-4eb1-af84-3affdc067521","ios":"levelo://app?vid=123d6c96-173c-4eb1-af84-3affdc067521"},"vehicle_type_id":"4","last_reported":1736716067,"current_range_meters":22400,"station_id":"ce4bhih2rcd13ifvqfs0","pricing_plan_id":"cebpf4jnsgd1na2vs0mg"},{"bike_id":"e94bb459-ac42-49e0-bd20-7faa0fb6d49d","system_id":"levelo_inurba_marseille","lat":43.28019,"lon":5.36954,"is_reserved":false,"is_disabled":false,"rental_uris":{"android":"levelo://app?vid=e94bb459-ac42-49e0-bd20-7faa0fb6d49d","ios":"levelo://app?vid=e94bb459-ac42-49e0-bd20-7faa0fb6d49d"},"vehicle_type_id":"4","last_reported":1736716067,"current_range_meters":28400,"station_id":"ce4bha12rcd13ifvqef0","pricing_plan_id":"cebpf4jnsgd1na2vs0mg"},{"bike_id":"99992ce0-e13f-4dee-95af-06d78d23df51","system_id":"levelo_inurba_marseille","lat":43.25417,"lon":5.4097,"is_reserved":false,"is_disabled":false,"rental_uris":{"android":"levelo://app?vid=99992ce0-e13f-4dee-95af-06d78d23df51","ios":"levelo://app?vid=99992ce0-e13f-4dee-95af-06d78d23df51"},"vehicle_type_id":"4","last_reported":1736716067,"current_range_meters":16400,"station_id":"ce4bhm92rcd13ifvqglg","pricing_plan_id":"cebpf4jnsgd1na2vs0mg"},{"bike_id":"f62a7ed4-7c80-4ed8-9568-a4dea62069d1","system_id":"levelo_inurba_marseille","lat":43.28098,"lon":5.3966,"is_reserved":false,"is_disabled":true,"rental_uris":{"android":"levelo://app?vid=f62a7ed4-7c80-4ed8-9568-a4dea62069d1","ios":"levelo://app?vid=f62a7ed4-7c80-4ed8-9568-a4dea62069d1"},"vehicle_type_id":"4","last_reported":1736716067,"current_range_meters":31200,"station_id":"ce4bho12rcd13ifvqh2g","pricing_plan_id":"cebpf4jnsgd1na2vs0mg"},{"bike_id":"03b94243-127a-448d-8cdb-252c5ac30a68","system_id":"levelo_inurba_marseille","lat":43.280326,"lon":5.369542,"is_reserved":false,"is_disabled":false,"rental_uris":{"android":"levelo://app?vid=03b94243-127a-448d-8cdb-252c5ac30a68","ios":"levelo://app?vid=03b94243-127a-448d-8cdb-252c5ac30a68"},"vehicle_type_id":"4","last_reported":1736716067,"current_range_meters":19200,"station_id":"ce4bha12rcd13ifvqef0","pricing_plan_id":"cebpf4jnsgd1na2vs0mg"},{"bike_id":"1e7c742b-39ca-4ae0-91a9-818e36d7a2df","system_id":"levelo_inurba_marseille","lat":43.27618,"lon":5.36111,"is_reserved":false,"is_disabled":false,"rental_uris":{"android":"levelo://app?vid=1e7c742b-39ca-4ae0-91a9-818e36d7a2df","ios":"levelo://app?vid=1e7c742b-39ca-4ae0-91a9-818e36d7a2df"},"vehicle_type_id":"4","last_reported":1736716067,"current_range_meters":38400,"station_id":"ce4bgj92rcd13ifvqbe0","pricing_plan_id":"cebpf4jnsgd1na2vs0mg"},{"bike_id":"0e19202f-6922-49da-ae77-73894f707993","system_id":"levelo_inurba_marseille","lat":43.26961,"lon":5.38635,"is_reserved":false,"is_disabled":false,"rental_uris":{"android":"levelo://app?vid=0e19202f-6922-49da-ae77-73894f707993","ios":"levelo://app?vid=0e19202f-6922-49da-ae77-73894f707993"},"vehicle_type_id":"4","last_reported":1736716067,"current_range_meters":9600,"station_id":"ce4bhh92rcd13ifvqfh0","pricing_plan_id":"cebpf4jnsgd1na2vs0mg"},{"bike_id":"d42aab63-4108-4300-bb76-e14a653ba056","system_id":"levelo_inurba_marseille","lat":43.28002,"lon":5.40008,"is_reserved":false,"is_disabled":false,"rental_uris":{"android":"levelo://app?vid=d42aab63-4108-4300-bb76-e14a653ba056","ios":"levelo://app?vid=d42aab63-4108-4300-bb76-e14a653ba056"},"vehicle_type_id":"4","last_reported":1736716067,"current_range_meters":38400,"station_id":"","pricing_plan_id":"cebpf4jnsgd1na2vs0mg"},{"bike_id":"a600f163-9520-4043-bbca-7e042ce60e39","system_id":"levelo_inurba_marseille","lat":43.28608,"lon":5.351,"is_reserved":false,"is_disabled":false,"rental_uris":{"android":"levelo://app?vid=a600f163-9520-4043-bbca-7e042ce60e39","ios":"levelo://app?vid=a600f163-9520-4043-bbca-7e042ce60e39"},"vehicle_type_id":"4","last_reported":1736716067,"current_range_meters":27200,"station_id":"ce4bhch2rcd13ifvqeug","pricing_plan_id":"cebpf4jnsgd1na2vs0mg"},{"bike_id":"c2e5882c-9534-45b1-aa11-5e0732057d5e","system_id":"levelo_inurba_marseille","lat":43.32339,"lon":5.40617,"is_reserved":false,"is_disabled":false,"rental_uris":{"android":"levelo://app?vid=c2e5882c-9534-45b1-aa11-5e0732057d5e","ios":"levelo://app?vid=c2e5882c-9534-45b1-aa11-5e0732057d5e"},"vehicle_type_id":"4","last_reported":1736716067,"current_range_meters":27200,"station_id":"ce4bhq92rcd13ifvqhjg","pricing_plan_id":"cebpf4jnsgd1na2vs0mg"},{"bike_id":"10dcc16b-d0f4-480b-b945-d6a41dd285d6","system_id":"levelo_inurba_marseille","lat":43.2808,"lon":5.3962,"is_reserved":false,"is_disabled":false,"rental_uris":{"android":"levelo://app?vid=10dcc16b-d0f4-480b-b945-d6a41dd285d6","ios":"levelo://app?vid=10dcc16b-d0f4-480b-b945-d6a41dd285d6"},"vehicle_type_id":"4","last_reported":1736716067,"current_range_meters":38800,"station_id":"ce4bho12rcd13ifvqh2g","pricing_plan_id":"cebpf4jnsgd1na2vs0mg"},{"bike_id":"31240ca4-9f64-4406-9c52-14b4354e548c","system_id":"levelo_inurba_marseille","lat":43.2862,"lon":5.35116,"is_reserved":false,"is_disabled":false,"rental_uris":{"android":"levelo://app?vid=31240ca4-9f64-4406-9c52-14b4354e548c","ios":"levelo://app?vid=31240ca4-9f64-4406-9c52-14b4354e548c"},"vehicle_type_id":"4","last_reported":1736716067,"current_range_meters":36400,"station_id":"ce4bhch2rcd13ifvqeug","pricing_plan_id":"cebpf4jnsgd1na2vs0mg"},{"bike_id":"089a04ef-15a2-4c09-98ee-41fc60bacc6d","system_id":"levelo_inurba_marseille","lat":43.32474,"lon":5.36569,"is_reserved":false,"is_disabled":true,"rental_uris":{"android":"levelo://app?vid=089a04ef-15a2-4c09-98ee-41fc60bacc6d","ios":"levelo://app?vid=089a04ef-15a2-4c09-98ee-41fc60bacc6d"},"vehicle_type_id":"4","last_reported":1736716067,"current_range_meters":800,"station_id":"ce4bhs12rcd13ifvqhvg","pricing_plan_id":"cebpf4jnsgd1na2vs0mg"},{"bike_id":"d9b042e2-bbf3-47bf-851f-426caf4d0e01","system_id":"levelo_inurba_marseille","lat":43.24806,"lon":5.37442,"is_reserved":false,"is_disabled":false,"rental_uris":{"android":"levelo://app?vid=d9b042e2-bbf3-47bf-851f-426caf4d0e01","ios":"levelo://app?vid=d9b042e2-bbf3-47bf-851f-426caf4d0e01"},"vehicle_type_id":"4","last_reported":1736716067,"current_range_meters":36800,"station_id":"ce4bhgh2rcd13ifvqfb0","pricing_plan_id":"cebpf4jnsgd1na2vs0mg"},{"bike_id":"712fb1ac-a49b-4a1d-bf83-b2682dda137c","system_id":"levelo_inurba_marseille","lat":43.30458,"lon":5.36952,"is_reserved":false,"is_disabled":true,"rental_uris":{"android":"levelo://app?vid=712fb1ac-a49b-4a1d-bf83-b2682dda137c","ios":"levelo://app?vid=712fb1ac-a49b-4a1d-bf83-b2682dda137c"},"vehicle_type_id":"4","last_reported":1736716067,"current_range_meters":36800,"station_id":"","pricing_plan_id":"cebpf4jnsgd1na2vs0mg"},{"bike_id":"1e2223a2-c032-49e7-8dbf-982df86a0520","system_id":"levelo_inurba_marseille","lat":43.22921,"lon":5.35367,"is_reserved":false,"is_disabled":false,"rental_uris":{"android":"levelo://app?vid=1e2223a2-c032-49e7-8dbf-982df86a0520","ios":"levelo://app?vid=1e2223a2-c032-49e7-8dbf-982df86a0520"},"vehicle_type_id":"4","last_reported":1736716067,"current_range_meters":23200,"station_id":"cpo3532slgdg3j2ikp40","pricing_plan_id":"cebpf4jnsgd1na2vs0mg"},{"bike_id":"36a6d3ac-2892-4139-9df6-63a46f5f1e49","system_id":"levelo_inurba_marseille","lat":43.27957,"lon":5.38708,"is_reserved":false,"is_disabled":false,"rental_uris":{"android":"levelo://app?vid=36a6d3ac-2892-4139-9df6-63a46f5f1e49","ios":"levelo://app?vid=36a6d3ac-2892-4139-9df6-63a46f5f1e49"},"vehicle_type_id":"4","last_reported":1736716067,"current_range_meters":38000,"station_id":"ce4bhg12rcd13ifvqf80","pricing_plan_id":"cebpf4jnsgd1na2vs0mg"},{"bike_id":"866a84e6-55eb-4cf7-83be-ddaea4f36c43","system_id":"levelo_inurba_marseille","lat":43.30787,"lon":5.37635,"is_reserved":false,"is_disabled":false,"rental_uris":{"android":"levelo://app?vid=866a84e6-55eb-4cf7-83be-ddaea4f36c43","ios":"levelo://app?vid=866a84e6-55eb-4cf7-83be-ddaea4f36c43"},"vehicle_type_id":"4","last_reported":1736716067,"current_range_meters":37600,"station_id":"ce4bgv92rcd13ifvqcq0","pricing_plan_id":"cebpf4jnsgd1na2vs0mg"},{"bike_id":"5f2cf356-122a-4d24-85ba-e38bc4612223","system_id":"levelo_inurba_marseille","lat":43.255945,"lon":5.38242,"is_reserved":false,"is_disabled":true,"rental_uris":{"android":"levelo://app?vid=5f2cf356-122a-4d24-85ba-e38bc4612223","ios":"levelo://app?vid=5f2cf356-122a-4d24-85ba-e38bc4612223"},"vehicle_type_id":"4","last_reported":1736716067,"current_range_meters":27600,"station_id":"ce4bhih2rcd13ifvqfs0","pricing_plan_id":"cebpf4jnsgd1na2vs0mg"},{"bike_id":"b8a97936-c691-4bee-8419-75296869be94","system_id":"levelo_inurba_marseille","lat":43.24645,"lon":5.38884,"is_reserved":false,"is_disabled":false,"rental_uris":{"android":"levelo://app?vid=b8a97936-c691-4bee-8419-75296869be94","ios":"levelo://app?vid=b8a97936-c691-4bee-8419-75296869be94"},"vehicle_type_id":"4","last_reported":1736716067,"current_range_meters":36000,"station_id":"ce4bhg12rcd13ifvqf60","pricing_plan_id":"cebpf4jnsgd1na2vs0mg"},{"bike_id":"a3225dc0-bdbb-4a40-8361-a3b1964a939b","system_id":"levelo_inurba_marseille","lat":43.28461,"lon":5.35892,"is_reserved":false,"is_disabled":false,"rental_uris":{"android":"levelo://app?vid=a3225dc0-bdbb-4a40-8361-a3b1964a939b","ios":"levelo://app?vid=a3225dc0-bdbb-4a40-8361-a3b1964a939b"},"vehicle_type_id":"4","last_reported":1736716067,"current_range_meters":25600,"station_id":"ce4bhah2rcd13ifvqei0","pricing_plan_id":"cebpf4jnsgd1na2vs0mg"},{"bike_id":"3b0c7591-c1f3-412f-9181-cb82602a89ed","system_id":"levelo_inurba_marseille","lat":43.24814,"lon":5.37452,"is_reserved":false,"is_disabled":true,"rental_uris":{"android":"levelo://app?vid=3b0c7591-c1f3-412f-9181-cb82602a89ed","ios":"levelo://app?vid=3b0c7591-c1f3-412f-9181-cb82602a89ed"},"vehicle_type_id":"4","last_reported":1736716067,"current_range_meters":12400,"station_id":"ce4bhgh2rcd13ifvqfb0","pricing_plan_id":"cebpf4jnsgd1na2vs0mg"},{"bike_id":"39c3c4a5-d4ec-4fce-95db-3823db8f6b82","system_id":"levelo_inurba_marseille","lat":43.25723,"lon":5.41129,"is_reserved":false,"is_disabled":false,"rental_uris":{"android":"levelo://app?vid=39c3c4a5-d4ec-4fce-95db-3823db8f6b82","ios":"levelo://app?vid=39c3c4a5-d4ec-4fce-95db-3823db8f6b82"},"vehicle_type_id":"4","last_reported":1736716067,"current_range_meters":30000,"station_id":"ce4bhkp2rcd13ifvqgd0","pricing_plan_id":"cebpf4jnsgd1na2vs0mg"},{"bike_id":"09e93d9e-a4ef-4921-8513-13ce262e0a6e","system_id":"levelo_inurba_marseille","lat":43.28412,"lon":5.37515,"is_reserved":false,"is_disabled":false,"rental_uris":{"android":"levelo://app?vid=09e93d9e-a4ef-4921-8513-13ce262e0a6e","ios":"levelo://app?vid=09e93d9e-a4ef-4921-8513-13ce262e0a6e"},"vehicle_type_id":"4","last_reported":1736716067,"current_range_meters":16400,"station_id":"ce4bh412rcd13ifvqds0","pricing_plan_id":"cebpf4jnsgd1na2vs0mg"},{"bike_id":"31da96ca-e1e6-4732-a0d7-af1d318fe026","system_id":"levelo_inurba_marseille","lat":43.32115,"lon":5.3679,"is_reserved":false,"is_disabled":true,"rental_uris":{"android":"levelo://app?vid=31da96ca-e1e6-4732-a0d7-af1d318fe026","ios":"levelo://app?vid=31da96ca-e1e6-4732-a0d7-af1d318fe026"},"vehicle_type_id":"4","last_reported":1736716067,"current_range_meters":1200,"station_id":"ce4bhrh2rcd13ifvqhug","pricing_plan_id":"cebpf4jnsgd1na2vs0mg"},{"bike_id":"8242826e-ab20-43ea-95c1-e76b426a119e","system_id":"levelo_inurba_marseille","lat":43.33773,"lon":5.37431,"is_reserved":false,"is_disabled":false,"rental_uris":{"android":"levelo://app?vid=8242826e-ab20-43ea-95c1-e76b426a119e","ios":"levelo://app?vid=8242826e-ab20-43ea-95c1-e76b426a119e"},"vehicle_type_id":"4","last_reported":1736716067,"current_range_meters":14000,"station_id":"","pricing_plan_id":"cebpf4jnsgd1na2vs0mg"},{"bike_id":"57f5a8a9-f2e5-4673-966d-ca04b8d8c8e6","system_id":"levelo_inurba_marseille","lat":43.311249,"lon":5.377618,"is_reserved":false,"is_disabled":true,"rental_uris":{"android":"levelo://app?vid=57f5a8a9-f2e5-4673-966d-ca04b8d8c8e6","ios":"levelo://app?vid=57f5a8a9-f2e5-4673-966d-ca04b8d8c8e6"},"vehicle_type_id":"4","last_reported":1736716067,"current_range_meters":0,"station_id":"ce4bgt92rcd13ifvqcg0","pricing_plan_id":"cebpf4jnsgd1na2vs0mg"},{"bike_id":"41922604-c7b8-4e93-9da5-3903771d7233","system_id":"levelo_inurba_marseille","lat":43.24808,"lon":5.37456,"is_reserved":false,"is_disabled":false,"rental_uris":{"android":"levelo://app?vid=41922604-c7b8-4e93-9da5-3903771d7233","ios":"levelo://app?vid=41922604-c7b8-4e93-9da5-3903771d7233"},"vehicle_type_id":"4","last_reported":1736716067,"current_range_meters":28800,"station_id":"ce4bhgh2rcd13ifvqfb0","pricing_plan_id":"cebpf4jnsgd1na2vs0mg"},{"bike_id":"c327d484-c524-4142-9386-6268c4e1d223","system_id":"levelo_inurba_marseille","lat":43.2558,"lon":5.38245,"is_reserved":false,"is_disabled":false,"rental_uris":{"android":"levelo://app?vid=c327d484-c524-4142-9386-6268c4e1d223","ios":"levelo://app?vid=c327d484-c524-4142-9386-6268c4e1d223"},"vehicle_type_id":"4","last_reported":1736716067,"current_range_meters":23200,"station_id":"ce4bhih2rcd13ifvqfs0","pricing_plan_id":"cebpf4jnsgd1na2vs0mg"},{"bike_id":"9343157b-1c2d-4548-bf4c-6991e6c0cdde","system_id":"levelo_inurba_marseille","lat":43.29775,"lon":5.37103,"is_reserved":false,"is_disabled":true,"rental_uris":{"android":"levelo://app?vid=9343157b-1c2d-4548-bf4c-6991e6c0cdde","ios":"levelo://app?vid=9343157b-1c2d-4548-bf4c-6991e6c0cdde"},"vehicle_type_id":"4","last_reported":1736716067,"current_range_meters":25600,"station_id":"ce4bgop2rcd13ifvqc1g","pricing_plan_id":"cebpf4jnsgd1na2vs0mg"},{"bike_id":"aaf3f6b7-f236-4e99-bb71-a97dcb0f43c5","system_id":"levelo_inurba_marseille","lat":43.2893,"lon":5.3638,"is_reserved":false,"is_disabled":false,"rental_uris":{"android":"levelo://app?vid=aaf3f6b7-f236-4e99-bb71-a97dcb0f43c5","ios":"levelo://app?vid=aaf3f6b7-f236-4e99-bb71-a97dcb0f43c5"},"vehicle_type_id":"4","last_reported":1736716067,"current_range_meters":38400,"station_id":"ce4bhc92rcd13ifvqetg","pricing_plan_id":"cebpf4jnsgd1na2vs0mg"},{"bike_id":"32c90ba2-5929-4979-83ac-f1d40da4ed14","system_id":"levelo_inurba_marseille","lat":43.29416,"lon":5.3861,"is_reserved":false,"is_disabled":false,"rental_uris":{"android":"levelo://app?vid=32c90ba2-5929-4979-83ac-f1d40da4ed14","ios":"levelo://app?vid=32c90ba2-5929-4979-83ac-f1d40da4ed14"},"vehicle_type_id":"4","last_reported":1736716067,"current_range_meters":39200,"station_id":"ce4bh2h2rcd13ifvqdh0","pricing_plan_id":"cebpf4jnsgd1na2vs0mg"},{"bike_id":"d2bbc322-c5dc-4e28-a125-041672fd9f51","system_id":"levelo_inurba_marseille","lat":43.29256,"lon":5.40913,"is_reserved":false,"is_disabled":false,"rental_uris":{"android":"levelo://app?vid=d2bbc322-c5dc-4e28-a125-041672fd9f51","ios":"levelo://app?vid=d2bbc322-c5dc-4e28-a125-041672fd9f51"},"vehicle_type_id":"4","last_reported":1736716067,"current_range_meters":38400,"station_id":"ce4bh192rcd13ifvqdc0","pricing_plan_id":"cebpf4jnsgd1na2vs0mg"},{"bike_id":"6f8d5613-68e8-453b-9903-0b6c2da05e2d","system_id":"levelo_inurba_marseille","lat":43.24131,"lon":5.36428,"is_reserved":false,"is_disabled":false,"rental_uris":{"android":"levelo://app?vid=6f8d5613-68e8-453b-9903-0b6c2da05e2d","ios":"levelo://app?vid=6f8d5613-68e8-453b-9903-0b6c2da05e2d"},"vehicle_type_id":"4","last_reported":1736716067,"current_range_meters":35600,"station_id":"cpo36qri1sfpv3e86is0","pricing_plan_id":"cebpf4jnsgd1na2vs0mg"},{"bike_id":"04d788bf-6a1e-4994-a7a2-ad85dcb4ea1c","system_id":"levelo_inurba_marseille","lat":43.2668,"lon":5.38297,"is_reserved":false,"is_disabled":false,"rental_uris":{"android":"levelo://app?vid=04d788bf-6a1e-4994-a7a2-ad85dcb4ea1c","ios":"levelo://app?vid=04d788bf-6a1e-4994-a7a2-ad85dcb4ea1c"},"vehicle_type_id":"4","last_reported":1736716067,"current_range_meters":39200,"station_id":"ce4bhg92rcd13ifvqf90","pricing_plan_id":"cebpf4jnsgd1na2vs0mg"},{"bike_id":"cf11e11e-1e8b-42f7-a7ea-4ab24cbbde4c","system_id":"levelo_inurba_marseille","lat":43.28603,"lon":5.35121,"is_reserved":false,"is_disabled":false,"rental_uris":{"android":"levelo://app?vid=cf11e11e-1e8b-42f7-a7ea-4ab24cbbde4c","ios":"levelo://app?vid=cf11e11e-1e8b-42f7-a7ea-4ab24cbbde4c"},"vehicle_type_id":"4","last_reported":1736716067,"current_range_meters":32000,"station_id":"ce4bhch2rcd13ifvqeug","pricing_plan_id":"cebpf4jnsgd1na2vs0mg"},{"bike_id":"33237082-5092-47f9-96d3-b2969e00ba7c","system_id":"levelo_inurba_marseille","lat":43.30301,"lon":5.3922,"is_reserved":false,"is_disabled":false,"rental_uris":{"android":"levelo://app?vid=33237082-5092-47f9-96d3-b2969e00ba7c","ios":"levelo://app?vid=33237082-5092-47f9-96d3-b2969e00ba7c"},"vehicle_type_id":"4","last_reported":1736716067,"current_range_meters":37600,"station_id":"ce4bgkh2rcd13ifvqbk0","pricing_plan_id":"cebpf4jnsgd1na2vs0mg"},{"bike_id":"bc730a90-a27e-47a2-9822-5f4b7a3e1682","system_id":"levelo_inurba_marseille","lat":43.31175,"lon":5.38713,"is_reserved":false,"is_disabled":false,"rental_uris":{"android":"levelo://app?vid=bc730a90-a27e-47a2-9822-5f4b7a3e1682","ios":"levelo://app?vid=bc730a90-a27e-47a2-9822-5f4b7a3e1682"},"vehicle_type_id":"4","last_reported":1736716067,"current_range_meters":36800,"station_id":"ce4bgv12rcd13ifvqcp0","pricing_plan_id":"cebpf4jnsgd1na2vs0mg"},{"bike_id":"85603f95-286b-4848-8682-ec6ae6094237","system_id":"levelo_inurba_marseille","lat":43.27052,"lon":5.40283,"is_reserved":false,"is_disabled":true,"rental_uris":{"android":"levelo://app?vid=85603f95-286b-4848-8682-ec6ae6094237","ios":"levelo://app?vid=85603f95-286b-4848-8682-ec6ae6094237"},"vehicle_type_id":"4","last_reported":1736716067,"current_range_meters":6800,"station_id":"ce4bhk92rcd13ifvqgc0","pricing_plan_id":"cebpf4jnsgd1na2vs0mg"},{"bike_id":"55178c83-e8c1-42d0-85eb-2ae9bbbd47cf","system_id":"levelo_inurba_marseille","lat":43.23193,"lon":5.35552,"is_reserved":false,"is_disabled":false,"rental_uris":{"android":"levelo://app?vid=55178c83-e8c1-42d0-85eb-2ae9bbbd47cf","ios":"levelo://app?vid=55178c83-e8c1-42d0-85eb-2ae9bbbd47cf"},"vehicle_type_id":"4","last_reported":1736716067,"current_range_meters":38800,"station_id":"ce4bhu92rcd13ifvqi70","pricing_plan_id":"cebpf4jnsgd1na2vs0mg"},{"bike_id":"39697b6d-c07a-4dc4-9ba6-d6605b0ed7a5","system_id":"levelo_inurba_marseille","lat":43.29776,"lon":5.37097,"is_reserved":false,"is_disabled":false,"rental_uris":{"android":"levelo://app?vid=39697b6d-c07a-4dc4-9ba6-d6605b0ed7a5","ios":"levelo://app?vid=39697b6d-c07a-4dc4-9ba6-d6605b0ed7a5"},"vehicle_type_id":"4","last_reported":1736716067,"current_range_meters":37600,"station_id":"ce4bgop2rcd13ifvqc1g","pricing_plan_id":"cebpf4jnsgd1na2vs0mg"},{"bike_id":"8b88170d-e695-4530-8583-a66b3ec41a93","system_id":"levelo_inurba_marseille","lat":43.33617,"lon":5.41035,"is_reserved":false,"is_disabled":true,"rental_uris":{"android":"levelo://app?vid=8b88170d-e695-4530-8583-a66b3ec41a93","ios":"levelo://app?vid=8b88170d-e695-4530-8583-a66b3ec41a93"},"vehicle_type_id":"4","last_reported":1736716067,"current_range_meters":7200,"station_id":"ce4bhqh2rcd13ifvqhmg","pricing_plan_id":"cebpf4jnsgd1na2vs0mg"},{"bike_id":"05da1427-11d2-409f-b1a9-8274ceefa2b5","system_id":"levelo_inurba_marseille","lat":43.29262,"lon":5.36831,"is_reserved":false,"is_disabled":true,"rental_uris":{"android":"levelo://app?vid=05da1427-11d2-409f-b1a9-8274ceefa2b5","ios":"levelo://app?vid=05da1427-11d2-409f-b1a9-8274ceefa2b5"},"vehicle_type_id":"4","last_reported":1736716067,"current_range_meters":17200,"station_id":"ce4bhbp2rcd13ifvqesg","pricing_plan_id":"cebpf4jnsgd1na2vs0mg"},{"bike_id":"2211369a-3f40-4e40-b721-b459b94deb61","system_id":"levelo_inurba_marseille","lat":43.28467,"lon":5.35884,"is_reserved":false,"is_disabled":false,"rental_uris":{"android":"levelo://app?vid=2211369a-3f40-4e40-b721-b459b94deb61","ios":"levelo://app?vid=2211369a-3f40-4e40-b721-b459b94deb61"},"vehicle_type_id":"4","last_reported":1736716067,"current_range_meters":38800,"station_id":"ce4bhah2rcd13ifvqei0","pricing_plan_id":"cebpf4jnsgd1na2vs0mg"},{"bike_id":"b8acbba0-a715-4ced-a2aa-0517db10ac9d","system_id":"levelo_inurba_marseille","lat":43.22936,"lon":5.35375,"is_reserved":false,"is_disabled":true,"rental_uris":{"android":"levelo://app?vid=b8acbba0-a715-4ced-a2aa-0517db10ac9d","ios":"levelo://app?vid=b8acbba0-a715-4ced-a2aa-0517db10ac9d"},"vehicle_type_id":"4","last_reported":1736716067,"current_range_meters":30000,"station_id":"cpo3532slgdg3j2ikp40","pricing_plan_id":"cebpf4jnsgd1na2vs0mg"},{"bike_id":"eb1cee18-fac1-4553-aaa5-a6615f869166","system_id":"levelo_inurba_marseille","lat":43.25869,"lon":5.39892,"is_reserved":false,"is_disabled":false,"rental_uris":{"android":"levelo://app?vid=eb1cee18-fac1-4553-aaa5-a6615f869166","ios":"levelo://app?vid=eb1cee18-fac1-4553-aaa5-a6615f869166"},"vehicle_type_id":"4","last_reported":1736716067,"current_range_meters":32000,"station_id":"ce4bhl92rcd13ifvqghg","pricing_plan_id":"cebpf4jnsgd1na2vs0mg"},{"bike_id":"518e714b-a45a-4e1c-84e7-45f24560bd2a","system_id":"levelo_inurba_marseille","lat":43.30434,"lon":5.38891,"is_reserved":false,"is_disabled":false,"rental_uris":{"android":"levelo://app?vid=518e714b-a45a-4e1c-84e7-45f24560bd2a","ios":"levelo://app?vid=518e714b-a45a-4e1c-84e7-45f24560bd2a"},"vehicle_type_id":"4","last_reported":1736716067,"current_range_meters":20800,"station_id":"ce4bgk12rcd13ifvqbi0","pricing_plan_id":"cebpf4jnsgd1na2vs0mg"},