{"last_updated":1713989297,"ttl":30,"version":"2.2","data":{"bikes":[{"bike_id":"5e0bf358-5de4-4275-99a0-c038adc104fa","system_id":"levelo_inurba_marseille","lat":43.313391,"lon":5.36706,"is_reserved":false,"is_disabled":false,"rental_uris":{"android":"levelo://app?vid=5e0bf358-5de4-4275-99a0-c038adc104fa","ios":"levelo://app?vid=5e0bf358-5de4-4275-99a0-c038adc104fa"},"vehicle_type_id":"4","last_reported":1713989297,"current_range_meters":24800,"station_id":"ce4bgr92rcd13ifvqc6g","pricing_plan_id":"cebpf4jnsgd1na2vs0mg"},{"bike_id":"02993b33-9962-4813-9c40-46d0337c08d8","system_id":"levelo_inurba_marseille","lat":43.312239,"lon":5.368562,"is_reserved":false,"is_disabled":false,"rental_uris":{"android":"levelo://app?vid=02993b33-9962-4813-9c40-46d0337c08d8","ios":"levelo://app?vid=02993b33-9962-4813-9c40-46d0337c08d8"},"vehicle_type_id":"4","last_reported":1713989297,"current_range_meters":18000,"station_id":"ce4bgl92rcd13ifvqbq0","pricing_plan_id":"cebpf4jnsgd1na2vs0mg"},{"bike_id":"ff79872b-ab28-4db6-93c0-1b704efd5db4","system_id":"levelo_inurba_marseille","lat":43.31221,"lon":5.36856,"is_reserved":false,"is_disabled":false,"rental_uris":{"android":"levelo://app?vid=ff79872b-ab28-4db6-93c0-1b704efd5db4","ios":"levelo://app?vid=ff79872b-ab28-4db6-93c0-1b704efd5db4"},"vehicle_type_id":"4","last_reported":1713989297,"current_range_meters":10800,"station_id":"ce4bgl92rcd13ifvqbq0","pricing_plan_id":"cebpf4jnsgd1na2vs0mg"},{"bike_id":"2e726618-ca76-4bcd-ad4d-04895cc21036","system_id":"levelo_inurba_marseille","lat":43.311722,"lon":5.387247,"is_reserved":false,"is_disabled":false,"rental_uris":{"android":"levelo://app?vid=2e726618-ca76-4bcd-ad4d-04895cc21036","ios":"levelo://app?vid=2e726618-ca76-4bcd-ad4d-04895cc21036"},"vehicle_type_id":"4","last_reported":1713989297,"current_range_meters":19600,"station_id":"ce4bgv12rcd13ifvqcp0","pricing_plan_id":"cebpf4jnsgd1na2vs0mg"},{"bike_id":"6abeeaaa-2f51-48b1-afdf-682fafeb3165","system_id":"levelo_inurba_marseille","lat":43.314811,"lon":5.373103,"is_reserved":false,"is_disabled":false,"rental_uris":{"android":"levelo://app?vid=6abeeaaa-2f51-48b1-afdf-682fafeb3165","ios":"levelo://app?vid=6abeeaaa-2f51-48b1-afdf-682fafeb3165"},"vehicle_type_id":"4","last_reported":1713989297,"current_range_meters":21200,"station_id":"ce4bgt12rcd13ifvqcd0","pricing_plan_id":"cebpf4jnsgd1na2vs0mg"},{"bike_id":"5419c4b2-bbe5-485c-959f-0b865ab3fd83","system_id":"levelo_inurba_marseille","lat":43.31485,"lon":5.37304,"is_reserved":false,"is_disabled":false,"rental_uris":{"android":"levelo://app?vid=5419c4b2-bbe5-485c-959f-0b865ab3fd83","ios":"levelo://app?vid=5419c4b2-bbe5-485c-959f-0b865ab3fd83"},"vehicle_type_id":"4","last_reported":1713989297,"current_range_meters":6800,"station_id":"ce4bgt12rcd13ifvqcd0","pricing_plan_id":"cebpf4jnsgd1na2vs0mg"},{"bike_id":"84d68076-9274-4e19-956c-b2bdc3a60016","system_id":"levelo_inurba_marseille","lat":43.31486,"lon":5.37309,"is_reserved":false,"is_disabled":false,"rental_uris":{"android":"levelo://app?vid=84d68076-9274-4e19-956c-b2bdc3a60016","ios":"levelo://app?vid=84d68076-9274-4e19-956c-b2bdc3a60016"},"vehicle_type_id":"4","last_reported":1713989297,"current_range_meters":24000,"station_id":"ce4bgt12rcd13ifvqcd0","pricing_plan_id":"cebpf4jnsgd1na2vs0mg"},{"bike_id":"437524e8-3f02-4830-8557-ba8a9c770987","system_id":"levelo_inurba_marseille","lat":43.314811,"lon":5.373104,"is_reserved":false,"is_disabled":false,"rental_uris":{"android":"levelo://app?vid=437524e8-3f02-4830-8557-ba8a9c770987","ios":"levelo://app?vid=437524e8-3f02-4830-8557-ba8a9c770987"},"vehicle_type_id":"4","last_reported":1713989297,"current_range_meters":16400,"station_id":"ce4bgt12rcd13ifvqcd0","pricing_plan_id":"cebpf4jnsgd1na2vs0mg"},{"bike_id":"293ece86-e8c4-4810-bafb-aad4466398e3","system_id":"levelo_inurba_marseille","lat":43.309039,"lon":5.371797,"is_reserved":false,"is_disabled":false,"rental_uris":{"android":"levelo://app?vid=293ece86-e8c4-4810-bafb-aad4466398e3","ios":"levelo://app?vid=293ece86-e8c4-4810-bafb-aad4466398e3"},"vehicle_type_id":"4","last_reported":1713989297,"current_range_meters":5200,"station_id":"ce4bguh2rcd13ifvqckg","pricing_plan_id":"cebpf4jnsgd1na2vs0mg"},{"bike_id":"4f26c88f-4090-4b98-a3ef-1fd2998a5ec6","system_id":"levelo_inurba_marseille","lat":43.305368,"lon":5.367343,"is_reserved":false,"is_disabled":false,"rental_uris":{"android":"levelo://app?vid=4f26c88f-4090-4b98-a3ef-1fd2998a5ec6","ios":"levelo://app?vid=4f26c88f-4090-4b98-a3ef-1fd2998a5ec6"},"vehicle_type_id":"4","last_reported":1713989297,"current_range_meters":9600,"station_id":"ce4bgrp2rcd13ifvqc9g","pricing_plan_id":"cebpf4jnsgd1na2vs0mg"},{"bike_id":"235663ae-95ce-4db7-ba5b-b0e938efd3a0","system_id":"levelo_inurba_marseille","lat":43.305368,"lon":5.367343,"is_reserved":false,"is_disabled":false,"rental_uris":{"android":"levelo://app?vid=235663ae-95ce-4db7-ba5b-b0e938efd3a0","ios":"levelo://app?vid=235663ae-95ce-4db7-ba5b-b0e938efd3a0"},"vehicle_type_id":"4","last_reported":1713989297,"current_range_meters":16400,"station_id":"ce4bgrp2rcd13ifvqc9g","pricing_plan_id":"cebpf4jnsgd1na2vs0mg"},{"bike_id":"c139d1d9-7776-47aa-b4a0-858159d62c6c","system_id":"levelo_inurba_marseille","lat":43.30537,"lon":5.367345,"is_reserved":false,"is_disabled":false,"rental_uris":{"android":"levelo://app?vid=c139d1d9-7776-47aa-b4a0-858159d62c6c","ios":"levelo://app?vid=c139d1d9-7776-47aa-b4a0-858159d62c6c"},"vehicle_type_id":"4","last_reported":1713989297,"current_range_meters":29600,"station_id":"ce4bgrp2rcd13ifvqc9g","pricing_plan_id":"cebpf4jnsgd1na2vs0mg"},{"bike_id":"3016269b-434a-4a75-9c8a-67eb43d19be7","system_id":"levelo_inurba_marseille","lat":43.305368,"lon":5.367343,"is_reserved":false,"is_disabled":false,"rental_uris":{"android":"levelo://app?vid=3016269b-434a-4a75-9c8a-67eb43d19be7","ios":"levelo://app?vid=3016269b-434a-4a75-9c8a-67eb43d19be7"},"vehicle_type_id":"4","last_reported":1713989297,"current_range_meters":9200,"station_id":"ce4bgrp2rcd13ifvqc9g","pricing_plan_id":"cebpf4jnsgd1na2vs0mg"},{"bike_id":"b08193da-278f-4248-8b36-27bfb46c680f","system_id":"levelo_inurba_marseille","lat":43.292724,"lon":5.401131,"is_reserved":false,"is_disabled":false,"rental_uris":{"android":"levelo://app?vid=b08193da-278f-4248-8b36-27bfb46c680f","ios":"levelo://app?vid=b08193da-278f-4248-8b36-27bfb46c680f"},"vehicle_type_id":"4","last_reported":1713989297,"current_range_meters":24400,"station_id":"ce4bh312rcd13ifvqdk0","pricing_plan_id":"cebpf4jnsgd1na2vs0mg"},{"bike_id":"fee52274-a714-4f52-862a-0483568799b5","system_id":"levelo_inurba_marseille","lat":43.305989,"lon":5.37225,"is_reserved":false,"is_disabled":false,"rental_uris":{"android":"levelo://app?vid=fee52274-a714-4f52-862a-0483568799b5","ios":"levelo://app?vid=fee52274-a714-4f52-862a-0483568799b5"},"vehicle_type_id":"4","last_reported":1713989297,"current_range_meters":3200,"station_id":"ce4bgqh2rcd13ifvqc4g","pricing_plan_id":"cebpf4jnsgd1na2vs0mg"},{"bike_id":"84c453da-0ef8-4ff1-9706-1b11c69f9a78","system_id":"levelo_inurba_marseille","lat":43.305989,"lon":5.37225,"is_reserved":false,"is_disabled":false,"rental_uris":{"android":"levelo://app?vid=84c453da-0ef8-4ff1-9706-1b11c69f9a78","ios":"levelo://app?vid=84c453da-0ef8-4ff1-9706-1b11c69f9a78"},"vehicle_type_id":"4","last_reported":1713989297,"current_range_meters":10800,"station_id":"ce4bgqh2rcd13ifvqc4g","pricing_plan_id":"cebpf4jnsgd1na2vs0mg"},{"bike_id":"2bb8d3aa-8487-4501-b036-b55872452b02","system_id":"levelo_inurba_marseille","lat":43.305989,"lon":5.37225,"is_reserved":false,"is_disabled":false,"rental_uris":{"android":"levelo://app?vid=2bb8d3aa-8487-4501-b036-b55872452b02","ios":"levelo://app?vid=2bb8d3aa-8487-4501-b036-b55872452b02"},"vehicle_type_id":"4","last_reported":1713989297,"current_range_meters":10400,"station_id":"ce4bgqh2rcd13ifvqc4g","pricing_plan_id":"cebpf4jnsgd1na2vs0mg"},{"bike_id":"c1217256-b2bd-43a7-999d-9a11379460b8","system_id":"levelo_inurba_marseille","lat":43.311125,"lon":5.377624,"is_reserved":false,"is_disabled":false,"rental_uris":{"android":"levelo://app?vid=c1217256-b2bd-43a7-999d-9a11379460b8","ios":"levelo://app?vid=c1217256-b2bd-43a7-999d-9a11379460b8"},"vehicle_type_id":"4","last_reported":1713989297,"current_range_meters":3600,"station_id":"ce4bgt92rcd13ifvqcg0","pricing_plan_id":"cebpf4jnsgd1na2vs0mg"},{"bike_id":"34b64aa0-5eff-4930-af6e-eadebded19fa","system_id":"levelo_inurba_marseille","lat":43.292571,"lon":5.409107,"is_reserved":false,"is_disabled":false,"rental_uris":{"android":"levelo://app?vid=34b64aa0-5eff-4930-af6e-eadebded19fa","ios":"levelo://app?vid=34b64aa0-5eff-4930-af6e-eadebded19fa"},"vehicle_type_id":"4","last_reported":1713989297,"current_range_meters":7600,"station_id":"ce4bh192rcd13ifvqdc0","pricing_plan_id":"cebpf4jnsgd1na2vs0mg"},{"bike_id":"83518d4f-0ff6-46f7-91ea-bafe8695db82","system_id":"levelo_inurba_marseille","lat":43.307945,"lon":5.376487,"is_reserved":false,"is_disabled":false,"rental_uris":{"android":"levelo://app?vid=83518d4f-0ff6-46f7-91ea-bafe8695db82","ios":"levelo://app?vid=83518d4f-0ff6-46f7-91ea-bafe8695db82"},"vehicle_type_id":"4","last_reported":1713989297,"current_range_meters":15200,"station_id":"ce4bgv92rcd13ifvqcq0","pricing_plan_id":"cebpf4jnsgd1na2vs0mg"},{"bike_id":"7b03d8e1-209b-4d33-8ac1-fdd3a6daf3c2","system_id":"levelo_inurba_marseille","lat":43.317075,"lon":5.377367,"is_reserved":false,"is_disabled":false,"rental_uris":{"android":"levelo://app?vid=7b03d8e1-209b-4d33-8ac1-fdd3a6daf3c2","ios":"levelo://app?vid=7b03d8e1-209b-4d33-8ac1-fdd3a6daf3c2"},"vehicle_type_id":"4","last_reported":1713989297,"current_range_meters":15200,"station_id":"ce4bgth2rcd13ifvqch0","pricing_plan_id":"cebpf4jnsgd1na2vs0mg"},{"bike_id":"c0f6efc7-9010-4fc7-b148-2fbe5ea2ec1f","system_id":"levelo_inurba_marseille","lat":43.317075,"lon":5.377367,"is_reserved":false,"is_disabled":false,"rental_uris":{"android":"levelo://app?vid=c0f6efc7-9010-4fc7-b148-2fbe5ea2ec1f","ios":"levelo://app?vid=c0f6efc7-9010-4fc7-b148-2fbe5ea2ec1f"},"vehicle_type_id":"4","last_reported":1713989297,"current_range_meters":31200,"station_id":"ce4bgth2rcd13ifvqch0","pricing_plan_id":"cebpf4jnsgd1na2vs0mg"},{"bike_id":"dc162553-50bd-488c-b904-2af0c8a74aec","system_id":"levelo_inurba_marseille","lat":43.317075,"lon":5.377367,"is_reserved":false,"is_disabled":false,"rental_uris":{"android":"levelo://app?vid=dc162553-50bd-488c-b904-2af0c8a74aec","ios":"levelo://app?vid=dc162553-50bd-488c-b904-2af0c8a74aec"},"vehicle_type_id":"4","last_reported":1713989297,"current_range_meters":10000,"station_id":"ce4bgth2rcd13ifvqch0","pricing_plan_id":"cebpf4jnsgd1na2vs0mg"},{"bike_id":"d34f0ed8-5f7d-4862-b15e-cfc9df7ca58b","system_id":"levelo_inurba_marseille","lat":43.303046,"lon":5.368981,"is_reserved":false,"is_disabled":false,"rental_uris":{"android":"levelo://app?vid=d34f0ed8-5f7d-4862-b15e-cfc9df7ca58b","ios":"levelo://app?vid=d34f0ed8-5f7d-4862-b15e-cfc9df7ca58b"},"vehicle_type_id":"4","last_reported":1713989297,"current_range_meters":10800,"station_id":"ce4bgqh2rcd13ifvqc5g","pricing_plan_id":"cebpf4jnsgd1na2vs0mg"},{"bike_id":"f453999c-be3c-4322-aa13-3c05171c03d3","system_id":"levelo_inurba_marseille","lat":43.303046,"lon":5.368981,"is_reserved":false,"is_disabled":false,"rental_uris":{"android":"levelo://app?vid=f453999c-be3c-4322-aa13-3c05171c03d3","ios":"levelo://app?vid=f453999c-be3c-4322-aa13-3c05171c03d3"},"vehicle_type_id":"4","last_reported":1713989297,"current_range_meters":10400,"station_id":"ce4bgqh2rcd13ifvqc5g","pricing_plan_id":"cebpf4jnsgd1na2vs0mg"},{"bike_id":"93bbd5a1-5b98-40ed-b0fd-dd17c227467c","system_id":"levelo_inurba_marseille","lat":43.303046,"lon":5.368981,"is_reserved":false,"is_disabled":false,"rental_uris":{"android":"levelo://app?vid=93bbd5a1-5b98-40ed-b0fd-dd17c227467c","ios":"levelo://app?vid=93bbd5a1-5b98-40ed-b0fd-dd17c227467c"},"vehicle_type_id":"4","last_reported":1713989297,"current_range_meters":20000,"station_id":"ce4bgqh2rcd13ifvqc5g","pricing_plan_id":"cebpf4jnsgd1na2vs0mg"},{"bike_id":"c2e1bbf5-063b-48f4-81da-0c1d8e4b6928","system_id":"levelo_inurba_marseille","lat":43.315289,"lon":5.380349,"is_reserved":false,"is_disabled":false,"rental_uris":{"android":"levelo://app?vid=c2e1bbf5-063b-48f4-81da-0c1d8e4b6928","ios":"levelo://app?vid=c2e1bbf5-063b-48f4-81da-0c1d8e4b6928"},"vehicle_type_id":"4","last_reported":1713989297,"current_range_meters":16400,"station_id":"ce4bhsp2rcd13ifvqi50","pricing_plan_id":"cebpf4jnsgd1na2vs0mg"},{"bike_id":"f82abc93-8401-4d4c-b760-b35ce10d19a1","system_id":"levelo_inurba_marseille","lat":43.315293,"lon":5.380349,"is_reserved":false,"is_disabled":false,"rental_uris":{"android":"levelo://app?vid=f82abc93-8401-4d4c-b760-b35ce10d19a1","ios":"levelo://app?vid=f82abc93-8401-4d4c-b760-b35ce10d19a1"},"vehicle_type_id":"4","last_reported":1713989297,"current_range_meters":31600,"station_id":"ce4bhsp2rcd13ifvqi50","pricing_plan_id":"cebpf4jnsgd1na2vs0mg"},{"bike_id":"98bf3e86-aa0a-447a-91be-940394f7a5fe","system_id":"levelo_inurba_marseille","lat":43.315293,"lon":5.380349,"is_reserved":false,"is_disabled":false,"rental_uris":{"android":"levelo://app?vid=98bf3e86-aa0a-447a-91be-940394f7a5fe","ios":"levelo://app?vid=98bf3e86-aa0a-447a-91be-940394f7a5fe"},"vehicle_type_id":"4","last_reported":1713989297,"current_range_meters":25200,"station_id":"ce4bhsp2rcd13ifvqi50","pricing_plan_id":"cebpf4jnsgd1na2vs0mg"},{"bike_id":"559a85c8-65c9-49ee-8292-fd18b6c71438","system_id":"levelo_inurba_marseille","lat":43.315289,"lon":5.380349,"is_reserved":false,"is_disabled":false,"rental_uris":{"android":"levelo://app?vid=559a85c8-65c9-49ee-8292-fd18b6c71438","ios":"levelo://app?vid=559a85c8-65c9-49ee-8292-fd18b6c71438"},"vehicle_type_id":"4","last_reported":1713989297,"current_range_meters":20400,"station_id":"ce4bhsp2rcd13ifvqi50","pricing_plan_id":"cebpf4jnsgd1na2vs0mg"},{"bike_id":"517f0b86-ada3-417d-bb74-c02a8a6ac9d7","system_id":"levelo_inurba_marseille","lat":43.315293,"lon":5.380349,"is_reserved":false,"is_disabled":false,"rental_uris":{"android":"levelo://app?vid=517f0b86-ada3-417d-bb74-c02a8a6ac9d7","ios":"levelo://app?vid=517f0b86-ada3-417d-bb74-c02a8a6ac9d7"},"vehicle_type_id":"4","last_reported":1713989297,"current_range_meters":17600,"station_id":"ce4bhsp2rcd13ifvqi50","pricing_plan_id":"cebpf4jnsgd1na2vs0mg"},{"bike_id":"c2d25dd9-29ba-4496-8ab5-07ac2a0a7441","system_id":"levelo_inurba_marseille","lat":43.315293,"lon":5.380349,"is_reserved":false,"is_disabled":false,"rental_uris":{"android":"levelo://app?vid=c2d25dd9-29ba-4496-8ab5-07ac2a0a7441","ios":"levelo://app?vid=c2d25dd9-29ba-4496-8ab5-07ac2a0a7441"},"vehicle_type_id":"4","last_reported":1713989297,"current_range_meters":20400,"station_id":"ce4bhsp2rcd13ifvqi50","pricing_plan_id":"cebpf4jnsgd1na2vs0mg"},{"bike_id":"5489bf8c-597d-4ac4-a858-f7c4175d9494","system_id":"levelo_inurba_marseille","lat":43.302237,"lon":5.367445,"is_reserved":false,"is_disabled":false,"rental_uris":{"android":"levelo://app?vid=5489bf8c-597d-4ac4-a858-f7c4175d9494","ios":"levelo://app?vid=5489bf8c-597d-4ac4-a858-f7c4175d9494"},"vehicle_type_id":"4","last_reported":1713989297,"current_range_meters":3200,"station_id":"ce4bgrh2rcd13ifvqc8g","pricing_plan_id":"cebpf4jnsgd1na2vs0mg"},{"bike_id":"c2c2708c-1911-4977-a64f-b0fc556c58f9","system_id":"levelo_inurba_marseille","lat":43.301939,"lon":5.366286,"is_reserved":false,"is_disabled":false,"rental_uris":{"android":"levelo://app?vid=c2c2708c-1911-4977-a64f-b0fc556c58f9","ios":"levelo://app?vid=c2c2708c-1911-4977-a64f-b0fc556c58f9"},"vehicle_type_id":"4","last_reported":1713989297,"current_range_meters":26800,"station_id":"ce4bgrh2rcd13ifvqc8g","pricing_plan_id":"cebpf4jnsgd1na2vs0mg"},{"bike_id":"5778d5e9-4243-412d-bd6b-380143f972a3","system_id":"levelo_inurba_marseille","lat":43.301939,"lon":5.366286,"is_reserved":false,"is_disabled":false,"rental_uris":{"android":"levelo://app?vid=5778d5e9-4243-412d-bd6b-380143f972a3","ios":"levelo://app?vid=5778d5e9-4243-412d-bd6b-380143f972a3"},"vehicle_type_id":"4","last_reported":1713989297,"current_range_meters":28400,"station_id":"ce4bgrh2rcd13ifvqc8g","pricing_plan_id":"cebpf4jnsgd1na2vs0mg"},{"bike_id":"55fda1f9-8cd6-4edb-b283-6d72747791f6","system_id":"levelo_inurba_marseille","lat":43.308012,"lon":5.381511,"is_reserved":false,"is_disabled":false,"rental_uris":{"android":"levelo://app?vid=55fda1f9-8cd6-4edb-b283-6d72747791f6","ios":"levelo://app?vid=55fda1f9-8cd6-4edb-b283-6d72747791f6"},"vehicle_type_id":"4","last_reported":1713989297,"current_range_meters":26400,"station_id":"ce4bgt12rcd13ifvqce0","pricing_plan_id":"cebpf4jnsgd1na2vs0mg"},{"bike_id":"4e361820-13f4-49d6-b8ed-2e2c4b4e5acc","system_id":"levelo_inurba_marseille","lat":43.304606,"lon":5.379026,"is_reserved":false,"is_disabled":false,"rental_uris":{"android":"levelo://app?vid=4e361820-13f4-49d6-b8ed-2e2c4b4e5acc","ios":"levelo://app?vid=4e361820-13f4-49d6-b8ed-2e2c4b4e5acc"},"vehicle_type_id":"4","last_reported":1713989297,"current_range_meters":0,"station_id":"ce4bgup2rcd13ifvqcn0","pricing_plan_id":"cebpf4jnsgd1na2vs0mg"},{"bike_id":"57123f3b-0f3e-4e36-8d01-f70e6d005086","system_id":"levelo_inurba_marseille","lat":43.324771,"lon":5.36557,"is_reserved":false,"is_disabled":false,"rental_uris":{"android":"levelo://app?vid=57123f3b-0f3e-4e36-8d01-f70e6d005086","ios":"levelo://app?vid=57123f3b-0f3e-4e36-8d01-f70e6d005086"},"vehicle_type_id":"4","last_reported":1713989297,"current_range_meters":0,"station_id":"ce4bhs12rcd13ifvqhvg","pricing_plan_id":"cebpf4jnsgd1na2vs0mg"},{"bike_id":"88e4d71b-b1d6-495c-825f-44dfbf1ca746","system_id":"levelo_inurba_marseille","lat":43.324771,"lon":5.36557,"is_reserved":false,"is_disabled":false,"rental_uris":{"android":"levelo://app?vid=88e4d71b-b1d6-495c-825f-44dfbf1ca746","ios":"levelo://app?vid=88e4d71b-b1d6-495c-825f-44dfbf1ca746"},"vehicle_type_id":"4","last_reported":1713989297,"current_range_meters":23600,"station_id":"ce4bhs12rcd13ifvqhvg","pricing_plan_id":"cebpf4jnsgd1na2vs0mg"},{"bike_id":"48791681-48d0-4948-be97-7a720fbe1e98","system_id":"levelo_inurba_marseille","lat":43.324771,"lon":5.36557,"is_reserved":false,"is_disabled":false,"rental_uris":{"android":"levelo://app?vid=48791681-48d0-4948-be97-7a720fbe1e98","ios":"levelo://app?vid=48791681-48d0-4948-be97-7a720fbe1e98"},"vehicle_type_id":"4","last_reported":1713989297,"current_range_meters":2000,"station_id":"ce4bhs12rcd13ifvqhvg","pricing_plan_id":"cebpf4jnsgd1na2vs0mg"},{"bike_id":"dea28083-d92d-4f3b-9f85-66961a9dcc09","system_id":"levelo_inurba_marseille","lat":43.310715,"lon":5.38356,"is_reserved":false,"is_disabled":false,"rental_uris":{"android":"levelo://app?vid=dea28083-d92d-4f3b-9f85-66961a9dcc09","ios":"levelo://app?vid=dea28083-d92d-4f3b-9f85-66961a9dcc09"},"vehicle_type_id":"4","last_reported":1713989297,"current_range_meters":0,"station_id":"ce4bgv92rcd13ifvqcr0","pricing_plan_id":"cebpf4jnsgd1na2vs0mg"},{"bike_id":"da38b3fe-7d0a-4add-ad95-8723215f86ff","system_id":"levelo_inurba_marseille","lat":43.302863,"lon":5.376979,"is_reserved":false,"is_disabled":false,"rental_uris":{"android":"levelo://app?vid=da38b3fe-7d0a-4add-ad95-8723215f86ff","ios":"levelo://app?vid=da38b3fe-7d0a-4add-ad95-8723215f86ff"},"vehicle_type_id":"4","last_reported":1713989297,"current_range_meters":0,"station_id":"ce4bguh2rcd13ifvqcj0","pricing_plan_id":"cebpf4jnsgd1na2vs0mg"},{"bike_id":"22378714-76c2-46f0-9619-bdbeae4cd8df","system_id":"levelo_inurba_marseille","lat":43.319935,"lon":5.381699,"is_reserved":false,"is_disabled":false,"rental_uris":{"android":"levelo://app?vid=22378714-76c2-46f0-9619-bdbeae4cd8df","ios":"levelo://app?vid=22378714-76c2-46f0-9619-bdbeae4cd8df"},"vehicle_type_id":"4","last_reported":1713989297,"current_range_meters":23600,"station_id":"ce4bhr12rcd13ifvqhpg","pricing_plan_id":"cebpf4jnsgd1na2vs0mg"},{"bike_id":"f32e6373-e07a-49e0-90c2-0eb2ebdb2f77","system_id":"levelo_inurba_marseille","lat":43.31358,"lon":5.38492,"is_reserved":false,"is_disabled":false,"rental_uris":{"android":"levelo://app?vid=f32e6373-e07a-49e0-90c2-0eb2ebdb2f77","ios":"levelo://app?vid=f32e6373-e07a-49e0-90c2-0eb2ebdb2f77"},"vehicle_type_id":"4","last_reported":1713989297,"current_range_meters":800,"station_id":"ce4bgt92rcd13ifvqcf0","pricing_plan_id":"cebpf4jnsgd1na2vs0mg"},{"bike_id":"0d298d88-138b-469f-b4e2-ca91f165c25e","system_id":"levelo_inurba_marseille","lat":43.31361,"lon":5.38502,"is_reserved":false,"is_disabled":false,"rental_uris":{"android":"levelo://app?vid=0d298d88-138b-469f-b4e2-ca91f165c25e","ios":"levelo://app?vid=0d298d88-138b-469f-b4e2-ca91f165c25e"},"vehicle_type_id":"4","last_reported":1713989297,"current_range_meters":19200,"station_id":"ce4bgt92rcd13ifvqcf0","pricing_plan_id":"cebpf4jnsgd1na2vs0mg"},{"bike_id":"39ba2e1c-a45d-457a-a570-79f8bece37d3","system_id":"levelo_inurba_marseille","lat":43.29937,"lon":5.36538,"is_reserved":false,"is_disabled":false,"rental_uris":{"android":"levelo://app?vid=39ba2e1c-a45d-457a-a570-79f8bece37d3","ios":"levelo://app?vid=39ba2e1c-a45d-457a-a570-79f8bece37d3"},"vehicle_type_id":"4","last_reported":1713989297,"current_range_meters":0,"station_id":"ce4bgm92rcd13ifvqbr0","pricing_plan_id":"cebpf4jnsgd1na2vs0mg"},{"bike_id":"abaa0f05-1697-4088-a8fd-c6351a33acb1","system_id":"levelo_inurba_marseille","lat":43.299797,"lon":5.371786,"is_reserved":false,"is_disabled":false,"rental_uris":{"android":"levelo://app?vid=abaa0f05-1697-4088-a8fd-c6351a33acb1","ios":"levelo://app?vid=abaa0f05-1697-4088-a8fd-c6351a33acb1"},"vehicle_type_id":"4","last_reported":1713989297,"current_range_meters":25600,"station_id":"ce4bgr92rcd13ifvqc7g","pricing_plan_id":"cebpf4jnsgd1na2vs0mg"},{"bike_id":"68e37c25-05d0-4359-96fd-6ffb568ac954","system_id":"levelo_inurba_marseille","lat":43.299222,"lon":5.365554,"is_reserved":false,"is_disabled":false,"rental_uris":{"android":"levelo://app?vid=68e37c25-05d0-4359-96fd-6ffb568ac954","ios":"levelo://app?vid=68e37c25-05d0-4359-96fd-6ffb568ac954"},"vehicle_type_id":"4","last_reported":1713989297,"current_range_meters":12400,"station_id":"ce4bgm92rcd13ifvqbr0","pricing_plan_id":"cebpf4jnsgd1na2vs0mg"},{"bike_id":"611b25c5-36d8-45f8-86e7-2cfbfef14812","system_id":"levelo_inurba_marseille","lat":43.2999,"lon":5.3742,"is_reserved":false,"is_disabled":false,"rental_uris":{"android":"levelo://app?vid=611b25c5-36d8-45f8-86e7-2cfbfef14812","ios":"levelo://app?vid=611b25c5-36d8-45f8-86e7-2cfbfef14812"},"vehicle_type_id":"4","last_reported":1713989297,"current_range_meters":24400,"station_id":"","pricing_plan_id":"cebpf4jnsgd1na2vs0mg"},{"bike_id":"d5604663-bcaa-49e7-9731-72195026b858","system_id":"levelo_inurba_marseille","lat":43.298433,"lon":5.362774,"is_reserved":false,"is_disabled":false,"rental_uris":{"android":"levelo://app?vid=d5604663-bcaa-49e7-9731-72195026b858","ios":"levelo://app?vid=d5604663-bcaa-49e7-9731-72195026b858"},"vehicle_type_id":"4","last_reported":1713989297,"current_range_meters":26000,"station_id":"ce4bgpp2rcd13ifvqc3g","pricing_plan_id":"cebpf4jnsgd1na2vs0mg"},{"bike_id":"ad0b7891-0970-4ca5-b4b2-808fad6764e5","system_id":"levelo_inurba_marseille","lat":43.298433,"lon":5.362774,"is_reserved":false,"is_disabled":false,"rental_uris":{"android":"levelo://app?vid=ad0b7891-0970-4ca5-b4b2-808fad6764e5","ios":"levelo://app?vid=ad0b7891-0970-4ca5-b4b2-808fad6764e5"},"vehicle_type_id":"4","last_reported":1713989297,"current_range_meters":25600,"station_id":"ce4bgpp2rcd13ifvqc3g","pricing_plan_id":"cebpf4jnsgd1na2vs0mg"},{"bike_id":"57e4318d-3e67-486c-a8fb-219e417975f3","system_id":"levelo_inurba_marseille","lat":43.298433,"lon":5.362774,"is_reserved":false,"is_disabled":false,"rental_uris":{"android":"levelo://app?vid=57e4318d-3e67-486c-a8fb-219e417975f3","ios":"levelo://app?vid=57e4318d-3e67-486c-a8fb-219e417975f3"},"vehicle_type_id":"4","last_reported":1713989297,"current_range_meters":24400,"station_id":"ce4bgpp2rcd13ifvqc3g","pricing_plan_id":"cebpf4jnsgd1na2vs0mg"},{"bike_id":"ee4e380c-e186-4873-8f9b-6de69256a39e","system_id":"levelo_inurba_marseille","lat":43.298433,"lon":5.362774,"is_reserved":false,"is_disabled":false,"rental_uris":{"android":"levelo://app?vid=ee4e380c-e186-4873-8f9b-6de69256a39e","ios":"levelo://app?vid=ee4e380c-e186-4873-8f9b-6de69256a39e"},"vehicle_type_id":"4","last_reported":1713989297,"current_range_meters":8400,"station_id":"ce4bgpp2rcd13ifvqc3g","pricing_plan_id":"cebpf4jnsgd1na2vs0mg"},{"bike_id":"3c676b94-145a-4f04-99d2-1787ae481272","system_id":"levelo_inurba_marseille","lat":43.311863,"lon":5.387065,"is_reserved":false,"is_disabled":false,"rental_uris":{"android":"levelo://app?vid=3c676b94-145a-4f04-99d2-1787ae481272","ios":"levelo://app?vid=3c676b94-145a-4f04-99d2-1787ae481272"},"vehicle_type_id":"4","last_reported":1713989297,"current_range_meters":25600,"station_id":"ce4bgt92rcd13ifvqcf0","pricing_plan_id":"cebpf4jnsgd1na2vs0mg"},{"bike_id":"30a3f0a3-488f-46a1-b160-3786f1bb69da","system_id":"levelo_inurba_marseille","lat":43.311722,"lon":5.387247,"is_reserved":false,"is_disabled":false,"rental_uris":{"android":"levelo://app?vid=30a3f0a3-488f-46a1-b160-3786f1bb69da","ios":"levelo://app?vid=30a3f0a3-488f-46a1-b160-3786f1bb69da"},"vehicle_type_id":"4","last_reported":1713989297,"current_range_meters":8400,"station_id":"ce4bgv12rcd13ifvqcp0","pricing_plan_id":"cebpf4jnsgd1na2vs0mg"},{"bike_id":"8338d596-6680-498d-a3d4-fd9a6d3882db","system_id":"levelo_inurba_marseille","lat":43.311722,"lon":5.387247,"is_reserved":false,"is_disabled":false,"rental_uris":{"android":"levelo://app?vid=8338d596-6680-498d-a3d4-fd9a6d3882db","ios":"levelo://app?vid=8338d596-6680-498d-a3d4-fd9a6d3882db"},"vehicle_type_id":"4","last_reported":1713989297,"current_range_meters":7200,"station_id":"ce4bgv12rcd13ifvqcp0","pricing_plan_id":"cebpf4jnsgd1na2vs0mg"},{"bike_id":"1154c9ce-9427-4b30-8a01-55a4771e362c","system_id":"levelo_inurba_marseille","lat":43.31211,"lon":5.38744,"is_reserved":false,"is_disabled":false,"rental_uris":{"android":"levelo://app?vid=1154c9ce-9427-4b30-8a01-55a4771e362c","ios":"levelo://app?vid=1154c9ce-9427-4b30-8a01-55a4771e362c"},"vehicle_type_id":"4","last_reported":1713989297,"current_range_meters":4400,"station_id":"","pricing_plan_id":"cebpf4jnsgd1na2vs0mg"},{"bike_id":"16c8ebfc-0181-4ddc-93c9-9cecb1ab875c","system_id":"levelo_inurba_marseille","lat":43.322872,"lon":5.382756,"is_reserved":false,"is_disabled":false,"rental_uris":{"android":"levelo://app?vid=16c8ebfc-0181-4ddc-93c9-9cecb1ab875c","ios":"levelo://app?vid=16c8ebfc-0181-4ddc-93c9-9cecb1ab875c"},"vehicle_type_id":"4","last_reported":1713989297,"current_range_meters":5200,"station_id":"ce4bhr12rcd13ifvqhqg","pricing_plan_id":"cebpf4jnsgd1na2vs0mg"},{"bike_id":"501882ab-f3f1-4055-a5f0-2af0d2546ab9","system_id":"levelo_inurba_marseille","lat":43.322872,"lon":5.382756,"is_reserved":false,"is_disabled":false,"rental_uris":{"android":"levelo://app?vid=501882ab-f3f1-4055-a5f0-2af0d2546ab9","ios":"levelo://app?vid=501882ab-f3f1-4055-a5f0-2af0d2546ab9"},"vehicle_type_id":"4","last_reported":1713989297,"current_range_meters":13600,"station_id":"ce4bhr12rcd13ifvqhqg","pricing_plan_id":"cebpf4jnsgd1na2vs0mg"},{"bike_id":"97162b9b-ad98-4f36-a9a9-89f73ee2c0c3","system_id":"levelo_inurba_marseille","lat":43.297163,"lon":5.365866,"is_reserved":false,"is_disabled":false,"rental_uris":{"android":"levelo://app?vid=97162b9b-ad98-4f36-a9a9-89f73ee2c0c3","ios":"levelo://app?vid=97162b9b-ad98-4f36-a9a9-89f73ee2c0c3"},"vehicle_type_id":"4","last_reported":1713989297,"current_range_meters":29200,"station_id":"ce4bgn12rcd13ifvqbt0","pricing_plan_id":"cebpf4jnsgd1na2vs0mg"},{"bike_id":"9395eae6-f7c2-4b9e-a578-25aabde145c9","system_id":"levelo_inurba_marseille","lat":43.297163,"lon":5.365866,"is_reserved":false,"is_disabled":false,"rental_uris":{"android":"levelo://app?vid=9395eae6-f7c2-4b9e-a578-25aabde145c9","ios":"levelo://app?vid=9395eae6-f7c2-4b9e-a578-25aabde145c9"},"vehicle_type_id":"4","last_reported":1713989297,"current_range_meters":3600,"station_id":"ce4bgn12rcd13ifvqbt0","pricing_plan_id":"cebpf4jnsgd1na2vs0mg"},{"bike_id":"9b9365e5-7e7c-4d39-9089-fab60774a284","system_id":"levelo_inurba_marseille","lat":43.297163,"lon":5.365866,"is_reserved":false,"is_disabled":false,"rental_uris":{"android":"levelo://app?vid=9b9365e5-7e7c-4d39-9089-fab60774a284","ios":"levelo://app?vid=9b9365e5-7e7c-4d39-9089-fab60774a284"},"vehicle_type_id":"4","last_reported":1713989297,"current_range_meters":12400,"station_id":"ce4bgn12rcd13ifvqbt0","pricing_plan_id":"cebpf4jnsgd1na2vs0mg"},{"bike_id":"c6258ab0-69ba-48db-a03a-3c2437a768eb","system_id":"levelo_inurba_marseille","lat":43.297163,"lon":5.365866,"is_reserved":false,"is_disabled":false,"rental_uris":{"android":"levelo://app?vid=c6258ab0-69ba-48db-a03a-3c2437a768eb","ios":"levelo://app?vid=c6258ab0-69ba-48db-a03a-3c2437a768eb"},"vehicle_type_id":"4","last_reported":1713989297,"current_range_meters":13200,"station_id":"ce4bgn12rcd13ifvqbt0","pricing_plan_id":"cebpf4jnsgd1na2vs0mg"},{"bike_id":"90b1af75-1d73-4e18-b5a1-db44d5244b95","system_id":"levelo_inurba_marseille","lat":43.297163,"lon":5.365866,"is_reserved":false,"is_disabled":false,"rental_uris":{"android":"levelo://app?vid=90b1af75-1d73-4e18-b5a1-db44d5244b95","ios":"levelo://app?vid=90b1af75-1d73-4e18-b5a1-db44d5244b95"},"vehicle_type_id":"4","last_reported":1713989297,"current_range_meters":24000,"station_id":"ce4bgn12rcd13ifvqbt0","pricing_plan_id":"cebpf4jnsgd1na2vs0mg"},{"bike_id":"91939d26-f9c9-48cb-974e-e58e2ba81c0c","system_id":"levelo_inurba_marseille","lat":43.297163,"lon":5.365866,"is_reserved":false,"is_disabled":false,"rental_uris":{"android":"levelo://app?vid=91939d26-f9c9-48cb-974e-e58e2ba81c0c","ios":"levelo://app?vid=91939d26-f9c9-48cb-974e-e58e2ba81c0c"},"vehicle_type_id":"4","last_reported":1713989297,"current_range_meters":24800,"station_id":"ce4bgn12rcd13ifvqbt0","pricing_plan_id":"cebpf4jnsgd1na2vs0mg"},{"bike_id":"55dae2f5-606b-4baa-b8a8-64b720d0ce15","system_id":"levelo_inurba_marseille","lat":43.297163,"lon":5.365866,"is_reserved":false,"is_disabled":false,"rental_uris":{"android":"levelo://app?vid=55dae2f5-606b-4baa-b8a8-64b720d0ce15","ios":"levelo://app?vid=55dae2f5-606b-4baa-b8a8-64b720d0ce15"},"vehicle_type_id":"4","last_reported":1713989297,"current_range_meters":25600,"station_id":"ce4bgn12rcd13ifvqbt0","pricing_plan_id":"cebpf4jnsgd1na2vs0mg"},{"bike_id":"6b1b7712-9cd5-4d04-bb19-105666f51836","system_id":"levelo_inurba_marseille","lat":43.297163,"lon":5.365866,"is_reserved":false,"is_disabled":false,"rental_uris":{"android":"levelo://app?vid=6b1b7712-9cd5-4d04-bb19-105666f51836","ios":"levelo://app?vid=6b1b7712-9cd5-4d04-bb19-105666f51836"},"vehicle_type_id":"4","last_reported":1713989297,"current_range_meters":15200,"station_id":"ce4bgn12rcd13ifvqbt0","pricing_plan_id":"cebpf4jnsgd1na2vs0mg"},{"bike_id":"6f884bc2-e372-4b14-8e9e-1aa1f41ffd71","system_id":"levelo_inurba_marseille","lat":43.311036,"lon":5.38883,"is_reserved":false,"is_disabled":false,"rental_uris":{"android":"levelo://app?vid=6f884bc2-e372-4b14-8e9e-1aa1f41ffd71","ios":"levelo://app?vid=6f884bc2-e372-4b14-8e9e-1aa1f41ffd71"},"vehicle_type_id":"4","last_reported":1713989297,"current_range_meters":18800,"station_id":"","pricing_plan_id":"cebpf4jnsgd1na2vs0mg"},{"bike_id":"66e8f54f-4320-43a7-8a92-0070bc3d0b54","system_id":"levelo_inurba_marseille","lat":43.29573,"lon":5.367355,"is_reserved":false,"is_disabled":false,"rental_uris":{"android":"levelo://app?vid=66e8f54f-4320-43a7-8a92-0070bc3d0b54","ios":"levelo://app?vid=66e8f54f-4320-43a7-8a92-0070bc3d0b54"},"vehicle_type_id":"4","last_reported":1713989297,"current_range_meters":25200,"station_id":"ce4bgph2rcd13ifvqc2g","pricing_plan_id":"cebpf4jnsgd1na2vs0mg"},{"bike_id":"653edb9d-ce9a-433d-9403-f9eff8398017","system_id":"levelo_inurba_marseille","lat":43.29583,"lon":5.36747,"is_reserved":false,"is_disabled":false,"rental_uris":{"android":"levelo://app?vid=653edb9d-ce9a-433d-9403-f9eff8398017","ios":"levelo://app?vid=653edb9d-ce9a-433d-9403-f9eff8398017"},"vehicle_type_id":"4","last_reported":1713989297,"current_range_meters":7200,"station_id":"ce4bgph2rcd13ifvqc2g","pricing_plan_id":"cebpf4jnsgd1na2vs0mg"},{"bike_id":"213f5603-4c4a-4287-abee-33ee1525ecb2","system_id":"levelo_inurba_marseille","lat":43.29573,"lon":5.367355,"is_reserved":false,"is_disabled":false,"rental_uris":{"android":"levelo://app?vid=213f5603-4c4a-4287-abee-33ee1525ecb2","ios":"levelo://app?vid=213f5603-4c4a-4287-abee-33ee1525ecb2"},"vehicle_type_id":"4","last_reported":1713989297,"current_range_meters":13600,"station_id":"ce4bgph2rcd13ifvqc2g","pricing_plan_id":"cebpf4jnsgd1na2vs0mg"},{"bike_id":"22ee16ca-a245-4dc1-ad8a-db06da73955c","system_id":"levelo_inurba_marseille","lat":43.295859,"lon":5.368783,"is_reserved":false,"is_disabled":false,"rental_uris":{"android":"levelo://app?vid=22ee16ca-a245-4dc1-ad8a-db06da73955c","ios":"levelo://app?vid=22ee16ca-a245-4dc1-ad8a-db06da73955c"},"vehicle_type_id":"4","last_reported":1713989297,"current_range_meters":7200,"station_id":"","pricing_plan_id":"cebpf4jnsgd1na2vs0mg"},{"bike_id":"81f263a6-0032-478e-967d-66e4a02afb7a","system_id":"levelo_inurba_marseille","lat":43.29573,"lon":5.367355,"is_reserved":false,"is_disabled":false,"rental_uris":{"android":"levelo://app?vid=81f263a6-0032-478e-967d-66e4a02afb7a","ios":"levelo://app?vid=81f263a6-0032-478e-967d-66e4a02afb7a"},"vehicle_type_id":"4","last_reported":1713989297,"current_range_meters":22000,"station_id":"ce4bgph2rcd13ifvqc2g","pricing_plan_id":"cebpf4jnsgd1na2vs0mg"},{"bike_id":"b4aafcce-2e4d-4562-8394-6442850e1c2d","system_id":"levelo_inurba_marseille","lat":43.29573,"lon":5.367355,"is_reserved":false,"is_disabled":false,"rental_uris":{"android":"levelo://app?vid=b4aafcce-2e4d-4562-8394-6442850e1c2d","ios":"levelo://app?vid=b4aafcce-2e4d-4562-8394-6442850e1c2d"},"vehicle_type_id":"4","last_reported":1713989297,"current_range_meters":7600,"station_id":"ce4bgph2rcd13ifvqc2g","pricing_plan_id":"cebpf4jnsgd1na2vs0mg"},{"bike_id":"69435ab6-3da9-4566-a159-57f33309434d","system_id":"levelo_inurba_marseille","lat":43.29912,"lon":5.38149,"is_reserved":false,"is_disabled":false,"rental_uris":{"android":"levelo://app?vid=69435ab6-3da9-4566-a159-57f33309434d","ios":"levelo://app?vid=69435ab6-3da9-4566-a159-57f33309434d"},"vehicle_type_id":"4","last_reported":1713989297,"current_range_meters":8400,"station_id":"ce4bh692rcd13ifvqea0","pricing_plan_id":"cebpf4jnsgd1na2vs0mg"},{"bike_id":"da63389d-69c0-4ddf-bd92-e6a446eeb16b","system_id":"levelo_inurba_marseille","lat":43.299028,"lon":5.381509,"is_reserved":false,"is_disabled":false,"rental_uris":{"android":"levelo://app?vid=da63389d-69c0-4ddf-bd92-e6a446eeb16b","ios":"levelo://app?vid=da63389d-69c0-4ddf-bd92-e6a446eeb16b"},"vehicle_type_id":"4","last_reported":1713989297,"current_range_meters":16800,"station_id":"ce4bgj12rcd13ifvqbc0","pricing_plan_id":"cebpf4jnsgd1na2vs0mg"},{"bike_id":"ff052020-4b31-4f93-9be4-533889cd7220","system_id":"levelo_inurba_marseille","lat":43.297163,"lon":5.365866,"is_reserved":false,"is_disabled":false,"rental_uris":{"android":"levelo://app?vid=ff052020-4b31-4f93-9be4-533889cd7220","ios":"levelo://app?vid=ff052020-4b31-4f93-9be4-533889cd7220"},"vehicle_type_id":"4","last_reported":1713989297,"current_range_meters":21600,"station_id":"ce4bgn12rcd13ifvqbt0","pricing_plan_id":"cebpf4jnsgd1na2vs0mg"},{"bike_id":"f52eb590-7c9d-4ee9-afda-aeb836bdd3dc","system_id":"levelo_inurba_marseille","lat":43.317557,"lon":5.390173,"is_reserved":false,"is_disabled":false,"rental_uris":{"android":"levelo://app?vid=f52eb590-7c9d-4ee9-afda-aeb836bdd3dc","ios":"levelo://app?vid=f52eb590-7c9d-4ee9-afda-aeb836bdd3dc"},"vehicle_type_id":"4","last_reported":1713989297,"current_range_meters":28000,"station_id":"ce4bhqp2rcd13ifvqhng","pricing_plan_id":"cebpf4jnsgd1na2vs0mg"},{"bike_id":"d6213df5-f7f0-489b-9697-46e5867896cc","system_id":"levelo_inurba_marseille","lat":43.317557,"lon":5.390173,"is_reserved":false,"is_disabled":false,"rental_uris":{"android":"levelo://app?vid=d6213df5-f7f0-489b-9697-46e5867896cc","ios":"levelo://app?vid=d6213df5-f7f0-489b-9697-46e5867896cc"},"vehicle_type_id":"4","last_reported":1713989297,"current_range_meters":7600,"station_id":"ce4bhqp2rcd13ifvqhng","pricing_plan_id":"cebpf4jnsgd1na2vs0mg"},{"bike_id":"c007bef9-8802-41bb-8338-c0ddc6a2a353","system_id":"levelo_inurba_marseille","lat":43.317557,"lon":5.390173,"is_reserved":false,"is_disabled":false,"rental_uris":{"android":"levelo://app?vid=c007bef9-8802-41bb-8338-c0ddc6a2a353","ios":"levelo://app?vid=c007bef9-8802-41bb-8338-c0ddc6a2a353"},"vehicle_type_id":"4","last_reported":1713989297,"current_range_meters":13600,"station_id":"ce4bhqp2rcd13ifvqhng","pricing_plan_id":"cebpf4jnsgd1na2vs0mg"},{"bike_id":"009b6dbe-f06a-410e-9507-c1ecba6e1674","system_id":"levelo_inurba_marseille","lat":43.317557,"lon":5.390173,"is_reserved":false,"is_disabled":false,"rental_uris":{"android":"levelo://app?vid=009b6dbe-f06a-410e-9507-c1ecba6e1674","ios":"levelo://app?vid=009b6dbe-f06a-410e-9507-c1ecba6e1674"},"vehicle_type_id":"4","last_reported":1713989297,"current_range_meters":22800,"station_id":"ce4bhqp2rcd13ifvqhng","pricing_plan_id":"cebpf4jnsgd1na2vs0mg"},{"bike_id":"a75fb000-0694-44c5-affd-0dc93610d2c9","system_id":"levelo_inurba_marseille","lat":43.317557,"lon":5.390173,"is_reserved":false,"is_disabled":false,"rental_uris":{"android":"levelo://app?vid=a75fb000-0694-44c5-affd-0dc93610d2c9","ios":"levelo://app?vid=a75fb000-0694-44c5-affd-0dc93610d2c9"},"vehicle_type_id":"4","last_reported":1713989297,"current_range_meters":21200,"station_id":"ce4bhqp2rcd13ifvqhng","pricing_plan_id":"cebpf4jnsgd1na2vs0mg"},{"bike_id":"9e9c126f-aefd-4f6f-a49e-4c6e35ba13eb","system_id":"levelo_inurba_marseille","lat":43.317557,"lon":5.390173,"is_reserved":false,"is_disabled":false,"rental_uris":{"android":"levelo://app?vid=9e9c126f-aefd-4f6f-a49e-4c6e35ba13eb","ios":"levelo://app?vid=9e9c126f-aefd-4f6f-a49e-4c6e35ba13eb"},"vehicle_type_id":"4","last_reported":1713989297,"current_range_meters":13200,"station_id":"ce4bhqp2rcd13ifvqhng","pricing_plan_id":"cebpf4jnsgd1na2vs0mg"},{"bike_id":"3ddd29e4-7600-43e5-b6d0-b2af8c40141a","system_id":"levelo_inurba_marseille","lat":43.317557,"lon":5.390173,"is_reserved":false,"is_disabled":false,"rental_uris":{"android":"levelo://app?vid=3ddd29e4-7600-43e5-b6d0-b2af8c40141a","ios":"levelo://app?vid=3ddd29e4-7600-43e5-b6d0-b2af8c40141a"},"vehicle_type_id":"4","last_reported":1713989297,"current_range_meters":28400,"station_id":"ce4bhqp2rcd13ifvqhng","pricing_plan_id":"cebpf4jnsgd1na2vs0mg"},{"bike_id":"8e8cccfd-3e5f-4762-a870-90b549a32291","system_id":"levelo_inurba_marseille","lat":43.317557,"lon":5.390173,"is_reserved":false,"is_disabled":false,"rental_uris":{"android":"levelo://app?vid=8e8cccfd-3e5f-4762-a870-90b549a32291","ios":"levelo://app?vid=8e8cccfd-3e5f-4762-a870-90b549a32291"},"vehicle_type_id":"4","last_reported":1713989297,"current_range_meters":6800,"station_id":"ce4bhqp2rcd13ifvqhng","pricing_plan_id":"cebpf4jnsgd1na2vs0mg"},{"bike_id":"7cc61156-595f-4e4e-a33e-89f91602f767","system_id":"levelo_inurba_marseille","lat":43.31754,"lon":5.39031,"is_reserved":false,"is_disabled":false,"rental_uris":{"android":"levelo://app?vid=7cc61156-595f-4e4e-a33e-89f91602f767","ios":"levelo://app?vid=7cc61156-595f-4e4e-a33e-89f91602f767"},"vehicle_type_id":"4","last_reported":1713989297,"current_range_meters":12000,"station_id":"ce4bhqp2rcd13ifvqhng","pricing_plan_id":"cebpf4jnsgd1na2vs0mg"},{"bike_id":"1f953467-402c-4bf5-a8ff-e295dbcca753","system_id":"levelo_inurba_marseille","lat":43.304278,"lon":5.388868,"is_reserved":false,"is_disabled":false,"rental_uris":{"android":"levelo://app?vid=1f953467-402c-4bf5-a8ff-e295dbcca753","ios":"levelo://app?vid=1f953467-402c-4bf5-a8ff-e295dbcca753"},"vehicle_type_id":"4","last_reported":1713989297,"current_range_meters":28800,"station_id":"ce4bgk12rcd13ifvqbi0","pricing_plan_id":"cebpf4jnsgd1na2vs0mg"},{"bike_id":"55485012-2a98-4555-b81b-52d235ba695f","system_id":"levelo_inurba_marseille","lat":43.298084,"lon":5.381034,"is_reserved":false,"is_disabled":false,"rental_uris":{"android":"levelo://app?vid=55485012-2a98-4555-b81b-52d235ba695f","ios":"levelo://app?vid=55485012-2a98-4555-b81b-52d235ba695f"},"vehicle_type_id":"4","last_reported":1713989297,"current_range_meters":17200,"station_id":"ce4bgip2rcd13ifvqbb0","pricing_plan_id":"cebpf4jnsgd1na2vs0mg"},{"bike_id":"a6a182f9-55a9-4f2a-861e-ffb5fa524ccd","system_id":"levelo_inurba_marseille","lat":43.29805,"lon":5.38103,"is_reserved":false,"is_disabled":false,"rental_uris":{"android":"levelo://app?vid=a6a182f9-55a9-4f2a-861e-ffb5fa524ccd","ios":"levelo://app?vid=a6a182f9-55a9-4f2a-861e-ffb5fa524ccd"},"vehicle_type_id":"4","last_reported":1713989297,"current_range_meters":0,"station_id":"ce4bgip2rcd13ifvqbb0","pricing_plan_id":"cebpf4jnsgd1na2vs0mg"},{"bike_id":"d76c9d3c-7a85-436e-99a8-0d81fa2077b3","system_id":"levelo_inurba_marseille","lat":43.298037,"lon":5.381066,"is_reserved":false,"is_disabled":false,"rental_uris":{"android":"levelo://app?vid=d76c9d3c-7a85-436e-99a8-0d81fa2077b3","ios":"levelo://app?vid=d76c9d3c-7a85-436e-99a8-0d81fa2077b3"},"vehicle_type_id":"4","last_reported":1713989297,"current_range_meters":31200,"station_id":"ce4bgip2rcd13ifvqbb0","pricing_plan_id":"cebpf4jnsgd1na2vs0mg"},{"bike_id":"3fe14f1c-b70c-4a66-8704-6e3e7444f610","system_id":"levelo_inurba_marseille","lat":43.298007,"lon":5.381014,"is_reserved":false,"is_disabled":false,"rental_uris":{"android":"levelo://app?vid=3fe14f1c-b70c-4a66-8704-6e3e7444f610","ios":"levelo://app?vid=3fe14f1c-b70c-4a66-8704-6e3e7444f610"},"vehicle_type_id":"4","last_reported":1713989297,"current_range_meters":19600,"station_id":"ce4bgip2rcd13ifvqbb0","pricing_plan_id":"cebpf4jnsgd1na2vs0mg"},{"bike_id":"b9ea30e1-2ca8-404b-a9b7-e21fb67e22ff","system_id":"levelo_inurba_marseille","lat":43.298002,"lon":5.381005,"is_reserved":false,"is_disabled":false,"rental_uris":{"android":"levelo://app?vid=b9ea30e1-2ca8-404b-a9b7-e21fb67e22ff","ios":"levelo://app?vid=b9ea30e1-2ca8-404b-a9b7-e21fb67e22ff"},"vehicle_type_id":"4","last_reported":1713989297,"current_range_meters":29600,"station_id":"ce4bgip2rcd13ifvqbb0","pricing_plan_id":"cebpf4jnsgd1na2vs0mg"},{"bike_id":"dcdd3633-b5df-4586-bcb1-f8d41821a6c3","system_id":"levelo_inurba_marseille","lat":43.298037,"lon":5.381066,"is_reserved":false,"is_disabled":false,"rental_uris":{"android":"levelo://app?vid=dcdd3633-b5df-4586-bcb1-f8d41821a6c3","ios":"levelo://app?vid=dcdd3633-b5df-4586-bcb1-f8d41821a6c3"},"vehicle_type_id":"4","last_reported":1713989297,"current_range_meters":31200,"station_id":"ce4bgip2rcd13ifvqbb0","pricing_plan_id":"cebpf4jnsgd1na2vs0mg"},{"bike_id":"f48c3646-610e-4350-8aea-fb454c338566","system_id":"levelo_inurba_marseille","lat":43.287154,"lon":5.399979,"is_reserved":false,"is_disabled":false,"rental_uris":{"android":"levelo://app?vid=f48c3646-610e-4350-8aea-fb454c338566","ios":"levelo://app?vid=f48c3646-610e-4350-8aea-fb454c338566"},"vehicle_type_id":"4","last_reported":1713989297,"current_range_meters":3600,"station_id":"ce4bho92rcd13ifvqh3g","pricing_plan_id":"cebpf4jnsgd1na2vs0mg"},{"bike_id":"c3a56c2b-bd49-48cd-876a-68c47efea700","system_id":"levelo_inurba_marseille","lat":43.29796,"lon":5.38108,"is_reserved":false,"is_disabled":false,"rental_uris":{"android":"levelo://app?vid=c3a56c2b-bd49-48cd-876a-68c47efea700","ios":"levelo://app?vid=c3a56c2b-bd49-48cd-876a-68c47efea700"},"vehicle_type_id":"4","last_reported":1713989297,"current_range_meters":8800,"station_id":"ce4bgip2rcd13ifvqbb0","pricing_plan_id":"cebpf4jnsgd1na2vs0mg"},{"bike_id":"2c8bfcb1-5f5d-40c4-8360-fe9969099080","system_id":"levelo_inurba_marseille","lat":43.297907,"lon":5.380996,"is_reserved":false,"is_disabled":false,"rental_uris":{"android":"levelo://app?vid=2c8bfcb1-5f5d-40c4-8360-fe9969099080","ios":"levelo://app?vid=2c8bfcb1-5f5d-40c4-8360-fe9969099080"},"vehicle_type_id":"4","last_reported":1713989297,"current_range_meters":0,"station_id":"ce4bgip2rcd13ifvqbb0","pricing_plan_id":"cebpf4jnsgd1na2vs0mg"},{"bike_id":"5f62c17b-16f3-411f-ba92-7221779a8c93","system_id":"levelo_inurba_marseille","lat":43.297809,"lon":5.381,"is_reserved":false,"is_disabled":false,"rental_uris":{"android":"levelo://app?vid=5f62c17b-16f3-411f-ba92-7221779a8c93","ios":"levelo://app?vid=5f62c17b-16f3-411f-ba92-7221779a8c93"},"vehicle_type_id":"4","last_reported":1713989297,"current_range_meters":25600,"station_id":"ce4bgip2rcd13ifvqbb0","pricing_plan_id":"cebpf4jnsgd1na2vs0mg"},{"bike_id":"7c2a91fc-05f5-4b35-a38b-f694233c531f","system_id":"levelo_inurba_marseille","lat":43.304274,"lon":5.388873,"is_reserved":false,"is_disabled":false,"rental_uris":{"android":"levelo://app?vid=7c2a91fc-05f5-4b35-a38b-f694233c531f","ios":"levelo://app?vid=7c2a91fc-05f5-4b35-a38b-f694233c531f"},"vehicle_type_id":"4","last_reported":1713989297,"current_range_meters":28800,"station_id":"ce4bgk12rcd13ifvqbi0","pricing_plan_id":"cebpf4jnsgd1na2vs0mg"},{"bike_id":"349ac97a-a881-44cb-91bb-3afe60047d8c","system_id":"levelo_inurba_marseille","lat":43.30426,"lon":5.38896,"is_reserved":false,"is_disabled":false,"rental_uris":{"android":"levelo://app?vid=349ac97a-a881-44cb-91bb-3afe60047d8c","ios":"levelo://app?vid=349ac97a-a881-44cb-91bb-3afe60047d8c"},"vehicle_type_id":"4","last_reported":1713989297,"current_range_meters":5600,"station_id":"ce4bgk12rcd13ifvqbi0","pricing_plan_id":"cebpf4jnsgd1na2vs0mg"},{"bike_id":"f676db58-0dcf-4c6e-a9e2-464b9f59c2a4","system_id":"levelo_inurba_marseille","lat":43.29786,"lon":5.38119,"is_reserved":false,"is_disabled":false,"rental_uris":{"android":"levelo://app?vid=f676db58-0dcf-4c6e-a9e2-464b9f59c2a4","ios":"levelo://app?vid=f676db58-0dcf-4c6e-a9e2-464b9f59c2a4"},"vehicle_type_id":"4","last_reported":1713989297,"current_range_meters":26400,"station_id":"ce4bgip2rcd13ifvqbb0","pricing_plan_id":"cebpf4jnsgd1na2vs0mg"},{"bike_id":"9f1925b0-ee98-4501-956d-8bfa9afc7a8a","system_id":"levelo_inurba_marseille","lat":43.297759,"lon":5.381043,"is_reserved":false,"is_disabled":false,"rental_uris":{"android":"levelo://app?vid=9f1925b0-ee98-4501-956d-8bfa9afc7a8a","ios":"levelo://app?vid=9f1925b0-ee98-4501-956d-8bfa9afc7a8a"},"vehicle_type_id":"4","last_reported":1713989297,"current_range_meters":6000,"station_id":"ce4bgip2rcd13ifvqbb0","pricing_plan_id":"cebpf4jnsgd1na2vs0mg"},{"bike_id":"28fc27b0-66b4-4407-a892-d668b5662ab2","system_id":"levelo_inurba_marseille","lat":43.302759,"lon":5.400793,"is_reserved":false,"is_disabled":false,"rental_uris":{"android":"levelo://app?vid=28fc27b0-66b4-4407-a892-d668b5662ab2","ios":"levelo://app?vid=28fc27b0-66b4-4407-a892-d668b5662ab2"},"vehicle_type_id":"4","last_reported":1713989297,"current_range_meters":0,"station_id":"ce4bgvh2rcd13ifvqcs0","pricing_plan_id":"cebpf4jnsgd1na2vs0mg"},{"bike_id":"8cdc2e51-6108-48f1-9ee8-2e89450171b3","system_id":"levelo_inurba_marseille","lat":43.296263,"lon":5.377094,"is_reserved":false,"is_disabled":false,"rental_uris":{"android":"levelo://app?vid=8cdc2e51-6108-48f1-9ee8-2e89450171b3","ios":"levelo://app?vid=8cdc2e51-6108-48f1-9ee8-2e89450171b3"},"vehicle_type_id":"4","last_reported":1713989297,"current_range_meters":21200,"station_id":"ce4bgi92rcd13ifvqb90","pricing_plan_id":"cebpf4jnsgd1na2vs0mg"},{"bike_id":"250afd63-a9a4-4c67-bb3e-f5b3feb2fdbb","system_id":"levelo_inurba_marseille","lat":43.299724,"lon":5.384848,"is_reserved":false,"is_disabled":false,"rental_uris":{"android":"levelo://app?vid=250afd63-a9a4-4c67-bb3e-f5b3feb2fdbb","ios":"levelo://app?vid=250afd63-a9a4-4c67-bb3e-f5b3feb2fdbb"},"vehicle_type_id":"4","last_reported":1713989297,"current_range_meters":20400,"station_id":"ce4bgj92rcd13ifvqbd0","pricing_plan_id":"cebpf4jnsgd1na2vs0mg"},{"bike_id":"0ca5a49c-191f-4e3b-93c9-4606d4c44a5e","system_id":"levelo_inurba_marseille","lat":43.295279,"lon":5.375048,"is_reserved":false,"is_disabled":false,"rental_uris":{"android":"levelo://app?vid=0ca5a49c-191f-4e3b-93c9-4606d4c44a5e","ios":"levelo://app?vid=0ca5a49c-191f-4e3b-93c9-4606d4c44a5e"},"vehicle_type_id":"4","last_reported":1713989297,"current_range_meters":30000,"station_id":"ce4bgkp2rcd13ifvqbmg","pricing_plan_id":"cebpf4jnsgd1na2vs0mg"},{"bike_id":"df4d16ca-2325-49f8-8821-9a66a5a01258","system_id":"levelo_inurba_marseille","lat":43.299707,"lon":5.384859,"is_reserved":false,"is_disabled":false,"rental_uris":{"android":"levelo://app?vid=df4d16ca-2325-49f8-8821-9a66a5a01258","ios":"levelo://app?vid=df4d16ca-2325-49f8-8821-9a66a5a01258"},"vehicle_type_id":"4","last_reported":1713989297,"current_range_meters":21600,"station_id":"ce4bgj92rcd13ifvqbd0","pricing_plan_id":"cebpf4jnsgd1na2vs0mg"},{"bike_id":"293650e0-da73-483a-b411-cb3097f295d2","system_id":"levelo_inurba_marseille","lat":43.299724,"lon":5.384848,"is_reserved":false,"is_disabled":false,"rental_uris":{"android":"levelo://app?vid=293650e0-da73-483a-b411-cb3097f295d2","ios":"levelo://app?vid=293650e0-da73-483a-b411-cb3097f295d2"},"vehicle_type_id":"4","last_reported":1713989297,"current_range_meters":30800,"station_id":"ce4bgj92rcd13ifvqbd0","pricing_plan_id":"cebpf4jnsgd1na2vs0mg"},{"bike_id":"19e66640-89f6-439d-93d0-d48228eac6cb","system_id":"levelo_inurba_marseille","lat":43.295196,"lon":5.39397,"is_reserved":false,"is_disabled":false,"rental_uris":{"android":"levelo://app?vid=19e66640-89f6-439d-93d0-d48228eac6cb","ios":"levelo://app?vid=19e66640-89f6-439d-93d0-d48228eac6cb"},"vehicle_type_id":"4","last_reported":1713989297,"current_range_meters":25600,"station_id":"ce4bh292rcd13ifvqdf0","pricing_plan_id":"cebpf4jnsgd1na2vs0mg"},{"bike_id":"69a8433d-e4ae-48e5-bda2-8ab8b5179591","system_id":"levelo_inurba_marseille","lat":43.32367,"lon":5.388836,"is_reserved":false,"is_disabled":false,"rental_uris":{"android":"levelo://app?vid=69a8433d-e4ae-48e5-bda2-8ab8b5179591","ios":"levelo://app?vid=69a8433d-e4ae-48e5-bda2-8ab8b5179591"},"vehicle_type_id":"4","last_reported":1713989297,"current_range_meters":2400,"station_id":"ce4bhqp2rcd13ifvqhog","pricing_plan_id":"cebpf4jnsgd1na2vs0mg"},{"bike_id":"6d14f1d6-6bac-4dda-8754-c0db40dd2bb4","system_id":"levelo_inurba_marseille","lat":43.32367,"lon":5.388836,"is_reserved":false,"is_disabled":false,"rental_uris":{"android":"levelo://app?vid=6d14f1d6-6bac-4dda-8754-c0db40dd2bb4","ios":"levelo://app?vid=6d14f1d6-6bac-4dda-8754-c0db40dd2bb4"},"vehicle_type_id":"4","last_reported":1713989297,"current_range_meters":17200,"station_id":"ce4bhqp2rcd13ifvqhog","pricing_plan_id":"cebpf4jnsgd1na2vs0mg"},{"bike_id":"09fb3c83-bcf1-4fe2-9765-f280d9fed52e","system_id":"levelo_inurba_marseille","lat":43.32367,"lon":5.388836,"is_reserved":false,"is_disabled":false,"rental_uris":{"android":"levelo://app?vid=09fb3c83-bcf1-4fe2-9765-f280d9fed52e","ios":"levelo://app?vid=09fb3c83-bcf1-4fe2-9765-f280d9fed52e"},"vehicle_type_id":"4","last_reported":1713989297,"current_range_meters":14400,"station_id":"ce4bhqp2rcd13ifvqhog","pricing_plan_id":"cebpf4jnsgd1na2vs0mg"},{"bike_id":"2e8cfebd-46e7-495b-9715-f35bdd0e280e","system_id":"levelo_inurba_marseille","lat":43.32367,"lon":5.388836,"is_reserved":false,"is_disabled":false,"rental_uris":{"android":"levelo://app?vid=2e8cfebd-46e7-495b-9715-f35bdd0e280e","ios":"levelo://app?vid=2e8cfebd-46e7-495b-9715-f35bdd0e280e"},"vehicle_type_id":"4","last_reported":1713989297,"current_range_meters":12000,"station_id":"ce4bhqp2rcd13ifvqhog","pricing_plan_id":"cebpf4jnsgd1na2vs0mg"},{"bike_id":"6eee273b-f2f7-42a7-b189-a5b0926a269f","system_id":"levelo_inurba_marseille","lat":43.32367,"lon":5.388836,"is_reserved":false,"is_disabled":false,"rental_uris":{"android":"levelo://app?vid=6eee273b-f2f7-42a7-b189-a5b0926a269f","ios":"levelo://app?vid=6eee273b-f2f7-42a7-b189-a5b0926a269f"},"vehicle_type_id":"4","last_reported":1713989297,"current_range_meters":0,"station_id":"ce4bhqp2rcd13ifvqhog","pricing_plan_id":"cebpf4jnsgd1na2vs0mg"},{"bike_id":"3f163f7d-57b1-4bff-aac3-e62ad5e63f57","system_id":"levelo_inurba_marseille","lat":43.29601,"lon":5.381084,"is_reserved":false,"is_disabled":false,"rental_uris":{"android":"levelo://app?vid=3f163f7d-57b1-4bff-aac3-e62ad5e63f57","ios":"levelo://app?vid=3f163f7d-57b1-4bff-aac3-e62ad5e63f57"},"vehicle_type_id":"4","last_reported":1713989297,"current_range_meters":16400,"station_id":"ce4bgl12rcd13ifvqbo0","pricing_plan_id":"cebpf4jnsgd1na2vs0mg"},{"bike_id":"5838daf9-9dae-4ba8-a216-b7cbf867bc4c","system_id":"levelo_inurba_marseille","lat":43.29602,"lon":5.381084,"is_reserved":false,"is_disabled":false,"rental_uris":{"android":"levelo://app?vid=5838daf9-9dae-4ba8-a216-b7cbf867bc4c","ios":"levelo://app?vid=5838daf9-9dae-4ba8-a216-b7cbf867bc4c"},"vehicle_type_id":"4","last_reported":1713989297,"current_range_meters":16400,"station_id":"ce4bgl12rcd13ifvqbo0","pricing_plan_id":"cebpf4jnsgd1na2vs0mg"},{"bike_id":"672fe409-e31b-40b6-9e27-5a19c7a5b42b","system_id":"levelo_inurba_marseille","lat":43.29601,"lon":5.381084,"is_reserved":false,"is_disabled":false,"rental_uris":{"android":"levelo://app?vid=672fe409-e31b-40b6-9e27-5a19c7a5b42b","ios":"levelo://app?vid=672fe409-e31b-40b6-9e27-5a19c7a5b42b"},"vehicle_type_id":"4","last_reported":1713989297,"current_range_meters":4000,"station_id":"ce4bgl12rcd13ifvqbo0","pricing_plan_id":"cebpf4jnsgd1na2vs0mg"},{"bike_id":"8fa5d7dd-cb84-4faf-807f-48717a910269","system_id":"levelo_inurba_marseille","lat":43.292749,"lon":5.368402,"is_reserved":false,"is_disabled":false,"rental_uris":{"android":"levelo://app?vid=8fa5d7dd-cb84-4faf-807f-48717a910269","ios":"levelo://app?vid=8fa5d7dd-cb84-4faf-807f-48717a910269"},"vehicle_type_id":"4","last_reported":1713989297,"current_range_meters":18000,"station_id":"ce4bhbp2rcd13ifvqesg","pricing_plan_id":"cebpf4jnsgd1na2vs0mg"},{"bike_id":"3294f086-7799-44ae-a276-3c0dd5e216ea","system_id":"levelo_inurba_marseille","lat":43.29305,"lon":5.37179,"is_reserved":false,"is_disabled":false,"rental_uris":{"android":"levelo://app?vid=3294f086-7799-44ae-a276-3c0dd5e216ea","ios":"levelo://app?vid=3294f086-7799-44ae-a276-3c0dd5e216ea"},"vehicle_type_id":"4","last_reported":1713989297,"current_range_meters":15200,"station_id":"ce4bgh92rcd13ifvqb40","pricing_plan_id":"cebpf4jnsgd1na2vs0mg"},{"bike_id":"2311a26d-3f80-46bc-937e-0767c7fbba8c","system_id":"levelo_inurba_marseille","lat":43.292749,"lon":5.368402,"is_reserved":false,"is_disabled":false,"rental_uris":{"android":"levelo://app?vid=2311a26d-3f80-46bc-937e-0767c7fbba8c","ios":"levelo://app?vid=2311a26d-3f80-46bc-937e-0767c7fbba8c"},"vehicle_type_id":"4","last_reported":1713989297,"current_range_meters":28800,"station_id":"ce4bhbp2rcd13ifvqesg","pricing_plan_id":"cebpf4jnsgd1na2vs0mg"},{"bike_id":"3190e011-9d54-48c3-8df4-24c375041388","system_id":"levelo_inurba_marseille","lat":43.292749,"lon":5.368402,"is_reserved":false,"is_disabled":false,"rental_uris":{"android":"levelo://app?vid=3190e011-9d54-48c3-8df4-24c375041388","ios":"levelo://app?vid=3190e011-9d54-48c3-8df4-24c375041388"},"vehicle_type_id":"4","last_reported":1713989297,"current_range_meters":22800,"station_id":"ce4bhbp2rcd13ifvqesg","pricing_plan_id":"cebpf4jnsgd1na2vs0mg"},{"bike_id":"b9e62fbc-16f4-4dac-b029-d035e23b06c8","system_id":"levelo_inurba_marseille","lat":43.292749,"lon":5.368402,"is_reserved":false,"is_disabled":false,"rental_uris":{"android":"levelo://app?vid=b9e62fbc-16f4-4dac-b029-d035e23b06c8","ios":"levelo://app?vid=b9e62fbc-16f4-4dac-b029-d035e23b06c8"},"vehicle_type_id":"4","last_reported":1713989297,"current_range_meters":3600,"station_id":"ce4bhbp2rcd13ifvqesg","pricing_plan_id":"cebpf4jnsgd1na2vs0mg"},{"bike_id":"bd20a1ff-016d-4a40-b70e-a6ca249c7423","system_id":"levelo_inurba_marseille","lat":43.292749,"lon":5.368402,"is_reserved":false,"is_disabled":false,"rental_uris":{"android":"levelo://app?vid=bd20a1ff-016d-4a40-b70e-a6ca249c7423","ios":"levelo://app?vid=bd20a1ff-016d-4a40-b70e-a6ca249c7423"},"vehicle_type_id":"4","last_reported":1713989297,"current_range_meters":2800,"station_id":"ce4bhbp2rcd13ifvqesg","pricing_plan_id":"cebpf4jnsgd1na2vs0mg"},{"bike_id":"41f09c41-bc41-4800-a040-0955d2e5785a","system_id":"levelo_inurba_marseille","lat":43.300852,"lon":5.390859,"is_reserved":false,"is_disabled":false,"rental_uris":{"android":"levelo://app?vid=41f09c41-bc41-4800-a040-0955d2e5785a","ios":"levelo://app?vid=41f09c41-bc41-4800-a040-0955d2e5785a"},"vehicle_type_id":"4","last_reported":1713989297,"current_range_meters":0,"station_id":"ce4bh192rcd13ifvqdb0","pricing_plan_id":"cebpf4jnsgd1na2vs0mg"},{"bike_id":"fa9c9a47-2b6f-4ce0-bb73-b2b8f36c906d","system_id":"levelo_inurba_marseille","lat":43.290094,"lon":5.381264,"is_reserved":false,"is_disabled":false,"rental_uris":{"android":"levelo://app?vid=fa9c9a47-2b6f-4ce0-bb73-b2b8f36c906d","ios":"levelo://app?vid=fa9c9a47-2b6f-4ce0-bb73-b2b8f36c906d"},"vehicle_type_id":"4","last_reported":1713989297,"current_range_meters":10000,"station_id":"ce4bh4p2rcd13ifvqe1g","pricing_plan_id":"cebpf4jnsgd1na2vs0mg"},{"bike_id":"5c28e2be-c2bb-420b-b606-e4284bc34b24","system_id":"levelo_inurba_marseille","lat":43.293009,"lon":5.374584,"is_reserved":false,"is_disabled":false,"rental_uris":{"android":"levelo://app?vid=5c28e2be-c2bb-420b-b606-e4284bc34b24","ios":"levelo://app?vid=5c28e2be-c2bb-420b-b606-e4284bc34b24"},"vehicle_type_id":"4","last_reported":1713989297,"current_range_meters":16400,"station_id":"ce4bgi12rcd13ifvqb70","pricing_plan_id":"cebpf4jnsgd1na2vs0mg"},{"bike_id":"02c75a0c-edf8-4f09-9cda-6a0f39bd2ec5","system_id":"levelo_inurba_marseille","lat":43.303002,"lon":5.392142,"is_reserved":false,"is_disabled":false,"rental_uris":{"android":"levelo://app?vid=02c75a0c-edf8-4f09-9cda-6a0f39bd2ec5","ios":"levelo://app?vid=02c75a0c-edf8-4f09-9cda-6a0f39bd2ec5"},"vehicle_type_id":"4","last_reported":1713989297,"current_range_meters":23600,"station_id":"ce4bgkh2rcd13ifvqbk0","pricing_plan_id":"cebpf4jnsgd1na2vs0mg"},{"bike_id":"4ebcffab-3baa-46a1-9c3a-293b2f2d016e","system_id":"levelo_inurba_marseille","lat":43.2936,"lon":5.37835,"is_reserved":false,"is_disabled":false,"rental_uris":{"android":"levelo://app?vid=4ebcffab-3baa-46a1-9c3a-293b2f2d016e","ios":"levelo://app?vid=4ebcffab-3baa-46a1-9c3a-293b2f2d016e"},"vehicle_type_id":"4","last_reported":1713989297,"current_range_meters":12800,"station_id":"ce4bgjh2rcd13ifvqbf0","pricing_plan_id":"cebpf4jnsgd1na2vs0mg"},{"bike_id":"5019467a-44df-4ec4-8e67-d31b973d1ac4","system_id":"levelo_inurba_marseille","lat":43.292311,"lon":5.360731,"is_reserved":false,"is_disabled":false,"rental_uris":{"android":"levelo://app?vid=5019467a-44df-4ec4-8e67-d31b973d1ac4","ios":"levelo://app?vid=5019467a-44df-4ec4-8e67-d31b973d1ac4"},"vehicle_type_id":"4","last_reported":1713989297,"current_range_meters":29600,"station_id":"ce4bhbh2rcd13ifvqeqg","pricing_plan_id":"cebpf4jnsgd1na2vs0mg"},{"bike_id":"18960c1d-17e8-4370-b372-bff26433da12","system_id":"levelo_inurba_marseille","lat":43.292311,"lon":5.360731,"is_reserved":false,"is_disabled":false,"rental_uris":{"android":"levelo://app?vid=18960c1d-17e8-4370-b372-bff26433da12","ios":"levelo://app?vid=18960c1d-17e8-4370-b372-bff26433da12"},"vehicle_type_id":"4","last_reported":1713989297,"current_range_meters":12000,"station_id":"ce4bhbh2rcd13ifvqeqg","pricing_plan_id":"cebpf4jnsgd1na2vs0mg"},{"bike_id":"92c71ca3-4a7e-4967-b495-119e80b8e855","system_id":"levelo_inurba_marseille","lat":43.300852,"lon":5.390859,"is_reserved":false,"is_disabled":false,"rental_uris":{"android":"levelo://app?vid=92c71ca3-4a7e-4967-b495-119e80b8e855","ios":"levelo://app?vid=92c71ca3-4a7e-4967-b495-119e80b8e855"},"vehicle_type_id":"4","last_reported":1713989297,"current_range_meters":15600,"station_id":"ce4bh192rcd13ifvqdb0","pricing_plan_id":"cebpf4jnsgd1na2vs0mg"},{"bike_id":"49b7d4c3-b05b-4ed7-93f2-82d069ce4ad8","system_id":"levelo_inurba_marseille","lat":43.300852,"lon":5.390859,"is_reserved":false,"is_disabled":false,"rental_uris":{"android":"levelo://app?vid=49b7d4c3-b05b-4ed7-93f2-82d069ce4ad8","ios":"levelo://app?vid=49b7d4c3-b05b-4ed7-93f2-82d069ce4ad8"},"vehicle_type_id":"4","last_reported":1713989297,"current_range_meters":31200,"station_id":"ce4bh192rcd13ifvqdb0","pricing_plan_id":"cebpf4jnsgd1na2vs0mg"},{"bike_id":"6af279aa-07df-40ea-beef-f245f90ff211","system_id":"levelo_inurba_marseille","lat":43.292311,"lon":5.360731,"is_reserved":false,"is_disabled":false,"rental_uris":{"android":"levelo://app?vid=6af279aa-07df-40ea-beef-f245f90ff211","ios":"levelo://app?vid=6af279aa-07df-40ea-beef-f245f90ff211"},"vehicle_type_id":"4","last_reported":1713989297,"current_range_meters":15600,"station_id":"ce4bhbh2rcd13ifvqeqg","pricing_plan_id":"cebpf4jnsgd1na2vs0mg"},{"bike_id":"69c7607e-3a38-4db3-9017-af22f724ab79","system_id":"levelo_inurba_marseille","lat":43.292311,"lon":5.360731,"is_reserved":false,"is_disabled":false,"rental_uris":{"android":"levelo://app?vid=69c7607e-3a38-4db3-9017-af22f724ab79","ios":"levelo://app?vid=69c7607e-3a38-4db3-9017-af22f724ab79"},"vehicle_type_id":"4","last_reported":1713989297,"current_range_meters":30000,"station_id":"ce4bhbh2rcd13ifvqeqg","pricing_plan_id":"cebpf4jnsgd1na2vs0mg"},{"bike_id":"b6461e45-e422-4ebc-b032-8a23f0cb1044","system_id":"levelo_inurba_marseille","lat":43.292311,"lon":5.360731,"is_reserved":false,"is_disabled":false,"rental_uris":{"android":"levelo://app?vid=b6461e45-e422-4ebc-b032-8a23f0cb1044","ios":"levelo://app?vid=b6461e45-e422-4ebc-b032-8a23f0cb1044"},"vehicle_type_id":"4","last_reported":1713989297,"current_range_meters":28400,"station_id":"ce4bhbh2rcd13ifvqeqg","pricing_plan_id":"cebpf4jnsgd1na2vs0mg"},{"bike_id":"172d9f02-ff6d-4103-908b-7cca344cc982","system_id":"levelo_inurba_marseille","lat":43.30085,"lon":5.390856,"is_reserved":false,"is_disabled":false,"rental_uris":{"android":"levelo://app?vid=172d9f02-ff6d-4103-908b-7cca344cc982","ios":"levelo://app?vid=172d9f02-ff6d-4103-908b-7cca344cc982"},"vehicle_type_id":"4","last_reported":1713989297,"current_range_meters":25200,"station_id":"ce4bh192rcd13ifvqdb0","pricing_plan_id":"cebpf4jnsgd1na2vs0mg"},{"bike_id":"37629ba7-73d2-4aa6-be59-bdef7337e47b","system_id":"levelo_inurba_marseille","lat":43.300852,"lon":5.390859,"is_reserved":false,"is_disabled":false,"rental_uris":{"android":"levelo://app?vid=37629ba7-73d2-4aa6-be59-bdef7337e47b","ios":"levelo://app?vid=37629ba7-73d2-4aa6-be59-bdef7337e47b"},"vehicle_type_id":"4","last_reported":1713989297,"current_range_meters":27600,"station_id":"ce4bh192rcd13ifvqdb0","pricing_plan_id":"cebpf4jnsgd1na2vs0mg"},{"bike_id":"de10e35e-f56f-4965-ab8c-6f9cf770751b","system_id":"levelo_inurba_marseille","lat":43.292311,"lon":5.360731,"is_reserved":false,"is_disabled":false,"rental_uris":{"android":"levelo://app?vid=de10e35e-f56f-4965-ab8c-6f9cf770751b","ios":"levelo://app?vid=de10e35e-f56f-4965-ab8c-6f9cf770751b"},"vehicle_type_id":"4","last_reported":1713989297,"current_range_meters":31200,"station_id":"ce4bhbh2rcd13ifvqeqg","pricing_plan_id":"cebpf4jnsgd1na2vs0mg"},{"bike_id":"1973dc6f-56fb-4611-aa12-cf038f812190","system_id":"levelo_inurba_marseille","lat":43.291671,"lon":5.371575,"is_reserved":false,"is_disabled":false,"rental_uris":{"android":"levelo://app?vid=1973dc6f-56fb-4611-aa12-cf038f812190","ios":"levelo://app?vid=1973dc6f-56fb-4611-aa12-cf038f812190"},"vehicle_type_id":"4","last_reported":1713989297,"current_range_meters":20800,"station_id":"ce4bha92rcd13ifvqeh0","pricing_plan_id":"cebpf4jnsgd1na2vs0mg"},{"bike_id":"e4a2f833-d1b7-49a7-94e9-386f8d2235ee","system_id":"levelo_inurba_marseille","lat":43.29885,"lon":5.38907,"is_reserved":false,"is_disabled":false,"rental_uris":{"android":"levelo://app?vid=e4a2f833-d1b7-49a7-94e9-386f8d2235ee","ios":"levelo://app?vid=e4a2f833-d1b7-49a7-94e9-386f8d2235ee"},"vehicle_type_id":"4","last_reported":1713989297,"current_range_meters":20800,"station_id":"ce4bh392rcd13ifvqdl0","pricing_plan_id":"cebpf4jnsgd1na2vs0mg"},{"bike_id":"1c9b5e4a-3f8f-47fd-a3d2-49ced7fcc7ae","system_id":"levelo_inurba_marseille","lat":43.298857,"lon":5.389087,"is_reserved":false,"is_disabled":false,"rental_uris":{"android":"levelo://app?vid=1c9b5e4a-3f8f-47fd-a3d2-49ced7fcc7ae","ios":"levelo://app?vid=1c9b5e4a-3f8f-47fd-a3d2-49ced7fcc7ae"},"vehicle_type_id":"4","last_reported":1713989297,"current_range_meters":12400,"station_id":"ce4bh392rcd13ifvqdl0","pricing_plan_id":"cebpf4jnsgd1na2vs0mg"},{"bike_id":"3abefe89-f5a0-4803-a466-95ddc2cf9b0a","system_id":"levelo_inurba_marseille","lat":43.29883,"lon":5.38906,"is_reserved":false,"is_disabled":false,"rental_uris":{"android":"levelo://app?vid=3abefe89-f5a0-4803-a466-95ddc2cf9b0a","ios":"levelo://app?vid=3abefe89-f5a0-4803-a466-95ddc2cf9b0a"},"vehicle_type_id":"4","last_reported":1713989297,"current_range_meters":10400,"station_id":"ce4bh392rcd13ifvqdl0","pricing_plan_id":"cebpf4jnsgd1na2vs0mg"},{"bike_id":"3c956c24-d10a-4f5b-9ffd-3bf9297db600","system_id":"levelo_inurba_marseille","lat":43.29883,"lon":5.38908,"is_reserved":false,"is_disabled":false,"rental_uris":{"android":"levelo://app?vid=3c956c24-d10a-4f5b-9ffd-3bf9297db600","ios":"levelo://app?vid=3c956c24-d10a-4f5b-9ffd-3bf9297db600"},"vehicle_type_id":"4","last_reported":1713989297,"current_range_meters":14400,"station_id":"ce4bh392rcd13ifvqdl0","pricing_plan_id":"cebpf4jnsgd1na2vs0mg"},{"bike_id":"e7453f34-e1d5-4fe4-9df6-47281bee97c6","system_id":"levelo_inurba_marseille","lat":43.298764,"lon":5.388973,"is_reserved":false,"is_disabled":false,"rental_uris":{"android":"levelo://app?vid=e7453f34-e1d5-4fe4-9df6-47281bee97c6","ios":"levelo://app?vid=e7453f34-e1d5-4fe4-9df6-47281bee97c6"},"vehicle_type_id":"4","last_reported":1713989297,"current_range_meters":26800,"station_id":"ce4bh392rcd13ifvqdl0","pricing_plan_id":"cebpf4jnsgd1na2vs0mg"},{"bike_id":"f748ddbc-3406-4ab7-b3a5-814f112a2aa2","system_id":"levelo_inurba_marseille","lat":43.298764,"lon":5.388973,"is_reserved":false,"is_disabled":false,"rental_uris":{"android":"levelo://app?vid=f748ddbc-3406-4ab7-b3a5-814f112a2aa2","ios":"levelo://app?vid=f748ddbc-3406-4ab7-b3a5-814f112a2aa2"},"vehicle_type_id":"4","last_reported":1713989297,"current_range_meters":10800,"station_id":"ce4bh392rcd13ifvqdl0","pricing_plan_id":"cebpf4jnsgd1na2vs0mg"},{"bike_id":"98a43146-e9fe-4468-a3df-2f39f959fae5","system_id":"levelo_inurba_marseille","lat":43.298764,"lon":5.388973,"is_reserved":false,"is_disabled":false,"rental_uris":{"android":"levelo://app?vid=98a43146-e9fe-4468-a3df-2f39f959fae5","ios":"levelo://app?vid=98a43146-e9fe-4468-a3df-2f39f959fae5"},"vehicle_type_id":"4","last_reported":1713989297,"current_range_meters":23200,"station_id":"ce4bh392rcd13ifvqdl0","pricing_plan_id":"cebpf4jnsgd1na2vs0mg"},{"bike_id":"26bf9389-4061-4859-b0d0-5fa531bb7651","system_id":"levelo_inurba_marseille","lat":43.298764,"lon":5.388973,"is_reserved":false,"is_disabled":false,"rental_uris":{"android":"levelo://app?vid=26bf9389-4061-4859-b0d0-5fa531bb7651","ios":"levelo://app?vid=26bf9389-4061-4859-b0d0-5fa531bb7651"},"vehicle_type_id":"4","last_reported":1713989297,"current_range_meters":6800,"station_id":"ce4bh392rcd13ifvqdl0","pricing_plan_id":"cebpf4jnsgd1na2vs0mg"},{"bike_id":"d8c549a7-80a6-45f0-805a-91804b0c411f","system_id":"levelo_inurba_marseille","lat":43.305994,"lon":5.393687,"is_reserved":false,"is_disabled":false,"rental_uris":{"android":"levelo://app?vid=d8c549a7-80a6-45f0-805a-91804b0c411f","ios":"levelo://app?vid=d8c549a7-80a6-45f0-805a-91804b0c411f"},"vehicle_type_id":"4","last_reported":1713989297,"current_range_meters":26000,"station_id":"ce4bh0p2rcd13ifvqd80","pricing_plan_id":"cebpf4jnsgd1na2vs0mg"},{"bike_id":"812ae96e-d1a3-4433-acaa-4118defcc53f","system_id":"levelo_inurba_marseille","lat":43.298764,"lon":5.388973,"is_reserved":false,"is_disabled":false,"rental_uris":{"android":"levelo://app?vid=812ae96e-d1a3-4433-acaa-4118defcc53f","ios":"levelo://app?vid=812ae96e-d1a3-4433-acaa-4118defcc53f"},"vehicle_type_id":"4","last_reported":1713989297,"current_range_meters":25200,"station_id":"ce4bh392rcd13ifvqdl0","pricing_plan_id":"cebpf4jnsgd1na2vs0mg"},{"bike_id":"a9f9be38-2c58-4ee3-958b-cc3efc795b17","system_id":"levelo_inurba_marseille","lat":43.291671,"lon":5.371575,"is_reserved":false,"is_disabled":false,"rental_uris":{"android":"levelo://app?vid=a9f9be38-2c58-4ee3-958b-cc3efc795b17","ios":"levelo://app?vid=a9f9be38-2c58-4ee3-958b-cc3efc795b17"},"vehicle_type_id":"4","last_reported":1713989297,"current_range_meters":20400,"station_id":"ce4bha92rcd13ifvqeh0","pricing_plan_id":"cebpf4jnsgd1na2vs0mg"},{"bike_id":"44dc9a9a-00ba-4994-a3ab-9ca5bf79f211","system_id":"levelo_inurba_marseille","lat":43.31325,"lon":5.39688,"is_reserved":false,"is_disabled":false,"rental_uris":{"android":"levelo://app?vid=44dc9a9a-00ba-4994-a3ab-9ca5bf79f211","ios":"levelo://app?vid=44dc9a9a-00ba-4994-a3ab-9ca5bf79f211"},"vehicle_type_id":"4","last_reported":1713989297,"current_range_meters":26000,"station_id":"ce4bgvp2rcd13ifvqcu0","pricing_plan_id":"cebpf4jnsgd1na2vs0mg"},{"bike_id":"22796fe2-9174-4370-80f3-8b191cf1b11c","system_id":"levelo_inurba_marseille","lat":43.309047,"lon":5.396551,"is_reserved":false,"is_disabled":false,"rental_uris":{"android":"levelo://app?vid=22796fe2-9174-4370-80f3-8b191cf1b11c","ios":"levelo://app?vid=22796fe2-9174-4370-80f3-8b191cf1b11c"},"vehicle_type_id":"4","last_reported":1713989297,"current_range_meters":14800,"station_id":"ce4bh012rcd13ifvqcv0","pricing_plan_id":"cebpf4jnsgd1na2vs0mg"},{"bike_id":"dd9bb4f8-ac44-45f8-a618-2844932e5005","system_id":"levelo_inurba_marseille","lat":43.313291,"lon":5.396838,"is_reserved":false,"is_disabled":false,"rental_uris":{"android":"levelo://app?vid=dd9bb4f8-ac44-45f8-a618-2844932e5005","ios":"levelo://app?vid=dd9bb4f8-ac44-45f8-a618-2844932e5005"},"vehicle_type_id":"4","last_reported":1713989297,"current_range_meters":400,"station_id":"ce4bgvp2rcd13ifvqcu0","pricing_plan_id":"cebpf4jnsgd1na2vs0mg"},{"bike_id":"90e5d243-b7ec-4a4f-8974-6d6cabc9a5b0","system_id":"levelo_inurba_marseille","lat":43.313291,"lon":5.396838,"is_reserved":false,"is_disabled":false,"rental_uris":{"android":"levelo://app?vid=90e5d243-b7ec-4a4f-8974-6d6cabc9a5b0","ios":"levelo://app?vid=90e5d243-b7ec-4a4f-8974-6d6cabc9a5b0"},"vehicle_type_id":"4","last_reported":1713989297,"current_range_meters":11200,"station_id":"ce4bgvp2rcd13ifvqcu0","pricing_plan_id":"cebpf4jnsgd1na2vs0mg"},{"bike_id":"81899fb2-da2a-41ce-a98d-408591b6cbd9","system_id":"levelo_inurba_marseille","lat":43.313291,"lon":5.396838,"is_reserved":false,"is_disabled":false,"rental_uris":{"android":"levelo://app?vid=81899fb2-da2a-41ce-a98d-408591b6cbd9","ios":"levelo://app?vid=81899fb2-da2a-41ce-a98d-408591b6cbd9"},"vehicle_type_id":"4","last_reported":1713989297,"current_range_meters":28000,"station_id":"ce4bgvp2rcd13ifvqcu0","pricing_plan_id":"cebpf4jnsgd1na2vs0mg"},{"bike_id":"d05ed630-7ac0-4b32-8b54-38ef271503bd","system_id":"levelo_inurba_marseille","lat":43.313291,"lon":5.396838,"is_reserved":false,"is_disabled":false,"rental_uris":{"android":"levelo://app?vid=d05ed630-7ac0-4b32-8b54-38ef271503bd","ios":"levelo://app?vid=d05ed630-7ac0-4b32-8b54-38ef271503bd"},"vehicle_type_id":"4","last_reported":1713989297,"current_range_meters":5600,"station_id":"ce4bgvp2rcd13ifvqcu0","pricing_plan_id":"cebpf4jnsgd1na2vs0mg"},{"bike_id":"7ceb74a2-b9a5-4274-9f83-2eec8625af90","system_id":"levelo_inurba_marseille","lat":43.313291,"lon":5.396838,"is_reserved":false,"is_disabled":false,"rental_uris":{"android":"levelo://app?vid=7ceb74a2-b9a5-4274-9f83-2eec8625af90","ios":"levelo://app?vid=7ceb74a2-b9a5-4274-9f83-2eec8625af90"},"vehicle_type_id":"4","last_reported":1713989297,"current_range_meters":22400,"station_id":"ce4bgvp2rcd13ifvqcu0","pricing_plan_id":"cebpf4jnsgd1na2vs0mg"},{"bike_id":"6815b8fa-8a86-4195-8059-9b2c3635a2cd","system_id":"levelo_inurba_marseille","lat":43.308849,"lon":5.396465,"is_reserved":false,"is_disabled":false,"rental_uris":{"android":"levelo://app?vid=6815b8fa-8a86-4195-8059-9b2c3635a2cd","ios":"levelo://app?vid=6815b8fa-8a86-4195-8059-9b2c3635a2cd"},"vehicle_type_id":"4","last_reported":1713989297,"current_range_meters":3600,"station_id":"ce4bh012rcd13ifvqcv0","pricing_plan_id":"cebpf4jnsgd1na2vs0mg"},{"bike_id":"173d1821-0afb-411a-9f3f-8fa507ae178e","system_id":"levelo_inurba_marseille","lat":43.31331,"lon":5.39695,"is_reserved":false,"is_disabled":false,"rental_uris":{"android":"levelo://app?vid=173d1821-0afb-411a-9f3f-8fa507ae178e","ios":"levelo://app?vid=173d1821-0afb-411a-9f3f-8fa507ae178e"},"vehicle_type_id":"4","last_reported":1713989297,"current_range_meters":8000,"station_id":"ce4bgvp2rcd13ifvqcu0","pricing_plan_id":"cebpf4jnsgd1na2vs0mg"},{"bike_id":"13672082-55f1-473d-857f-09fc7e860415","system_id":"levelo_inurba_marseille","lat":43.313291,"lon":5.396838,"is_reserved":false,"is_disabled":false,"rental_uris":{"android":"levelo://app?vid=13672082-55f1-473d-857f-09fc7e860415","ios":"levelo://app?vid=13672082-55f1-473d-857f-09fc7e860415"},"vehicle_type_id":"4","last_reported":1713989297,"current_range_meters":21200,"station_id":"ce4bgvp2rcd13ifvqcu0","pricing_plan_id":"cebpf4jnsgd1na2vs0mg"},{"bike_id":"562c3b33-9b63-4457-b5b1-5cbfa13f9551","system_id":"levelo_inurba_marseille","lat":43.309047,"lon":5.396551,"is_reserved":false,"is_disabled":false,"rental_uris":{"android":"levelo://app?vid=562c3b33-9b63-4457-b5b1-5cbfa13f9551","ios":"levelo://app?vid=562c3b33-9b63-4457-b5b1-5cbfa13f9551"},"vehicle_type_id":"4","last_reported":1713989297,"current_range_meters":24400,"station_id":"ce4bh012rcd13ifvqcv0","pricing_plan_id":"cebpf4jnsgd1na2vs0mg"},{"bike_id":"a6543812-72f8-4259-8e2d-e0dfc60af540","system_id":"levelo_inurba_marseille","lat":43.313291,"lon":5.396838,"is_reserved":false,"is_disabled":false,"rental_uris":{"android":"levelo://app?vid=a6543812-72f8-4259-8e2d-e0dfc60af540","ios":"levelo://app?vid=a6543812-72f8-4259-8e2d-e0dfc60af540"},"vehicle_type_id":"4","last_reported":1713989297,"current_range_meters":11600,"station_id":"ce4bgvp2rcd13ifvqcu0","pricing_plan_id":"cebpf4jnsgd1na2vs0mg"},{"bike_id":"e42d19ce-4649-4d3c-b783-975b2f77d338","system_id":"levelo_inurba_marseille","lat":43.313291,"lon":5.396838,"is_reserved":false,"is_disabled":false,"rental_uris":{"android":"levelo://app?vid=e42d19ce-4649-4d3c-b783-975b2f77d338","ios":"levelo://app?vid=e42d19ce-4649-4d3c-b783-975b2f77d338"},"vehicle_type_id":"4","last_reported":1713989297,"current_range_meters":27600,"station_id":"ce4bgvp2rcd13ifvqcu0","pricing_plan_id":"cebpf4jnsgd1na2vs0mg"},{"bike_id":"2cbd2ea9-7736-4940-a3a7-061d8134a3ad","system_id":"levelo_inurba_marseille","lat":43.308898,"lon":5.396536,"is_reserved":false,"is_disabled":false,"rental_uris":{"android":"levelo://app?vid=2cbd2ea9-7736-4940-a3a7-061d8134a3ad","ios":"levelo://app?vid=2cbd2ea9-7736-4940-a3a7-061d8134a3ad"},"vehicle_type_id":"4","last_reported":1713989297,"current_range_meters":17600,"station_id":"ce4bh012rcd13ifvqcv0","pricing_plan_id":"cebpf4jnsgd1na2vs0mg"},{"bike_id":"23b26e60-7ebb-4242-8d92-a3453960a2d6","system_id":"levelo_inurba_marseille","lat":43.313291,"lon":5.396838,"is_reserved":false,"is_disabled":false,"rental_uris":{"android":"levelo://app?vid=23b26e60-7ebb-4242-8d92-a3453960a2d6","ios":"levelo://app?vid=23b26e60-7ebb-4242-8d92-a3453960a2d6"},"vehicle_type_id":"4","last_reported":1713989297,"current_range_meters":26800,"station_id":"ce4bgvp2rcd13ifvqcu0","pricing_plan_id":"cebpf4jnsgd1na2vs0mg"},{"bike_id":"199c3715-d5a4-4f84-b56f-772be581a284","system_id":"levelo_inurba_marseille","lat":43.313291,"lon":5.396838,"is_reserved":false,"is_disabled":false,"rental_uris":{"android":"levelo://app?vid=199c3715-d5a4-4f84-b56f-772be581a284","ios":"levelo://app?vid=199c3715-d5a4-4f84-b56f-772be581a284"},"vehicle_type_id":"4","last_reported":1713989297,"current_range_meters":31200,"station_id":"ce4bgvp2rcd13ifvqcu0","pricing_plan_id":"cebpf4jnsgd1na2vs0mg"},{"bike_id":"463e0fb3-3a70-45bf-8b13-7e80637b1529","system_id":"levelo_inurba_marseille","lat":43.31325,"lon":5.39704,"is_reserved":false,"is_disabled":false,"rental_uris":{"android":"levelo://app?vid=463e0fb3-3a70-45bf-8b13-7e80637b1529","ios":"levelo://app?vid=463e0fb3-3a70-45bf-8b13-7e80637b1529"},"vehicle_type_id":"4","last_reported":1713989297,"current_range_meters":6400,"station_id":"ce4bgvp2rcd13ifvqcu0","pricing_plan_id":"cebpf4jnsgd1na2vs0mg"},{"bike_id":"06359c55-ff1a-434c-8cc6-482a3bd98406","system_id":"levelo_inurba_marseille","lat":43.313291,"lon":5.396838,"is_reserved":false,"is_disabled":false,"rental_uris":{"android":"levelo://app?vid=06359c55-ff1a-434c-8cc6-482a3bd98406","ios":"levelo://app?vid=06359c55-ff1a-434c-8cc6-482a3bd98406"},"vehicle_type_id":"4","last_reported":1713989297,"current_range_meters":11200,"station_id":"ce4bgvp2rcd13ifvqcu0","pricing_plan_id":"cebpf4jnsgd1na2vs0mg"},{"bike_id":"b0a9a739-9cca-42a3-bbea-dc6c591b5483","system_id":"levelo_inurba_marseille","lat":43.29529,"lon":5.385581,"is_reserved":false,"is_disabled":false,"rental_uris":{"android":"levelo://app?vid=b0a9a739-9cca-42a3-bbea-dc6c591b5483","ios":"levelo://app?vid=b0a9a739-9cca-42a3-bbea-dc6c591b5483"},"vehicle_type_id":"4","last_reported":1713989297,"current_range_meters":12800,"station_id":"ce4bgih2rcd13ifvqba0","pricing_plan_id":"cebpf4jnsgd1na2vs0mg"},{"bike_id":"4219e5fb-a687-46fe-a6cb-0e0867a198cd","system_id":"levelo_inurba_marseille","lat":43.29539,"lon":5.38541,"is_reserved":false,"is_disabled":false,"rental_uris":{"android":"levelo://app?vid=4219e5fb-a687-46fe-a6cb-0e0867a198cd","ios":"levelo://app?vid=4219e5fb-a687-46fe-a6cb-0e0867a198cd"},"vehicle_type_id":"4","last_reported":1713989297,"current_range_meters":24800,"station_id":"ce4bgih2rcd13ifvqba0","pricing_plan_id":"cebpf4jnsgd1na2vs0mg"},{"bike_id":"a377a648-65ea-4939-8a15-0f15541269ad","system_id":"levelo_inurba_marseille","lat":43.29529,"lon":5.385581,"is_reserved":false,"is_disabled":false,"rental_uris":{"android":"levelo://app?vid=a377a648-65ea-4939-8a15-0f15541269ad","ios":"levelo://app?vid=a377a648-65ea-4939-8a15-0f15541269ad"},"vehicle_type_id":"4","last_reported":1713989297,"current_range_meters":30800,"station_id":"ce4bgih2rcd13ifvqba0","pricing_plan_id":"cebpf4jnsgd1na2vs0mg"},{"bike_id":"a8802efc-dc72-427e-aca2-1a40e8f7dcbf","system_id":"levelo_inurba_marseille","lat":43.29529,"lon":5.385581,"is_reserved":false,"is_disabled":false,"rental_uris":{"android":"levelo://app?vid=a8802efc-dc72-427e-aca2-1a40e8f7dcbf","ios":"levelo://app?vid=a8802efc-dc72-427e-aca2-1a40e8f7dcbf"},"vehicle_type_id":"4","last_reported":1713989297,"current_range_meters":19600,"station_id":"ce4bgih2rcd13ifvqba0","pricing_plan_id":"cebpf4jnsgd1na2vs0mg"},{"bike_id":"64f33f53-b45e-4793-8b4b-db06f8986938","system_id":"levelo_inurba_marseille","lat":43.29529,"lon":5.385581,"is_reserved":false,"is_disabled":false,"rental_uris":{"android":"levelo://app?vid=64f33f53-b45e-4793-8b4b-db06f8986938","ios":"levelo://app?vid=64f33f53-b45e-4793-8b4b-db06f8986938"},"vehicle_type_id":"4","last_reported":1713989297,"current_range_meters":17600,"station_id":"ce4bgih2rcd13ifvqba0","pricing_plan_id":"cebpf4jnsgd1na2vs0mg"},{"bike_id":"b7be9af8-8689-454e-96d3-9f33defaf4a8","system_id":"levelo_inurba_marseille","lat":43.309047,"lon":5.396551,"is_reserved":false,"is_disabled":false,"rental_uris":{"android":"levelo://app?vid=b7be9af8-8689-454e-96d3-9f33defaf4a8","ios":"levelo://app?vid=b7be9af8-8689-454e-96d3-9f33defaf4a8"},"vehicle_type_id":"4","last_reported":1713989297,"current_range_meters":24000,"station_id":"ce4bh012rcd13ifvqcv0","pricing_plan_id":"cebpf4jnsgd1na2vs0mg"},{"bike_id":"347abcf3-0955-4c25-9c62-a4657722ace0","system_id":"levelo_inurba_marseille","lat":43.29529,"lon":5.385581,"is_reserved":false,"is_disabled":false,"rental_uris":{"android":"levelo://app?vid=347abcf3-0955-4c25-9c62-a4657722ace0","ios":"levelo://app?vid=347abcf3-0955-4c25-9c62-a4657722ace0"},"vehicle_type_id":"4","last_reported":1713989297,"current_range_meters":14800,"station_id":"ce4bgih2rcd13ifvqba0","pricing_plan_id":"cebpf4jnsgd1na2vs0mg"},{"bike_id":"cf57773a-31f9-4648-9089-e4ad1ebb0ff8","system_id":"levelo_inurba_marseille","lat":43.29529,"lon":5.385581,"is_reserved":false,"is_disabled":false,"rental_uris":{"android":"levelo://app?vid=cf57773a-31f9-4648-9089-e4ad1ebb0ff8","ios":"levelo://app?vid=cf57773a-31f9-4648-9089-e4ad1ebb0ff8"},"vehicle_type_id":"4","last_reported":1713989297,"current_range_meters":31200,"station_id":"ce4bgih2rcd13ifvqba0","pricing_plan_id":"cebpf4jnsgd1na2vs0mg"},{"bike_id":"b8aceaf1-f39e-4c93-b1ef-2c8e58c01f61","system_id":"levelo_inurba_marseille","lat":43.295333,"lon":5.385402,"is_reserved":false,"is_disabled":false,"rental_uris":{"android":"levelo://app?vid=b8aceaf1-f39e-4c93-b1ef-2c8e58c01f61","ios":"levelo://app?vid=b8aceaf1-f39e-4c93-b1ef-2c8e58c01f61"},"vehicle_type_id":"4","last_reported":1713989297,"current_range_meters":26400,"station_id":"","pricing_plan_id":"cebpf4jnsgd1na2vs0mg"},{"bike_id":"3fbf09b0-cc03-4c37-8b01-7d9a136be2c3","system_id":"levelo_inurba_marseille","lat":43.29529,"lon":5.385581,"is_reserved":false,"is_disabled":false,"rental_uris":{"android":"levelo://app?vid=3fbf09b0-cc03-4c37-8b01-7d9a136be2c3","ios":"levelo://app?vid=3fbf09b0-cc03-4c37-8b01-7d9a136be2c3"},"vehicle_type_id":"4","last_reported":1713989297,"current_range_meters":29200,"station_id":"ce4bgih2rcd13ifvqba0","pricing_plan_id":"cebpf4jnsgd1na2vs0mg"},{"bike_id":"04b0b8e6-1344-43c5-80fc-d183291050fa","system_id":"levelo_inurba_marseille","lat":43.29529,"lon":5.385581,"is_reserved":false,"is_disabled":false,"rental_uris":{"android":"levelo://app?vid=04b0b8e6-1344-43c5-80fc-d183291050fa","ios":"levelo://app?vid=04b0b8e6-1344-43c5-80fc-d183291050fa"},"vehicle_type_id":"4","last_reported":1713989297,"current_range_meters":31200,"station_id":"ce4bgih2rcd13ifvqba0","pricing_plan_id":"cebpf4jnsgd1na2vs0mg"},{"bike_id":"c3978124-6ee7-4d67-9753-55f8d4c38c3a","system_id":"levelo_inurba_marseille","lat":43.29529,"lon":5.385581,"is_reserved":false,"is_disabled":false,"rental_uris":{"android":"levelo://app?vid=c3978124-6ee7-4d67-9753-55f8d4c38c3a","ios":"levelo://app?vid=c3978124-6ee7-4d67-9753-55f8d4c38c3a"},"vehicle_type_id":"4","last_reported":1713989297,"current_range_meters":26400,"station_id":"ce4bgih2rcd13ifvqba0","pricing_plan_id":"cebpf4jnsgd1na2vs0mg"},{"bike_id":"71e39179-b6e9-48a9-8591-035a36f7ed0c","system_id":"levelo_inurba_marseille","lat":43.29529,"lon":5.385581,"is_reserved":false,"is_disabled":false,"rental_uris":{"android":"levelo://app?vid=71e39179-b6e9-48a9-8591-035a36f7ed0c","ios":"levelo://app?vid=71e39179-b6e9-48a9-8591-035a36f7ed0c"},"vehicle_type_id":"4","last_reported":1713989297,"current_range_meters":19200,"station_id":"ce4bgih2rcd13ifvqba0","pricing_plan_id":"cebpf4jnsgd1na2vs0mg"},{"bike_id":"67ce8e45-6b4e-4f8f-9b4e-c2e7a011a56d","system_id":"levelo_inurba_marseille","lat":43.29529,"lon":5.385581,"is_reserved":false,"is_disabled":false,"rental_uris":{"android":"levelo://app?vid=67ce8e45-6b4e-4f8f-9b4e-c2e7a011a56d","ios":"levelo://app?vid=67ce8e45-6b4e-4f8f-9b4e-c2e7a011a56d"},"vehicle_type_id":"4","last_reported":1713989297,"current_range_meters":20000,"station_id":"ce4bgih2rcd13ifvqba0","pricing_plan_id":"cebpf4jnsgd1na2vs0mg"},{"bike_id":"f5176a18-9e5e-4271-b549-1fb8ed2b269c","system_id":"levelo_inurba_marseille","lat":43.29529,"lon":5.385581,"is_reserved":false,"is_disabled":false,"rental_uris":{"android":"levelo://app?vid=f5176a18-9e5e-4271-b549-1fb8ed2b269c","ios":"levelo://app?vid=f5176a18-9e5e-4271-b549-1fb8ed2b269c"},"vehicle_type_id":"4","last_reported":1713989297,"current_range_meters":2000,"station_id":"ce4bgih2rcd13ifvqba0","pricing_plan_id":"cebpf4jnsgd1na2vs0mg"},{"bike_id":"e12bbf50-ba1a-40eb-911c-edeac4325d13","system_id":"levelo_inurba_marseille","lat":43.29529,"lon":5.385581,"is_reserved":false,"is_disabled":false,"rental_uris":{"android":"levelo://app?vid=e12bbf50-ba1a-40eb-911c-edeac4325d13","ios":"levelo://app?vid=e12bbf50-ba1a-40eb-911c-edeac4325d13"},"vehicle_type_id":"4","last_reported":1713989297,"current_range_meters":20800,"station_id":"ce4bgih2rcd13ifvqba0","pricing_plan_id":"cebpf4jnsgd1na2vs0mg"},{"bike_id":"74be94cb-b66a-47a6-97af-8735fdd3c27a","system_id":"levelo_inurba_marseille","lat":43.29529,"lon":5.385581,"is_reserved":false,"is_disabled":false,"rental_uris":{"android":"levelo://app?vid=74be94cb-b66a-47a6-97af-8735fdd3c27a","ios":"levelo://app?vid=74be94cb-b66a-47a6-97af-8735fdd3c27a"},"vehicle_type_id":"4","last_reported":1713989297,"current_range_meters":4400,"station_id":"ce4bgih2rcd13ifvqba0","pricing_plan_id":"cebpf4jnsgd1na2vs0mg"},{"bike_id":"1630be11-b08f-4750-aeaf-f7e2d89205f8","system_id":"levelo_inurba_marseille","lat":43.29529,"lon":5.385581,"is_reserved":false,"is_disabled":false,"rental_uris":{"android":"levelo://app?vid=1630be11-b08f-4750-aeaf-f7e2d89205f8","ios":"levelo://app?vid=1630be11-b08f-4750-aeaf-f7e2d89205f8"},"vehicle_type_id":"4","last_reported":1713989297,"current_range_meters":20400,"station_id":"ce4bgih2rcd13ifvqba0","pricing_plan_id":"cebpf4jnsgd1na2vs0mg"},{"bike_id":"16967664-7d95-4c0b-96f3-e7200b7bec18","system_id":"levelo_inurba_marseille","lat":43.29529,"lon":5.385581,"is_reserved":false,"is_disabled":false,"rental_uris":{"android":"levelo://app?vid=16967664-7d95-4c0b-96f3-e7200b7bec18","ios":"levelo://app?vid=16967664-7d95-4c0b-96f3-e7200b7bec18"},"vehicle_type_id":"4","last_reported":1713989297,"current_range_meters":0,"station_id":"ce4bgih2rcd13ifvqba0","pricing_plan_id":"cebpf4jnsgd1na2vs0mg"},{"bike_id":"18f78cc9-d89f-4333-959b-fcc813106748","system_id":"levelo_inurba_marseille","lat":43.29529,"lon":5.385581,"is_reserved":false,"is_disabled":false,"rental_uris":{"android":"levelo://app?vid=18f78cc9-d89f-4333-959b-fcc813106748","ios":"levelo://app?vid=18f78cc9-d89f-4333-959b-fcc813106748"},"vehicle_type_id":"4","last_reported":1713989297,"current_range_meters":6800,"station_id":"ce4bgih2rcd13ifvqba0","pricing_plan_id":"cebpf4jnsgd1na2vs0mg"},{"bike_id":"8e038633-9911-4004-b91f-0aa9f7d26e2d","system_id":"levelo_inurba_marseille","lat":43.29533,"lon":5.38549,"is_reserved":false,"is_disabled":false,"rental_uris":{"android":"levelo://app?vid=8e038633-9911-4004-b91f-0aa9f7d26e2d","ios":"levelo://app?vid=8e038633-9911-4004-b91f-0aa9f7d26e2d"},"vehicle_type_id":"4","last_reported":1713989297,"current_range_meters":19600,"station_id":"ce4bgih2rcd13ifvqba0","pricing_plan_id":"cebpf4jnsgd1na2vs0mg"},{"bike_id":"fafb698c-951c-4b81-8704-35129282d6a7","system_id":"levelo_inurba_marseille","lat":43.29529,"lon":5.385581,"is_reserved":false,"is_disabled":false,"rental_uris":{"android":"levelo://app?vid=fafb698c-951c-4b81-8704-35129282d6a7","ios":"levelo://app?vid=fafb698c-951c-4b81-8704-35129282d6a7"},"vehicle_type_id":"4","last_reported":1713989297,"current_range_meters":4400,"station_id":"ce4bgih2rcd13ifvqba0","pricing_plan_id":"cebpf4jnsgd1na2vs0mg"},{"bike_id":"3b8519cd-78a5-42e1-a406-c7d51987c3d2","system_id":"levelo_inurba_marseille","lat":43.29529,"lon":5.385581,"is_reserved":false,"is_disabled":false,"rental_uris":{"android":"levelo://app?vid=3b8519cd-78a5-42e1-a406-c7d51987c3d2","ios":"levelo://app?vid=3b8519cd-78a5-42e1-a406-c7d51987c3d2"},"vehicle_type_id":"4","last_reported":1713989297,"current_range_meters":4400,"station_id":"ce4bgih2rcd13ifvqba0","pricing_plan_id":"cebpf4jnsgd1na2vs0mg"},{"bike_id":"c531f3cb-4452-4234-bcd9-1c7c4ef8a9fd","system_id":"levelo_inurba_marseille","lat":43.29529,"lon":5.385581,"is_reserved":false,"is_disabled":false,"rental_uris":{"android":"levelo://app?vid=c531f3cb-4452-4234-bcd9-1c7c4ef8a9fd","ios":"levelo://app?vid=c531f3cb-4452-4234-bcd9-1c7c4ef8a9fd"},"vehicle_type_id":"4","last_reported":1713989297,"current_range_meters":28800,"station_id":"ce4bgih2rcd13ifvqba0","pricing_plan_id":"cebpf4jnsgd1na2vs0mg"},{"bike_id":"24493f51-d25f-4da6-aec7-2d9176692cdb","system_id":"levelo_inurba_marseille","lat":43.29529,"lon":5.385581,"is_reserved":false,"is_disabled":false,"rental_uris":{"android":"levelo://app?vid=24493f51-d25f-4da6-aec7-2d9176692cdb","ios":"levelo://app?vid=24493f51-d25f-4da6-aec7-2d9176692cdb"},"vehicle_type_id":"4","last_reported":1713989297,"current_range_meters":6400,"station_id":"ce4bgih2rcd13ifvqba0","pricing_plan_id":"cebpf4jnsgd1na2vs0mg"},{"bike_id":"cb80cf07-dec3-4596-bb07-a5a92ffae18f","system_id":"levelo_inurba_marseille","lat":43.29529,"lon":5.385581,"is_reserved":false,"is_disabled":false,"rental_uris":{"android":"levelo://app?vid=cb80cf07-dec3-4596-bb07-a5a92ffae18f","ios":"levelo://app?vid=cb80cf07-dec3-4596-bb07-a5a92ffae18f"},"vehicle_type_id":"4","last_reported":1713989297,"current_range_meters":11200,"station_id":"ce4bgih2rcd13ifvqba0","pricing_plan_id":"cebpf4jnsgd1na2vs0mg"},{"bike_id":"47735d09-764e-4856-a8a5-49211f78d339","system_id":"levelo_inurba_marseille","lat":43.29529,"lon":5.385581,"is_reserved":false,"is_disabled":false,"rental_uris":{"android":"levelo://app?vid=47735d09-764e-4856-a8a5-49211f78d339","ios":"levelo://app?vid=47735d09-764e-4856-a8a5-49211f78d339"},"vehicle_type_id":"4","last_reported":1713989297,"current_range_meters":16400,"station_id":"ce4bgih2rcd13ifvqba0","pricing_plan_id":"cebpf4jnsgd1na2vs0mg"},{"bike_id":"248c8f65-47d6-4bbd-9ddb-0e96711bff6f","system_id":"levelo_inurba_marseille","lat":43.29585,"lon":5.38665,"is_reserved":false,"is_disabled":false,"rental_uris":{"android":"levelo://app?vid=248c8f65-47d6-4bbd-9ddb-0e96711bff6f","ios":"levelo://app?vid=248c8f65-47d6-4bbd-9ddb-0e96711bff6f"},"vehicle_type_id":"4","last_reported":1713989297,"current_range_meters":8800,"station_id":"","pricing_plan_id":"cebpf4jnsgd1na2vs0mg"},{"bike_id":"99bf5189-61e8-40f7-b572-9fdb086ac6a0","system_id":"levelo_inurba_marseille","lat":43.290779,"lon":5.371482,"is_reserved":false,"is_disabled":false,"rental_uris":{"android":"levelo://app?vid=99bf5189-61e8-40f7-b572-9fdb086ac6a0","ios":"levelo://app?vid=99bf5189-61e8-40f7-b572-9fdb086ac6a0"},"vehicle_type_id":"4","last_reported":1713989297,"current_range_meters":16400,"station_id":"ce4bh5p2rcd13ifvqe4g","pricing_plan_id":"cebpf4jnsgd1na2vs0mg"},{"bike_id":"5f74a206-4380-48d0-9a55-aa3afea1a28e","system_id":"levelo_inurba_marseille","lat":43.295226,"lon":5.385768,"is_reserved":false,"is_disabled":false,"rental_uris":{"android":"levelo://app?vid=5f74a206-4380-48d0-9a55-aa3afea1a28e","ios":"levelo://app?vid=5f74a206-4380-48d0-9a55-aa3afea1a28e"},"vehicle_type_id":"4","last_reported":1713989297,"current_range_meters":10400,"station_id":"ce4bgih2rcd13ifvqba0","pricing_plan_id":"cebpf4jnsgd1na2vs0mg"},{"bike_id":"5cbbada1-20c2-4042-8de9-fa7ef988b674","system_id":"levelo_inurba_marseille","lat":43.290779,"lon":5.371482,"is_reserved":false,"is_disabled":false,"rental_uris":{"android":"levelo://app?vid=5cbbada1-20c2-4042-8de9-fa7ef988b674","ios":"levelo://app?vid=5cbbada1-20c2-4042-8de9-fa7ef988b674"},"vehicle_type_id":"4","last_reported":1713989297,"current_range_meters":16400,"station_id":"ce4bh5p2rcd13ifvqe4g","pricing_plan_id":"cebpf4jnsgd1na2vs0mg"},{"bike_id":"f346e46d-5587-4d30-af67-da80933db832","system_id":"levelo_inurba_marseille","lat":43.290779,"lon":5.371482,"is_reserved":false,"is_disabled":false,"rental_uris":{"android":"levelo://app?vid=f346e46d-5587-4d30-af67-da80933db832","ios":"levelo://app?vid=f346e46d-5587-4d30-af67-da80933db832"},"vehicle_type_id":"4","last_reported":1713989297,"current_range_meters":0,"station_id":"ce4bh5p2rcd13ifvqe4g","pricing_plan_id":"cebpf4jnsgd1na2vs0mg"},{"bike_id":"d193e600-b65f-4414-a7a1-77cbfbab90b4","system_id":"levelo_inurba_marseille","lat":43.290779,"lon":5.371482,"is_reserved":false,"is_disabled":false,"rental_uris":{"android":"levelo://app?vid=d193e600-b65f-4414-a7a1-77cbfbab90b4","ios":"levelo://app?vid=d193e600-b65f-4414-a7a1-77cbfbab90b4"},"vehicle_type_id":"4","last_reported":1713989297,"current_range_meters":16000,"station_id":"ce4bh5p2rcd13ifvqe4g","pricing_plan_id":"cebpf4jnsgd1na2vs0mg"},{"bike_id":"bdd4e0af-6920-45b7-ab6d-5cddbc3baed7","system_id":"levelo_inurba_marseille","lat":43.290779,"lon":5.371482,"is_reserved":false,"is_disabled":false,"rental_uris":{"android":"levelo://app?vid=bdd4e0af-6920-45b7-ab6d-5cddbc3baed7","ios":"levelo://app?vid=bdd4e0af-6920-45b7-ab6d-5cddbc3baed7"},"vehicle_type_id":"4","last_reported":1713989297,"current_range_meters":5600,"station_id":"ce4bh5p2rcd13ifvqe4g","pricing_plan_id":"cebpf4jnsgd1na2vs0mg"},{"bike_id":"d11bdcfb-a2b1-43ed-b883-0253ca6cb900","system_id":"levelo_inurba_marseille","lat":43.295713,"lon":5.399639,"is_reserved":false,"is_disabled":false,"rental_uris":{"android":"levelo://app?vid=d11bdcfb-a2b1-43ed-b883-0253ca6cb900","ios":"levelo://app?vid=d11bdcfb-a2b1-43ed-b883-0253ca6cb900"},"vehicle_type_id":"4","last_reported":1713989297,"current_range_meters":5600,"station_id":"ce4bh312rcd13ifvqdj0","pricing_plan_id":"cebpf4jnsgd1na2vs0mg"},{"bike_id":"e601e0fb-cacb-4aa4-9cf3-8fbb9e0d3f3f","system_id":"levelo_inurba_marseille","lat":43.294487,"lon":5.38536,"is_reserved":false,"is_disabled":false,"rental_uris":{"android":"levelo://app?vid=e601e0fb-cacb-4aa4-9cf3-8fbb9e0d3f3f","ios":"levelo://app?vid=e601e0fb-cacb-4aa4-9cf3-8fbb9e0d3f3f"},"vehicle_type_id":"4","last_reported":1713989297,"current_range_meters":1200,"station_id":"ce4bgih2rcd13ifvqba0","pricing_plan_id":"cebpf4jnsgd1na2vs0mg"},{"bike_id":"8e89f4fe-8bf6-43fd-a3fc-283d2df008e0","system_id":"levelo_inurba_marseille","lat":43.290624,"lon":5.359245,"is_reserved":false,"is_disabled":false,"rental_uris":{"android":"levelo://app?vid=8e89f4fe-8bf6-43fd-a3fc-283d2df008e0","ios":"levelo://app?vid=8e89f4fe-8bf6-43fd-a3fc-283d2df008e0"},"vehicle_type_id":"4","last_reported":1713989297,"current_range_meters":30400,"station_id":"ce4bha92rcd13ifvqeg0","pricing_plan_id":"cebpf4jnsgd1na2vs0mg"},{"bike_id":"0ceb87ce-69af-4eeb-b560-ea6d9c82df12","system_id":"levelo_inurba_marseille","lat":43.29429,"lon":5.3862,"is_reserved":false,"is_disabled":false,"rental_uris":{"android":"levelo://app?vid=0ceb87ce-69af-4eeb-b560-ea6d9c82df12","ios":"levelo://app?vid=0ceb87ce-69af-4eeb-b560-ea6d9c82df12"},"vehicle_type_id":"4","last_reported":1713989297,"current_range_meters":22400,"station_id":"ce4bh2h2rcd13ifvqdh0","pricing_plan_id":"cebpf4jnsgd1na2vs0mg"},{"bike_id":"2b21d3aa-e2df-42dd-ab91-ed989d1878e9","system_id":"levelo_inurba_marseille","lat":43.294153,"lon":5.386305,"is_reserved":false,"is_disabled":false,"rental_uris":{"android":"levelo://app?vid=2b21d3aa-e2df-42dd-ab91-ed989d1878e9","ios":"levelo://app?vid=2b21d3aa-e2df-42dd-ab91-ed989d1878e9"},"vehicle_type_id":"4","last_reported":1713989297,"current_range_meters":27200,"station_id":"ce4bh2h2rcd13ifvqdh0","pricing_plan_id":"cebpf4jnsgd1na2vs0mg"},{"bike_id":"ca6ee515-a300-4f75-840d-42280c895f24","system_id":"levelo_inurba_marseille","lat":43.294153,"lon":5.386305,"is_reserved":false,"is_disabled":false,"rental_uris":{"android":"levelo://app?vid=ca6ee515-a300-4f75-840d-42280c895f24","ios":"levelo://app?vid=ca6ee515-a300-4f75-840d-42280c895f24"},"vehicle_type_id":"4","last_reported":1713989297,"current_range_meters":6800,"station_id":"ce4bh2h2rcd13ifvqdh0","pricing_plan_id":"cebpf4jnsgd1na2vs0mg"},{"bike_id":"22961455-8903-412f-9bdb-bade7636df72","system_id":"levelo_inurba_marseille","lat":43.290327,"lon":5.375711,"is_reserved":false,"is_disabled":false,"rental_uris":{"android":"levelo://app?vid=22961455-8903-412f-9bdb-bade7636df72","ios":"levelo://app?vid=22961455-8903-412f-9bdb-bade7636df72"},"vehicle_type_id":"4","last_reported":1713989297,"current_range_meters":7600,"station_id":"ce4bh692rcd13ifvqe90","pricing_plan_id":"cebpf4jnsgd1na2vs0mg"},{"bike_id":"d23f17ff-404f-461f-9707-396c181f52e2","system_id":"levelo_inurba_marseille","lat":43.289516,"lon":5.366396,"is_reserved":false,"is_disabled":false,"rental_uris":{"android":"levelo://app?vid=d23f17ff-404f-461f-9707-396c181f52e2","ios":"levelo://app?vid=d23f17ff-404f-461f-9707-396c181f52e2"},"vehicle_type_id":"4","last_reported":1713989297,"current_range_meters":6800,"station_id":"ce4bhap2rcd13ifvqek0","pricing_plan_id":"cebpf4jnsgd1na2vs0mg"},{"bike_id":"43993db6-b2cf-471e-b40f-46d818e64a94","system_id":"levelo_inurba_marseille","lat":43.294153,"lon":5.386305,"is_reserved":false,"is_disabled":false,"rental_uris":{"android":"levelo://app?vid=43993db6-b2cf-471e-b40f-46d818e64a94","ios":"levelo://app?vid=43993db6-b2cf-471e-b40f-46d818e64a94"},"vehicle_type_id":"4","last_reported":1713989297,"current_range_meters":5600,"station_id":"ce4bh2h2rcd13ifvqdh0","pricing_plan_id":"cebpf4jnsgd1na2vs0mg"},{"bike_id":"4e80bd65-489a-4fb3-800d-9fcae8d400fb","system_id":"levelo_inurba_marseille","lat":43.294162,"lon":5.386292,"is_reserved":false,"is_disabled":false,"rental_uris":{"android":"levelo://app?vid=4e80bd65-489a-4fb3-800d-9fcae8d400fb","ios":"levelo://app?vid=4e80bd65-489a-4fb3-800d-9fcae8d400fb"},"vehicle_type_id":"4","last_reported":1713989297,"current_range_meters":29600,"station_id":"ce4bh2h2rcd13ifvqdh0","pricing_plan_id":"cebpf4jnsgd1na2vs0mg"},{"bike_id":"137fee49-21c4-4470-95f4-ad67c3979031","system_id":"levelo_inurba_marseille","lat":43.2942,"lon":5.3862,"is_reserved":false,"is_disabled":false,"rental_uris":{"android":"levelo://app?vid=137fee49-21c4-4470-95f4-ad67c3979031","ios":"levelo://app?vid=137fee49-21c4-4470-95f4-ad67c3979031"},"vehicle_type_id":"4","last_reported":1713989297,"current_range_meters":22400,"station_id":"ce4bh2h2rcd13ifvqdh0","pricing_plan_id":"cebpf4jnsgd1na2vs0mg"},{"bike_id":"80efd286-630b-4508-b5bd-ce5af8104853","system_id":"levelo_inurba_marseille","lat":43.29421,"lon":5.38622,"is_reserved":false,"is_disabled":false,"rental_uris":{"android":"levelo://app?vid=80efd286-630b-4508-b5bd-ce5af8104853","ios":"levelo://app?vid=80efd286-630b-4508-b5bd-ce5af8104853"},"vehicle_type_id":"4","last_reported":1713989297,"current_range_meters":5200,"station_id":"ce4bh2h2rcd13ifvqdh0","pricing_plan_id":"cebpf4jnsgd1na2vs0mg"},{"bike_id":"4feb4890-7b97-4f54-85c5-75d37730f944","system_id":"levelo_inurba_marseille","lat":43.294153,"lon":5.386305,"is_reserved":false,"is_disabled":false,"rental_uris":{"android":"levelo://app?vid=4feb4890-7b97-4f54-85c5-75d37730f944","ios":"levelo://app?vid=4feb4890-7b97-4f54-85c5-75d37730f944"},"vehicle_type_id":"4","last_reported":1713989297,"current_range_meters":31200,"station_id":"ce4bh2h2rcd13ifvqdh0","pricing_plan_id":"cebpf4jnsgd1na2vs0mg"},{"bike_id":"65f11b0a-064f-4170-b127-bedf5325417a","system_id":"levelo_inurba_marseille","lat":43.294153,"lon":5.386305,"is_reserved":false,"is_disabled":false,"rental_uris":{"android":"levelo://app?vid=65f11b0a-064f-4170-b127-bedf5325417a","ios":"levelo://app?vid=65f11b0a-064f-4170-b127-bedf5325417a"},"vehicle_type_id":"4","last_reported":1713989297,"current_range_meters":14000,"station_id":"ce4bh2h2rcd13ifvqdh0","pricing_plan_id":"cebpf4jnsgd1na2vs0mg"},{"bike_id":"89170389-20ea-4c3c-a6a2-72c04199b605","system_id":"levelo_inurba_marseille","lat":43.2942,"lon":5.38622,"is_reserved":false,"is_disabled":false,"rental_uris":{"android":"levelo://app?vid=89170389-20ea-4c3c-a6a2-72c04199b605","ios":"levelo://app?vid=89170389-20ea-4c3c-a6a2-72c04199b605"},"vehicle_type_id":"4","last_reported":1713989297,"current_range_meters":7200,"station_id":"ce4bh2h2rcd13ifvqdh0","pricing_plan_id":"cebpf4jnsgd1na2vs0mg"},{"bike_id":"089c82a4-81e7-477a-a396-0ba4fdb6cc38","system_id":"levelo_inurba_marseille","lat":43.294162,"lon":5.386292,"is_reserved":false,"is_disabled":false,"rental_uris":{"android":"levelo://app?vid=089c82a4-81e7-477a-a396-0ba4fdb6cc38","ios":"levelo://app?vid=089c82a4-81e7-477a-a396-0ba4fdb6cc38"},"vehicle_type_id":"4","last_reported":1713989297,"current_range_meters":12400,"station_id":"ce4bh2h2rcd13ifvqdh0","pricing_plan_id":"cebpf4jnsgd1na2vs0mg"},{"bike_id":"f93c6188-2f0a-4258-99c9-0531a7106966","system_id":"levelo_inurba_marseille","lat":43.29417,"lon":5.38619,"is_reserved":false,"is_disabled":false,"rental_uris":{"android":"levelo://app?vid=f93c6188-2f0a-4258-99c9-0531a7106966","ios":"levelo://app?vid=f93c6188-2f0a-4258-99c9-0531a7106966"},"vehicle_type_id":"4","last_reported":1713989297,"current_range_meters":22800,"station_id":"ce4bh2h2rcd13ifvqdh0","pricing_plan_id":"cebpf4jnsgd1na2vs0mg"},