{"last_updated":1702933574,"ttl":30,"version":"2.2","data":{"bikes":[{"bike_id":"14cfc467-ab00-4814-b672-121c373b580a","system_id":"levelo_inurba_marseille","lat":43.314811,"lon":5.373103,"is_reserved":false,"is_disabled":false,"rental_uris":{"android":"levelo://app?vid=14cfc467-ab00-4814-b672-121c373b580a","ios":"levelo://app?vid=14cfc467-ab00-4814-b672-121c373b580a"},"vehicle_type_id":"4","last_reported":1702933574,"current_range_meters":15600,"station_id":"ce4bgt12rcd13ifvqcd0","pricing_plan_id":"free"},{"bike_id":"dc24c224-d8ae-4463-baf0-5cd8880b5cb0","system_id":"levelo_inurba_marseille","lat":43.305706,"lon":5.365654,"is_reserved":false,"is_disabled":false,"rental_uris":{"android":"levelo://app?vid=dc24c224-d8ae-4463-baf0-5cd8880b5cb0","ios":"levelo://app?vid=dc24c224-d8ae-4463-baf0-5cd8880b5cb0"},"vehicle_type_id":"4","last_reported":1702933574,"current_range_meters":26400,"station_id":"ce4bgs12rcd13ifvqcag","pricing_plan_id":"free"},{"bike_id":"955e4ab2-16e5-44e8-a986-a2f50ff96c06","system_id":"levelo_inurba_marseille","lat":43.305382,"lon":5.365389,"is_reserved":false,"is_disabled":false,"rental_uris":{"android":"levelo://app?vid=955e4ab2-16e5-44e8-a986-a2f50ff96c06","ios":"levelo://app?vid=955e4ab2-16e5-44e8-a986-a2f50ff96c06"},"vehicle_type_id":"4","last_reported":1702933574,"current_range_meters":6400,"station_id":"","pricing_plan_id":"free"},{"bike_id":"f48eb2bc-48db-475d-89e4-84cd2cce2ba5","system_id":"levelo_inurba_marseille","lat":43.305989,"lon":5.37225,"is_reserved":false,"is_disabled":false,"rental_uris":{"android":"levelo://app?vid=f48eb2bc-48db-475d-89e4-84cd2cce2ba5","ios":"levelo://app?vid=f48eb2bc-48db-475d-89e4-84cd2cce2ba5"},"vehicle_type_id":"4","last_reported":1702933574,"current_range_meters":6400,"station_id":"ce4bgqh2rcd13ifvqc4g","pricing_plan_id":"free"},{"bike_id":"ffe0756d-f7c9-469e-8093-da6c1c28d732","system_id":"levelo_inurba_marseille","lat":43.305989,"lon":5.37225,"is_reserved":false,"is_disabled":false,"rental_uris":{"android":"levelo://app?vid=ffe0756d-f7c9-469e-8093-da6c1c28d732","ios":"levelo://app?vid=ffe0756d-f7c9-469e-8093-da6c1c28d732"},"vehicle_type_id":"4","last_reported":1702933574,"current_range_meters":24400,"station_id":"ce4bgqh2rcd13ifvqc4g","pricing_plan_id":"free"},{"bike_id":"e8551574-b543-4e28-a92f-df91f86783ee","system_id":"levelo_inurba_marseille","lat":43.311125,"lon":5.377624,"is_reserved":false,"is_disabled":false,"rental_uris":{"android":"levelo://app?vid=e8551574-b543-4e28-a92f-df91f86783ee","ios":"levelo://app?vid=e8551574-b543-4e28-a92f-df91f86783ee"},"vehicle_type_id":"4","last_reported":1702933574,"current_range_meters":23200,"station_id":"ce4bgt92rcd13ifvqcg0","pricing_plan_id":"free"},{"bike_id":"6f5a469c-da6c-4d5a-8707-d44c2ebd497f","system_id":"levelo_inurba_marseille","lat":43.311125,"lon":5.377624,"is_reserved":false,"is_disabled":false,"rental_uris":{"android":"levelo://app?vid=6f5a469c-da6c-4d5a-8707-d44c2ebd497f","ios":"levelo://app?vid=6f5a469c-da6c-4d5a-8707-d44c2ebd497f"},"vehicle_type_id":"4","last_reported":1702933574,"current_range_meters":0,"station_id":"ce4bgt92rcd13ifvqcg0","pricing_plan_id":"free"},{"bike_id":"81f45c1b-53fa-4a58-a765-52e5c02a148f","system_id":"levelo_inurba_marseille","lat":43.307945,"lon":5.376487,"is_reserved":false,"is_disabled":false,"rental_uris":{"android":"levelo://app?vid=81f45c1b-53fa-4a58-a765-52e5c02a148f","ios":"levelo://app?vid=81f45c1b-53fa-4a58-a765-52e5c02a148f"},"vehicle_type_id":"4","last_reported":1702933574,"current_range_meters":18000,"station_id":"ce4bgv92rcd13ifvqcq0","pricing_plan_id":"free"},{"bike_id":"b7fa031c-b110-4ff0-a58d-bcb08e3a330f","system_id":"levelo_inurba_marseille","lat":43.307945,"lon":5.376487,"is_reserved":false,"is_disabled":false,"rental_uris":{"android":"levelo://app?vid=b7fa031c-b110-4ff0-a58d-bcb08e3a330f","ios":"levelo://app?vid=b7fa031c-b110-4ff0-a58d-bcb08e3a330f"},"vehicle_type_id":"4","last_reported":1702933574,"current_range_meters":0,"station_id":"ce4bgv92rcd13ifvqcq0","pricing_plan_id":"free"},{"bike_id":"c3c8fab7-5ec7-4fd5-830f-5a53156b37a2","system_id":"levelo_inurba_marseille","lat":43.307945,"lon":5.376487,"is_reserved":false,"is_disabled":false,"rental_uris":{"android":"levelo://app?vid=c3c8fab7-5ec7-4fd5-830f-5a53156b37a2","ios":"levelo://app?vid=c3c8fab7-5ec7-4fd5-830f-5a53156b37a2"},"vehicle_type_id":"4","last_reported":1702933574,"current_range_meters":26000,"station_id":"ce4bgv92rcd13ifvqcq0","pricing_plan_id":"free"},{"bike_id":"f7f074db-378d-44c1-8878-f5342605dcf3","system_id":"levelo_inurba_marseille","lat":43.303046,"lon":5.368981,"is_reserved":false,"is_disabled":false,"rental_uris":{"android":"levelo://app?vid=f7f074db-378d-44c1-8878-f5342605dcf3","ios":"levelo://app?vid=f7f074db-378d-44c1-8878-f5342605dcf3"},"vehicle_type_id":"4","last_reported":1702933574,"current_range_meters":13200,"station_id":"ce4bgqh2rcd13ifvqc5g","pricing_plan_id":"free"},{"bike_id":"3808f086-850a-4e2c-b454-a68005a43490","system_id":"levelo_inurba_marseille","lat":43.30306,"lon":5.369073,"is_reserved":false,"is_disabled":false,"rental_uris":{"android":"levelo://app?vid=3808f086-850a-4e2c-b454-a68005a43490","ios":"levelo://app?vid=3808f086-850a-4e2c-b454-a68005a43490"},"vehicle_type_id":"4","last_reported":1702933574,"current_range_meters":24000,"station_id":"ce4bgqh2rcd13ifvqc5g","pricing_plan_id":"free"},{"bike_id":"7fff9f38-4835-4a37-922b-2626be2b3c5f","system_id":"levelo_inurba_marseille","lat":43.31532,"lon":5.38035,"is_reserved":false,"is_disabled":false,"rental_uris":{"android":"levelo://app?vid=7fff9f38-4835-4a37-922b-2626be2b3c5f","ios":"levelo://app?vid=7fff9f38-4835-4a37-922b-2626be2b3c5f"},"vehicle_type_id":"4","last_reported":1702933574,"current_range_meters":15600,"station_id":"ce4bhsp2rcd13ifvqi50","pricing_plan_id":"free"},{"bike_id":"1ab3c9f0-4d08-4fe1-8688-7032f32d4b45","system_id":"levelo_inurba_marseille","lat":43.304606,"lon":5.379026,"is_reserved":false,"is_disabled":false,"rental_uris":{"android":"levelo://app?vid=1ab3c9f0-4d08-4fe1-8688-7032f32d4b45","ios":"levelo://app?vid=1ab3c9f0-4d08-4fe1-8688-7032f32d4b45"},"vehicle_type_id":"4","last_reported":1702933574,"current_range_meters":27200,"station_id":"ce4bgup2rcd13ifvqcn0","pricing_plan_id":"free"},{"bike_id":"d48214d4-a0a2-402a-a080-535470c3be3b","system_id":"levelo_inurba_marseille","lat":43.304606,"lon":5.379026,"is_reserved":false,"is_disabled":false,"rental_uris":{"android":"levelo://app?vid=d48214d4-a0a2-402a-a080-535470c3be3b","ios":"levelo://app?vid=d48214d4-a0a2-402a-a080-535470c3be3b"},"vehicle_type_id":"4","last_reported":1702933574,"current_range_meters":29600,"station_id":"ce4bgup2rcd13ifvqcn0","pricing_plan_id":"free"},{"bike_id":"b339135a-926e-4b6c-8570-523cd741a572","system_id":"levelo_inurba_marseille","lat":43.304606,"lon":5.379026,"is_reserved":false,"is_disabled":false,"rental_uris":{"android":"levelo://app?vid=b339135a-926e-4b6c-8570-523cd741a572","ios":"levelo://app?vid=b339135a-926e-4b6c-8570-523cd741a572"},"vehicle_type_id":"4","last_reported":1702933574,"current_range_meters":26800,"station_id":"ce4bgup2rcd13ifvqcn0","pricing_plan_id":"free"},{"bike_id":"34253fdc-8670-44a1-8f6d-dfc4b28f9f19","system_id":"levelo_inurba_marseille","lat":43.304606,"lon":5.379026,"is_reserved":false,"is_disabled":false,"rental_uris":{"android":"levelo://app?vid=34253fdc-8670-44a1-8f6d-dfc4b28f9f19","ios":"levelo://app?vid=34253fdc-8670-44a1-8f6d-dfc4b28f9f19"},"vehicle_type_id":"4","last_reported":1702933574,"current_range_meters":29600,"station_id":"ce4bgup2rcd13ifvqcn0","pricing_plan_id":"free"},{"bike_id":"16236860-f5d0-42db-8fcd-e8c6c8156ded","system_id":"levelo_inurba_marseille","lat":43.304606,"lon":5.379026,"is_reserved":false,"is_disabled":false,"rental_uris":{"android":"levelo://app?vid=16236860-f5d0-42db-8fcd-e8c6c8156ded","ios":"levelo://app?vid=16236860-f5d0-42db-8fcd-e8c6c8156ded"},"vehicle_type_id":"4","last_reported":1702933574,"current_range_meters":26400,"station_id":"ce4bgup2rcd13ifvqcn0","pricing_plan_id":"free"},{"bike_id":"bec4cde5-4247-4184-b52f-f596a70addb1","system_id":"levelo_inurba_marseille","lat":43.304606,"lon":5.379026,"is_reserved":false,"is_disabled":false,"rental_uris":{"android":"levelo://app?vid=bec4cde5-4247-4184-b52f-f596a70addb1","ios":"levelo://app?vid=bec4cde5-4247-4184-b52f-f596a70addb1"},"vehicle_type_id":"4","last_reported":1702933574,"current_range_meters":28800,"station_id":"ce4bgup2rcd13ifvqcn0","pricing_plan_id":"free"},{"bike_id":"95ceb8e0-de56-4617-894d-d82d01c30687","system_id":"levelo_inurba_marseille","lat":43.304606,"lon":5.379026,"is_reserved":false,"is_disabled":false,"rental_uris":{"android":"levelo://app?vid=95ceb8e0-de56-4617-894d-d82d01c30687","ios":"levelo://app?vid=95ceb8e0-de56-4617-894d-d82d01c30687"},"vehicle_type_id":"4","last_reported":1702933574,"current_range_meters":24400,"station_id":"ce4bgup2rcd13ifvqcn0","pricing_plan_id":"free"},{"bike_id":"95ce6072-d8e8-469c-bf12-94d8c802f21d","system_id":"levelo_inurba_marseille","lat":43.304606,"lon":5.379026,"is_reserved":false,"is_disabled":false,"rental_uris":{"android":"levelo://app?vid=95ce6072-d8e8-469c-bf12-94d8c802f21d","ios":"levelo://app?vid=95ce6072-d8e8-469c-bf12-94d8c802f21d"},"vehicle_type_id":"4","last_reported":1702933574,"current_range_meters":29600,"station_id":"ce4bgup2rcd13ifvqcn0","pricing_plan_id":"free"},{"bike_id":"c4e47482-6e3e-4c45-907b-a153528f0b5c","system_id":"levelo_inurba_marseille","lat":43.304606,"lon":5.379026,"is_reserved":false,"is_disabled":false,"rental_uris":{"android":"levelo://app?vid=c4e47482-6e3e-4c45-907b-a153528f0b5c","ios":"levelo://app?vid=c4e47482-6e3e-4c45-907b-a153528f0b5c"},"vehicle_type_id":"4","last_reported":1702933574,"current_range_meters":28000,"station_id":"ce4bgup2rcd13ifvqcn0","pricing_plan_id":"free"},{"bike_id":"45339936-a93c-4679-9636-b2c04e6f7a50","system_id":"levelo_inurba_marseille","lat":43.32469,"lon":5.36576,"is_reserved":false,"is_disabled":false,"rental_uris":{"android":"levelo://app?vid=45339936-a93c-4679-9636-b2c04e6f7a50","ios":"levelo://app?vid=45339936-a93c-4679-9636-b2c04e6f7a50"},"vehicle_type_id":"4","last_reported":1702933574,"current_range_meters":15200,"station_id":"ce4bhs12rcd13ifvqhvg","pricing_plan_id":"free"},{"bike_id":"8b97c3f1-bb5f-4c4b-bae8-74bcb68230ca","system_id":"levelo_inurba_marseille","lat":43.310717,"lon":5.383228,"is_reserved":false,"is_disabled":false,"rental_uris":{"android":"levelo://app?vid=8b97c3f1-bb5f-4c4b-bae8-74bcb68230ca","ios":"levelo://app?vid=8b97c3f1-bb5f-4c4b-bae8-74bcb68230ca"},"vehicle_type_id":"4","last_reported":1702933574,"current_range_meters":0,"station_id":"","pricing_plan_id":"free"},{"bike_id":"ed80d926-9424-4de4-a2a4-f5420d87fbcd","system_id":"levelo_inurba_marseille","lat":43.30143,"lon":5.37413,"is_reserved":false,"is_disabled":false,"rental_uris":{"android":"levelo://app?vid=ed80d926-9424-4de4-a2a4-f5420d87fbcd","ios":"levelo://app?vid=ed80d926-9424-4de4-a2a4-f5420d87fbcd"},"vehicle_type_id":"4","last_reported":1702933574,"current_range_meters":31200,"station_id":"ce4bgs92rcd13ifvqcc0","pricing_plan_id":"free"},{"bike_id":"9bcc3f0f-d025-4a1e-9f10-ad3bfcc86132","system_id":"levelo_inurba_marseille","lat":43.30143,"lon":5.37413,"is_reserved":false,"is_disabled":false,"rental_uris":{"android":"levelo://app?vid=9bcc3f0f-d025-4a1e-9f10-ad3bfcc86132","ios":"levelo://app?vid=9bcc3f0f-d025-4a1e-9f10-ad3bfcc86132"},"vehicle_type_id":"4","last_reported":1702933574,"current_range_meters":28000,"station_id":"ce4bgs92rcd13ifvqcc0","pricing_plan_id":"free"},{"bike_id":"b7abe86b-cd2b-4151-b8b4-b40f1e853582","system_id":"levelo_inurba_marseille","lat":43.31361,"lon":5.38503,"is_reserved":false,"is_disabled":false,"rental_uris":{"android":"levelo://app?vid=b7abe86b-cd2b-4151-b8b4-b40f1e853582","ios":"levelo://app?vid=b7abe86b-cd2b-4151-b8b4-b40f1e853582"},"vehicle_type_id":"4","last_reported":1702933574,"current_range_meters":5600,"station_id":"ce4bgt92rcd13ifvqcf0","pricing_plan_id":"free"},{"bike_id":"5275ea88-3624-4c0d-91e6-e4385dca5ddb","system_id":"levelo_inurba_marseille","lat":43.31368,"lon":5.38503,"is_reserved":false,"is_disabled":false,"rental_uris":{"android":"levelo://app?vid=5275ea88-3624-4c0d-91e6-e4385dca5ddb","ios":"levelo://app?vid=5275ea88-3624-4c0d-91e6-e4385dca5ddb"},"vehicle_type_id":"4","last_reported":1702933574,"current_range_meters":27600,"station_id":"ce4bgt92rcd13ifvqcf0","pricing_plan_id":"free"},{"bike_id":"0bc60a94-98e6-491c-8dd9-11fd0f999cfc","system_id":"levelo_inurba_marseille","lat":43.299724,"lon":5.371829,"is_reserved":false,"is_disabled":false,"rental_uris":{"android":"levelo://app?vid=0bc60a94-98e6-491c-8dd9-11fd0f999cfc","ios":"levelo://app?vid=0bc60a94-98e6-491c-8dd9-11fd0f999cfc"},"vehicle_type_id":"4","last_reported":1702933574,"current_range_meters":22000,"station_id":"ce4bgr92rcd13ifvqc7g","pricing_plan_id":"free"},{"bike_id":"31520994-8c22-4c33-af33-bd32a6234ba2","system_id":"levelo_inurba_marseille","lat":43.305364,"lon":5.384119,"is_reserved":false,"is_disabled":false,"rental_uris":{"android":"levelo://app?vid=31520994-8c22-4c33-af33-bd32a6234ba2","ios":"levelo://app?vid=31520994-8c22-4c33-af33-bd32a6234ba2"},"vehicle_type_id":"4","last_reported":1702933574,"current_range_meters":20800,"station_id":"ce4bgg92rcd13ifvqb30","pricing_plan_id":"free"},{"bike_id":"819cb438-2e9c-4e0b-902b-5e19ef554d5c","system_id":"levelo_inurba_marseille","lat":43.305445,"lon":5.384362,"is_reserved":false,"is_disabled":false,"rental_uris":{"android":"levelo://app?vid=819cb438-2e9c-4e0b-902b-5e19ef554d5c","ios":"levelo://app?vid=819cb438-2e9c-4e0b-902b-5e19ef554d5c"},"vehicle_type_id":"4","last_reported":1702933574,"current_range_meters":5600,"station_id":"ce4bgg92rcd13ifvqb30","pricing_plan_id":"free"},{"bike_id":"ca10deb5-adbd-4ae7-a3d6-36d3962ab224","system_id":"levelo_inurba_marseille","lat":43.299243,"lon":5.37481,"is_reserved":false,"is_disabled":false,"rental_uris":{"android":"levelo://app?vid=ca10deb5-adbd-4ae7-a3d6-36d3962ab224","ios":"levelo://app?vid=ca10deb5-adbd-4ae7-a3d6-36d3962ab224"},"vehicle_type_id":"4","last_reported":1702933574,"current_range_meters":0,"station_id":"ce4bgjh2rcd13ifvqbg0","pricing_plan_id":"free"},{"bike_id":"d440d492-7c4b-4617-99bc-3e1a43d765a5","system_id":"levelo_inurba_marseille","lat":43.313571,"lon":5.384829,"is_reserved":false,"is_disabled":false,"rental_uris":{"android":"levelo://app?vid=d440d492-7c4b-4617-99bc-3e1a43d765a5","ios":"levelo://app?vid=d440d492-7c4b-4617-99bc-3e1a43d765a5"},"vehicle_type_id":"4","last_reported":1702933574,"current_range_meters":26400,"station_id":"ce4bgt92rcd13ifvqcf0","pricing_plan_id":"free"},{"bike_id":"e66617a4-437e-4611-bcde-9766d1b74975","system_id":"levelo_inurba_marseille","lat":43.322872,"lon":5.382756,"is_reserved":false,"is_disabled":false,"rental_uris":{"android":"levelo://app?vid=e66617a4-437e-4611-bcde-9766d1b74975","ios":"levelo://app?vid=e66617a4-437e-4611-bcde-9766d1b74975"},"vehicle_type_id":"4","last_reported":1702933574,"current_range_meters":30400,"station_id":"ce4bhr12rcd13ifvqhqg","pricing_plan_id":"free"},{"bike_id":"1c267f3f-a1a0-4d46-bdd2-f221e607ff1b","system_id":"levelo_inurba_marseille","lat":43.297163,"lon":5.365866,"is_reserved":false,"is_disabled":false,"rental_uris":{"android":"levelo://app?vid=1c267f3f-a1a0-4d46-bdd2-f221e607ff1b","ios":"levelo://app?vid=1c267f3f-a1a0-4d46-bdd2-f221e607ff1b"},"vehicle_type_id":"4","last_reported":1702933574,"current_range_meters":14000,"station_id":"ce4bgn12rcd13ifvqbt0","pricing_plan_id":"free"},{"bike_id":"a0b09f98-202c-460e-b957-2048912dcf9e","system_id":"levelo_inurba_marseille","lat":43.2968,"lon":5.37291,"is_reserved":false,"is_disabled":false,"rental_uris":{"android":"levelo://app?vid=a0b09f98-202c-460e-b957-2048912dcf9e","ios":"levelo://app?vid=a0b09f98-202c-460e-b957-2048912dcf9e"},"vehicle_type_id":"4","last_reported":1702933574,"current_range_meters":14800,"station_id":"ce4bgk12rcd13ifvqbj0","pricing_plan_id":"free"},{"bike_id":"9bc5f028-909d-40bb-bf72-d512760b4c9f","system_id":"levelo_inurba_marseille","lat":43.309589,"lon":5.390258,"is_reserved":false,"is_disabled":false,"rental_uris":{"android":"levelo://app?vid=9bc5f028-909d-40bb-bf72-d512760b4c9f","ios":"levelo://app?vid=9bc5f028-909d-40bb-bf72-d512760b4c9f"},"vehicle_type_id":"4","last_reported":1702933574,"current_range_meters":14000,"station_id":"ce4bgup2rcd13ifvqco0","pricing_plan_id":"free"},{"bike_id":"5a0dec12-6d40-456c-a336-a2b332cfce8e","system_id":"levelo_inurba_marseille","lat":43.317557,"lon":5.390173,"is_reserved":false,"is_disabled":false,"rental_uris":{"android":"levelo://app?vid=5a0dec12-6d40-456c-a336-a2b332cfce8e","ios":"levelo://app?vid=5a0dec12-6d40-456c-a336-a2b332cfce8e"},"vehicle_type_id":"4","last_reported":1702933574,"current_range_meters":25600,"station_id":"ce4bhqp2rcd13ifvqhng","pricing_plan_id":"free"},{"bike_id":"891d9f5b-3694-4ef9-997f-ac9e5e2e409c","system_id":"levelo_inurba_marseille","lat":43.317557,"lon":5.390173,"is_reserved":false,"is_disabled":false,"rental_uris":{"android":"levelo://app?vid=891d9f5b-3694-4ef9-997f-ac9e5e2e409c","ios":"levelo://app?vid=891d9f5b-3694-4ef9-997f-ac9e5e2e409c"},"vehicle_type_id":"4","last_reported":1702933574,"current_range_meters":20800,"station_id":"ce4bhqp2rcd13ifvqhng","pricing_plan_id":"free"},{"bike_id":"91352816-fb91-44e7-aa41-38c74758eacf","system_id":"levelo_inurba_marseille","lat":43.317557,"lon":5.390173,"is_reserved":false,"is_disabled":false,"rental_uris":{"android":"levelo://app?vid=91352816-fb91-44e7-aa41-38c74758eacf","ios":"levelo://app?vid=91352816-fb91-44e7-aa41-38c74758eacf"},"vehicle_type_id":"4","last_reported":1702933574,"current_range_meters":13600,"station_id":"ce4bhqp2rcd13ifvqhng","pricing_plan_id":"free"},{"bike_id":"708ff2df-6df8-437a-83a8-a660675bae4f","system_id":"levelo_inurba_marseille","lat":43.317557,"lon":5.390173,"is_reserved":false,"is_disabled":false,"rental_uris":{"android":"levelo://app?vid=708ff2df-6df8-437a-83a8-a660675bae4f","ios":"levelo://app?vid=708ff2df-6df8-437a-83a8-a660675bae4f"},"vehicle_type_id":"4","last_reported":1702933574,"current_range_meters":6400,"station_id":"ce4bhqp2rcd13ifvqhng","pricing_plan_id":"free"},{"bike_id":"4787c208-7793-455c-9f2d-7baf6ea78520","system_id":"levelo_inurba_marseille","lat":43.29802,"lon":5.38092,"is_reserved":false,"is_disabled":false,"rental_uris":{"android":"levelo://app?vid=4787c208-7793-455c-9f2d-7baf6ea78520","ios":"levelo://app?vid=4787c208-7793-455c-9f2d-7baf6ea78520"},"vehicle_type_id":"4","last_reported":1702933574,"current_range_meters":15200,"station_id":"ce4bgip2rcd13ifvqbb0","pricing_plan_id":"free"},{"bike_id":"2995b6bd-2ab4-4fad-ab59-670ee038577d","system_id":"levelo_inurba_marseille","lat":43.304274,"lon":5.388873,"is_reserved":false,"is_disabled":false,"rental_uris":{"android":"levelo://app?vid=2995b6bd-2ab4-4fad-ab59-670ee038577d","ios":"levelo://app?vid=2995b6bd-2ab4-4fad-ab59-670ee038577d"},"vehicle_type_id":"4","last_reported":1702933574,"current_range_meters":10000,"station_id":"ce4bgk12rcd13ifvqbi0","pricing_plan_id":"free"},{"bike_id":"10d7df7f-fd5d-419c-8505-c3bd4c2fcdec","system_id":"levelo_inurba_marseille","lat":43.296217,"lon":5.38005,"is_reserved":false,"is_disabled":false,"rental_uris":{"android":"levelo://app?vid=10d7df7f-fd5d-419c-8505-c3bd4c2fcdec","ios":"levelo://app?vid=10d7df7f-fd5d-419c-8505-c3bd4c2fcdec"},"vehicle_type_id":"4","last_reported":1702933574,"current_range_meters":19600,"station_id":"","pricing_plan_id":"free"},{"bike_id":"e8795552-7144-4ff4-a5c2-fa7244b8a858","system_id":"levelo_inurba_marseille","lat":43.293259,"lon":5.371586,"is_reserved":false,"is_disabled":false,"rental_uris":{"android":"levelo://app?vid=e8795552-7144-4ff4-a5c2-fa7244b8a858","ios":"levelo://app?vid=e8795552-7144-4ff4-a5c2-fa7244b8a858"},"vehicle_type_id":"4","last_reported":1702933574,"current_range_meters":14000,"station_id":"ce4bgh92rcd13ifvqb40","pricing_plan_id":"free"},{"bike_id":"7fc3e57e-2003-4309-87be-5c7399bcbc53","system_id":"levelo_inurba_marseille","lat":43.29265,"lon":5.3685,"is_reserved":false,"is_disabled":false,"rental_uris":{"android":"levelo://app?vid=7fc3e57e-2003-4309-87be-5c7399bcbc53","ios":"levelo://app?vid=7fc3e57e-2003-4309-87be-5c7399bcbc53"},"vehicle_type_id":"4","last_reported":1702933574,"current_range_meters":0,"station_id":"ce4bhbp2rcd13ifvqesg","pricing_plan_id":"free"},{"bike_id":"64ae7dc7-bf88-4981-be91-e2aa176d557c","system_id":"levelo_inurba_marseille","lat":43.305994,"lon":5.393687,"is_reserved":false,"is_disabled":false,"rental_uris":{"android":"levelo://app?vid=64ae7dc7-bf88-4981-be91-e2aa176d557c","ios":"levelo://app?vid=64ae7dc7-bf88-4981-be91-e2aa176d557c"},"vehicle_type_id":"4","last_reported":1702933574,"current_range_meters":18000,"station_id":"ce4bh0p2rcd13ifvqd80","pricing_plan_id":"free"},{"bike_id":"0c5cd7cf-18b8-42d2-9a88-1ca4b8611c63","system_id":"levelo_inurba_marseille","lat":43.2936,"lon":5.37835,"is_reserved":false,"is_disabled":false,"rental_uris":{"android":"levelo://app?vid=0c5cd7cf-18b8-42d2-9a88-1ca4b8611c63","ios":"levelo://app?vid=0c5cd7cf-18b8-42d2-9a88-1ca4b8611c63"},"vehicle_type_id":"4","last_reported":1702933574,"current_range_meters":20000,"station_id":"ce4bgjh2rcd13ifvqbf0","pricing_plan_id":"free"},{"bike_id":"53788122-5aaa-49df-a699-c43f2b808ed3","system_id":"levelo_inurba_marseille","lat":43.30085,"lon":5.390932,"is_reserved":false,"is_disabled":false,"rental_uris":{"android":"levelo://app?vid=53788122-5aaa-49df-a699-c43f2b808ed3","ios":"levelo://app?vid=53788122-5aaa-49df-a699-c43f2b808ed3"},"vehicle_type_id":"4","last_reported":1702933574,"current_range_meters":31200,"station_id":"ce4bh192rcd13ifvqdb0","pricing_plan_id":"free"},{"bike_id":"9f18f4a2-2d03-404f-beb7-e3930a60b773","system_id":"levelo_inurba_marseille","lat":43.29873,"lon":5.389043,"is_reserved":false,"is_disabled":false,"rental_uris":{"android":"levelo://app?vid=9f18f4a2-2d03-404f-beb7-e3930a60b773","ios":"levelo://app?vid=9f18f4a2-2d03-404f-beb7-e3930a60b773"},"vehicle_type_id":"4","last_reported":1702933574,"current_range_meters":5600,"station_id":"","pricing_plan_id":"free"},{"bike_id":"f962fa19-d9fe-4f81-bbce-17ef368e6843","system_id":"levelo_inurba_marseille","lat":43.298683,"lon":5.38904,"is_reserved":false,"is_disabled":false,"rental_uris":{"android":"levelo://app?vid=f962fa19-d9fe-4f81-bbce-17ef368e6843","ios":"levelo://app?vid=f962fa19-d9fe-4f81-bbce-17ef368e6843"},"vehicle_type_id":"4","last_reported":1702933574,"current_range_meters":0,"station_id":"","pricing_plan_id":"free"},{"bike_id":"8d990dcd-9e1c-4897-b2d8-c69a8205637c","system_id":"levelo_inurba_marseille","lat":43.29865,"lon":5.38912,"is_reserved":false,"is_disabled":false,"rental_uris":{"android":"levelo://app?vid=8d990dcd-9e1c-4897-b2d8-c69a8205637c","ios":"levelo://app?vid=8d990dcd-9e1c-4897-b2d8-c69a8205637c"},"vehicle_type_id":"4","last_reported":1702933574,"current_range_meters":18400,"station_id":"","pricing_plan_id":"free"},{"bike_id":"00ee876a-08b6-4e00-9afd-1a9f313b4f55","system_id":"levelo_inurba_marseille","lat":43.29199,"lon":5.35808,"is_reserved":false,"is_disabled":false,"rental_uris":{"android":"levelo://app?vid=00ee876a-08b6-4e00-9afd-1a9f313b4f55","ios":"levelo://app?vid=00ee876a-08b6-4e00-9afd-1a9f313b4f55"},"vehicle_type_id":"4","last_reported":1702933574,"current_range_meters":14000,"station_id":"ce4bhb12rcd13ifvqel0","pricing_plan_id":"free"},{"bike_id":"f01ea687-71a8-4b78-abcd-aa65ea39f700","system_id":"levelo_inurba_marseille","lat":43.291994,"lon":5.357886,"is_reserved":false,"is_disabled":false,"rental_uris":{"android":"levelo://app?vid=f01ea687-71a8-4b78-abcd-aa65ea39f700","ios":"levelo://app?vid=f01ea687-71a8-4b78-abcd-aa65ea39f700"},"vehicle_type_id":"4","last_reported":1702933574,"current_range_meters":19600,"station_id":"ce4bhb12rcd13ifvqel0","pricing_plan_id":"free"},{"bike_id":"c262cd5a-3208-43b8-a32c-ba64a9e0c1f0","system_id":"levelo_inurba_marseille","lat":43.313291,"lon":5.396838,"is_reserved":false,"is_disabled":false,"rental_uris":{"android":"levelo://app?vid=c262cd5a-3208-43b8-a32c-ba64a9e0c1f0","ios":"levelo://app?vid=c262cd5a-3208-43b8-a32c-ba64a9e0c1f0"},"vehicle_type_id":"4","last_reported":1702933574,"current_range_meters":0,"station_id":"ce4bgvp2rcd13ifvqcu0","pricing_plan_id":"free"},{"bike_id":"bb0aaafd-d86d-4d4b-933a-b3925879f4ff","system_id":"levelo_inurba_marseille","lat":43.313291,"lon":5.396838,"is_reserved":false,"is_disabled":false,"rental_uris":{"android":"levelo://app?vid=bb0aaafd-d86d-4d4b-933a-b3925879f4ff","ios":"levelo://app?vid=bb0aaafd-d86d-4d4b-933a-b3925879f4ff"},"vehicle_type_id":"4","last_reported":1702933574,"current_range_meters":19600,"station_id":"ce4bgvp2rcd13ifvqcu0","pricing_plan_id":"free"},{"bike_id":"0a31ed2a-87c2-4e2f-8c31-84ef29d5cbe1","system_id":"levelo_inurba_marseille","lat":43.313291,"lon":5.396838,"is_reserved":false,"is_disabled":false,"rental_uris":{"android":"levelo://app?vid=0a31ed2a-87c2-4e2f-8c31-84ef29d5cbe1","ios":"levelo://app?vid=0a31ed2a-87c2-4e2f-8c31-84ef29d5cbe1"},"vehicle_type_id":"4","last_reported":1702933574,"current_range_meters":29200,"station_id":"ce4bgvp2rcd13ifvqcu0","pricing_plan_id":"free"},{"bike_id":"3e1705c2-c377-4f28-9057-1f10f70aaada","system_id":"levelo_inurba_marseille","lat":43.309047,"lon":5.396551,"is_reserved":false,"is_disabled":false,"rental_uris":{"android":"levelo://app?vid=3e1705c2-c377-4f28-9057-1f10f70aaada","ios":"levelo://app?vid=3e1705c2-c377-4f28-9057-1f10f70aaada"},"vehicle_type_id":"4","last_reported":1702933574,"current_range_meters":24400,"station_id":"ce4bh012rcd13ifvqcv0","pricing_plan_id":"free"},{"bike_id":"961b34cd-8126-4c91-92ca-3725b7316673","system_id":"levelo_inurba_marseille","lat":43.291994,"lon":5.357886,"is_reserved":false,"is_disabled":false,"rental_uris":{"android":"levelo://app?vid=961b34cd-8126-4c91-92ca-3725b7316673","ios":"levelo://app?vid=961b34cd-8126-4c91-92ca-3725b7316673"},"vehicle_type_id":"4","last_reported":1702933574,"current_range_meters":30400,"station_id":"ce4bhb12rcd13ifvqel0","pricing_plan_id":"free"},{"bike_id":"241b1e6d-5e83-4075-922e-8e2eeb9bb922","system_id":"levelo_inurba_marseille","lat":43.313291,"lon":5.396838,"is_reserved":false,"is_disabled":false,"rental_uris":{"android":"levelo://app?vid=241b1e6d-5e83-4075-922e-8e2eeb9bb922","ios":"levelo://app?vid=241b1e6d-5e83-4075-922e-8e2eeb9bb922"},"vehicle_type_id":"4","last_reported":1702933574,"current_range_meters":24000,"station_id":"ce4bgvp2rcd13ifvqcu0","pricing_plan_id":"free"},{"bike_id":"75253405-6889-48cd-985a-cbc0ff756b36","system_id":"levelo_inurba_marseille","lat":43.309038,"lon":5.396546,"is_reserved":false,"is_disabled":false,"rental_uris":{"android":"levelo://app?vid=75253405-6889-48cd-985a-cbc0ff756b36","ios":"levelo://app?vid=75253405-6889-48cd-985a-cbc0ff756b36"},"vehicle_type_id":"4","last_reported":1702933574,"current_range_meters":12800,"station_id":"ce4bh012rcd13ifvqcv0","pricing_plan_id":"free"},{"bike_id":"1c073a34-7b59-4d8f-90d9-1d2b3a1762d0","system_id":"levelo_inurba_marseille","lat":43.309038,"lon":5.396546,"is_reserved":false,"is_disabled":false,"rental_uris":{"android":"levelo://app?vid=1c073a34-7b59-4d8f-90d9-1d2b3a1762d0","ios":"levelo://app?vid=1c073a34-7b59-4d8f-90d9-1d2b3a1762d0"},"vehicle_type_id":"4","last_reported":1702933574,"current_range_meters":9200,"station_id":"ce4bh012rcd13ifvqcv0","pricing_plan_id":"free"},{"bike_id":"68849c2f-1d7d-447f-a783-a32281cf2409","system_id":"levelo_inurba_marseille","lat":43.309038,"lon":5.396546,"is_reserved":false,"is_disabled":false,"rental_uris":{"android":"levelo://app?vid=68849c2f-1d7d-447f-a783-a32281cf2409","ios":"levelo://app?vid=68849c2f-1d7d-447f-a783-a32281cf2409"},"vehicle_type_id":"4","last_reported":1702933574,"current_range_meters":18400,"station_id":"ce4bh012rcd13ifvqcv0","pricing_plan_id":"free"},{"bike_id":"ad40c9cd-ee26-448a-bf70-b24866ec9f46","system_id":"levelo_inurba_marseille","lat":43.309038,"lon":5.396546,"is_reserved":false,"is_disabled":false,"rental_uris":{"android":"levelo://app?vid=ad40c9cd-ee26-448a-bf70-b24866ec9f46","ios":"levelo://app?vid=ad40c9cd-ee26-448a-bf70-b24866ec9f46"},"vehicle_type_id":"4","last_reported":1702933574,"current_range_meters":17600,"station_id":"ce4bh012rcd13ifvqcv0","pricing_plan_id":"free"},{"bike_id":"0a6846ef-e9dc-47b2-b1a7-2583912d5ef9","system_id":"levelo_inurba_marseille","lat":43.29529,"lon":5.385581,"is_reserved":false,"is_disabled":false,"rental_uris":{"android":"levelo://app?vid=0a6846ef-e9dc-47b2-b1a7-2583912d5ef9","ios":"levelo://app?vid=0a6846ef-e9dc-47b2-b1a7-2583912d5ef9"},"vehicle_type_id":"4","last_reported":1702933574,"current_range_meters":7600,"station_id":"ce4bgih2rcd13ifvqba0","pricing_plan_id":"free"},{"bike_id":"01f773f5-78ec-483d-8927-3da9d0a48625","system_id":"levelo_inurba_marseille","lat":43.29529,"lon":5.385581,"is_reserved":false,"is_disabled":false,"rental_uris":{"android":"levelo://app?vid=01f773f5-78ec-483d-8927-3da9d0a48625","ios":"levelo://app?vid=01f773f5-78ec-483d-8927-3da9d0a48625"},"vehicle_type_id":"4","last_reported":1702933574,"current_range_meters":19200,"station_id":"ce4bgih2rcd13ifvqba0","pricing_plan_id":"free"},{"bike_id":"f82764a0-679a-40e3-b6b7-186a1857c5d0","system_id":"levelo_inurba_marseille","lat":43.29529,"lon":5.385581,"is_reserved":false,"is_disabled":false,"rental_uris":{"android":"levelo://app?vid=f82764a0-679a-40e3-b6b7-186a1857c5d0","ios":"levelo://app?vid=f82764a0-679a-40e3-b6b7-186a1857c5d0"},"vehicle_type_id":"4","last_reported":1702933574,"current_range_meters":4800,"station_id":"ce4bgih2rcd13ifvqba0","pricing_plan_id":"free"},{"bike_id":"f5d47a8e-47ea-42f8-a792-22b47ee9ce2f","system_id":"levelo_inurba_marseille","lat":43.29529,"lon":5.385581,"is_reserved":false,"is_disabled":false,"rental_uris":{"android":"levelo://app?vid=f5d47a8e-47ea-42f8-a792-22b47ee9ce2f","ios":"levelo://app?vid=f5d47a8e-47ea-42f8-a792-22b47ee9ce2f"},"vehicle_type_id":"4","last_reported":1702933574,"current_range_meters":15600,"station_id":"ce4bgih2rcd13ifvqba0","pricing_plan_id":"free"},{"bike_id":"4d4bb202-63ea-48fc-8400-fa8b20021fd2","system_id":"levelo_inurba_marseille","lat":43.289957,"lon":5.366996,"is_reserved":false,"is_disabled":false,"rental_uris":{"android":"levelo://app?vid=4d4bb202-63ea-48fc-8400-fa8b20021fd2","ios":"levelo://app?vid=4d4bb202-63ea-48fc-8400-fa8b20021fd2"},"vehicle_type_id":"4","last_reported":1702933574,"current_range_meters":0,"station_id":"","pricing_plan_id":"free"},{"bike_id":"98c5a812-4f2c-4f04-b4c4-2798f01b602c","system_id":"levelo_inurba_marseille","lat":43.302008,"lon":5.394694,"is_reserved":false,"is_disabled":false,"rental_uris":{"android":"levelo://app?vid=98c5a812-4f2c-4f04-b4c4-2798f01b602c","ios":"levelo://app?vid=98c5a812-4f2c-4f04-b4c4-2798f01b602c"},"vehicle_type_id":"4","last_reported":1702933574,"current_range_meters":2800,"station_id":"ce4bh0p2rcd13ifvqd70","pricing_plan_id":"free"},{"bike_id":"0d7aa228-8e80-46a9-a143-fefab4b4d0e5","system_id":"levelo_inurba_marseille","lat":43.290624,"lon":5.359245,"is_reserved":false,"is_disabled":false,"rental_uris":{"android":"levelo://app?vid=0d7aa228-8e80-46a9-a143-fefab4b4d0e5","ios":"levelo://app?vid=0d7aa228-8e80-46a9-a143-fefab4b4d0e5"},"vehicle_type_id":"4","last_reported":1702933574,"current_range_meters":31200,"station_id":"ce4bha92rcd13ifvqeg0","pricing_plan_id":"free"},{"bike_id":"872ebf06-3421-4285-9dfb-04c874d8254c","system_id":"levelo_inurba_marseille","lat":43.290624,"lon":5.359245,"is_reserved":false,"is_disabled":false,"rental_uris":{"android":"levelo://app?vid=872ebf06-3421-4285-9dfb-04c874d8254c","ios":"levelo://app?vid=872ebf06-3421-4285-9dfb-04c874d8254c"},"vehicle_type_id":"4","last_reported":1702933574,"current_range_meters":12400,"station_id":"ce4bha92rcd13ifvqeg0","pricing_plan_id":"free"},{"bike_id":"a6e55a04-c0cd-4fab-a13e-ecfc81f56598","system_id":"levelo_inurba_marseille","lat":43.2942,"lon":5.38628,"is_reserved":false,"is_disabled":false,"rental_uris":{"android":"levelo://app?vid=a6e55a04-c0cd-4fab-a13e-ecfc81f56598","ios":"levelo://app?vid=a6e55a04-c0cd-4fab-a13e-ecfc81f56598"},"vehicle_type_id":"4","last_reported":1702933574,"current_range_meters":10400,"station_id":"ce4bh2h2rcd13ifvqdh0","pricing_plan_id":"free"},{"bike_id":"1909193d-9301-4389-ab65-9db313705820","system_id":"levelo_inurba_marseille","lat":43.290327,"lon":5.375711,"is_reserved":false,"is_disabled":false,"rental_uris":{"android":"levelo://app?vid=1909193d-9301-4389-ab65-9db313705820","ios":"levelo://app?vid=1909193d-9301-4389-ab65-9db313705820"},"vehicle_type_id":"4","last_reported":1702933574,"current_range_meters":23600,"station_id":"ce4bh692rcd13ifvqe90","pricing_plan_id":"free"},{"bike_id":"6365df2b-54d6-4600-87db-dec95c73c1e1","system_id":"levelo_inurba_marseille","lat":43.28935,"lon":5.36359,"is_reserved":false,"is_disabled":false,"rental_uris":{"android":"levelo://app?vid=6365df2b-54d6-4600-87db-dec95c73c1e1","ios":"levelo://app?vid=6365df2b-54d6-4600-87db-dec95c73c1e1"},"vehicle_type_id":"4","last_reported":1702933574,"current_range_meters":15600,"station_id":"ce4bhc92rcd13ifvqetg","pricing_plan_id":"free"},{"bike_id":"7f44e232-dd41-4037-8adc-57f975382d60","system_id":"levelo_inurba_marseille","lat":43.304274,"lon":5.397513,"is_reserved":false,"is_disabled":false,"rental_uris":{"android":"levelo://app?vid=7f44e232-dd41-4037-8adc-57f975382d60","ios":"levelo://app?vid=7f44e232-dd41-4037-8adc-57f975382d60"},"vehicle_type_id":"4","last_reported":1702933574,"current_range_meters":24800,"station_id":"ce4bh092rcd13ifvqd20","pricing_plan_id":"free"},{"bike_id":"25299760-3b30-4728-952d-8938f1c802c3","system_id":"levelo_inurba_marseille","lat":43.33043,"lon":5.38915,"is_reserved":false,"is_disabled":false,"rental_uris":{"android":"levelo://app?vid=25299760-3b30-4728-952d-8938f1c802c3","ios":"levelo://app?vid=25299760-3b30-4728-952d-8938f1c802c3"},"vehicle_type_id":"4","last_reported":1702933574,"current_range_meters":9600,"station_id":"ce4bhr92rcd13ifvqhrg","pricing_plan_id":"free"},{"bike_id":"bb4a18f7-dd2a-4ad5-8d6e-35c6c7f9f11b","system_id":"levelo_inurba_marseille","lat":43.33045,"lon":5.389182,"is_reserved":false,"is_disabled":false,"rental_uris":{"android":"levelo://app?vid=bb4a18f7-dd2a-4ad5-8d6e-35c6c7f9f11b","ios":"levelo://app?vid=bb4a18f7-dd2a-4ad5-8d6e-35c6c7f9f11b"},"vehicle_type_id":"4","last_reported":1702933574,"current_range_meters":20400,"station_id":"ce4bhr92rcd13ifvqhrg","pricing_plan_id":"free"},{"bike_id":"0eb29cf8-6cad-4fbf-8127-a31ff2bbb89a","system_id":"levelo_inurba_marseille","lat":43.330442,"lon":5.389148,"is_reserved":false,"is_disabled":false,"rental_uris":{"android":"levelo://app?vid=0eb29cf8-6cad-4fbf-8127-a31ff2bbb89a","ios":"levelo://app?vid=0eb29cf8-6cad-4fbf-8127-a31ff2bbb89a"},"vehicle_type_id":"4","last_reported":1702933574,"current_range_meters":2000,"station_id":"ce4bhr92rcd13ifvqhrg","pricing_plan_id":"free"},{"bike_id":"204bce71-52a7-4ef3-a323-e54c1712d742","system_id":"levelo_inurba_marseille","lat":43.290995,"lon":5.381361,"is_reserved":false,"is_disabled":false,"rental_uris":{"android":"levelo://app?vid=204bce71-52a7-4ef3-a323-e54c1712d742","ios":"levelo://app?vid=204bce71-52a7-4ef3-a323-e54c1712d742"},"vehicle_type_id":"4","last_reported":1702933574,"current_range_meters":25200,"station_id":"ce4bh512rcd13ifvqe2g","pricing_plan_id":"free"},{"bike_id":"98045cf4-5f70-4b22-86ad-140c8509fd39","system_id":"levelo_inurba_marseille","lat":43.290995,"lon":5.381361,"is_reserved":false,"is_disabled":false,"rental_uris":{"android":"levelo://app?vid=98045cf4-5f70-4b22-86ad-140c8509fd39","ios":"levelo://app?vid=98045cf4-5f70-4b22-86ad-140c8509fd39"},"vehicle_type_id":"4","last_reported":1702933574,"current_range_meters":1200,"station_id":"ce4bh512rcd13ifvqe2g","pricing_plan_id":"free"},{"bike_id":"3879c1c5-7425-41b2-8443-5508f5fcd79b","system_id":"levelo_inurba_marseille","lat":43.2901,"lon":5.381269,"is_reserved":false,"is_disabled":false,"rental_uris":{"android":"levelo://app?vid=3879c1c5-7425-41b2-8443-5508f5fcd79b","ios":"levelo://app?vid=3879c1c5-7425-41b2-8443-5508f5fcd79b"},"vehicle_type_id":"4","last_reported":1702933574,"current_range_meters":0,"station_id":"ce4bh4p2rcd13ifvqe1g","pricing_plan_id":"free"},{"bike_id":"7902aa3f-5f53-4403-a92d-c4c487a1e6b2","system_id":"levelo_inurba_marseille","lat":43.2901,"lon":5.381269,"is_reserved":false,"is_disabled":false,"rental_uris":{"android":"levelo://app?vid=7902aa3f-5f53-4403-a92d-c4c487a1e6b2","ios":"levelo://app?vid=7902aa3f-5f53-4403-a92d-c4c487a1e6b2"},"vehicle_type_id":"4","last_reported":1702933574,"current_range_meters":19600,"station_id":"ce4bh4p2rcd13ifvqe1g","pricing_plan_id":"free"},{"bike_id":"2d4b0caa-c042-482c-876e-9604cd417441","system_id":"levelo_inurba_marseille","lat":43.288523,"lon":5.358465,"is_reserved":false,"is_disabled":false,"rental_uris":{"android":"levelo://app?vid=2d4b0caa-c042-482c-876e-9604cd417441","ios":"levelo://app?vid=2d4b0caa-c042-482c-876e-9604cd417441"},"vehicle_type_id":"4","last_reported":1702933574,"current_range_meters":24000,"station_id":"ce4bhb12rcd13ifvqem0","pricing_plan_id":"free"},{"bike_id":"ca45c648-1d0a-490f-af54-e00b4f4dfcf7","system_id":"levelo_inurba_marseille","lat":43.288487,"lon":5.358403,"is_reserved":false,"is_disabled":false,"rental_uris":{"android":"levelo://app?vid=ca45c648-1d0a-490f-af54-e00b4f4dfcf7","ios":"levelo://app?vid=ca45c648-1d0a-490f-af54-e00b4f4dfcf7"},"vehicle_type_id":"4","last_reported":1702933574,"current_range_meters":6400,"station_id":"ce4bhb12rcd13ifvqem0","pricing_plan_id":"free"},{"bike_id":"963fbab0-f2b4-424a-abdd-7f439beb9caf","system_id":"levelo_inurba_marseille","lat":43.28856,"lon":5.358371,"is_reserved":false,"is_disabled":false,"rental_uris":{"android":"levelo://app?vid=963fbab0-f2b4-424a-abdd-7f439beb9caf","ios":"levelo://app?vid=963fbab0-f2b4-424a-abdd-7f439beb9caf"},"vehicle_type_id":"4","last_reported":1702933574,"current_range_meters":30000,"station_id":"ce4bhb12rcd13ifvqem0","pricing_plan_id":"free"},{"bike_id":"f0f46fd8-050a-4138-8044-ad305b92e2c8","system_id":"levelo_inurba_marseille","lat":43.30933,"lon":5.401492,"is_reserved":false,"is_disabled":false,"rental_uris":{"android":"levelo://app?vid=f0f46fd8-050a-4138-8044-ad305b92e2c8","ios":"levelo://app?vid=f0f46fd8-050a-4138-8044-ad305b92e2c8"},"vehicle_type_id":"4","last_reported":1702933574,"current_range_meters":0,"station_id":"ce4bgvp2rcd13ifvqct0","pricing_plan_id":"free"},{"bike_id":"52555428-7738-4bc5-99ea-eb79b5202705","system_id":"levelo_inurba_marseille","lat":43.337623,"lon":5.374587,"is_reserved":false,"is_disabled":false,"rental_uris":{"android":"levelo://app?vid=52555428-7738-4bc5-99ea-eb79b5202705","ios":"levelo://app?vid=52555428-7738-4bc5-99ea-eb79b5202705"},"vehicle_type_id":"4","last_reported":1702933574,"current_range_meters":28000,"station_id":"","pricing_plan_id":"free"},{"bike_id":"026cbfc9-40e8-4036-9686-3581b53c9590","system_id":"levelo_inurba_marseille","lat":43.337674,"lon":5.374352,"is_reserved":false,"is_disabled":false,"rental_uris":{"android":"levelo://app?vid=026cbfc9-40e8-4036-9686-3581b53c9590","ios":"levelo://app?vid=026cbfc9-40e8-4036-9686-3581b53c9590"},"vehicle_type_id":"4","last_reported":1702933574,"current_range_meters":30000,"station_id":"ce4bgup2rcd13ifvqcn0","pricing_plan_id":"free"},{"bike_id":"a4d2036a-4a97-4f91-a181-a009036eda57","system_id":"levelo_inurba_marseille","lat":43.306412,"lon":5.401035,"is_reserved":false,"is_disabled":false,"rental_uris":{"android":"levelo://app?vid=a4d2036a-4a97-4f91-a181-a009036eda57","ios":"levelo://app?vid=a4d2036a-4a97-4f91-a181-a009036eda57"},"vehicle_type_id":"4","last_reported":1702933574,"current_range_meters":21200,"station_id":"ce4bh112rcd13ifvqda0","pricing_plan_id":"free"},{"bike_id":"a66abf70-40c1-41c0-945f-6a61f636f745","system_id":"levelo_inurba_marseille","lat":43.304606,"lon":5.379026,"is_reserved":false,"is_disabled":false,"rental_uris":{"android":"levelo://app?vid=a66abf70-40c1-41c0-945f-6a61f636f745","ios":"levelo://app?vid=a66abf70-40c1-41c0-945f-6a61f636f745"},"vehicle_type_id":"4","last_reported":1702933574,"current_range_meters":27200,"station_id":"ce4bgup2rcd13ifvqcn0","pricing_plan_id":"free"},{"bike_id":"30fe65e3-b366-4630-8c71-a903cf8a6c91","system_id":"levelo_inurba_marseille","lat":43.30642,"lon":5.401031,"is_reserved":false,"is_disabled":false,"rental_uris":{"android":"levelo://app?vid=30fe65e3-b366-4630-8c71-a903cf8a6c91","ios":"levelo://app?vid=30fe65e3-b366-4630-8c71-a903cf8a6c91"},"vehicle_type_id":"4","last_reported":1702933574,"current_range_meters":29200,"station_id":"ce4bh112rcd13ifvqda0","pricing_plan_id":"free"},{"bike_id":"546a40db-da13-41c4-bbd7-f03da32eed7f","system_id":"levelo_inurba_marseille","lat":43.30642,"lon":5.401031,"is_reserved":false,"is_disabled":false,"rental_uris":{"android":"levelo://app?vid=546a40db-da13-41c4-bbd7-f03da32eed7f","ios":"levelo://app?vid=546a40db-da13-41c4-bbd7-f03da32eed7f"},"vehicle_type_id":"4","last_reported":1702933574,"current_range_meters":22400,"station_id":"ce4bh112rcd13ifvqda0","pricing_plan_id":"free"},{"bike_id":"24fb1dbc-7fad-48c3-81cf-8e086f27e028","system_id":"levelo_inurba_marseille","lat":43.337857,"lon":5.374233,"is_reserved":false,"is_disabled":false,"rental_uris":{"android":"levelo://app?vid=24fb1dbc-7fad-48c3-81cf-8e086f27e028","ios":"levelo://app?vid=24fb1dbc-7fad-48c3-81cf-8e086f27e028"},"vehicle_type_id":"4","last_reported":1702933574,"current_range_meters":12000,"station_id":"","pricing_plan_id":"free"},{"bike_id":"b1eaceac-7114-4f42-82cd-e638b3844461","system_id":"levelo_inurba_marseille","lat":43.30139,"lon":5.39866,"is_reserved":false,"is_disabled":false,"rental_uris":{"android":"levelo://app?vid=b1eaceac-7114-4f42-82cd-e638b3844461","ios":"levelo://app?vid=b1eaceac-7114-4f42-82cd-e638b3844461"},"vehicle_type_id":"4","last_reported":1702933574,"current_range_meters":28400,"station_id":"ce4bh0h2rcd13ifvqd40","pricing_plan_id":"free"},{"bike_id":"6e918b37-d62a-4b9c-8b5f-57f770248d00","system_id":"levelo_inurba_marseille","lat":43.30131,"lon":5.39862,"is_reserved":false,"is_disabled":false,"rental_uris":{"android":"levelo://app?vid=6e918b37-d62a-4b9c-8b5f-57f770248d00","ios":"levelo://app?vid=6e918b37-d62a-4b9c-8b5f-57f770248d00"},"vehicle_type_id":"4","last_reported":1702933574,"current_range_meters":23600,"station_id":"ce4bh0h2rcd13ifvqd40","pricing_plan_id":"free"},{"bike_id":"9812d273-2e00-48a0-ad06-5c7b620b86f0","system_id":"levelo_inurba_marseille","lat":43.30135,"lon":5.39867,"is_reserved":false,"is_disabled":false,"rental_uris":{"android":"levelo://app?vid=9812d273-2e00-48a0-ad06-5c7b620b86f0","ios":"levelo://app?vid=9812d273-2e00-48a0-ad06-5c7b620b86f0"},"vehicle_type_id":"4","last_reported":1702933574,"current_range_meters":24400,"station_id":"ce4bh0h2rcd13ifvqd40","pricing_plan_id":"free"},{"bike_id":"da8431bc-46f2-4010-971b-0c04cfea0848","system_id":"levelo_inurba_marseille","lat":43.3013,"lon":5.39878,"is_reserved":false,"is_disabled":false,"rental_uris":{"android":"levelo://app?vid=da8431bc-46f2-4010-971b-0c04cfea0848","ios":"levelo://app?vid=da8431bc-46f2-4010-971b-0c04cfea0848"},"vehicle_type_id":"4","last_reported":1702933574,"current_range_meters":1200,"station_id":"ce4bh0h2rcd13ifvqd40","pricing_plan_id":"free"},{"bike_id":"dfe0e63f-e657-4749-8691-a2708869d71d","system_id":"levelo_inurba_marseille","lat":43.28727,"lon":5.36078,"is_reserved":false,"is_disabled":false,"rental_uris":{"android":"levelo://app?vid=dfe0e63f-e657-4749-8691-a2708869d71d","ios":"levelo://app?vid=dfe0e63f-e657-4749-8691-a2708869d71d"},"vehicle_type_id":"4","last_reported":1702933574,"current_range_meters":31600,"station_id":"cki0cbj6b192h4jlfktg","pricing_plan_id":"free"},{"bike_id":"2618ed52-aaab-4281-b032-c4cac9cbdffa","system_id":"levelo_inurba_marseille","lat":43.28727,"lon":5.36078,"is_reserved":false,"is_disabled":false,"rental_uris":{"android":"levelo://app?vid=2618ed52-aaab-4281-b032-c4cac9cbdffa","ios":"levelo://app?vid=2618ed52-aaab-4281-b032-c4cac9cbdffa"},"vehicle_type_id":"4","last_reported":1702933574,"current_range_meters":20000,"station_id":"cki0cbj6b192h4jlfktg","pricing_plan_id":"free"},{"bike_id":"630fd99b-f3f6-46af-8008-a278c6313617","system_id":"levelo_inurba_marseille","lat":43.28727,"lon":5.36078,"is_reserved":false,"is_disabled":false,"rental_uris":{"android":"levelo://app?vid=630fd99b-f3f6-46af-8008-a278c6313617","ios":"levelo://app?vid=630fd99b-f3f6-46af-8008-a278c6313617"},"vehicle_type_id":"4","last_reported":1702933574,"current_range_meters":11200,"station_id":"cki0cbj6b192h4jlfktg","pricing_plan_id":"free"},{"bike_id":"8c943944-d3cd-46ca-a2f1-3e27be3d9a1f","system_id":"levelo_inurba_marseille","lat":43.28727,"lon":5.36078,"is_reserved":false,"is_disabled":false,"rental_uris":{"android":"levelo://app?vid=8c943944-d3cd-46ca-a2f1-3e27be3d9a1f","ios":"levelo://app?vid=8c943944-d3cd-46ca-a2f1-3e27be3d9a1f"},"vehicle_type_id":"4","last_reported":1702933574,"current_range_meters":9600,"station_id":"cki0cbj6b192h4jlfktg","pricing_plan_id":"free"},{"bike_id":"c29afe82-6aed-4c8d-9600-266c6b8ca6d7","system_id":"levelo_inurba_marseille","lat":43.28727,"lon":5.36078,"is_reserved":false,"is_disabled":false,"rental_uris":{"android":"levelo://app?vid=c29afe82-6aed-4c8d-9600-266c6b8ca6d7","ios":"levelo://app?vid=c29afe82-6aed-4c8d-9600-266c6b8ca6d7"},"vehicle_type_id":"4","last_reported":1702933574,"current_range_meters":24000,"station_id":"cki0cbj6b192h4jlfktg","pricing_plan_id":"free"},{"bike_id":"63d602d7-0141-407d-8a2b-bc3417e0c436","system_id":"levelo_inurba_marseille","lat":43.28727,"lon":5.36078,"is_reserved":false,"is_disabled":false,"rental_uris":{"android":"levelo://app?vid=63d602d7-0141-407d-8a2b-bc3417e0c436","ios":"levelo://app?vid=63d602d7-0141-407d-8a2b-bc3417e0c436"},"vehicle_type_id":"4","last_reported":1702933574,"current_range_meters":400,"station_id":"cki0cbj6b192h4jlfktg","pricing_plan_id":"free"},{"bike_id":"57343f7a-b5a7-4c64-bde2-578dd3b7d51a","system_id":"levelo_inurba_marseille","lat":43.286961,"lon":5.373785,"is_reserved":false,"is_disabled":false,"rental_uris":{"android":"levelo://app?vid=57343f7a-b5a7-4c64-bde2-578dd3b7d51a","ios":"levelo://app?vid=57343f7a-b5a7-4c64-bde2-578dd3b7d51a"},"vehicle_type_id":"4","last_reported":1702933574,"current_range_meters":31200,"station_id":"ce4bh3p2rcd13ifvqdq0","pricing_plan_id":"free"},{"bike_id":"dfb73974-63d4-4e7a-b53d-88c9dc54a2ff","system_id":"levelo_inurba_marseille","lat":43.28706,"lon":5.37384,"is_reserved":false,"is_disabled":false,"rental_uris":{"android":"levelo://app?vid=dfb73974-63d4-4e7a-b53d-88c9dc54a2ff","ios":"levelo://app?vid=dfb73974-63d4-4e7a-b53d-88c9dc54a2ff"},"vehicle_type_id":"4","last_reported":1702933574,"current_range_meters":4800,"station_id":"ce4bh3p2rcd13ifvqdq0","pricing_plan_id":"free"},{"bike_id":"6453bb5c-77f1-4e67-8cc1-f020cb779f12","system_id":"levelo_inurba_marseille","lat":43.290345,"lon":5.38646,"is_reserved":false,"is_disabled":false,"rental_uris":{"android":"levelo://app?vid=6453bb5c-77f1-4e67-8cc1-f020cb779f12","ios":"levelo://app?vid=6453bb5c-77f1-4e67-8cc1-f020cb779f12"},"vehicle_type_id":"4","last_reported":1702933574,"current_range_meters":20400,"station_id":"ce4bh4p2rcd13ifvqe0g","pricing_plan_id":"free"},{"bike_id":"7b3f30db-721a-4fb2-bf74-a7f1ed6d4c50","system_id":"levelo_inurba_marseille","lat":43.2903,"lon":5.38651,"is_reserved":false,"is_disabled":false,"rental_uris":{"android":"levelo://app?vid=7b3f30db-721a-4fb2-bf74-a7f1ed6d4c50","ios":"levelo://app?vid=7b3f30db-721a-4fb2-bf74-a7f1ed6d4c50"},"vehicle_type_id":"4","last_reported":1702933574,"current_range_meters":3200,"station_id":"ce4bh4p2rcd13ifvqe0g","pricing_plan_id":"free"},{"bike_id":"e30bc9a8-bfb5-476a-a0ef-6d5577b5cc19","system_id":"levelo_inurba_marseille","lat":43.289307,"lon":5.38406,"is_reserved":false,"is_disabled":false,"rental_uris":{"android":"levelo://app?vid=e30bc9a8-bfb5-476a-a0ef-6d5577b5cc19","ios":"levelo://app?vid=e30bc9a8-bfb5-476a-a0ef-6d5577b5cc19"},"vehicle_type_id":"4","last_reported":1702933574,"current_range_meters":20800,"station_id":"ce4bh612rcd13ifvqe6g","pricing_plan_id":"free"},{"bike_id":"f5954271-b3e2-4739-ad53-3fd68942a6ab","system_id":"levelo_inurba_marseille","lat":43.302759,"lon":5.400793,"is_reserved":false,"is_disabled":false,"rental_uris":{"android":"levelo://app?vid=f5954271-b3e2-4739-ad53-3fd68942a6ab","ios":"levelo://app?vid=f5954271-b3e2-4739-ad53-3fd68942a6ab"},"vehicle_type_id":"4","last_reported":1702933574,"current_range_meters":27200,"station_id":"ce4bgvh2rcd13ifvqcs0","pricing_plan_id":"free"},{"bike_id":"fbb017bb-049d-41e2-bfe9-aac2f99f294b","system_id":"levelo_inurba_marseille","lat":43.302759,"lon":5.400793,"is_reserved":false,"is_disabled":false,"rental_uris":{"android":"levelo://app?vid=fbb017bb-049d-41e2-bfe9-aac2f99f294b","ios":"levelo://app?vid=fbb017bb-049d-41e2-bfe9-aac2f99f294b"},"vehicle_type_id":"4","last_reported":1702933574,"current_range_meters":11200,"station_id":"ce4bgvh2rcd13ifvqcs0","pricing_plan_id":"free"},{"bike_id":"a57c2f55-b883-4a80-9646-ec4dc4359e61","system_id":"levelo_inurba_marseille","lat":43.302759,"lon":5.400793,"is_reserved":false,"is_disabled":false,"rental_uris":{"android":"levelo://app?vid=a57c2f55-b883-4a80-9646-ec4dc4359e61","ios":"levelo://app?vid=a57c2f55-b883-4a80-9646-ec4dc4359e61"},"vehicle_type_id":"4","last_reported":1702933574,"current_range_meters":1600,"station_id":"ce4bgvh2rcd13ifvqcs0","pricing_plan_id":"free"},{"bike_id":"0f4ce063-95b9-4a2b-8afe-3cea89672259","system_id":"levelo_inurba_marseille","lat":43.290345,"lon":5.38646,"is_reserved":false,"is_disabled":false,"rental_uris":{"android":"levelo://app?vid=0f4ce063-95b9-4a2b-8afe-3cea89672259","ios":"levelo://app?vid=0f4ce063-95b9-4a2b-8afe-3cea89672259"},"vehicle_type_id":"4","last_reported":1702933574,"current_range_meters":17200,"station_id":"ce4bh4p2rcd13ifvqe0g","pricing_plan_id":"free"},{"bike_id":"e9ebd21d-2f09-4bd4-a7ea-a9182895e836","system_id":"levelo_inurba_marseille","lat":43.286039,"lon":5.370679,"is_reserved":false,"is_disabled":false,"rental_uris":{"android":"levelo://app?vid=e9ebd21d-2f09-4bd4-a7ea-a9182895e836","ios":"levelo://app?vid=e9ebd21d-2f09-4bd4-a7ea-a9182895e836"},"vehicle_type_id":"4","last_reported":1702933574,"current_range_meters":29600,"station_id":"ce4bht12rcd13ifvqi60","pricing_plan_id":"free"},{"bike_id":"04ce3566-187c-4390-b127-e0bde3fb4456","system_id":"levelo_inurba_marseille","lat":43.314,"lon":5.404073,"is_reserved":false,"is_disabled":false,"rental_uris":{"android":"levelo://app?vid=04ce3566-187c-4390-b127-e0bde3fb4456","ios":"levelo://app?vid=04ce3566-187c-4390-b127-e0bde3fb4456"},"vehicle_type_id":"4","last_reported":1702933574,"current_range_meters":22000,"station_id":"","pricing_plan_id":"free"},{"bike_id":"984d00dd-d2db-4d65-b16f-df6d89ec09d5","system_id":"levelo_inurba_marseille","lat":43.287184,"lon":5.37937,"is_reserved":false,"is_disabled":false,"rental_uris":{"android":"levelo://app?vid=984d00dd-d2db-4d65-b16f-df6d89ec09d5","ios":"levelo://app?vid=984d00dd-d2db-4d65-b16f-df6d89ec09d5"},"vehicle_type_id":"4","last_reported":1702933574,"current_range_meters":2400,"station_id":"ce4bh9p2rcd13ifvqec0","pricing_plan_id":"free"},{"bike_id":"d6b9d7a0-74c0-471b-b961-93ca99176db2","system_id":"levelo_inurba_marseille","lat":43.291994,"lon":5.392907,"is_reserved":false,"is_disabled":false,"rental_uris":{"android":"levelo://app?vid=d6b9d7a0-74c0-471b-b961-93ca99176db2","ios":"levelo://app?vid=d6b9d7a0-74c0-471b-b961-93ca99176db2"},"vehicle_type_id":"4","last_reported":1702933574,"current_range_meters":2800,"station_id":"ce4bh192rcd13ifvqdd0","pricing_plan_id":"free"},{"bike_id":"5e263bd3-4fca-4573-82ef-dffb96fe92d1","system_id":"levelo_inurba_marseille","lat":43.291994,"lon":5.392907,"is_reserved":false,"is_disabled":false,"rental_uris":{"android":"levelo://app?vid=5e263bd3-4fca-4573-82ef-dffb96fe92d1","ios":"levelo://app?vid=5e263bd3-4fca-4573-82ef-dffb96fe92d1"},"vehicle_type_id":"4","last_reported":1702933574,"current_range_meters":2000,"station_id":"ce4bh192rcd13ifvqdd0","pricing_plan_id":"free"},{"bike_id":"24d4422a-81c5-48f5-b5b1-96a084b48a13","system_id":"levelo_inurba_marseille","lat":43.291994,"lon":5.392907,"is_reserved":false,"is_disabled":false,"rental_uris":{"android":"levelo://app?vid=24d4422a-81c5-48f5-b5b1-96a084b48a13","ios":"levelo://app?vid=24d4422a-81c5-48f5-b5b1-96a084b48a13"},"vehicle_type_id":"4","last_reported":1702933574,"current_range_meters":23600,"station_id":"ce4bh192rcd13ifvqdd0","pricing_plan_id":"free"},{"bike_id":"a7d26807-2222-4ef6-a36f-8b7c10510ff5","system_id":"levelo_inurba_marseille","lat":43.284538,"lon":5.358657,"is_reserved":false,"is_disabled":false,"rental_uris":{"android":"levelo://app?vid=a7d26807-2222-4ef6-a36f-8b7c10510ff5","ios":"levelo://app?vid=a7d26807-2222-4ef6-a36f-8b7c10510ff5"},"vehicle_type_id":"4","last_reported":1702933574,"current_range_meters":31200,"station_id":"ce4bhah2rcd13ifvqei0","pricing_plan_id":"free"},{"bike_id":"1fee0122-2e7c-422d-9674-0ca2c05028a2","system_id":"levelo_inurba_marseille","lat":43.284534,"lon":5.358662,"is_reserved":false,"is_disabled":false,"rental_uris":{"android":"levelo://app?vid=1fee0122-2e7c-422d-9674-0ca2c05028a2","ios":"levelo://app?vid=1fee0122-2e7c-422d-9674-0ca2c05028a2"},"vehicle_type_id":"4","last_reported":1702933574,"current_range_meters":20400,"station_id":"ce4bhah2rcd13ifvqei0","pricing_plan_id":"free"},{"bike_id":"ede12a09-c41d-4966-877a-3721b56c793d","system_id":"levelo_inurba_marseille","lat":43.284538,"lon":5.358657,"is_reserved":false,"is_disabled":false,"rental_uris":{"android":"levelo://app?vid=ede12a09-c41d-4966-877a-3721b56c793d","ios":"levelo://app?vid=ede12a09-c41d-4966-877a-3721b56c793d"},"vehicle_type_id":"4","last_reported":1702933574,"current_range_meters":22000,"station_id":"ce4bhah2rcd13ifvqei0","pricing_plan_id":"free"},{"bike_id":"8c22da29-f189-4442-a10e-a405b7dfb79c","system_id":"levelo_inurba_marseille","lat":43.284538,"lon":5.358657,"is_reserved":false,"is_disabled":false,"rental_uris":{"android":"levelo://app?vid=8c22da29-f189-4442-a10e-a405b7dfb79c","ios":"levelo://app?vid=8c22da29-f189-4442-a10e-a405b7dfb79c"},"vehicle_type_id":"4","last_reported":1702933574,"current_range_meters":31600,"station_id":"ce4bhah2rcd13ifvqei0","pricing_plan_id":"free"},{"bike_id":"dcec4479-2471-4129-b156-7e01bad3e2b8","system_id":"levelo_inurba_marseille","lat":43.28462,"lon":5.35897,"is_reserved":false,"is_disabled":false,"rental_uris":{"android":"levelo://app?vid=dcec4479-2471-4129-b156-7e01bad3e2b8","ios":"levelo://app?vid=dcec4479-2471-4129-b156-7e01bad3e2b8"},"vehicle_type_id":"4","last_reported":1702933574,"current_range_meters":30800,"station_id":"ce4bhah2rcd13ifvqei0","pricing_plan_id":"free"},{"bike_id":"30904779-64fb-476a-b850-ba178f8b00ff","system_id":"levelo_inurba_marseille","lat":43.284538,"lon":5.358657,"is_reserved":false,"is_disabled":false,"rental_uris":{"android":"levelo://app?vid=30904779-64fb-476a-b850-ba178f8b00ff","ios":"levelo://app?vid=30904779-64fb-476a-b850-ba178f8b00ff"},"vehicle_type_id":"4","last_reported":1702933574,"current_range_meters":30800,"station_id":"ce4bhah2rcd13ifvqei0","pricing_plan_id":"free"},{"bike_id":"07190b7a-889b-4ece-9de2-3e77370101a7","system_id":"levelo_inurba_marseille","lat":43.28462,"lon":5.35885,"is_reserved":false,"is_disabled":false,"rental_uris":{"android":"levelo://app?vid=07190b7a-889b-4ece-9de2-3e77370101a7","ios":"levelo://app?vid=07190b7a-889b-4ece-9de2-3e77370101a7"},"vehicle_type_id":"4","last_reported":1702933574,"current_range_meters":25200,"station_id":"ce4bhah2rcd13ifvqei0","pricing_plan_id":"free"},{"bike_id":"23f2d6a0-e781-4d48-9f4c-8c5eec101f4c","system_id":"levelo_inurba_marseille","lat":43.284538,"lon":5.358657,"is_reserved":false,"is_disabled":false,"rental_uris":{"android":"levelo://app?vid=23f2d6a0-e781-4d48-9f4c-8c5eec101f4c","ios":"levelo://app?vid=23f2d6a0-e781-4d48-9f4c-8c5eec101f4c"},"vehicle_type_id":"4","last_reported":1702933574,"current_range_meters":30400,"station_id":"ce4bhah2rcd13ifvqei0","pricing_plan_id":"free"},{"bike_id":"df6b4553-5035-464e-a8ec-0ae465376e0f","system_id":"levelo_inurba_marseille","lat":43.29438,"lon":5.397488,"is_reserved":false,"is_disabled":false,"rental_uris":{"android":"levelo://app?vid=df6b4553-5035-464e-a8ec-0ae465376e0f","ios":"levelo://app?vid=df6b4553-5035-464e-a8ec-0ae465376e0f"},"vehicle_type_id":"4","last_reported":1702933574,"current_range_meters":20800,"station_id":"ce4bh3h2rcd13ifvqdo0","pricing_plan_id":"free"},{"bike_id":"dd127257-605b-4fa6-bce5-cdeb0e10a768","system_id":"levelo_inurba_marseille","lat":43.28618,"lon":5.35101,"is_reserved":false,"is_disabled":false,"rental_uris":{"android":"levelo://app?vid=dd127257-605b-4fa6-bce5-cdeb0e10a768","ios":"levelo://app?vid=dd127257-605b-4fa6-bce5-cdeb0e10a768"},"vehicle_type_id":"4","last_reported":1702933574,"current_range_meters":30800,"station_id":"ce4bhch2rcd13ifvqeug","pricing_plan_id":"free"},{"bike_id":"77389bdc-2727-4736-819e-bb68f0dc0783","system_id":"levelo_inurba_marseille","lat":43.28613,"lon":5.35111,"is_reserved":false,"is_disabled":false,"rental_uris":{"android":"levelo://app?vid=77389bdc-2727-4736-819e-bb68f0dc0783","ios":"levelo://app?vid=77389bdc-2727-4736-819e-bb68f0dc0783"},"vehicle_type_id":"4","last_reported":1702933574,"current_range_meters":24400,"station_id":"ce4bhch2rcd13ifvqeug","pricing_plan_id":"free"},{"bike_id":"5e39142f-4bc7-4b39-81db-3ddba57925dc","system_id":"levelo_inurba_marseille","lat":43.285848,"lon":5.350787,"is_reserved":false,"is_disabled":false,"rental_uris":{"android":"levelo://app?vid=5e39142f-4bc7-4b39-81db-3ddba57925dc","ios":"levelo://app?vid=5e39142f-4bc7-4b39-81db-3ddba57925dc"},"vehicle_type_id":"4","last_reported":1702933574,"current_range_meters":20000,"station_id":"ce4bhch2rcd13ifvqeug","pricing_plan_id":"free"},{"bike_id":"648b9eb3-117b-4ef6-8b52-802a099ea74c","system_id":"levelo_inurba_marseille","lat":43.283998,"lon":5.375062,"is_reserved":false,"is_disabled":false,"rental_uris":{"android":"levelo://app?vid=648b9eb3-117b-4ef6-8b52-802a099ea74c","ios":"levelo://app?vid=648b9eb3-117b-4ef6-8b52-802a099ea74c"},"vehicle_type_id":"4","last_reported":1702933574,"current_range_meters":3600,"station_id":"ce4bh412rcd13ifvqds0","pricing_plan_id":"free"},{"bike_id":"2dfa5049-0e1b-4839-b5c3-156910a65dbd","system_id":"levelo_inurba_marseille","lat":43.33218,"lon":5.397067,"is_reserved":false,"is_disabled":false,"rental_uris":{"android":"levelo://app?vid=2dfa5049-0e1b-4839-b5c3-156910a65dbd","ios":"levelo://app?vid=2dfa5049-0e1b-4839-b5c3-156910a65dbd"},"vehicle_type_id":"4","last_reported":1702933574,"current_range_meters":4000,"station_id":"","pricing_plan_id":"free"},{"bike_id":"9ffa756d-7709-40f3-8723-19ef2dacafd9","system_id":"levelo_inurba_marseille","lat":43.295713,"lon":5.399639,"is_reserved":false,"is_disabled":false,"rental_uris":{"android":"levelo://app?vid=9ffa756d-7709-40f3-8723-19ef2dacafd9","ios":"levelo://app?vid=9ffa756d-7709-40f3-8723-19ef2dacafd9"},"vehicle_type_id":"4","last_reported":1702933574,"current_range_meters":11600,"station_id":"ce4bh312rcd13ifvqdj0","pricing_plan_id":"free"},{"bike_id":"dd7c3735-fcc8-4fe9-8427-c354b4521977","system_id":"levelo_inurba_marseille","lat":43.286773,"lon":5.386647,"is_reserved":false,"is_disabled":false,"rental_uris":{"android":"levelo://app?vid=dd7c3735-fcc8-4fe9-8427-c354b4521977","ios":"levelo://app?vid=dd7c3735-fcc8-4fe9-8427-c354b4521977"},"vehicle_type_id":"4","last_reported":1702933574,"current_range_meters":0,"station_id":"ce4bh492rcd13ifvqdug","pricing_plan_id":"free"},{"bike_id":"1a320379-3d58-4420-be6f-8f34cef3d65b","system_id":"levelo_inurba_marseille","lat":43.284793,"lon":5.384113,"is_reserved":false,"is_disabled":false,"rental_uris":{"android":"levelo://app?vid=1a320379-3d58-4420-be6f-8f34cef3d65b","ios":"levelo://app?vid=1a320379-3d58-4420-be6f-8f34cef3d65b"},"vehicle_type_id":"4","last_reported":1702933574,"current_range_meters":6000,"station_id":"ce4bh512rcd13ifvqe3g","pricing_plan_id":"free"},{"bike_id":"e193160a-6bd5-4841-a687-8160c936a272","system_id":"levelo_inurba_marseille","lat":43.29795,"lon":5.404086,"is_reserved":false,"is_disabled":false,"rental_uris":{"android":"levelo://app?vid=e193160a-6bd5-4841-a687-8160c936a272","ios":"levelo://app?vid=e193160a-6bd5-4841-a687-8160c936a272"},"vehicle_type_id":"4","last_reported":1702933574,"current_range_meters":4000,"station_id":"ce4bh112rcd13ifvqd90","pricing_plan_id":"free"},{"bike_id":"d276badf-c069-4a08-b8f3-9f55000a41e8","system_id":"levelo_inurba_marseille","lat":43.288507,"lon":5.39324,"is_reserved":false,"is_disabled":false,"rental_uris":{"android":"levelo://app?vid=d276badf-c069-4a08-b8f3-9f55000a41e8","ios":"levelo://app?vid=d276badf-c069-4a08-b8f3-9f55000a41e8"},"vehicle_type_id":"4","last_reported":1702933574,"current_range_meters":7200,"station_id":"ce4bh2p2rcd13ifvqdi0","pricing_plan_id":"free"},{"bike_id":"63937f00-79aa-4dea-877e-5d1eecd0759e","system_id":"levelo_inurba_marseille","lat":43.306412,"lon":5.401035,"is_reserved":false,"is_disabled":false,"rental_uris":{"android":"levelo://app?vid=63937f00-79aa-4dea-877e-5d1eecd0759e","ios":"levelo://app?vid=63937f00-79aa-4dea-877e-5d1eecd0759e"},"vehicle_type_id":"4","last_reported":1702933574,"current_range_meters":25600,"station_id":"ce4bh112rcd13ifvqda0","pricing_plan_id":"free"},{"bike_id":"eeddfb47-9cf3-427c-80bb-70c31e23c3c1","system_id":"levelo_inurba_marseille","lat":43.292724,"lon":5.401131,"is_reserved":false,"is_disabled":false,"rental_uris":{"android":"levelo://app?vid=eeddfb47-9cf3-427c-80bb-70c31e23c3c1","ios":"levelo://app?vid=eeddfb47-9cf3-427c-80bb-70c31e23c3c1"},"vehicle_type_id":"4","last_reported":1702933574,"current_range_meters":26400,"station_id":"ce4bh312rcd13ifvqdk0","pricing_plan_id":"free"},{"bike_id":"4c9f56e7-62b2-49f0-a33c-545b3c46cc49","system_id":"levelo_inurba_marseille","lat":43.283502,"lon":5.386471,"is_reserved":false,"is_disabled":false,"rental_uris":{"android":"levelo://app?vid=4c9f56e7-62b2-49f0-a33c-545b3c46cc49","ios":"levelo://app?vid=4c9f56e7-62b2-49f0-a33c-545b3c46cc49"},"vehicle_type_id":"4","last_reported":1702933574,"current_range_meters":1600,"station_id":"ce4bh492rcd13ifvqdvg","pricing_plan_id":"free"},{"bike_id":"2b3efb56-540b-40aa-b1a9-2802461999fc","system_id":"levelo_inurba_marseille","lat":43.282744,"lon":5.350533,"is_reserved":false,"is_disabled":false,"rental_uris":{"android":"levelo://app?vid=2b3efb56-540b-40aa-b1a9-2802461999fc","ios":"levelo://app?vid=2b3efb56-540b-40aa-b1a9-2802461999fc"},"vehicle_type_id":"4","last_reported":1702933574,"current_range_meters":24000,"station_id":"ce4bhbp2rcd13ifvqerg","pricing_plan_id":"free"},{"bike_id":"bb6b9a71-8635-47ea-816b-53980ea59ef8","system_id":"levelo_inurba_marseille","lat":43.282744,"lon":5.350533,"is_reserved":false,"is_disabled":false,"rental_uris":{"android":"levelo://app?vid=bb6b9a71-8635-47ea-816b-53980ea59ef8","ios":"levelo://app?vid=bb6b9a71-8635-47ea-816b-53980ea59ef8"},"vehicle_type_id":"4","last_reported":1702933574,"current_range_meters":20000,"station_id":"ce4bhbp2rcd13ifvqerg","pricing_plan_id":"free"},{"bike_id":"ad110e7c-5d83-4411-a968-227182d86419","system_id":"levelo_inurba_marseille","lat":43.282754,"lon":5.350519,"is_reserved":false,"is_disabled":false,"rental_uris":{"android":"levelo://app?vid=ad110e7c-5d83-4411-a968-227182d86419","ios":"levelo://app?vid=ad110e7c-5d83-4411-a968-227182d86419"},"vehicle_type_id":"4","last_reported":1702933574,"current_range_meters":30400,"station_id":"ce4bhbp2rcd13ifvqerg","pricing_plan_id":"free"},{"bike_id":"c6a512cb-1793-48d0-aec8-b2aad0a97ba3","system_id":"levelo_inurba_marseille","lat":43.282754,"lon":5.350519,"is_reserved":false,"is_disabled":false,"rental_uris":{"android":"levelo://app?vid=c6a512cb-1793-48d0-aec8-b2aad0a97ba3","ios":"levelo://app?vid=c6a512cb-1793-48d0-aec8-b2aad0a97ba3"},"vehicle_type_id":"4","last_reported":1702933574,"current_range_meters":29600,"station_id":"ce4bhbp2rcd13ifvqerg","pricing_plan_id":"free"},{"bike_id":"9650f641-6a27-44d6-8eb4-734879b4b659","system_id":"levelo_inurba_marseille","lat":43.280382,"lon":5.369291,"is_reserved":false,"is_disabled":false,"rental_uris":{"android":"levelo://app?vid=9650f641-6a27-44d6-8eb4-734879b4b659","ios":"levelo://app?vid=9650f641-6a27-44d6-8eb4-734879b4b659"},"vehicle_type_id":"4","last_reported":1702933574,"current_range_meters":17200,"station_id":"ce4bha12rcd13ifvqef0","pricing_plan_id":"free"},{"bike_id":"06d227cf-ba21-4c27-92c8-72c3f03be2f9","system_id":"levelo_inurba_marseille","lat":43.28039,"lon":5.369297,"is_reserved":false,"is_disabled":false,"rental_uris":{"android":"levelo://app?vid=06d227cf-ba21-4c27-92c8-72c3f03be2f9","ios":"levelo://app?vid=06d227cf-ba21-4c27-92c8-72c3f03be2f9"},"vehicle_type_id":"4","last_reported":1702933574,"current_range_meters":3200,"station_id":"ce4bha12rcd13ifvqef0","pricing_plan_id":"free"},{"bike_id":"41a616d3-9671-47e6-a61a-79bc77bcedca","system_id":"levelo_inurba_marseille","lat":43.281044,"lon":5.378308,"is_reserved":false,"is_disabled":false,"rental_uris":{"android":"levelo://app?vid=41a616d3-9671-47e6-a61a-79bc77bcedca","ios":"levelo://app?vid=41a616d3-9671-47e6-a61a-79bc77bcedca"},"vehicle_type_id":"4","last_reported":1702933574,"current_range_meters":13200,"station_id":"ce4bha12rcd13ifvqee0","pricing_plan_id":"free"},{"bike_id":"14e1b31b-c460-4fda-b8f3-d7d72b9acd89","system_id":"levelo_inurba_marseille","lat":43.281044,"lon":5.378308,"is_reserved":false,"is_disabled":false,"rental_uris":{"android":"levelo://app?vid=14e1b31b-c460-4fda-b8f3-d7d72b9acd89","ios":"levelo://app?vid=14e1b31b-c460-4fda-b8f3-d7d72b9acd89"},"vehicle_type_id":"4","last_reported":1702933574,"current_range_meters":28800,"station_id":"ce4bha12rcd13ifvqee0","pricing_plan_id":"free"},{"bike_id":"9feb3aef-d2a6-48d1-b246-cf93b10895ad","system_id":"levelo_inurba_marseille","lat":43.281044,"lon":5.378308,"is_reserved":false,"is_disabled":false,"rental_uris":{"android":"levelo://app?vid=9feb3aef-d2a6-48d1-b246-cf93b10895ad","ios":"levelo://app?vid=9feb3aef-d2a6-48d1-b246-cf93b10895ad"},"vehicle_type_id":"4","last_reported":1702933574,"current_range_meters":1600,"station_id":"ce4bha12rcd13ifvqee0","pricing_plan_id":"free"},{"bike_id":"9698e689-4b8e-4a73-8d7d-39bb6b2312fa","system_id":"levelo_inurba_marseille","lat":43.28094,"lon":5.37857,"is_reserved":false,"is_disabled":false,"rental_uris":{"android":"levelo://app?vid=9698e689-4b8e-4a73-8d7d-39bb6b2312fa","ios":"levelo://app?vid=9698e689-4b8e-4a73-8d7d-39bb6b2312fa"},"vehicle_type_id":"4","last_reported":1702933574,"current_range_meters":0,"station_id":"ce4bha12rcd13ifvqee0","pricing_plan_id":"free"},{"bike_id":"9fc39c62-1e96-4103-a806-0208cfbc2ef4","system_id":"levelo_inurba_marseille","lat":43.285742,"lon":5.395004,"is_reserved":false,"is_disabled":false,"rental_uris":{"android":"levelo://app?vid=9fc39c62-1e96-4103-a806-0208cfbc2ef4","ios":"levelo://app?vid=9fc39c62-1e96-4103-a806-0208cfbc2ef4"},"vehicle_type_id":"4","last_reported":1702933574,"current_range_meters":6000,"station_id":"ce4bh292rcd13ifvqdg0","pricing_plan_id":"free"},{"bike_id":"d3ef8685-bcf4-455f-9d4a-5ba642760287","system_id":"levelo_inurba_marseille","lat":43.28573,"lon":5.394992,"is_reserved":false,"is_disabled":false,"rental_uris":{"android":"levelo://app?vid=d3ef8685-bcf4-455f-9d4a-5ba642760287","ios":"levelo://app?vid=d3ef8685-bcf4-455f-9d4a-5ba642760287"},"vehicle_type_id":"4","last_reported":1702933574,"current_range_meters":2800,"station_id":"ce4bh292rcd13ifvqdg0","pricing_plan_id":"free"},{"bike_id":"857aa8a5-8ac8-4f33-a260-7afdacc6e887","system_id":"levelo_inurba_marseille","lat":43.285742,"lon":5.395004,"is_reserved":false,"is_disabled":false,"rental_uris":{"android":"levelo://app?vid=857aa8a5-8ac8-4f33-a260-7afdacc6e887","ios":"levelo://app?vid=857aa8a5-8ac8-4f33-a260-7afdacc6e887"},"vehicle_type_id":"4","last_reported":1702933574,"current_range_meters":26400,"station_id":"ce4bh292rcd13ifvqdg0","pricing_plan_id":"free"},{"bike_id":"dff4a22e-200a-4c06-ace7-c8d8e9ad96be","system_id":"levelo_inurba_marseille","lat":43.28573,"lon":5.394992,"is_reserved":false,"is_disabled":false,"rental_uris":{"android":"levelo://app?vid=dff4a22e-200a-4c06-ace7-c8d8e9ad96be","ios":"levelo://app?vid=dff4a22e-200a-4c06-ace7-c8d8e9ad96be"},"vehicle_type_id":"4","last_reported":1702933574,"current_range_meters":24400,"station_id":"ce4bh292rcd13ifvqdg0","pricing_plan_id":"free"},{"bike_id":"3ab5feaa-13d5-4976-a6e8-2b3269655976","system_id":"levelo_inurba_marseille","lat":43.28573,"lon":5.394992,"is_reserved":false,"is_disabled":false,"rental_uris":{"android":"levelo://app?vid=3ab5feaa-13d5-4976-a6e8-2b3269655976","ios":"levelo://app?vid=3ab5feaa-13d5-4976-a6e8-2b3269655976"},"vehicle_type_id":"4","last_reported":1702933574,"current_range_meters":22400,"station_id":"ce4bh292rcd13ifvqdg0","pricing_plan_id":"free"},{"bike_id":"7945c9bc-8705-4104-aacd-41e0e0a664d5","system_id":"levelo_inurba_marseille","lat":43.28573,"lon":5.394992,"is_reserved":false,"is_disabled":false,"rental_uris":{"android":"levelo://app?vid=7945c9bc-8705-4104-aacd-41e0e0a664d5","ios":"levelo://app?vid=7945c9bc-8705-4104-aacd-41e0e0a664d5"},"vehicle_type_id":"4","last_reported":1702933574,"current_range_meters":31200,"station_id":"ce4bh292rcd13ifvqdg0","pricing_plan_id":"free"},{"bike_id":"ebc382dc-bff4-4ed0-8fce-28d10fdc332a","system_id":"levelo_inurba_marseille","lat":43.304188,"lon":5.412904,"is_reserved":false,"is_disabled":false,"rental_uris":{"android":"levelo://app?vid=ebc382dc-bff4-4ed0-8fce-28d10fdc332a","ios":"levelo://app?vid=ebc382dc-bff4-4ed0-8fce-28d10fdc332a"},"vehicle_type_id":"4","last_reported":1702933574,"current_range_meters":27200,"station_id":"ce4bhop2rcd13ifvqh8g","pricing_plan_id":"free"},{"bike_id":"90f101fa-0725-441c-944e-c4581cefc596","system_id":"levelo_inurba_marseille","lat":43.287154,"lon":5.399979,"is_reserved":false,"is_disabled":false,"rental_uris":{"android":"levelo://app?vid=90f101fa-0725-441c-944e-c4581cefc596","ios":"levelo://app?vid=90f101fa-0725-441c-944e-c4581cefc596"},"vehicle_type_id":"4","last_reported":1702933574,"current_range_meters":22400,"station_id":"ce4bho92rcd13ifvqh3g","pricing_plan_id":"free"},{"bike_id":"a1c54619-c7a7-4d70-85d7-af225610f8c7","system_id":"levelo_inurba_marseille","lat":43.299579,"lon":5.413255,"is_reserved":false,"is_disabled":false,"rental_uris":{"android":"levelo://app?vid=a1c54619-c7a7-4d70-85d7-af225610f8c7","ios":"levelo://app?vid=a1c54619-c7a7-4d70-85d7-af225610f8c7"},"vehicle_type_id":"4","last_reported":1702933574,"current_range_meters":28000,"station_id":"ce4bhp12rcd13ifvqh9g","pricing_plan_id":"free"},{"bike_id":"5aa5a1f8-f4b6-43a0-b77f-cd611bd84957","system_id":"levelo_inurba_marseille","lat":43.292569,"lon":5.409107,"is_reserved":false,"is_disabled":false,"rental_uris":{"android":"levelo://app?vid=5aa5a1f8-f4b6-43a0-b77f-cd611bd84957","ios":"levelo://app?vid=5aa5a1f8-f4b6-43a0-b77f-cd611bd84957"},"vehicle_type_id":"4","last_reported":1702933574,"current_range_meters":4800,"station_id":"ce4bh192rcd13ifvqdc0","pricing_plan_id":"free"},{"bike_id":"3344799b-9746-480e-8f25-bac184da27d1","system_id":"levelo_inurba_marseille","lat":43.292571,"lon":5.409107,"is_reserved":false,"is_disabled":false,"rental_uris":{"android":"levelo://app?vid=3344799b-9746-480e-8f25-bac184da27d1","ios":"levelo://app?vid=3344799b-9746-480e-8f25-bac184da27d1"},"vehicle_type_id":"4","last_reported":1702933574,"current_range_meters":26400,"station_id":"ce4bh192rcd13ifvqdc0","pricing_plan_id":"free"},{"bike_id":"583700de-9f53-4146-8c81-7949a15deb2e","system_id":"levelo_inurba_marseille","lat":43.292571,"lon":5.409107,"is_reserved":false,"is_disabled":false,"rental_uris":{"android":"levelo://app?vid=583700de-9f53-4146-8c81-7949a15deb2e","ios":"levelo://app?vid=583700de-9f53-4146-8c81-7949a15deb2e"},"vehicle_type_id":"4","last_reported":1702933574,"current_range_meters":12000,"station_id":"ce4bh192rcd13ifvqdc0","pricing_plan_id":"free"},{"bike_id":"f9930c92-e1ae-487c-add0-fa6429120601","system_id":"levelo_inurba_marseille","lat":43.292569,"lon":5.409107,"is_reserved":false,"is_disabled":false,"rental_uris":{"android":"levelo://app?vid=f9930c92-e1ae-487c-add0-fa6429120601","ios":"levelo://app?vid=f9930c92-e1ae-487c-add0-fa6429120601"},"vehicle_type_id":"4","last_reported":1702933574,"current_range_meters":10800,"station_id":"ce4bh192rcd13ifvqdc0","pricing_plan_id":"free"},{"bike_id":"90106306-9dd7-4d34-a757-00177879933a","system_id":"levelo_inurba_marseille","lat":43.292569,"lon":5.409107,"is_reserved":false,"is_disabled":false,"rental_uris":{"android":"levelo://app?vid=90106306-9dd7-4d34-a757-00177879933a","ios":"levelo://app?vid=90106306-9dd7-4d34-a757-00177879933a"},"vehicle_type_id":"4","last_reported":1702933574,"current_range_meters":25600,"station_id":"ce4bh192rcd13ifvqdc0","pricing_plan_id":"free"},{"bike_id":"746c5f03-bb7e-4feb-be4b-702f6474ef36","system_id":"levelo_inurba_marseille","lat":43.292569,"lon":5.409107,"is_reserved":false,"is_disabled":false,"rental_uris":{"android":"levelo://app?vid=746c5f03-bb7e-4feb-be4b-702f6474ef36","ios":"levelo://app?vid=746c5f03-bb7e-4feb-be4b-702f6474ef36"},"vehicle_type_id":"4","last_reported":1702933574,"current_range_meters":18400,"station_id":"ce4bh192rcd13ifvqdc0","pricing_plan_id":"free"},{"bike_id":"06d6d0a7-5a4c-4ff6-a91a-ac2bb0e711e7","system_id":"levelo_inurba_marseille","lat":43.276055,"lon":5.360994,"is_reserved":false,"is_disabled":false,"rental_uris":{"android":"levelo://app?vid=06d6d0a7-5a4c-4ff6-a91a-ac2bb0e711e7","ios":"levelo://app?vid=06d6d0a7-5a4c-4ff6-a91a-ac2bb0e711e7"},"vehicle_type_id":"4","last_reported":1702933574,"current_range_meters":8000,"station_id":"","pricing_plan_id":"free"},{"bike_id":"abce9a6c-3aeb-4133-883b-f887057d135d","system_id":"levelo_inurba_marseille","lat":43.280784,"lon":5.396622,"is_reserved":false,"is_disabled":false,"rental_uris":{"android":"levelo://app?vid=abce9a6c-3aeb-4133-883b-f887057d135d","ios":"levelo://app?vid=abce9a6c-3aeb-4133-883b-f887057d135d"},"vehicle_type_id":"4","last_reported":1702933574,"current_range_meters":16800,"station_id":"ce4bho12rcd13ifvqh2g","pricing_plan_id":"free"},{"bike_id":"4cee5c6a-7c96-4169-82b7-9b1c414dd242","system_id":"levelo_inurba_marseille","lat":43.280784,"lon":5.396622,"is_reserved":false,"is_disabled":false,"rental_uris":{"android":"levelo://app?vid=4cee5c6a-7c96-4169-82b7-9b1c414dd242","ios":"levelo://app?vid=4cee5c6a-7c96-4169-82b7-9b1c414dd242"},"vehicle_type_id":"4","last_reported":1702933574,"current_range_meters":27200,"station_id":"ce4bho12rcd13ifvqh2g","pricing_plan_id":"free"},{"bike_id":"15e1f8dc-2600-4807-a14e-dd378347c034","system_id":"levelo_inurba_marseille","lat":43.30356,"lon":5.41869,"is_reserved":false,"is_disabled":false,"rental_uris":{"android":"levelo://app?vid=15e1f8dc-2600-4807-a14e-dd378347c034","ios":"levelo://app?vid=15e1f8dc-2600-4807-a14e-dd378347c034"},"vehicle_type_id":"4","last_reported":1702933574,"current_range_meters":30400,"station_id":"ce4bhop2rcd13ifvqh7g","pricing_plan_id":"free"},{"bike_id":"0cd0c498-489f-47e8-83e7-6978e88bb13f","system_id":"levelo_inurba_marseille","lat":43.30354,"lon":5.41881,"is_reserved":false,"is_disabled":false,"rental_uris":{"android":"levelo://app?vid=0cd0c498-489f-47e8-83e7-6978e88bb13f","ios":"levelo://app?vid=0cd0c498-489f-47e8-83e7-6978e88bb13f"},"vehicle_type_id":"4","last_reported":1702933574,"current_range_meters":8800,"station_id":"ce4bhop2rcd13ifvqh7g","pricing_plan_id":"free"},{"bike_id":"8b7163c8-747c-4e96-8584-c017d4b913c7","system_id":"levelo_inurba_marseille","lat":43.273613,"lon":5.362705,"is_reserved":false,"is_disabled":false,"rental_uris":{"android":"levelo://app?vid=8b7163c8-747c-4e96-8584-c017d4b913c7","ios":"levelo://app?vid=8b7163c8-747c-4e96-8584-c017d4b913c7"},"vehicle_type_id":"4","last_reported":1702933574,"current_range_meters":24800,"station_id":"ce4bhbh2rcd13ifvqeo0","pricing_plan_id":"free"},{"bike_id":"0cf403f8-9992-471b-b83e-97c5b20efdb5","system_id":"levelo_inurba_marseille","lat":43.273609,"lon":5.362708,"is_reserved":false,"is_disabled":false,"rental_uris":{"android":"levelo://app?vid=0cf403f8-9992-471b-b83e-97c5b20efdb5","ios":"levelo://app?vid=0cf403f8-9992-471b-b83e-97c5b20efdb5"},"vehicle_type_id":"4","last_reported":1702933574,"current_range_meters":26800,"station_id":"ce4bhbh2rcd13ifvqeo0","pricing_plan_id":"free"},{"bike_id":"ba23a49f-f752-40f9-b881-d731ba920e07","system_id":"levelo_inurba_marseille","lat":43.324178,"lon":5.419979,"is_reserved":false,"is_disabled":false,"rental_uris":{"android":"levelo://app?vid=ba23a49f-f752-40f9-b881-d731ba920e07","ios":"levelo://app?vid=ba23a49f-f752-40f9-b881-d731ba920e07"},"vehicle_type_id":"4","last_reported":1702933574,"current_range_meters":27200,"station_id":"","pricing_plan_id":"free"},{"bike_id":"f1ecb310-cbbf-4ffc-9a2e-e62ffa91ca20","system_id":"levelo_inurba_marseille","lat":43.279952,"lon":5.400085,"is_reserved":false,"is_disabled":false,"rental_uris":{"android":"levelo://app?vid=f1ecb310-cbbf-4ffc-9a2e-e62ffa91ca20","ios":"levelo://app?vid=f1ecb310-cbbf-4ffc-9a2e-e62ffa91ca20"},"vehicle_type_id":"4","last_reported":1702933574,"current_range_meters":20800,"station_id":"ce4bho92rcd13ifvqh4g","pricing_plan_id":"free"},{"bike_id":"9cedd493-ffa3-4b25-9af8-b668baa13cd3","system_id":"levelo_inurba_marseille","lat":43.317121,"lon":5.423936,"is_reserved":false,"is_disabled":false,"rental_uris":{"android":"levelo://app?vid=9cedd493-ffa3-4b25-9af8-b668baa13cd3","ios":"levelo://app?vid=9cedd493-ffa3-4b25-9af8-b668baa13cd3"},"vehicle_type_id":"4","last_reported":1702933574,"current_range_meters":5200,"station_id":"ce4bhp92rcd13ifvqhbg","pricing_plan_id":"free"},{"bike_id":"1c94075f-1520-42e4-b407-7493fed250da","system_id":"levelo_inurba_marseille","lat":43.340804,"lon":5.410219,"is_reserved":false,"is_disabled":false,"rental_uris":{"android":"levelo://app?vid=1c94075f-1520-42e4-b407-7493fed250da","ios":"levelo://app?vid=1c94075f-1520-42e4-b407-7493fed250da"},"vehicle_type_id":"4","last_reported":1702933574,"current_range_meters":26000,"station_id":"ce4bhqh2rcd13ifvqhlg","pricing_plan_id":"free"},{"bike_id":"051c77bb-f477-4448-bbe3-4595a522b0e7","system_id":"levelo_inurba_marseille","lat":43.340804,"lon":5.410219,"is_reserved":false,"is_disabled":false,"rental_uris":{"android":"levelo://app?vid=051c77bb-f477-4448-bbe3-4595a522b0e7","ios":"levelo://app?vid=051c77bb-f477-4448-bbe3-4595a522b0e7"},"vehicle_type_id":"4","last_reported":1702933574,"current_range_meters":26000,"station_id":"ce4bhqh2rcd13ifvqhlg","pricing_plan_id":"free"},{"bike_id":"3ca2c2d2-99b0-4aa6-a05d-e30f02e6a7fb","system_id":"levelo_inurba_marseille","lat":43.276092,"lon":5.395289,"is_reserved":false,"is_disabled":false,"rental_uris":{"android":"levelo://app?vid=3ca2c2d2-99b0-4aa6-a05d-e30f02e6a7fb","ios":"levelo://app?vid=3ca2c2d2-99b0-4aa6-a05d-e30f02e6a7fb"},"vehicle_type_id":"4","last_reported":1702933574,"current_range_meters":11600,"station_id":"","pricing_plan_id":"free"},{"bike_id":"fc9df475-3d6b-4e73-908e-a2da18fd5732","system_id":"levelo_inurba_marseille","lat":43.274099,"lon":5.394019,"is_reserved":false,"is_disabled":false,"rental_uris":{"android":"levelo://app?vid=fc9df475-3d6b-4e73-908e-a2da18fd5732","ios":"levelo://app?vid=fc9df475-3d6b-4e73-908e-a2da18fd5732"},"vehicle_type_id":"4","last_reported":1702933574,"current_range_meters":14000,"station_id":"ce4bhdp2rcd13ifvqf20","pricing_plan_id":"free"},{"bike_id":"52ffbfe2-3dc9-4e53-97d1-3182ba2225bd","system_id":"levelo_inurba_marseille","lat":43.295511,"lon":5.422926,"is_reserved":false,"is_disabled":false,"rental_uris":{"android":"levelo://app?vid=52ffbfe2-3dc9-4e53-97d1-3182ba2225bd","ios":"levelo://app?vid=52ffbfe2-3dc9-4e53-97d1-3182ba2225bd"},"vehicle_type_id":"4","last_reported":1702933574,"current_range_meters":22400,"station_id":"ce4bhph2rcd13ifvqhdg","pricing_plan_id":"free"},{"bike_id":"628a1844-4de6-4ff8-b7b8-44bb12a39376","system_id":"levelo_inurba_marseille","lat":43.295511,"lon":5.422926,"is_reserved":false,"is_disabled":false,"rental_uris":{"android":"levelo://app?vid=628a1844-4de6-4ff8-b7b8-44bb12a39376","ios":"levelo://app?vid=628a1844-4de6-4ff8-b7b8-44bb12a39376"},"vehicle_type_id":"4","last_reported":1702933574,"current_range_meters":31200,"station_id":"ce4bhph2rcd13ifvqhdg","pricing_plan_id":"free"},{"bike_id":"a1b8af23-d392-49bd-a85a-eb8ad9510d9c","system_id":"levelo_inurba_marseille","lat":43.295511,"lon":5.422926,"is_reserved":false,"is_disabled":false,"rental_uris":{"android":"levelo://app?vid=a1b8af23-d392-49bd-a85a-eb8ad9510d9c","ios":"levelo://app?vid=a1b8af23-d392-49bd-a85a-eb8ad9510d9c"},"vehicle_type_id":"4","last_reported":1702933574,"current_range_meters":3200,"station_id":"ce4bhph2rcd13ifvqhdg","pricing_plan_id":"free"},{"bike_id":"35f4c7df-1dd1-49cd-b086-e9b64d14ba25","system_id":"levelo_inurba_marseille","lat":43.295511,"lon":5.422926,"is_reserved":false,"is_disabled":false,"rental_uris":{"android":"levelo://app?vid=35f4c7df-1dd1-49cd-b086-e9b64d14ba25","ios":"levelo://app?vid=35f4c7df-1dd1-49cd-b086-e9b64d14ba25"},"vehicle_type_id":"4","last_reported":1702933574,"current_range_meters":25200,"station_id":"ce4bhph2rcd13ifvqhdg","pricing_plan_id":"free"},{"bike_id":"1d583d68-8350-42de-af0a-dd3bb755495b","system_id":"levelo_inurba_marseille","lat":43.295493,"lon":5.422869,"is_reserved":false,"is_disabled":false,"rental_uris":{"android":"levelo://app?vid=1d583d68-8350-42de-af0a-dd3bb755495b","ios":"levelo://app?vid=1d583d68-8350-42de-af0a-dd3bb755495b"},"vehicle_type_id":"4","last_reported":1702933574,"current_range_meters":2400,"station_id":"ce4bhph2rcd13ifvqhdg","pricing_plan_id":"free"},{"bike_id":"fc3f22f4-3d85-4b36-bd3d-60cd40afff37","system_id":"levelo_inurba_marseille","lat":43.295511,"lon":5.422926,"is_reserved":false,"is_disabled":false,"rental_uris":{"android":"levelo://app?vid=fc3f22f4-3d85-4b36-bd3d-60cd40afff37","ios":"levelo://app?vid=fc3f22f4-3d85-4b36-bd3d-60cd40afff37"},"vehicle_type_id":"4","last_reported":1702933574,"current_range_meters":10000,"station_id":"ce4bhph2rcd13ifvqhdg","pricing_plan_id":"free"},{"bike_id":"0676602b-588d-4bda-a4e6-b94392e8f194","system_id":"levelo_inurba_marseille","lat":43.278128,"lon":5.407195,"is_reserved":false,"is_disabled":false,"rental_uris":{"android":"levelo://app?vid=0676602b-588d-4bda-a4e6-b94392e8f194","ios":"levelo://app?vid=0676602b-588d-4bda-a4e6-b94392e8f194"},"vehicle_type_id":"4","last_reported":1702933574,"current_range_meters":19200,"station_id":"ce4bhnh2rcd13ifvqgtg","pricing_plan_id":"free"},{"bike_id":"3360b676-3022-4014-80bc-08bc66977fcf","system_id":"levelo_inurba_marseille","lat":43.279465,"lon":5.410561,"is_reserved":false,"is_disabled":false,"rental_uris":{"android":"levelo://app?vid=3360b676-3022-4014-80bc-08bc66977fcf","ios":"levelo://app?vid=3360b676-3022-4014-80bc-08bc66977fcf"},"vehicle_type_id":"4","last_reported":1702933574,"current_range_meters":4800,"station_id":"ce4bhnp2rcd13ifvqh0g","pricing_plan_id":"free"},{"bike_id":"036681ef-93f3-4046-997a-329f2a07c70f","system_id":"levelo_inurba_marseille","lat":43.265714,"lon":5.372891,"is_reserved":false,"is_disabled":false,"rental_uris":{"android":"levelo://app?vid=036681ef-93f3-4046-997a-329f2a07c70f","ios":"levelo://app?vid=036681ef-93f3-4046-997a-329f2a07c70f"},"vehicle_type_id":"4","last_reported":1702933574,"current_range_meters":15600,"station_id":"ce4bhg12rcd13ifvqf70","pricing_plan_id":"free"},{"bike_id":"cb97da20-e838-49a8-a07e-267048d14308","system_id":"levelo_inurba_marseille","lat":43.27996,"lon":5.416624,"is_reserved":false,"is_disabled":false,"rental_uris":{"android":"levelo://app?vid=cb97da20-e838-49a8-a07e-267048d14308","ios":"levelo://app?vid=cb97da20-e838-49a8-a07e-267048d14308"},"vehicle_type_id":"4","last_reported":1702933574,"current_range_meters":26400,"station_id":"ce4bho12rcd13ifvqh1g","pricing_plan_id":"free"},{"bike_id":"4419f188-787e-4803-80f8-07d8d18176c3","system_id":"levelo_inurba_marseille","lat":43.265714,"lon":5.372891,"is_reserved":false,"is_disabled":false,"rental_uris":{"android":"levelo://app?vid=4419f188-787e-4803-80f8-07d8d18176c3","ios":"levelo://app?vid=4419f188-787e-4803-80f8-07d8d18176c3"},"vehicle_type_id":"4","last_reported":1702933574,"current_range_meters":15200,"station_id":"ce4bhg12rcd13ifvqf70","pricing_plan_id":"free"},{"bike_id":"50adc33a-5cec-46d7-ab61-ad25db1ee9ac","system_id":"levelo_inurba_marseille","lat":43.308059,"lon":5.435219,"is_reserved":false,"is_disabled":false,"rental_uris":{"android":"levelo://app?vid=50adc33a-5cec-46d7-ab61-ad25db1ee9ac","ios":"levelo://app?vid=50adc33a-5cec-46d7-ab61-ad25db1ee9ac"},"vehicle_type_id":"4","last_reported":1702933574,"current_range_meters":800,"station_id":"ce4bhph2rcd13ifvqheg","pricing_plan_id":"free"},{"bike_id":"500cedef-851e-4bba-8c2e-e6f6c79d6194","system_id":"levelo_inurba_marseille","lat":43.308051,"lon":5.43527,"is_reserved":false,"is_disabled":false,"rental_uris":{"android":"levelo://app?vid=500cedef-851e-4bba-8c2e-e6f6c79d6194","ios":"levelo://app?vid=500cedef-851e-4bba-8c2e-e6f6c79d6194"},"vehicle_type_id":"4","last_reported":1702933574,"current_range_meters":28800,"station_id":"ce4bhph2rcd13ifvqheg","pricing_plan_id":"free"},{"bike_id":"dea6d4bf-6bd3-4e00-ab36-832382195e1c","system_id":"levelo_inurba_marseille","lat":43.308051,"lon":5.43527,"is_reserved":false,"is_disabled":false,"rental_uris":{"android":"levelo://app?vid=dea6d4bf-6bd3-4e00-ab36-832382195e1c","ios":"levelo://app?vid=dea6d4bf-6bd3-4e00-ab36-832382195e1c"},"vehicle_type_id":"4","last_reported":1702933574,"current_range_meters":30400,"station_id":"ce4bhph2rcd13ifvqheg","pricing_plan_id":"free"},{"bike_id":"b60fc5e1-89e5-42b6-95cd-2facc0075673","system_id":"levelo_inurba_marseille","lat":43.307961,"lon":5.435308,"is_reserved":false,"is_disabled":false,"rental_uris":{"android":"levelo://app?vid=b60fc5e1-89e5-42b6-95cd-2facc0075673","ios":"levelo://app?vid=b60fc5e1-89e5-42b6-95cd-2facc0075673"},"vehicle_type_id":"4","last_reported":1702933574,"current_range_meters":21200,"station_id":"ce4bhph2rcd13ifvqheg","pricing_plan_id":"free"},{"bike_id":"50dd6dff-c53f-4ac5-b9a0-4a136248695a","system_id":"levelo_inurba_marseille","lat":43.269427,"lon":5.402475,"is_reserved":false,"is_disabled":false,"rental_uris":{"android":"levelo://app?vid=50dd6dff-c53f-4ac5-b9a0-4a136248695a","ios":"levelo://app?vid=50dd6dff-c53f-4ac5-b9a0-4a136248695a"},"vehicle_type_id":"4","last_reported":1702933574,"current_range_meters":0,"station_id":"cjm6bp8fraef2m0cb0m0","pricing_plan_id":"free"},{"bike_id":"498e1520-f488-4aa0-b91a-3451bf8d5292","system_id":"levelo_inurba_marseille","lat":43.26949,"lon":5.40262,"is_reserved":false,"is_disabled":false,"rental_uris":{"android":"levelo://app?vid=498e1520-f488-4aa0-b91a-3451bf8d5292","ios":"levelo://app?vid=498e1520-f488-4aa0-b91a-3451bf8d5292"},"vehicle_type_id":"4","last_reported":1702933574,"current_range_meters":12400,"station_id":"cjm6bp8fraef2m0cb0m0","pricing_plan_id":"free"},{"bike_id":"44d278a1-8ea5-447b-921a-107eed71404a","system_id":"levelo_inurba_marseille","lat":43.26938,"lon":5.40252,"is_reserved":false,"is_disabled":false,"rental_uris":{"android":"levelo://app?vid=44d278a1-8ea5-447b-921a-107eed71404a","ios":"levelo://app?vid=44d278a1-8ea5-447b-921a-107eed71404a"},"vehicle_type_id":"4","last_reported":1702933574,"current_range_meters":26000,"station_id":"cjm6bp8fraef2m0cb0m0","pricing_plan_id":"free"},{"bike_id":"0ab8776c-1152-4e49-b0c6-22404bbe4224","system_id":"levelo_inurba_marseille","lat":43.261782,"lon":5.374515,"is_reserved":false,"is_disabled":false,"rental_uris":{"android":"levelo://app?vid=0ab8776c-1152-4e49-b0c6-22404bbe4224","ios":"levelo://app?vid=0ab8776c-1152-4e49-b0c6-22404bbe4224"},"vehicle_type_id":"4","last_reported":1702933574,"current_range_meters":6800,"station_id":"ce4bhgp2rcd13ifvqfc0","pricing_plan_id":"free"},{"bike_id":"7316220c-bdb8-4c03-8675-bc5b2439eb9a","system_id":"levelo_inurba_marseille","lat":43.26187,"lon":5.37444,"is_reserved":false,"is_disabled":false,"rental_uris":{"android":"levelo://app?vid=7316220c-bdb8-4c03-8675-bc5b2439eb9a","ios":"levelo://app?vid=7316220c-bdb8-4c03-8675-bc5b2439eb9a"},"vehicle_type_id":"4","last_reported":1702933574,"current_range_meters":17200,"station_id":"ce4bhgp2rcd13ifvqfc0","pricing_plan_id":"free"},{"bike_id":"47bd3dae-2016-409c-a21f-24033c548c01","system_id":"levelo_inurba_marseille","lat":43.261782,"lon":5.374515,"is_reserved":false,"is_disabled":false,"rental_uris":{"android":"levelo://app?vid=47bd3dae-2016-409c-a21f-24033c548c01","ios":"levelo://app?vid=47bd3dae-2016-409c-a21f-24033c548c01"},"vehicle_type_id":"4","last_reported":1702933574,"current_range_meters":5200,"station_id":"ce4bhgp2rcd13ifvqfc0","pricing_plan_id":"free"},{"bike_id":"b1838760-ccff-4746-80bf-229efc951a30","system_id":"levelo_inurba_marseille","lat":43.261782,"lon":5.374515,"is_reserved":false,"is_disabled":false,"rental_uris":{"android":"levelo://app?vid=b1838760-ccff-4746-80bf-229efc951a30","ios":"levelo://app?vid=b1838760-ccff-4746-80bf-229efc951a30"},"vehicle_type_id":"4","last_reported":1702933574,"current_range_meters":14400,"station_id":"ce4bhgp2rcd13ifvqfc0","pricing_plan_id":"free"},{"bike_id":"883f20e2-6def-4a2a-94c6-c5c2c4f893c0","system_id":"levelo_inurba_marseille","lat":43.261782,"lon":5.374515,"is_reserved":false,"is_disabled":false,"rental_uris":{"android":"levelo://app?vid=883f20e2-6def-4a2a-94c6-c5c2c4f893c0","ios":"levelo://app?vid=883f20e2-6def-4a2a-94c6-c5c2c4f893c0"},"vehicle_type_id":"4","last_reported":1702933574,"current_range_meters":3200,"station_id":"ce4bhgp2rcd13ifvqfc0","pricing_plan_id":"free"},{"bike_id":"ee1964dd-bd19-4163-8977-66dfe213996c","system_id":"levelo_inurba_marseille","lat":43.261782,"lon":5.374515,"is_reserved":false,"is_disabled":false,"rental_uris":{"android":"levelo://app?vid=ee1964dd-bd19-4163-8977-66dfe213996c","ios":"levelo://app?vid=ee1964dd-bd19-4163-8977-66dfe213996c"},"vehicle_type_id":"4","last_reported":1702933574,"current_range_meters":31600,"station_id":"ce4bhgp2rcd13ifvqfc0","pricing_plan_id":"free"},{"bike_id":"524ed846-4fbf-4d2f-8a66-ae44c466484e","system_id":"levelo_inurba_marseille","lat":43.261782,"lon":5.374515,"is_reserved":false,"is_disabled":false,"rental_uris":{"android":"levelo://app?vid=524ed846-4fbf-4d2f-8a66-ae44c466484e","ios":"levelo://app?vid=524ed846-4fbf-4d2f-8a66-ae44c466484e"},"vehicle_type_id":"4","last_reported":1702933574,"current_range_meters":26400,"station_id":"ce4bhgp2rcd13ifvqfc0","pricing_plan_id":"free"},{"bike_id":"aed94823-987c-4f39-a8b9-00dab2638955","system_id":"levelo_inurba_marseille","lat":43.261782,"lon":5.374515,"is_reserved":false,"is_disabled":false,"rental_uris":{"android":"levelo://app?vid=aed94823-987c-4f39-a8b9-00dab2638955","ios":"levelo://app?vid=aed94823-987c-4f39-a8b9-00dab2638955"},"vehicle_type_id":"4","last_reported":1702933574,"current_range_meters":0,"station_id":"ce4bhgp2rcd13ifvqfc0","pricing_plan_id":"free"},{"bike_id":"596e3210-6bf0-4d85-99a9-57f2c2b7bb13","system_id":"levelo_inurba_marseille","lat":43.262012,"lon":5.379307,"is_reserved":false,"is_disabled":false,"rental_uris":{"android":"levelo://app?vid=596e3210-6bf0-4d85-99a9-57f2c2b7bb13","ios":"levelo://app?vid=596e3210-6bf0-4d85-99a9-57f2c2b7bb13"},"vehicle_type_id":"4","last_reported":1702933574,"current_range_meters":29200,"station_id":"ce4bhjp2rcd13ifvqg90","pricing_plan_id":"free"},{"bike_id":"de0c8463-985e-421e-ba2b-0e4cab03aa7f","system_id":"levelo_inurba_marseille","lat":43.271388,"lon":5.409269,"is_reserved":false,"is_disabled":false,"rental_uris":{"android":"levelo://app?vid=de0c8463-985e-421e-ba2b-0e4cab03aa7f","ios":"levelo://app?vid=de0c8463-985e-421e-ba2b-0e4cab03aa7f"},"vehicle_type_id":"4","last_reported":1702933574,"current_range_meters":4800,"station_id":"ce4bhl12rcd13ifvqgf0","pricing_plan_id":"free"},{"bike_id":"a3be1c29-995a-4f18-8d28-f5aa4c79f3d0","system_id":"levelo_inurba_marseille","lat":43.271368,"lon":5.40928,"is_reserved":false,"is_disabled":false,"rental_uris":{"android":"levelo://app?vid=a3be1c29-995a-4f18-8d28-f5aa4c79f3d0","ios":"levelo://app?vid=a3be1c29-995a-4f18-8d28-f5aa4c79f3d0"},"vehicle_type_id":"4","last_reported":1702933574,"current_range_meters":28000,"station_id":"ce4bhl12rcd13ifvqgf0","pricing_plan_id":"free"},{"bike_id":"eb1de3d3-c43d-4404-a0bf-e3e0f979c4f1","system_id":"levelo_inurba_marseille","lat":43.271388,"lon":5.409269,"is_reserved":false,"is_disabled":false,"rental_uris":{"android":"levelo://app?vid=eb1de3d3-c43d-4404-a0bf-e3e0f979c4f1","ios":"levelo://app?vid=eb1de3d3-c43d-4404-a0bf-e3e0f979c4f1"},"vehicle_type_id":"4","last_reported":1702933574,"current_range_meters":8000,"station_id":"ce4bhl12rcd13ifvqgf0","pricing_plan_id":"free"},{"bike_id":"3ec17574-714c-4dd8-936f-b707a5b77655","system_id":"levelo_inurba_marseille","lat":43.271388,"lon":5.409269,"is_reserved":false,"is_disabled":false,"rental_uris":{"android":"levelo://app?vid=3ec17574-714c-4dd8-936f-b707a5b77655","ios":"levelo://app?vid=3ec17574-714c-4dd8-936f-b707a5b77655"},"vehicle_type_id":"4","last_reported":1702933574,"current_range_meters":27600,"station_id":"ce4bhl12rcd13ifvqgf0","pricing_plan_id":"free"},{"bike_id":"7f0a85fc-e9b1-422b-b922-07a060dc7b5a","system_id":"levelo_inurba_marseille","lat":43.271368,"lon":5.40928,"is_reserved":false,"is_disabled":false,"rental_uris":{"android":"levelo://app?vid=7f0a85fc-e9b1-422b-b922-07a060dc7b5a","ios":"levelo://app?vid=7f0a85fc-e9b1-422b-b922-07a060dc7b5a"},"vehicle_type_id":"4","last_reported":1702933574,"current_range_meters":31600,"station_id":"ce4bhl12rcd13ifvqgf0","pricing_plan_id":"free"},{"bike_id":"d8b3f44b-b64f-48c5-90fb-16521be69981","system_id":"levelo_inurba_marseille","lat":43.267959,"lon":5.402685,"is_reserved":false,"is_disabled":false,"rental_uris":{"android":"levelo://app?vid=d8b3f44b-b64f-48c5-90fb-16521be69981","ios":"levelo://app?vid=d8b3f44b-b64f-48c5-90fb-16521be69981"},"vehicle_type_id":"4","last_reported":1702933574,"current_range_meters":30000,"station_id":"ce501612rcd8frsf0b60","pricing_plan_id":"free"},{"bike_id":"9432fde5-b38d-4791-8aea-32f68aa873e9","system_id":"levelo_inurba_marseille","lat":43.267959,"lon":5.402687,"is_reserved":false,"is_disabled":false,"rental_uris":{"android":"levelo://app?vid=9432fde5-b38d-4791-8aea-32f68aa873e9","ios":"levelo://app?vid=9432fde5-b38d-4791-8aea-32f68aa873e9"},"vehicle_type_id":"4","last_reported":1702933574,"current_range_meters":30800,"station_id":"ce501612rcd8frsf0b60","pricing_plan_id":"free"},{"bike_id":"121b143a-c3d0-42e2-8acc-fe4f38cddd91","system_id":"levelo_inurba_marseille","lat":43.264964,"lon":5.395302,"is_reserved":false,"is_disabled":false,"rental_uris":{"android":"levelo://app?vid=121b143a-c3d0-42e2-8acc-fe4f38cddd91","ios":"levelo://app?vid=121b143a-c3d0-42e2-8acc-fe4f38cddd91"},"vehicle_type_id":"4","last_reported":1702933574,"current_range_meters":9600,"station_id":"","pricing_plan_id":"free"},{"bike_id":"e8a234b0-5e27-410f-b763-446173f4b18b","system_id":"levelo_inurba_marseille","lat":43.264919,"lon":5.395445,"is_reserved":false,"is_disabled":false,"rental_uris":{"android":"levelo://app?vid=e8a234b0-5e27-410f-b763-446173f4b18b","ios":"levelo://app?vid=e8a234b0-5e27-410f-b763-446173f4b18b"},"vehicle_type_id":"4","last_reported":1702933574,"current_range_meters":0,"station_id":"","pricing_plan_id":"free"},{"bike_id":"a4975794-e88f-4155-947c-264e12be34c5","system_id":"levelo_inurba_marseille","lat":43.29899,"lon":5.43662,"is_reserved":false,"is_disabled":false,"rental_uris":{"android":"levelo://app?vid=a4975794-e88f-4155-947c-264e12be34c5","ios":"levelo://app?vid=a4975794-e88f-4155-947c-264e12be34c5"},"vehicle_type_id":"4","last_reported":1702933574,"current_range_meters":26800,"station_id":"ce4bhpp2rcd13ifvqhfg","pricing_plan_id":"free"},{"bike_id":"e1dbd143-4512-4ef2-81f6-ec31d4c89c72","system_id":"levelo_inurba_marseille","lat":43.298768,"lon":5.43643,"is_reserved":false,"is_disabled":false,"rental_uris":{"android":"levelo://app?vid=e1dbd143-4512-4ef2-81f6-ec31d4c89c72","ios":"levelo://app?vid=e1dbd143-4512-4ef2-81f6-ec31d4c89c72"},"vehicle_type_id":"4","last_reported":1702933574,"current_range_meters":25600,"station_id":"ce4bhpp2rcd13ifvqhfg","pricing_plan_id":"free"},{"bike_id":"8b000818-ee66-4afa-956c-06d1feec8088","system_id":"levelo_inurba_marseille","lat":43.298768,"lon":5.43643,"is_reserved":false,"is_disabled":false,"rental_uris":{"android":"levelo://app?vid=8b000818-ee66-4afa-956c-06d1feec8088","ios":"levelo://app?vid=8b000818-ee66-4afa-956c-06d1feec8088"},"vehicle_type_id":"4","last_reported":1702933574,"current_range_meters":31600,"station_id":"ce4bhpp2rcd13ifvqhfg","pricing_plan_id":"free"},{"bike_id":"be3c7518-3a90-4ace-b263-cbe424279bc2","system_id":"levelo_inurba_marseille","lat":43.298768,"lon":5.43643,"is_reserved":false,"is_disabled":false,"rental_uris":{"android":"levelo://app?vid=be3c7518-3a90-4ace-b263-cbe424279bc2","ios":"levelo://app?vid=be3c7518-3a90-4ace-b263-cbe424279bc2"},"vehicle_type_id":"4","last_reported":1702933574,"current_range_meters":30400,"station_id":"ce4bhpp2rcd13ifvqhfg","pricing_plan_id":"free"},{"bike_id":"76346036-12b6-4dcc-86d0-232802e30c75","system_id":"levelo_inurba_marseille","lat":43.298768,"lon":5.43643,"is_reserved":false,"is_disabled":false,"rental_uris":{"android":"levelo://app?vid=76346036-12b6-4dcc-86d0-232802e30c75","ios":"levelo://app?vid=76346036-12b6-4dcc-86d0-232802e30c75"},"vehicle_type_id":"4","last_reported":1702933574,"current_range_meters":24000,"station_id":"ce4bhpp2rcd13ifvqhfg","pricing_plan_id":"free"},{"bike_id":"9e394c7b-ad8a-4178-91e9-ac10bd6076ef","system_id":"levelo_inurba_marseille","lat":43.275028,"lon":5.424534,"is_reserved":false,"is_disabled":false,"rental_uris":{"android":"levelo://app?vid=9e394c7b-ad8a-4178-91e9-ac10bd6076ef","ios":"levelo://app?vid=9e394c7b-ad8a-4178-91e9-ac10bd6076ef"},"vehicle_type_id":"4","last_reported":1702933574,"current_range_meters":28800,"station_id":"ce4bhn92rcd13ifvqgrg","pricing_plan_id":"free"},{"bike_id":"094d45f0-cea5-4dc3-98bc-e91c28e32823","system_id":"levelo_inurba_marseille","lat":43.25586,"lon":5.38236,"is_reserved":false,"is_disabled":false,"rental_uris":{"android":"levelo://app?vid=094d45f0-cea5-4dc3-98bc-e91c28e32823","ios":"levelo://app?vid=094d45f0-cea5-4dc3-98bc-e91c28e32823"},"vehicle_type_id":"4","last_reported":1702933574,"current_range_meters":18800,"station_id":"ce4bhih2rcd13ifvqfs0","pricing_plan_id":"free"},{"bike_id":"20cb25ab-a5ed-44f2-a730-713583b7456a","system_id":"levelo_inurba_marseille","lat":43.258205,"lon":5.394369,"is_reserved":false,"is_disabled":false,"rental_uris":{"android":"levelo://app?vid=20cb25ab-a5ed-44f2-a730-713583b7456a","ios":"levelo://app?vid=20cb25ab-a5ed-44f2-a730-713583b7456a"},"vehicle_type_id":"4","last_reported":1702933574,"current_range_meters":26800,"station_id":"ce4bhip2rcd13ifvqft0","pricing_plan_id":"free"},{"bike_id":"f66b9691-79da-495b-b626-28549e04daba","system_id":"levelo_inurba_marseille","lat":43.255782,"lon":5.382404,"is_reserved":false,"is_disabled":false,"rental_uris":{"android":"levelo://app?vid=f66b9691-79da-495b-b626-28549e04daba","ios":"levelo://app?vid=f66b9691-79da-495b-b626-28549e04daba"},"vehicle_type_id":"4","last_reported":1702933574,"current_range_meters":0,"station_id":"ce4bhih2rcd13ifvqfs0","pricing_plan_id":"free"},{"bike_id":"771c001f-b785-4927-ada6-91aa387b0245","system_id":"levelo_inurba_marseille","lat":43.255774,"lon":5.382421,"is_reserved":false,"is_disabled":false,"rental_uris":{"android":"levelo://app?vid=771c001f-b785-4927-ada6-91aa387b0245","ios":"levelo://app?vid=771c001f-b785-4927-ada6-91aa387b0245"},"vehicle_type_id":"4","last_reported":1702933574,"current_range_meters":4400,"station_id":"ce4bhih2rcd13ifvqfs0","pricing_plan_id":"free"},{"bike_id":"c89dcb56-7515-448e-b5f6-fb6ed21417b0","system_id":"levelo_inurba_marseille","lat":43.25503,"lon":5.37651,"is_reserved":false,"is_disabled":false,"rental_uris":{"android":"levelo://app?vid=c89dcb56-7515-448e-b5f6-fb6ed21417b0","ios":"levelo://app?vid=c89dcb56-7515-448e-b5f6-fb6ed21417b0"},