{"last_updated":1731870383,"ttl":60,"version":"2.2","data":{"bikes":[{"bike_id":"73806b4b-3409-4fe7-9bac-cc9da7355bda","system_id":"levelo_inurba_marseille","lat":43.3103,"lon":5.4,"is_reserved":false,"is_disabled":false,"rental_uris":{"android":"levelo://app?vid=73806b4b-3409-4fe7-9bac-cc9da7355bda","ios":"levelo://app?vid=73806b4b-3409-4fe7-9bac-cc9da7355bda"},"vehicle_type_id":"4","last_reported":1731870383,"current_range_meters":28000,"station_id":"","pricing_plan_id":"cebpf4jnsgd1na2vs0mg"},{"bike_id":"a91f19b2-ff9e-440e-8629-823c79abc99c","system_id":"levelo_inurba_marseille","lat":43.29237,"lon":5.38324,"is_reserved":false,"is_disabled":false,"rental_uris":{"android":"levelo://app?vid=a91f19b2-ff9e-440e-8629-823c79abc99c","ios":"levelo://app?vid=a91f19b2-ff9e-440e-8629-823c79abc99c"},"vehicle_type_id":"4","last_reported":1731870383,"current_range_meters":19600,"station_id":"ce4bgjh2rcd13ifvqbf0","pricing_plan_id":"cebpf4jnsgd1na2vs0mg"},{"bike_id":"db2b91a4-d5c9-49a3-9079-d94c82ff95d7","system_id":"levelo_inurba_marseille","lat":43.30039,"lon":5.40933,"is_reserved":false,"is_disabled":false,"rental_uris":{"android":"levelo://app?vid=db2b91a4-d5c9-49a3-9079-d94c82ff95d7","ios":"levelo://app?vid=db2b91a4-d5c9-49a3-9079-d94c82ff95d7"},"vehicle_type_id":"4","last_reported":1731870383,"current_range_meters":9200,"station_id":"","pricing_plan_id":"cebpf4jnsgd1na2vs0mg"},{"bike_id":"21b61ede-e062-4fe8-a6bc-6c449d2ab9c7","system_id":"levelo_inurba_marseille","lat":43.30259,"lon":5.40081,"is_reserved":false,"is_disabled":false,"rental_uris":{"android":"levelo://app?vid=21b61ede-e062-4fe8-a6bc-6c449d2ab9c7","ios":"levelo://app?vid=21b61ede-e062-4fe8-a6bc-6c449d2ab9c7"},"vehicle_type_id":"4","last_reported":1731870383,"current_range_meters":14000,"station_id":"ce4bgvh2rcd13ifvqcs0","pricing_plan_id":"cebpf4jnsgd1na2vs0mg"},{"bike_id":"2515f8c8-a9a3-4222-9e83-260007284c1e","system_id":"levelo_inurba_marseille","lat":43.2938,"lon":5.38631,"is_reserved":false,"is_disabled":false,"rental_uris":{"android":"levelo://app?vid=2515f8c8-a9a3-4222-9e83-260007284c1e","ios":"levelo://app?vid=2515f8c8-a9a3-4222-9e83-260007284c1e"},"vehicle_type_id":"4","last_reported":1731870383,"current_range_meters":10800,"station_id":"ce4bh2h2rcd13ifvqdh0","pricing_plan_id":"cebpf4jnsgd1na2vs0mg"},{"bike_id":"6af37118-02ee-4d08-8a3d-f69758d1e2e6","system_id":"levelo_inurba_marseille","lat":43.29259,"lon":5.38437,"is_reserved":false,"is_disabled":false,"rental_uris":{"android":"levelo://app?vid=6af37118-02ee-4d08-8a3d-f69758d1e2e6","ios":"levelo://app?vid=6af37118-02ee-4d08-8a3d-f69758d1e2e6"},"vehicle_type_id":"4","last_reported":1731870383,"current_range_meters":28800,"station_id":"ce4bh692rcd13ifvqea0","pricing_plan_id":"cebpf4jnsgd1na2vs0mg"},{"bike_id":"20a3f75f-c1d6-43c9-aaa8-4bc959aaf765","system_id":"levelo_inurba_marseille","lat":43.30138,"lon":5.39868,"is_reserved":false,"is_disabled":false,"rental_uris":{"android":"levelo://app?vid=20a3f75f-c1d6-43c9-aaa8-4bc959aaf765","ios":"levelo://app?vid=20a3f75f-c1d6-43c9-aaa8-4bc959aaf765"},"vehicle_type_id":"4","last_reported":1731870383,"current_range_meters":33200,"station_id":"ce4bh0h2rcd13ifvqd40","pricing_plan_id":"cebpf4jnsgd1na2vs0mg"},{"bike_id":"0672d165-d197-4474-bbec-2df95543fd2f","system_id":"levelo_inurba_marseille","lat":43.299,"lon":5.43662,"is_reserved":false,"is_disabled":false,"rental_uris":{"android":"levelo://app?vid=0672d165-d197-4474-bbec-2df95543fd2f","ios":"levelo://app?vid=0672d165-d197-4474-bbec-2df95543fd2f"},"vehicle_type_id":"4","last_reported":1731870383,"current_range_meters":6800,"station_id":"ce4bhpp2rcd13ifvqhfg","pricing_plan_id":"cebpf4jnsgd1na2vs0mg"},{"bike_id":"0abafd50-d6f0-4ae1-8b2e-e1936ed5039b","system_id":"levelo_inurba_marseille","lat":43.3066,"lon":5.39288,"is_reserved":false,"is_disabled":false,"rental_uris":{"android":"levelo://app?vid=0abafd50-d6f0-4ae1-8b2e-e1936ed5039b","ios":"levelo://app?vid=0abafd50-d6f0-4ae1-8b2e-e1936ed5039b"},"vehicle_type_id":"4","last_reported":1731870383,"current_range_meters":16400,"station_id":"","pricing_plan_id":"cebpf4jnsgd1na2vs0mg"},{"bike_id":"76a1b48b-70c2-4919-88f8-8769fdbdfc1b","system_id":"levelo_inurba_marseille","lat":43.27211,"lon":5.39178,"is_reserved":false,"is_disabled":false,"rental_uris":{"android":"levelo://app?vid=76a1b48b-70c2-4919-88f8-8769fdbdfc1b","ios":"levelo://app?vid=76a1b48b-70c2-4919-88f8-8769fdbdfc1b"},"vehicle_type_id":"4","last_reported":1731870383,"current_range_meters":18000,"station_id":"ce4bhhp2rcd13ifvqfm0","pricing_plan_id":"cebpf4jnsgd1na2vs0mg"},{"bike_id":"4c167bc3-2964-4625-adc0-c92e539ad80f","system_id":"levelo_inurba_marseille","lat":43.28294,"lon":5.40811,"is_reserved":false,"is_disabled":false,"rental_uris":{"android":"levelo://app?vid=4c167bc3-2964-4625-adc0-c92e539ad80f","ios":"levelo://app?vid=4c167bc3-2964-4625-adc0-c92e539ad80f"},"vehicle_type_id":"4","last_reported":1731870383,"current_range_meters":33600,"station_id":"","pricing_plan_id":"cebpf4jnsgd1na2vs0mg"},{"bike_id":"3203c545-8816-47a4-ae40-21487a89e084","system_id":"levelo_inurba_marseille","lat":43.30613,"lon":5.37245,"is_reserved":false,"is_disabled":false,"rental_uris":{"android":"levelo://app?vid=3203c545-8816-47a4-ae40-21487a89e084","ios":"levelo://app?vid=3203c545-8816-47a4-ae40-21487a89e084"},"vehicle_type_id":"4","last_reported":1731870383,"current_range_meters":36400,"station_id":"ce4bgqh2rcd13ifvqc4g","pricing_plan_id":"cebpf4jnsgd1na2vs0mg"},{"bike_id":"13fc4bd9-a14d-4bc3-8551-999d0d87f410","system_id":"levelo_inurba_marseille","lat":43.26206,"lon":5.37443,"is_reserved":false,"is_disabled":false,"rental_uris":{"android":"levelo://app?vid=13fc4bd9-a14d-4bc3-8551-999d0d87f410","ios":"levelo://app?vid=13fc4bd9-a14d-4bc3-8551-999d0d87f410"},"vehicle_type_id":"4","last_reported":1731870383,"current_range_meters":34800,"station_id":"ce4bhgp2rcd13ifvqfc0","pricing_plan_id":"cebpf4jnsgd1na2vs0mg"},{"bike_id":"5ab46190-d937-4265-88d7-8043aebd848f","system_id":"levelo_inurba_marseille","lat":43.31759,"lon":5.39018,"is_reserved":false,"is_disabled":false,"rental_uris":{"android":"levelo://app?vid=5ab46190-d937-4265-88d7-8043aebd848f","ios":"levelo://app?vid=5ab46190-d937-4265-88d7-8043aebd848f"},"vehicle_type_id":"4","last_reported":1731870383,"current_range_meters":36800,"station_id":"ce4bhqp2rcd13ifvqhng","pricing_plan_id":"cebpf4jnsgd1na2vs0mg"},{"bike_id":"75bfa6f0-bc2f-42ef-9dfd-fdb2f50e5301","system_id":"levelo_inurba_marseille","lat":43.29584,"lon":5.399815,"is_reserved":false,"is_disabled":false,"rental_uris":{"android":"levelo://app?vid=75bfa6f0-bc2f-42ef-9dfd-fdb2f50e5301","ios":"levelo://app?vid=75bfa6f0-bc2f-42ef-9dfd-fdb2f50e5301"},"vehicle_type_id":"4","last_reported":1731870383,"current_range_meters":16800,"station_id":"ce4bh312rcd13ifvqdj0","pricing_plan_id":"cebpf4jnsgd1na2vs0mg"},{"bike_id":"6b0ea79e-cb12-4a50-9845-e4686b3cacc8","system_id":"levelo_inurba_marseille","lat":43.295751,"lon":5.399791,"is_reserved":false,"is_disabled":false,"rental_uris":{"android":"levelo://app?vid=6b0ea79e-cb12-4a50-9845-e4686b3cacc8","ios":"levelo://app?vid=6b0ea79e-cb12-4a50-9845-e4686b3cacc8"},"vehicle_type_id":"4","last_reported":1731870383,"current_range_meters":8400,"station_id":"","pricing_plan_id":"cebpf4jnsgd1na2vs0mg"},{"bike_id":"b7e63787-e3f5-4232-a074-369fcb6f8674","system_id":"levelo_inurba_marseille","lat":43.30267,"lon":5.37698,"is_reserved":false,"is_disabled":false,"rental_uris":{"android":"levelo://app?vid=b7e63787-e3f5-4232-a074-369fcb6f8674","ios":"levelo://app?vid=b7e63787-e3f5-4232-a074-369fcb6f8674"},"vehicle_type_id":"4","last_reported":1731870383,"current_range_meters":21600,"station_id":"ce4bguh2rcd13ifvqcj0","pricing_plan_id":"cebpf4jnsgd1na2vs0mg"},{"bike_id":"959bce6e-2c95-4a37-b624-fe34b9912548","system_id":"levelo_inurba_marseille","lat":43.28153,"lon":5.42656,"is_reserved":false,"is_disabled":false,"rental_uris":{"android":"levelo://app?vid=959bce6e-2c95-4a37-b624-fe34b9912548","ios":"levelo://app?vid=959bce6e-2c95-4a37-b624-fe34b9912548"},"vehicle_type_id":"4","last_reported":1731870383,"current_range_meters":22800,"station_id":"ce4bhnh2rcd13ifvqgug","pricing_plan_id":"cebpf4jnsgd1na2vs0mg"},{"bike_id":"f8c86d03-779b-474e-95ea-a8886f915bf5","system_id":"levelo_inurba_marseille","lat":43.27997,"lon":5.4001,"is_reserved":false,"is_disabled":false,"rental_uris":{"android":"levelo://app?vid=f8c86d03-779b-474e-95ea-a8886f915bf5","ios":"levelo://app?vid=f8c86d03-779b-474e-95ea-a8886f915bf5"},"vehicle_type_id":"4","last_reported":1731870383,"current_range_meters":39200,"station_id":"ce4bho92rcd13ifvqh4g","pricing_plan_id":"cebpf4jnsgd1na2vs0mg"},{"bike_id":"d61c8a52-528d-46d9-b1fb-db8c6ca71e05","system_id":"levelo_inurba_marseille","lat":43.24167,"lon":5.36392,"is_reserved":false,"is_disabled":false,"rental_uris":{"android":"levelo://app?vid=d61c8a52-528d-46d9-b1fb-db8c6ca71e05","ios":"levelo://app?vid=d61c8a52-528d-46d9-b1fb-db8c6ca71e05"},"vehicle_type_id":"4","last_reported":1731870383,"current_range_meters":26800,"station_id":"cpo36qri1sfpv3e86is0","pricing_plan_id":"cebpf4jnsgd1na2vs0mg"},{"bike_id":"fd5dd092-f218-4ee9-8566-83eb35688117","system_id":"levelo_inurba_marseille","lat":43.30419,"lon":5.41287,"is_reserved":false,"is_disabled":false,"rental_uris":{"android":"levelo://app?vid=fd5dd092-f218-4ee9-8566-83eb35688117","ios":"levelo://app?vid=fd5dd092-f218-4ee9-8566-83eb35688117"},"vehicle_type_id":"4","last_reported":1731870383,"current_range_meters":26800,"station_id":"ce4bhop2rcd13ifvqh8g","pricing_plan_id":"cebpf4jnsgd1na2vs0mg"},{"bike_id":"0e1d2e7a-8318-45fe-af1b-31857eb1aac8","system_id":"levelo_inurba_marseille","lat":43.2396,"lon":5.36629,"is_reserved":false,"is_disabled":false,"rental_uris":{"android":"levelo://app?vid=0e1d2e7a-8318-45fe-af1b-31857eb1aac8","ios":"levelo://app?vid=0e1d2e7a-8318-45fe-af1b-31857eb1aac8"},"vehicle_type_id":"4","last_reported":1731870383,"current_range_meters":22800,"station_id":"ce4bhi12rcd13ifvqfp0","pricing_plan_id":"cebpf4jnsgd1na2vs0mg"},{"bike_id":"54811b3e-ec41-4a58-b4dd-6931ca4ea482","system_id":"levelo_inurba_marseille","lat":43.24177,"lon":5.39735,"is_reserved":false,"is_disabled":false,"rental_uris":{"android":"levelo://app?vid=54811b3e-ec41-4a58-b4dd-6931ca4ea482","ios":"levelo://app?vid=54811b3e-ec41-4a58-b4dd-6931ca4ea482"},"vehicle_type_id":"4","last_reported":1731870383,"current_range_meters":33200,"station_id":"ce4bhn12rcd13ifvqgpg","pricing_plan_id":"cebpf4jnsgd1na2vs0mg"},{"bike_id":"2bd3ae1c-22d2-4b0f-9fd7-42d6b84fc3a3","system_id":"levelo_inurba_marseille","lat":43.33602,"lon":5.4103,"is_reserved":false,"is_disabled":false,"rental_uris":{"android":"levelo://app?vid=2bd3ae1c-22d2-4b0f-9fd7-42d6b84fc3a3","ios":"levelo://app?vid=2bd3ae1c-22d2-4b0f-9fd7-42d6b84fc3a3"},"vehicle_type_id":"4","last_reported":1731870383,"current_range_meters":16800,"station_id":"ce4bhqh2rcd13ifvqhmg","pricing_plan_id":"cebpf4jnsgd1na2vs0mg"},{"bike_id":"79b76398-f4aa-422b-b325-2360d07a8784","system_id":"levelo_inurba_marseille","lat":43.33735,"lon":5.39179,"is_reserved":false,"is_disabled":false,"rental_uris":{"android":"levelo://app?vid=79b76398-f4aa-422b-b325-2360d07a8784","ios":"levelo://app?vid=79b76398-f4aa-422b-b325-2360d07a8784"},"vehicle_type_id":"4","last_reported":1731870383,"current_range_meters":38800,"station_id":"ce4bhr92rcd13ifvqhsg","pricing_plan_id":"cebpf4jnsgd1na2vs0mg"},{"bike_id":"a7081911-a624-4ede-9084-31328e822934","system_id":"levelo_inurba_marseille","lat":43.28457,"lon":5.35885,"is_reserved":false,"is_disabled":false,"rental_uris":{"android":"levelo://app?vid=a7081911-a624-4ede-9084-31328e822934","ios":"levelo://app?vid=a7081911-a624-4ede-9084-31328e822934"},"vehicle_type_id":"4","last_reported":1731870383,"current_range_meters":24400,"station_id":"ce4bhah2rcd13ifvqei0","pricing_plan_id":"cebpf4jnsgd1na2vs0mg"},{"bike_id":"0330cc85-e193-4ece-9599-97aadccd313e","system_id":"levelo_inurba_marseille","lat":43.30884,"lon":5.38977,"is_reserved":false,"is_disabled":false,"rental_uris":{"android":"levelo://app?vid=0330cc85-e193-4ece-9599-97aadccd313e","ios":"levelo://app?vid=0330cc85-e193-4ece-9599-97aadccd313e"},"vehicle_type_id":"4","last_reported":1731870383,"current_range_meters":9600,"station_id":"chh1huq6cuj3fo74tm60","pricing_plan_id":"cebpf4jnsgd1na2vs0mg"},{"bike_id":"3e160939-b789-4140-b385-0b3f273748e7","system_id":"levelo_inurba_marseille","lat":43.279084,"lon":5.380122,"is_reserved":false,"is_disabled":false,"rental_uris":{"android":"levelo://app?vid=3e160939-b789-4140-b385-0b3f273748e7","ios":"levelo://app?vid=3e160939-b789-4140-b385-0b3f273748e7"},"vehicle_type_id":"4","last_reported":1731870383,"current_range_meters":10000,"station_id":"ce4bh0h2rcd13ifvqd40","pricing_plan_id":"cebpf4jnsgd1na2vs0mg"},{"bike_id":"8d95a573-5798-4b53-9b1e-7ca0bc689988","system_id":"levelo_inurba_marseille","lat":43.28078,"lon":5.39661,"is_reserved":false,"is_disabled":false,"rental_uris":{"android":"levelo://app?vid=8d95a573-5798-4b53-9b1e-7ca0bc689988","ios":"levelo://app?vid=8d95a573-5798-4b53-9b1e-7ca0bc689988"},"vehicle_type_id":"4","last_reported":1731870383,"current_range_meters":30400,"station_id":"ce4bho12rcd13ifvqh2g","pricing_plan_id":"cebpf4jnsgd1na2vs0mg"},{"bike_id":"b1ee61da-4c24-4a93-a2f8-3b5fb08cc752","system_id":"levelo_inurba_marseille","lat":43.256934,"lon":5.376644,"is_reserved":false,"is_disabled":false,"rental_uris":{"android":"levelo://app?vid=b1ee61da-4c24-4a93-a2f8-3b5fb08cc752","ios":"levelo://app?vid=b1ee61da-4c24-4a93-a2f8-3b5fb08cc752"},"vehicle_type_id":"4","last_reported":1731870383,"current_range_meters":6000,"station_id":"","pricing_plan_id":"cebpf4jnsgd1na2vs0mg"},{"bike_id":"f0b15f24-1d6a-46a1-a02a-0bb1b749c9ac","system_id":"levelo_inurba_marseille","lat":43.28705,"lon":5.37392,"is_reserved":false,"is_disabled":false,"rental_uris":{"android":"levelo://app?vid=f0b15f24-1d6a-46a1-a02a-0bb1b749c9ac","ios":"levelo://app?vid=f0b15f24-1d6a-46a1-a02a-0bb1b749c9ac"},"vehicle_type_id":"4","last_reported":1731870383,"current_range_meters":29600,"station_id":"ce4bh3p2rcd13ifvqdq0","pricing_plan_id":"cebpf4jnsgd1na2vs0mg"},{"bike_id":"6e000560-3094-4389-8ca5-fea3f83cab13","system_id":"levelo_inurba_marseille","lat":43.266787,"lon":5.3827,"is_reserved":false,"is_disabled":false,"rental_uris":{"android":"levelo://app?vid=6e000560-3094-4389-8ca5-fea3f83cab13","ios":"levelo://app?vid=6e000560-3094-4389-8ca5-fea3f83cab13"},"vehicle_type_id":"4","last_reported":1731870383,"current_range_meters":37600,"station_id":"ce4bhg92rcd13ifvqf90","pricing_plan_id":"cebpf4jnsgd1na2vs0mg"},{"bike_id":"e8e9d299-856f-4e8a-827f-877274264553","system_id":"levelo_inurba_marseille","lat":43.23965,"lon":5.36623,"is_reserved":false,"is_disabled":false,"rental_uris":{"android":"levelo://app?vid=e8e9d299-856f-4e8a-827f-877274264553","ios":"levelo://app?vid=e8e9d299-856f-4e8a-827f-877274264553"},"vehicle_type_id":"4","last_reported":1731870383,"current_range_meters":37600,"station_id":"ce4bhi12rcd13ifvqfp0","pricing_plan_id":"cebpf4jnsgd1na2vs0mg"},{"bike_id":"b2bc0774-6de5-46f1-bfe7-6c0ab5f5c5c1","system_id":"levelo_inurba_marseille","lat":43.28268,"lon":5.35051,"is_reserved":false,"is_disabled":false,"rental_uris":{"android":"levelo://app?vid=b2bc0774-6de5-46f1-bfe7-6c0ab5f5c5c1","ios":"levelo://app?vid=b2bc0774-6de5-46f1-bfe7-6c0ab5f5c5c1"},"vehicle_type_id":"4","last_reported":1731870383,"current_range_meters":38000,"station_id":"ce4bhbp2rcd13ifvqerg","pricing_plan_id":"cebpf4jnsgd1na2vs0mg"},{"bike_id":"7c4fe5c2-64d8-48b0-b869-3bd30e0d45ea","system_id":"levelo_inurba_marseille","lat":43.26573,"lon":5.39002,"is_reserved":false,"is_disabled":false,"rental_uris":{"android":"levelo://app?vid=7c4fe5c2-64d8-48b0-b869-3bd30e0d45ea","ios":"levelo://app?vid=7c4fe5c2-64d8-48b0-b869-3bd30e0d45ea"},"vehicle_type_id":"4","last_reported":1731870383,"current_range_meters":20000,"station_id":"ce4bhe12rcd13ifvqf30","pricing_plan_id":"cebpf4jnsgd1na2vs0mg"},{"bike_id":"e16de5dd-5405-40b7-98d2-3d0549d100ce","system_id":"levelo_inurba_marseille","lat":43.29271,"lon":5.40109,"is_reserved":false,"is_disabled":false,"rental_uris":{"android":"levelo://app?vid=e16de5dd-5405-40b7-98d2-3d0549d100ce","ios":"levelo://app?vid=e16de5dd-5405-40b7-98d2-3d0549d100ce"},"vehicle_type_id":"4","last_reported":1731870383,"current_range_meters":7200,"station_id":"ce4bh312rcd13ifvqdk0","pricing_plan_id":"cebpf4jnsgd1na2vs0mg"},{"bike_id":"36a333a1-b601-4c89-97ee-be46f49ef323","system_id":"levelo_inurba_marseille","lat":43.28692,"lon":5.37387,"is_reserved":false,"is_disabled":false,"rental_uris":{"android":"levelo://app?vid=36a333a1-b601-4c89-97ee-be46f49ef323","ios":"levelo://app?vid=36a333a1-b601-4c89-97ee-be46f49ef323"},"vehicle_type_id":"4","last_reported":1731870383,"current_range_meters":28000,"station_id":"ce4bh3p2rcd13ifvqdq0","pricing_plan_id":"cebpf4jnsgd1na2vs0mg"},{"bike_id":"59043888-0063-4667-89f6-52ba95113c52","system_id":"levelo_inurba_marseille","lat":43.29843,"lon":5.36268,"is_reserved":false,"is_disabled":false,"rental_uris":{"android":"levelo://app?vid=59043888-0063-4667-89f6-52ba95113c52","ios":"levelo://app?vid=59043888-0063-4667-89f6-52ba95113c52"},"vehicle_type_id":"4","last_reported":1731870383,"current_range_meters":37600,"station_id":"ce4bgpp2rcd13ifvqc3g","pricing_plan_id":"cebpf4jnsgd1na2vs0mg"},{"bike_id":"2c56b41b-f390-46d6-a714-c5962f74640d","system_id":"levelo_inurba_marseille","lat":43.30934,"lon":5.40147,"is_reserved":false,"is_disabled":false,"rental_uris":{"android":"levelo://app?vid=2c56b41b-f390-46d6-a714-c5962f74640d","ios":"levelo://app?vid=2c56b41b-f390-46d6-a714-c5962f74640d"},"vehicle_type_id":"4","last_reported":1731870383,"current_range_meters":5600,"station_id":"ce4bgvp2rcd13ifvqct0","pricing_plan_id":"cebpf4jnsgd1na2vs0mg"},{"bike_id":"1adb69b0-580d-40fd-87ce-5d23f0cbefb7","system_id":"levelo_inurba_marseille","lat":43.30547,"lon":5.38437,"is_reserved":false,"is_disabled":false,"rental_uris":{"android":"levelo://app?vid=1adb69b0-580d-40fd-87ce-5d23f0cbefb7","ios":"levelo://app?vid=1adb69b0-580d-40fd-87ce-5d23f0cbefb7"},"vehicle_type_id":"4","last_reported":1731870383,"current_range_meters":22400,"station_id":"ce4bgg92rcd13ifvqb30","pricing_plan_id":"cebpf4jnsgd1na2vs0mg"},{"bike_id":"3cd7002e-921f-4aaa-9f1d-6d69fb29a757","system_id":"levelo_inurba_marseille","lat":43.28939,"lon":5.36386,"is_reserved":false,"is_disabled":false,"rental_uris":{"android":"levelo://app?vid=3cd7002e-921f-4aaa-9f1d-6d69fb29a757","ios":"levelo://app?vid=3cd7002e-921f-4aaa-9f1d-6d69fb29a757"},"vehicle_type_id":"4","last_reported":1731870383,"current_range_meters":9600,"station_id":"ce4bhc92rcd13ifvqetg","pricing_plan_id":"cebpf4jnsgd1na2vs0mg"},{"bike_id":"8a9f823e-baf2-4d03-b304-e7d0af967984","system_id":"levelo_inurba_marseille","lat":43.279037,"lon":5.37999,"is_reserved":false,"is_disabled":false,"rental_uris":{"android":"levelo://app?vid=8a9f823e-baf2-4d03-b304-e7d0af967984","ios":"levelo://app?vid=8a9f823e-baf2-4d03-b304-e7d0af967984"},"vehicle_type_id":"4","last_reported":1731870383,"current_range_meters":4000,"station_id":"ce4bhf92rcd13ifvqf50","pricing_plan_id":"cebpf4jnsgd1na2vs0mg"},{"bike_id":"a8564ab8-45dd-44af-a2ae-f304d3814047","system_id":"levelo_inurba_marseille","lat":43.32663,"lon":5.40988,"is_reserved":false,"is_disabled":false,"rental_uris":{"android":"levelo://app?vid=a8564ab8-45dd-44af-a2ae-f304d3814047","ios":"levelo://app?vid=a8564ab8-45dd-44af-a2ae-f304d3814047"},"vehicle_type_id":"4","last_reported":1731870383,"current_range_meters":36400,"station_id":"ce4bhpp2rcd13ifvqhgg","pricing_plan_id":"cebpf4jnsgd1na2vs0mg"},{"bike_id":"74c37457-d54d-454c-848d-3e859a50fe09","system_id":"levelo_inurba_marseille","lat":43.30428,"lon":5.39749,"is_reserved":false,"is_disabled":false,"rental_uris":{"android":"levelo://app?vid=74c37457-d54d-454c-848d-3e859a50fe09","ios":"levelo://app?vid=74c37457-d54d-454c-848d-3e859a50fe09"},"vehicle_type_id":"4","last_reported":1731870383,"current_range_meters":4800,"station_id":"ce4bh092rcd13ifvqd20","pricing_plan_id":"cebpf4jnsgd1na2vs0mg"},{"bike_id":"0b1b1a56-d86d-40f1-af42-c826bd38a215","system_id":"levelo_inurba_marseille","lat":43.31764,"lon":5.39016,"is_reserved":false,"is_disabled":false,"rental_uris":{"android":"levelo://app?vid=0b1b1a56-d86d-40f1-af42-c826bd38a215","ios":"levelo://app?vid=0b1b1a56-d86d-40f1-af42-c826bd38a215"},"vehicle_type_id":"4","last_reported":1731870383,"current_range_meters":9200,"station_id":"ce4bhqp2rcd13ifvqhng","pricing_plan_id":"cebpf4jnsgd1na2vs0mg"},{"bike_id":"59b8a7be-ce69-4f72-9aa4-2e5d5f4ab8ed","system_id":"levelo_inurba_marseille","lat":43.31908,"lon":5.407201,"is_reserved":false,"is_disabled":false,"rental_uris":{"android":"levelo://app?vid=59b8a7be-ce69-4f72-9aa4-2e5d5f4ab8ed","ios":"levelo://app?vid=59b8a7be-ce69-4f72-9aa4-2e5d5f4ab8ed"},"vehicle_type_id":"4","last_reported":1731870383,"current_range_meters":3600,"station_id":"ce4bhq12rcd13ifvqhig","pricing_plan_id":"cebpf4jnsgd1na2vs0mg"},{"bike_id":"eb54125b-92e7-4b79-bab0-3321858dba7c","system_id":"levelo_inurba_marseille","lat":43.30278,"lon":5.37694,"is_reserved":false,"is_disabled":false,"rental_uris":{"android":"levelo://app?vid=eb54125b-92e7-4b79-bab0-3321858dba7c","ios":"levelo://app?vid=eb54125b-92e7-4b79-bab0-3321858dba7c"},"vehicle_type_id":"4","last_reported":1731870383,"current_range_meters":38800,"station_id":"ce4bguh2rcd13ifvqcj0","pricing_plan_id":"cebpf4jnsgd1na2vs0mg"},{"bike_id":"449ad6af-8dda-49da-bd92-112f0e899ac4","system_id":"levelo_inurba_marseille","lat":43.305917,"lon":5.393724,"is_reserved":false,"is_disabled":false,"rental_uris":{"android":"levelo://app?vid=449ad6af-8dda-49da-bd92-112f0e899ac4","ios":"levelo://app?vid=449ad6af-8dda-49da-bd92-112f0e899ac4"},"vehicle_type_id":"4","last_reported":1731870383,"current_range_meters":26000,"station_id":"ce4bgvp2rcd13ifvqcu0","pricing_plan_id":"cebpf4jnsgd1na2vs0mg"},{"bike_id":"813c0025-c97e-453c-a528-a99d500dbfe6","system_id":"levelo_inurba_marseille","lat":43.26558,"lon":5.37284,"is_reserved":false,"is_disabled":false,"rental_uris":{"android":"levelo://app?vid=813c0025-c97e-453c-a528-a99d500dbfe6","ios":"levelo://app?vid=813c0025-c97e-453c-a528-a99d500dbfe6"},"vehicle_type_id":"4","last_reported":1731870383,"current_range_meters":38400,"station_id":"ce4bhg12rcd13ifvqf70","pricing_plan_id":"cebpf4jnsgd1na2vs0mg"},{"bike_id":"d2c1cd12-8634-4637-83f4-bf7a1d4d7bba","system_id":"levelo_inurba_marseille","lat":43.23198,"lon":5.3555,"is_reserved":false,"is_disabled":false,"rental_uris":{"android":"levelo://app?vid=d2c1cd12-8634-4637-83f4-bf7a1d4d7bba","ios":"levelo://app?vid=d2c1cd12-8634-4637-83f4-bf7a1d4d7bba"},"vehicle_type_id":"4","last_reported":1731870383,"current_range_meters":28000,"station_id":"ce4bhu92rcd13ifvqi70","pricing_plan_id":"cebpf4jnsgd1na2vs0mg"},{"bike_id":"d9fad85d-610f-4198-8662-652ab1f92cd4","system_id":"levelo_inurba_marseille","lat":43.28662,"lon":5.36358,"is_reserved":false,"is_disabled":false,"rental_uris":{"android":"levelo://app?vid=d9fad85d-610f-4198-8662-652ab1f92cd4","ios":"levelo://app?vid=d9fad85d-610f-4198-8662-652ab1f92cd4"},"vehicle_type_id":"4","last_reported":1731870383,"current_range_meters":7200,"station_id":"ce4bhah2rcd13ifvqej0","pricing_plan_id":"cebpf4jnsgd1na2vs0mg"},{"bike_id":"74c61bff-98e1-49cd-b9a9-b2d51708f011","system_id":"levelo_inurba_marseille","lat":43.26194,"lon":5.37445,"is_reserved":false,"is_disabled":false,"rental_uris":{"android":"levelo://app?vid=74c61bff-98e1-49cd-b9a9-b2d51708f011","ios":"levelo://app?vid=74c61bff-98e1-49cd-b9a9-b2d51708f011"},"vehicle_type_id":"4","last_reported":1731870383,"current_range_meters":38800,"station_id":"ce4bhgp2rcd13ifvqfc0","pricing_plan_id":"cebpf4jnsgd1na2vs0mg"},{"bike_id":"f30fc8d2-9513-4cd8-88fc-a8f45027c900","system_id":"levelo_inurba_marseille","lat":43.28693,"lon":5.37388,"is_reserved":false,"is_disabled":false,"rental_uris":{"android":"levelo://app?vid=f30fc8d2-9513-4cd8-88fc-a8f45027c900","ios":"levelo://app?vid=f30fc8d2-9513-4cd8-88fc-a8f45027c900"},"vehicle_type_id":"4","last_reported":1731870383,"current_range_meters":20000,"station_id":"ce4bh3p2rcd13ifvqdq0","pricing_plan_id":"cebpf4jnsgd1na2vs0mg"},{"bike_id":"9860bcb7-4796-49c3-8410-e3138ad765d7","system_id":"levelo_inurba_marseille","lat":43.31117,"lon":5.37761,"is_reserved":false,"is_disabled":false,"rental_uris":{"android":"levelo://app?vid=9860bcb7-4796-49c3-8410-e3138ad765d7","ios":"levelo://app?vid=9860bcb7-4796-49c3-8410-e3138ad765d7"},"vehicle_type_id":"4","last_reported":1731870383,"current_range_meters":36800,"station_id":"ce4bgt92rcd13ifvqcg0","pricing_plan_id":"cebpf4jnsgd1na2vs0mg"},{"bike_id":"e1cbbc39-b3d6-45a9-b7e5-8900bdc53898","system_id":"levelo_inurba_marseille","lat":43.27921,"lon":5.39571,"is_reserved":false,"is_disabled":false,"rental_uris":{"android":"levelo://app?vid=e1cbbc39-b3d6-45a9-b7e5-8900bdc53898","ios":"levelo://app?vid=e1cbbc39-b3d6-45a9-b7e5-8900bdc53898"},"vehicle_type_id":"4","last_reported":1731870383,"current_range_meters":31200,"station_id":"ce4bhf92rcd13ifvqf40","pricing_plan_id":"cebpf4jnsgd1na2vs0mg"},{"bike_id":"01272bd5-a2c0-44b6-b76e-87cd305d9451","system_id":"levelo_inurba_marseille","lat":43.33023,"lon":5.39047,"is_reserved":false,"is_disabled":false,"rental_uris":{"android":"levelo://app?vid=01272bd5-a2c0-44b6-b76e-87cd305d9451","ios":"levelo://app?vid=01272bd5-a2c0-44b6-b76e-87cd305d9451"},"vehicle_type_id":"4","last_reported":1731870383,"current_range_meters":14000,"station_id":"ce4bhr92rcd13ifvqhrg","pricing_plan_id":"cebpf4jnsgd1na2vs0mg"},{"bike_id":"e1f6415b-e101-43e7-9b1b-480b213c11b4","system_id":"levelo_inurba_marseille","lat":43.29518,"lon":5.39404,"is_reserved":false,"is_disabled":false,"rental_uris":{"android":"levelo://app?vid=e1f6415b-e101-43e7-9b1b-480b213c11b4","ios":"levelo://app?vid=e1f6415b-e101-43e7-9b1b-480b213c11b4"},"vehicle_type_id":"4","last_reported":1731870383,"current_range_meters":18800,"station_id":"ce4bh292rcd13ifvqdf0","pricing_plan_id":"cebpf4jnsgd1na2vs0mg"},{"bike_id":"8300deb3-1fed-4359-9d2f-62192a22298f","system_id":"levelo_inurba_marseille","lat":43.30216,"lon":5.38827,"is_reserved":false,"is_disabled":false,"rental_uris":{"android":"levelo://app?vid=8300deb3-1fed-4359-9d2f-62192a22298f","ios":"levelo://app?vid=8300deb3-1fed-4359-9d2f-62192a22298f"},"vehicle_type_id":"4","last_reported":1731870383,"current_range_meters":30800,"station_id":"ce4bht12rcd13ifvqi60","pricing_plan_id":"cebpf4jnsgd1na2vs0mg"},{"bike_id":"b219a1c1-2cb4-4ae1-8e3f-102f1db645df","system_id":"levelo_inurba_marseille","lat":43.3089,"lon":5.3962,"is_reserved":false,"is_disabled":false,"rental_uris":{"android":"levelo://app?vid=b219a1c1-2cb4-4ae1-8e3f-102f1db645df","ios":"levelo://app?vid=b219a1c1-2cb4-4ae1-8e3f-102f1db645df"},"vehicle_type_id":"4","last_reported":1731870383,"current_range_meters":38400,"station_id":"ce4bh012rcd13ifvqcv0","pricing_plan_id":"cebpf4jnsgd1na2vs0mg"},{"bike_id":"cb3165b9-4890-480d-ae63-784fba188dfc","system_id":"levelo_inurba_marseille","lat":43.27069,"lon":5.42275,"is_reserved":false,"is_disabled":false,"rental_uris":{"android":"levelo://app?vid=cb3165b9-4890-480d-ae63-784fba188dfc","ios":"levelo://app?vid=cb3165b9-4890-480d-ae63-784fba188dfc"},"vehicle_type_id":"4","last_reported":1731870383,"current_range_meters":38800,"station_id":"ce4bhk92rcd13ifvqgb0","pricing_plan_id":"cebpf4jnsgd1na2vs0mg"},{"bike_id":"cb0e6b17-b722-48b5-87f0-29c838de85f9","system_id":"levelo_inurba_marseille","lat":43.303045,"lon":5.392158,"is_reserved":false,"is_disabled":false,"rental_uris":{"android":"levelo://app?vid=cb0e6b17-b722-48b5-87f0-29c838de85f9","ios":"levelo://app?vid=cb0e6b17-b722-48b5-87f0-29c838de85f9"},"vehicle_type_id":"4","last_reported":1731870383,"current_range_meters":12000,"station_id":"ce4bgkh2rcd13ifvqbk0","pricing_plan_id":"cebpf4jnsgd1na2vs0mg"},{"bike_id":"5938f129-0be9-4612-acac-86791f6673ad","system_id":"levelo_inurba_marseille","lat":43.28207,"lon":5.44375,"is_reserved":false,"is_disabled":false,"rental_uris":{"android":"levelo://app?vid=5938f129-0be9-4612-acac-86791f6673ad","ios":"levelo://app?vid=5938f129-0be9-4612-acac-86791f6673ad"},"vehicle_type_id":"4","last_reported":1731870383,"current_range_meters":11600,"station_id":"","pricing_plan_id":"cebpf4jnsgd1na2vs0mg"},{"bike_id":"e9c95dd5-afb3-4df6-8ea4-96bbc6bd78de","system_id":"levelo_inurba_marseille","lat":43.33024,"lon":5.39041,"is_reserved":false,"is_disabled":false,"rental_uris":{"android":"levelo://app?vid=e9c95dd5-afb3-4df6-8ea4-96bbc6bd78de","ios":"levelo://app?vid=e9c95dd5-afb3-4df6-8ea4-96bbc6bd78de"},"vehicle_type_id":"4","last_reported":1731870383,"current_range_meters":37600,"station_id":"ce4bhr92rcd13ifvqhrg","pricing_plan_id":"cebpf4jnsgd1na2vs0mg"},{"bike_id":"13d05ff2-a9f4-496f-9a5a-0366db337b38","system_id":"levelo_inurba_marseille","lat":43.26951,"lon":5.40256,"is_reserved":false,"is_disabled":false,"rental_uris":{"android":"levelo://app?vid=13d05ff2-a9f4-496f-9a5a-0366db337b38","ios":"levelo://app?vid=13d05ff2-a9f4-496f-9a5a-0366db337b38"},"vehicle_type_id":"4","last_reported":1731870383,"current_range_meters":38800,"station_id":"cjm6bp8fraef2m0cb0m0","pricing_plan_id":"cebpf4jnsgd1na2vs0mg"},{"bike_id":"7522abd6-2a66-4e48-86ec-bc1b9398e2e0","system_id":"levelo_inurba_marseille","lat":43.30192,"lon":5.366,"is_reserved":false,"is_disabled":false,"rental_uris":{"android":"levelo://app?vid=7522abd6-2a66-4e48-86ec-bc1b9398e2e0","ios":"levelo://app?vid=7522abd6-2a66-4e48-86ec-bc1b9398e2e0"},"vehicle_type_id":"4","last_reported":1731870383,"current_range_meters":37600,"station_id":"ce4bgrh2rcd13ifvqc8g","pricing_plan_id":"cebpf4jnsgd1na2vs0mg"},{"bike_id":"231126c7-6ad4-4270-bba3-c28d8cb4e046","system_id":"levelo_inurba_marseille","lat":43.29019,"lon":5.38135,"is_reserved":false,"is_disabled":false,"rental_uris":{"android":"levelo://app?vid=231126c7-6ad4-4270-bba3-c28d8cb4e046","ios":"levelo://app?vid=231126c7-6ad4-4270-bba3-c28d8cb4e046"},"vehicle_type_id":"4","last_reported":1731870383,"current_range_meters":22000,"station_id":"ce4bh4p2rcd13ifvqe1g","pricing_plan_id":"cebpf4jnsgd1na2vs0mg"},{"bike_id":"b9d49058-fa8e-482b-8255-5a6a82d7333f","system_id":"levelo_inurba_marseille","lat":43.284544,"lon":5.359034,"is_reserved":false,"is_disabled":false,"rental_uris":{"android":"levelo://app?vid=b9d49058-fa8e-482b-8255-5a6a82d7333f","ios":"levelo://app?vid=b9d49058-fa8e-482b-8255-5a6a82d7333f"},"vehicle_type_id":"4","last_reported":1731870383,"current_range_meters":3600,"station_id":"ce4bhah2rcd13ifvqei0","pricing_plan_id":"cebpf4jnsgd1na2vs0mg"},{"bike_id":"12867844-fa2a-41b2-8d74-706d4ef15909","system_id":"levelo_inurba_marseille","lat":43.33757,"lon":5.37437,"is_reserved":false,"is_disabled":false,"rental_uris":{"android":"levelo://app?vid=12867844-fa2a-41b2-8d74-706d4ef15909","ios":"levelo://app?vid=12867844-fa2a-41b2-8d74-706d4ef15909"},"vehicle_type_id":"4","last_reported":1731870383,"current_range_meters":32000,"station_id":"","pricing_plan_id":"cebpf4jnsgd1na2vs0mg"},{"bike_id":"44680aff-efa9-4204-950d-192967f58905","system_id":"levelo_inurba_marseille","lat":43.30531,"lon":5.3842,"is_reserved":false,"is_disabled":false,"rental_uris":{"android":"levelo://app?vid=44680aff-efa9-4204-950d-192967f58905","ios":"levelo://app?vid=44680aff-efa9-4204-950d-192967f58905"},"vehicle_type_id":"4","last_reported":1731870383,"current_range_meters":33600,"station_id":"ce4bgg92rcd13ifvqb30","pricing_plan_id":"cebpf4jnsgd1na2vs0mg"},{"bike_id":"a336ee14-58f3-4199-a15a-797b15af1e0f","system_id":"levelo_inurba_marseille","lat":43.30424,"lon":5.41283,"is_reserved":false,"is_disabled":false,"rental_uris":{"android":"levelo://app?vid=a336ee14-58f3-4199-a15a-797b15af1e0f","ios":"levelo://app?vid=a336ee14-58f3-4199-a15a-797b15af1e0f"},"vehicle_type_id":"4","last_reported":1731870383,"current_range_meters":15200,"station_id":"ce4bhop2rcd13ifvqh8g","pricing_plan_id":"cebpf4jnsgd1na2vs0mg"},{"bike_id":"23f7e7bd-3c70-44bb-943b-2505231e7297","system_id":"levelo_inurba_marseille","lat":43.28457,"lon":5.35894,"is_reserved":false,"is_disabled":false,"rental_uris":{"android":"levelo://app?vid=23f7e7bd-3c70-44bb-943b-2505231e7297","ios":"levelo://app?vid=23f7e7bd-3c70-44bb-943b-2505231e7297"},"vehicle_type_id":"4","last_reported":1731870383,"current_range_meters":38800,"station_id":"ce4bhah2rcd13ifvqei0","pricing_plan_id":"cebpf4jnsgd1na2vs0mg"},{"bike_id":"29805b00-7c0a-4e6a-9e25-4043a0fff472","system_id":"levelo_inurba_marseille","lat":43.31111,"lon":5.37753,"is_reserved":false,"is_disabled":false,"rental_uris":{"android":"levelo://app?vid=29805b00-7c0a-4e6a-9e25-4043a0fff472","ios":"levelo://app?vid=29805b00-7c0a-4e6a-9e25-4043a0fff472"},"vehicle_type_id":"4","last_reported":1731870383,"current_range_meters":38000,"station_id":"ce4bh092rcd13ifvqd30","pricing_plan_id":"cebpf4jnsgd1na2vs0mg"},{"bike_id":"9d531d00-446a-411e-a08f-66a3c8f2987a","system_id":"levelo_inurba_marseille","lat":43.29259,"lon":5.38439,"is_reserved":false,"is_disabled":false,"rental_uris":{"android":"levelo://app?vid=9d531d00-446a-411e-a08f-66a3c8f2987a","ios":"levelo://app?vid=9d531d00-446a-411e-a08f-66a3c8f2987a"},"vehicle_type_id":"4","last_reported":1731870383,"current_range_meters":38800,"station_id":"ce4bh692rcd13ifvqea0","pricing_plan_id":"cebpf4jnsgd1na2vs0mg"},{"bike_id":"10808265-c82e-4663-ad34-00454e769817","system_id":"levelo_inurba_marseille","lat":43.23185,"lon":5.39989,"is_reserved":false,"is_disabled":false,"rental_uris":{"android":"levelo://app?vid=10808265-c82e-4663-ad34-00454e769817","ios":"levelo://app?vid=10808265-c82e-4663-ad34-00454e769817"},"vehicle_type_id":"4","last_reported":1731870383,"current_range_meters":29600,"station_id":"ce4bhn12rcd13ifvqgqg","pricing_plan_id":"cebpf4jnsgd1na2vs0mg"},{"bike_id":"f86d1405-ab23-4ac0-85a6-f6aed059b230","system_id":"levelo_inurba_marseille","lat":43.30668,"lon":5.40083,"is_reserved":false,"is_disabled":false,"rental_uris":{"android":"levelo://app?vid=f86d1405-ab23-4ac0-85a6-f6aed059b230","ios":"levelo://app?vid=f86d1405-ab23-4ac0-85a6-f6aed059b230"},"vehicle_type_id":"4","last_reported":1731870383,"current_range_meters":16800,"station_id":"ce4bh112rcd13ifvqda0","pricing_plan_id":"cebpf4jnsgd1na2vs0mg"},{"bike_id":"598cc400-b709-49f3-ad1d-67387eaf42cd","system_id":"levelo_inurba_marseille","lat":43.30608,"lon":5.37238,"is_reserved":false,"is_disabled":false,"rental_uris":{"android":"levelo://app?vid=598cc400-b709-49f3-ad1d-67387eaf42cd","ios":"levelo://app?vid=598cc400-b709-49f3-ad1d-67387eaf42cd"},"vehicle_type_id":"4","last_reported":1731870383,"current_range_meters":33600,"station_id":"ce4bgqh2rcd13ifvqc4g","pricing_plan_id":"cebpf4jnsgd1na2vs0mg"},{"bike_id":"8f019a78-c493-4f9d-a72d-a75fc0e36210","system_id":"levelo_inurba_marseille","lat":43.2407,"lon":5.37764,"is_reserved":false,"is_disabled":false,"rental_uris":{"android":"levelo://app?vid=8f019a78-c493-4f9d-a72d-a75fc0e36210","ios":"levelo://app?vid=8f019a78-c493-4f9d-a72d-a75fc0e36210"},"vehicle_type_id":"4","last_reported":1731870383,"current_range_meters":29600,"station_id":"ce4bhnp2rcd13ifvqgvg","pricing_plan_id":"cebpf4jnsgd1na2vs0mg"},{"bike_id":"5c61827b-a525-444e-9960-b4df218681e0","system_id":"levelo_inurba_marseille","lat":43.29977,"lon":5.37176,"is_reserved":false,"is_disabled":false,"rental_uris":{"android":"levelo://app?vid=5c61827b-a525-444e-9960-b4df218681e0","ios":"levelo://app?vid=5c61827b-a525-444e-9960-b4df218681e0"},"vehicle_type_id":"4","last_reported":1731870383,"current_range_meters":38800,"station_id":"ce4bgr92rcd13ifvqc7g","pricing_plan_id":"cebpf4jnsgd1na2vs0mg"},{"bike_id":"a12808aa-badb-477d-81d8-030529097857","system_id":"levelo_inurba_marseille","lat":43.294189,"lon":5.386205,"is_reserved":false,"is_disabled":false,"rental_uris":{"android":"levelo://app?vid=a12808aa-badb-477d-81d8-030529097857","ios":"levelo://app?vid=a12808aa-badb-477d-81d8-030529097857"},"vehicle_type_id":"4","last_reported":1731870383,"current_range_meters":36400,"station_id":"ce4bgt92rcd13ifvqcg0","pricing_plan_id":"cebpf4jnsgd1na2vs0mg"},{"bike_id":"6f315e44-9032-41ad-94dd-8030836482bf","system_id":"levelo_inurba_marseille","lat":43.2979,"lon":5.39339,"is_reserved":false,"is_disabled":false,"rental_uris":{"android":"levelo://app?vid=6f315e44-9032-41ad-94dd-8030836482bf","ios":"levelo://app?vid=6f315e44-9032-41ad-94dd-8030836482bf"},"vehicle_type_id":"4","last_reported":1731870383,"current_range_meters":28800,"station_id":"chh1huq6cuj3fo74tm60","pricing_plan_id":"cebpf4jnsgd1na2vs0mg"},{"bike_id":"63297f73-9d65-4281-84a8-e82a4265aa7a","system_id":"levelo_inurba_marseille","lat":43.29416,"lon":5.38616,"is_reserved":false,"is_disabled":false,"rental_uris":{"android":"levelo://app?vid=63297f73-9d65-4281-84a8-e82a4265aa7a","ios":"levelo://app?vid=63297f73-9d65-4281-84a8-e82a4265aa7a"},"vehicle_type_id":"4","last_reported":1731870383,"current_range_meters":24000,"station_id":"ce4bh2h2rcd13ifvqdh0","pricing_plan_id":"cebpf4jnsgd1na2vs0mg"},{"bike_id":"a3a50842-12fb-436f-a1a6-082e2b162372","system_id":"levelo_inurba_marseille","lat":43.29201,"lon":5.39313,"is_reserved":false,"is_disabled":false,"rental_uris":{"android":"levelo://app?vid=a3a50842-12fb-436f-a1a6-082e2b162372","ios":"levelo://app?vid=a3a50842-12fb-436f-a1a6-082e2b162372"},"vehicle_type_id":"4","last_reported":1731870383,"current_range_meters":16400,"station_id":"ce4bh192rcd13ifvqdd0","pricing_plan_id":"cebpf4jnsgd1na2vs0mg"},{"bike_id":"304847a3-3e07-4fb8-955c-861fbc7ac28f","system_id":"levelo_inurba_marseille","lat":43.25732,"lon":5.41107,"is_reserved":false,"is_disabled":false,"rental_uris":{"android":"levelo://app?vid=304847a3-3e07-4fb8-955c-861fbc7ac28f","ios":"levelo://app?vid=304847a3-3e07-4fb8-955c-861fbc7ac28f"},"vehicle_type_id":"4","last_reported":1731870383,"current_range_meters":36000,"station_id":"ce4bhkp2rcd13ifvqgd0","pricing_plan_id":"cebpf4jnsgd1na2vs0mg"},{"bike_id":"f280bc62-de6c-4c96-ac5a-5e4243a2e7a2","system_id":"levelo_inurba_marseille","lat":43.28464,"lon":5.35886,"is_reserved":false,"is_disabled":false,"rental_uris":{"android":"levelo://app?vid=f280bc62-de6c-4c96-ac5a-5e4243a2e7a2","ios":"levelo://app?vid=f280bc62-de6c-4c96-ac5a-5e4243a2e7a2"},"vehicle_type_id":"4","last_reported":1731870383,"current_range_meters":24000,"station_id":"ce4bhah2rcd13ifvqei0","pricing_plan_id":"cebpf4jnsgd1na2vs0mg"},{"bike_id":"c87efaea-1b9a-48e9-a30a-8616d2bc3ce6","system_id":"levelo_inurba_marseille","lat":43.29614,"lon":5.381,"is_reserved":false,"is_disabled":false,"rental_uris":{"android":"levelo://app?vid=c87efaea-1b9a-48e9-a30a-8616d2bc3ce6","ios":"levelo://app?vid=c87efaea-1b9a-48e9-a30a-8616d2bc3ce6"},"vehicle_type_id":"4","last_reported":1731870383,"current_range_meters":29600,"station_id":"ce4bgl12rcd13ifvqbo0","pricing_plan_id":"cebpf4jnsgd1na2vs0mg"},{"bike_id":"8b3860fc-8aea-4304-aceb-83259498fe0a","system_id":"levelo_inurba_marseille","lat":43.28948,"lon":5.36396,"is_reserved":false,"is_disabled":false,"rental_uris":{"android":"levelo://app?vid=8b3860fc-8aea-4304-aceb-83259498fe0a","ios":"levelo://app?vid=8b3860fc-8aea-4304-aceb-83259498fe0a"},"vehicle_type_id":"4","last_reported":1731870383,"current_range_meters":14800,"station_id":"ce4bhc92rcd13ifvqetg","pricing_plan_id":"cebpf4jnsgd1na2vs0mg"},{"bike_id":"e11acaba-0e23-419c-a0cd-ab9447d18d19","system_id":"levelo_inurba_marseille","lat":43.28918,"lon":5.36399,"is_reserved":false,"is_disabled":false,"rental_uris":{"android":"levelo://app?vid=e11acaba-0e23-419c-a0cd-ab9447d18d19","ios":"levelo://app?vid=e11acaba-0e23-419c-a0cd-ab9447d18d19"},"vehicle_type_id":"4","last_reported":1731870383,"current_range_meters":38800,"station_id":"ce4bhc92rcd13ifvqetg","pricing_plan_id":"cebpf4jnsgd1na2vs0mg"},{"bike_id":"a3471b01-d347-453f-9107-802a928d4193","system_id":"levelo_inurba_marseille","lat":43.2846,"lon":5.35885,"is_reserved":false,"is_disabled":false,"rental_uris":{"android":"levelo://app?vid=a3471b01-d347-453f-9107-802a928d4193","ios":"levelo://app?vid=a3471b01-d347-453f-9107-802a928d4193"},"vehicle_type_id":"4","last_reported":1731870383,"current_range_meters":38000,"station_id":"ce4bhah2rcd13ifvqei0","pricing_plan_id":"cebpf4jnsgd1na2vs0mg"},{"bike_id":"3fd6f0d9-aacc-4872-96f0-84763026ddf9","system_id":"levelo_inurba_marseille","lat":43.29257,"lon":5.40904,"is_reserved":false,"is_disabled":false,"rental_uris":{"android":"levelo://app?vid=3fd6f0d9-aacc-4872-96f0-84763026ddf9","ios":"levelo://app?vid=3fd6f0d9-aacc-4872-96f0-84763026ddf9"},"vehicle_type_id":"4","last_reported":1731870383,"current_range_meters":19200,"station_id":"ce4bh192rcd13ifvqdc0","pricing_plan_id":"cebpf4jnsgd1na2vs0mg"},{"bike_id":"aa23489a-d184-466a-b0e5-86044b4c03d8","system_id":"levelo_inurba_marseille","lat":43.31685,"lon":5.40471,"is_reserved":false,"is_disabled":false,"rental_uris":{"android":"levelo://app?vid=aa23489a-d184-466a-b0e5-86044b4c03d8","ios":"levelo://app?vid=aa23489a-d184-466a-b0e5-86044b4c03d8"},"vehicle_type_id":"4","last_reported":1731870383,"current_range_meters":21600,"station_id":"ce4bh012rcd13ifvqd00","pricing_plan_id":"cebpf4jnsgd1na2vs0mg"},{"bike_id":"68d0a435-1699-4fe4-b098-320644a7af57","system_id":"levelo_inurba_marseille","lat":43.28929,"lon":5.38397,"is_reserved":false,"is_disabled":false,"rental_uris":{"android":"levelo://app?vid=68d0a435-1699-4fe4-b098-320644a7af57","ios":"levelo://app?vid=68d0a435-1699-4fe4-b098-320644a7af57"},"vehicle_type_id":"4","last_reported":1731870383,"current_range_meters":38800,"station_id":"ce4bh612rcd13ifvqe6g","pricing_plan_id":"cebpf4jnsgd1na2vs0mg"},{"bike_id":"3168e934-1ffb-4aed-86c8-f9f49cc28ac6","system_id":"levelo_inurba_marseille","lat":43.29365,"lon":5.37841,"is_reserved":false,"is_disabled":false,"rental_uris":{"android":"levelo://app?vid=3168e934-1ffb-4aed-86c8-f9f49cc28ac6","ios":"levelo://app?vid=3168e934-1ffb-4aed-86c8-f9f49cc28ac6"},"vehicle_type_id":"4","last_reported":1731870383,"current_range_meters":37600,"station_id":"ce4bgjh2rcd13ifvqbf0","pricing_plan_id":"cebpf4jnsgd1na2vs0mg"},{"bike_id":"d977d09c-f51f-4b79-b553-6d9f2ab0f846","system_id":"levelo_inurba_marseille","lat":43.29259,"lon":5.409,"is_reserved":false,"is_disabled":false,"rental_uris":{"android":"levelo://app?vid=d977d09c-f51f-4b79-b553-6d9f2ab0f846","ios":"levelo://app?vid=d977d09c-f51f-4b79-b553-6d9f2ab0f846"},"vehicle_type_id":"4","last_reported":1731870383,"current_range_meters":24000,"station_id":"ce4bh192rcd13ifvqdc0","pricing_plan_id":"cebpf4jnsgd1na2vs0mg"},{"bike_id":"88fbcddc-fc1e-4412-b0ae-ec12ac073173","system_id":"levelo_inurba_marseille","lat":43.28078,"lon":5.39663,"is_reserved":false,"is_disabled":false,"rental_uris":{"android":"levelo://app?vid=88fbcddc-fc1e-4412-b0ae-ec12ac073173","ios":"levelo://app?vid=88fbcddc-fc1e-4412-b0ae-ec12ac073173"},"vehicle_type_id":"4","last_reported":1731870383,"current_range_meters":38800,"station_id":"ce4bho12rcd13ifvqh2g","pricing_plan_id":"cebpf4jnsgd1na2vs0mg"},{"bike_id":"cd8433b1-a0e2-4954-8e1e-a4a82da794ba","system_id":"levelo_inurba_marseille","lat":43.29518,"lon":5.39407,"is_reserved":false,"is_disabled":false,"rental_uris":{"android":"levelo://app?vid=cd8433b1-a0e2-4954-8e1e-a4a82da794ba","ios":"levelo://app?vid=cd8433b1-a0e2-4954-8e1e-a4a82da794ba"},"vehicle_type_id":"4","last_reported":1731870383,"current_range_meters":38800,"station_id":"ce4bh292rcd13ifvqdf0","pricing_plan_id":"cebpf4jnsgd1na2vs0mg"},{"bike_id":"fc533337-8ddf-4371-9fc6-d6945f259c49","system_id":"levelo_inurba_marseille","lat":43.292571,"lon":5.384391,"is_reserved":false,"is_disabled":false,"rental_uris":{"android":"levelo://app?vid=fc533337-8ddf-4371-9fc6-d6945f259c49","ios":"levelo://app?vid=fc533337-8ddf-4371-9fc6-d6945f259c49"},"vehicle_type_id":"4","last_reported":1731870383,"current_range_meters":6800,"station_id":"ce4bh692rcd13ifvqea0","pricing_plan_id":"cebpf4jnsgd1na2vs0mg"},{"bike_id":"a7458936-85c7-48d8-985b-4a66ced20a05","system_id":"levelo_inurba_marseille","lat":43.27949,"lon":5.3869,"is_reserved":false,"is_disabled":false,"rental_uris":{"android":"levelo://app?vid=a7458936-85c7-48d8-985b-4a66ced20a05","ios":"levelo://app?vid=a7458936-85c7-48d8-985b-4a66ced20a05"},"vehicle_type_id":"4","last_reported":1731870383,"current_range_meters":27200,"station_id":"ce4bhg12rcd13ifvqf80","pricing_plan_id":"cebpf4jnsgd1na2vs0mg"},{"bike_id":"7001912d-a8ae-438b-a540-0bebebae2cfd","system_id":"levelo_inurba_marseille","lat":43.293002,"lon":5.374562,"is_reserved":false,"is_disabled":false,"rental_uris":{"android":"levelo://app?vid=7001912d-a8ae-438b-a540-0bebebae2cfd","ios":"levelo://app?vid=7001912d-a8ae-438b-a540-0bebebae2cfd"},"vehicle_type_id":"4","last_reported":1731870383,"current_range_meters":38400,"station_id":"ce4bgi12rcd13ifvqb70","pricing_plan_id":"cebpf4jnsgd1na2vs0mg"},{"bike_id":"c2273092-4ad4-4483-8525-e6150ece5338","system_id":"levelo_inurba_marseille","lat":43.29902,"lon":5.43651,"is_reserved":false,"is_disabled":false,"rental_uris":{"android":"levelo://app?vid=c2273092-4ad4-4483-8525-e6150ece5338","ios":"levelo://app?vid=c2273092-4ad4-4483-8525-e6150ece5338"},"vehicle_type_id":"4","last_reported":1731870383,"current_range_meters":38800,"station_id":"ce4bhpp2rcd13ifvqhfg","pricing_plan_id":"cebpf4jnsgd1na2vs0mg"},{"bike_id":"c789f843-6a8e-473f-8e7e-4886ff8f1b02","system_id":"levelo_inurba_marseille","lat":43.23184,"lon":5.3998,"is_reserved":false,"is_disabled":false,"rental_uris":{"android":"levelo://app?vid=c789f843-6a8e-473f-8e7e-4886ff8f1b02","ios":"levelo://app?vid=c789f843-6a8e-473f-8e7e-4886ff8f1b02"},"vehicle_type_id":"4","last_reported":1731870383,"current_range_meters":38400,"station_id":"ce4bhn12rcd13ifvqgqg","pricing_plan_id":"cebpf4jnsgd1na2vs0mg"},{"bike_id":"85c582ad-b9c1-493b-ae13-87a97135bb72","system_id":"levelo_inurba_marseille","lat":43.30146,"lon":5.39867,"is_reserved":false,"is_disabled":false,"rental_uris":{"android":"levelo://app?vid=85c582ad-b9c1-493b-ae13-87a97135bb72","ios":"levelo://app?vid=85c582ad-b9c1-493b-ae13-87a97135bb72"},"vehicle_type_id":"4","last_reported":1731870383,"current_range_meters":16800,"station_id":"ce4bh0h2rcd13ifvqd40","pricing_plan_id":"cebpf4jnsgd1na2vs0mg"},{"bike_id":"fbe63f9a-97cc-47d4-8d19-e19701600e89","system_id":"levelo_inurba_marseille","lat":43.3266,"lon":5.40994,"is_reserved":false,"is_disabled":false,"rental_uris":{"android":"levelo://app?vid=fbe63f9a-97cc-47d4-8d19-e19701600e89","ios":"levelo://app?vid=fbe63f9a-97cc-47d4-8d19-e19701600e89"},"vehicle_type_id":"4","last_reported":1731870383,"current_range_meters":28800,"station_id":"ce4bhpp2rcd13ifvqhgg","pricing_plan_id":"cebpf4jnsgd1na2vs0mg"},{"bike_id":"6544d345-32fa-47a7-a827-79b43947b8d4","system_id":"levelo_inurba_marseille","lat":43.26493,"lon":5.39543,"is_reserved":false,"is_disabled":false,"rental_uris":{"android":"levelo://app?vid=6544d345-32fa-47a7-a827-79b43947b8d4","ios":"levelo://app?vid=6544d345-32fa-47a7-a827-79b43947b8d4"},"vehicle_type_id":"4","last_reported":1731870383,"current_range_meters":9600,"station_id":"ce4bhi12rcd13ifvqfq0","pricing_plan_id":"cebpf4jnsgd1na2vs0mg"},{"bike_id":"4f01fa73-c9c0-4fc0-986b-b2a94d270e4a","system_id":"levelo_inurba_marseille","lat":43.302519,"lon":5.400883,"is_reserved":false,"is_disabled":false,"rental_uris":{"android":"levelo://app?vid=4f01fa73-c9c0-4fc0-986b-b2a94d270e4a","ios":"levelo://app?vid=4f01fa73-c9c0-4fc0-986b-b2a94d270e4a"},"vehicle_type_id":"4","last_reported":1731870383,"current_range_meters":8800,"station_id":"ce4bgvh2rcd13ifvqcs0","pricing_plan_id":"cebpf4jnsgd1na2vs0mg"},{"bike_id":"6d757fef-4f26-43f9-ac2c-ffab39bf7dae","system_id":"levelo_inurba_marseille","lat":43.32249,"lon":5.36901,"is_reserved":false,"is_disabled":false,"rental_uris":{"android":"levelo://app?vid=6d757fef-4f26-43f9-ac2c-ffab39bf7dae","ios":"levelo://app?vid=6d757fef-4f26-43f9-ac2c-ffab39bf7dae"},"vehicle_type_id":"4","last_reported":1731870383,"current_range_meters":14000,"station_id":"","pricing_plan_id":"cebpf4jnsgd1na2vs0mg"},{"bike_id":"4a851098-0d4c-481f-8ec2-d29f76466c9e","system_id":"levelo_inurba_marseille","lat":43.31727,"lon":5.37754,"is_reserved":false,"is_disabled":false,"rental_uris":{"android":"levelo://app?vid=4a851098-0d4c-481f-8ec2-d29f76466c9e","ios":"levelo://app?vid=4a851098-0d4c-481f-8ec2-d29f76466c9e"},"vehicle_type_id":"4","last_reported":1731870383,"current_range_meters":36000,"station_id":"ce4bgth2rcd13ifvqch0","pricing_plan_id":"cebpf4jnsgd1na2vs0mg"},{"bike_id":"250baacc-16ca-4248-a285-691ee29a779c","system_id":"levelo_inurba_marseille","lat":43.28148,"lon":5.42646,"is_reserved":false,"is_disabled":false,"rental_uris":{"android":"levelo://app?vid=250baacc-16ca-4248-a285-691ee29a779c","ios":"levelo://app?vid=250baacc-16ca-4248-a285-691ee29a779c"},"vehicle_type_id":"4","last_reported":1731870383,"current_range_meters":25600,"station_id":"ce4bhnh2rcd13ifvqgug","pricing_plan_id":"cebpf4jnsgd1na2vs0mg"},{"bike_id":"02c2b654-c294-4645-b32b-c8ef06e889bd","system_id":"levelo_inurba_marseille","lat":43.29256,"lon":5.3843,"is_reserved":false,"is_disabled":false,"rental_uris":{"android":"levelo://app?vid=02c2b654-c294-4645-b32b-c8ef06e889bd","ios":"levelo://app?vid=02c2b654-c294-4645-b32b-c8ef06e889bd"},"vehicle_type_id":"4","last_reported":1731870383,"current_range_meters":38400,"station_id":"ce4bh692rcd13ifvqea0","pricing_plan_id":"cebpf4jnsgd1na2vs0mg"},{"bike_id":"e1ae8ed3-538f-429e-a9e3-00b0e68272ab","system_id":"levelo_inurba_marseille","lat":43.25582,"lon":5.38222,"is_reserved":false,"is_disabled":false,"rental_uris":{"android":"levelo://app?vid=e1ae8ed3-538f-429e-a9e3-00b0e68272ab","ios":"levelo://app?vid=e1ae8ed3-538f-429e-a9e3-00b0e68272ab"},"vehicle_type_id":"4","last_reported":1731870383,"current_range_meters":38800,"station_id":"ce4bhih2rcd13ifvqfs0","pricing_plan_id":"cebpf4jnsgd1na2vs0mg"},{"bike_id":"e4bfc4f4-0eb1-41ac-8915-ffbfc34fd63e","system_id":"levelo_inurba_marseille","lat":43.2927,"lon":5.38445,"is_reserved":false,"is_disabled":false,"rental_uris":{"android":"levelo://app?vid=e4bfc4f4-0eb1-41ac-8915-ffbfc34fd63e","ios":"levelo://app?vid=e4bfc4f4-0eb1-41ac-8915-ffbfc34fd63e"},"vehicle_type_id":"4","last_reported":1731870383,"current_range_meters":38400,"station_id":"ce4bh692rcd13ifvqea0","pricing_plan_id":"cebpf4jnsgd1na2vs0mg"},{"bike_id":"d2955751-aab6-46b8-8ed4-bb8317ab77fc","system_id":"levelo_inurba_marseille","lat":43.25874,"lon":5.39887,"is_reserved":false,"is_disabled":false,"rental_uris":{"android":"levelo://app?vid=d2955751-aab6-46b8-8ed4-bb8317ab77fc","ios":"levelo://app?vid=d2955751-aab6-46b8-8ed4-bb8317ab77fc"},"vehicle_type_id":"4","last_reported":1731870383,"current_range_meters":22400,"station_id":"ce4bhl92rcd13ifvqghg","pricing_plan_id":"cebpf4jnsgd1na2vs0mg"},{"bike_id":"57a51fca-ca0f-4682-8790-94d9d19b1cc5","system_id":"levelo_inurba_marseille","lat":43.30272,"lon":5.37703,"is_reserved":false,"is_disabled":false,"rental_uris":{"android":"levelo://app?vid=57a51fca-ca0f-4682-8790-94d9d19b1cc5","ios":"levelo://app?vid=57a51fca-ca0f-4682-8790-94d9d19b1cc5"},"vehicle_type_id":"4","last_reported":1731870383,"current_range_meters":29600,"station_id":"ce4bguh2rcd13ifvqcj0","pricing_plan_id":"cebpf4jnsgd1na2vs0mg"},{"bike_id":"6038fbe8-8b87-474e-b699-4b7f1b32a2cd","system_id":"levelo_inurba_marseille","lat":43.29986,"lon":5.38071,"is_reserved":false,"is_disabled":false,"rental_uris":{"android":"levelo://app?vid=6038fbe8-8b87-474e-b699-4b7f1b32a2cd","ios":"levelo://app?vid=6038fbe8-8b87-474e-b699-4b7f1b32a2cd"},"vehicle_type_id":"4","last_reported":1731870383,"current_range_meters":36400,"station_id":"","pricing_plan_id":"cebpf4jnsgd1na2vs0mg"},{"bike_id":"fb5c9f74-a570-4e59-ac1a-0b9aa2e3571c","system_id":"levelo_inurba_marseille","lat":43.29204,"lon":5.39328,"is_reserved":false,"is_disabled":false,"rental_uris":{"android":"levelo://app?vid=fb5c9f74-a570-4e59-ac1a-0b9aa2e3571c","ios":"levelo://app?vid=fb5c9f74-a570-4e59-ac1a-0b9aa2e3571c"},"vehicle_type_id":"4","last_reported":1731870383,"current_range_meters":14000,"station_id":"ce4bh192rcd13ifvqdd0","pricing_plan_id":"cebpf4jnsgd1na2vs0mg"},{"bike_id":"08a4c7d3-0c89-48f5-9d04-7aa5336e779f","system_id":"levelo_inurba_marseille","lat":43.2996,"lon":5.41316,"is_reserved":false,"is_disabled":false,"rental_uris":{"android":"levelo://app?vid=08a4c7d3-0c89-48f5-9d04-7aa5336e779f","ios":"levelo://app?vid=08a4c7d3-0c89-48f5-9d04-7aa5336e779f"},"vehicle_type_id":"4","last_reported":1731870383,"current_range_meters":25600,"station_id":"ce4bhp12rcd13ifvqh9g","pricing_plan_id":"cebpf4jnsgd1na2vs0mg"},{"bike_id":"cc2d162c-3026-49d5-bfd3-b4798a12babc","system_id":"levelo_inurba_marseille","lat":43.30785,"lon":5.37644,"is_reserved":false,"is_disabled":false,"rental_uris":{"android":"levelo://app?vid=cc2d162c-3026-49d5-bfd3-b4798a12babc","ios":"levelo://app?vid=cc2d162c-3026-49d5-bfd3-b4798a12babc"},"vehicle_type_id":"4","last_reported":1731870383,"current_range_meters":23200,"station_id":"ce4bgv92rcd13ifvqcq0","pricing_plan_id":"cebpf4jnsgd1na2vs0mg"},{"bike_id":"d9af85e0-c544-4365-80b2-6540170b2b4a","system_id":"levelo_inurba_marseille","lat":43.24188,"lon":5.39743,"is_reserved":false,"is_disabled":false,"rental_uris":{"android":"levelo://app?vid=d9af85e0-c544-4365-80b2-6540170b2b4a","ios":"levelo://app?vid=d9af85e0-c544-4365-80b2-6540170b2b4a"},"vehicle_type_id":"4","last_reported":1731870383,"current_range_meters":30400,"station_id":"ce4bhn12rcd13ifvqgpg","pricing_plan_id":"cebpf4jnsgd1na2vs0mg"},{"bike_id":"9196dbbd-fe45-42c9-ac5b-0df1de5f520b","system_id":"levelo_inurba_marseille","lat":43.279974,"lon":5.400117,"is_reserved":false,"is_disabled":false,"rental_uris":{"android":"levelo://app?vid=9196dbbd-fe45-42c9-ac5b-0df1de5f520b","ios":"levelo://app?vid=9196dbbd-fe45-42c9-ac5b-0df1de5f520b"},"vehicle_type_id":"4","last_reported":1731870383,"current_range_meters":39200,"station_id":"ce4bho92rcd13ifvqh4g","pricing_plan_id":"cebpf4jnsgd1na2vs0mg"},{"bike_id":"93b28b0d-4448-49b0-a659-1076ec8f95aa","system_id":"levelo_inurba_marseille","lat":43.31072,"lon":5.38351,"is_reserved":false,"is_disabled":false,"rental_uris":{"android":"levelo://app?vid=93b28b0d-4448-49b0-a659-1076ec8f95aa","ios":"levelo://app?vid=93b28b0d-4448-49b0-a659-1076ec8f95aa"},"vehicle_type_id":"4","last_reported":1731870383,"current_range_meters":10000,"station_id":"ce4bgv92rcd13ifvqcr0","pricing_plan_id":"cebpf4jnsgd1na2vs0mg"},{"bike_id":"d4890736-33e4-479c-8083-b3b989d3f6c2","system_id":"levelo_inurba_marseille","lat":43.31365,"lon":5.38258,"is_reserved":false,"is_disabled":false,"rental_uris":{"android":"levelo://app?vid=d4890736-33e4-479c-8083-b3b989d3f6c2","ios":"levelo://app?vid=d4890736-33e4-479c-8083-b3b989d3f6c2"},"vehicle_type_id":"4","last_reported":1731870383,"current_range_meters":32400,"station_id":"","pricing_plan_id":"cebpf4jnsgd1na2vs0mg"},{"bike_id":"6f4185ba-0d14-49f4-aa40-36e0cbac687e","system_id":"levelo_inurba_marseille","lat":43.29895,"lon":5.4366,"is_reserved":false,"is_disabled":false,"rental_uris":{"android":"levelo://app?vid=6f4185ba-0d14-49f4-aa40-36e0cbac687e","ios":"levelo://app?vid=6f4185ba-0d14-49f4-aa40-36e0cbac687e"},"vehicle_type_id":"4","last_reported":1731870383,"current_range_meters":39200,"station_id":"ce4bhpp2rcd13ifvqhfg","pricing_plan_id":"cebpf4jnsgd1na2vs0mg"},{"bike_id":"db2723c1-b3a0-4583-a2f2-e55f3f5991e9","system_id":"levelo_inurba_marseille","lat":43.29265,"lon":5.38439,"is_reserved":false,"is_disabled":false,"rental_uris":{"android":"levelo://app?vid=db2723c1-b3a0-4583-a2f2-e55f3f5991e9","ios":"levelo://app?vid=db2723c1-b3a0-4583-a2f2-e55f3f5991e9"},"vehicle_type_id":"4","last_reported":1731870383,"current_range_meters":36400,"station_id":"ce4bh692rcd13ifvqea0","pricing_plan_id":"cebpf4jnsgd1na2vs0mg"},{"bike_id":"8e212f4b-3107-40ee-bf65-b335219e9b18","system_id":"levelo_inurba_marseille","lat":43.270659,"lon":5.422811,"is_reserved":false,"is_disabled":false,"rental_uris":{"android":"levelo://app?vid=8e212f4b-3107-40ee-bf65-b335219e9b18","ios":"levelo://app?vid=8e212f4b-3107-40ee-bf65-b335219e9b18"},"vehicle_type_id":"4","last_reported":1731870383,"current_range_meters":20000,"station_id":"ce4bhk92rcd13ifvqgb0","pricing_plan_id":"cebpf4jnsgd1na2vs0mg"},{"bike_id":"ad982bfa-78ad-414d-a23f-0f0b04b06fc8","system_id":"levelo_inurba_marseille","lat":43.31764,"lon":5.39015,"is_reserved":false,"is_disabled":false,"rental_uris":{"android":"levelo://app?vid=ad982bfa-78ad-414d-a23f-0f0b04b06fc8","ios":"levelo://app?vid=ad982bfa-78ad-414d-a23f-0f0b04b06fc8"},"vehicle_type_id":"4","last_reported":1731870383,"current_range_meters":37600,"station_id":"ce4bhqp2rcd13ifvqhng","pricing_plan_id":"cebpf4jnsgd1na2vs0mg"},{"bike_id":"3188bb0a-f569-4b99-911a-c4f8931a5d08","system_id":"levelo_inurba_marseille","lat":43.28465,"lon":5.35882,"is_reserved":false,"is_disabled":false,"rental_uris":{"android":"levelo://app?vid=3188bb0a-f569-4b99-911a-c4f8931a5d08","ios":"levelo://app?vid=3188bb0a-f569-4b99-911a-c4f8931a5d08"},"vehicle_type_id":"4","last_reported":1731870383,"current_range_meters":22800,"station_id":"ce4bhah2rcd13ifvqei0","pricing_plan_id":"cebpf4jnsgd1na2vs0mg"},{"bike_id":"61062b1c-299a-4abd-b1bf-0a3416145e76","system_id":"levelo_inurba_marseille","lat":43.29569,"lon":5.39979,"is_reserved":false,"is_disabled":false,"rental_uris":{"android":"levelo://app?vid=61062b1c-299a-4abd-b1bf-0a3416145e76","ios":"levelo://app?vid=61062b1c-299a-4abd-b1bf-0a3416145e76"},"vehicle_type_id":"4","last_reported":1731870383,"current_range_meters":19600,"station_id":"ce4bh312rcd13ifvqdj0","pricing_plan_id":"cebpf4jnsgd1na2vs0mg"},{"bike_id":"aedf0c89-1e5d-42d2-9af3-32999bc8bda5","system_id":"levelo_inurba_marseille","lat":43.29873,"lon":5.39732,"is_reserved":false,"is_disabled":false,"rental_uris":{"android":"levelo://app?vid=aedf0c89-1e5d-42d2-9af3-32999bc8bda5","ios":"levelo://app?vid=aedf0c89-1e5d-42d2-9af3-32999bc8bda5"},"vehicle_type_id":"4","last_reported":1731870383,"current_range_meters":38800,"station_id":"ce4bh0h2rcd13ifvqd50","pricing_plan_id":"cebpf4jnsgd1na2vs0mg"},{"bike_id":"7c98e0a9-8a05-4c51-84e1-8e2ad06176a0","system_id":"levelo_inurba_marseille","lat":43.32553,"lon":5.41432,"is_reserved":false,"is_disabled":false,"rental_uris":{"android":"levelo://app?vid=7c98e0a9-8a05-4c51-84e1-8e2ad06176a0","ios":"levelo://app?vid=7c98e0a9-8a05-4c51-84e1-8e2ad06176a0"},"vehicle_type_id":"4","last_reported":1731870383,"current_range_meters":4800,"station_id":"ce4bhq12rcd13ifvqhhg","pricing_plan_id":"cebpf4jnsgd1na2vs0mg"},{"bike_id":"cdfc78e3-0d7a-42a8-a81c-3a6e816d2c3c","system_id":"levelo_inurba_marseille","lat":43.30885,"lon":5.39649,"is_reserved":false,"is_disabled":false,"rental_uris":{"android":"levelo://app?vid=cdfc78e3-0d7a-42a8-a81c-3a6e816d2c3c","ios":"levelo://app?vid=cdfc78e3-0d7a-42a8-a81c-3a6e816d2c3c"},"vehicle_type_id":"4","last_reported":1731870383,"current_range_meters":35600,"station_id":"ce4bh012rcd13ifvqcv0","pricing_plan_id":"cebpf4jnsgd1na2vs0mg"},{"bike_id":"dbf4a046-ec4b-42a2-89d2-1a2f6e4b54e9","system_id":"levelo_inurba_marseille","lat":43.31279,"lon":5.4015,"is_reserved":false,"is_disabled":false,"rental_uris":{"android":"levelo://app?vid=dbf4a046-ec4b-42a2-89d2-1a2f6e4b54e9","ios":"levelo://app?vid=dbf4a046-ec4b-42a2-89d2-1a2f6e4b54e9"},"vehicle_type_id":"4","last_reported":1731870383,"current_range_meters":26000,"station_id":"ce4bh092rcd13ifvqd30","pricing_plan_id":"cebpf4jnsgd1na2vs0mg"},{"bike_id":"9fe6ba10-2369-4032-8587-abfb9a8a9b0d","system_id":"levelo_inurba_marseille","lat":43.30802,"lon":5.392,"is_reserved":false,"is_disabled":false,"rental_uris":{"android":"levelo://app?vid=9fe6ba10-2369-4032-8587-abfb9a8a9b0d","ios":"levelo://app?vid=9fe6ba10-2369-4032-8587-abfb9a8a9b0d"},"vehicle_type_id":"4","last_reported":1731870383,"current_range_meters":4800,"station_id":"","pricing_plan_id":"cebpf4jnsgd1na2vs0mg"},{"bike_id":"adba1b3c-6bab-4b09-9e8e-9992e2e12fa1","system_id":"levelo_inurba_marseille","lat":43.30436,"lon":5.38886,"is_reserved":false,"is_disabled":false,"rental_uris":{"android":"levelo://app?vid=adba1b3c-6bab-4b09-9e8e-9992e2e12fa1","ios":"levelo://app?vid=adba1b3c-6bab-4b09-9e8e-9992e2e12fa1"},"vehicle_type_id":"4","last_reported":1731870383,"current_range_meters":8400,"station_id":"ce4bgk12rcd13ifvqbi0","pricing_plan_id":"cebpf4jnsgd1na2vs0mg"},{"bike_id":"eb9a84f5-6092-4dc4-a3c0-a07efb437c77","system_id":"levelo_inurba_marseille","lat":43.33766,"lon":5.37445,"is_reserved":false,"is_disabled":false,"rental_uris":{"android":"levelo://app?vid=eb9a84f5-6092-4dc4-a3c0-a07efb437c77","ios":"levelo://app?vid=eb9a84f5-6092-4dc4-a3c0-a07efb437c77"},"vehicle_type_id":"4","last_reported":1731870383,"current_range_meters":4400,"station_id":"","pricing_plan_id":"cebpf4jnsgd1na2vs0mg"},{"bike_id":"9563ac7d-3982-4c5b-92d8-d323632b2370","system_id":"levelo_inurba_marseille","lat":43.31112,"lon":5.37758,"is_reserved":false,"is_disabled":false,"rental_uris":{"android":"levelo://app?vid=9563ac7d-3982-4c5b-92d8-d323632b2370","ios":"levelo://app?vid=9563ac7d-3982-4c5b-92d8-d323632b2370"},"vehicle_type_id":"4","last_reported":1731870383,"current_range_meters":4800,"station_id":"ce4bgt92rcd13ifvqcg0","pricing_plan_id":"cebpf4jnsgd1na2vs0mg"},{"bike_id":"22ea48db-755d-43c3-a7d2-0beff01815d8","system_id":"levelo_inurba_marseille","lat":43.33809,"lon":5.37464,"is_reserved":false,"is_disabled":false,"rental_uris":{"android":"levelo://app?vid=22ea48db-755d-43c3-a7d2-0beff01815d8","ios":"levelo://app?vid=22ea48db-755d-43c3-a7d2-0beff01815d8"},"vehicle_type_id":"4","last_reported":1731870383,"current_range_meters":8000,"station_id":"","pricing_plan_id":"cebpf4jnsgd1na2vs0mg"},{"bike_id":"98d74ee0-ffb9-4d54-acad-ad96761f7a29","system_id":"levelo_inurba_marseille","lat":43.28151,"lon":5.42648,"is_reserved":false,"is_disabled":false,"rental_uris":{"android":"levelo://app?vid=98d74ee0-ffb9-4d54-acad-ad96761f7a29","ios":"levelo://app?vid=98d74ee0-ffb9-4d54-acad-ad96761f7a29"},"vehicle_type_id":"4","last_reported":1731870383,"current_range_meters":16400,"station_id":"ce4bhnh2rcd13ifvqgug","pricing_plan_id":"cebpf4jnsgd1na2vs0mg"},{"bike_id":"d4c1fdba-ca58-4028-9071-4186659dc476","system_id":"levelo_inurba_marseille","lat":43.29294,"lon":5.37465,"is_reserved":false,"is_disabled":false,"rental_uris":{"android":"levelo://app?vid=d4c1fdba-ca58-4028-9071-4186659dc476","ios":"levelo://app?vid=d4c1fdba-ca58-4028-9071-4186659dc476"},"vehicle_type_id":"4","last_reported":1731870383,"current_range_meters":14800,"station_id":"ce4bgi12rcd13ifvqb70","pricing_plan_id":"cebpf4jnsgd1na2vs0mg"},{"bike_id":"7b34515c-4916-4655-aeec-7840c8839367","system_id":"levelo_inurba_marseille","lat":43.3031,"lon":5.39204,"is_reserved":false,"is_disabled":false,"rental_uris":{"android":"levelo://app?vid=7b34515c-4916-4655-aeec-7840c8839367","ios":"levelo://app?vid=7b34515c-4916-4655-aeec-7840c8839367"},"vehicle_type_id":"4","last_reported":1731870383,"current_range_meters":37600,"station_id":"ce4bgkh2rcd13ifvqbk0","pricing_plan_id":"cebpf4jnsgd1na2vs0mg"},{"bike_id":"afb02f26-d4fb-42e6-ba22-385a408e0fb1","system_id":"levelo_inurba_marseille","lat":43.30642,"lon":5.40093,"is_reserved":false,"is_disabled":false,"rental_uris":{"android":"levelo://app?vid=afb02f26-d4fb-42e6-ba22-385a408e0fb1","ios":"levelo://app?vid=afb02f26-d4fb-42e6-ba22-385a408e0fb1"},"vehicle_type_id":"4","last_reported":1731870383,"current_range_meters":16800,"station_id":"ce4bh112rcd13ifvqda0","pricing_plan_id":"cebpf4jnsgd1na2vs0mg"},{"bike_id":"ca655f3b-8380-4045-b3f8-8acaa0e83ede","system_id":"levelo_inurba_marseille","lat":43.33739,"lon":5.37423,"is_reserved":false,"is_disabled":false,"rental_uris":{"android":"levelo://app?vid=ca655f3b-8380-4045-b3f8-8acaa0e83ede","ios":"levelo://app?vid=ca655f3b-8380-4045-b3f8-8acaa0e83ede"},"vehicle_type_id":"4","last_reported":1731870383,"current_range_meters":32000,"station_id":"","pricing_plan_id":"cebpf4jnsgd1na2vs0mg"},{"bike_id":"5f4a3ad8-dd77-4a7e-89b6-bb792badcc22","system_id":"levelo_inurba_marseille","lat":43.31326,"lon":5.39697,"is_reserved":false,"is_disabled":false,"rental_uris":{"android":"levelo://app?vid=5f4a3ad8-dd77-4a7e-89b6-bb792badcc22","ios":"levelo://app?vid=5f4a3ad8-dd77-4a7e-89b6-bb792badcc22"},"vehicle_type_id":"4","last_reported":1731870383,"current_range_meters":10800,"station_id":"ce4bgvp2rcd13ifvqcu0","pricing_plan_id":"cebpf4jnsgd1na2vs0mg"},{"bike_id":"bfcd3afd-435f-4d8f-9734-2a0e9ce62ac0","system_id":"levelo_inurba_marseille","lat":43.30426,"lon":5.388765,"is_reserved":false,"is_disabled":false,"rental_uris":{"android":"levelo://app?vid=bfcd3afd-435f-4d8f-9734-2a0e9ce62ac0","ios":"levelo://app?vid=bfcd3afd-435f-4d8f-9734-2a0e9ce62ac0"},"vehicle_type_id":"4","last_reported":1731870383,"current_range_meters":36400,"station_id":"ce4bgk12rcd13ifvqbi0","pricing_plan_id":"cebpf4jnsgd1na2vs0mg"},{"bike_id":"a6b8c285-acc9-4039-9531-1aae39136a33","system_id":"levelo_inurba_marseille","lat":43.312042,"lon":5.367348,"is_reserved":false,"is_disabled":false,"rental_uris":{"android":"levelo://app?vid=a6b8c285-acc9-4039-9531-1aae39136a33","ios":"levelo://app?vid=a6b8c285-acc9-4039-9531-1aae39136a33"},"vehicle_type_id":"4","last_reported":1731870383,"current_range_meters":9200,"station_id":"","pricing_plan_id":"cebpf4jnsgd1na2vs0mg"},{"bike_id":"524343d7-5845-4c57-8a33-e684d2911380","system_id":"levelo_inurba_marseille","lat":43.2396,"lon":5.36625,"is_reserved":false,"is_disabled":false,"rental_uris":{"android":"levelo://app?vid=524343d7-5845-4c57-8a33-e684d2911380","ios":"levelo://app?vid=524343d7-5845-4c57-8a33-e684d2911380"},"vehicle_type_id":"4","last_reported":1731870383,"current_range_meters":18000,"station_id":"ce4bhi12rcd13ifvqfp0","pricing_plan_id":"cebpf4jnsgd1na2vs0mg"},{"bike_id":"24a3584e-3a5d-4746-b81e-de9e5853c9e4","system_id":"levelo_inurba_marseille","lat":43.23181,"lon":5.3998,"is_reserved":false,"is_disabled":false,"rental_uris":{"android":"levelo://app?vid=24a3584e-3a5d-4746-b81e-de9e5853c9e4","ios":"levelo://app?vid=24a3584e-3a5d-4746-b81e-de9e5853c9e4"},"vehicle_type_id":"4","last_reported":1731870383,"current_range_meters":2800,"station_id":"ce4bhn12rcd13ifvqgqg","pricing_plan_id":"cebpf4jnsgd1na2vs0mg"},{"bike_id":"8c19b2d4-a3cd-45ab-a3d3-1f5f9c12afc6","system_id":"levelo_inurba_marseille","lat":43.30342,"lon":5.38613,"is_reserved":false,"is_disabled":false,"rental_uris":{"android":"levelo://app?vid=8c19b2d4-a3cd-45ab-a3d3-1f5f9c12afc6","ios":"levelo://app?vid=8c19b2d4-a3cd-45ab-a3d3-1f5f9c12afc6"},"vehicle_type_id":"4","last_reported":1731870383,"current_range_meters":37600,"station_id":"","pricing_plan_id":"cebpf4jnsgd1na2vs0mg"},{"bike_id":"253aef85-0ac6-41f9-9382-c1545d99674d","system_id":"levelo_inurba_marseille","lat":43.28039,"lon":5.36951,"is_reserved":false,"is_disabled":false,"rental_uris":{"android":"levelo://app?vid=253aef85-0ac6-41f9-9382-c1545d99674d","ios":"levelo://app?vid=253aef85-0ac6-41f9-9382-c1545d99674d"},"vehicle_type_id":"4","last_reported":1731870383,"current_range_meters":9600,"station_id":"ce4bha12rcd13ifvqef0","pricing_plan_id":"cebpf4jnsgd1na2vs0mg"},{"bike_id":"05ccbef7-43cf-4daa-af4c-483d919c0c14","system_id":"levelo_inurba_marseille","lat":43.24171,"lon":5.36394,"is_reserved":false,"is_disabled":false,"rental_uris":{"android":"levelo://app?vid=05ccbef7-43cf-4daa-af4c-483d919c0c14","ios":"levelo://app?vid=05ccbef7-43cf-4daa-af4c-483d919c0c14"},"vehicle_type_id":"4","last_reported":1731870383,"current_range_meters":35600,"station_id":"cpo36qri1sfpv3e86is0","pricing_plan_id":"cebpf4jnsgd1na2vs0mg"},{"bike_id":"9cc9021f-cec0-435a-bd6f-1ba8b9237b6c","system_id":"levelo_inurba_marseille","lat":43.29257,"lon":5.40895,"is_reserved":false,"is_disabled":false,"rental_uris":{"android":"levelo://app?vid=9cc9021f-cec0-435a-bd6f-1ba8b9237b6c","ios":"levelo://app?vid=9cc9021f-cec0-435a-bd6f-1ba8b9237b6c"},"vehicle_type_id":"4","last_reported":1731870383,"current_range_meters":22000,"station_id":"ce4bh192rcd13ifvqdc0","pricing_plan_id":"cebpf4jnsgd1na2vs0mg"},{"bike_id":"493b2083-a7a4-46d2-bc93-1724c5bd01cb","system_id":"levelo_inurba_marseille","lat":43.30652,"lon":5.40074,"is_reserved":false,"is_disabled":false,"rental_uris":{"android":"levelo://app?vid=493b2083-a7a4-46d2-bc93-1724c5bd01cb","ios":"levelo://app?vid=493b2083-a7a4-46d2-bc93-1724c5bd01cb"},"vehicle_type_id":"4","last_reported":1731870383,"current_range_meters":22000,"station_id":"ce4bh112rcd13ifvqda0","pricing_plan_id":"cebpf4jnsgd1na2vs0mg"},{"bike_id":"92ac4858-87d6-4ceb-8f6e-004635a816a8","system_id":"levelo_inurba_marseille","lat":43.27787,"lon":5.40739,"is_reserved":false,"is_disabled":false,"rental_uris":{"android":"levelo://app?vid=92ac4858-87d6-4ceb-8f6e-004635a816a8","ios":"levelo://app?vid=92ac4858-87d6-4ceb-8f6e-004635a816a8"},"vehicle_type_id":"4","last_reported":1731870383,"current_range_meters":25600,"station_id":"ce4bhnh2rcd13ifvqgtg","pricing_plan_id":"cebpf4jnsgd1na2vs0mg"},{"bike_id":"2b0ff95a-3fbc-4264-9c8f-0a3734e035cc","system_id":"levelo_inurba_marseille","lat":43.31755,"lon":5.39018,"is_reserved":false,"is_disabled":false,"rental_uris":{"android":"levelo://app?vid=2b0ff95a-3fbc-4264-9c8f-0a3734e035cc","ios":"levelo://app?vid=2b0ff95a-3fbc-4264-9c8f-0a3734e035cc"},"vehicle_type_id":"4","last_reported":1731870383,"current_range_meters":39200,"station_id":"ce4bhqp2rcd13ifvqhng","pricing_plan_id":"cebpf4jnsgd1na2vs0mg"},{"bike_id":"25a9be2d-adf9-4893-a334-7b3ca0d1fec3","system_id":"levelo_inurba_marseille","lat":43.308411,"lon":5.398536,"is_reserved":false,"is_disabled":false,"rental_uris":{"android":"levelo://app?vid=25a9be2d-adf9-4893-a334-7b3ca0d1fec3","ios":"levelo://app?vid=25a9be2d-adf9-4893-a334-7b3ca0d1fec3"},"vehicle_type_id":"4","last_reported":1731870383,"current_range_meters":32000,"station_id":"ce4bh112rcd13ifvqda0","pricing_plan_id":"cebpf4jnsgd1na2vs0mg"},{"bike_id":"dd9d869f-e313-4ee0-a1e3-6b1373699098","system_id":"levelo_inurba_marseille","lat":43.24067,"lon":5.37761,"is_reserved":false,"is_disabled":false,"rental_uris":{"android":"levelo://app?vid=dd9d869f-e313-4ee0-a1e3-6b1373699098","ios":"levelo://app?vid=dd9d869f-e313-4ee0-a1e3-6b1373699098"},"vehicle_type_id":"4","last_reported":1731870383,"current_range_meters":28800,"station_id":"ce4bhnp2rcd13ifvqgvg","pricing_plan_id":"cebpf4jnsgd1na2vs0mg"},{"bike_id":"143df917-e46c-4ede-ace7-3394b01236b7","system_id":"levelo_inurba_marseille","lat":43.31274,"lon":5.4017,"is_reserved":false,"is_disabled":false,"rental_uris":{"android":"levelo://app?vid=143df917-e46c-4ede-ace7-3394b01236b7","ios":"levelo://app?vid=143df917-e46c-4ede-ace7-3394b01236b7"},"vehicle_type_id":"4","last_reported":1731870383,"current_range_meters":14400,"station_id":"ce4bh092rcd13ifvqd30","pricing_plan_id":"cebpf4jnsgd1na2vs0mg"},{"bike_id":"1c1b856f-998b-49a0-83ca-2c59ddc1bf17","system_id":"levelo_inurba_marseille","lat":43.28086,"lon":5.39664,"is_reserved":false,"is_disabled":false,"rental_uris":{"android":"levelo://app?vid=1c1b856f-998b-49a0-83ca-2c59ddc1bf17","ios":"levelo://app?vid=1c1b856f-998b-49a0-83ca-2c59ddc1bf17"},"vehicle_type_id":"4","last_reported":1731870383,"current_range_meters":28800,"station_id":"ce4bho12rcd13ifvqh2g","pricing_plan_id":"cebpf4jnsgd1na2vs0mg"},{"bike_id":"31dddf60-0702-4f9f-8219-0ef701219338","system_id":"levelo_inurba_marseille","lat":43.31274,"lon":5.40161,"is_reserved":false,"is_disabled":false,"rental_uris":{"android":"levelo://app?vid=31dddf60-0702-4f9f-8219-0ef701219338","ios":"levelo://app?vid=31dddf60-0702-4f9f-8219-0ef701219338"},"vehicle_type_id":"4","last_reported":1731870383,"current_range_meters":11200,"station_id":"ce4bh092rcd13ifvqd30","pricing_plan_id":"cebpf4jnsgd1na2vs0mg"},{"bike_id":"63bcd5c6-ca80-413b-8d96-d81312ecb23e","system_id":"levelo_inurba_marseille","lat":43.28709,"lon":5.36963,"is_reserved":false,"is_disabled":false,"rental_uris":{"android":"levelo://app?vid=63bcd5c6-ca80-413b-8d96-d81312ecb23e","ios":"levelo://app?vid=63bcd5c6-ca80-413b-8d96-d81312ecb23e"},"vehicle_type_id":"4","last_reported":1731870383,"current_range_meters":21600,"station_id":"ce4bht12rcd13ifvqi60","pricing_plan_id":"cebpf4jnsgd1na2vs0mg"},{"bike_id":"7465bc4b-7341-47ef-959d-45c0a1d37e4c","system_id":"levelo_inurba_marseille","lat":43.24082,"lon":5.3774,"is_reserved":false,"is_disabled":false,"rental_uris":{"android":"levelo://app?vid=7465bc4b-7341-47ef-959d-45c0a1d37e4c","ios":"levelo://app?vid=7465bc4b-7341-47ef-959d-45c0a1d37e4c"},"vehicle_type_id":"4","last_reported":1731870383,"current_range_meters":27600,"station_id":"ce4bhnp2rcd13ifvqgvg","pricing_plan_id":"cebpf4jnsgd1na2vs0mg"},{"bike_id":"7923af5f-4b11-48cb-971e-b38e43b6d0d6","system_id":"levelo_inurba_marseille","lat":43.300933,"lon":5.390956,"is_reserved":false,"is_disabled":false,"rental_uris":{"android":"levelo://app?vid=7923af5f-4b11-48cb-971e-b38e43b6d0d6","ios":"levelo://app?vid=7923af5f-4b11-48cb-971e-b38e43b6d0d6"},"vehicle_type_id":"4","last_reported":1731870383,"current_range_meters":23200,"station_id":"ce4bh192rcd13ifvqdb0","pricing_plan_id":"cebpf4jnsgd1na2vs0mg"},{"bike_id":"a84f5389-258d-4508-9c0f-32ee5d326b43","system_id":"levelo_inurba_marseille","lat":43.33767,"lon":5.37475,"is_reserved":false,"is_disabled":false,"rental_uris":{"android":"levelo://app?vid=a84f5389-258d-4508-9c0f-32ee5d326b43","ios":"levelo://app?vid=a84f5389-258d-4508-9c0f-32ee5d326b43"},"vehicle_type_id":"4","last_reported":1731870383,"current_range_meters":28400,"station_id":"","pricing_plan_id":"cebpf4jnsgd1na2vs0mg"},{"bike_id":"d7581bdc-1067-4621-8fe2-daf34c28df75","system_id":"levelo_inurba_marseille","lat":43.24546,"lon":5.39526,"is_reserved":false,"is_disabled":false,"rental_uris":{"android":"levelo://app?vid=d7581bdc-1067-4621-8fe2-daf34c28df75","ios":"levelo://app?vid=d7581bdc-1067-4621-8fe2-daf34c28df75"},"vehicle_type_id":"4","last_reported":1731870383,"current_range_meters":24000,"station_id":"ce4bhlp2rcd13ifvqgjg","pricing_plan_id":"cebpf4jnsgd1na2vs0mg"},{"bike_id":"04158c1a-fd46-49c3-a56e-df452be93304","system_id":"levelo_inurba_marseille","lat":43.29522,"lon":5.39402,"is_reserved":false,"is_disabled":false,"rental_uris":{"android":"levelo://app?vid=04158c1a-fd46-49c3-a56e-df452be93304","ios":"levelo://app?vid=04158c1a-fd46-49c3-a56e-df452be93304"},"vehicle_type_id":"4","last_reported":1731870383,"current_range_meters":35600,"station_id":"ce4bh292rcd13ifvqdf0","pricing_plan_id":"cebpf4jnsgd1na2vs0mg"},{"bike_id":"f7462b8d-3716-46b3-90e6-a3013886b066","system_id":"levelo_inurba_marseille","lat":43.30529,"lon":5.38425,"is_reserved":false,"is_disabled":false,"rental_uris":{"android":"levelo://app?vid=f7462b8d-3716-46b3-90e6-a3013886b066","ios":"levelo://app?vid=f7462b8d-3716-46b3-90e6-a3013886b066"},"vehicle_type_id":"4","last_reported":1731870383,"current_range_meters":37600,"station_id":"ce4bgg92rcd13ifvqb30","pricing_plan_id":"cebpf4jnsgd1na2vs0mg"},{"bike_id":"4f8f3eee-4c9d-459d-bfea-c233036be85f","system_id":"levelo_inurba_marseille","lat":43.29567,"lon":5.39964,"is_reserved":false,"is_disabled":false,"rental_uris":{"android":"levelo://app?vid=4f8f3eee-4c9d-459d-bfea-c233036be85f","ios":"levelo://app?vid=4f8f3eee-4c9d-459d-bfea-c233036be85f"},"vehicle_type_id":"4","last_reported":1731870383,"current_range_meters":23200,"station_id":"ce4bh312rcd13ifvqdj0","pricing_plan_id":"cebpf4jnsgd1na2vs0mg"},{"bike_id":"719862df-eb31-4da6-8f57-20e84f6c29b5","system_id":"levelo_inurba_marseille","lat":43.32367,"lon":5.38888,"is_reserved":false,"is_disabled":false,"rental_uris":{"android":"levelo://app?vid=719862df-eb31-4da6-8f57-20e84f6c29b5","ios":"levelo://app?vid=719862df-eb31-4da6-8f57-20e84f6c29b5"},"vehicle_type_id":"4","last_reported":1731870383,"current_range_meters":9200,"station_id":"ce4bhqp2rcd13ifvqhog","pricing_plan_id":"cebpf4jnsgd1na2vs0mg"},{"bike_id":"ba4cfa6b-d262-4c5f-ad80-f1c569b77562","system_id":"levelo_inurba_marseille","lat":43.25718,"lon":5.41114,"is_reserved":false,"is_disabled":false,"rental_uris":{"android":"levelo://app?vid=ba4cfa6b-d262-4c5f-ad80-f1c569b77562","ios":"levelo://app?vid=ba4cfa6b-d262-4c5f-ad80-f1c569b77562"},"vehicle_type_id":"4","last_reported":1731870383,"current_range_meters":24800,"station_id":"ce4bhkp2rcd13ifvqgd0","pricing_plan_id":"cebpf4jnsgd1na2vs0mg"},{"bike_id":"ed34cdfb-3a40-4845-b962-b5c5a3e6b878","system_id":"levelo_inurba_marseille","lat":43.29525,"lon":5.39043,"is_reserved":false,"is_disabled":false,"rental_uris":{"android":"levelo://app?vid=ed34cdfb-3a40-4845-b962-b5c5a3e6b878","ios":"levelo://app?vid=ed34cdfb-3a40-4845-b962-b5c5a3e6b878"},"vehicle_type_id":"4","last_reported":1731870383,"current_range_meters":14400,"station_id":"ce4bh3p2rcd13ifvqdp0","pricing_plan_id":"cebpf4jnsgd1na2vs0mg"},{"bike_id":"95b7222f-eb18-4b6a-8fe7-103e91bfc300","system_id":"levelo_inurba_marseille","lat":43.32657,"lon":5.40997,"is_reserved":false,"is_disabled":false,"rental_uris":{"android":"levelo://app?vid=95b7222f-eb18-4b6a-8fe7-103e91bfc300","ios":"levelo://app?vid=95b7222f-eb18-4b6a-8fe7-103e91bfc300"},"vehicle_type_id":"4","last_reported":1731870383,"current_range_meters":23200,"station_id":"ce4bhpp2rcd13ifvqhgg","pricing_plan_id":"cebpf4jnsgd1na2vs0mg"},{"bike_id":"087d9d9a-c6f6-484c-abb5-e78be0ae8048","system_id":"levelo_inurba_marseille","lat":43.265482,"lon":5.37284,"is_reserved":false,"is_disabled":false,"rental_uris":{"android":"levelo://app?vid=087d9d9a-c6f6-484c-abb5-e78be0ae8048","ios":"levelo://app?vid=087d9d9a-c6f6-484c-abb5-e78be0ae8048"},"vehicle_type_id":"4","last_reported":1731870383,"current_range_meters":38800,"station_id":"ce4bhg12rcd13ifvqf70","pricing_plan_id":"cebpf4jnsgd1na2vs0mg"},{"bike_id":"7c0a99b0-2291-4a5e-b431-d5d68272736a","system_id":"levelo_inurba_marseille","lat":43.2407,"lon":5.3777,"is_reserved":false,"is_disabled":false,"rental_uris":{"android":"levelo://app?vid=7c0a99b0-2291-4a5e-b431-d5d68272736a","ios":"levelo://app?vid=7c0a99b0-2291-4a5e-b431-d5d68272736a"},"vehicle_type_id":"4","last_reported":1731870383,"current_range_meters":18000,"station_id":"ce4bhnp2rcd13ifvqgvg","pricing_plan_id":"cebpf4jnsgd1na2vs0mg"},{"bike_id":"2d0c69ee-5bbd-4523-995a-0e315f06df51","system_id":"levelo_inurba_marseille","lat":43.30872,"lon":5.39645,"is_reserved":false,"is_disabled":false,"rental_uris":{"android":"levelo://app?vid=2d0c69ee-5bbd-4523-995a-0e315f06df51","ios":"levelo://app?vid=2d0c69ee-5bbd-4523-995a-0e315f06df51"},"vehicle_type_id":"4","last_reported":1731870383,"current_range_meters":38800,"station_id":"ce4bh012rcd13ifvqcv0","pricing_plan_id":"cebpf4jnsgd1na2vs0mg"},{"bike_id":"498a83d1-df7d-4476-a188-5723275135d1","system_id":"levelo_inurba_marseille","lat":43.23185,"lon":5.39982,"is_reserved":false,"is_disabled":false,"rental_uris":{"android":"levelo://app?vid=498a83d1-df7d-4476-a188-5723275135d1","ios":"levelo://app?vid=498a83d1-df7d-4476-a188-5723275135d1"},"vehicle_type_id":"4","last_reported":1731870383,"current_range_meters":35200,"station_id":"ce4bhn12rcd13ifvqgqg","pricing_plan_id":"cebpf4jnsgd1na2vs0mg"},{"bike_id":"ec07ff90-f715-40af-8a90-57425e0e664e","system_id":"levelo_inurba_marseille","lat":43.306143,"lon":5.372247,"is_reserved":false,"is_disabled":false,"rental_uris":{"android":"levelo://app?vid=ec07ff90-f715-40af-8a90-57425e0e664e","ios":"levelo://app?vid=ec07ff90-f715-40af-8a90-57425e0e664e"},"vehicle_type_id":"4","last_reported":1731870383,"current_range_meters":11200,"station_id":"ce4bgqh2rcd13ifvqc4g","pricing_plan_id":"cebpf4jnsgd1na2vs0mg"},{"bike_id":"522e9503-b872-48f2-8fb5-d8348a9df819","system_id":"levelo_inurba_marseille","lat":43.31697,"lon":5.4047,"is_reserved":false,"is_disabled":false,"rental_uris":{"android":"levelo://app?vid=522e9503-b872-48f2-8fb5-d8348a9df819","ios":"levelo://app?vid=522e9503-b872-48f2-8fb5-d8348a9df819"},"vehicle_type_id":"4","last_reported":1731870383,"current_range_meters":28000,"station_id":"ce4bh012rcd13ifvqd00","pricing_plan_id":"cebpf4jnsgd1na2vs0mg"},{"bike_id":"5be78575-e678-4b0e-baf8-e1be72408a4c","system_id":"levelo_inurba_marseille","lat":43.30136,"lon":5.39864,"is_reserved":false,"is_disabled":false,"rental_uris":{"android":"levelo://app?vid=5be78575-e678-4b0e-baf8-e1be72408a4c","ios":"levelo://app?vid=5be78575-e678-4b0e-baf8-e1be72408a4c"},"vehicle_type_id":"4","last_reported":1731870383,"current_range_meters":28000,"station_id":"ce4bh0h2rcd13ifvqd40","pricing_plan_id":"cebpf4jnsgd1na2vs0mg"},{"bike_id":"90d49525-40bc-472e-82c9-f406bb5b89cf","system_id":"levelo_inurba_marseille","lat":43.288872,"lon":5.360723,"is_reserved":false,"is_disabled":false,"rental_uris":{"android":"levelo://app?vid=90d49525-40bc-472e-82c9-f406bb5b89cf","ios":"levelo://app?vid=90d49525-40bc-472e-82c9-f406bb5b89cf"},"vehicle_type_id":"4","last_reported":1731870383,"current_range_meters":38800,"station_id":"cki0cbj6b192h4jlfktg","pricing_plan_id":"cebpf4jnsgd1na2vs0mg"},{"bike_id":"75c940bb-8f3b-4138-8bf1-e4d9d9772f24","system_id":"levelo_inurba_marseille","lat":43.31374,"lon":5.38491,"is_reserved":false,"is_disabled":false,"rental_uris":{"android":"levelo://app?vid=75c940bb-8f3b-4138-8bf1-e4d9d9772f24","ios":"levelo://app?vid=75c940bb-8f3b-4138-8bf1-e4d9d9772f24"},"vehicle_type_id":"4","last_reported":1731870383,"current_range_meters":20000,"station_id":"ce4bgt92rcd13ifvqcf0","pricing_plan_id":"cebpf4jnsgd1na2vs0mg"},{"bike_id":"eefbbc11-0cd0-4b14-84cb-111fddd0715f","system_id":"levelo_inurba_marseille","lat":43.30037,"lon":5.3847,"is_reserved":false,"is_disabled":false,"rental_uris":{"android":"levelo://app?vid=eefbbc11-0cd0-4b14-84cb-111fddd0715f","ios":"levelo://app?vid=eefbbc11-0cd0-4b14-84cb-111fddd0715f"},"vehicle_type_id":"4","last_reported":1731870383,"current_range_meters":6800,"station_id":"ce4bgk12rcd13ifvqbi0","pricing_plan_id":"cebpf4jnsgd1na2vs0mg"},{"bike_id":"c5462199-7932-4eef-a617-53d36b699976","system_id":"levelo_inurba_marseille","lat":43.29516,"lon":5.39401,"is_reserved":false,"is_disabled":false,"rental_uris":{"android":"levelo://app?vid=c5462199-7932-4eef-a617-53d36b699976","ios":"levelo://app?vid=c5462199-7932-4eef-a617-53d36b699976"},"vehicle_type_id":"4","last_reported":1731870383,"current_range_meters":27200,"station_id":"ce4bh292rcd13ifvqdf0","pricing_plan_id":"cebpf4jnsgd1na2vs0mg"},{"bike_id":"ee6a23a5-3890-4ec1-9a28-d87d29729ad7","system_id":"levelo_inurba_marseille","lat":43.26565,"lon":5.3901,"is_reserved":false,"is_disabled":false,"rental_uris":{"android":"levelo://app?vid=ee6a23a5-3890-4ec1-9a28-d87d29729ad7","ios":"levelo://app?vid=ee6a23a5-3890-4ec1-9a28-d87d29729ad7"},"vehicle_type_id":"4","last_reported":1731870383,"current_range_meters":14800,"station_id":"ce4bhe12rcd13ifvqf30","pricing_plan_id":"cebpf4jnsgd1na2vs0mg"},{"bike_id":"cb748eee-36fc-425b-bffb-e7ab2e92cba5","system_id":"levelo_inurba_marseille","lat":43.22929,"lon":5.40236,"is_reserved":false,"is_disabled":false,"rental_uris":{"android":"levelo://app?vid=cb748eee-36fc-425b-bffb-e7ab2e92cba5","ios":"levelo://app?vid=cb748eee-36fc-425b-bffb-e7ab2e92cba5"},"vehicle_type_id":"4","last_reported":1731870383,"current_range_meters":24400,"station_id":"","pricing_plan_id":"cebpf4jnsgd1na2vs0mg"},{"bike_id":"4f943854-9071-4e6c-8b1f-32d64981f512","system_id":"levelo_inurba_marseille","lat":43.30809,"lon":5.38153,"is_reserved":false,"is_disabled":false,"rental_uris":{"android":"levelo://app?vid=4f943854-9071-4e6c-8b1f-32d64981f512","ios":"levelo://app?vid=4f943854-9071-4e6c-8b1f-32d64981f512"},"vehicle_type_id":"4","last_reported":1731870383,"current_range_meters":30000,"station_id":"ce4bgt12rcd13ifvqce0","pricing_plan_id":"cebpf4jnsgd1na2vs0mg"},{"bike_id":"6fe8590f-e391-4325-bdde-177e28f31a3e","system_id":"levelo_inurba_marseille","lat":43.33722,"lon":5.39185,"is_reserved":false,"is_disabled":false,"rental_uris":{"android":"levelo://app?vid=6fe8590f-e391-4325-bdde-177e28f31a3e","ios":"levelo://app?vid=6fe8590f-e391-4325-bdde-177e28f31a3e"},"vehicle_type_id":"4","last_reported":1731870383,"current_range_meters":38800,"station_id":"ce4bhr92rcd13ifvqhsg","pricing_plan_id":"cebpf4jnsgd1na2vs0mg"},{"bike_id":"74c18e51-b185-4796-9436-3747a275adf8","system_id":"levelo_inurba_marseille","lat":43.29785,"lon":5.39345,"is_reserved":false,"is_disabled":false,"rental_uris":{"android":"levelo://app?vid=74c18e51-b185-4796-9436-3747a275adf8","ios":"levelo://app?vid=74c18e51-b185-4796-9436-3747a275adf8"},"vehicle_type_id":"4","last_reported":1731870383,"current_range_meters":6800,"station_id":"chh1huq6cuj3fo74tm60","pricing_plan_id":"cebpf4jnsgd1na2vs0mg"},{"bike_id":"08725ea2-8951-4caa-a965-ed8375933a1c","system_id":"levelo_inurba_marseille","lat":43.27911,"lon":5.39577,"is_reserved":false,"is_disabled":false,"rental_uris":{"android":"levelo://app?vid=08725ea2-8951-4caa-a965-ed8375933a1c","ios":"levelo://app?vid=08725ea2-8951-4caa-a965-ed8375933a1c"},"vehicle_type_id":"4","last_reported":1731870383,"current_range_meters":9200,"station_id":"ce4bhf92rcd13ifvqf40","pricing_plan_id":"cebpf4jnsgd1na2vs0mg"},{"bike_id":"6685a7e0-c811-42b1-b24a-f5642ac48162","system_id":"levelo_inurba_marseille","lat":43.32294,"lon":5.382813,"is_reserved":false,"is_disabled":false,"rental_uris":{"android":"levelo://app?vid=6685a7e0-c811-42b1-b24a-f5642ac48162","ios":"levelo://app?vid=6685a7e0-c811-42b1-b24a-f5642ac48162"},"vehicle_type_id":"4","last_reported":1731870383,"current_range_meters":29600,"station_id":"ce4bhr12rcd13ifvqhqg","pricing_plan_id":"cebpf4jnsgd1na2vs0mg"},{"bike_id":"b22460c5-99e7-4a35-98b6-69bab8d1bca9","system_id":"levelo_inurba_marseille","lat":43.28148,"lon":5.42654,"is_reserved":false,"is_disabled":false,"rental_uris":{"android":"levelo://app?vid=b22460c5-99e7-4a35-98b6-69bab8d1bca9","ios":"levelo://app?vid=b22460c5-99e7-4a35-98b6-69bab8d1bca9"},"vehicle_type_id":"4","last_reported":1731870383,"current_range_meters":8000,"station_id":"ce4bhnh2rcd13ifvqgug","pricing_plan_id":"cebpf4jnsgd1na2vs0mg"},{"bike_id":"022f478e-da93-4eda-9d1b-2d0e36905c07","system_id":"levelo_inurba_marseille","lat":43.33755,"lon":5.3743,"is_reserved":false,"is_disabled":false,"rental_uris":{"android":"levelo://app?vid=022f478e-da93-4eda-9d1b-2d0e36905c07","ios":"levelo://app?vid=022f478e-da93-4eda-9d1b-2d0e36905c07"},"vehicle_type_id":"4","last_reported":1731870383,"current_range_meters":9600,"station_id":"","pricing_plan_id":"cebpf4jnsgd1na2vs0mg"},{"bike_id":"a8fcf094-5fe5-49b4-9267-632c49b4795f","system_id":"levelo_inurba_marseille","lat":43.24073,"lon":5.37759,"is_reserved":false,"is_disabled":false,"rental_uris":{"android":"levelo://app?vid=a8fcf094-5fe5-49b4-9267-632c49b4795f","ios":"levelo://app?vid=a8fcf094-5fe5-49b4-9267-632c49b4795f"},"vehicle_type_id":"4","last_reported":1731870383,"current_range_meters":22400,"station_id":"ce4bhnp2rcd13ifvqgvg","pricing_plan_id":"cebpf4jnsgd1na2vs0mg"},{"bike_id":"3c7108fb-85fe-43b6-95ce-e6a5e6d34b1a","system_id":"levelo_inurba_marseille","lat":43.337332,"lon":5.391886,"is_reserved":false,"is_disabled":false,"rental_uris":{"android":"levelo://app?vid=3c7108fb-85fe-43b6-95ce-e6a5e6d34b1a","ios":"levelo://app?vid=3c7108fb-85fe-43b6-95ce-e6a5e6d34b1a"},"vehicle_type_id":"4","last_reported":1731870383,"current_range_meters":27200,"station_id":"ce4bhr92rcd13ifvqhsg","pricing_plan_id":"cebpf4jnsgd1na2vs0mg"},{"bike_id":"05fa9cab-1095-421e-8ede-e43197a1ec1f","system_id":"levelo_inurba_marseille","lat":43.2846,"lon":5.35879,"is_reserved":false,"is_disabled":false,"rental_uris":{"android":"levelo://app?vid=05fa9cab-1095-421e-8ede-e43197a1ec1f","ios":"levelo://app?vid=05fa9cab-1095-421e-8ede-e43197a1ec1f"},"vehicle_type_id":"4","last_reported":1731870383,"current_range_meters":28000,"station_id":"ce4bhah2rcd13ifvqei0","pricing_plan_id":"cebpf4jnsgd1na2vs0mg"},{"bike_id":"9eb6fa72-58d2-4aec-8dec-06ced4307604","system_id":"levelo_inurba_marseille","lat":43.29718,"lon":5.37682,"is_reserved":false,"is_disabled":false,"rental_uris":{"android":"levelo://app?vid=9eb6fa72-58d2-4aec-8dec-06ced4307604","ios":"levelo://app?vid=9eb6fa72-58d2-4aec-8dec-06ced4307604"},"vehicle_type_id":"4","last_reported":1731870383,"current_range_meters":12400,"station_id":"ce4bgkh2rcd13ifvqbl0","pricing_plan_id":"cebpf4jnsgd1na2vs0mg"},{"bike_id":"031239f8-5a69-40a2-9102-9731dddd16e5","system_id":"levelo_inurba_marseille","lat":43.29205,"lon":5.39317,"is_reserved":false,"is_disabled":false,"rental_uris":{"android":"levelo://app?vid=031239f8-5a69-40a2-9102-9731dddd16e5","ios":"levelo://app?vid=031239f8-5a69-40a2-9102-9731dddd16e5"},"vehicle_type_id":"4","last_reported":1731870383,"current_range_meters":11600,"station_id":"ce4bh4p2rcd13ifvqe0g","pricing_plan_id":"cebpf4jnsgd1na2vs0mg"},{"bike_id":"fc7b9077-2cf9-48c0-82cc-069d92ec16fe","system_id":"levelo_inurba_marseille","lat":43.29776,"lon":5.37153,"is_reserved":false,"is_disabled":false,"rental_uris":{"android":"levelo://app?vid=fc7b9077-2cf9-48c0-82cc-069d92ec16fe","ios":"levelo://app?vid=fc7b9077-2cf9-48c0-82cc-069d92ec16fe"},"vehicle_type_id":"4","last_reported":1731870383,"current_range_meters":24400,"station_id":"ce4bh292rcd13ifvqdf0","pricing_plan_id":"cebpf4jnsgd1na2vs0mg"},{"bike_id":"929053e8-dc63-436c-8adf-41008625a734","system_id":"levelo_inurba_marseille","lat":43.30796,"lon":5.43524,"is_reserved":false,"is_disabled":false,"rental_uris":{"android":"levelo://app?vid=929053e8-dc63-436c-8adf-41008625a734","ios":"levelo://app?vid=929053e8-dc63-436c-8adf-41008625a734"},"vehicle_type_id":"4","last_reported":1731870383,"current_range_meters":16800,"station_id":"ce4bhph2rcd13ifvqheg","pricing_plan_id":"cebpf4jnsgd1na2vs0mg"},{"bike_id":"b44f7862-465d-4fc1-a233-80f90ec40d2b","system_id":"levelo_inurba_marseille","lat":43.30095,"lon":5.39077,"is_reserved":false,"is_disabled":false,"rental_uris":{"android":"levelo://app?vid=b44f7862-465d-4fc1-a233-80f90ec40d2b","ios":"levelo://app?vid=b44f7862-465d-4fc1-a233-80f90ec40d2b"},"vehicle_type_id":"4","last_reported":1731870383,"current_range_meters":38800,"station_id":"ce4bh192rcd13ifvqdb0","pricing_plan_id":"cebpf4jnsgd1na2vs0mg"},{"bike_id":"55dda76f-ec79-4c38-abf6-0d7bfe720941","system_id":"levelo_inurba_marseille","lat":43.31279,"lon":5.40167,"is_reserved":false,"is_disabled":false,"rental_uris":{"android":"levelo://app?vid=55dda76f-ec79-4c38-abf6-0d7bfe720941","ios":"levelo://app?vid=55dda76f-ec79-4c38-abf6-0d7bfe720941"},"vehicle_type_id":"4","last_reported":1731870383,"current_range_meters":11600,"station_id":"ce4bh092rcd13ifvqd30","pricing_plan_id":"cebpf4jnsgd1na2vs0mg"},{"bike_id":"7d739e25-b55e-430e-bb25-0ead4f468415","system_id":"levelo_inurba_marseille","lat":43.303,"lon":5.39209,"is_reserved":false,"is_disabled":false,"rental_uris":{"android":"levelo://app?vid=7d739e25-b55e-430e-bb25-0ead4f468415","ios":"levelo://app?vid=7d739e25-b55e-430e-bb25-0ead4f468415"},"vehicle_type_id":"4","last_reported":1731870383,"current_range_meters":6800,"station_id":"ce4bgr92rcd13ifvqc7g","pricing_plan_id":"cebpf4jnsgd1na2vs0mg"},{"bike_id":"0a06268d-b838-4d71-bc67-e9f932685b9c","system_id":"levelo_inurba_marseille","lat":43.29264,"lon":5.38444,"is_reserved":false,"is_disabled":false,"rental_uris":{"android":"levelo://app?vid=0a06268d-b838-4d71-bc67-e9f932685b9c","ios":"levelo://app?vid=0a06268d-b838-4d71-bc67-e9f932685b9c"},"vehicle_type_id":"4","last_reported":1731870383,"current_range_meters":9200,"station_id":"ce4bh692rcd13ifvqea0","pricing_plan_id":"cebpf4jnsgd1na2vs0mg"},{"bike_id":"0716bab9-bb6d-43eb-8259-3defd4bc47ab","system_id":"levelo_inurba_marseille","lat":43.31284,"lon":5.40171,"is_reserved":false,"is_disabled":false,"rental_uris":{"android":"levelo://app?vid=0716bab9-bb6d-43eb-8259-3defd4bc47ab","ios":"levelo://app?vid=0716bab9-bb6d-43eb-8259-3defd4bc47ab"},"vehicle_type_id":"4","last_reported":1731870383,"current_range_meters":4000,"station_id":"ce4bh092rcd13ifvqd30","pricing_plan_id":"cebpf4jnsgd1na2vs0mg"},{"bike_id":"b01c8a7f-b1c7-4f54-b2b1-6fdbb312ffe8","system_id":"levelo_inurba_marseille","lat":43.326782,"lon":5.409943,"is_reserved":false,"is_disabled":false,"rental_uris":{"android":"levelo://app?vid=b01c8a7f-b1c7-4f54-b2b1-6fdbb312ffe8","ios":"levelo://app?vid=b01c8a7f-b1c7-4f54-b2b1-6fdbb312ffe8"},"vehicle_type_id":"4","last_reported":1731870383,"current_range_meters":20000,"station_id":"ce4bhq92rcd13ifvqhkg","pricing_plan_id":"cebpf4jnsgd1na2vs0mg"},{"bike_id":"bd1585a9-8745-4734-ab80-7f95ee0946dc","system_id":"levelo_inurba_marseille","lat":43.29035,"lon":5.38656,"is_reserved":false,"is_disabled":false,"rental_uris":{"android":"levelo://app?vid=bd1585a9-8745-4734-ab80-7f95ee0946dc","ios":"levelo://app?vid=bd1585a9-8745-4734-ab80-7f95ee0946dc"},"vehicle_type_id":"4","last_reported":1731870383,"current_range_meters":38800,"station_id":"ce4bh4p2rcd13ifvqe0g","pricing_plan_id":"cebpf4jnsgd1na2vs0mg"},{"bike_id":"a13a42a7-2d80-4373-b80c-80319f678609","system_id":"levelo_inurba_marseille","lat":43.30288,"lon":5.37705,"is_reserved":false,"is_disabled":false,"rental_uris":{"android":"levelo://app?vid=a13a42a7-2d80-4373-b80c-80319f678609","ios":"levelo://app?vid=a13a42a7-2d80-4373-b80c-80319f678609"},"vehicle_type_id":"4","last_reported":1731870383,"current_range_meters":30000,"station_id":"ce4bguh2rcd13ifvqcj0","pricing_plan_id":"cebpf4jnsgd1na2vs0mg"},{"bike_id":"25dd3423-1b88-40c1-8fd2-9e5e241fe9bf","system_id":"levelo_inurba_marseille","lat":43.29922,"lon":5.37474,"is_reserved":false,"is_disabled":false,"rental_uris":{"android":"levelo://app?vid=25dd3423-1b88-40c1-8fd2-9e5e241fe9bf","ios":"levelo://app?vid=25dd3423-1b88-40c1-8fd2-9e5e241fe9bf"},"vehicle_type_id":"4","last_reported":1731870383,"current_range_meters":24000,"station_id":"ce4bgjh2rcd13ifvqbg0","pricing_plan_id":"cebpf4jnsgd1na2vs0mg"},{"bike_id":"90bb2cae-4339-46de-973d-1d239b082c40","system_id":"levelo_inurba_marseille","lat":43.23185,"lon":5.39995,"is_reserved":false,"is_disabled":false,"rental_uris":{"android":"levelo://app?vid=90bb2cae-4339-46de-973d-1d239b082c40","ios":"levelo://app?vid=90bb2cae-4339-46de-973d-1d239b082c40"},"vehicle_type_id":"4","last_reported":1731870383,"current_range_meters":17200,"station_id":"ce4bhn12rcd13ifvqgqg","pricing_plan_id":"cebpf4jnsgd1na2vs0mg"},{"bike_id":"ed3288cf-c850-40af-b1f9-4e3b5622ee4b","system_id":"levelo_inurba_marseille","lat":43.25118,"lon":5.40312,"is_reserved":false,"is_disabled":false,"rental_uris":{"android":"levelo://app?vid=ed3288cf-c850-40af-b1f9-4e3b5622ee4b","ios":"levelo://app?vid=ed3288cf-c850-40af-b1f9-4e3b5622ee4b"},"vehicle_type_id":"4","last_reported":1731870383,"current_range_meters":2800,"station_id":"ce4bhlh2rcd13ifvqgig","pricing_plan_id":"cebpf4jnsgd1na2vs0mg"},{"bike_id":"abdcdef1-5d4c-4ce8-8241-134be5e81e98","system_id":"levelo_inurba_marseille","lat":43.28149,"lon":5.42652,"is_reserved":false,"is_disabled":false,"rental_uris":{"android":"levelo://app?vid=abdcdef1-5d4c-4ce8-8241-134be5e81e98","ios":"levelo://app?vid=abdcdef1-5d4c-4ce8-8241-134be5e81e98"},"vehicle_type_id":"4","last_reported":1731870383,"current_range_meters":24400,"station_id":"ce4bhnh2rcd13ifvqgug","pricing_plan_id":"cebpf4jnsgd1na2vs0mg"},{"bike_id":"39ddc461-3022-4fb0-bd2b-e15a346f7d38","system_id":"levelo_inurba_marseille","lat":43.29026,"lon":5.39973,"is_reserved":false,"is_disabled":false,"rental_uris":{"android":"levelo://app?vid=39ddc461-3022-4fb0-bd2b-e15a346f7d38","ios":"levelo://app?vid=39ddc461-3022-4fb0-bd2b-e15a346f7d38"},"vehicle_type_id":"4","last_reported":1731870383,"current_range_meters":21600,"station_id":"ce4bh392rcd13ifvqdm0","pricing_plan_id":"cebpf4jnsgd1na2vs0mg"},{"bike_id":"6e0b9123-df68-4012-b71a-a8316bbd510a","system_id":"levelo_inurba_marseille","lat":43.30142,"lon":5.39873,"is_reserved":false,"is_disabled":false,"rental_uris":{"android":"levelo://app?vid=6e0b9123-df68-4012-b71a-a8316bbd510a","ios":"levelo://app?vid=6e0b9123-df68-4012-b71a-a8316bbd510a"},"vehicle_type_id":"4","last_reported":1731870383,"current_range_meters":36000,"station_id":"ce4bh0h2rcd13ifvqd40","pricing_plan_id":"cebpf4jnsgd1na2vs0mg"},{"bike_id":"ec66fdf2-4884-4dc6-8845-372e699c6208","system_id":"levelo_inurba_marseille","lat":43.28147,"lon":5.42648,"is_reserved":false,"is_disabled":false,"rental_uris":{"android":"levelo://app?vid=ec66fdf2-4884-4dc6-8845-372e699c6208","ios":"levelo://app?vid=ec66fdf2-4884-4dc6-8845-372e699c6208"},"vehicle_type_id":"4","last_reported":1731870383,"current_range_meters":11600,"station_id":"ce4bhnh2rcd13ifvqgug","pricing_plan_id":"cebpf4jnsgd1na2vs0mg"},{"bike_id":"1241499f-0162-48fa-aaa6-9eab9f9869ba","system_id":"levelo_inurba_marseille","lat":43.29045,"lon":5.35921,"is_reserved":false,"is_disabled":false,"rental_uris":{"android":"levelo://app?vid=1241499f-0162-48fa-aaa6-9eab9f9869ba","ios":"levelo://app?vid=1241499f-0162-48fa-aaa6-9eab9f9869ba"},"vehicle_type_id":"4","last_reported":1731870383,"current_range_meters":32400,"station_id":"ce4bha92rcd13ifvqeg0","pricing_plan_id":"cebpf4jnsgd1na2vs0mg"},{"bike_id":"4a895b14-09ca-4134-839b-e2b45741ee8e","system_id":"levelo_inurba_marseille","lat":43.30634,"lon":5.40088,"is_reserved":false,"is_disabled":false,"rental_uris":{"android":"levelo://app?vid=4a895b14-09ca-4134-839b-e2b45741ee8e","ios":"levelo://app?vid=4a895b14-09ca-4134-839b-e2b45741ee8e"},"vehicle_type_id":"4","last_reported":1731870383,"current_range_meters":32400,"station_id":"ce4bh112rcd13ifvqda0","pricing_plan_id":"cebpf4jnsgd1na2vs0mg"},{"bike_id":"188157cd-93c2-44da-8365-51a7933e7589","system_id":"levelo_inurba_marseille","lat":43.3127,"lon":5.40166,"is_reserved":false,"is_disabled":false,"rental_uris":{"android":"levelo://app?vid=188157cd-93c2-44da-8365-51a7933e7589","ios":"levelo://app?vid=188157cd-93c2-44da-8365-51a7933e7589"},"vehicle_type_id":"4","last_reported":1731870383,"current_range_meters":30800,"station_id":"ce4bh092rcd13ifvqd30","pricing_plan_id":"cebpf4jnsgd1na2vs0mg"},{"bike_id":"2ba47b62-be84-4bf2-8309-e0c12057c7e0","system_id":"levelo_inurba_marseille","lat":43.27495,"lon":5.42445,"is_reserved":false,"is_disabled":false,"rental_uris":{"android":"levelo://app?vid=2ba47b62-be84-4bf2-8309-e0c12057c7e0","ios":"levelo://app?vid=2ba47b62-be84-4bf2-8309-e0c12057c7e0"},"vehicle_type_id":"4","last_reported":1731870383,"current_range_meters":22000,"station_id":"ce4bhn92rcd13ifvqgrg","pricing_plan_id":"cebpf4jnsgd1na2vs0mg"},{"bike_id":"aa58de6f-50b7-4820-abff-9daea1e9542e","system_id":"levelo_inurba_marseille","lat":43.31275,"lon":5.40158,"is_reserved":false,"is_disabled":false,"rental_uris":{"android":"levelo://app?vid=aa58de6f-50b7-4820-abff-9daea1e9542e","ios":"levelo://app?vid=aa58de6f-50b7-4820-abff-9daea1e9542e"},"vehicle_type_id":"4","last_reported":1731870383,"current_range_meters":9200,"station_id":"ce4bh092rcd13ifvqd30","pricing_plan_id":"cebpf4jnsgd1na2vs0mg"},{"bike_id":"2b5c3fcd-740a-4039-8216-9ed95df3ad9d","system_id":"levelo_inurba_marseille","lat":43.32335,"lon":5.40624,"is_reserved":false,"is_disabled":false,"rental_uris":{"android":"levelo://app?vid=2b5c3fcd-740a-4039-8216-9ed95df3ad9d","ios":"levelo://app?vid=2b5c3fcd-740a-4039-8216-9ed95df3ad9d"},"vehicle_type_id":"4","last_reported":1731870383,"current_range_meters":38800,"station_id":"ce4bhq92rcd13ifvqhjg","pricing_plan_id":"cebpf4jnsgd1na2vs0mg"},{"bike_id":"a76b5891-2601-43e5-b964-b07ad3119f91","system_id":"levelo_inurba_marseille","lat":43.25001,"lon":5.38925,"is_reserved":false,"is_disabled":false,"rental_uris":{"android":"levelo://app?vid=a76b5891-2601-43e5-b964-b07ad3119f91","ios":"levelo://app?vid=a76b5891-2601-43e5-b964-b07ad3119f91"},"vehicle_type_id":"4","last_reported":1731870383,"current_range_meters":38000,"station_id":"ce4bhgp2rcd13ifvqfd0","pricing_plan_id":"cebpf4jnsgd1na2vs0mg"},{"bike_id":"57dcf8e3-d4b9-41d5-83b6-9e88db74afd6","system_id":"levelo_inurba_marseille","lat":43.29526,"lon":5.39044,"is_reserved":false,"is_disabled":false,"rental_uris":{"android":"levelo://app?vid=57dcf8e3-d4b9-41d5-83b6-9e88db74afd6","ios":"levelo://app?vid=57dcf8e3-d4b9-41d5-83b6-9e88db74afd6"},"vehicle_type_id":"4","last_reported":1731870383,"current_range_meters":38800,"station_id":"ce4bh3p2rcd13ifvqdp0","pricing_plan_id":"cebpf4jnsgd1na2vs0mg"},