{"last_updated":1733479839,"ttl":60,"version":"2.2","data":{"bikes":[{"bike_id":"0ef186a1-9de3-4a44-aab2-b4d021099410","system_id":"levelo_inurba_marseille","lat":43.29067,"lon":5.37171,"is_reserved":false,"is_disabled":false,"rental_uris":{"android":"levelo://app?vid=0ef186a1-9de3-4a44-aab2-b4d021099410","ios":"levelo://app?vid=0ef186a1-9de3-4a44-aab2-b4d021099410"},"vehicle_type_id":"4","last_reported":1733479839,"current_range_meters":22000,"station_id":"ce4bh5p2rcd13ifvqe4g","pricing_plan_id":"cebpf4jnsgd1na2vs0mg"},{"bike_id":"5566b1e4-e72a-4189-8e1b-a6c3faeca7b6","system_id":"levelo_inurba_marseille","lat":43.29217,"lon":5.358,"is_reserved":false,"is_disabled":true,"rental_uris":{"android":"levelo://app?vid=5566b1e4-e72a-4189-8e1b-a6c3faeca7b6","ios":"levelo://app?vid=5566b1e4-e72a-4189-8e1b-a6c3faeca7b6"},"vehicle_type_id":"4","last_reported":1733479839,"current_range_meters":0,"station_id":"ce4bhb12rcd13ifvqel0","pricing_plan_id":"cebpf4jnsgd1na2vs0mg"},{"bike_id":"2bf7e536-6d78-4070-8fad-3bca0083ee23","system_id":"levelo_inurba_marseille","lat":43.29522,"lon":5.37504,"is_reserved":false,"is_disabled":false,"rental_uris":{"android":"levelo://app?vid=2bf7e536-6d78-4070-8fad-3bca0083ee23","ios":"levelo://app?vid=2bf7e536-6d78-4070-8fad-3bca0083ee23"},"vehicle_type_id":"4","last_reported":1733479839,"current_range_meters":10000,"station_id":"ce4bgkp2rcd13ifvqbmg","pricing_plan_id":"cebpf4jnsgd1na2vs0mg"},{"bike_id":"df479c2c-35ac-44ad-b9d6-81c89ed769ce","system_id":"levelo_inurba_marseille","lat":43.29699,"lon":5.37054,"is_reserved":false,"is_disabled":true,"rental_uris":{"android":"levelo://app?vid=df479c2c-35ac-44ad-b9d6-81c89ed769ce","ios":"levelo://app?vid=df479c2c-35ac-44ad-b9d6-81c89ed769ce"},"vehicle_type_id":"4","last_reported":1733479839,"current_range_meters":0,"station_id":"","pricing_plan_id":"cebpf4jnsgd1na2vs0mg"},{"bike_id":"8e029eaf-e104-4c5d-858d-6cd39de73d09","system_id":"levelo_inurba_marseille","lat":43.24177,"lon":5.36384,"is_reserved":false,"is_disabled":false,"rental_uris":{"android":"levelo://app?vid=8e029eaf-e104-4c5d-858d-6cd39de73d09","ios":"levelo://app?vid=8e029eaf-e104-4c5d-858d-6cd39de73d09"},"vehicle_type_id":"4","last_reported":1733479839,"current_range_meters":36800,"station_id":"cpo36qri1sfpv3e86is0","pricing_plan_id":"cebpf4jnsgd1na2vs0mg"},{"bike_id":"f3c6f519-586d-4c35-8359-a5f863d5ec44","system_id":"levelo_inurba_marseille","lat":43.29621,"lon":5.37727,"is_reserved":false,"is_disabled":false,"rental_uris":{"android":"levelo://app?vid=f3c6f519-586d-4c35-8359-a5f863d5ec44","ios":"levelo://app?vid=f3c6f519-586d-4c35-8359-a5f863d5ec44"},"vehicle_type_id":"4","last_reported":1733479839,"current_range_meters":31200,"station_id":"ce4bgi92rcd13ifvqb90","pricing_plan_id":"cebpf4jnsgd1na2vs0mg"},{"bike_id":"faf8db91-b499-49d3-9288-ae263a2b13f8","system_id":"levelo_inurba_marseille","lat":43.3015,"lon":5.38071,"is_reserved":false,"is_disabled":false,"rental_uris":{"android":"levelo://app?vid=faf8db91-b499-49d3-9288-ae263a2b13f8","ios":"levelo://app?vid=faf8db91-b499-49d3-9288-ae263a2b13f8"},"vehicle_type_id":"4","last_reported":1733479839,"current_range_meters":32400,"station_id":"ce4bgjp2rcd13ifvqbh0","pricing_plan_id":"cebpf4jnsgd1na2vs0mg"},{"bike_id":"d19d44c6-1f3d-4880-90bd-c59a4f9af272","system_id":"levelo_inurba_marseille","lat":43.30271,"lon":5.37692,"is_reserved":false,"is_disabled":false,"rental_uris":{"android":"levelo://app?vid=d19d44c6-1f3d-4880-90bd-c59a4f9af272","ios":"levelo://app?vid=d19d44c6-1f3d-4880-90bd-c59a4f9af272"},"vehicle_type_id":"4","last_reported":1733479839,"current_range_meters":38800,"station_id":"ce4bguh2rcd13ifvqcj0","pricing_plan_id":"cebpf4jnsgd1na2vs0mg"},{"bike_id":"24dbf3ed-e894-4ed3-bebf-1f5e11898195","system_id":"levelo_inurba_marseille","lat":43.30469,"lon":5.37905,"is_reserved":false,"is_disabled":true,"rental_uris":{"android":"levelo://app?vid=24dbf3ed-e894-4ed3-bebf-1f5e11898195","ios":"levelo://app?vid=24dbf3ed-e894-4ed3-bebf-1f5e11898195"},"vehicle_type_id":"4","last_reported":1733479839,"current_range_meters":4000,"station_id":"","pricing_plan_id":"cebpf4jnsgd1na2vs0mg"},{"bike_id":"45c853b5-abeb-440a-9199-2fdf5de9570f","system_id":"levelo_inurba_marseille","lat":43.2619,"lon":5.37445,"is_reserved":false,"is_disabled":false,"rental_uris":{"android":"levelo://app?vid=45c853b5-abeb-440a-9199-2fdf5de9570f","ios":"levelo://app?vid=45c853b5-abeb-440a-9199-2fdf5de9570f"},"vehicle_type_id":"4","last_reported":1733479839,"current_range_meters":36000,"station_id":"ce4bhgp2rcd13ifvqfc0","pricing_plan_id":"cebpf4jnsgd1na2vs0mg"},{"bike_id":"be407bbe-d1ce-48de-8db2-09114af9efd7","system_id":"levelo_inurba_marseille","lat":43.32362,"lon":5.36762,"is_reserved":false,"is_disabled":false,"rental_uris":{"android":"levelo://app?vid=be407bbe-d1ce-48de-8db2-09114af9efd7","ios":"levelo://app?vid=be407bbe-d1ce-48de-8db2-09114af9efd7"},"vehicle_type_id":"4","last_reported":1733479839,"current_range_meters":25200,"station_id":"ce4bhsh2rcd13ifvqi2g","pricing_plan_id":"cebpf4jnsgd1na2vs0mg"},{"bike_id":"a8965da3-3135-404d-a457-e88102927913","system_id":"levelo_inurba_marseille","lat":43.27809,"lon":5.40704,"is_reserved":false,"is_disabled":false,"rental_uris":{"android":"levelo://app?vid=a8965da3-3135-404d-a457-e88102927913","ios":"levelo://app?vid=a8965da3-3135-404d-a457-e88102927913"},"vehicle_type_id":"4","last_reported":1733479839,"current_range_meters":29600,"station_id":"ce4bhnh2rcd13ifvqgtg","pricing_plan_id":"cebpf4jnsgd1na2vs0mg"},{"bike_id":"da7f571a-e2ec-4ca2-b394-8105c7bbdae3","system_id":"levelo_inurba_marseille","lat":43.2718,"lon":5.409914,"is_reserved":false,"is_disabled":false,"rental_uris":{"android":"levelo://app?vid=da7f571a-e2ec-4ca2-b394-8105c7bbdae3","ios":"levelo://app?vid=da7f571a-e2ec-4ca2-b394-8105c7bbdae3"},"vehicle_type_id":"4","last_reported":1733479839,"current_range_meters":6800,"station_id":"ce4bhl12rcd13ifvqgf0","pricing_plan_id":"cebpf4jnsgd1na2vs0mg"},{"bike_id":"c4165085-fbe6-4a55-b40a-06e6da8bea5b","system_id":"levelo_inurba_marseille","lat":43.32523,"lon":5.41442,"is_reserved":false,"is_disabled":false,"rental_uris":{"android":"levelo://app?vid=c4165085-fbe6-4a55-b40a-06e6da8bea5b","ios":"levelo://app?vid=c4165085-fbe6-4a55-b40a-06e6da8bea5b"},"vehicle_type_id":"4","last_reported":1733479839,"current_range_meters":35200,"station_id":"ce4bhq12rcd13ifvqhhg","pricing_plan_id":"cebpf4jnsgd1na2vs0mg"},{"bike_id":"8bd642b2-0279-44c7-9ee2-fc3b57332c83","system_id":"levelo_inurba_marseille","lat":43.27455,"lon":5.40073,"is_reserved":false,"is_disabled":true,"rental_uris":{"android":"levelo://app?vid=8bd642b2-0279-44c7-9ee2-fc3b57332c83","ios":"levelo://app?vid=8bd642b2-0279-44c7-9ee2-fc3b57332c83"},"vehicle_type_id":"4","last_reported":1733479839,"current_range_meters":0,"station_id":"","pricing_plan_id":"cebpf4jnsgd1na2vs0mg"},{"bike_id":"5b667cd8-1ed1-4b03-8bee-ef4c0498560e","system_id":"levelo_inurba_marseille","lat":43.25,"lon":5.38927,"is_reserved":false,"is_disabled":false,"rental_uris":{"android":"levelo://app?vid=5b667cd8-1ed1-4b03-8bee-ef4c0498560e","ios":"levelo://app?vid=5b667cd8-1ed1-4b03-8bee-ef4c0498560e"},"vehicle_type_id":"4","last_reported":1733479839,"current_range_meters":38800,"station_id":"ce4bhgp2rcd13ifvqfd0","pricing_plan_id":"cebpf4jnsgd1na2vs0mg"},{"bike_id":"92096e66-982c-42ef-9a85-db8cb36f5689","system_id":"levelo_inurba_marseille","lat":43.27942,"lon":5.41044,"is_reserved":false,"is_disabled":false,"rental_uris":{"android":"levelo://app?vid=92096e66-982c-42ef-9a85-db8cb36f5689","ios":"levelo://app?vid=92096e66-982c-42ef-9a85-db8cb36f5689"},"vehicle_type_id":"4","last_reported":1733479839,"current_range_meters":6800,"station_id":"ce4bhnp2rcd13ifvqh0g","pricing_plan_id":"cebpf4jnsgd1na2vs0mg"},{"bike_id":"72d56ec8-99e6-4a10-beb7-dc9bcc2efd35","system_id":"levelo_inurba_marseille","lat":43.29023,"lon":5.38129,"is_reserved":false,"is_disabled":false,"rental_uris":{"android":"levelo://app?vid=72d56ec8-99e6-4a10-beb7-dc9bcc2efd35","ios":"levelo://app?vid=72d56ec8-99e6-4a10-beb7-dc9bcc2efd35"},"vehicle_type_id":"4","last_reported":1733479839,"current_range_meters":38000,"station_id":"ce4bh4p2rcd13ifvqe1g","pricing_plan_id":"cebpf4jnsgd1na2vs0mg"},{"bike_id":"9558f4c4-f6fa-4f42-ba7b-f8326c0c5209","system_id":"levelo_inurba_marseille","lat":43.24076,"lon":5.37752,"is_reserved":false,"is_disabled":false,"rental_uris":{"android":"levelo://app?vid=9558f4c4-f6fa-4f42-ba7b-f8326c0c5209","ios":"levelo://app?vid=9558f4c4-f6fa-4f42-ba7b-f8326c0c5209"},"vehicle_type_id":"4","last_reported":1733479839,"current_range_meters":38800,"station_id":"ce4bhnp2rcd13ifvqgvg","pricing_plan_id":"cebpf4jnsgd1na2vs0mg"},{"bike_id":"79207284-905c-4504-8a4d-92bd942e36b6","system_id":"levelo_inurba_marseille","lat":43.24091,"lon":5.37724,"is_reserved":false,"is_disabled":false,"rental_uris":{"android":"levelo://app?vid=79207284-905c-4504-8a4d-92bd942e36b6","ios":"levelo://app?vid=79207284-905c-4504-8a4d-92bd942e36b6"},"vehicle_type_id":"4","last_reported":1733479839,"current_range_meters":9600,"station_id":"ce4bhnp2rcd13ifvqgvg","pricing_plan_id":"cebpf4jnsgd1na2vs0mg"},{"bike_id":"6a7743cf-3788-4f3e-a259-68f78f578deb","system_id":"levelo_inurba_marseille","lat":43.29033,"lon":5.37565,"is_reserved":false,"is_disabled":false,"rental_uris":{"android":"levelo://app?vid=6a7743cf-3788-4f3e-a259-68f78f578deb","ios":"levelo://app?vid=6a7743cf-3788-4f3e-a259-68f78f578deb"},"vehicle_type_id":"4","last_reported":1733479839,"current_range_meters":38800,"station_id":"ce4bh692rcd13ifvqe90","pricing_plan_id":"cebpf4jnsgd1na2vs0mg"},{"bike_id":"0c7d8135-3f48-4d1f-9d6e-8ceee018e1a4","system_id":"levelo_inurba_marseille","lat":43.26946,"lon":5.38636,"is_reserved":false,"is_disabled":false,"rental_uris":{"android":"levelo://app?vid=0c7d8135-3f48-4d1f-9d6e-8ceee018e1a4","ios":"levelo://app?vid=0c7d8135-3f48-4d1f-9d6e-8ceee018e1a4"},"vehicle_type_id":"4","last_reported":1733479839,"current_range_meters":36000,"station_id":"ce4bhh92rcd13ifvqfh0","pricing_plan_id":"cebpf4jnsgd1na2vs0mg"},{"bike_id":"28b52837-d828-49e4-b4be-cfbac010c328","system_id":"levelo_inurba_marseille","lat":43.33722,"lon":5.39184,"is_reserved":false,"is_disabled":false,"rental_uris":{"android":"levelo://app?vid=28b52837-d828-49e4-b4be-cfbac010c328","ios":"levelo://app?vid=28b52837-d828-49e4-b4be-cfbac010c328"},"vehicle_type_id":"4","last_reported":1733479839,"current_range_meters":25200,"station_id":"ce4bhr92rcd13ifvqhsg","pricing_plan_id":"cebpf4jnsgd1na2vs0mg"},{"bike_id":"b3f478ac-3b05-4edf-bdbf-76399090f8e9","system_id":"levelo_inurba_marseille","lat":43.29994,"lon":5.37639,"is_reserved":false,"is_disabled":true,"rental_uris":{"android":"levelo://app?vid=b3f478ac-3b05-4edf-bdbf-76399090f8e9","ios":"levelo://app?vid=b3f478ac-3b05-4edf-bdbf-76399090f8e9"},"vehicle_type_id":"4","last_reported":1733479839,"current_range_meters":0,"station_id":"","pricing_plan_id":"cebpf4jnsgd1na2vs0mg"},{"bike_id":"e9f79471-4ff3-4676-918f-e60f2e151b99","system_id":"levelo_inurba_marseille","lat":43.337444,"lon":5.374475,"is_reserved":false,"is_disabled":false,"rental_uris":{"android":"levelo://app?vid=e9f79471-4ff3-4676-918f-e60f2e151b99","ios":"levelo://app?vid=e9f79471-4ff3-4676-918f-e60f2e151b99"},"vehicle_type_id":"4","last_reported":1733479839,"current_range_meters":38000,"station_id":"","pricing_plan_id":"cebpf4jnsgd1na2vs0mg"},{"bike_id":"82383da8-e1a3-41dd-b408-c55ab2b01ce2","system_id":"levelo_inurba_marseille","lat":43.3377,"lon":5.37414,"is_reserved":false,"is_disabled":false,"rental_uris":{"android":"levelo://app?vid=82383da8-e1a3-41dd-b408-c55ab2b01ce2","ios":"levelo://app?vid=82383da8-e1a3-41dd-b408-c55ab2b01ce2"},"vehicle_type_id":"4","last_reported":1733479839,"current_range_meters":31200,"station_id":"","pricing_plan_id":"cebpf4jnsgd1na2vs0mg"},{"bike_id":"36eab559-191f-41d4-9302-813f441f16aa","system_id":"levelo_inurba_marseille","lat":43.2417,"lon":5.39728,"is_reserved":false,"is_disabled":false,"rental_uris":{"android":"levelo://app?vid=36eab559-191f-41d4-9302-813f441f16aa","ios":"levelo://app?vid=36eab559-191f-41d4-9302-813f441f16aa"},"vehicle_type_id":"4","last_reported":1733479839,"current_range_meters":38800,"station_id":"ce4bhn12rcd13ifvqgpg","pricing_plan_id":"cebpf4jnsgd1na2vs0mg"},{"bike_id":"e05119fd-fd4d-4fc7-9786-f468bbb9ad6c","system_id":"levelo_inurba_marseille","lat":43.32284,"lon":5.38268,"is_reserved":false,"is_disabled":false,"rental_uris":{"android":"levelo://app?vid=e05119fd-fd4d-4fc7-9786-f468bbb9ad6c","ios":"levelo://app?vid=e05119fd-fd4d-4fc7-9786-f468bbb9ad6c"},"vehicle_type_id":"4","last_reported":1733479839,"current_range_meters":38800,"station_id":"ce4bhr12rcd13ifvqhqg","pricing_plan_id":"cebpf4jnsgd1na2vs0mg"},{"bike_id":"41602994-4a86-4ce3-8f6d-26a770d951fa","system_id":"levelo_inurba_marseille","lat":43.27492,"lon":5.42438,"is_reserved":false,"is_disabled":false,"rental_uris":{"android":"levelo://app?vid=41602994-4a86-4ce3-8f6d-26a770d951fa","ios":"levelo://app?vid=41602994-4a86-4ce3-8f6d-26a770d951fa"},"vehicle_type_id":"4","last_reported":1733479839,"current_range_meters":36000,"station_id":"ce4bhn92rcd13ifvqgrg","pricing_plan_id":"cebpf4jnsgd1na2vs0mg"},{"bike_id":"771b3b0e-5244-4786-b104-ef6fcbe19306","system_id":"levelo_inurba_marseille","lat":43.295768,"lon":5.374983,"is_reserved":false,"is_disabled":false,"rental_uris":{"android":"levelo://app?vid=771b3b0e-5244-4786-b104-ef6fcbe19306","ios":"levelo://app?vid=771b3b0e-5244-4786-b104-ef6fcbe19306"},"vehicle_type_id":"4","last_reported":1733479839,"current_range_meters":35200,"station_id":"ce4bgh92rcd13ifvqb50","pricing_plan_id":"cebpf4jnsgd1na2vs0mg"},{"bike_id":"9e3bc3fb-05cb-4c9a-8460-05ba9e2b92d0","system_id":"levelo_inurba_marseille","lat":43.313544,"lon":5.367114,"is_reserved":false,"is_disabled":false,"rental_uris":{"android":"levelo://app?vid=9e3bc3fb-05cb-4c9a-8460-05ba9e2b92d0","ios":"levelo://app?vid=9e3bc3fb-05cb-4c9a-8460-05ba9e2b92d0"},"vehicle_type_id":"4","last_reported":1733479839,"current_range_meters":38000,"station_id":"ce4bgr92rcd13ifvqc6g","pricing_plan_id":"cebpf4jnsgd1na2vs0mg"},{"bike_id":"92c1e117-f0fb-499c-b1b6-dfcc6283b817","system_id":"levelo_inurba_marseille","lat":43.25008,"lon":5.38911,"is_reserved":false,"is_disabled":false,"rental_uris":{"android":"levelo://app?vid=92c1e117-f0fb-499c-b1b6-dfcc6283b817","ios":"levelo://app?vid=92c1e117-f0fb-499c-b1b6-dfcc6283b817"},"vehicle_type_id":"4","last_reported":1733479839,"current_range_meters":38800,"station_id":"ce4bhgp2rcd13ifvqfd0","pricing_plan_id":"cebpf4jnsgd1na2vs0mg"},{"bike_id":"dfc34250-e1ed-4fcb-81fa-8837a31e133c","system_id":"levelo_inurba_marseille","lat":43.25582,"lon":5.38242,"is_reserved":false,"is_disabled":false,"rental_uris":{"android":"levelo://app?vid=dfc34250-e1ed-4fcb-81fa-8837a31e133c","ios":"levelo://app?vid=dfc34250-e1ed-4fcb-81fa-8837a31e133c"},"vehicle_type_id":"4","last_reported":1733479839,"current_range_meters":38800,"station_id":"ce4bhih2rcd13ifvqfs0","pricing_plan_id":"cebpf4jnsgd1na2vs0mg"},{"bike_id":"f585354a-3930-44af-aa24-ae9fa241cf82","system_id":"levelo_inurba_marseille","lat":43.30136,"lon":5.39868,"is_reserved":false,"is_disabled":false,"rental_uris":{"android":"levelo://app?vid=f585354a-3930-44af-aa24-ae9fa241cf82","ios":"levelo://app?vid=f585354a-3930-44af-aa24-ae9fa241cf82"},"vehicle_type_id":"4","last_reported":1733479839,"current_range_meters":16400,"station_id":"ce4bh0h2rcd13ifvqd40","pricing_plan_id":"cebpf4jnsgd1na2vs0mg"},{"bike_id":"38868a40-3c03-4479-9756-8a74867af212","system_id":"levelo_inurba_marseille","lat":43.27944,"lon":5.41039,"is_reserved":false,"is_disabled":false,"rental_uris":{"android":"levelo://app?vid=38868a40-3c03-4479-9756-8a74867af212","ios":"levelo://app?vid=38868a40-3c03-4479-9756-8a74867af212"},"vehicle_type_id":"4","last_reported":1733479839,"current_range_meters":25200,"station_id":"ce4bhnp2rcd13ifvqh0g","pricing_plan_id":"cebpf4jnsgd1na2vs0mg"},{"bike_id":"1fe39c46-689d-4ef3-85ac-95a61cc44bff","system_id":"levelo_inurba_marseille","lat":43.29034,"lon":5.37555,"is_reserved":false,"is_disabled":true,"rental_uris":{"android":"levelo://app?vid=1fe39c46-689d-4ef3-85ac-95a61cc44bff","ios":"levelo://app?vid=1fe39c46-689d-4ef3-85ac-95a61cc44bff"},"vehicle_type_id":"4","last_reported":1733479839,"current_range_meters":0,"station_id":"ce4bh692rcd13ifvqe90","pricing_plan_id":"cebpf4jnsgd1na2vs0mg"},{"bike_id":"619f2d1c-db14-4404-98cd-0d54caa9d1c0","system_id":"levelo_inurba_marseille","lat":43.27937,"lon":5.4105,"is_reserved":false,"is_disabled":false,"rental_uris":{"android":"levelo://app?vid=619f2d1c-db14-4404-98cd-0d54caa9d1c0","ios":"levelo://app?vid=619f2d1c-db14-4404-98cd-0d54caa9d1c0"},"vehicle_type_id":"4","last_reported":1733479839,"current_range_meters":28400,"station_id":"ce4bhnp2rcd13ifvqh0g","pricing_plan_id":"cebpf4jnsgd1na2vs0mg"},{"bike_id":"0d76dbf6-5e40-455b-a0e6-70fb0b70c5f9","system_id":"levelo_inurba_marseille","lat":43.32366,"lon":5.38889,"is_reserved":false,"is_disabled":false,"rental_uris":{"android":"levelo://app?vid=0d76dbf6-5e40-455b-a0e6-70fb0b70c5f9","ios":"levelo://app?vid=0d76dbf6-5e40-455b-a0e6-70fb0b70c5f9"},"vehicle_type_id":"4","last_reported":1733479839,"current_range_meters":37600,"station_id":"ce4bhqp2rcd13ifvqhog","pricing_plan_id":"cebpf4jnsgd1na2vs0mg"},{"bike_id":"bb33fa0c-b703-4470-8119-8d67c160e4d2","system_id":"levelo_inurba_marseille","lat":43.25081,"lon":5.39511,"is_reserved":false,"is_disabled":false,"rental_uris":{"android":"levelo://app?vid=bb33fa0c-b703-4470-8119-8d67c160e4d2","ios":"levelo://app?vid=bb33fa0c-b703-4470-8119-8d67c160e4d2"},"vehicle_type_id":"4","last_reported":1733479839,"current_range_meters":37600,"station_id":"ce4bhm12rcd13ifvqgkg","pricing_plan_id":"cebpf4jnsgd1na2vs0mg"},{"bike_id":"2f3968e7-9336-4ee4-ba78-8e92c0a818cc","system_id":"levelo_inurba_marseille","lat":43.31322,"lon":5.36647,"is_reserved":false,"is_disabled":true,"rental_uris":{"android":"levelo://app?vid=2f3968e7-9336-4ee4-ba78-8e92c0a818cc","ios":"levelo://app?vid=2f3968e7-9336-4ee4-ba78-8e92c0a818cc"},"vehicle_type_id":"4","last_reported":1733479839,"current_range_meters":0,"station_id":"","pricing_plan_id":"cebpf4jnsgd1na2vs0mg"},{"bike_id":"5f2796fe-b5c1-4717-815c-67bb4234dfbc","system_id":"levelo_inurba_marseille","lat":43.27974,"lon":5.38746,"is_reserved":false,"is_disabled":false,"rental_uris":{"android":"levelo://app?vid=5f2796fe-b5c1-4717-815c-67bb4234dfbc","ios":"levelo://app?vid=5f2796fe-b5c1-4717-815c-67bb4234dfbc"},"vehicle_type_id":"4","last_reported":1733479839,"current_range_meters":12000,"station_id":"ce4bhg12rcd13ifvqf80","pricing_plan_id":"cebpf4jnsgd1na2vs0mg"},{"bike_id":"4d3faf3b-c455-4a80-9648-56dd8a851d4f","system_id":"levelo_inurba_marseille","lat":43.24182,"lon":5.39734,"is_reserved":false,"is_disabled":false,"rental_uris":{"android":"levelo://app?vid=4d3faf3b-c455-4a80-9648-56dd8a851d4f","ios":"levelo://app?vid=4d3faf3b-c455-4a80-9648-56dd8a851d4f"},"vehicle_type_id":"4","last_reported":1733479839,"current_range_meters":22400,"station_id":"ce4bhn12rcd13ifvqgpg","pricing_plan_id":"cebpf4jnsgd1na2vs0mg"},{"bike_id":"9537ead7-cfd2-40c1-89fd-1e8c65f06850","system_id":"levelo_inurba_marseille","lat":43.32477,"lon":5.36566,"is_reserved":false,"is_disabled":false,"rental_uris":{"android":"levelo://app?vid=9537ead7-cfd2-40c1-89fd-1e8c65f06850","ios":"levelo://app?vid=9537ead7-cfd2-40c1-89fd-1e8c65f06850"},"vehicle_type_id":"4","last_reported":1733479839,"current_range_meters":14400,"station_id":"ce4bhs12rcd13ifvqhvg","pricing_plan_id":"cebpf4jnsgd1na2vs0mg"},{"bike_id":"a4195ee0-472a-4f03-b955-5b202da4d03a","system_id":"levelo_inurba_marseille","lat":43.23173,"lon":5.39975,"is_reserved":false,"is_disabled":false,"rental_uris":{"android":"levelo://app?vid=a4195ee0-472a-4f03-b955-5b202da4d03a","ios":"levelo://app?vid=a4195ee0-472a-4f03-b955-5b202da4d03a"},"vehicle_type_id":"4","last_reported":1733479839,"current_range_meters":18800,"station_id":"ce4bhn12rcd13ifvqgqg","pricing_plan_id":"cebpf4jnsgd1na2vs0mg"},{"bike_id":"4f364583-ef31-4fd7-b03f-e8563c2d4cc3","system_id":"levelo_inurba_marseille","lat":43.26682,"lon":5.38269,"is_reserved":false,"is_disabled":false,"rental_uris":{"android":"levelo://app?vid=4f364583-ef31-4fd7-b03f-e8563c2d4cc3","ios":"levelo://app?vid=4f364583-ef31-4fd7-b03f-e8563c2d4cc3"},"vehicle_type_id":"4","last_reported":1733479839,"current_range_meters":3200,"station_id":"ce4bhg92rcd13ifvqf90","pricing_plan_id":"cebpf4jnsgd1na2vs0mg"},{"bike_id":"430ac931-ab07-4cc1-a3d7-d0a15e798c88","system_id":"levelo_inurba_marseille","lat":43.3254,"lon":5.41444,"is_reserved":false,"is_disabled":false,"rental_uris":{"android":"levelo://app?vid=430ac931-ab07-4cc1-a3d7-d0a15e798c88","ios":"levelo://app?vid=430ac931-ab07-4cc1-a3d7-d0a15e798c88"},"vehicle_type_id":"4","last_reported":1733479839,"current_range_meters":31200,"station_id":"ce4bhq12rcd13ifvqhhg","pricing_plan_id":"cebpf4jnsgd1na2vs0mg"},{"bike_id":"5fc95382-6b43-43ae-b315-2cbd8f3350df","system_id":"levelo_inurba_marseille","lat":43.29302,"lon":5.37181,"is_reserved":false,"is_disabled":false,"rental_uris":{"android":"levelo://app?vid=5fc95382-6b43-43ae-b315-2cbd8f3350df","ios":"levelo://app?vid=5fc95382-6b43-43ae-b315-2cbd8f3350df"},"vehicle_type_id":"4","last_reported":1733479839,"current_range_meters":36800,"station_id":"ce4bgh92rcd13ifvqb40","pricing_plan_id":"cebpf4jnsgd1na2vs0mg"},{"bike_id":"18c465ad-16a0-4d72-a337-11a15929aab8","system_id":"levelo_inurba_marseille","lat":43.239606,"lon":5.366203,"is_reserved":false,"is_disabled":false,"rental_uris":{"android":"levelo://app?vid=18c465ad-16a0-4d72-a337-11a15929aab8","ios":"levelo://app?vid=18c465ad-16a0-4d72-a337-11a15929aab8"},"vehicle_type_id":"4","last_reported":1733479839,"current_range_meters":11200,"station_id":"ce4bhi12rcd13ifvqfp0","pricing_plan_id":"cebpf4jnsgd1na2vs0mg"},{"bike_id":"93726708-3bfd-4abf-9ebb-1223db59e330","system_id":"levelo_inurba_marseille","lat":43.27209,"lon":5.39172,"is_reserved":false,"is_disabled":false,"rental_uris":{"android":"levelo://app?vid=93726708-3bfd-4abf-9ebb-1223db59e330","ios":"levelo://app?vid=93726708-3bfd-4abf-9ebb-1223db59e330"},"vehicle_type_id":"4","last_reported":1733479839,"current_range_meters":26800,"station_id":"ce4bhhp2rcd13ifvqfm0","pricing_plan_id":"cebpf4jnsgd1na2vs0mg"},{"bike_id":"8182dc80-123b-4814-a882-94b88bee821f","system_id":"levelo_inurba_marseille","lat":43.3372,"lon":5.39184,"is_reserved":false,"is_disabled":false,"rental_uris":{"android":"levelo://app?vid=8182dc80-123b-4814-a882-94b88bee821f","ios":"levelo://app?vid=8182dc80-123b-4814-a882-94b88bee821f"},"vehicle_type_id":"4","last_reported":1733479839,"current_range_meters":24000,"station_id":"ce4bhr92rcd13ifvqhsg","pricing_plan_id":"cebpf4jnsgd1na2vs0mg"},{"bike_id":"b0025f03-f4b7-4e1f-b2ae-d738bfb01f75","system_id":"levelo_inurba_marseille","lat":43.31357,"lon":5.37683,"is_reserved":false,"is_disabled":true,"rental_uris":{"android":"levelo://app?vid=b0025f03-f4b7-4e1f-b2ae-d738bfb01f75","ios":"levelo://app?vid=b0025f03-f4b7-4e1f-b2ae-d738bfb01f75"},"vehicle_type_id":"4","last_reported":1733479839,"current_range_meters":34800,"station_id":"","pricing_plan_id":"cebpf4jnsgd1na2vs0mg"},{"bike_id":"d02e100c-9c41-4e8e-8239-0d786a927167","system_id":"levelo_inurba_marseille","lat":43.29678,"lon":5.37287,"is_reserved":false,"is_disabled":false,"rental_uris":{"android":"levelo://app?vid=d02e100c-9c41-4e8e-8239-0d786a927167","ios":"levelo://app?vid=d02e100c-9c41-4e8e-8239-0d786a927167"},"vehicle_type_id":"4","last_reported":1733479839,"current_range_meters":38800,"station_id":"ce4bgk12rcd13ifvqbj0","pricing_plan_id":"cebpf4jnsgd1na2vs0mg"},{"bike_id":"6262ead5-c196-4e30-a246-b94e57768c1a","system_id":"levelo_inurba_marseille","lat":43.32479,"lon":5.36575,"is_reserved":false,"is_disabled":false,"rental_uris":{"android":"levelo://app?vid=6262ead5-c196-4e30-a246-b94e57768c1a","ios":"levelo://app?vid=6262ead5-c196-4e30-a246-b94e57768c1a"},"vehicle_type_id":"4","last_reported":1733479839,"current_range_meters":30400,"station_id":"ce4bhs12rcd13ifvqhvg","pricing_plan_id":"cebpf4jnsgd1na2vs0mg"},{"bike_id":"439b8fee-9512-4932-8e24-be55af22cd47","system_id":"levelo_inurba_marseille","lat":43.24067,"lon":5.37763,"is_reserved":false,"is_disabled":false,"rental_uris":{"android":"levelo://app?vid=439b8fee-9512-4932-8e24-be55af22cd47","ios":"levelo://app?vid=439b8fee-9512-4932-8e24-be55af22cd47"},"vehicle_type_id":"4","last_reported":1733479839,"current_range_meters":35200,"station_id":"ce4bhnp2rcd13ifvqgvg","pricing_plan_id":"cebpf4jnsgd1na2vs0mg"},{"bike_id":"7fc9df7f-130a-4183-b01a-d6d499410853","system_id":"levelo_inurba_marseille","lat":43.27809,"lon":5.40714,"is_reserved":false,"is_disabled":false,"rental_uris":{"android":"levelo://app?vid=7fc9df7f-130a-4183-b01a-d6d499410853","ios":"levelo://app?vid=7fc9df7f-130a-4183-b01a-d6d499410853"},"vehicle_type_id":"4","last_reported":1733479839,"current_range_meters":36400,"station_id":"ce4bhnh2rcd13ifvqgtg","pricing_plan_id":"cebpf4jnsgd1na2vs0mg"},{"bike_id":"293b49e5-f678-46e3-a4e5-a16805e4478b","system_id":"levelo_inurba_marseille","lat":43.30428,"lon":5.39744,"is_reserved":false,"is_disabled":false,"rental_uris":{"android":"levelo://app?vid=293b49e5-f678-46e3-a4e5-a16805e4478b","ios":"levelo://app?vid=293b49e5-f678-46e3-a4e5-a16805e4478b"},"vehicle_type_id":"4","last_reported":1733479839,"current_range_meters":23200,"station_id":"ce4bh092rcd13ifvqd20","pricing_plan_id":"cebpf4jnsgd1na2vs0mg"},{"bike_id":"f10c5e90-601b-4bd4-87e7-4cbb6a13a4fb","system_id":"levelo_inurba_marseille","lat":43.26126,"lon":5.39272,"is_reserved":false,"is_disabled":true,"rental_uris":{"android":"levelo://app?vid=f10c5e90-601b-4bd4-87e7-4cbb6a13a4fb","ios":"levelo://app?vid=f10c5e90-601b-4bd4-87e7-4cbb6a13a4fb"},"vehicle_type_id":"4","last_reported":1733479839,"current_range_meters":0,"station_id":"","pricing_plan_id":"cebpf4jnsgd1na2vs0mg"},{"bike_id":"1d46f849-23af-4abf-834e-62814955ddf2","system_id":"levelo_inurba_marseille","lat":43.29554,"lon":5.42283,"is_reserved":false,"is_disabled":false,"rental_uris":{"android":"levelo://app?vid=1d46f849-23af-4abf-834e-62814955ddf2","ios":"levelo://app?vid=1d46f849-23af-4abf-834e-62814955ddf2"},"vehicle_type_id":"4","last_reported":1733479839,"current_range_meters":33600,"station_id":"ce4bhph2rcd13ifvqhdg","pricing_plan_id":"cebpf4jnsgd1na2vs0mg"},{"bike_id":"5f2610cd-5d19-4d64-909f-9387089c6d51","system_id":"levelo_inurba_marseille","lat":43.29913,"lon":5.39739,"is_reserved":false,"is_disabled":false,"rental_uris":{"android":"levelo://app?vid=5f2610cd-5d19-4d64-909f-9387089c6d51","ios":"levelo://app?vid=5f2610cd-5d19-4d64-909f-9387089c6d51"},"vehicle_type_id":"4","last_reported":1733479839,"current_range_meters":36000,"station_id":"ce4bh0h2rcd13ifvqd50","pricing_plan_id":"cebpf4jnsgd1na2vs0mg"},{"bike_id":"665ab737-3737-49cc-84c2-0ab5fee4205c","system_id":"levelo_inurba_marseille","lat":43.2593,"lon":5.40911,"is_reserved":false,"is_disabled":false,"rental_uris":{"android":"levelo://app?vid=665ab737-3737-49cc-84c2-0ab5fee4205c","ios":"levelo://app?vid=665ab737-3737-49cc-84c2-0ab5fee4205c"},"vehicle_type_id":"4","last_reported":1733479839,"current_range_meters":36400,"station_id":"ce4bhm92rcd13ifvqglg","pricing_plan_id":"cebpf4jnsgd1na2vs0mg"},{"bike_id":"a690587d-2602-481f-b7ff-90bda5e30113","system_id":"levelo_inurba_marseille","lat":43.29522,"lon":5.37505,"is_reserved":false,"is_disabled":false,"rental_uris":{"android":"levelo://app?vid=a690587d-2602-481f-b7ff-90bda5e30113","ios":"levelo://app?vid=a690587d-2602-481f-b7ff-90bda5e30113"},"vehicle_type_id":"4","last_reported":1733479839,"current_range_meters":27600,"station_id":"ce4bgkp2rcd13ifvqbmg","pricing_plan_id":"cebpf4jnsgd1na2vs0mg"},{"bike_id":"c392e4c3-b551-4938-bf4d-657774532cf7","system_id":"levelo_inurba_marseille","lat":43.30529,"lon":5.36534,"is_reserved":false,"is_disabled":false,"rental_uris":{"android":"levelo://app?vid=c392e4c3-b551-4938-bf4d-657774532cf7","ios":"levelo://app?vid=c392e4c3-b551-4938-bf4d-657774532cf7"},"vehicle_type_id":"4","last_reported":1733479839,"current_range_meters":30800,"station_id":"ce4bgs12rcd13ifvqcag","pricing_plan_id":"cebpf4jnsgd1na2vs0mg"},{"bike_id":"0e516958-fe02-46a6-9187-d1cfa5dfa278","system_id":"levelo_inurba_marseille","lat":43.25931,"lon":5.40907,"is_reserved":false,"is_disabled":false,"rental_uris":{"android":"levelo://app?vid=0e516958-fe02-46a6-9187-d1cfa5dfa278","ios":"levelo://app?vid=0e516958-fe02-46a6-9187-d1cfa5dfa278"},"vehicle_type_id":"4","last_reported":1733479839,"current_range_meters":16400,"station_id":"ce4bhm92rcd13ifvqglg","pricing_plan_id":"cebpf4jnsgd1na2vs0mg"},{"bike_id":"915111e1-a5f6-4e32-9518-02dbfe422981","system_id":"levelo_inurba_marseille","lat":43.31353,"lon":5.36731,"is_reserved":false,"is_disabled":false,"rental_uris":{"android":"levelo://app?vid=915111e1-a5f6-4e32-9518-02dbfe422981","ios":"levelo://app?vid=915111e1-a5f6-4e32-9518-02dbfe422981"},"vehicle_type_id":"4","last_reported":1733479839,"current_range_meters":24800,"station_id":"ce4bgr92rcd13ifvqc6g","pricing_plan_id":"cebpf4jnsgd1na2vs0mg"},{"bike_id":"61fcc93e-8082-40fa-8895-4f3d80464b96","system_id":"levelo_inurba_marseille","lat":43.26193,"lon":5.37446,"is_reserved":false,"is_disabled":false,"rental_uris":{"android":"levelo://app?vid=61fcc93e-8082-40fa-8895-4f3d80464b96","ios":"levelo://app?vid=61fcc93e-8082-40fa-8895-4f3d80464b96"},"vehicle_type_id":"4","last_reported":1733479839,"current_range_meters":24800,"station_id":"ce4bhgp2rcd13ifvqfc0","pricing_plan_id":"cebpf4jnsgd1na2vs0mg"},{"bike_id":"20b7188f-e505-43bb-9200-5e9953d9e57f","system_id":"levelo_inurba_marseille","lat":43.2396,"lon":5.36637,"is_reserved":false,"is_disabled":false,"rental_uris":{"android":"levelo://app?vid=20b7188f-e505-43bb-9200-5e9953d9e57f","ios":"levelo://app?vid=20b7188f-e505-43bb-9200-5e9953d9e57f"},"vehicle_type_id":"4","last_reported":1733479839,"current_range_meters":30000,"station_id":"ce4bhi12rcd13ifvqfp0","pricing_plan_id":"cebpf4jnsgd1na2vs0mg"},{"bike_id":"d5645c80-329f-4db5-8bb3-00864515a4ca","system_id":"levelo_inurba_marseille","lat":43.29368,"lon":5.37847,"is_reserved":false,"is_disabled":false,"rental_uris":{"android":"levelo://app?vid=d5645c80-329f-4db5-8bb3-00864515a4ca","ios":"levelo://app?vid=d5645c80-329f-4db5-8bb3-00864515a4ca"},"vehicle_type_id":"4","last_reported":1733479839,"current_range_meters":6800,"station_id":"ce4bgjh2rcd13ifvqbf0","pricing_plan_id":"cebpf4jnsgd1na2vs0mg"},{"bike_id":"fe3ddafe-a956-4417-ad95-2d879d07eaed","system_id":"levelo_inurba_marseille","lat":43.30136,"lon":5.39856,"is_reserved":false,"is_disabled":false,"rental_uris":{"android":"levelo://app?vid=fe3ddafe-a956-4417-ad95-2d879d07eaed","ios":"levelo://app?vid=fe3ddafe-a956-4417-ad95-2d879d07eaed"},"vehicle_type_id":"4","last_reported":1733479839,"current_range_meters":15200,"station_id":"ce4bh0h2rcd13ifvqd40","pricing_plan_id":"cebpf4jnsgd1na2vs0mg"},{"bike_id":"9d4c73ff-5d2a-4a80-9057-69b6c9c3a763","system_id":"levelo_inurba_marseille","lat":43.26944,"lon":5.38635,"is_reserved":false,"is_disabled":false,"rental_uris":{"android":"levelo://app?vid=9d4c73ff-5d2a-4a80-9057-69b6c9c3a763","ios":"levelo://app?vid=9d4c73ff-5d2a-4a80-9057-69b6c9c3a763"},"vehicle_type_id":"4","last_reported":1733479839,"current_range_meters":36800,"station_id":"ce4bhh92rcd13ifvqfh0","pricing_plan_id":"cebpf4jnsgd1na2vs0mg"},{"bike_id":"a4d3b324-e08a-49a2-ae58-8854d2d2da3b","system_id":"levelo_inurba_marseille","lat":43.31785,"lon":5.37273,"is_reserved":false,"is_disabled":false,"rental_uris":{"android":"levelo://app?vid=a4d3b324-e08a-49a2-ae58-8854d2d2da3b","ios":"levelo://app?vid=a4d3b324-e08a-49a2-ae58-8854d2d2da3b"},"vehicle_type_id":"4","last_reported":1733479839,"current_range_meters":34000,"station_id":"","pricing_plan_id":"cebpf4jnsgd1na2vs0mg"},{"bike_id":"cdfe6590-4984-4014-86c8-6dd70747c27a","system_id":"levelo_inurba_marseille","lat":43.29737,"lon":5.37434,"is_reserved":false,"is_disabled":true,"rental_uris":{"android":"levelo://app?vid=cdfe6590-4984-4014-86c8-6dd70747c27a","ios":"levelo://app?vid=cdfe6590-4984-4014-86c8-6dd70747c27a"},"vehicle_type_id":"4","last_reported":1733479839,"current_range_meters":0,"station_id":"","pricing_plan_id":"cebpf4jnsgd1na2vs0mg"},{"bike_id":"3ee7cc12-5a0c-4c73-a8df-8def52948c8e","system_id":"levelo_inurba_marseille","lat":43.26942,"lon":5.38639,"is_reserved":false,"is_disabled":false,"rental_uris":{"android":"levelo://app?vid=3ee7cc12-5a0c-4c73-a8df-8def52948c8e","ios":"levelo://app?vid=3ee7cc12-5a0c-4c73-a8df-8def52948c8e"},"vehicle_type_id":"4","last_reported":1733479839,"current_range_meters":32000,"station_id":"ce4bhh92rcd13ifvqfh0","pricing_plan_id":"cebpf4jnsgd1na2vs0mg"},{"bike_id":"4d0dadab-e6e1-4e5a-9b42-cd848beb1025","system_id":"levelo_inurba_marseille","lat":43.25574,"lon":5.38238,"is_reserved":false,"is_disabled":false,"rental_uris":{"android":"levelo://app?vid=4d0dadab-e6e1-4e5a-9b42-cd848beb1025","ios":"levelo://app?vid=4d0dadab-e6e1-4e5a-9b42-cd848beb1025"},"vehicle_type_id":"4","last_reported":1733479839,"current_range_meters":18800,"station_id":"ce4bhih2rcd13ifvqfs0","pricing_plan_id":"cebpf4jnsgd1na2vs0mg"},{"bike_id":"8075e1e4-c7e4-4ef6-8da3-fa46955ebf15","system_id":"levelo_inurba_marseille","lat":43.309463,"lon":5.390337,"is_reserved":false,"is_disabled":false,"rental_uris":{"android":"levelo://app?vid=8075e1e4-c7e4-4ef6-8da3-fa46955ebf15","ios":"levelo://app?vid=8075e1e4-c7e4-4ef6-8da3-fa46955ebf15"},"vehicle_type_id":"4","last_reported":1733479839,"current_range_meters":36400,"station_id":"ce4bgup2rcd13ifvqco0","pricing_plan_id":"cebpf4jnsgd1na2vs0mg"},{"bike_id":"2bd9e227-9504-45f5-94e5-b6a337568cb4","system_id":"levelo_inurba_marseille","lat":43.3035,"lon":5.41873,"is_reserved":false,"is_disabled":false,"rental_uris":{"android":"levelo://app?vid=2bd9e227-9504-45f5-94e5-b6a337568cb4","ios":"levelo://app?vid=2bd9e227-9504-45f5-94e5-b6a337568cb4"},"vehicle_type_id":"4","last_reported":1733479839,"current_range_meters":34800,"station_id":"ce4bhop2rcd13ifvqh7g","pricing_plan_id":"cebpf4jnsgd1na2vs0mg"},{"bike_id":"6fb00969-21f8-4503-a74e-e887bd6407a1","system_id":"levelo_inurba_marseille","lat":43.27489,"lon":5.42449,"is_reserved":false,"is_disabled":false,"rental_uris":{"android":"levelo://app?vid=6fb00969-21f8-4503-a74e-e887bd6407a1","ios":"levelo://app?vid=6fb00969-21f8-4503-a74e-e887bd6407a1"},"vehicle_type_id":"4","last_reported":1733479839,"current_range_meters":36400,"station_id":"ce4bhn92rcd13ifvqgrg","pricing_plan_id":"cebpf4jnsgd1na2vs0mg"},{"bike_id":"fcd9936f-372a-4782-a0a1-fe2ee8690016","system_id":"levelo_inurba_marseille","lat":43.26682,"lon":5.38264,"is_reserved":false,"is_disabled":false,"rental_uris":{"android":"levelo://app?vid=fcd9936f-372a-4782-a0a1-fe2ee8690016","ios":"levelo://app?vid=fcd9936f-372a-4782-a0a1-fe2ee8690016"},"vehicle_type_id":"4","last_reported":1733479839,"current_range_meters":36400,"station_id":"ce4bhg92rcd13ifvqf90","pricing_plan_id":"cebpf4jnsgd1na2vs0mg"},{"bike_id":"987a5ab4-d60c-480c-94b6-7cab38975402","system_id":"levelo_inurba_marseille","lat":43.29748,"lon":5.37971,"is_reserved":false,"is_disabled":true,"rental_uris":{"android":"levelo://app?vid=987a5ab4-d60c-480c-94b6-7cab38975402","ios":"levelo://app?vid=987a5ab4-d60c-480c-94b6-7cab38975402"},"vehicle_type_id":"4","last_reported":1733479839,"current_range_meters":0,"station_id":"","pricing_plan_id":"cebpf4jnsgd1na2vs0mg"},{"bike_id":"2c4596ad-0ad9-4016-b92b-0093349de2b4","system_id":"levelo_inurba_marseille","lat":43.30755,"lon":5.38187,"is_reserved":false,"is_disabled":true,"rental_uris":{"android":"levelo://app?vid=2c4596ad-0ad9-4016-b92b-0093349de2b4","ios":"levelo://app?vid=2c4596ad-0ad9-4016-b92b-0093349de2b4"},"vehicle_type_id":"4","last_reported":1733479839,"current_range_meters":0,"station_id":"","pricing_plan_id":"cebpf4jnsgd1na2vs0mg"},{"bike_id":"b73758c9-aa25-48b7-a647-0b58f584940e","system_id":"levelo_inurba_marseille","lat":43.3149,"lon":5.37294,"is_reserved":false,"is_disabled":false,"rental_uris":{"android":"levelo://app?vid=b73758c9-aa25-48b7-a647-0b58f584940e","ios":"levelo://app?vid=b73758c9-aa25-48b7-a647-0b58f584940e"},"vehicle_type_id":"4","last_reported":1733479839,"current_range_meters":17600,"station_id":"ce4bgt12rcd13ifvqcd0","pricing_plan_id":"cebpf4jnsgd1na2vs0mg"},{"bike_id":"8a696230-0cd8-4e37-adec-e0ada77baafb","system_id":"levelo_inurba_marseille","lat":43.29531,"lon":5.38548,"is_reserved":false,"is_disabled":true,"rental_uris":{"android":"levelo://app?vid=8a696230-0cd8-4e37-adec-e0ada77baafb","ios":"levelo://app?vid=8a696230-0cd8-4e37-adec-e0ada77baafb"},"vehicle_type_id":"4","last_reported":1733479839,"current_range_meters":30800,"station_id":"ce4bgih2rcd13ifvqba0","pricing_plan_id":"cebpf4jnsgd1na2vs0mg"},{"bike_id":"b7ab8c01-033f-4395-8276-23c850ad3d02","system_id":"levelo_inurba_marseille","lat":43.30348,"lon":5.36626,"is_reserved":false,"is_disabled":true,"rental_uris":{"android":"levelo://app?vid=b7ab8c01-033f-4395-8276-23c850ad3d02","ios":"levelo://app?vid=b7ab8c01-033f-4395-8276-23c850ad3d02"},"vehicle_type_id":"4","last_reported":1733479839,"current_range_meters":0,"station_id":"","pricing_plan_id":"cebpf4jnsgd1na2vs0mg"},{"bike_id":"0279b2c0-513c-422a-b9fb-9fc99372925b","system_id":"levelo_inurba_marseille","lat":43.31563,"lon":5.38921,"is_reserved":false,"is_disabled":false,"rental_uris":{"android":"levelo://app?vid=0279b2c0-513c-422a-b9fb-9fc99372925b","ios":"levelo://app?vid=0279b2c0-513c-422a-b9fb-9fc99372925b"},"vehicle_type_id":"4","last_reported":1733479839,"current_range_meters":18800,"station_id":"","pricing_plan_id":"cebpf4jnsgd1na2vs0mg"},{"bike_id":"f4676a9b-685c-4e8f-a479-8e34f48f1df5","system_id":"levelo_inurba_marseille","lat":43.33714,"lon":5.39172,"is_reserved":false,"is_disabled":false,"rental_uris":{"android":"levelo://app?vid=f4676a9b-685c-4e8f-a479-8e34f48f1df5","ios":"levelo://app?vid=f4676a9b-685c-4e8f-a479-8e34f48f1df5"},"vehicle_type_id":"4","last_reported":1733479839,"current_range_meters":38000,"station_id":"ce4bhr92rcd13ifvqhsg","pricing_plan_id":"cebpf4jnsgd1na2vs0mg"},{"bike_id":"b15a802f-09bb-4088-aa70-fff1dfefff70","system_id":"levelo_inurba_marseille","lat":43.23153,"lon":5.43722,"is_reserved":false,"is_disabled":false,"rental_uris":{"android":"levelo://app?vid=b15a802f-09bb-4088-aa70-fff1dfefff70","ios":"levelo://app?vid=b15a802f-09bb-4088-aa70-fff1dfefff70"},"vehicle_type_id":"4","last_reported":1733479839,"current_range_meters":28000,"station_id":"ce4bhmp2rcd13ifvqgog","pricing_plan_id":"cebpf4jnsgd1na2vs0mg"},{"bike_id":"aabdb257-8888-4229-a0a4-2fbdece78663","system_id":"levelo_inurba_marseille","lat":43.32481,"lon":5.3657,"is_reserved":false,"is_disabled":false,"rental_uris":{"android":"levelo://app?vid=aabdb257-8888-4229-a0a4-2fbdece78663","ios":"levelo://app?vid=aabdb257-8888-4229-a0a4-2fbdece78663"},"vehicle_type_id":"4","last_reported":1733479839,"current_range_meters":26000,"station_id":"ce4bhs12rcd13ifvqhvg","pricing_plan_id":"cebpf4jnsgd1na2vs0mg"},{"bike_id":"01fc086f-11d0-4126-a5a7-f83f36005f81","system_id":"levelo_inurba_marseille","lat":43.317428,"lon":5.368697,"is_reserved":false,"is_disabled":false,"rental_uris":{"android":"levelo://app?vid=01fc086f-11d0-4126-a5a7-f83f36005f81","ios":"levelo://app?vid=01fc086f-11d0-4126-a5a7-f83f36005f81"},"vehicle_type_id":"4","last_reported":1733479839,"current_range_meters":35200,"station_id":"","pricing_plan_id":"cebpf4jnsgd1na2vs0mg"},{"bike_id":"3d769a68-e6a2-4c4a-88b0-3c686dbb241d","system_id":"levelo_inurba_marseille","lat":43.28912,"lon":5.394998,"is_reserved":false,"is_disabled":false,"rental_uris":{"android":"levelo://app?vid=3d769a68-e6a2-4c4a-88b0-3c686dbb241d","ios":"levelo://app?vid=3d769a68-e6a2-4c4a-88b0-3c686dbb241d"},"vehicle_type_id":"4","last_reported":1733479839,"current_range_meters":3600,"station_id":"","pricing_plan_id":"cebpf4jnsgd1na2vs0mg"},{"bike_id":"534f69d0-d983-4367-834e-f6ad06034edc","system_id":"levelo_inurba_marseille","lat":43.30183,"lon":5.36604,"is_reserved":false,"is_disabled":false,"rental_uris":{"android":"levelo://app?vid=534f69d0-d983-4367-834e-f6ad06034edc","ios":"levelo://app?vid=534f69d0-d983-4367-834e-f6ad06034edc"},"vehicle_type_id":"4","last_reported":1733479839,"current_range_meters":36400,"station_id":"ce4bgrh2rcd13ifvqc8g","pricing_plan_id":"cebpf4jnsgd1na2vs0mg"},{"bike_id":"11e86528-eb6b-4391-86a5-9b1822d069a4","system_id":"levelo_inurba_marseille","lat":43.278805,"lon":5.388003,"is_reserved":false,"is_disabled":true,"rental_uris":{"android":"levelo://app?vid=11e86528-eb6b-4391-86a5-9b1822d069a4","ios":"levelo://app?vid=11e86528-eb6b-4391-86a5-9b1822d069a4"},"vehicle_type_id":"4","last_reported":1733479839,"current_range_meters":6000,"station_id":"","pricing_plan_id":"cebpf4jnsgd1na2vs0mg"},{"bike_id":"6cc6805f-c0ca-4585-bdf1-b5a0339762b0","system_id":"levelo_inurba_marseille","lat":43.29027,"lon":5.42744,"is_reserved":false,"is_disabled":true,"rental_uris":{"android":"levelo://app?vid=6cc6805f-c0ca-4585-bdf1-b5a0339762b0","ios":"levelo://app?vid=6cc6805f-c0ca-4585-bdf1-b5a0339762b0"},"vehicle_type_id":"4","last_reported":1733479839,"current_range_meters":0,"station_id":"","pricing_plan_id":"cebpf4jnsgd1na2vs0mg"},{"bike_id":"745e02a4-2569-4b79-ac5c-e59bcd1d6a3e","system_id":"levelo_inurba_marseille","lat":43.24074,"lon":5.37754,"is_reserved":false,"is_disabled":false,"rental_uris":{"android":"levelo://app?vid=745e02a4-2569-4b79-ac5c-e59bcd1d6a3e","ios":"levelo://app?vid=745e02a4-2569-4b79-ac5c-e59bcd1d6a3e"},"vehicle_type_id":"4","last_reported":1733479839,"current_range_meters":31200,"station_id":"ce4bhnp2rcd13ifvqgvg","pricing_plan_id":"cebpf4jnsgd1na2vs0mg"},{"bike_id":"4e6fc26f-c1d5-4d84-ac5b-7d384b8c30d5","system_id":"levelo_inurba_marseille","lat":43.32362,"lon":5.36743,"is_reserved":false,"is_disabled":false,"rental_uris":{"android":"levelo://app?vid=4e6fc26f-c1d5-4d84-ac5b-7d384b8c30d5","ios":"levelo://app?vid=4e6fc26f-c1d5-4d84-ac5b-7d384b8c30d5"},"vehicle_type_id":"4","last_reported":1733479839,"current_range_meters":7200,"station_id":"ce4bhsh2rcd13ifvqi2g","pricing_plan_id":"cebpf4jnsgd1na2vs0mg"},{"bike_id":"8d1c8b92-79bb-4181-b0d2-5e94db1a14d0","system_id":"levelo_inurba_marseille","lat":43.29972,"lon":5.3826,"is_reserved":false,"is_disabled":true,"rental_uris":{"android":"levelo://app?vid=8d1c8b92-79bb-4181-b0d2-5e94db1a14d0","ios":"levelo://app?vid=8d1c8b92-79bb-4181-b0d2-5e94db1a14d0"},"vehicle_type_id":"4","last_reported":1733479839,"current_range_meters":0,"station_id":"","pricing_plan_id":"cebpf4jnsgd1na2vs0mg"},{"bike_id":"66988d75-a9f0-423c-89be-11e06668ead3","system_id":"levelo_inurba_marseille","lat":43.26557,"lon":5.3728,"is_reserved":false,"is_disabled":false,"rental_uris":{"android":"levelo://app?vid=66988d75-a9f0-423c-89be-11e06668ead3","ios":"levelo://app?vid=66988d75-a9f0-423c-89be-11e06668ead3"},"vehicle_type_id":"4","last_reported":1733479839,"current_range_meters":36000,"station_id":"ce4bhg12rcd13ifvqf70","pricing_plan_id":"cebpf4jnsgd1na2vs0mg"},{"bike_id":"f45f7e1b-2a3e-4c70-87f7-6485beb1c1a3","system_id":"levelo_inurba_marseille","lat":43.23149,"lon":5.43704,"is_reserved":false,"is_disabled":false,"rental_uris":{"android":"levelo://app?vid=f45f7e1b-2a3e-4c70-87f7-6485beb1c1a3","ios":"levelo://app?vid=f45f7e1b-2a3e-4c70-87f7-6485beb1c1a3"},"vehicle_type_id":"4","last_reported":1733479839,"current_range_meters":36800,"station_id":"ce4bhmp2rcd13ifvqgog","pricing_plan_id":"cebpf4jnsgd1na2vs0mg"},{"bike_id":"2d4328f5-608e-4ff2-8dbb-502f49d3f46f","system_id":"levelo_inurba_marseille","lat":43.293466,"lon":5.385238,"is_reserved":false,"is_disabled":false,"rental_uris":{"android":"levelo://app?vid=2d4328f5-608e-4ff2-8dbb-502f49d3f46f","ios":"levelo://app?vid=2d4328f5-608e-4ff2-8dbb-502f49d3f46f"},"vehicle_type_id":"4","last_reported":1733479839,"current_range_meters":14400,"station_id":"","pricing_plan_id":"cebpf4jnsgd1na2vs0mg"},{"bike_id":"2e558381-b365-424a-ac88-e39ec193888d","system_id":"levelo_inurba_marseille","lat":43.30943,"lon":5.39037,"is_reserved":false,"is_disabled":false,"rental_uris":{"android":"levelo://app?vid=2e558381-b365-424a-ac88-e39ec193888d","ios":"levelo://app?vid=2e558381-b365-424a-ac88-e39ec193888d"},"vehicle_type_id":"4","last_reported":1733479839,"current_range_meters":38800,"station_id":"ce4bgup2rcd13ifvqco0","pricing_plan_id":"cebpf4jnsgd1na2vs0mg"},{"bike_id":"92cb1211-4e82-42cc-87f8-4a0f9ca72995","system_id":"levelo_inurba_marseille","lat":43.337444,"lon":5.374475,"is_reserved":false,"is_disabled":false,"rental_uris":{"android":"levelo://app?vid=92cb1211-4e82-42cc-87f8-4a0f9ca72995","ios":"levelo://app?vid=92cb1211-4e82-42cc-87f8-4a0f9ca72995"},"vehicle_type_id":"4","last_reported":1733479839,"current_range_meters":36000,"station_id":"","pricing_plan_id":"cebpf4jnsgd1na2vs0mg"},{"bike_id":"7401184e-dcdc-4f69-89e9-1615045c1f8c","system_id":"levelo_inurba_marseille","lat":43.30028,"lon":5.38925,"is_reserved":false,"is_disabled":true,"rental_uris":{"android":"levelo://app?vid=7401184e-dcdc-4f69-89e9-1615045c1f8c","ios":"levelo://app?vid=7401184e-dcdc-4f69-89e9-1615045c1f8c"},"vehicle_type_id":"4","last_reported":1733479839,"current_range_meters":0,"station_id":"","pricing_plan_id":"cebpf4jnsgd1na2vs0mg"},{"bike_id":"05d0c81a-376c-415a-b938-77d0b88830f0","system_id":"levelo_inurba_marseille","lat":43.25815,"lon":5.39426,"is_reserved":false,"is_disabled":false,"rental_uris":{"android":"levelo://app?vid=05d0c81a-376c-415a-b938-77d0b88830f0","ios":"levelo://app?vid=05d0c81a-376c-415a-b938-77d0b88830f0"},"vehicle_type_id":"4","last_reported":1733479839,"current_range_meters":38800,"station_id":"ce4bhip2rcd13ifvqft0","pricing_plan_id":"cebpf4jnsgd1na2vs0mg"},{"bike_id":"787343f7-893d-451c-a723-5896f519b3d7","system_id":"levelo_inurba_marseille","lat":43.24184,"lon":5.39726,"is_reserved":false,"is_disabled":true,"rental_uris":{"android":"levelo://app?vid=787343f7-893d-451c-a723-5896f519b3d7","ios":"levelo://app?vid=787343f7-893d-451c-a723-5896f519b3d7"},"vehicle_type_id":"4","last_reported":1733479839,"current_range_meters":2000,"station_id":"ce4bhn12rcd13ifvqgpg","pricing_plan_id":"cebpf4jnsgd1na2vs0mg"},{"bike_id":"a9098310-9fa9-4986-8d62-a0241863d1f4","system_id":"levelo_inurba_marseille","lat":43.2978,"lon":5.3709,"is_reserved":false,"is_disabled":false,"rental_uris":{"android":"levelo://app?vid=a9098310-9fa9-4986-8d62-a0241863d1f4","ios":"levelo://app?vid=a9098310-9fa9-4986-8d62-a0241863d1f4"},"vehicle_type_id":"4","last_reported":1733479839,"current_range_meters":30400,"station_id":"ce4bgop2rcd13ifvqc1g","pricing_plan_id":"cebpf4jnsgd1na2vs0mg"},{"bike_id":"9235a45d-a7bb-479a-94f3-3fbfbc2df340","system_id":"levelo_inurba_marseille","lat":43.25498,"lon":5.37649,"is_reserved":false,"is_disabled":false,"rental_uris":{"android":"levelo://app?vid=9235a45d-a7bb-479a-94f3-3fbfbc2df340","ios":"levelo://app?vid=9235a45d-a7bb-479a-94f3-3fbfbc2df340"},"vehicle_type_id":"4","last_reported":1733479839,"current_range_meters":9600,"station_id":"ce4bhh12rcd13ifvqff0","pricing_plan_id":"cebpf4jnsgd1na2vs0mg"},{"bike_id":"c2df0aeb-6e71-4783-aad4-6de8b2d81b3b","system_id":"levelo_inurba_marseille","lat":43.27979,"lon":5.38735,"is_reserved":false,"is_disabled":false,"rental_uris":{"android":"levelo://app?vid=c2df0aeb-6e71-4783-aad4-6de8b2d81b3b","ios":"levelo://app?vid=c2df0aeb-6e71-4783-aad4-6de8b2d81b3b"},"vehicle_type_id":"4","last_reported":1733479839,"current_range_meters":23200,"station_id":"ce4bhg12rcd13ifvqf80","pricing_plan_id":"cebpf4jnsgd1na2vs0mg"},{"bike_id":"2192e276-8ae2-4e00-8d2a-d3a83978fbd6","system_id":"levelo_inurba_marseille","lat":43.23148,"lon":5.43708,"is_reserved":false,"is_disabled":false,"rental_uris":{"android":"levelo://app?vid=2192e276-8ae2-4e00-8d2a-d3a83978fbd6","ios":"levelo://app?vid=2192e276-8ae2-4e00-8d2a-d3a83978fbd6"},"vehicle_type_id":"4","last_reported":1733479839,"current_range_meters":38800,"station_id":"ce4bhmp2rcd13ifvqgog","pricing_plan_id":"cebpf4jnsgd1na2vs0mg"},{"bike_id":"cf315912-6fc6-4c2f-9885-dbef65eb8065","system_id":"levelo_inurba_marseille","lat":43.28812,"lon":5.38819,"is_reserved":false,"is_disabled":false,"rental_uris":{"android":"levelo://app?vid=cf315912-6fc6-4c2f-9885-dbef65eb8065","ios":"levelo://app?vid=cf315912-6fc6-4c2f-9885-dbef65eb8065"},"vehicle_type_id":"4","last_reported":1733479839,"current_range_meters":11200,"station_id":"","pricing_plan_id":"cebpf4jnsgd1na2vs0mg"},{"bike_id":"4582b298-0d32-45a8-92d1-2d124b94fa63","system_id":"levelo_inurba_marseille","lat":43.29619,"lon":5.37154,"is_reserved":false,"is_disabled":false,"rental_uris":{"android":"levelo://app?vid=4582b298-0d32-45a8-92d1-2d124b94fa63","ios":"levelo://app?vid=4582b298-0d32-45a8-92d1-2d124b94fa63"},"vehicle_type_id":"4","last_reported":1733479839,"current_range_meters":32000,"station_id":"ce4bgnh2rcd13ifvqc0g","pricing_plan_id":"cebpf4jnsgd1na2vs0mg"},{"bike_id":"87032fc2-490d-4bfc-99be-267955db6180","system_id":"levelo_inurba_marseille","lat":43.28344,"lon":5.38117,"is_reserved":false,"is_disabled":false,"rental_uris":{"android":"levelo://app?vid=87032fc2-490d-4bfc-99be-267955db6180","ios":"levelo://app?vid=87032fc2-490d-4bfc-99be-267955db6180"},"vehicle_type_id":"4","last_reported":1733479839,"current_range_meters":26000,"station_id":"ce4bh412rcd13ifvqdr0","pricing_plan_id":"cebpf4jnsgd1na2vs0mg"},{"bike_id":"7e138b6d-da12-4dd1-aa5c-731ba9e5976b","system_id":"levelo_inurba_marseille","lat":43.31671,"lon":5.37351,"is_reserved":false,"is_disabled":true,"rental_uris":{"android":"levelo://app?vid=7e138b6d-da12-4dd1-aa5c-731ba9e5976b","ios":"levelo://app?vid=7e138b6d-da12-4dd1-aa5c-731ba9e5976b"},"vehicle_type_id":"4","last_reported":1733479839,"current_range_meters":0,"station_id":"","pricing_plan_id":"cebpf4jnsgd1na2vs0mg"},{"bike_id":"97caf237-85e4-434f-9ad0-53e6794457f3","system_id":"levelo_inurba_marseille","lat":43.2319,"lon":5.4001,"is_reserved":false,"is_disabled":false,"rental_uris":{"android":"levelo://app?vid=97caf237-85e4-434f-9ad0-53e6794457f3","ios":"levelo://app?vid=97caf237-85e4-434f-9ad0-53e6794457f3"},"vehicle_type_id":"4","last_reported":1733479839,"current_range_meters":37600,"station_id":"ce4bhn12rcd13ifvqgqg","pricing_plan_id":"cebpf4jnsgd1na2vs0mg"},{"bike_id":"da92aff9-3fbb-4007-90fe-1a4d9eeeb4c2","system_id":"levelo_inurba_marseille","lat":43.30184,"lon":5.36624,"is_reserved":false,"is_disabled":false,"rental_uris":{"android":"levelo://app?vid=da92aff9-3fbb-4007-90fe-1a4d9eeeb4c2","ios":"levelo://app?vid=da92aff9-3fbb-4007-90fe-1a4d9eeeb4c2"},"vehicle_type_id":"4","last_reported":1733479839,"current_range_meters":30000,"station_id":"ce4bgrh2rcd13ifvqc8g","pricing_plan_id":"cebpf4jnsgd1na2vs0mg"},{"bike_id":"9c77a68d-2e99-44e9-b903-950fb6644d35","system_id":"levelo_inurba_marseille","lat":43.25265,"lon":5.39465,"is_reserved":false,"is_disabled":true,"rental_uris":{"android":"levelo://app?vid=9c77a68d-2e99-44e9-b903-950fb6644d35","ios":"levelo://app?vid=9c77a68d-2e99-44e9-b903-950fb6644d35"},"vehicle_type_id":"4","last_reported":1733479839,"current_range_meters":0,"station_id":"","pricing_plan_id":"cebpf4jnsgd1na2vs0mg"},{"bike_id":"8c495532-935e-49b4-8736-b2bf66f8ffdd","system_id":"levelo_inurba_marseille","lat":43.24081,"lon":5.37758,"is_reserved":false,"is_disabled":false,"rental_uris":{"android":"levelo://app?vid=8c495532-935e-49b4-8736-b2bf66f8ffdd","ios":"levelo://app?vid=8c495532-935e-49b4-8736-b2bf66f8ffdd"},"vehicle_type_id":"4","last_reported":1733479839,"current_range_meters":20000,"station_id":"ce4bhnp2rcd13ifvqgvg","pricing_plan_id":"cebpf4jnsgd1na2vs0mg"},{"bike_id":"20a08d51-7507-4fc7-a2eb-c8874573317d","system_id":"levelo_inurba_marseille","lat":43.24171,"lon":5.36397,"is_reserved":false,"is_disabled":false,"rental_uris":{"android":"levelo://app?vid=20a08d51-7507-4fc7-a2eb-c8874573317d","ios":"levelo://app?vid=20a08d51-7507-4fc7-a2eb-c8874573317d"},"vehicle_type_id":"4","last_reported":1733479839,"current_range_meters":22400,"station_id":"cpo36qri1sfpv3e86is0","pricing_plan_id":"cebpf4jnsgd1na2vs0mg"},{"bike_id":"45a99d3d-18c7-4943-8d60-ad1491c0fa82","system_id":"levelo_inurba_marseille","lat":43.27563,"lon":5.38417,"is_reserved":false,"is_disabled":true,"rental_uris":{"android":"levelo://app?vid=45a99d3d-18c7-4943-8d60-ad1491c0fa82","ios":"levelo://app?vid=45a99d3d-18c7-4943-8d60-ad1491c0fa82"},"vehicle_type_id":"4","last_reported":1733479839,"current_range_meters":38800,"station_id":"ce4bhh92rcd13ifvqfi0","pricing_plan_id":"cebpf4jnsgd1na2vs0mg"},{"bike_id":"d0c1876a-a4f3-4d77-a856-9a68b657c668","system_id":"levelo_inurba_marseille","lat":43.24068,"lon":5.37758,"is_reserved":false,"is_disabled":false,"rental_uris":{"android":"levelo://app?vid=d0c1876a-a4f3-4d77-a856-9a68b657c668","ios":"levelo://app?vid=d0c1876a-a4f3-4d77-a856-9a68b657c668"},"vehicle_type_id":"4","last_reported":1733479839,"current_range_meters":38800,"station_id":"ce4bhnp2rcd13ifvqgvg","pricing_plan_id":"cebpf4jnsgd1na2vs0mg"},{"bike_id":"83985555-c848-4b28-808f-8a7e7cf8519e","system_id":"levelo_inurba_marseille","lat":43.28115,"lon":5.43955,"is_reserved":false,"is_disabled":true,"rental_uris":{"android":"levelo://app?vid=83985555-c848-4b28-808f-8a7e7cf8519e","ios":"levelo://app?vid=83985555-c848-4b28-808f-8a7e7cf8519e"},"vehicle_type_id":"4","last_reported":1733479839,"current_range_meters":0,"station_id":"","pricing_plan_id":"cebpf4jnsgd1na2vs0mg"},{"bike_id":"9bc47e6e-404e-4d83-a9c3-862006ca093e","system_id":"levelo_inurba_marseille","lat":43.288216,"lon":5.379141,"is_reserved":false,"is_disabled":false,"rental_uris":{"android":"levelo://app?vid=9bc47e6e-404e-4d83-a9c3-862006ca093e","ios":"levelo://app?vid=9bc47e6e-404e-4d83-a9c3-862006ca093e"},"vehicle_type_id":"4","last_reported":1733479839,"current_range_meters":16000,"station_id":"","pricing_plan_id":"cebpf4jnsgd1na2vs0mg"},{"bike_id":"a9f0d8ae-9401-4d9e-acc4-864d8762a06a","system_id":"levelo_inurba_marseille","lat":43.30943,"lon":5.39027,"is_reserved":false,"is_disabled":false,"rental_uris":{"android":"levelo://app?vid=a9f0d8ae-9401-4d9e-acc4-864d8762a06a","ios":"levelo://app?vid=a9f0d8ae-9401-4d9e-acc4-864d8762a06a"},"vehicle_type_id":"4","last_reported":1733479839,"current_range_meters":28800,"station_id":"ce4bgup2rcd13ifvqco0","pricing_plan_id":"cebpf4jnsgd1na2vs0mg"},{"bike_id":"32f5c9bd-bdbf-4972-bc11-e7193441a028","system_id":"levelo_inurba_marseille","lat":43.31995,"lon":5.38152,"is_reserved":false,"is_disabled":false,"rental_uris":{"android":"levelo://app?vid=32f5c9bd-bdbf-4972-bc11-e7193441a028","ios":"levelo://app?vid=32f5c9bd-bdbf-4972-bc11-e7193441a028"},"vehicle_type_id":"4","last_reported":1733479839,"current_range_meters":27200,"station_id":"ce4bhr12rcd13ifvqhpg","pricing_plan_id":"cebpf4jnsgd1na2vs0mg"},{"bike_id":"4a8e21e6-ec65-4655-92a4-dfff45da23c1","system_id":"levelo_inurba_marseille","lat":43.25507,"lon":5.37649,"is_reserved":false,"is_disabled":false,"rental_uris":{"android":"levelo://app?vid=4a8e21e6-ec65-4655-92a4-dfff45da23c1","ios":"levelo://app?vid=4a8e21e6-ec65-4655-92a4-dfff45da23c1"},"vehicle_type_id":"4","last_reported":1733479839,"current_range_meters":38800,"station_id":"ce4bhh12rcd13ifvqff0","pricing_plan_id":"cebpf4jnsgd1na2vs0mg"},{"bike_id":"b8a700b0-b24e-45c1-9c65-bb2892b35ff9","system_id":"levelo_inurba_marseille","lat":43.32546,"lon":5.41433,"is_reserved":false,"is_disabled":false,"rental_uris":{"android":"levelo://app?vid=b8a700b0-b24e-45c1-9c65-bb2892b35ff9","ios":"levelo://app?vid=b8a700b0-b24e-45c1-9c65-bb2892b35ff9"},"vehicle_type_id":"4","last_reported":1733479839,"current_range_meters":34800,"station_id":"ce4bhq12rcd13ifvqhhg","pricing_plan_id":"cebpf4jnsgd1na2vs0mg"},{"bike_id":"eb43bb9b-ff1e-4225-b055-61b484b0c0b0","system_id":"levelo_inurba_marseille","lat":43.3028,"lon":5.37707,"is_reserved":false,"is_disabled":false,"rental_uris":{"android":"levelo://app?vid=eb43bb9b-ff1e-4225-b055-61b484b0c0b0","ios":"levelo://app?vid=eb43bb9b-ff1e-4225-b055-61b484b0c0b0"},"vehicle_type_id":"4","last_reported":1733479839,"current_range_meters":27200,"station_id":"ce4bguh2rcd13ifvqcj0","pricing_plan_id":"cebpf4jnsgd1na2vs0mg"},{"bike_id":"020719d4-c29b-4e35-be4b-81ca932ddaa9","system_id":"levelo_inurba_marseille","lat":43.30235,"lon":5.40035,"is_reserved":false,"is_disabled":true,"rental_uris":{"android":"levelo://app?vid=020719d4-c29b-4e35-be4b-81ca932ddaa9","ios":"levelo://app?vid=020719d4-c29b-4e35-be4b-81ca932ddaa9"},"vehicle_type_id":"4","last_reported":1733479839,"current_range_meters":0,"station_id":"ce4bgvh2rcd13ifvqcs0","pricing_plan_id":"cebpf4jnsgd1na2vs0mg"},{"bike_id":"735debda-4cb5-4de1-8f9b-ddc354a8500b","system_id":"levelo_inurba_marseille","lat":43.26483,"lon":5.39561,"is_reserved":false,"is_disabled":true,"rental_uris":{"android":"levelo://app?vid=735debda-4cb5-4de1-8f9b-ddc354a8500b","ios":"levelo://app?vid=735debda-4cb5-4de1-8f9b-ddc354a8500b"},"vehicle_type_id":"4","last_reported":1733479839,"current_range_meters":38800,"station_id":"ce4bhi12rcd13ifvqfq0","pricing_plan_id":"cebpf4jnsgd1na2vs0mg"},{"bike_id":"a8264fb2-dad4-4c52-9230-cf80b47302d6","system_id":"levelo_inurba_marseille","lat":43.31996,"lon":5.38165,"is_reserved":false,"is_disabled":false,"rental_uris":{"android":"levelo://app?vid=a8264fb2-dad4-4c52-9230-cf80b47302d6","ios":"levelo://app?vid=a8264fb2-dad4-4c52-9230-cf80b47302d6"},"vehicle_type_id":"4","last_reported":1733479839,"current_range_meters":12800,"station_id":"ce4bhr12rcd13ifvqhpg","pricing_plan_id":"cebpf4jnsgd1na2vs0mg"},{"bike_id":"5edf82fa-e9d0-4d1f-98f1-37c98092771a","system_id":"levelo_inurba_marseille","lat":43.23189,"lon":5.35546,"is_reserved":false,"is_disabled":false,"rental_uris":{"android":"levelo://app?vid=5edf82fa-e9d0-4d1f-98f1-37c98092771a","ios":"levelo://app?vid=5edf82fa-e9d0-4d1f-98f1-37c98092771a"},"vehicle_type_id":"4","last_reported":1733479839,"current_range_meters":39200,"station_id":"ce4bhu92rcd13ifvqi70","pricing_plan_id":"cebpf4jnsgd1na2vs0mg"},{"bike_id":"5c8c1563-790f-413c-92a4-e9bf05f3db3f","system_id":"levelo_inurba_marseille","lat":43.24069,"lon":5.37763,"is_reserved":false,"is_disabled":false,"rental_uris":{"android":"levelo://app?vid=5c8c1563-790f-413c-92a4-e9bf05f3db3f","ios":"levelo://app?vid=5c8c1563-790f-413c-92a4-e9bf05f3db3f"},"vehicle_type_id":"4","last_reported":1733479839,"current_range_meters":10000,"station_id":"ce4bhnp2rcd13ifvqgvg","pricing_plan_id":"cebpf4jnsgd1na2vs0mg"},{"bike_id":"8fc2b690-5550-4794-91bc-3d5194fe4c12","system_id":"levelo_inurba_marseille","lat":43.29305,"lon":5.37458,"is_reserved":false,"is_disabled":false,"rental_uris":{"android":"levelo://app?vid=8fc2b690-5550-4794-91bc-3d5194fe4c12","ios":"levelo://app?vid=8fc2b690-5550-4794-91bc-3d5194fe4c12"},"vehicle_type_id":"4","last_reported":1733479839,"current_range_meters":38400,"station_id":"ce4bgi12rcd13ifvqb70","pricing_plan_id":"cebpf4jnsgd1na2vs0mg"},{"bike_id":"2278aa7c-669c-4263-9ba8-1156e5deaf60","system_id":"levelo_inurba_marseille","lat":43.23182,"lon":5.39985,"is_reserved":false,"is_disabled":true,"rental_uris":{"android":"levelo://app?vid=2278aa7c-669c-4263-9ba8-1156e5deaf60","ios":"levelo://app?vid=2278aa7c-669c-4263-9ba8-1156e5deaf60"},"vehicle_type_id":"4","last_reported":1733479839,"current_range_meters":0,"station_id":"ce4bhn12rcd13ifvqgqg","pricing_plan_id":"cebpf4jnsgd1na2vs0mg"},{"bike_id":"696aff15-0b39-476f-8937-4b7e9cf37bd5","system_id":"levelo_inurba_marseille","lat":43.24079,"lon":5.37744,"is_reserved":false,"is_disabled":false,"rental_uris":{"android":"levelo://app?vid=696aff15-0b39-476f-8937-4b7e9cf37bd5","ios":"levelo://app?vid=696aff15-0b39-476f-8937-4b7e9cf37bd5"},"vehicle_type_id":"4","last_reported":1733479839,"current_range_meters":9600,"station_id":"ce4bhnp2rcd13ifvqgvg","pricing_plan_id":"cebpf4jnsgd1na2vs0mg"},{"bike_id":"33ed3d4d-42aa-4949-b7ba-d4f90317d160","system_id":"levelo_inurba_marseille","lat":43.24182,"lon":5.39724,"is_reserved":false,"is_disabled":false,"rental_uris":{"android":"levelo://app?vid=33ed3d4d-42aa-4949-b7ba-d4f90317d160","ios":"levelo://app?vid=33ed3d4d-42aa-4949-b7ba-d4f90317d160"},"vehicle_type_id":"4","last_reported":1733479839,"current_range_meters":35200,"station_id":"ce4bhn12rcd13ifvqgpg","pricing_plan_id":"cebpf4jnsgd1na2vs0mg"},{"bike_id":"506c09f4-6c9b-4fb3-996c-4c7f86dd75a8","system_id":"levelo_inurba_marseille","lat":43.25491,"lon":5.37647,"is_reserved":false,"is_disabled":false,"rental_uris":{"android":"levelo://app?vid=506c09f4-6c9b-4fb3-996c-4c7f86dd75a8","ios":"levelo://app?vid=506c09f4-6c9b-4fb3-996c-4c7f86dd75a8"},"vehicle_type_id":"4","last_reported":1733479839,"current_range_meters":27600,"station_id":"ce4bhh12rcd13ifvqff0","pricing_plan_id":"cebpf4jnsgd1na2vs0mg"},{"bike_id":"6ab99516-c9b5-4294-ac9c-0785f1b2c910","system_id":"levelo_inurba_marseille","lat":43.2757,"lon":5.38409,"is_reserved":false,"is_disabled":true,"rental_uris":{"android":"levelo://app?vid=6ab99516-c9b5-4294-ac9c-0785f1b2c910","ios":"levelo://app?vid=6ab99516-c9b5-4294-ac9c-0785f1b2c910"},"vehicle_type_id":"4","last_reported":1733479839,"current_range_meters":38800,"station_id":"ce4bhh92rcd13ifvqfi0","pricing_plan_id":"cebpf4jnsgd1na2vs0mg"},{"bike_id":"41a6123f-adb8-40fb-a26a-603da6ab918d","system_id":"levelo_inurba_marseille","lat":43.28439,"lon":5.39179,"is_reserved":false,"is_disabled":false,"rental_uris":{"android":"levelo://app?vid=41a6123f-adb8-40fb-a26a-603da6ab918d","ios":"levelo://app?vid=41a6123f-adb8-40fb-a26a-603da6ab918d"},"vehicle_type_id":"4","last_reported":1733479839,"current_range_meters":37600,"station_id":"ce4bhoh2rcd13ifvqh5g","pricing_plan_id":"cebpf4jnsgd1na2vs0mg"},{"bike_id":"9202c63e-372c-4469-a5c1-8e35757d1940","system_id":"levelo_inurba_marseille","lat":43.30053,"lon":5.38832,"is_reserved":false,"is_disabled":true,"rental_uris":{"android":"levelo://app?vid=9202c63e-372c-4469-a5c1-8e35757d1940","ios":"levelo://app?vid=9202c63e-372c-4469-a5c1-8e35757d1940"},"vehicle_type_id":"4","last_reported":1733479839,"current_range_meters":0,"station_id":"","pricing_plan_id":"cebpf4jnsgd1na2vs0mg"},{"bike_id":"4d75ea9c-71c5-44e7-a3ed-dd13a7651159","system_id":"levelo_inurba_marseille","lat":43.30791,"lon":5.4352,"is_reserved":false,"is_disabled":false,"rental_uris":{"android":"levelo://app?vid=4d75ea9c-71c5-44e7-a3ed-dd13a7651159","ios":"levelo://app?vid=4d75ea9c-71c5-44e7-a3ed-dd13a7651159"},"vehicle_type_id":"4","last_reported":1733479839,"current_range_meters":22400,"station_id":"ce4bhph2rcd13ifvqheg","pricing_plan_id":"cebpf4jnsgd1na2vs0mg"},{"bike_id":"f800c987-e058-46ca-92d5-97aeaf243f23","system_id":"levelo_inurba_marseille","lat":43.30186,"lon":5.36617,"is_reserved":false,"is_disabled":false,"rental_uris":{"android":"levelo://app?vid=f800c987-e058-46ca-92d5-97aeaf243f23","ios":"levelo://app?vid=f800c987-e058-46ca-92d5-97aeaf243f23"},"vehicle_type_id":"4","last_reported":1733479839,"current_range_meters":29600,"station_id":"ce4bgrh2rcd13ifvqc8g","pricing_plan_id":"cebpf4jnsgd1na2vs0mg"},{"bike_id":"fc06ed5f-6e14-4c88-a108-5cae3ed536ba","system_id":"levelo_inurba_marseille","lat":43.30531,"lon":5.3654,"is_reserved":false,"is_disabled":false,"rental_uris":{"android":"levelo://app?vid=fc06ed5f-6e14-4c88-a108-5cae3ed536ba","ios":"levelo://app?vid=fc06ed5f-6e14-4c88-a108-5cae3ed536ba"},"vehicle_type_id":"4","last_reported":1733479839,"current_range_meters":21600,"station_id":"ce4bgs12rcd13ifvqcag","pricing_plan_id":"cebpf4jnsgd1na2vs0mg"},{"bike_id":"5e764113-6ee1-476b-aae5-b53bb3f07ba4","system_id":"levelo_inurba_marseille","lat":43.29873,"lon":5.39735,"is_reserved":false,"is_disabled":false,"rental_uris":{"android":"levelo://app?vid=5e764113-6ee1-476b-aae5-b53bb3f07ba4","ios":"levelo://app?vid=5e764113-6ee1-476b-aae5-b53bb3f07ba4"},"vehicle_type_id":"4","last_reported":1733479839,"current_range_meters":36400,"station_id":"ce4bh0h2rcd13ifvqd50","pricing_plan_id":"cebpf4jnsgd1na2vs0mg"},{"bike_id":"0deb7b46-3bee-4382-87b1-3984fb62457f","system_id":"levelo_inurba_marseille","lat":43.28739,"lon":5.3891,"is_reserved":false,"is_disabled":true,"rental_uris":{"android":"levelo://app?vid=0deb7b46-3bee-4382-87b1-3984fb62457f","ios":"levelo://app?vid=0deb7b46-3bee-4382-87b1-3984fb62457f"},"vehicle_type_id":"4","last_reported":1733479839,"current_range_meters":31200,"station_id":"","pricing_plan_id":"cebpf4jnsgd1na2vs0mg"},{"bike_id":"cf3e6ea0-09ff-406c-b357-28a6a6117f94","system_id":"levelo_inurba_marseille","lat":43.22932,"lon":5.35378,"is_reserved":false,"is_disabled":false,"rental_uris":{"android":"levelo://app?vid=cf3e6ea0-09ff-406c-b357-28a6a6117f94","ios":"levelo://app?vid=cf3e6ea0-09ff-406c-b357-28a6a6117f94"},"vehicle_type_id":"4","last_reported":1733479839,"current_range_meters":38800,"station_id":"cpo3532slgdg3j2ikp40","pricing_plan_id":"cebpf4jnsgd1na2vs0mg"},{"bike_id":"ab8dbcec-4230-4804-8bbf-73df4a6afea0","system_id":"levelo_inurba_marseille","lat":43.30155,"lon":5.37405,"is_reserved":false,"is_disabled":false,"rental_uris":{"android":"levelo://app?vid=ab8dbcec-4230-4804-8bbf-73df4a6afea0","ios":"levelo://app?vid=ab8dbcec-4230-4804-8bbf-73df4a6afea0"},"vehicle_type_id":"4","last_reported":1733479839,"current_range_meters":33600,"station_id":"ce4bgs92rcd13ifvqcc0","pricing_plan_id":"cebpf4jnsgd1na2vs0mg"},{"bike_id":"cb551a79-42a6-4d4d-a3e4-ee8b51dabc53","system_id":"levelo_inurba_marseille","lat":43.31367,"lon":5.36701,"is_reserved":false,"is_disabled":false,"rental_uris":{"android":"levelo://app?vid=cb551a79-42a6-4d4d-a3e4-ee8b51dabc53","ios":"levelo://app?vid=cb551a79-42a6-4d4d-a3e4-ee8b51dabc53"},"vehicle_type_id":"4","last_reported":1733479839,"current_range_meters":37600,"station_id":"ce4bgr92rcd13ifvqc6g","pricing_plan_id":"cebpf4jnsgd1na2vs0mg"},{"bike_id":"e5052455-3f69-40a0-8b24-a19b52e587fb","system_id":"levelo_inurba_marseille","lat":43.26941,"lon":5.38635,"is_reserved":false,"is_disabled":false,"rental_uris":{"android":"levelo://app?vid=e5052455-3f69-40a0-8b24-a19b52e587fb","ios":"levelo://app?vid=e5052455-3f69-40a0-8b24-a19b52e587fb"},"vehicle_type_id":"4","last_reported":1733479839,"current_range_meters":17200,"station_id":"ce4bhh92rcd13ifvqfh0","pricing_plan_id":"cebpf4jnsgd1na2vs0mg"},{"bike_id":"719e509a-25e4-4b1b-9830-f708d85d7593","system_id":"levelo_inurba_marseille","lat":43.29404,"lon":5.37451,"is_reserved":false,"is_disabled":true,"rental_uris":{"android":"levelo://app?vid=719e509a-25e4-4b1b-9830-f708d85d7593","ios":"levelo://app?vid=719e509a-25e4-4b1b-9830-f708d85d7593"},"vehicle_type_id":"4","last_reported":1733479839,"current_range_meters":0,"station_id":"","pricing_plan_id":"cebpf4jnsgd1na2vs0mg"},{"bike_id":"7bbfba3c-fe58-4200-9fd7-912dd8f2f249","system_id":"levelo_inurba_marseille","lat":43.2408,"lon":5.37744,"is_reserved":false,"is_disabled":false,"rental_uris":{"android":"levelo://app?vid=7bbfba3c-fe58-4200-9fd7-912dd8f2f249","ios":"levelo://app?vid=7bbfba3c-fe58-4200-9fd7-912dd8f2f249"},"vehicle_type_id":"4","last_reported":1733479839,"current_range_meters":38800,"station_id":"ce4bhnp2rcd13ifvqgvg","pricing_plan_id":"cebpf4jnsgd1na2vs0mg"},{"bike_id":"e70b096d-c433-4c78-9336-7e05af6b517c","system_id":"levelo_inurba_marseille","lat":43.30638,"lon":5.40086,"is_reserved":false,"is_disabled":false,"rental_uris":{"android":"levelo://app?vid=e70b096d-c433-4c78-9336-7e05af6b517c","ios":"levelo://app?vid=e70b096d-c433-4c78-9336-7e05af6b517c"},"vehicle_type_id":"4","last_reported":1733479839,"current_range_meters":39200,"station_id":"ce4bh112rcd13ifvqda0","pricing_plan_id":"cebpf4jnsgd1na2vs0mg"},{"bike_id":"7f1a4caf-188c-432d-9492-d813ece2f921","system_id":"levelo_inurba_marseille","lat":43.24076,"lon":5.37758,"is_reserved":false,"is_disabled":false,"rental_uris":{"android":"levelo://app?vid=7f1a4caf-188c-432d-9492-d813ece2f921","ios":"levelo://app?vid=7f1a4caf-188c-432d-9492-d813ece2f921"},"vehicle_type_id":"4","last_reported":1733479839,"current_range_meters":38000,"station_id":"ce4bhnp2rcd13ifvqgvg","pricing_plan_id":"cebpf4jnsgd1na2vs0mg"},{"bike_id":"7a0a2714-105e-4622-8b3e-a7dd62dc6941","system_id":"levelo_inurba_marseille","lat":43.29266,"lon":5.384189,"is_reserved":false,"is_disabled":true,"rental_uris":{"android":"levelo://app?vid=7a0a2714-105e-4622-8b3e-a7dd62dc6941","ios":"levelo://app?vid=7a0a2714-105e-4622-8b3e-a7dd62dc6941"},"vehicle_type_id":"4","last_reported":1733479839,"current_range_meters":400,"station_id":"","pricing_plan_id":"cebpf4jnsgd1na2vs0mg"},{"bike_id":"7bf6ec18-9c33-4a75-9f47-75bf827e3f19","system_id":"levelo_inurba_marseille","lat":43.31213,"lon":5.3686,"is_reserved":false,"is_disabled":false,"rental_uris":{"android":"levelo://app?vid=7bf6ec18-9c33-4a75-9f47-75bf827e3f19","ios":"levelo://app?vid=7bf6ec18-9c33-4a75-9f47-75bf827e3f19"},"vehicle_type_id":"4","last_reported":1733479839,"current_range_meters":33200,"station_id":"ce4bgl92rcd13ifvqbq0","pricing_plan_id":"cebpf4jnsgd1na2vs0mg"},{"bike_id":"a702e96e-9fe5-4b47-a720-785c984a4f7b","system_id":"levelo_inurba_marseille","lat":43.31495,"lon":5.37292,"is_reserved":false,"is_disabled":false,"rental_uris":{"android":"levelo://app?vid=a702e96e-9fe5-4b47-a720-785c984a4f7b","ios":"levelo://app?vid=a702e96e-9fe5-4b47-a720-785c984a4f7b"},"vehicle_type_id":"4","last_reported":1733479839,"current_range_meters":18800,"station_id":"ce4bgt12rcd13ifvqcd0","pricing_plan_id":"cebpf4jnsgd1na2vs0mg"},{"bike_id":"2b6d8e3a-eba6-48ab-ae54-ba4181438667","system_id":"levelo_inurba_marseille","lat":43.28933,"lon":5.39628,"is_reserved":false,"is_disabled":true,"rental_uris":{"android":"levelo://app?vid=2b6d8e3a-eba6-48ab-ae54-ba4181438667","ios":"levelo://app?vid=2b6d8e3a-eba6-48ab-ae54-ba4181438667"},"vehicle_type_id":"4","last_reported":1733479839,"current_range_meters":0,"station_id":"ce4bh3h2rcd13ifvqdn0","pricing_plan_id":"cebpf4jnsgd1na2vs0mg"},{"bike_id":"a6709458-fbc1-4625-913a-bc40c3e39dad","system_id":"levelo_inurba_marseille","lat":43.30888,"lon":5.37205,"is_reserved":false,"is_disabled":false,"rental_uris":{"android":"levelo://app?vid=a6709458-fbc1-4625-913a-bc40c3e39dad","ios":"levelo://app?vid=a6709458-fbc1-4625-913a-bc40c3e39dad"},"vehicle_type_id":"4","last_reported":1733479839,"current_range_meters":24400,"station_id":"ce4bguh2rcd13ifvqckg","pricing_plan_id":"cebpf4jnsgd1na2vs0mg"},{"bike_id":"f7e50027-cc71-462b-a690-6201bce1409e","system_id":"levelo_inurba_marseille","lat":43.3027,"lon":5.37698,"is_reserved":false,"is_disabled":false,"rental_uris":{"android":"levelo://app?vid=f7e50027-cc71-462b-a690-6201bce1409e","ios":"levelo://app?vid=f7e50027-cc71-462b-a690-6201bce1409e"},"vehicle_type_id":"4","last_reported":1733479839,"current_range_meters":38000,"station_id":"ce4bguh2rcd13ifvqcj0","pricing_plan_id":"cebpf4jnsgd1na2vs0mg"},{"bike_id":"49a6051d-2563-486f-9f8e-ec0814945680","system_id":"levelo_inurba_marseille","lat":43.23145,"lon":5.43714,"is_reserved":false,"is_disabled":false,"rental_uris":{"android":"levelo://app?vid=49a6051d-2563-486f-9f8e-ec0814945680","ios":"levelo://app?vid=49a6051d-2563-486f-9f8e-ec0814945680"},"vehicle_type_id":"4","last_reported":1733479839,"current_range_meters":24400,"station_id":"ce4bhmp2rcd13ifvqgog","pricing_plan_id":"cebpf4jnsgd1na2vs0mg"},{"bike_id":"1fd66a86-539b-4778-af3b-9888e74d2152","system_id":"levelo_inurba_marseille","lat":43.30951,"lon":5.39033,"is_reserved":false,"is_disabled":false,"rental_uris":{"android":"levelo://app?vid=1fd66a86-539b-4778-af3b-9888e74d2152","ios":"levelo://app?vid=1fd66a86-539b-4778-af3b-9888e74d2152"},"vehicle_type_id":"4","last_reported":1733479839,"current_range_meters":21600,"station_id":"ce4bgup2rcd13ifvqco0","pricing_plan_id":"cebpf4jnsgd1na2vs0mg"},{"bike_id":"a6a669b8-62c6-45a1-bafc-201de4aa541d","system_id":"levelo_inurba_marseille","lat":43.29271,"lon":5.40129,"is_reserved":false,"is_disabled":false,"rental_uris":{"android":"levelo://app?vid=a6a669b8-62c6-45a1-bafc-201de4aa541d","ios":"levelo://app?vid=a6a669b8-62c6-45a1-bafc-201de4aa541d"},"vehicle_type_id":"4","last_reported":1733479839,"current_range_meters":14400,"station_id":"ce4bh312rcd13ifvqdk0","pricing_plan_id":"cebpf4jnsgd1na2vs0mg"},{"bike_id":"f2853704-1403-45ae-9d89-d24ea142dced","system_id":"levelo_inurba_marseille","lat":43.26944,"lon":5.38651,"is_reserved":false,"is_disabled":false,"rental_uris":{"android":"levelo://app?vid=f2853704-1403-45ae-9d89-d24ea142dced","ios":"levelo://app?vid=f2853704-1403-45ae-9d89-d24ea142dced"},"vehicle_type_id":"4","last_reported":1733479839,"current_range_meters":28000,"station_id":"ce4bhh92rcd13ifvqfh0","pricing_plan_id":"cebpf4jnsgd1na2vs0mg"},{"bike_id":"b01ba929-1580-401b-973d-e4a15d746d4a","system_id":"levelo_inurba_marseille","lat":43.22928,"lon":5.35377,"is_reserved":false,"is_disabled":false,"rental_uris":{"android":"levelo://app?vid=b01ba929-1580-401b-973d-e4a15d746d4a","ios":"levelo://app?vid=b01ba929-1580-401b-973d-e4a15d746d4a"},"vehicle_type_id":"4","last_reported":1733479839,"current_range_meters":9600,"station_id":"cpo3532slgdg3j2ikp40","pricing_plan_id":"cebpf4jnsgd1na2vs0mg"},{"bike_id":"7519ef7a-d08a-49a3-a099-389c2c29dff3","system_id":"levelo_inurba_marseille","lat":43.31329,"lon":5.37029,"is_reserved":false,"is_disabled":true,"rental_uris":{"android":"levelo://app?vid=7519ef7a-d08a-49a3-a099-389c2c29dff3","ios":"levelo://app?vid=7519ef7a-d08a-49a3-a099-389c2c29dff3"},"vehicle_type_id":"4","last_reported":1733479839,"current_range_meters":0,"station_id":"","pricing_plan_id":"cebpf4jnsgd1na2vs0mg"},{"bike_id":"8c1e28b4-904f-48d7-ba6d-d3b5b5d05922","system_id":"levelo_inurba_marseille","lat":43.29374,"lon":5.40099,"is_reserved":false,"is_disabled":true,"rental_uris":{"android":"levelo://app?vid=8c1e28b4-904f-48d7-ba6d-d3b5b5d05922","ios":"levelo://app?vid=8c1e28b4-904f-48d7-ba6d-d3b5b5d05922"},"vehicle_type_id":"4","last_reported":1733479839,"current_range_meters":0,"station_id":"","pricing_plan_id":"cebpf4jnsgd1na2vs0mg"},{"bike_id":"7b9b3679-8df0-485d-a17a-ac62ea96167a","system_id":"levelo_inurba_marseille","lat":43.27953,"lon":5.38668,"is_reserved":false,"is_disabled":true,"rental_uris":{"android":"levelo://app?vid=7b9b3679-8df0-485d-a17a-ac62ea96167a","ios":"levelo://app?vid=7b9b3679-8df0-485d-a17a-ac62ea96167a"},"vehicle_type_id":"4","last_reported":1733479839,"current_range_meters":14400,"station_id":"","pricing_plan_id":"cebpf4jnsgd1na2vs0mg"},{"bike_id":"67704e8d-55da-4897-95f9-2f5a60c416be","system_id":"levelo_inurba_marseille","lat":43.25502,"lon":5.37649,"is_reserved":false,"is_disabled":false,"rental_uris":{"android":"levelo://app?vid=67704e8d-55da-4897-95f9-2f5a60c416be","ios":"levelo://app?vid=67704e8d-55da-4897-95f9-2f5a60c416be"},"vehicle_type_id":"4","last_reported":1733479839,"current_range_meters":6800,"station_id":"ce4bhh12rcd13ifvqff0","pricing_plan_id":"cebpf4jnsgd1na2vs0mg"},{"bike_id":"5a4d103d-1290-44e8-acb5-6ce94d590af3","system_id":"levelo_inurba_marseille","lat":43.32535,"lon":5.41455,"is_reserved":false,"is_disabled":false,"rental_uris":{"android":"levelo://app?vid=5a4d103d-1290-44e8-acb5-6ce94d590af3","ios":"levelo://app?vid=5a4d103d-1290-44e8-acb5-6ce94d590af3"},"vehicle_type_id":"4","last_reported":1733479839,"current_range_meters":33600,"station_id":"ce4bhq12rcd13ifvqhhg","pricing_plan_id":"cebpf4jnsgd1na2vs0mg"},{"bike_id":"ee4c8356-f21e-4ca8-a97b-d873af240e66","system_id":"levelo_inurba_marseille","lat":43.30907,"lon":5.36847,"is_reserved":false,"is_disabled":false,"rental_uris":{"android":"levelo://app?vid=ee4c8356-f21e-4ca8-a97b-d873af240e66","ios":"levelo://app?vid=ee4c8356-f21e-4ca8-a97b-d873af240e66"},"vehicle_type_id":"4","last_reported":1733479839,"current_range_meters":4800,"station_id":"ce4bgn92rcd13ifvqbvg","pricing_plan_id":"cebpf4jnsgd1na2vs0mg"},{"bike_id":"b456ffed-e972-4452-98fc-a347aae516a4","system_id":"levelo_inurba_marseille","lat":43.28718,"lon":5.37943,"is_reserved":false,"is_disabled":false,"rental_uris":{"android":"levelo://app?vid=b456ffed-e972-4452-98fc-a347aae516a4","ios":"levelo://app?vid=b456ffed-e972-4452-98fc-a347aae516a4"},"vehicle_type_id":"4","last_reported":1733479839,"current_range_meters":37600,"station_id":"ce4bh9p2rcd13ifvqec0","pricing_plan_id":"cebpf4jnsgd1na2vs0mg"},{"bike_id":"3387204a-95f5-438a-8c08-b7be8728ee7a","system_id":"levelo_inurba_marseille","lat":43.29529,"lon":5.375,"is_reserved":false,"is_disabled":false,"rental_uris":{"android":"levelo://app?vid=3387204a-95f5-438a-8c08-b7be8728ee7a","ios":"levelo://app?vid=3387204a-95f5-438a-8c08-b7be8728ee7a"},"vehicle_type_id":"4","last_reported":1733479839,"current_range_meters":36800,"station_id":"ce4bgkp2rcd13ifvqbmg","pricing_plan_id":"cebpf4jnsgd1na2vs0mg"},{"bike_id":"1ee74f47-c25e-4fca-8cea-1505429867e2","system_id":"levelo_inurba_marseille","lat":43.30305,"lon":5.3935,"is_reserved":false,"is_disabled":false,"rental_uris":{"android":"levelo://app?vid=1ee74f47-c25e-4fca-8cea-1505429867e2","ios":"levelo://app?vid=1ee74f47-c25e-4fca-8cea-1505429867e2"},"vehicle_type_id":"4","last_reported":1733479839,"current_range_meters":25200,"station_id":"","pricing_plan_id":"cebpf4jnsgd1na2vs0mg"},{"bike_id":"c7586577-aae0-49f8-b1d8-018847434971","system_id":"levelo_inurba_marseille","lat":43.32537,"lon":5.41436,"is_reserved":false,"is_disabled":false,"rental_uris":{"android":"levelo://app?vid=c7586577-aae0-49f8-b1d8-018847434971","ios":"levelo://app?vid=c7586577-aae0-49f8-b1d8-018847434971"},"vehicle_type_id":"4","last_reported":1733479839,"current_range_meters":24400,"station_id":"ce4bhq12rcd13ifvqhhg","pricing_plan_id":"cebpf4jnsgd1na2vs0mg"},{"bike_id":"f9107edb-20df-4eb0-ae5a-672ea646bbbf","system_id":"levelo_inurba_marseille","lat":43.28614,"lon":5.35101,"is_reserved":false,"is_disabled":true,"rental_uris":{"android":"levelo://app?vid=f9107edb-20df-4eb0-ae5a-672ea646bbbf","ios":"levelo://app?vid=f9107edb-20df-4eb0-ae5a-672ea646bbbf"},"vehicle_type_id":"4","last_reported":1733479839,"current_range_meters":30000,"station_id":"ce4bhch2rcd13ifvqeug","pricing_plan_id":"cebpf4jnsgd1na2vs0mg"},{"bike_id":"0e57f0fe-83a3-447b-a514-b9efa1a318a3","system_id":"levelo_inurba_marseille","lat":43.30136,"lon":5.39866,"is_reserved":false,"is_disabled":false,"rental_uris":{"android":"levelo://app?vid=0e57f0fe-83a3-447b-a514-b9efa1a318a3","ios":"levelo://app?vid=0e57f0fe-83a3-447b-a514-b9efa1a318a3"},"vehicle_type_id":"4","last_reported":1733479839,"current_range_meters":31200,"station_id":"ce4bh0h2rcd13ifvqd40","pricing_plan_id":"cebpf4jnsgd1na2vs0mg"},{"bike_id":"1f41adbd-b25d-46c6-8a53-e4ecdbbf967f","system_id":"levelo_inurba_marseille","lat":43.24054,"lon":5.37747,"is_reserved":false,"is_disabled":false,"rental_uris":{"android":"levelo://app?vid=1f41adbd-b25d-46c6-8a53-e4ecdbbf967f","ios":"levelo://app?vid=1f41adbd-b25d-46c6-8a53-e4ecdbbf967f"},"vehicle_type_id":"4","last_reported":1733479839,"current_range_meters":16800,"station_id":"ce4bhnp2rcd13ifvqgvg","pricing_plan_id":"cebpf4jnsgd1na2vs0mg"},{"bike_id":"581367ce-481c-40c1-a0e2-d5680f7b4da1","system_id":"levelo_inurba_marseille","lat":43.25935,"lon":5.40915,"is_reserved":false,"is_disabled":false,"rental_uris":{"android":"levelo://app?vid=581367ce-481c-40c1-a0e2-d5680f7b4da1","ios":"levelo://app?vid=581367ce-481c-40c1-a0e2-d5680f7b4da1"},"vehicle_type_id":"4","last_reported":1733479839,"current_range_meters":38400,"station_id":"ce4bhm92rcd13ifvqglg","pricing_plan_id":"cebpf4jnsgd1na2vs0mg"},{"bike_id":"1223cd63-2d39-4ea8-96db-3ee79f668f4b","system_id":"levelo_inurba_marseille","lat":43.24074,"lon":5.37744,"is_reserved":false,"is_disabled":false,"rental_uris":{"android":"levelo://app?vid=1223cd63-2d39-4ea8-96db-3ee79f668f4b","ios":"levelo://app?vid=1223cd63-2d39-4ea8-96db-3ee79f668f4b"},"vehicle_type_id":"4","last_reported":1733479839,"current_range_meters":28800,"station_id":"ce4bhnp2rcd13ifvqgvg","pricing_plan_id":"cebpf4jnsgd1na2vs0mg"},{"bike_id":"92793eb0-63d0-4667-9caa-cff3c9ab621e","system_id":"levelo_inurba_marseille","lat":43.24801,"lon":5.37455,"is_reserved":false,"is_disabled":false,"rental_uris":{"android":"levelo://app?vid=92793eb0-63d0-4667-9caa-cff3c9ab621e","ios":"levelo://app?vid=92793eb0-63d0-4667-9caa-cff3c9ab621e"},"vehicle_type_id":"4","last_reported":1733479839,"current_range_meters":15200,"station_id":"ce4bhgh2rcd13ifvqfb0","pricing_plan_id":"cebpf4jnsgd1na2vs0mg"},{"bike_id":"0ada4ac8-82be-41ab-a4d6-04558624c236","system_id":"levelo_inurba_marseille","lat":43.3248,"lon":5.36558,"is_reserved":false,"is_disabled":false,"rental_uris":{"android":"levelo://app?vid=0ada4ac8-82be-41ab-a4d6-04558624c236","ios":"levelo://app?vid=0ada4ac8-82be-41ab-a4d6-04558624c236"},"vehicle_type_id":"4","last_reported":1733479839,"current_range_meters":28000,"station_id":"ce4bhs12rcd13ifvqhvg","pricing_plan_id":"cebpf4jnsgd1na2vs0mg"},{"bike_id":"54ba71e0-d884-4f9c-98ee-7a5d8c90a2cb","system_id":"levelo_inurba_marseille","lat":43.27811,"lon":5.40706,"is_reserved":false,"is_disabled":false,"rental_uris":{"android":"levelo://app?vid=54ba71e0-d884-4f9c-98ee-7a5d8c90a2cb","ios":"levelo://app?vid=54ba71e0-d884-4f9c-98ee-7a5d8c90a2cb"},"vehicle_type_id":"4","last_reported":1733479839,"current_range_meters":38800,"station_id":"ce4bhnh2rcd13ifvqgtg","pricing_plan_id":"cebpf4jnsgd1na2vs0mg"},{"bike_id":"710c9d13-8a64-4ca7-ba64-fd3194714b19","system_id":"levelo_inurba_marseille","lat":43.30787,"lon":5.37336,"is_reserved":false,"is_disabled":false,"rental_uris":{"android":"levelo://app?vid=710c9d13-8a64-4ca7-ba64-fd3194714b19","ios":"levelo://app?vid=710c9d13-8a64-4ca7-ba64-fd3194714b19"},"vehicle_type_id":"4","last_reported":1733479839,"current_range_meters":16800,"station_id":"","pricing_plan_id":"cebpf4jnsgd1na2vs0mg"},{"bike_id":"a4b9e425-64b8-4ce2-a5ab-5fcc5d1230a4","system_id":"levelo_inurba_marseille","lat":43.32103,"lon":5.36775,"is_reserved":false,"is_disabled":false,"rental_uris":{"android":"levelo://app?vid=a4b9e425-64b8-4ce2-a5ab-5fcc5d1230a4","ios":"levelo://app?vid=a4b9e425-64b8-4ce2-a5ab-5fcc5d1230a4"},"vehicle_type_id":"4","last_reported":1733479839,"current_range_meters":30400,"station_id":"ce4bhrh2rcd13ifvqhug","pricing_plan_id":"cebpf4jnsgd1na2vs0mg"},{"bike_id":"51991a0a-fe9c-412b-8c2b-242ee7813ef4","system_id":"levelo_inurba_marseille","lat":43.23963,"lon":5.36641,"is_reserved":false,"is_disabled":false,"rental_uris":{"android":"levelo://app?vid=51991a0a-fe9c-412b-8c2b-242ee7813ef4","ios":"levelo://app?vid=51991a0a-fe9c-412b-8c2b-242ee7813ef4"},"vehicle_type_id":"4","last_reported":1733479839,"current_range_meters":39200,"station_id":"ce4bhi12rcd13ifvqfp0","pricing_plan_id":"cebpf4jnsgd1na2vs0mg"},{"bike_id":"fd98eaa9-4d55-4e7b-aa90-0d14707466d9","system_id":"levelo_inurba_marseille","lat":43.337444,"lon":5.374475,"is_reserved":false,"is_disabled":true,"rental_uris":{"android":"levelo://app?vid=fd98eaa9-4d55-4e7b-aa90-0d14707466d9","ios":"levelo://app?vid=fd98eaa9-4d55-4e7b-aa90-0d14707466d9"},"vehicle_type_id":"4","last_reported":1733479839,"current_range_meters":0,"station_id":"","pricing_plan_id":"cebpf4jnsgd1na2vs0mg"},{"bike_id":"cce6f420-4439-4f23-b16c-85a1cc91ce44","system_id":"levelo_inurba_marseille","lat":43.26212,"lon":5.37442,"is_reserved":false,"is_disabled":false,"rental_uris":{"android":"levelo://app?vid=cce6f420-4439-4f23-b16c-85a1cc91ce44","ios":"levelo://app?vid=cce6f420-4439-4f23-b16c-85a1cc91ce44"},"vehicle_type_id":"4","last_reported":1733479839,"current_range_meters":38000,"station_id":"ce4bhgp2rcd13ifvqfc0","pricing_plan_id":"cebpf4jnsgd1na2vs0mg"},{"bike_id":"3966595e-e2d4-4bd8-918a-f9a38207703b","system_id":"levelo_inurba_marseille","lat":43.30943,"lon":5.39051,"is_reserved":false,"is_disabled":false,"rental_uris":{"android":"levelo://app?vid=3966595e-e2d4-4bd8-918a-f9a38207703b","ios":"levelo://app?vid=3966595e-e2d4-4bd8-918a-f9a38207703b"},"vehicle_type_id":"4","last_reported":1733479839,"current_range_meters":38000,"station_id":"ce4bgup2rcd13ifvqco0","pricing_plan_id":"cebpf4jnsgd1na2vs0mg"},{"bike_id":"4675f912-ab06-489f-b209-f5122a22dd11","system_id":"levelo_inurba_marseille","lat":43.28665,"lon":5.36349,"is_reserved":false,"is_disabled":false,"rental_uris":{"android":"levelo://app?vid=4675f912-ab06-489f-b209-f5122a22dd11","ios":"levelo://app?vid=4675f912-ab06-489f-b209-f5122a22dd11"},"vehicle_type_id":"4","last_reported":1733479839,"current_range_meters":20400,"station_id":"ce4bhah2rcd13ifvqej0","pricing_plan_id":"cebpf4jnsgd1na2vs0mg"},{"bike_id":"e25dc6e3-1f83-4e32-ad60-7f8ea4cb5b47","system_id":"levelo_inurba_marseille","lat":43.29794,"lon":5.39351,"is_reserved":false,"is_disabled":true,"rental_uris":{"android":"levelo://app?vid=e25dc6e3-1f83-4e32-ad60-7f8ea4cb5b47","ios":"levelo://app?vid=e25dc6e3-1f83-4e32-ad60-7f8ea4cb5b47"},"vehicle_type_id":"4","last_reported":1733479839,"current_range_meters":0,"station_id":"chh1huq6cuj3fo74tm60","pricing_plan_id":"cebpf4jnsgd1na2vs0mg"},{"bike_id":"9f166179-3cc0-42ca-860b-06242525cca2","system_id":"levelo_inurba_marseille","lat":43.32046,"lon":5.41592,"is_reserved":false,"is_disabled":false,"rental_uris":{"android":"levelo://app?vid=9f166179-3cc0-42ca-860b-06242525cca2","ios":"levelo://app?vid=9f166179-3cc0-42ca-860b-06242525cca2"},"vehicle_type_id":"4","last_reported":1733479839,"current_range_meters":34800,"station_id":"ce4bhq92rcd13ifvqhkg","pricing_plan_id":"cebpf4jnsgd1na2vs0mg"},{"bike_id":"3ce18199-25b0-40f7-bb36-1f49cc7e6d28","system_id":"levelo_inurba_marseille","lat":43.27977,"lon":5.38734,"is_reserved":false,"is_disabled":false,"rental_uris":{"android":"levelo://app?vid=3ce18199-25b0-40f7-bb36-1f49cc7e6d28","ios":"levelo://app?vid=3ce18199-25b0-40f7-bb36-1f49cc7e6d28"},"vehicle_type_id":"4","last_reported":1733479839,"current_range_meters":26000,"station_id":"ce4bhg12rcd13ifvqf80","pricing_plan_id":"cebpf4jnsgd1na2vs0mg"},{"bike_id":"c2d8a1c2-d166-4a36-b32f-beec95c93bd5","system_id":"levelo_inurba_marseille","lat":43.33756,"lon":5.37459,"is_reserved":false,"is_disabled":false,"rental_uris":{"android":"levelo://app?vid=c2d8a1c2-d166-4a36-b32f-beec95c93bd5","ios":"levelo://app?vid=c2d8a1c2-d166-4a36-b32f-beec95c93bd5"},"vehicle_type_id":"4","last_reported":1733479839,"current_range_meters":4800,"station_id":"","pricing_plan_id":"cebpf4jnsgd1na2vs0mg"},{"bike_id":"3fc211b5-8d37-40d3-9ca6-016ef413ddc8","system_id":"levelo_inurba_marseille","lat":43.29675,"lon":5.37297,"is_reserved":false,"is_disabled":false,"rental_uris":{"android":"levelo://app?vid=3fc211b5-8d37-40d3-9ca6-016ef413ddc8","ios":"levelo://app?vid=3fc211b5-8d37-40d3-9ca6-016ef413ddc8"},"vehicle_type_id":"4","last_reported":1733479839,"current_range_meters":26800,"station_id":"ce4bgk12rcd13ifvqbj0","pricing_plan_id":"cebpf4jnsgd1na2vs0mg"},{"bike_id":"616e9dd7-6120-46a2-82ee-5e4f70d598e0","system_id":"levelo_inurba_marseille","lat":43.24077,"lon":5.37751,"is_reserved":false,"is_disabled":false,"rental_uris":{"android":"levelo://app?vid=616e9dd7-6120-46a2-82ee-5e4f70d598e0","ios":"levelo://app?vid=616e9dd7-6120-46a2-82ee-5e4f70d598e0"},"vehicle_type_id":"4","last_reported":1733479839,"current_range_meters":14000,"station_id":"ce4bhnp2rcd13ifvqgvg","pricing_plan_id":"cebpf4jnsgd1na2vs0mg"},{"bike_id":"3ff9d4f2-fed3-4f22-accd-56edda5d500f","system_id":"levelo_inurba_marseille","lat":43.24069,"lon":5.3776,"is_reserved":false,"is_disabled":false,"rental_uris":{"android":"levelo://app?vid=3ff9d4f2-fed3-4f22-accd-56edda5d500f","ios":"levelo://app?vid=3ff9d4f2-fed3-4f22-accd-56edda5d500f"},"vehicle_type_id":"4","last_reported":1733479839,"current_range_meters":21600,"station_id":"ce4bhnp2rcd13ifvqgvg","pricing_plan_id":"cebpf4jnsgd1na2vs0mg"},{"bike_id":"295d6a08-fe13-4a80-af89-aec25176bae5","system_id":"levelo_inurba_marseille","lat":43.31489,"lon":5.37306,"is_reserved":false,"is_disabled":false,"rental_uris":{"android":"levelo://app?vid=295d6a08-fe13-4a80-af89-aec25176bae5","ios":"levelo://app?vid=295d6a08-fe13-4a80-af89-aec25176bae5"},"vehicle_type_id":"4","last_reported":1733479839,"current_range_meters":24400,"station_id":"ce4bgt12rcd13ifvqcd0","pricing_plan_id":"cebpf4jnsgd1na2vs0mg"},{"bike_id":"af01c0d2-5ebd-4966-a733-186db68229a3","system_id":"levelo_inurba_marseille","lat":43.27075,"lon":5.42287,"is_reserved":false,"is_disabled":false,"rental_uris":{"android":"levelo://app?vid=af01c0d2-5ebd-4966-a733-186db68229a3","ios":"levelo://app?vid=af01c0d2-5ebd-4966-a733-186db68229a3"},"vehicle_type_id":"4","last_reported":1733479839,"current_range_meters":12000,"station_id":"ce4bhk92rcd13ifvqgb0","pricing_plan_id":"cebpf4jnsgd1na2vs0mg"},{"bike_id":"79e4bfd0-4f6a-4b0d-bbd8-a59ad30971e0","system_id":"levelo_inurba_marseille","lat":43.30941,"lon":5.39039,"is_reserved":false,"is_disabled":false,"rental_uris":{"android":"levelo://app?vid=79e4bfd0-4f6a-4b0d-bbd8-a59ad30971e0","ios":"levelo://app?vid=79e4bfd0-4f6a-4b0d-bbd8-a59ad30971e0"},"vehicle_type_id":"4","last_reported":1733479839,"current_range_meters":2800,"station_id":"ce4bgup2rcd13ifvqco0","pricing_plan_id":"cebpf4jnsgd1na2vs0mg"},{"bike_id":"76a7c25f-64ae-40f1-a842-f8a5377dc1b2","system_id":"levelo_inurba_marseille","lat":43.30142,"lon":5.37413,"is_reserved":false,"is_disabled":false,"rental_uris":{"android":"levelo://app?vid=76a7c25f-64ae-40f1-a842-f8a5377dc1b2","ios":"levelo://app?vid=76a7c25f-64ae-40f1-a842-f8a5377dc1b2"},"vehicle_type_id":"4","last_reported":1733479839,"current_range_meters":26000,"station_id":"ce4bgs92rcd13ifvqcc0","pricing_plan_id":"cebpf4jnsgd1na2vs0mg"},{"bike_id":"796cf321-0ee4-49ce-b6af-06733c4cb56c","system_id":"levelo_inurba_marseille","lat":43.26552,"lon":5.38997,"is_reserved":false,"is_disabled":false,"rental_uris":{"android":"levelo://app?vid=796cf321-0ee4-49ce-b6af-06733c4cb56c","ios":"levelo://app?vid=796cf321-0ee4-49ce-b6af-06733c4cb56c"},"vehicle_type_id":"4","last_reported":1733479839,"current_range_meters":36400,"station_id":"ce4bhe12rcd13ifvqf30","pricing_plan_id":"cebpf4jnsgd1na2vs0mg"},{"bike_id":"dce35d6a-08b0-4b4c-b89b-7b5e69e85874","system_id":"levelo_inurba_marseille","lat":43.32434,"lon":5.36371,"is_reserved":false,"is_disabled":false,"rental_uris":{"android":"levelo://app?vid=dce35d6a-08b0-4b4c-b89b-7b5e69e85874","ios":"levelo://app?vid=dce35d6a-08b0-4b4c-b89b-7b5e69e85874"},"vehicle_type_id":"4","last_reported":1733479839,"current_range_meters":6800,"station_id":"","pricing_plan_id":"cebpf4jnsgd1na2vs0mg"},{"bike_id":"37727576-2d28-4525-b065-40affdaee0f8","system_id":"levelo_inurba_marseille","lat":43.3236,"lon":5.3889,"is_reserved":false,"is_disabled":false,"rental_uris":{"android":"levelo://app?vid=37727576-2d28-4525-b065-40affdaee0f8","ios":"levelo://app?vid=37727576-2d28-4525-b065-40affdaee0f8"},"vehicle_type_id":"4","last_reported":1733479839,"current_range_meters":36800,"station_id":"ce4bhqp2rcd13ifvqhog","pricing_plan_id":"cebpf4jnsgd1na2vs0mg"},{"bike_id":"1a299d85-8e65-4792-b17a-5fa50dc1269a","system_id":"levelo_inurba_marseille","lat":43.29572,"lon":5.37519,"is_reserved":false,"is_disabled":false,"rental_uris":{"android":"levelo://app?vid=1a299d85-8e65-4792-b17a-5fa50dc1269a","ios":"levelo://app?vid=1a299d85-8e65-4792-b17a-5fa50dc1269a"},"vehicle_type_id":"4","last_reported":1733479839,"current_range_meters":6000,"station_id":"ce4bgh92rcd13ifvqb50","pricing_plan_id":"cebpf4jnsgd1na2vs0mg"},{"bike_id":"737bdef3-e4f9-4d42-9b3b-45164c8dc58f","system_id":"levelo_inurba_marseille","lat":43.24082,"lon":5.37709,"is_reserved":false,"is_disabled":true,"rental_uris":{"android":"levelo://app?vid=737bdef3-e4f9-4d42-9b3b-45164c8dc58f","ios":"levelo://app?vid=737bdef3-e4f9-4d42-9b3b-45164c8dc58f"},"vehicle_type_id":"4","last_reported":1733479839,"current_range_meters":38800,"station_id":"ce4bhnp2rcd13ifvqgvg","pricing_plan_id":"cebpf4jnsgd1na2vs0mg"},{"bike_id":"ee421459-8e59-479a-a4bc-dccd1dce9195","system_id":"levelo_inurba_marseille","lat":43.28367,"lon":5.38627,"is_reserved":false,"is_disabled":false,"rental_uris":{"android":"levelo://app?vid=ee421459-8e59-479a-a4bc-dccd1dce9195","ios":"levelo://app?vid=ee421459-8e59-479a-a4bc-dccd1dce9195"},"vehicle_type_id":"4","last_reported":1733479839,"current_range_meters":14800,"station_id":"ce4bh492rcd13ifvqdvg","pricing_plan_id":"cebpf4jnsgd1na2vs0mg"},{"bike_id":"2e25e5ac-189e-491e-a8a8-90c3dd347a2d","system_id":"levelo_inurba_marseille","lat":43.31352,"lon":5.36721,"is_reserved":false,"is_disabled":false,"rental_uris":{"android":"levelo://app?vid=2e25e5ac-189e-491e-a8a8-90c3dd347a2d","ios":"levelo://app?vid=2e25e5ac-189e-491e-a8a8-90c3dd347a2d"},"vehicle_type_id":"4","last_reported":1733479839,"current_range_meters":7200,"station_id":"ce4bgr92rcd13ifvqc6g","pricing_plan_id":"cebpf4jnsgd1na2vs0mg"},{"bike_id":"b9c7bee0-5635-4d39-88e9-1a74f07b42a9","system_id":"levelo_inurba_marseille","lat":43.26197,"lon":5.37442,"is_reserved":false,"is_disabled":false,"rental_uris":{"android":"levelo://app?vid=b9c7bee0-5635-4d39-88e9-1a74f07b42a9","ios":"levelo://app?vid=b9c7bee0-5635-4d39-88e9-1a74f07b42a9"},"vehicle_type_id":"4","last_reported":1733479839,"current_range_meters":38800,"station_id":"ce4bhgp2rcd13ifvqfc0","pricing_plan_id":"cebpf4jnsgd1na2vs0mg"},{"bike_id":"cb881818-1d71-401e-a2c3-d8fdf0775529","system_id":"levelo_inurba_marseille","lat":43.29723,"lon":5.3769,"is_reserved":false,"is_disabled":false,"rental_uris":{"android":"levelo://app?vid=cb881818-1d71-401e-a2c3-d8fdf0775529","ios":"levelo://app?vid=cb881818-1d71-401e-a2c3-d8fdf0775529"},"vehicle_type_id":"4","last_reported":1733479839,"current_range_meters":13600,"station_id":"ce4bgkh2rcd13ifvqbl0","pricing_plan_id":"cebpf4jnsgd1na2vs0mg"},{"bike_id":"4c731081-4465-4ee0-a99d-5a9339d6530d","system_id":"levelo_inurba_marseille","lat":43.23148,"lon":5.43716,"is_reserved":false,"is_disabled":true,"rental_uris":{"android":"levelo://app?vid=4c731081-4465-4ee0-a99d-5a9339d6530d","ios":"levelo://app?vid=4c731081-4465-4ee0-a99d-5a9339d6530d"},"vehicle_type_id":"4","last_reported":1733479839,"current_range_meters":22800,"station_id":"ce4bhmp2rcd13ifvqgog","pricing_plan_id":"cebpf4jnsgd1na2vs0mg"},{"bike_id":"c167d511-bb4b-4ac3-9991-876d51917c56","system_id":"levelo_inurba_marseille","lat":43.29293,"lon":5.37468,"is_reserved":false,"is_disabled":true,"rental_uris":{"android":"levelo://app?vid=c167d511-bb4b-4ac3-9991-876d51917c56","ios":"levelo://app?vid=c167d511-bb4b-4ac3-9991-876d51917c56"},"vehicle_type_id":"4","last_reported":1733479839,"current_range_meters":0,"station_id":"ce4bgi12rcd13ifvqb70","pricing_plan_id":"cebpf4jnsgd1na2vs0mg"},{"bike_id":"7cec87ae-5cf8-4ac3-b0bf-8d42d1422b1f","system_id":"levelo_inurba_marseille","lat":43.30433,"lon":5.40728,"is_reserved":false,"is_disabled":false,"rental_uris":{"android":"levelo://app?vid=7cec87ae-5cf8-4ac3-b0bf-8d42d1422b1f","ios":"levelo://app?vid=7cec87ae-5cf8-4ac3-b0bf-8d42d1422b1f"},"vehicle_type_id":"4","last_reported":1733479839,"current_range_meters":35200,"station_id":"","pricing_plan_id":"cebpf4jnsgd1na2vs0mg"},{"bike_id":"1ef1565e-6368-4bda-85e5-e69d0e390e9c","system_id":"levelo_inurba_marseille","lat":43.29618,"lon":5.37733,"is_reserved":false,"is_disabled":false,"rental_uris":{"android":"levelo://app?vid=1ef1565e-6368-4bda-85e5-e69d0e390e9c","ios":"levelo://app?vid=1ef1565e-6368-4bda-85e5-e69d0e390e9c"},"vehicle_type_id":"4","last_reported":1733479839,"current_range_meters":26000,"station_id":"ce4bgi92rcd13ifvqb90","pricing_plan_id":"cebpf4jnsgd1na2vs0mg"},{"bike_id":"06fa5d7c-3b9b-4c5d-a878-9f9d07eac2da","system_id":"levelo_inurba_marseille","lat":43.2795,"lon":5.41045,"is_reserved":false,"is_disabled":false,"rental_uris":{"android":"levelo://app?vid=06fa5d7c-3b9b-4c5d-a878-9f9d07eac2da","ios":"levelo://app?vid=06fa5d7c-3b9b-4c5d-a878-9f9d07eac2da"},"vehicle_type_id":"4","last_reported":1733479839,"current_range_meters":33200,"station_id":"ce4bhnp2rcd13ifvqh0g","pricing_plan_id":"cebpf4jnsgd1na2vs0mg"},{"bike_id":"28121aa3-7c19-4b1b-a44a-d17aed6b8d94","system_id":"levelo_inurba_marseille","lat":43.337444,"lon":5.374475,"is_reserved":false,"is_disabled":false,"rental_uris":{"android":"levelo://app?vid=28121aa3-7c19-4b1b-a44a-d17aed6b8d94","ios":"levelo://app?vid=28121aa3-7c19-4b1b-a44a-d17aed6b8d94"},"vehicle_type_id":"4","last_reported":1733479839,"current_range_meters":34000,"station_id":"","pricing_plan_id":"cebpf4jnsgd1na2vs0mg"},{"bike_id":"0dfe5993-5179-4656-97ef-5f6faa77baac","system_id":"levelo_inurba_marseille","lat":43.30538,"lon":5.36536,"is_reserved":false,"is_disabled":false,"rental_uris":{"android":"levelo://app?vid=0dfe5993-5179-4656-97ef-5f6faa77baac","ios":"levelo://app?vid=0dfe5993-5179-4656-97ef-5f6faa77baac"},"vehicle_type_id":"4","last_reported":1733479839,"current_range_meters":20800,"station_id":"ce4bgs12rcd13ifvqcag","pricing_plan_id":"cebpf4jnsgd1na2vs0mg"},{"bike_id":"f24ebfbd-3f27-4be3-a81c-5b1674f87a3b","system_id":"levelo_inurba_marseille","lat":43.32663,"lon":5.40992,"is_reserved":false,"is_disabled":false,"rental_uris":{"android":"levelo://app?vid=f24ebfbd-3f27-4be3-a81c-5b1674f87a3b","ios":"levelo://app?vid=f24ebfbd-3f27-4be3-a81c-5b1674f87a3b"},"vehicle_type_id":"4","last_reported":1733479839,"current_range_meters":31200,"station_id":"ce4bhpp2rcd13ifvqhgg","pricing_plan_id":"cebpf4jnsgd1na2vs0mg"},{"bike_id":"0698d184-313c-42b8-bc3a-90a38a46ba80","system_id":"levelo_inurba_marseille","lat":43.3013,"lon":5.38785,"is_reserved":false,"is_disabled":true,"rental_uris":{"android":"levelo://app?vid=0698d184-313c-42b8-bc3a-90a38a46ba80","ios":"levelo://app?vid=0698d184-313c-42b8-bc3a-90a38a46ba80"},"vehicle_type_id":"4","last_reported":1733479839,"current_range_meters":800,"station_id":"ce4bghh2rcd13ifvqb60","pricing_plan_id":"cebpf4jnsgd1na2vs0mg"},{"bike_id":"21c61b3f-2ae1-41ed-96e8-21fc1b01a387","system_id":"levelo_inurba_marseille","lat":43.300862,"lon":5.372438,"is_reserved":false,"is_disabled":false,"rental_uris":{"android":"levelo://app?vid=21c61b3f-2ae1-41ed-96e8-21fc1b01a387","ios":"levelo://app?vid=21c61b3f-2ae1-41ed-96e8-21fc1b01a387"},"vehicle_type_id":"4","last_reported":1733479839,"current_range_meters":11200,"station_id":"","pricing_plan_id":"cebpf4jnsgd1na2vs0mg"},{"bike_id":"bd264e83-d317-4e9c-b182-83ce55863ef8","system_id":"levelo_inurba_marseille","lat":43.283688,"lon":5.38633,"is_reserved":false,"is_disabled":false,"rental_uris":{"android":"levelo://app?vid=bd264e83-d317-4e9c-b182-83ce55863ef8","ios":"levelo://app?vid=bd264e83-d317-4e9c-b182-83ce55863ef8"},"vehicle_type_id":"4","last_reported":1733479839,"current_range_meters":30400,"station_id":"ce4bh492rcd13ifvqdvg","pricing_plan_id":"cebpf4jnsgd1na2vs0mg"},{"bike_id":"3a9149f3-357c-4d0a-859b-18382ef024a5","system_id":"levelo_inurba_marseille","lat":43.32106,"lon":5.3676,"is_reserved":false,"is_disabled":false,"rental_uris":{"android":"levelo://app?vid=3a9149f3-357c-4d0a-859b-18382ef024a5","ios":"levelo://app?vid=3a9149f3-357c-4d0a-859b-18382ef024a5"},"vehicle_type_id":"4","last_reported":1733479839,"current_range_meters":19200,"station_id":"ce4bhrh2rcd13ifvqhug","pricing_plan_id":"cebpf4jnsgd1na2vs0mg"},{"bike_id":"bbcbfa71-d8f5-4b8e-9040-d67356b9ece4","system_id":"levelo_inurba_marseille","lat":43.31359,"lon":5.38485,"is_reserved":false,"is_disabled":false,"rental_uris":{"android":"levelo://app?vid=bbcbfa71-d8f5-4b8e-9040-d67356b9ece4","ios":"levelo://app?vid=bbcbfa71-d8f5-4b8e-9040-d67356b9ece4"},"vehicle_type_id":"4","last_reported":1733479839,"current_range_meters":6800,"station_id":"ce4bgt92rcd13ifvqcf0","pricing_plan_id":"cebpf4jnsgd1na2vs0mg"},{"bike_id":"868a434e-7c11-4b20-84c6-7ecdbf24c83b","system_id":"levelo_inurba_marseille","lat":43.33022,"lon":5.39037,"is_reserved":false,"is_disabled":false,"rental_uris":{"android":"levelo://app?vid=868a434e-7c11-4b20-84c6-7ecdbf24c83b","ios":"levelo://app?vid=868a434e-7c11-4b20-84c6-7ecdbf24c83b"},"vehicle_type_id":"4","last_reported":1733479839,"current_range_meters":28000,"station_id":"ce4bhr92rcd13ifvqhrg","pricing_plan_id":"cebpf4jnsgd1na2vs0mg"},{"bike_id":"f4f26259-85f2-42d3-b0b5-c02046ecbaee","system_id":"levelo_inurba_marseille","lat":43.3121,"lon":5.36868,"is_reserved":false,"is_disabled":false,"rental_uris":{"android":"levelo://app?vid=f4f26259-85f2-42d3-b0b5-c02046ecbaee","ios":"levelo://app?vid=f4f26259-85f2-42d3-b0b5-c02046ecbaee"},