{"last_updated":1745752057,"ttl":60,"version":"2.2","data":{"bikes":[{"bike_id":"422b5989-c8b6-43aa-b2b9-3bfeb2e1ddc0","system_id":"levelo_inurba_marseille","lat":43.2474,"lon":5.41163,"is_reserved":false,"is_disabled":false,"rental_uris":{"android":"levelo://app?vid=422b5989-c8b6-43aa-b2b9-3bfeb2e1ddc0","ios":"levelo://app?vid=422b5989-c8b6-43aa-b2b9-3bfeb2e1ddc0"},"vehicle_type_id":"4","last_reported":1745752057,"current_range_meters":3200,"station_id":"","pricing_plan_id":"cebpf4jnsgd1na2vs0mg"},{"bike_id":"504e7884-2bcf-417c-ab4f-b68ceecf6665","system_id":"levelo_inurba_marseille","lat":43.29842,"lon":5.36268,"is_reserved":false,"is_disabled":false,"rental_uris":{"android":"levelo://app?vid=504e7884-2bcf-417c-ab4f-b68ceecf6665","ios":"levelo://app?vid=504e7884-2bcf-417c-ab4f-b68ceecf6665"},"vehicle_type_id":"4","last_reported":1745752057,"current_range_meters":3200,"station_id":"ce4bgpp2rcd13ifvqc3g","pricing_plan_id":"cebpf4jnsgd1na2vs0mg"},{"bike_id":"d1ff7e34-d25d-4063-9648-2bd4db47424f","system_id":"levelo_inurba_marseille","lat":43.32455,"lon":5.39145,"is_reserved":false,"is_disabled":true,"rental_uris":{"android":"levelo://app?vid=d1ff7e34-d25d-4063-9648-2bd4db47424f","ios":"levelo://app?vid=d1ff7e34-d25d-4063-9648-2bd4db47424f"},"vehicle_type_id":"4","last_reported":1745752057,"current_range_meters":3200,"station_id":"","pricing_plan_id":"cebpf4jnsgd1na2vs0mg"},{"bike_id":"0e80f1fc-c50a-42b5-89ce-40663ac3c666","system_id":"levelo_inurba_marseille","lat":43.29278,"lon":5.36847,"is_reserved":false,"is_disabled":false,"rental_uris":{"android":"levelo://app?vid=0e80f1fc-c50a-42b5-89ce-40663ac3c666","ios":"levelo://app?vid=0e80f1fc-c50a-42b5-89ce-40663ac3c666"},"vehicle_type_id":"4","last_reported":1745752057,"current_range_meters":3600,"station_id":"ce4bhbp2rcd13ifvqesg","pricing_plan_id":"cebpf4jnsgd1na2vs0mg"},{"bike_id":"554fe001-fd7c-4ce9-8b9f-fe24a3da343a","system_id":"levelo_inurba_marseille","lat":43.231919,"lon":5.355594,"is_reserved":false,"is_disabled":false,"rental_uris":{"android":"levelo://app?vid=554fe001-fd7c-4ce9-8b9f-fe24a3da343a","ios":"levelo://app?vid=554fe001-fd7c-4ce9-8b9f-fe24a3da343a"},"vehicle_type_id":"4","last_reported":1745752057,"current_range_meters":4000,"station_id":"ce4bhu92rcd13ifvqi70","pricing_plan_id":"cebpf4jnsgd1na2vs0mg"},{"bike_id":"11401a89-1aad-4932-8dc9-873ec02586b9","system_id":"levelo_inurba_marseille","lat":43.22507,"lon":5.34773,"is_reserved":false,"is_disabled":false,"rental_uris":{"android":"levelo://app?vid=11401a89-1aad-4932-8dc9-873ec02586b9","ios":"levelo://app?vid=11401a89-1aad-4932-8dc9-873ec02586b9"},"vehicle_type_id":"4","last_reported":1745752057,"current_range_meters":4800,"station_id":"st_cvj5dfep6f1abm77gieg","pricing_plan_id":"cebpf4jnsgd1na2vs0mg"},{"bike_id":"ca570128-a1d8-4fc9-b4ae-d1371ee8f806","system_id":"levelo_inurba_marseille","lat":43.31473,"lon":5.37276,"is_reserved":false,"is_disabled":false,"rental_uris":{"android":"levelo://app?vid=ca570128-a1d8-4fc9-b4ae-d1371ee8f806","ios":"levelo://app?vid=ca570128-a1d8-4fc9-b4ae-d1371ee8f806"},"vehicle_type_id":"4","last_reported":1745752057,"current_range_meters":5600,"station_id":"ce4bgt12rcd13ifvqcd0","pricing_plan_id":"cebpf4jnsgd1na2vs0mg"},{"bike_id":"d48770ea-271d-480f-a83f-8620fe6a1833","system_id":"levelo_inurba_marseille","lat":43.28153,"lon":5.40462,"is_reserved":false,"is_disabled":true,"rental_uris":{"android":"levelo://app?vid=d48770ea-271d-480f-a83f-8620fe6a1833","ios":"levelo://app?vid=d48770ea-271d-480f-a83f-8620fe6a1833"},"vehicle_type_id":"4","last_reported":1745752057,"current_range_meters":5600,"station_id":"","pricing_plan_id":"cebpf4jnsgd1na2vs0mg"},{"bike_id":"3076b18b-15c6-4c24-9eb1-3934ac78e3de","system_id":"levelo_inurba_marseille","lat":43.29002,"lon":5.35613,"is_reserved":false,"is_disabled":false,"rental_uris":{"android":"levelo://app?vid=3076b18b-15c6-4c24-9eb1-3934ac78e3de","ios":"levelo://app?vid=3076b18b-15c6-4c24-9eb1-3934ac78e3de"},"vehicle_type_id":"4","last_reported":1745752057,"current_range_meters":5600,"station_id":"ce4bhb92rcd13ifvqen0","pricing_plan_id":"cebpf4jnsgd1na2vs0mg"},{"bike_id":"81254035-dc67-49f1-a51a-82bce6a36e04","system_id":"levelo_inurba_marseille","lat":43.28402,"lon":5.37522,"is_reserved":false,"is_disabled":false,"rental_uris":{"android":"levelo://app?vid=81254035-dc67-49f1-a51a-82bce6a36e04","ios":"levelo://app?vid=81254035-dc67-49f1-a51a-82bce6a36e04"},"vehicle_type_id":"4","last_reported":1745752057,"current_range_meters":6000,"station_id":"ce4bh412rcd13ifvqds0","pricing_plan_id":"cebpf4jnsgd1na2vs0mg"},{"bike_id":"c1a759d7-523a-4c59-a9a8-64fc737f9a9c","system_id":"levelo_inurba_marseille","lat":43.27945,"lon":5.41042,"is_reserved":false,"is_disabled":false,"rental_uris":{"android":"levelo://app?vid=c1a759d7-523a-4c59-a9a8-64fc737f9a9c","ios":"levelo://app?vid=c1a759d7-523a-4c59-a9a8-64fc737f9a9c"},"vehicle_type_id":"4","last_reported":1745752057,"current_range_meters":6400,"station_id":"ce4bhnp2rcd13ifvqh0g","pricing_plan_id":"cebpf4jnsgd1na2vs0mg"},{"bike_id":"2fac31c9-ecd4-4c07-9ea5-ab959ac9f813","system_id":"levelo_inurba_marseille","lat":43.24671,"lon":5.38177,"is_reserved":false,"is_disabled":true,"rental_uris":{"android":"levelo://app?vid=2fac31c9-ecd4-4c07-9ea5-ab959ac9f813","ios":"levelo://app?vid=2fac31c9-ecd4-4c07-9ea5-ab959ac9f813"},"vehicle_type_id":"4","last_reported":1745752057,"current_range_meters":6400,"station_id":"ce4bhih2rcd13ifvqfr0","pricing_plan_id":"cebpf4jnsgd1na2vs0mg"},{"bike_id":"ee58ec25-c8e2-4569-aba4-8bce210edbec","system_id":"levelo_inurba_marseille","lat":43.29714,"lon":5.36609,"is_reserved":false,"is_disabled":false,"rental_uris":{"android":"levelo://app?vid=ee58ec25-c8e2-4569-aba4-8bce210edbec","ios":"levelo://app?vid=ee58ec25-c8e2-4569-aba4-8bce210edbec"},"vehicle_type_id":"4","last_reported":1745752057,"current_range_meters":6400,"station_id":"ce4bgn12rcd13ifvqbt0","pricing_plan_id":"cebpf4jnsgd1na2vs0mg"},{"bike_id":"b4cbc32d-aa27-4977-89f1-0eda7c5d5a6c","system_id":"levelo_inurba_marseille","lat":43.24153,"lon":5.36719,"is_reserved":false,"is_disabled":false,"rental_uris":{"android":"levelo://app?vid=b4cbc32d-aa27-4977-89f1-0eda7c5d5a6c","ios":"levelo://app?vid=b4cbc32d-aa27-4977-89f1-0eda7c5d5a6c"},"vehicle_type_id":"4","last_reported":1745752057,"current_range_meters":6800,"station_id":"ce4bhi12rcd13ifvqfp0","pricing_plan_id":"cebpf4jnsgd1na2vs0mg"},{"bike_id":"1a218788-c815-4ad6-9544-de13a3fc056c","system_id":"levelo_inurba_marseille","lat":43.30533,"lon":5.36517,"is_reserved":false,"is_disabled":false,"rental_uris":{"android":"levelo://app?vid=1a218788-c815-4ad6-9544-de13a3fc056c","ios":"levelo://app?vid=1a218788-c815-4ad6-9544-de13a3fc056c"},"vehicle_type_id":"4","last_reported":1745752057,"current_range_meters":6800,"station_id":"ce4bgs12rcd13ifvqcag","pricing_plan_id":"cebpf4jnsgd1na2vs0mg"},{"bike_id":"b9d9721d-c534-4190-b885-afd25bc0dc94","system_id":"levelo_inurba_marseille","lat":43.29246,"lon":5.37616,"is_reserved":false,"is_disabled":false,"rental_uris":{"android":"levelo://app?vid=b9d9721d-c534-4190-b885-afd25bc0dc94","ios":"levelo://app?vid=b9d9721d-c534-4190-b885-afd25bc0dc94"},"vehicle_type_id":"4","last_reported":1745752057,"current_range_meters":6800,"station_id":"ce4bgi12rcd13ifvqb80","pricing_plan_id":"cebpf4jnsgd1na2vs0mg"},{"bike_id":"e01ef73b-c0a3-4a10-b7b8-f172a00db8a9","system_id":"levelo_inurba_marseille","lat":43.28399,"lon":5.3752,"is_reserved":false,"is_disabled":false,"rental_uris":{"android":"levelo://app?vid=e01ef73b-c0a3-4a10-b7b8-f172a00db8a9","ios":"levelo://app?vid=e01ef73b-c0a3-4a10-b7b8-f172a00db8a9"},"vehicle_type_id":"4","last_reported":1745752057,"current_range_meters":6800,"station_id":"ce4bh412rcd13ifvqds0","pricing_plan_id":"cebpf4jnsgd1na2vs0mg"},{"bike_id":"b0e549a2-19a1-4353-bdae-b28335734158","system_id":"levelo_inurba_marseille","lat":43.28614,"lon":5.35104,"is_reserved":false,"is_disabled":false,"rental_uris":{"android":"levelo://app?vid=b0e549a2-19a1-4353-bdae-b28335734158","ios":"levelo://app?vid=b0e549a2-19a1-4353-bdae-b28335734158"},"vehicle_type_id":"4","last_reported":1745752057,"current_range_meters":6800,"station_id":"ce4bhch2rcd13ifvqeug","pricing_plan_id":"cebpf4jnsgd1na2vs0mg"},{"bike_id":"b4b0266c-631d-4bc0-b722-43b22c86c85f","system_id":"levelo_inurba_marseille","lat":43.30999,"lon":5.41692,"is_reserved":false,"is_disabled":false,"rental_uris":{"android":"levelo://app?vid=b4b0266c-631d-4bc0-b722-43b22c86c85f","ios":"levelo://app?vid=b4b0266c-631d-4bc0-b722-43b22c86c85f"},"vehicle_type_id":"4","last_reported":1745752057,"current_range_meters":7200,"station_id":"","pricing_plan_id":"cebpf4jnsgd1na2vs0mg"},{"bike_id":"c886bc95-a9f4-4b08-af93-286cc6dbd1ea","system_id":"levelo_inurba_marseille","lat":43.241694,"lon":5.364008,"is_reserved":false,"is_disabled":false,"rental_uris":{"android":"levelo://app?vid=c886bc95-a9f4-4b08-af93-286cc6dbd1ea","ios":"levelo://app?vid=c886bc95-a9f4-4b08-af93-286cc6dbd1ea"},"vehicle_type_id":"4","last_reported":1745752057,"current_range_meters":7200,"station_id":"cpo36qri1sfpv3e86is0","pricing_plan_id":"cebpf4jnsgd1na2vs0mg"},{"bike_id":"3f485f12-ccbf-4cc6-bfee-26b7c2709069","system_id":"levelo_inurba_marseille","lat":43.28187,"lon":5.49059,"is_reserved":false,"is_disabled":false,"rental_uris":{"android":"levelo://app?vid=3f485f12-ccbf-4cc6-bfee-26b7c2709069","ios":"levelo://app?vid=3f485f12-ccbf-4cc6-bfee-26b7c2709069"},"vehicle_type_id":"4","last_reported":1745752057,"current_range_meters":7200,"station_id":"","pricing_plan_id":"cebpf4jnsgd1na2vs0mg"},{"bike_id":"571880c0-0712-439e-9fee-1111267484d9","system_id":"levelo_inurba_marseille","lat":43.28712,"lon":5.37949,"is_reserved":false,"is_disabled":true,"rental_uris":{"android":"levelo://app?vid=571880c0-0712-439e-9fee-1111267484d9","ios":"levelo://app?vid=571880c0-0712-439e-9fee-1111267484d9"},"vehicle_type_id":"4","last_reported":1745752057,"current_range_meters":8000,"station_id":"ce4bh9p2rcd13ifvqec0","pricing_plan_id":"cebpf4jnsgd1na2vs0mg"},{"bike_id":"e768aa58-f78c-4d48-862b-93a92cf87bd8","system_id":"levelo_inurba_marseille","lat":43.32105,"lon":5.36798,"is_reserved":false,"is_disabled":false,"rental_uris":{"android":"levelo://app?vid=e768aa58-f78c-4d48-862b-93a92cf87bd8","ios":"levelo://app?vid=e768aa58-f78c-4d48-862b-93a92cf87bd8"},"vehicle_type_id":"4","last_reported":1745752057,"current_range_meters":8000,"station_id":"ce4bhrh2rcd13ifvqhug","pricing_plan_id":"cebpf4jnsgd1na2vs0mg"},{"bike_id":"042a36cf-a68c-4f02-8fbe-a3d4f36fa492","system_id":"levelo_inurba_marseille","lat":43.21197,"lon":5.35058,"is_reserved":false,"is_disabled":false,"rental_uris":{"android":"levelo://app?vid=042a36cf-a68c-4f02-8fbe-a3d4f36fa492","ios":"levelo://app?vid=042a36cf-a68c-4f02-8fbe-a3d4f36fa492"},"vehicle_type_id":"4","last_reported":1745752057,"current_range_meters":8000,"station_id":"st_cvj6sg6p6f1abm77japg","pricing_plan_id":"cebpf4jnsgd1na2vs0mg"},{"bike_id":"1a31acbc-2581-4cfd-8de0-0a624c1992f8","system_id":"levelo_inurba_marseille","lat":43.30472,"lon":5.37904,"is_reserved":false,"is_disabled":false,"rental_uris":{"android":"levelo://app?vid=1a31acbc-2581-4cfd-8de0-0a624c1992f8","ios":"levelo://app?vid=1a31acbc-2581-4cfd-8de0-0a624c1992f8"},"vehicle_type_id":"4","last_reported":1745752057,"current_range_meters":8400,"station_id":"ce4bgup2rcd13ifvqcn0","pricing_plan_id":"cebpf4jnsgd1na2vs0mg"},{"bike_id":"ab196e5e-cc1a-4b85-a544-ed67fcc1a462","system_id":"levelo_inurba_marseille","lat":43.26785,"lon":5.39409,"is_reserved":false,"is_disabled":false,"rental_uris":{"android":"levelo://app?vid=ab196e5e-cc1a-4b85-a544-ed67fcc1a462","ios":"levelo://app?vid=ab196e5e-cc1a-4b85-a544-ed67fcc1a462"},"vehicle_type_id":"4","last_reported":1745752057,"current_range_meters":8000,"station_id":"ce4bhh12rcd13ifvqfg0","pricing_plan_id":"cebpf4jnsgd1na2vs0mg"},{"bike_id":"308ce0d7-54d5-4aec-879f-da2149307f93","system_id":"levelo_inurba_marseille","lat":43.22522,"lon":5.34788,"is_reserved":false,"is_disabled":true,"rental_uris":{"android":"levelo://app?vid=308ce0d7-54d5-4aec-879f-da2149307f93","ios":"levelo://app?vid=308ce0d7-54d5-4aec-879f-da2149307f93"},"vehicle_type_id":"4","last_reported":1745752057,"current_range_meters":8400,"station_id":"st_cvj5dfep6f1abm77gieg","pricing_plan_id":"cebpf4jnsgd1na2vs0mg"},{"bike_id":"6d7cc870-ccfd-4f48-96fb-e8c1f82a64cc","system_id":"levelo_inurba_marseille","lat":43.29793,"lon":5.37106,"is_reserved":false,"is_disabled":true,"rental_uris":{"android":"levelo://app?vid=6d7cc870-ccfd-4f48-96fb-e8c1f82a64cc","ios":"levelo://app?vid=6d7cc870-ccfd-4f48-96fb-e8c1f82a64cc"},"vehicle_type_id":"4","last_reported":1745752057,"current_range_meters":8400,"station_id":"ce4bgop2rcd13ifvqc1g","pricing_plan_id":"cebpf4jnsgd1na2vs0mg"},{"bike_id":"aa7dd23a-c50c-4359-a4fa-3d29c4576751","system_id":"levelo_inurba_marseille","lat":43.24182,"lon":5.36418,"is_reserved":false,"is_disabled":false,"rental_uris":{"android":"levelo://app?vid=aa7dd23a-c50c-4359-a4fa-3d29c4576751","ios":"levelo://app?vid=aa7dd23a-c50c-4359-a4fa-3d29c4576751"},"vehicle_type_id":"4","last_reported":1745752057,"current_range_meters":8400,"station_id":"cpo36qri1sfpv3e86is0","pricing_plan_id":"cebpf4jnsgd1na2vs0mg"},{"bike_id":"9d24975d-5989-4c6e-bc54-bdc168e02c5f","system_id":"levelo_inurba_marseille","lat":43.24484,"lon":5.41174,"is_reserved":false,"is_disabled":false,"rental_uris":{"android":"levelo://app?vid=9d24975d-5989-4c6e-bc54-bdc168e02c5f","ios":"levelo://app?vid=9d24975d-5989-4c6e-bc54-bdc168e02c5f"},"vehicle_type_id":"4","last_reported":1745752057,"current_range_meters":8400,"station_id":"","pricing_plan_id":"cebpf4jnsgd1na2vs0mg"},{"bike_id":"66182a1f-5ec7-4924-98d5-d0d11c268c2d","system_id":"levelo_inurba_marseille","lat":43.25585,"lon":5.38249,"is_reserved":false,"is_disabled":false,"rental_uris":{"android":"levelo://app?vid=66182a1f-5ec7-4924-98d5-d0d11c268c2d","ios":"levelo://app?vid=66182a1f-5ec7-4924-98d5-d0d11c268c2d"},"vehicle_type_id":"4","last_reported":1745752057,"current_range_meters":8400,"station_id":"ce4bhih2rcd13ifvqfs0","pricing_plan_id":"cebpf4jnsgd1na2vs0mg"},{"bike_id":"c1b1b433-bcb9-4a7d-8963-3218bcdcba1e","system_id":"levelo_inurba_marseille","lat":43.23362,"lon":5.36059,"is_reserved":false,"is_disabled":false,"rental_uris":{"android":"levelo://app?vid=c1b1b433-bcb9-4a7d-8963-3218bcdcba1e","ios":"levelo://app?vid=c1b1b433-bcb9-4a7d-8963-3218bcdcba1e"},"vehicle_type_id":"4","last_reported":1745752057,"current_range_meters":8400,"station_id":"","pricing_plan_id":"cebpf4jnsgd1na2vs0mg"},{"bike_id":"9a23eaba-ba51-465d-aa37-226bafec3d84","system_id":"levelo_inurba_marseille","lat":43.21771,"lon":5.34617,"is_reserved":false,"is_disabled":false,"rental_uris":{"android":"levelo://app?vid=9a23eaba-ba51-465d-aa37-226bafec3d84","ios":"levelo://app?vid=9a23eaba-ba51-465d-aa37-226bafec3d84"},"vehicle_type_id":"4","last_reported":1745752057,"current_range_meters":8800,"station_id":"st_cvj6r9ubvosntc0bgbag","pricing_plan_id":"cebpf4jnsgd1na2vs0mg"},{"bike_id":"0cce7ea2-3151-4739-8e52-340c11e5c4e0","system_id":"levelo_inurba_marseille","lat":43.24675,"lon":5.38144,"is_reserved":false,"is_disabled":false,"rental_uris":{"android":"levelo://app?vid=0cce7ea2-3151-4739-8e52-340c11e5c4e0","ios":"levelo://app?vid=0cce7ea2-3151-4739-8e52-340c11e5c4e0"},"vehicle_type_id":"4","last_reported":1745752057,"current_range_meters":8800,"station_id":"ce4bhih2rcd13ifvqfr0","pricing_plan_id":"cebpf4jnsgd1na2vs0mg"},{"bike_id":"2d4820d4-569a-4ec0-b000-e82a960dd30b","system_id":"levelo_inurba_marseille","lat":43.23121,"lon":5.35481,"is_reserved":false,"is_disabled":false,"rental_uris":{"android":"levelo://app?vid=2d4820d4-569a-4ec0-b000-e82a960dd30b","ios":"levelo://app?vid=2d4820d4-569a-4ec0-b000-e82a960dd30b"},"vehicle_type_id":"4","last_reported":1745752057,"current_range_meters":8800,"station_id":"","pricing_plan_id":"cebpf4jnsgd1na2vs0mg"},{"bike_id":"93b92a4b-eec7-4904-85b0-7c0d219766e4","system_id":"levelo_inurba_marseille","lat":43.27812,"lon":5.40705,"is_reserved":false,"is_disabled":false,"rental_uris":{"android":"levelo://app?vid=93b92a4b-eec7-4904-85b0-7c0d219766e4","ios":"levelo://app?vid=93b92a4b-eec7-4904-85b0-7c0d219766e4"},"vehicle_type_id":"4","last_reported":1745752057,"current_range_meters":8800,"station_id":"ce4bhnh2rcd13ifvqgtg","pricing_plan_id":"cebpf4jnsgd1na2vs0mg"},{"bike_id":"3f8e74df-4b8a-4fe8-9f20-4fbe47605119","system_id":"levelo_inurba_marseille","lat":43.290293,"lon":5.375509,"is_reserved":false,"is_disabled":true,"rental_uris":{"android":"levelo://app?vid=3f8e74df-4b8a-4fe8-9f20-4fbe47605119","ios":"levelo://app?vid=3f8e74df-4b8a-4fe8-9f20-4fbe47605119"},"vehicle_type_id":"4","last_reported":1745752057,"current_range_meters":8800,"station_id":"ce4bh692rcd13ifvqe90","pricing_plan_id":"cebpf4jnsgd1na2vs0mg"},{"bike_id":"e44dd2d9-a90b-4ca1-8879-eb4fcf48678d","system_id":"levelo_inurba_marseille","lat":43.29166,"lon":5.37144,"is_reserved":false,"is_disabled":false,"rental_uris":{"android":"levelo://app?vid=e44dd2d9-a90b-4ca1-8879-eb4fcf48678d","ios":"levelo://app?vid=e44dd2d9-a90b-4ca1-8879-eb4fcf48678d"},"vehicle_type_id":"4","last_reported":1745752057,"current_range_meters":8800,"station_id":"ce4bha92rcd13ifvqeh0","pricing_plan_id":"cebpf4jnsgd1na2vs0mg"},{"bike_id":"ed537f9b-b1db-4f7f-87a1-1dbb18dd4577","system_id":"levelo_inurba_marseille","lat":43.33592,"lon":5.42858,"is_reserved":false,"is_disabled":false,"rental_uris":{"android":"levelo://app?vid=ed537f9b-b1db-4f7f-87a1-1dbb18dd4577","ios":"levelo://app?vid=ed537f9b-b1db-4f7f-87a1-1dbb18dd4577"},"vehicle_type_id":"4","last_reported":1745752057,"current_range_meters":8800,"station_id":"","pricing_plan_id":"cebpf4jnsgd1na2vs0mg"},{"bike_id":"c596ab54-4f89-4649-a442-12778ac8adc4","system_id":"levelo_inurba_marseille","lat":43.31706,"lon":5.436966,"is_reserved":false,"is_disabled":true,"rental_uris":{"android":"levelo://app?vid=c596ab54-4f89-4649-a442-12778ac8adc4","ios":"levelo://app?vid=c596ab54-4f89-4649-a442-12778ac8adc4"},"vehicle_type_id":"4","last_reported":1745752057,"current_range_meters":9200,"station_id":"ce4bhp92rcd13ifvqhcg","pricing_plan_id":"cebpf4jnsgd1na2vs0mg"},{"bike_id":"28b4714b-e73d-485f-a044-26f51205bf47","system_id":"levelo_inurba_marseille","lat":43.33775,"lon":5.37445,"is_reserved":false,"is_disabled":false,"rental_uris":{"android":"levelo://app?vid=28b4714b-e73d-485f-a044-26f51205bf47","ios":"levelo://app?vid=28b4714b-e73d-485f-a044-26f51205bf47"},"vehicle_type_id":"4","last_reported":1745752057,"current_range_meters":9200,"station_id":"","pricing_plan_id":"cebpf4jnsgd1na2vs0mg"},{"bike_id":"50567301-7660-45e4-9314-78fdd7ddbf96","system_id":"levelo_inurba_marseille","lat":43.3078,"lon":5.40925,"is_reserved":false,"is_disabled":false,"rental_uris":{"android":"levelo://app?vid=50567301-7660-45e4-9314-78fdd7ddbf96","ios":"levelo://app?vid=50567301-7660-45e4-9314-78fdd7ddbf96"},"vehicle_type_id":"4","last_reported":1745752057,"current_range_meters":9200,"station_id":"","pricing_plan_id":"cebpf4jnsgd1na2vs0mg"},{"bike_id":"0dbe274e-8f6f-4d5c-8df6-4f2d39417812","system_id":"levelo_inurba_marseille","lat":43.28619,"lon":5.351,"is_reserved":false,"is_disabled":false,"rental_uris":{"android":"levelo://app?vid=0dbe274e-8f6f-4d5c-8df6-4f2d39417812","ios":"levelo://app?vid=0dbe274e-8f6f-4d5c-8df6-4f2d39417812"},"vehicle_type_id":"4","last_reported":1745752057,"current_range_meters":9200,"station_id":"ce4bhch2rcd13ifvqeug","pricing_plan_id":"cebpf4jnsgd1na2vs0mg"},{"bike_id":"8267a175-b5cb-45e0-8d32-cc806f617854","system_id":"levelo_inurba_marseille","lat":43.30534,"lon":5.38866,"is_reserved":false,"is_disabled":false,"rental_uris":{"android":"levelo://app?vid=8267a175-b5cb-45e0-8d32-cc806f617854","ios":"levelo://app?vid=8267a175-b5cb-45e0-8d32-cc806f617854"},"vehicle_type_id":"4","last_reported":1745752057,"current_range_meters":9200,"station_id":"","pricing_plan_id":"cebpf4jnsgd1na2vs0mg"},{"bike_id":"374695c7-05ae-441b-90bd-19811cb2defe","system_id":"levelo_inurba_marseille","lat":43.30731,"lon":5.4245,"is_reserved":false,"is_disabled":false,"rental_uris":{"android":"levelo://app?vid=374695c7-05ae-441b-90bd-19811cb2defe","ios":"levelo://app?vid=374695c7-05ae-441b-90bd-19811cb2defe"},"vehicle_type_id":"4","last_reported":1745752057,"current_range_meters":9200,"station_id":"st_cvj6ca6bvosntc0bfgr0","pricing_plan_id":"cebpf4jnsgd1na2vs0mg"},{"bike_id":"4e09e2f3-6329-4563-9a1f-79c5001029cb","system_id":"levelo_inurba_marseille","lat":43.32366,"lon":5.38857,"is_reserved":false,"is_disabled":false,"rental_uris":{"android":"levelo://app?vid=4e09e2f3-6329-4563-9a1f-79c5001029cb","ios":"levelo://app?vid=4e09e2f3-6329-4563-9a1f-79c5001029cb"},"vehicle_type_id":"4","last_reported":1745752057,"current_range_meters":9200,"station_id":"ce4bhqp2rcd13ifvqhog","pricing_plan_id":"cebpf4jnsgd1na2vs0mg"},{"bike_id":"5ddba1f1-1747-4179-b91f-b8778028cd60","system_id":"levelo_inurba_marseille","lat":43.25603,"lon":5.41194,"is_reserved":false,"is_disabled":false,"rental_uris":{"android":"levelo://app?vid=5ddba1f1-1747-4179-b91f-b8778028cd60","ios":"levelo://app?vid=5ddba1f1-1747-4179-b91f-b8778028cd60"},"vehicle_type_id":"4","last_reported":1745752057,"current_range_meters":9200,"station_id":"","pricing_plan_id":"cebpf4jnsgd1na2vs0mg"},{"bike_id":"be5ad89b-3d5b-4a6a-9e4e-6215003b4c02","system_id":"levelo_inurba_marseille","lat":43.282734,"lon":5.350758,"is_reserved":false,"is_disabled":false,"rental_uris":{"android":"levelo://app?vid=be5ad89b-3d5b-4a6a-9e4e-6215003b4c02","ios":"levelo://app?vid=be5ad89b-3d5b-4a6a-9e4e-6215003b4c02"},"vehicle_type_id":"4","last_reported":1745752057,"current_range_meters":9600,"station_id":"ce4bhbp2rcd13ifvqerg","pricing_plan_id":"cebpf4jnsgd1na2vs0mg"},{"bike_id":"1917655b-0526-4715-89f1-2ebec5ffa390","system_id":"levelo_inurba_marseille","lat":43.28264,"lon":5.35079,"is_reserved":false,"is_disabled":false,"rental_uris":{"android":"levelo://app?vid=1917655b-0526-4715-89f1-2ebec5ffa390","ios":"levelo://app?vid=1917655b-0526-4715-89f1-2ebec5ffa390"},"vehicle_type_id":"4","last_reported":1745752057,"current_range_meters":9600,"station_id":"ce4bhbp2rcd13ifvqerg","pricing_plan_id":"cebpf4jnsgd1na2vs0mg"},{"bike_id":"5a7f4917-dc8e-4a03-9c3d-fd6bcc5ceb6a","system_id":"levelo_inurba_marseille","lat":43.30135,"lon":5.39865,"is_reserved":false,"is_disabled":false,"rental_uris":{"android":"levelo://app?vid=5a7f4917-dc8e-4a03-9c3d-fd6bcc5ceb6a","ios":"levelo://app?vid=5a7f4917-dc8e-4a03-9c3d-fd6bcc5ceb6a"},"vehicle_type_id":"4","last_reported":1745752057,"current_range_meters":9600,"station_id":"ce4bh0h2rcd13ifvqd40","pricing_plan_id":"cebpf4jnsgd1na2vs0mg"},{"bike_id":"69f4c3bc-8920-4784-9aed-02acc0199ff9","system_id":"levelo_inurba_marseille","lat":43.29883,"lon":5.3893,"is_reserved":false,"is_disabled":false,"rental_uris":{"android":"levelo://app?vid=69f4c3bc-8920-4784-9aed-02acc0199ff9","ios":"levelo://app?vid=69f4c3bc-8920-4784-9aed-02acc0199ff9"},"vehicle_type_id":"4","last_reported":1745752057,"current_range_meters":9600,"station_id":"ce4bh392rcd13ifvqdl0","pricing_plan_id":"cebpf4jnsgd1na2vs0mg"},{"bike_id":"736ee7d5-708e-48bd-8281-35bb85d0bc7d","system_id":"levelo_inurba_marseille","lat":43.289992,"lon":5.35603,"is_reserved":false,"is_disabled":true,"rental_uris":{"android":"levelo://app?vid=736ee7d5-708e-48bd-8281-35bb85d0bc7d","ios":"levelo://app?vid=736ee7d5-708e-48bd-8281-35bb85d0bc7d"},"vehicle_type_id":"4","last_reported":1745752057,"current_range_meters":9600,"station_id":"ce4bhb92rcd13ifvqen0","pricing_plan_id":"cebpf4jnsgd1na2vs0mg"},{"bike_id":"ac6dc3d4-eb50-471a-af1f-90a181a7d95a","system_id":"levelo_inurba_marseille","lat":43.31222,"lon":5.36868,"is_reserved":false,"is_disabled":false,"rental_uris":{"android":"levelo://app?vid=ac6dc3d4-eb50-471a-af1f-90a181a7d95a","ios":"levelo://app?vid=ac6dc3d4-eb50-471a-af1f-90a181a7d95a"},"vehicle_type_id":"4","last_reported":1745752057,"current_range_meters":10000,"station_id":"ce4bgl92rcd13ifvqbq0","pricing_plan_id":"cebpf4jnsgd1na2vs0mg"},{"bike_id":"0a20c176-84ce-406c-b816-a20786a5492e","system_id":"levelo_inurba_marseille","lat":43.31683,"lon":5.37717,"is_reserved":false,"is_disabled":false,"rental_uris":{"android":"levelo://app?vid=0a20c176-84ce-406c-b816-a20786a5492e","ios":"levelo://app?vid=0a20c176-84ce-406c-b816-a20786a5492e"},"vehicle_type_id":"4","last_reported":1745752057,"current_range_meters":10000,"station_id":"ce4bgth2rcd13ifvqch0","pricing_plan_id":"cebpf4jnsgd1na2vs0mg"},{"bike_id":"7d727c0a-6c28-48dc-bed3-bc7b1f3ba7ba","system_id":"levelo_inurba_marseille","lat":43.29274,"lon":5.3641,"is_reserved":false,"is_disabled":true,"rental_uris":{"android":"levelo://app?vid=7d727c0a-6c28-48dc-bed3-bc7b1f3ba7ba","ios":"levelo://app?vid=7d727c0a-6c28-48dc-bed3-bc7b1f3ba7ba"},"vehicle_type_id":"4","last_reported":1745752057,"current_range_meters":10000,"station_id":"","pricing_plan_id":"cebpf4jnsgd1na2vs0mg"},{"bike_id":"cc2977d9-a6cf-4d77-b0c7-5de9fa5e5b11","system_id":"levelo_inurba_marseille","lat":43.28155,"lon":5.42624,"is_reserved":false,"is_disabled":false,"rental_uris":{"android":"levelo://app?vid=cc2977d9-a6cf-4d77-b0c7-5de9fa5e5b11","ios":"levelo://app?vid=cc2977d9-a6cf-4d77-b0c7-5de9fa5e5b11"},"vehicle_type_id":"4","last_reported":1745752057,"current_range_meters":10000,"station_id":"ce4bhnh2rcd13ifvqgug","pricing_plan_id":"cebpf4jnsgd1na2vs0mg"},{"bike_id":"cecf372e-f99d-4092-9fb9-aba0fb187411","system_id":"levelo_inurba_marseille","lat":43.32379,"lon":5.38852,"is_reserved":false,"is_disabled":false,"rental_uris":{"android":"levelo://app?vid=cecf372e-f99d-4092-9fb9-aba0fb187411","ios":"levelo://app?vid=cecf372e-f99d-4092-9fb9-aba0fb187411"},"vehicle_type_id":"4","last_reported":1745752057,"current_range_meters":10000,"station_id":"ce4bhqp2rcd13ifvqhog","pricing_plan_id":"cebpf4jnsgd1na2vs0mg"},{"bike_id":"dea15188-c098-4794-90f6-0fc4b187f745","system_id":"levelo_inurba_marseille","lat":43.30813,"lon":5.43518,"is_reserved":false,"is_disabled":false,"rental_uris":{"android":"levelo://app?vid=dea15188-c098-4794-90f6-0fc4b187f745","ios":"levelo://app?vid=dea15188-c098-4794-90f6-0fc4b187f745"},"vehicle_type_id":"4","last_reported":1745752057,"current_range_meters":10000,"station_id":"ce4bhph2rcd13ifvqheg","pricing_plan_id":"cebpf4jnsgd1na2vs0mg"},{"bike_id":"00616192-2e7e-4143-89a7-22ed0fe84242","system_id":"levelo_inurba_marseille","lat":43.31507,"lon":5.37304,"is_reserved":false,"is_disabled":false,"rental_uris":{"android":"levelo://app?vid=00616192-2e7e-4143-89a7-22ed0fe84242","ios":"levelo://app?vid=00616192-2e7e-4143-89a7-22ed0fe84242"},"vehicle_type_id":"4","last_reported":1745752057,"current_range_meters":10800,"station_id":"ce4bgt12rcd13ifvqcd0","pricing_plan_id":"cebpf4jnsgd1na2vs0mg"},{"bike_id":"574c21c3-5de9-4bfa-a3aa-ac4e3698f0a7","system_id":"levelo_inurba_marseille","lat":43.2722,"lon":5.39189,"is_reserved":false,"is_disabled":true,"rental_uris":{"android":"levelo://app?vid=574c21c3-5de9-4bfa-a3aa-ac4e3698f0a7","ios":"levelo://app?vid=574c21c3-5de9-4bfa-a3aa-ac4e3698f0a7"},"vehicle_type_id":"4","last_reported":1745752057,"current_range_meters":10800,"station_id":"ce4bhhp2rcd13ifvqfm0","pricing_plan_id":"cebpf4jnsgd1na2vs0mg"},{"bike_id":"6f9efa22-6701-48b6-9dac-71701c013e89","system_id":"levelo_inurba_marseille","lat":43.27987,"lon":5.39992,"is_reserved":false,"is_disabled":false,"rental_uris":{"android":"levelo://app?vid=6f9efa22-6701-48b6-9dac-71701c013e89","ios":"levelo://app?vid=6f9efa22-6701-48b6-9dac-71701c013e89"},"vehicle_type_id":"4","last_reported":1745752057,"current_range_meters":10800,"station_id":"ce4bho92rcd13ifvqh4g","pricing_plan_id":"cebpf4jnsgd1na2vs0mg"},{"bike_id":"bc2ccf02-3b6c-4a73-b986-e93b739242fc","system_id":"levelo_inurba_marseille","lat":43.30304,"lon":5.392,"is_reserved":false,"is_disabled":false,"rental_uris":{"android":"levelo://app?vid=bc2ccf02-3b6c-4a73-b986-e93b739242fc","ios":"levelo://app?vid=bc2ccf02-3b6c-4a73-b986-e93b739242fc"},"vehicle_type_id":"4","last_reported":1745752057,"current_range_meters":10800,"station_id":"ce4bgkh2rcd13ifvqbk0","pricing_plan_id":"cebpf4jnsgd1na2vs0mg"},{"bike_id":"0053b840-de47-4900-98aa-cc8575176b05","system_id":"levelo_inurba_marseille","lat":43.2416,"lon":5.36407,"is_reserved":false,"is_disabled":true,"rental_uris":{"android":"levelo://app?vid=0053b840-de47-4900-98aa-cc8575176b05","ios":"levelo://app?vid=0053b840-de47-4900-98aa-cc8575176b05"},"vehicle_type_id":"4","last_reported":1745752057,"current_range_meters":11200,"station_id":"cpo36qri1sfpv3e86is0","pricing_plan_id":"cebpf4jnsgd1na2vs0mg"},{"bike_id":"16b75a5c-0fa3-4253-85ed-5154531053c0","system_id":"levelo_inurba_marseille","lat":43.21197,"lon":5.35079,"is_reserved":false,"is_disabled":false,"rental_uris":{"android":"levelo://app?vid=16b75a5c-0fa3-4253-85ed-5154531053c0","ios":"levelo://app?vid=16b75a5c-0fa3-4253-85ed-5154531053c0"},"vehicle_type_id":"4","last_reported":1745752057,"current_range_meters":11600,"station_id":"ce4bhe12rcd13ifvqf30","pricing_plan_id":"cebpf4jnsgd1na2vs0mg"},{"bike_id":"6b2d8aa4-dbe5-47c3-88fa-00d7dbfcaecd","system_id":"levelo_inurba_marseille","lat":43.31332,"lon":5.39694,"is_reserved":false,"is_disabled":false,"rental_uris":{"android":"levelo://app?vid=6b2d8aa4-dbe5-47c3-88fa-00d7dbfcaecd","ios":"levelo://app?vid=6b2d8aa4-dbe5-47c3-88fa-00d7dbfcaecd"},"vehicle_type_id":"4","last_reported":1745752057,"current_range_meters":11600,"station_id":"ce4bgvp2rcd13ifvqcu0","pricing_plan_id":"cebpf4jnsgd1na2vs0mg"},{"bike_id":"ae1d96a0-b0a2-41e1-be14-e78907f9338a","system_id":"levelo_inurba_marseille","lat":43.29518,"lon":5.39391,"is_reserved":false,"is_disabled":true,"rental_uris":{"android":"levelo://app?vid=ae1d96a0-b0a2-41e1-be14-e78907f9338a","ios":"levelo://app?vid=ae1d96a0-b0a2-41e1-be14-e78907f9338a"},"vehicle_type_id":"4","last_reported":1745752057,"current_range_meters":11600,"station_id":"ce4bh292rcd13ifvqdf0","pricing_plan_id":"cebpf4jnsgd1na2vs0mg"},{"bike_id":"e723cc41-584e-43e2-80d1-d209b39425c5","system_id":"levelo_inurba_marseille","lat":43.29896,"lon":5.43666,"is_reserved":false,"is_disabled":false,"rental_uris":{"android":"levelo://app?vid=e723cc41-584e-43e2-80d1-d209b39425c5","ios":"levelo://app?vid=e723cc41-584e-43e2-80d1-d209b39425c5"},"vehicle_type_id":"4","last_reported":1745752057,"current_range_meters":11600,"station_id":"ce4bhpp2rcd13ifvqhfg","pricing_plan_id":"cebpf4jnsgd1na2vs0mg"},{"bike_id":"ec74b155-1065-4a53-a181-10d9f61c4403","system_id":"levelo_inurba_marseille","lat":43.29252,"lon":5.40921,"is_reserved":false,"is_disabled":false,"rental_uris":{"android":"levelo://app?vid=ec74b155-1065-4a53-a181-10d9f61c4403","ios":"levelo://app?vid=ec74b155-1065-4a53-a181-10d9f61c4403"},"vehicle_type_id":"4","last_reported":1745752057,"current_range_meters":11600,"station_id":"ce4bh192rcd13ifvqdc0","pricing_plan_id":"cebpf4jnsgd1na2vs0mg"},{"bike_id":"401a860e-b17d-4f3c-b960-f90f02cab40f","system_id":"levelo_inurba_marseille","lat":43.27054,"lon":5.4026,"is_reserved":false,"is_disabled":false,"rental_uris":{"android":"levelo://app?vid=401a860e-b17d-4f3c-b960-f90f02cab40f","ios":"levelo://app?vid=401a860e-b17d-4f3c-b960-f90f02cab40f"},"vehicle_type_id":"4","last_reported":1745752057,"current_range_meters":11600,"station_id":"ce4bhk92rcd13ifvqgc0","pricing_plan_id":"cebpf4jnsgd1na2vs0mg"},{"bike_id":"21a5b78b-6652-49fa-a8ee-70531791ccf1","system_id":"levelo_inurba_marseille","lat":43.2488,"lon":5.42523,"is_reserved":false,"is_disabled":false,"rental_uris":{"android":"levelo://app?vid=21a5b78b-6652-49fa-a8ee-70531791ccf1","ios":"levelo://app?vid=21a5b78b-6652-49fa-a8ee-70531791ccf1"},"vehicle_type_id":"4","last_reported":1745752057,"current_range_meters":11600,"station_id":"","pricing_plan_id":"cebpf4jnsgd1na2vs0mg"},{"bike_id":"91474842-32bf-45c2-856a-80fd91d22aa5","system_id":"levelo_inurba_marseille","lat":43.21191,"lon":5.35072,"is_reserved":false,"is_disabled":false,"rental_uris":{"android":"levelo://app?vid=91474842-32bf-45c2-856a-80fd91d22aa5","ios":"levelo://app?vid=91474842-32bf-45c2-856a-80fd91d22aa5"},"vehicle_type_id":"4","last_reported":1745752057,"current_range_meters":11600,"station_id":"st_cvj6sg6p6f1abm77japg","pricing_plan_id":"cebpf4jnsgd1na2vs0mg"},{"bike_id":"8840b7d1-badd-45b4-91db-50feaeb6b7ed","system_id":"levelo_inurba_marseille","lat":43.310491,"lon":5.367025,"is_reserved":false,"is_disabled":false,"rental_uris":{"android":"levelo://app?vid=8840b7d1-badd-45b4-91db-50feaeb6b7ed","ios":"levelo://app?vid=8840b7d1-badd-45b4-91db-50feaeb6b7ed"},"vehicle_type_id":"4","last_reported":1745752057,"current_range_meters":11600,"station_id":"","pricing_plan_id":"cebpf4jnsgd1na2vs0mg"},{"bike_id":"7f6f973c-3fbe-41e7-a605-8afbb29a586d","system_id":"levelo_inurba_marseille","lat":43.23195,"lon":5.35554,"is_reserved":false,"is_disabled":false,"rental_uris":{"android":"levelo://app?vid=7f6f973c-3fbe-41e7-a605-8afbb29a586d","ios":"levelo://app?vid=7f6f973c-3fbe-41e7-a605-8afbb29a586d"},"vehicle_type_id":"4","last_reported":1745752057,"current_range_meters":12000,"station_id":"ce4bhu92rcd13ifvqi70","pricing_plan_id":"cebpf4jnsgd1na2vs0mg"},{"bike_id":"30288cb7-e849-4b02-8ab1-96deccfd974f","system_id":"levelo_inurba_marseille","lat":43.239584,"lon":5.366334,"is_reserved":false,"is_disabled":false,"rental_uris":{"android":"levelo://app?vid=30288cb7-e849-4b02-8ab1-96deccfd974f","ios":"levelo://app?vid=30288cb7-e849-4b02-8ab1-96deccfd974f"},"vehicle_type_id":"4","last_reported":1745752057,"current_range_meters":12000,"station_id":"ce4bhi12rcd13ifvqfp0","pricing_plan_id":"cebpf4jnsgd1na2vs0mg"},{"bike_id":"44530a1d-b48a-47f5-a929-63b20a3c24dc","system_id":"levelo_inurba_marseille","lat":43.2417,"lon":5.36398,"is_reserved":false,"is_disabled":false,"rental_uris":{"android":"levelo://app?vid=44530a1d-b48a-47f5-a929-63b20a3c24dc","ios":"levelo://app?vid=44530a1d-b48a-47f5-a929-63b20a3c24dc"},"vehicle_type_id":"4","last_reported":1745752057,"current_range_meters":12000,"station_id":"cpo36qri1sfpv3e86is0","pricing_plan_id":"cebpf4jnsgd1na2vs0mg"},{"bike_id":"af4a97e0-dded-4da0-9eba-7bcd01c44383","system_id":"levelo_inurba_marseille","lat":43.30301,"lon":5.39199,"is_reserved":false,"is_disabled":true,"rental_uris":{"android":"levelo://app?vid=af4a97e0-dded-4da0-9eba-7bcd01c44383","ios":"levelo://app?vid=af4a97e0-dded-4da0-9eba-7bcd01c44383"},"vehicle_type_id":"4","last_reported":1745752057,"current_range_meters":12000,"station_id":"ce4bgkh2rcd13ifvqbk0","pricing_plan_id":"cebpf4jnsgd1na2vs0mg"},{"bike_id":"cf0ee361-6c47-4a99-81ad-2c1b96166467","system_id":"levelo_inurba_marseille","lat":43.21748,"lon":5.34614,"is_reserved":false,"is_disabled":false,"rental_uris":{"android":"levelo://app?vid=cf0ee361-6c47-4a99-81ad-2c1b96166467","ios":"levelo://app?vid=cf0ee361-6c47-4a99-81ad-2c1b96166467"},"vehicle_type_id":"4","last_reported":1745752057,"current_range_meters":12000,"station_id":"","pricing_plan_id":"cebpf4jnsgd1na2vs0mg"},{"bike_id":"2df9a12b-33ac-4118-9a2b-b81bb411874c","system_id":"levelo_inurba_marseille","lat":43.29911,"lon":5.38135,"is_reserved":false,"is_disabled":false,"rental_uris":{"android":"levelo://app?vid=2df9a12b-33ac-4118-9a2b-b81bb411874c","ios":"levelo://app?vid=2df9a12b-33ac-4118-9a2b-b81bb411874c"},"vehicle_type_id":"4","last_reported":1745752057,"current_range_meters":12000,"station_id":"ce4bgj12rcd13ifvqbc0","pricing_plan_id":"cebpf4jnsgd1na2vs0mg"},{"bike_id":"baecbec1-331f-4bd8-bc6e-bd57089efd66","system_id":"levelo_inurba_marseille","lat":43.27379,"lon":5.36269,"is_reserved":false,"is_disabled":false,"rental_uris":{"android":"levelo://app?vid=baecbec1-331f-4bd8-bc6e-bd57089efd66","ios":"levelo://app?vid=baecbec1-331f-4bd8-bc6e-bd57089efd66"},"vehicle_type_id":"4","last_reported":1745752057,"current_range_meters":12400,"station_id":"ce4bhbh2rcd13ifvqeo0","pricing_plan_id":"cebpf4jnsgd1na2vs0mg"},{"bike_id":"554c7222-d609-4841-a832-33adb157bebb","system_id":"levelo_inurba_marseille","lat":43.211814,"lon":5.350703,"is_reserved":false,"is_disabled":false,"rental_uris":{"android":"levelo://app?vid=554c7222-d609-4841-a832-33adb157bebb","ios":"levelo://app?vid=554c7222-d609-4841-a832-33adb157bebb"},"vehicle_type_id":"4","last_reported":1745752057,"current_range_meters":12400,"station_id":"st_cvj6sg6p6f1abm77japg","pricing_plan_id":"cebpf4jnsgd1na2vs0mg"},{"bike_id":"a4ec22c5-bacb-4a1e-bc06-6ca27d915fb3","system_id":"levelo_inurba_marseille","lat":43.26925,"lon":5.38671,"is_reserved":false,"is_disabled":false,"rental_uris":{"android":"levelo://app?vid=a4ec22c5-bacb-4a1e-bc06-6ca27d915fb3","ios":"levelo://app?vid=a4ec22c5-bacb-4a1e-bc06-6ca27d915fb3"},"vehicle_type_id":"4","last_reported":1745752057,"current_range_meters":12400,"station_id":"ce4bhh92rcd13ifvqfh0","pricing_plan_id":"cebpf4jnsgd1na2vs0mg"},{"bike_id":"db2f0813-63fa-4354-b6cb-2ddb48d81422","system_id":"levelo_inurba_marseille","lat":43.27841,"lon":5.3921,"is_reserved":false,"is_disabled":false,"rental_uris":{"android":"levelo://app?vid=db2f0813-63fa-4354-b6cb-2ddb48d81422","ios":"levelo://app?vid=db2f0813-63fa-4354-b6cb-2ddb48d81422"},"vehicle_type_id":"4","last_reported":1745752057,"current_range_meters":12400,"station_id":"ce4bhjp2rcd13ifvqga0","pricing_plan_id":"cebpf4jnsgd1na2vs0mg"},{"bike_id":"60d116ae-eaa1-49d7-a8e0-a019d5049b9d","system_id":"levelo_inurba_marseille","lat":43.24547,"lon":5.39523,"is_reserved":false,"is_disabled":false,"rental_uris":{"android":"levelo://app?vid=60d116ae-eaa1-49d7-a8e0-a019d5049b9d","ios":"levelo://app?vid=60d116ae-eaa1-49d7-a8e0-a019d5049b9d"},"vehicle_type_id":"4","last_reported":1745752057,"current_range_meters":12400,"station_id":"ce4bhlp2rcd13ifvqgjg","pricing_plan_id":"cebpf4jnsgd1na2vs0mg"},{"bike_id":"e987a0c5-e794-4197-a71d-ecf91eae027c","system_id":"levelo_inurba_marseille","lat":43.26214,"lon":5.37438,"is_reserved":false,"is_disabled":false,"rental_uris":{"android":"levelo://app?vid=e987a0c5-e794-4197-a71d-ecf91eae027c","ios":"levelo://app?vid=e987a0c5-e794-4197-a71d-ecf91eae027c"},"vehicle_type_id":"4","last_reported":1745752057,"current_range_meters":12800,"station_id":"ce4bhgp2rcd13ifvqfc0","pricing_plan_id":"cebpf4jnsgd1na2vs0mg"},{"bike_id":"66e61217-52e3-4d28-9695-fb3ed1a709a7","system_id":"levelo_inurba_marseille","lat":43.29848,"lon":5.36275,"is_reserved":false,"is_disabled":false,"rental_uris":{"android":"levelo://app?vid=66e61217-52e3-4d28-9695-fb3ed1a709a7","ios":"levelo://app?vid=66e61217-52e3-4d28-9695-fb3ed1a709a7"},"vehicle_type_id":"4","last_reported":1745752057,"current_range_meters":12800,"station_id":"ce4bgpp2rcd13ifvqc3g","pricing_plan_id":"cebpf4jnsgd1na2vs0mg"},{"bike_id":"a08e6535-7d97-4f82-b424-5e6daf2d2362","system_id":"levelo_inurba_marseille","lat":43.29521,"lon":5.394,"is_reserved":false,"is_disabled":true,"rental_uris":{"android":"levelo://app?vid=a08e6535-7d97-4f82-b424-5e6daf2d2362","ios":"levelo://app?vid=a08e6535-7d97-4f82-b424-5e6daf2d2362"},"vehicle_type_id":"4","last_reported":1745752057,"current_range_meters":12800,"station_id":"ce4bh292rcd13ifvqdf0","pricing_plan_id":"cebpf4jnsgd1na2vs0mg"},{"bike_id":"fc2d884b-ca79-4d61-bfc8-170f787a93f4","system_id":"levelo_inurba_marseille","lat":43.31079,"lon":5.38356,"is_reserved":false,"is_disabled":false,"rental_uris":{"android":"levelo://app?vid=fc2d884b-ca79-4d61-bfc8-170f787a93f4","ios":"levelo://app?vid=fc2d884b-ca79-4d61-bfc8-170f787a93f4"},"vehicle_type_id":"4","last_reported":1745752057,"current_range_meters":13600,"station_id":"ce4bgv92rcd13ifvqcr0","pricing_plan_id":"cebpf4jnsgd1na2vs0mg"},{"bike_id":"5c47417b-1103-44da-8ff6-b442bdcf5332","system_id":"levelo_inurba_marseille","lat":43.30544,"lon":5.36695,"is_reserved":false,"is_disabled":false,"rental_uris":{"android":"levelo://app?vid=5c47417b-1103-44da-8ff6-b442bdcf5332","ios":"levelo://app?vid=5c47417b-1103-44da-8ff6-b442bdcf5332"},"vehicle_type_id":"4","last_reported":1745752057,"current_range_meters":13600,"station_id":"ce4bgrp2rcd13ifvqc9g","pricing_plan_id":"cebpf4jnsgd1na2vs0mg"},{"bike_id":"6f6651b5-4c6a-487f-96cb-3f45e862a24e","system_id":"levelo_inurba_marseille","lat":43.29379,"lon":5.37862,"is_reserved":false,"is_disabled":false,"rental_uris":{"android":"levelo://app?vid=6f6651b5-4c6a-487f-96cb-3f45e862a24e","ios":"levelo://app?vid=6f6651b5-4c6a-487f-96cb-3f45e862a24e"},"vehicle_type_id":"4","last_reported":1745752057,"current_range_meters":13600,"station_id":"ce4bgjh2rcd13ifvqbf0","pricing_plan_id":"cebpf4jnsgd1na2vs0mg"},{"bike_id":"5579c3eb-259d-45c3-a0be-667bc112a896","system_id":"levelo_inurba_marseille","lat":43.32337,"lon":5.40619,"is_reserved":false,"is_disabled":false,"rental_uris":{"android":"levelo://app?vid=5579c3eb-259d-45c3-a0be-667bc112a896","ios":"levelo://app?vid=5579c3eb-259d-45c3-a0be-667bc112a896"},"vehicle_type_id":"4","last_reported":1745752057,"current_range_meters":13600,"station_id":"ce4bhq92rcd13ifvqhjg","pricing_plan_id":"cebpf4jnsgd1na2vs0mg"},{"bike_id":"560f12bb-1614-4d7c-b78e-ccf5bdec9ea6","system_id":"levelo_inurba_marseille","lat":43.284613,"lon":5.358888,"is_reserved":false,"is_disabled":true,"rental_uris":{"android":"levelo://app?vid=560f12bb-1614-4d7c-b78e-ccf5bdec9ea6","ios":"levelo://app?vid=560f12bb-1614-4d7c-b78e-ccf5bdec9ea6"},"vehicle_type_id":"4","last_reported":1745752057,"current_range_meters":13600,"station_id":"ce4bhah2rcd13ifvqei0","pricing_plan_id":"cebpf4jnsgd1na2vs0mg"},{"bike_id":"86146cc0-478b-4fad-b702-fcc7e949c2bb","system_id":"levelo_inurba_marseille","lat":43.27947,"lon":5.41049,"is_reserved":false,"is_disabled":false,"rental_uris":{"android":"levelo://app?vid=86146cc0-478b-4fad-b702-fcc7e949c2bb","ios":"levelo://app?vid=86146cc0-478b-4fad-b702-fcc7e949c2bb"},"vehicle_type_id":"4","last_reported":1745752057,"current_range_meters":14000,"station_id":"ce4bhnp2rcd13ifvqh0g","pricing_plan_id":"cebpf4jnsgd1na2vs0mg"},{"bike_id":"356b76a1-af1a-4bef-951e-98e5b057a721","system_id":"levelo_inurba_marseille","lat":43.29256,"lon":5.38405,"is_reserved":false,"is_disabled":true,"rental_uris":{"android":"levelo://app?vid=356b76a1-af1a-4bef-951e-98e5b057a721","ios":"levelo://app?vid=356b76a1-af1a-4bef-951e-98e5b057a721"},"vehicle_type_id":"4","last_reported":1745752057,"current_range_meters":14000,"station_id":"ce4bh692rcd13ifvqea0","pricing_plan_id":"cebpf4jnsgd1na2vs0mg"},{"bike_id":"9111363c-e358-4cc0-9632-937d6be3578a","system_id":"levelo_inurba_marseille","lat":43.27986,"lon":5.40029,"is_reserved":false,"is_disabled":false,"rental_uris":{"android":"levelo://app?vid=9111363c-e358-4cc0-9632-937d6be3578a","ios":"levelo://app?vid=9111363c-e358-4cc0-9632-937d6be3578a"},"vehicle_type_id":"4","last_reported":1745752057,"current_range_meters":14000,"station_id":"ce4bho92rcd13ifvqh4g","pricing_plan_id":"cebpf4jnsgd1na2vs0mg"},{"bike_id":"091dfdf7-fb72-4425-ae59-44099c67db0b","system_id":"levelo_inurba_marseille","lat":43.30479,"lon":5.37902,"is_reserved":false,"is_disabled":false,"rental_uris":{"android":"levelo://app?vid=091dfdf7-fb72-4425-ae59-44099c67db0b","ios":"levelo://app?vid=091dfdf7-fb72-4425-ae59-44099c67db0b"},"vehicle_type_id":"4","last_reported":1745752057,"current_range_meters":14000,"station_id":"ce4bgup2rcd13ifvqcn0","pricing_plan_id":"cebpf4jnsgd1na2vs0mg"},{"bike_id":"e2ebe0b4-27e2-4f46-bdf4-e1916df46672","system_id":"levelo_inurba_marseille","lat":43.31798,"lon":5.40603,"is_reserved":false,"is_disabled":false,"rental_uris":{"android":"levelo://app?vid=e2ebe0b4-27e2-4f46-bdf4-e1916df46672","ios":"levelo://app?vid=e2ebe0b4-27e2-4f46-bdf4-e1916df46672"},"vehicle_type_id":"4","last_reported":1745752057,"current_range_meters":14400,"station_id":"","pricing_plan_id":"cebpf4jnsgd1na2vs0mg"},{"bike_id":"a68e8e82-128c-483d-b097-2d72479270ec","system_id":"levelo_inurba_marseille","lat":43.30639,"lon":5.40093,"is_reserved":false,"is_disabled":false,"rental_uris":{"android":"levelo://app?vid=a68e8e82-128c-483d-b097-2d72479270ec","ios":"levelo://app?vid=a68e8e82-128c-483d-b097-2d72479270ec"},"vehicle_type_id":"4","last_reported":1745752057,"current_range_meters":14800,"station_id":"ce4bh112rcd13ifvqda0","pricing_plan_id":"cebpf4jnsgd1na2vs0mg"},{"bike_id":"57ebd52c-bbc8-4a4d-8d80-2da8f6250dbd","system_id":"levelo_inurba_marseille","lat":43.27825,"lon":5.407134,"is_reserved":false,"is_disabled":true,"rental_uris":{"android":"levelo://app?vid=57ebd52c-bbc8-4a4d-8d80-2da8f6250dbd","ios":"levelo://app?vid=57ebd52c-bbc8-4a4d-8d80-2da8f6250dbd"},"vehicle_type_id":"4","last_reported":1745752057,"current_range_meters":14800,"station_id":"ce4bhnh2rcd13ifvqgtg","pricing_plan_id":"cebpf4jnsgd1na2vs0mg"},{"bike_id":"10e6fbe0-421b-4584-8741-4a4f9f1f9898","system_id":"levelo_inurba_marseille","lat":43.30955,"lon":5.3904,"is_reserved":false,"is_disabled":false,"rental_uris":{"android":"levelo://app?vid=10e6fbe0-421b-4584-8741-4a4f9f1f9898","ios":"levelo://app?vid=10e6fbe0-421b-4584-8741-4a4f9f1f9898"},"vehicle_type_id":"4","last_reported":1745752057,"current_range_meters":14400,"station_id":"ce4bgup2rcd13ifvqco0","pricing_plan_id":"cebpf4jnsgd1na2vs0mg"},{"bike_id":"1aa8beb9-ad28-48f7-aade-8e1ddaaf7c9e","system_id":"levelo_inurba_marseille","lat":43.29852,"lon":5.36263,"is_reserved":false,"is_disabled":false,"rental_uris":{"android":"levelo://app?vid=1aa8beb9-ad28-48f7-aade-8e1ddaaf7c9e","ios":"levelo://app?vid=1aa8beb9-ad28-48f7-aade-8e1ddaaf7c9e"},"vehicle_type_id":"4","last_reported":1745752057,"current_range_meters":14800,"station_id":"ce4bgpp2rcd13ifvqc3g","pricing_plan_id":"cebpf4jnsgd1na2vs0mg"},{"bike_id":"589450b2-9b4d-4bbb-8fb5-7a0722cf6b67","system_id":"levelo_inurba_marseille","lat":43.2693,"lon":5.3892,"is_reserved":false,"is_disabled":false,"rental_uris":{"android":"levelo://app?vid=589450b2-9b4d-4bbb-8fb5-7a0722cf6b67","ios":"levelo://app?vid=589450b2-9b4d-4bbb-8fb5-7a0722cf6b67"},"vehicle_type_id":"4","last_reported":1745752057,"current_range_meters":15200,"station_id":"ce4bhhh2rcd13ifvqfl0","pricing_plan_id":"cebpf4jnsgd1na2vs0mg"},{"bike_id":"a7198c19-fdc9-4a7a-95e0-a894ca54152c","system_id":"levelo_inurba_marseille","lat":43.30985,"lon":5.41726,"is_reserved":false,"is_disabled":false,"rental_uris":{"android":"levelo://app?vid=a7198c19-fdc9-4a7a-95e0-a894ca54152c","ios":"levelo://app?vid=a7198c19-fdc9-4a7a-95e0-a894ca54152c"},"vehicle_type_id":"4","last_reported":1745752057,"current_range_meters":15200,"station_id":"","pricing_plan_id":"cebpf4jnsgd1na2vs0mg"},{"bike_id":"edb7787a-c68b-4c3c-a204-0dcc8d513b0d","system_id":"levelo_inurba_marseille","lat":43.24663,"lon":5.38164,"is_reserved":false,"is_disabled":false,"rental_uris":{"android":"levelo://app?vid=edb7787a-c68b-4c3c-a204-0dcc8d513b0d","ios":"levelo://app?vid=edb7787a-c68b-4c3c-a204-0dcc8d513b0d"},"vehicle_type_id":"4","last_reported":1745752057,"current_range_meters":16000,"station_id":"ce4bhih2rcd13ifvqfr0","pricing_plan_id":"cebpf4jnsgd1na2vs0mg"},{"bike_id":"bbebbef6-e7cd-4587-b081-e618bb8e23ad","system_id":"levelo_inurba_marseille","lat":43.30474,"lon":5.379066,"is_reserved":false,"is_disabled":false,"rental_uris":{"android":"levelo://app?vid=bbebbef6-e7cd-4587-b081-e618bb8e23ad","ios":"levelo://app?vid=bbebbef6-e7cd-4587-b081-e618bb8e23ad"},"vehicle_type_id":"4","last_reported":1745752057,"current_range_meters":16000,"station_id":"ce4bgup2rcd13ifvqcn0","pricing_plan_id":"cebpf4jnsgd1na2vs0mg"},{"bike_id":"3e14809c-1d2b-433a-b066-408b028e0123","system_id":"levelo_inurba_marseille","lat":43.280375,"lon":5.369462,"is_reserved":false,"is_disabled":false,"rental_uris":{"android":"levelo://app?vid=3e14809c-1d2b-433a-b066-408b028e0123","ios":"levelo://app?vid=3e14809c-1d2b-433a-b066-408b028e0123"},"vehicle_type_id":"4","last_reported":1745752057,"current_range_meters":16000,"station_id":"ce4bha12rcd13ifvqef0","pricing_plan_id":"cebpf4jnsgd1na2vs0mg"},{"bike_id":"0d777af5-4166-475a-a6b9-6a0197032592","system_id":"levelo_inurba_marseille","lat":43.2327,"lon":5.35187,"is_reserved":false,"is_disabled":false,"rental_uris":{"android":"levelo://app?vid=0d777af5-4166-475a-a6b9-6a0197032592","ios":"levelo://app?vid=0d777af5-4166-475a-a6b9-6a0197032592"},"vehicle_type_id":"4","last_reported":1745752057,"current_range_meters":16000,"station_id":"","pricing_plan_id":"cebpf4jnsgd1na2vs0mg"},{"bike_id":"d51ac9eb-5346-4e36-9554-fd3617359ab5","system_id":"levelo_inurba_marseille","lat":43.30556,"lon":5.36541,"is_reserved":false,"is_disabled":false,"rental_uris":{"android":"levelo://app?vid=d51ac9eb-5346-4e36-9554-fd3617359ab5","ios":"levelo://app?vid=d51ac9eb-5346-4e36-9554-fd3617359ab5"},"vehicle_type_id":"4","last_reported":1745752057,"current_range_meters":16000,"station_id":"ce4bgs12rcd13ifvqcag","pricing_plan_id":"cebpf4jnsgd1na2vs0mg"},{"bike_id":"3d934169-6946-46cc-87a4-ce5d03b77075","system_id":"levelo_inurba_marseille","lat":43.217551,"lon":5.345921,"is_reserved":false,"is_disabled":false,"rental_uris":{"android":"levelo://app?vid=3d934169-6946-46cc-87a4-ce5d03b77075","ios":"levelo://app?vid=3d934169-6946-46cc-87a4-ce5d03b77075"},"vehicle_type_id":"4","last_reported":1745752057,"current_range_meters":16000,"station_id":"st_cvj6r9ubvosntc0bgbag","pricing_plan_id":"cebpf4jnsgd1na2vs0mg"},{"bike_id":"fdd002fb-3661-4f48-9c10-033a3f9c450b","system_id":"levelo_inurba_marseille","lat":43.284724,"lon":5.384263,"is_reserved":false,"is_disabled":false,"rental_uris":{"android":"levelo://app?vid=fdd002fb-3661-4f48-9c10-033a3f9c450b","ios":"levelo://app?vid=fdd002fb-3661-4f48-9c10-033a3f9c450b"},"vehicle_type_id":"4","last_reported":1745752057,"current_range_meters":16000,"station_id":"ce4bha12rcd13ifvqee0","pricing_plan_id":"cebpf4jnsgd1na2vs0mg"},{"bike_id":"a6ef5e73-9c2a-4c3a-b853-48e28d6dc161","system_id":"levelo_inurba_marseille","lat":43.31707,"lon":5.43681,"is_reserved":false,"is_disabled":true,"rental_uris":{"android":"levelo://app?vid=a6ef5e73-9c2a-4c3a-b853-48e28d6dc161","ios":"levelo://app?vid=a6ef5e73-9c2a-4c3a-b853-48e28d6dc161"},"vehicle_type_id":"4","last_reported":1745752057,"current_range_meters":16000,"station_id":"ce4bhp92rcd13ifvqhcg","pricing_plan_id":"cebpf4jnsgd1na2vs0mg"},{"bike_id":"1fe84233-d6e6-400c-ba7e-765c53207954","system_id":"levelo_inurba_marseille","lat":43.26079,"lon":5.39395,"is_reserved":false,"is_disabled":false,"rental_uris":{"android":"levelo://app?vid=1fe84233-d6e6-400c-ba7e-765c53207954","ios":"levelo://app?vid=1fe84233-d6e6-400c-ba7e-765c53207954"},"vehicle_type_id":"4","last_reported":1745752057,"current_range_meters":16000,"station_id":"ce4bhh92rcd13ifvqfj0","pricing_plan_id":"cebpf4jnsgd1na2vs0mg"},{"bike_id":"b330c3b4-8203-49c9-a4bf-5485d09a1d2d","system_id":"levelo_inurba_marseille","lat":43.30204,"lon":5.39459,"is_reserved":false,"is_disabled":true,"rental_uris":{"android":"levelo://app?vid=b330c3b4-8203-49c9-a4bf-5485d09a1d2d","ios":"levelo://app?vid=b330c3b4-8203-49c9-a4bf-5485d09a1d2d"},"vehicle_type_id":"4","last_reported":1745752057,"current_range_meters":16000,"station_id":"ce4bh0p2rcd13ifvqd70","pricing_plan_id":"cebpf4jnsgd1na2vs0mg"},{"bike_id":"ffe5006a-8288-44d2-9cf5-66ad041bd6fd","system_id":"levelo_inurba_marseille","lat":43.24176,"lon":5.36381,"is_reserved":false,"is_disabled":false,"rental_uris":{"android":"levelo://app?vid=ffe5006a-8288-44d2-9cf5-66ad041bd6fd","ios":"levelo://app?vid=ffe5006a-8288-44d2-9cf5-66ad041bd6fd"},"vehicle_type_id":"4","last_reported":1745752057,"current_range_meters":16000,"station_id":"cpo36qri1sfpv3e86is0","pricing_plan_id":"cebpf4jnsgd1na2vs0mg"},{"bike_id":"99be1414-58ff-4752-826b-d0dcc4401711","system_id":"levelo_inurba_marseille","lat":43.2482,"lon":5.37451,"is_reserved":false,"is_disabled":true,"rental_uris":{"android":"levelo://app?vid=99be1414-58ff-4752-826b-d0dcc4401711","ios":"levelo://app?vid=99be1414-58ff-4752-826b-d0dcc4401711"},"vehicle_type_id":"4","last_reported":1745752057,"current_range_meters":16000,"station_id":"ce4bhgh2rcd13ifvqfb0","pricing_plan_id":"cebpf4jnsgd1na2vs0mg"},{"bike_id":"611eced7-1de7-4fe4-846e-846ad6fcd0af","system_id":"levelo_inurba_marseille","lat":43.2979,"lon":5.38092,"is_reserved":false,"is_disabled":false,"rental_uris":{"android":"levelo://app?vid=611eced7-1de7-4fe4-846e-846ad6fcd0af","ios":"levelo://app?vid=611eced7-1de7-4fe4-846e-846ad6fcd0af"},"vehicle_type_id":"4","last_reported":1745752057,"current_range_meters":16400,"station_id":"ce4bgip2rcd13ifvqbb0","pricing_plan_id":"cebpf4jnsgd1na2vs0mg"},{"bike_id":"89e7ab08-7fc9-416d-a96f-130de8b43266","system_id":"levelo_inurba_marseille","lat":43.33712,"lon":5.39199,"is_reserved":false,"is_disabled":false,"rental_uris":{"android":"levelo://app?vid=89e7ab08-7fc9-416d-a96f-130de8b43266","ios":"levelo://app?vid=89e7ab08-7fc9-416d-a96f-130de8b43266"},"vehicle_type_id":"4","last_reported":1745752057,"current_range_meters":16400,"station_id":"ce4bhr92rcd13ifvqhsg","pricing_plan_id":"cebpf4jnsgd1na2vs0mg"},{"bike_id":"953568a5-dd5e-41c4-b9b3-693484d79e25","system_id":"levelo_inurba_marseille","lat":43.301874,"lon":5.366288,"is_reserved":false,"is_disabled":false,"rental_uris":{"android":"levelo://app?vid=953568a5-dd5e-41c4-b9b3-693484d79e25","ios":"levelo://app?vid=953568a5-dd5e-41c4-b9b3-693484d79e25"},"vehicle_type_id":"4","last_reported":1745752057,"current_range_meters":16400,"station_id":"","pricing_plan_id":"cebpf4jnsgd1na2vs0mg"},{"bike_id":"67c71c8f-165b-4e86-b66b-1bc1e8ea9467","system_id":"levelo_inurba_marseille","lat":43.28107,"lon":5.37826,"is_reserved":false,"is_disabled":false,"rental_uris":{"android":"levelo://app?vid=67c71c8f-165b-4e86-b66b-1bc1e8ea9467","ios":"levelo://app?vid=67c71c8f-165b-4e86-b66b-1bc1e8ea9467"},"vehicle_type_id":"4","last_reported":1745752057,"current_range_meters":16400,"station_id":"ce4bha12rcd13ifvqee0","pricing_plan_id":"cebpf4jnsgd1na2vs0mg"},{"bike_id":"74631fb2-6fc0-474d-bb86-9c8e846cbaaf","system_id":"levelo_inurba_marseille","lat":43.29024,"lon":5.38636,"is_reserved":false,"is_disabled":false,"rental_uris":{"android":"levelo://app?vid=74631fb2-6fc0-474d-bb86-9c8e846cbaaf","ios":"levelo://app?vid=74631fb2-6fc0-474d-bb86-9c8e846cbaaf"},"vehicle_type_id":"4","last_reported":1745752057,"current_range_meters":16400,"station_id":"ce4bh4p2rcd13ifvqe0g","pricing_plan_id":"cebpf4jnsgd1na2vs0mg"},{"bike_id":"a88bfbd9-99c8-4759-8f4b-7621e6292885","system_id":"levelo_inurba_marseille","lat":43.30602,"lon":5.37237,"is_reserved":false,"is_disabled":false,"rental_uris":{"android":"levelo://app?vid=a88bfbd9-99c8-4759-8f4b-7621e6292885","ios":"levelo://app?vid=a88bfbd9-99c8-4759-8f4b-7621e6292885"},"vehicle_type_id":"4","last_reported":1745752057,"current_range_meters":16400,"station_id":"ce4bgqh2rcd13ifvqc4g","pricing_plan_id":"cebpf4jnsgd1na2vs0mg"},{"bike_id":"389fa13e-9fb8-4551-94cc-3437e858ed36","system_id":"levelo_inurba_marseille","lat":43.24178,"lon":5.36403,"is_reserved":false,"is_disabled":false,"rental_uris":{"android":"levelo://app?vid=389fa13e-9fb8-4551-94cc-3437e858ed36","ios":"levelo://app?vid=389fa13e-9fb8-4551-94cc-3437e858ed36"},"vehicle_type_id":"4","last_reported":1745752057,"current_range_meters":16400,"station_id":"cpo36qri1sfpv3e86is0","pricing_plan_id":"cebpf4jnsgd1na2vs0mg"},{"bike_id":"b04dcf0f-d468-48a5-821b-79cd6372c0bf","system_id":"levelo_inurba_marseille","lat":43.29631,"lon":5.40598,"is_reserved":false,"is_disabled":false,"rental_uris":{"android":"levelo://app?vid=b04dcf0f-d468-48a5-821b-79cd6372c0bf","ios":"levelo://app?vid=b04dcf0f-d468-48a5-821b-79cd6372c0bf"},"vehicle_type_id":"4","last_reported":1745752057,"current_range_meters":16800,"station_id":"ce4bh0h2rcd13ifvqd60","pricing_plan_id":"cebpf4jnsgd1na2vs0mg"},{"bike_id":"ac80df65-da7e-46f7-b8ab-0aaaa606e196","system_id":"levelo_inurba_marseille","lat":43.29613,"lon":5.3774,"is_reserved":false,"is_disabled":false,"rental_uris":{"android":"levelo://app?vid=ac80df65-da7e-46f7-b8ab-0aaaa606e196","ios":"levelo://app?vid=ac80df65-da7e-46f7-b8ab-0aaaa606e196"},"vehicle_type_id":"4","last_reported":1745752057,"current_range_meters":16800,"station_id":"ce4bgi92rcd13ifvqb90","pricing_plan_id":"cebpf4jnsgd1na2vs0mg"},{"bike_id":"39e60548-37a4-4fcf-a3ae-8e7ab84a9c0a","system_id":"levelo_inurba_marseille","lat":43.2467,"lon":5.38159,"is_reserved":false,"is_disabled":false,"rental_uris":{"android":"levelo://app?vid=39e60548-37a4-4fcf-a3ae-8e7ab84a9c0a","ios":"levelo://app?vid=39e60548-37a4-4fcf-a3ae-8e7ab84a9c0a"},"vehicle_type_id":"4","last_reported":1745752057,"current_range_meters":16800,"station_id":"ce4bhih2rcd13ifvqfr0","pricing_plan_id":"cebpf4jnsgd1na2vs0mg"},{"bike_id":"62324ad5-e55c-4853-a971-a42d1256c80b","system_id":"levelo_inurba_marseille","lat":43.29303,"lon":5.37453,"is_reserved":false,"is_disabled":false,"rental_uris":{"android":"levelo://app?vid=62324ad5-e55c-4853-a971-a42d1256c80b","ios":"levelo://app?vid=62324ad5-e55c-4853-a971-a42d1256c80b"},"vehicle_type_id":"4","last_reported":1745752057,"current_range_meters":17200,"station_id":"ce4bgi12rcd13ifvqb70","pricing_plan_id":"cebpf4jnsgd1na2vs0mg"},{"bike_id":"4046a82f-66e8-4b55-bd0a-356edea772d8","system_id":"levelo_inurba_marseille","lat":43.30606,"lon":5.38161,"is_reserved":false,"is_disabled":false,"rental_uris":{"android":"levelo://app?vid=4046a82f-66e8-4b55-bd0a-356edea772d8","ios":"levelo://app?vid=4046a82f-66e8-4b55-bd0a-356edea772d8"},"vehicle_type_id":"4","last_reported":1745752057,"current_range_meters":17200,"station_id":"","pricing_plan_id":"cebpf4jnsgd1na2vs0mg"},{"bike_id":"2a1c6d64-0ac3-4a29-bc23-8be74313a24d","system_id":"levelo_inurba_marseille","lat":43.28269,"lon":5.35063,"is_reserved":false,"is_disabled":false,"rental_uris":{"android":"levelo://app?vid=2a1c6d64-0ac3-4a29-bc23-8be74313a24d","ios":"levelo://app?vid=2a1c6d64-0ac3-4a29-bc23-8be74313a24d"},"vehicle_type_id":"4","last_reported":1745752057,"current_range_meters":17200,"station_id":"ce4bhbp2rcd13ifvqerg","pricing_plan_id":"cebpf4jnsgd1na2vs0mg"},{"bike_id":"48f55653-0c1a-4738-b5dd-c9be11481ead","system_id":"levelo_inurba_marseille","lat":43.28703,"lon":5.37388,"is_reserved":false,"is_disabled":false,"rental_uris":{"android":"levelo://app?vid=48f55653-0c1a-4738-b5dd-c9be11481ead","ios":"levelo://app?vid=48f55653-0c1a-4738-b5dd-c9be11481ead"},"vehicle_type_id":"4","last_reported":1745752057,"current_range_meters":17200,"station_id":"ce4bh3p2rcd13ifvqdq0","pricing_plan_id":"cebpf4jnsgd1na2vs0mg"},{"bike_id":"b3acbc4f-8a65-4286-a2fa-9a9d8a8ab902","system_id":"levelo_inurba_marseille","lat":43.29627,"lon":5.37736,"is_reserved":false,"is_disabled":false,"rental_uris":{"android":"levelo://app?vid=b3acbc4f-8a65-4286-a2fa-9a9d8a8ab902","ios":"levelo://app?vid=b3acbc4f-8a65-4286-a2fa-9a9d8a8ab902"},"vehicle_type_id":"4","last_reported":1745752057,"current_range_meters":17200,"station_id":"ce4bgi92rcd13ifvqb90","pricing_plan_id":"cebpf4jnsgd1na2vs0mg"},{"bike_id":"9a610762-1aea-497a-83e0-6c69c0142961","system_id":"levelo_inurba_marseille","lat":43.28266,"lon":5.35076,"is_reserved":false,"is_disabled":false,"rental_uris":{"android":"levelo://app?vid=9a610762-1aea-497a-83e0-6c69c0142961","ios":"levelo://app?vid=9a610762-1aea-497a-83e0-6c69c0142961"},"vehicle_type_id":"4","last_reported":1745752057,"current_range_meters":17200,"station_id":"ce4bhbp2rcd13ifvqerg","pricing_plan_id":"cebpf4jnsgd1na2vs0mg"},{"bike_id":"97f36b89-3f79-4d54-80b9-0001fe6da6bb","system_id":"levelo_inurba_marseille","lat":43.32445,"lon":5.39134,"is_reserved":false,"is_disabled":true,"rental_uris":{"android":"levelo://app?vid=97f36b89-3f79-4d54-80b9-0001fe6da6bb","ios":"levelo://app?vid=97f36b89-3f79-4d54-80b9-0001fe6da6bb"},"vehicle_type_id":"4","last_reported":1745752057,"current_range_meters":17200,"station_id":"","pricing_plan_id":"cebpf4jnsgd1na2vs0mg"},{"bike_id":"f84b970b-777d-45e0-8c58-83a6ae5d25c9","system_id":"levelo_inurba_marseille","lat":43.28264,"lon":5.35078,"is_reserved":false,"is_disabled":false,"rental_uris":{"android":"levelo://app?vid=f84b970b-777d-45e0-8c58-83a6ae5d25c9","ios":"levelo://app?vid=f84b970b-777d-45e0-8c58-83a6ae5d25c9"},"vehicle_type_id":"4","last_reported":1745752057,"current_range_meters":17200,"station_id":"ce4bhbp2rcd13ifvqerg","pricing_plan_id":"cebpf4jnsgd1na2vs0mg"},{"bike_id":"d1a45d11-a51a-4ef8-aa3d-36fdd3ec3252","system_id":"levelo_inurba_marseille","lat":43.284157,"lon":5.37511,"is_reserved":false,"is_disabled":false,"rental_uris":{"android":"levelo://app?vid=d1a45d11-a51a-4ef8-aa3d-36fdd3ec3252","ios":"levelo://app?vid=d1a45d11-a51a-4ef8-aa3d-36fdd3ec3252"},"vehicle_type_id":"4","last_reported":1745752057,"current_range_meters":17600,"station_id":"ce4bh412rcd13ifvqds0","pricing_plan_id":"cebpf4jnsgd1na2vs0mg"},{"bike_id":"d8e186e0-8d9f-4c16-bb12-3c50f63fd666","system_id":"levelo_inurba_marseille","lat":43.27501,"lon":5.42455,"is_reserved":false,"is_disabled":false,"rental_uris":{"android":"levelo://app?vid=d8e186e0-8d9f-4c16-bb12-3c50f63fd666","ios":"levelo://app?vid=d8e186e0-8d9f-4c16-bb12-3c50f63fd666"},"vehicle_type_id":"4","last_reported":1745752057,"current_range_meters":17600,"station_id":"ce4bhn92rcd13ifvqgrg","pricing_plan_id":"cebpf4jnsgd1na2vs0mg"},{"bike_id":"6d593226-0a2e-46d4-8de3-9c8bd9d3e674","system_id":"levelo_inurba_marseille","lat":43.29817,"lon":5.38133,"is_reserved":false,"is_disabled":true,"rental_uris":{"android":"levelo://app?vid=6d593226-0a2e-46d4-8de3-9c8bd9d3e674","ios":"levelo://app?vid=6d593226-0a2e-46d4-8de3-9c8bd9d3e674"},"vehicle_type_id":"4","last_reported":1745752057,"current_range_meters":17600,"station_id":"ce4bgip2rcd13ifvqbb0","pricing_plan_id":"cebpf4jnsgd1na2vs0mg"},{"bike_id":"a1300fa1-43f7-47bc-be68-1621591c429e","system_id":"levelo_inurba_marseille","lat":43.25021,"lon":5.38907,"is_reserved":false,"is_disabled":true,"rental_uris":{"android":"levelo://app?vid=a1300fa1-43f7-47bc-be68-1621591c429e","ios":"levelo://app?vid=a1300fa1-43f7-47bc-be68-1621591c429e"},"vehicle_type_id":"4","last_reported":1745752057,"current_range_meters":17600,"station_id":"ce4bhgp2rcd13ifvqfd0","pricing_plan_id":"cebpf4jnsgd1na2vs0mg"},{"bike_id":"3f5f2c9a-9e49-4b78-9b1b-0708da9fec39","system_id":"levelo_inurba_marseille","lat":43.225,"lon":5.34785,"is_reserved":false,"is_disabled":false,"rental_uris":{"android":"levelo://app?vid=3f5f2c9a-9e49-4b78-9b1b-0708da9fec39","ios":"levelo://app?vid=3f5f2c9a-9e49-4b78-9b1b-0708da9fec39"},"vehicle_type_id":"4","last_reported":1745752057,"current_range_meters":18000,"station_id":"st_cvj5dfep6f1abm77gieg","pricing_plan_id":"cebpf4jnsgd1na2vs0mg"},{"bike_id":"b5374913-2d8e-4340-9ef3-bca67eedae7f","system_id":"levelo_inurba_marseille","lat":43.25946,"lon":5.40917,"is_reserved":false,"is_disabled":false,"rental_uris":{"android":"levelo://app?vid=b5374913-2d8e-4340-9ef3-bca67eedae7f","ios":"levelo://app?vid=b5374913-2d8e-4340-9ef3-bca67eedae7f"},"vehicle_type_id":"4","last_reported":1745752057,"current_range_meters":18000,"station_id":"ce4bhm92rcd13ifvqglg","pricing_plan_id":"cebpf4jnsgd1na2vs0mg"},{"bike_id":"2d21c0b3-d129-40ca-b5e0-4de377b57c75","system_id":"levelo_inurba_marseille","lat":43.26058,"lon":5.39381,"is_reserved":false,"is_disabled":false,"rental_uris":{"android":"levelo://app?vid=2d21c0b3-d129-40ca-b5e0-4de377b57c75","ios":"levelo://app?vid=2d21c0b3-d129-40ca-b5e0-4de377b57c75"},"vehicle_type_id":"4","last_reported":1745752057,"current_range_meters":18000,"station_id":"ce4bhh92rcd13ifvqfj0","pricing_plan_id":"cebpf4jnsgd1na2vs0mg"},{"bike_id":"e492037e-60a9-4864-84d6-2fe9ea031f90","system_id":"levelo_inurba_marseille","lat":43.27969,"lon":5.38737,"is_reserved":false,"is_disabled":false,"rental_uris":{"android":"levelo://app?vid=e492037e-60a9-4864-84d6-2fe9ea031f90","ios":"levelo://app?vid=e492037e-60a9-4864-84d6-2fe9ea031f90"},"vehicle_type_id":"4","last_reported":1745752057,"current_range_meters":18000,"station_id":"ce4bhg12rcd13ifvqf80","pricing_plan_id":"cebpf4jnsgd1na2vs0mg"},{"bike_id":"97fd7a4c-36e8-401d-b12d-1b4015a01ebe","system_id":"levelo_inurba_marseille","lat":43.26557,"lon":5.42095,"is_reserved":false,"is_disabled":false,"rental_uris":{"android":"levelo://app?vid=97fd7a4c-36e8-401d-b12d-1b4015a01ebe","ios":"levelo://app?vid=97fd7a4c-36e8-401d-b12d-1b4015a01ebe"},"vehicle_type_id":"4","last_reported":1745752057,"current_range_meters":18000,"station_id":"","pricing_plan_id":"cebpf4jnsgd1na2vs0mg"},{"bike_id":"b532cbc6-d603-4b6c-8eb1-6da63ec873ab","system_id":"levelo_inurba_marseille","lat":43.27069,"lon":5.40295,"is_reserved":false,"is_disabled":false,"rental_uris":{"android":"levelo://app?vid=b532cbc6-d603-4b6c-8eb1-6da63ec873ab","ios":"levelo://app?vid=b532cbc6-d603-4b6c-8eb1-6da63ec873ab"},"vehicle_type_id":"4","last_reported":1745752057,"current_range_meters":18000,"station_id":"ce4bhk92rcd13ifvqgc0","pricing_plan_id":"cebpf4jnsgd1na2vs0mg"},{"bike_id":"c3785294-a4a0-4e65-ac5d-b4e83966a4fe","system_id":"levelo_inurba_marseille","lat":43.295715,"lon":5.375026,"is_reserved":false,"is_disabled":false,"rental_uris":{"android":"levelo://app?vid=c3785294-a4a0-4e65-ac5d-b4e83966a4fe","ios":"levelo://app?vid=c3785294-a4a0-4e65-ac5d-b4e83966a4fe"},"vehicle_type_id":"4","last_reported":1745752057,"current_range_meters":18000,"station_id":"ce4bgkp2rcd13ifvqbmg","pricing_plan_id":"cebpf4jnsgd1na2vs0mg"},{"bike_id":"9275afeb-620b-4a3c-83d1-31bc14709d93","system_id":"levelo_inurba_marseille","lat":43.28863,"lon":5.35885,"is_reserved":false,"is_disabled":true,"rental_uris":{"android":"levelo://app?vid=9275afeb-620b-4a3c-83d1-31bc14709d93","ios":"levelo://app?vid=9275afeb-620b-4a3c-83d1-31bc14709d93"},"vehicle_type_id":"4","last_reported":1745752057,"current_range_meters":18800,"station_id":"ce4bhb12rcd13ifvqem0","pricing_plan_id":"cebpf4jnsgd1na2vs0mg"},{"bike_id":"188f96b2-7316-44a2-875d-4f24a3722e03","system_id":"levelo_inurba_marseille","lat":43.29795,"lon":5.37115,"is_reserved":false,"is_disabled":false,"rental_uris":{"android":"levelo://app?vid=188f96b2-7316-44a2-875d-4f24a3722e03","ios":"levelo://app?vid=188f96b2-7316-44a2-875d-4f24a3722e03"},"vehicle_type_id":"4","last_reported":1745752057,"current_range_meters":18800,"station_id":"ce4bgop2rcd13ifvqc1g","pricing_plan_id":"cebpf4jnsgd1na2vs0mg"},{"bike_id":"5e29bb99-7a29-4bbf-a514-99195c8fa20f","system_id":"levelo_inurba_marseille","lat":43.29915,"lon":5.43655,"is_reserved":false,"is_disabled":false,"rental_uris":{"android":"levelo://app?vid=5e29bb99-7a29-4bbf-a514-99195c8fa20f","ios":"levelo://app?vid=5e29bb99-7a29-4bbf-a514-99195c8fa20f"},"vehicle_type_id":"4","last_reported":1745752057,"current_range_meters":18800,"station_id":"ce4bhpp2rcd13ifvqhfg","pricing_plan_id":"cebpf4jnsgd1na2vs0mg"},{"bike_id":"6b34df52-6ca0-4d07-8f41-2a6d78fbfd53","system_id":"levelo_inurba_marseille","lat":43.27559,"lon":5.38414,"is_reserved":false,"is_disabled":false,"rental_uris":{"android":"levelo://app?vid=6b34df52-6ca0-4d07-8f41-2a6d78fbfd53","ios":"levelo://app?vid=6b34df52-6ca0-4d07-8f41-2a6d78fbfd53"},"vehicle_type_id":"4","last_reported":1745752057,"current_range_meters":18800,"station_id":"ce4bhh92rcd13ifvqfi0","pricing_plan_id":"cebpf4jnsgd1na2vs0mg"},{"bike_id":"181ed326-b471-49b5-9f00-acd48cb5b299","system_id":"levelo_inurba_marseille","lat":43.28291,"lon":5.35062,"is_reserved":false,"is_disabled":true,"rental_uris":{"android":"levelo://app?vid=181ed326-b471-49b5-9f00-acd48cb5b299","ios":"levelo://app?vid=181ed326-b471-49b5-9f00-acd48cb5b299"},"vehicle_type_id":"4","last_reported":1745752057,"current_range_meters":18800,"station_id":"ce4bhbp2rcd13ifvqerg","pricing_plan_id":"cebpf4jnsgd1na2vs0mg"},{"bike_id":"f8b82dd5-2d85-4846-8b9d-5afc30043cf6","system_id":"levelo_inurba_marseille","lat":43.22505,"lon":5.34768,"is_reserved":false,"is_disabled":false,"rental_uris":{"android":"levelo://app?vid=f8b82dd5-2d85-4846-8b9d-5afc30043cf6","ios":"levelo://app?vid=f8b82dd5-2d85-4846-8b9d-5afc30043cf6"},"vehicle_type_id":"4","last_reported":1745752057,"current_range_meters":18800,"station_id":"st_cvj5dfep6f1abm77gieg","pricing_plan_id":"cebpf4jnsgd1na2vs0mg"},{"bike_id":"6a3ad0ca-897c-414f-a69a-aae8b2ea7b61","system_id":"levelo_inurba_marseille","lat":43.21756,"lon":5.346,"is_reserved":false,"is_disabled":false,"rental_uris":{"android":"levelo://app?vid=6a3ad0ca-897c-414f-a69a-aae8b2ea7b61","ios":"levelo://app?vid=6a3ad0ca-897c-414f-a69a-aae8b2ea7b61"},"vehicle_type_id":"4","last_reported":1745752057,"current_range_meters":18800,"station_id":"","pricing_plan_id":"cebpf4jnsgd1na2vs0mg"},{"bike_id":"0fa0d35c-5f1d-4090-ac0b-83c1fb2bda03","system_id":"levelo_inurba_marseille","lat":43.29256,"lon":5.40916,"is_reserved":false,"is_disabled":false,"rental_uris":{"android":"levelo://app?vid=0fa0d35c-5f1d-4090-ac0b-83c1fb2bda03","ios":"levelo://app?vid=0fa0d35c-5f1d-4090-ac0b-83c1fb2bda03"},"vehicle_type_id":"4","last_reported":1745752057,"current_range_meters":19200,"station_id":"ce4bh192rcd13ifvqdc0","pricing_plan_id":"cebpf4jnsgd1na2vs0mg"},{"bike_id":"54fd7aae-b4de-4980-8fa1-650fb7911a48","system_id":"levelo_inurba_marseille","lat":43.28264,"lon":5.35058,"is_reserved":false,"is_disabled":false,"rental_uris":{"android":"levelo://app?vid=54fd7aae-b4de-4980-8fa1-650fb7911a48","ios":"levelo://app?vid=54fd7aae-b4de-4980-8fa1-650fb7911a48"},"vehicle_type_id":"4","last_reported":1745752057,"current_range_meters":19200,"station_id":"ce4bhbp2rcd13ifvqerg","pricing_plan_id":"cebpf4jnsgd1na2vs0mg"},{"bike_id":"22a83d05-c9c0-418c-aba2-13889dcbf30f","system_id":"levelo_inurba_marseille","lat":43.21195,"lon":5.35072,"is_reserved":false,"is_disabled":false,"rental_uris":{"android":"levelo://app?vid=22a83d05-c9c0-418c-aba2-13889dcbf30f","ios":"levelo://app?vid=22a83d05-c9c0-418c-aba2-13889dcbf30f"},"vehicle_type_id":"4","last_reported":1745752057,"current_range_meters":19200,"station_id":"","pricing_plan_id":"cebpf4jnsgd1na2vs0mg"},{"bike_id":"988d3e51-0f81-4d05-9256-41d5bf2a54ae","system_id":"levelo_inurba_marseille","lat":43.29712,"lon":5.36627,"is_reserved":false,"is_disabled":true,"rental_uris":{"android":"levelo://app?vid=988d3e51-0f81-4d05-9256-41d5bf2a54ae","ios":"levelo://app?vid=988d3e51-0f81-4d05-9256-41d5bf2a54ae"},"vehicle_type_id":"4","last_reported":1745752057,"current_range_meters":19200,"station_id":"ce4bgn12rcd13ifvqbt0","pricing_plan_id":"cebpf4jnsgd1na2vs0mg"},{"bike_id":"929ede0a-bede-4f2c-98c5-5586d05b6a66","system_id":"levelo_inurba_marseille","lat":43.21764,"lon":5.34591,"is_reserved":false,"is_disabled":false,"rental_uris":{"android":"levelo://app?vid=929ede0a-bede-4f2c-98c5-5586d05b6a66","ios":"levelo://app?vid=929ede0a-bede-4f2c-98c5-5586d05b6a66"},"vehicle_type_id":"4","last_reported":1745752057,"current_range_meters":19600,"station_id":"st_cvj6r9ubvosntc0bgbag","pricing_plan_id":"cebpf4jnsgd1na2vs0mg"},{"bike_id":"0f44704d-e409-42c0-a2d2-77616669b4de","system_id":"levelo_inurba_marseille","lat":43.27065,"lon":5.42281,"is_reserved":false,"is_disabled":false,"rental_uris":{"android":"levelo://app?vid=0f44704d-e409-42c0-a2d2-77616669b4de","ios":"levelo://app?vid=0f44704d-e409-42c0-a2d2-77616669b4de"},"vehicle_type_id":"4","last_reported":1745752057,"current_range_meters":19600,"station_id":"ce4bhk92rcd13ifvqgb0","pricing_plan_id":"cebpf4jnsgd1na2vs0mg"},{"bike_id":"35cee361-db2b-4827-873a-7588969e53c1","system_id":"levelo_inurba_marseille","lat":43.28142,"lon":5.42666,"is_reserved":false,"is_disabled":false,"rental_uris":{"android":"levelo://app?vid=35cee361-db2b-4827-873a-7588969e53c1","ios":"levelo://app?vid=35cee361-db2b-4827-873a-7588969e53c1"},"vehicle_type_id":"4","last_reported":1745752057,"current_range_meters":19600,"station_id":"ce4bhnh2rcd13ifvqgug","pricing_plan_id":"cebpf4jnsgd1na2vs0mg"},{"bike_id":"711e2011-9fce-4517-a6fb-ed586cce515e","system_id":"levelo_inurba_marseille","lat":43.30532,"lon":5.36716,"is_reserved":false,"is_disabled":false,"rental_uris":{"android":"levelo://app?vid=711e2011-9fce-4517-a6fb-ed586cce515e","ios":"levelo://app?vid=711e2011-9fce-4517-a6fb-ed586cce515e"},"vehicle_type_id":"4","last_reported":1745752057,"current_range_meters":19600,"station_id":"ce4bgrp2rcd13ifvqc9g","pricing_plan_id":"cebpf4jnsgd1na2vs0mg"},{"bike_id":"0afc1a6f-8d99-4aa1-8729-91d36729c79a","system_id":"levelo_inurba_marseille","lat":43.29021,"lon":5.38128,"is_reserved":false,"is_disabled":false,"rental_uris":{"android":"levelo://app?vid=0afc1a6f-8d99-4aa1-8729-91d36729c79a","ios":"levelo://app?vid=0afc1a6f-8d99-4aa1-8729-91d36729c79a"},"vehicle_type_id":"4","last_reported":1745752057,"current_range_meters":19600,"station_id":"ce4bh4p2rcd13ifvqe1g","pricing_plan_id":"cebpf4jnsgd1na2vs0mg"},{"bike_id":"12685d34-97bc-4cec-a6c0-5fdc38281103","system_id":"levelo_inurba_marseille","lat":43.30181,"lon":5.3661,"is_reserved":false,"is_disabled":false,"rental_uris":{"android":"levelo://app?vid=12685d34-97bc-4cec-a6c0-5fdc38281103","ios":"levelo://app?vid=12685d34-97bc-4cec-a6c0-5fdc38281103"},"vehicle_type_id":"4","last_reported":1745752057,"current_range_meters":19600,"station_id":"ce4bgrh2rcd13ifvqc8g","pricing_plan_id":"cebpf4jnsgd1na2vs0mg"},{"bike_id":"53a3421a-e6aa-4874-b766-273a5068e3ff","system_id":"levelo_inurba_marseille","lat":43.29026,"lon":5.38634,"is_reserved":false,"is_disabled":false,"rental_uris":{"android":"levelo://app?vid=53a3421a-e6aa-4874-b766-273a5068e3ff","ios":"levelo://app?vid=53a3421a-e6aa-4874-b766-273a5068e3ff"},"vehicle_type_id":"4","last_reported":1745752057,"current_range_meters":19200,"station_id":"ce4bh4p2rcd13ifvqe0g","pricing_plan_id":"cebpf4jnsgd1na2vs0mg"},{"bike_id":"8837f984-c47f-4dde-bb8b-f8f58b7753b3","system_id":"levelo_inurba_marseille","lat":43.29851,"lon":5.36284,"is_reserved":false,"is_disabled":false,"rental_uris":{"android":"levelo://app?vid=8837f984-c47f-4dde-bb8b-f8f58b7753b3","ios":"levelo://app?vid=8837f984-c47f-4dde-bb8b-f8f58b7753b3"},"vehicle_type_id":"4","last_reported":1745752057,"current_range_meters":19600,"station_id":"ce4bgpp2rcd13ifvqc3g","pricing_plan_id":"cebpf4jnsgd1na2vs0mg"},{"bike_id":"0caef7e1-38db-4965-bdbc-d88626b2e909","system_id":"levelo_inurba_marseille","lat":43.3013,"lon":5.39864,"is_reserved":false,"is_disabled":false,"rental_uris":{"android":"levelo://app?vid=0caef7e1-38db-4965-bdbc-d88626b2e909","ios":"levelo://app?vid=0caef7e1-38db-4965-bdbc-d88626b2e909"},"vehicle_type_id":"4","last_reported":1745752057,"current_range_meters":19600,"station_id":"ce4bh0h2rcd13ifvqd40","pricing_plan_id":"cebpf4jnsgd1na2vs0mg"},{"bike_id":"6ad84135-27b8-4421-ad4e-6fd81628784c","system_id":"levelo_inurba_marseille","lat":43.30526,"lon":5.3652,"is_reserved":false,"is_disabled":false,"rental_uris":{"android":"levelo://app?vid=6ad84135-27b8-4421-ad4e-6fd81628784c","ios":"levelo://app?vid=6ad84135-27b8-4421-ad4e-6fd81628784c"},"vehicle_type_id":"4","last_reported":1745752057,"current_range_meters":20000,"station_id":"ce4bgs12rcd13ifvqcag","pricing_plan_id":"cebpf4jnsgd1na2vs0mg"},{"bike_id":"b45721df-1911-4bd0-96bb-0c84adb69cfd","system_id":"levelo_inurba_marseille","lat":43.239603,"lon":5.366314,"is_reserved":false,"is_disabled":false,"rental_uris":{"android":"levelo://app?vid=b45721df-1911-4bd0-96bb-0c84adb69cfd","ios":"levelo://app?vid=b45721df-1911-4bd0-96bb-0c84adb69cfd"},"vehicle_type_id":"4","last_reported":1745752057,"current_range_meters":20000,"station_id":"ce4bhi12rcd13ifvqfp0","pricing_plan_id":"cebpf4jnsgd1na2vs0mg"},{"bike_id":"07045cd5-c4ed-45d9-b391-0600c294ffdd","system_id":"levelo_inurba_marseille","lat":43.28789,"lon":5.35883,"is_reserved":false,"is_disabled":false,"rental_uris":{"android":"levelo://app?vid=07045cd5-c4ed-45d9-b391-0600c294ffdd","ios":"levelo://app?vid=07045cd5-c4ed-45d9-b391-0600c294ffdd"},"vehicle_type_id":"4","last_reported":1745752057,"current_range_meters":20000,"station_id":"","pricing_plan_id":"cebpf4jnsgd1na2vs0mg"},{"bike_id":"47f88e1e-a478-4d1c-bc5d-9d7232f93f8c","system_id":"levelo_inurba_marseille","lat":43.21195,"lon":5.35071,"is_reserved":false,"is_disabled":false,"rental_uris":{"android":"levelo://app?vid=47f88e1e-a478-4d1c-bc5d-9d7232f93f8c","ios":"levelo://app?vid=47f88e1e-a478-4d1c-bc5d-9d7232f93f8c"},"vehicle_type_id":"4","last_reported":1745752057,"current_range_meters":20000,"station_id":"ce4bhah2rcd13ifvqei0","pricing_plan_id":"cebpf4jnsgd1na2vs0mg"},{"bike_id":"0a2c3c15-e1aa-4608-ab5b-3c3edb39d47d","system_id":"levelo_inurba_marseille","lat":43.32485,"lon":5.36557,"is_reserved":false,"is_disabled":false,"rental_uris":{"android":"levelo://app?vid=0a2c3c15-e1aa-4608-ab5b-3c3edb39d47d","ios":"levelo://app?vid=0a2c3c15-e1aa-4608-ab5b-3c3edb39d47d"},"vehicle_type_id":"4","last_reported":1745752057,"current_range_meters":20000,"station_id":"ce4bhs12rcd13ifvqhvg","pricing_plan_id":"cebpf4jnsgd1na2vs0mg"},{"bike_id":"a55dff60-5e73-4336-be64-e659d47f27cd","system_id":"levelo_inurba_marseille","lat":43.29711,"lon":5.36606,"is_reserved":false,"is_disabled":false,"rental_uris":{"android":"levelo://app?vid=a55dff60-5e73-4336-be64-e659d47f27cd","ios":"levelo://app?vid=a55dff60-5e73-4336-be64-e659d47f27cd"},"vehicle_type_id":"4","last_reported":1745752057,"current_range_meters":20000,"station_id":"ce4bgn12rcd13ifvqbt0","pricing_plan_id":"cebpf4jnsgd1na2vs0mg"},{"bike_id":"6658ad20-9fab-4633-8426-83ef11bd1b87","system_id":"levelo_inurba_marseille","lat":43.265576,"lon":5.372825,"is_reserved":false,"is_disabled":false,"rental_uris":{"android":"levelo://app?vid=6658ad20-9fab-4633-8426-83ef11bd1b87","ios":"levelo://app?vid=6658ad20-9fab-4633-8426-83ef11bd1b87"},"vehicle_type_id":"4","last_reported":1745752057,"current_range_meters":20400,"station_id":"ce4bhg12rcd13ifvqf70","pricing_plan_id":"cebpf4jnsgd1na2vs0mg"},{"bike_id":"6479956a-d9b1-44fc-b8a6-2a54b4859093","system_id":"levelo_inurba_marseille","lat":43.28162,"lon":5.42682,"is_reserved":false,"is_disabled":false,"rental_uris":{"android":"levelo://app?vid=6479956a-d9b1-44fc-b8a6-2a54b4859093","ios":"levelo://app?vid=6479956a-d9b1-44fc-b8a6-2a54b4859093"},"vehicle_type_id":"4","last_reported":1745752057,"current_range_meters":20400,"station_id":"ce4bhnh2rcd13ifvqgug","pricing_plan_id":"cebpf4jnsgd1na2vs0mg"},{"bike_id":"08373bce-cfa2-47b7-8c8e-e48d70d8d1c1","system_id":"levelo_inurba_marseille","lat":43.29071,"lon":5.37155,"is_reserved":false,"is_disabled":false,"rental_uris":{"android":"levelo://app?vid=08373bce-cfa2-47b7-8c8e-e48d70d8d1c1","ios":"levelo://app?vid=08373bce-cfa2-47b7-8c8e-e48d70d8d1c1"},"vehicle_type_id":"4","last_reported":1745752057,"current_range_meters":20400,"station_id":"ce4bh5p2rcd13ifvqe4g","pricing_plan_id":"cebpf4jnsgd1na2vs0mg"},{"bike_id":"854b6f67-ca9a-45bb-a87f-9accf64bf40e","system_id":"levelo_inurba_marseille","lat":43.27563,"lon":5.38394,"is_reserved":false,"is_disabled":true,"rental_uris":{"android":"levelo://app?vid=854b6f67-ca9a-45bb-a87f-9accf64bf40e","ios":"levelo://app?vid=854b6f67-ca9a-45bb-a87f-9accf64bf40e"},"vehicle_type_id":"4","last_reported":1745752057,"current_range_meters":20400,"station_id":"ce4bhh92rcd13ifvqfi0","pricing_plan_id":"cebpf4jnsgd1na2vs0mg"},{"bike_id":"7c7dae8c-f706-49ba-a992-714a664efd83","system_id":"levelo_inurba_marseille","lat":43.22503,"lon":5.347831,"is_reserved":false,"is_disabled":false,"rental_uris":{"android":"levelo://app?vid=7c7dae8c-f706-49ba-a992-714a664efd83","ios":"levelo://app?vid=7c7dae8c-f706-49ba-a992-714a664efd83"},"vehicle_type_id":"4","last_reported":1745752057,"current_range_meters":20400,"station_id":"","pricing_plan_id":"cebpf4jnsgd1na2vs0mg"},{"bike_id":"5f363fb2-65d6-4f54-a7e8-9f0969c18dcf","system_id":"levelo_inurba_marseille","lat":43.305549,"lon":5.365289,"is_reserved":false,"is_disabled":true,"rental_uris":{"android":"levelo://app?vid=5f363fb2-65d6-4f54-a7e8-9f0969c18dcf","ios":"levelo://app?vid=5f363fb2-65d6-4f54-a7e8-9f0969c18dcf"},"vehicle_type_id":"4","last_reported":1745752057,"current_range_meters":20400,"station_id":"ce4bgs12rcd13ifvqcag","pricing_plan_id":"cebpf4jnsgd1na2vs0mg"},{"bike_id":"3a662650-cff0-4465-b73c-3cb02ed50fd6","system_id":"levelo_inurba_marseille","lat":43.27913,"lon":5.39574,"is_reserved":false,"is_disabled":false,"rental_uris":{"android":"levelo://app?vid=3a662650-cff0-4465-b73c-3cb02ed50fd6","ios":"levelo://app?vid=3a662650-cff0-4465-b73c-3cb02ed50fd6"},"vehicle_type_id":"4","last_reported":1745752057,"current_range_meters":20400,"station_id":"ce4bhf92rcd13ifvqf40","pricing_plan_id":"cebpf4jnsgd1na2vs0mg"},{"bike_id":"a1eef206-b196-4dbe-8444-1fdb32e851fe","system_id":"levelo_inurba_marseille","lat":43.25091,"lon":5.395124,"is_reserved":false,"is_disabled":false,"rental_uris":{"android":"levelo://app?vid=a1eef206-b196-4dbe-8444-1fdb32e851fe","ios":"levelo://app?vid=a1eef206-b196-4dbe-8444-1fdb32e851fe"},"vehicle_type_id":"4","last_reported":1745752057,"current_range_meters":20400,"station_id":"ce4bhm12rcd13ifvqgkg","pricing_plan_id":"cebpf4jnsgd1na2vs0mg"},{"bike_id":"2ace29de-dc05-4995-9f67-859989d96e18","system_id":"levelo_inurba_marseille","lat":43.27942,"lon":5.41047,"is_reserved":false,"is_disabled":false,"rental_uris":{"android":"levelo://app?vid=2ace29de-dc05-4995-9f67-859989d96e18","ios":"levelo://app?vid=2ace29de-dc05-4995-9f67-859989d96e18"},"vehicle_type_id":"4","last_reported":1745752057,"current_range_meters":20400,"station_id":"ce4bhnp2rcd13ifvqh0g","pricing_plan_id":"cebpf4jnsgd1na2vs0mg"},{"bike_id":"4479839f-f31b-4985-bc7e-64e0b6961f5f","system_id":"levelo_inurba_marseille","lat":43.28673,"lon":5.36356,"is_reserved":false,"is_disabled":false,"rental_uris":{"android":"levelo://app?vid=4479839f-f31b-4985-bc7e-64e0b6961f5f","ios":"levelo://app?vid=4479839f-f31b-4985-bc7e-64e0b6961f5f"},"vehicle_type_id":"4","last_reported":1745752057,"current_range_meters":20400,"station_id":"ce4bhah2rcd13ifvqej0","pricing_plan_id":"cebpf4jnsgd1na2vs0mg"},{"bike_id":"c3342e7b-7192-4814-a84c-44328df0860b","system_id":"levelo_inurba_marseille","lat":43.30533,"lon":5.36711,"is_reserved":false,"is_disabled":false,"rental_uris":{"android":"levelo://app?vid=c3342e7b-7192-4814-a84c-44328df0860b","ios":"levelo://app?vid=c3342e7b-7192-4814-a84c-44328df0860b"},"vehicle_type_id":"4","last_reported":1745752057,"current_range_meters":20800,"station_id":"ce4bgrp2rcd13ifvqc9g","pricing_plan_id":"cebpf4jnsgd1na2vs0mg"},{"bike_id":"b783defb-3f3e-4088-8096-df4271017872","system_id":"levelo_inurba_marseille","lat":43.28266,"lon":5.35071,"is_reserved":false,"is_disabled":false,"rental_uris":{"android":"levelo://app?vid=b783defb-3f3e-4088-8096-df4271017872","ios":"levelo://app?vid=b783defb-3f3e-4088-8096-df4271017872"},"vehicle_type_id":"4","last_reported":1745752057,"current_range_meters":20800,"station_id":"ce4bhbp2rcd13ifvqerg","pricing_plan_id":"cebpf4jnsgd1na2vs0mg"},{"bike_id":"4734d892-a169-4a3c-9d1e-073e818d67ef","system_id":"levelo_inurba_marseille","lat":43.28948,"lon":5.36398,"is_reserved":false,"is_disabled":false,"rental_uris":{"android":"levelo://app?vid=4734d892-a169-4a3c-9d1e-073e818d67ef","ios":"levelo://app?vid=4734d892-a169-4a3c-9d1e-073e818d67ef"},"vehicle_type_id":"4","last_reported":1745752057,"current_range_meters":20800,"station_id":"ce4bhc92rcd13ifvqetg","pricing_plan_id":"cebpf4jnsgd1na2vs0mg"},{"bike_id":"308aa7a2-a0e7-4338-b5de-6ad6c2b74bd9","system_id":"levelo_inurba_marseille","lat":43.28264,"lon":5.35061,"is_reserved":false,"is_disabled":false,"rental_uris":{"android":"levelo://app?vid=308aa7a2-a0e7-4338-b5de-6ad6c2b74bd9","ios":"levelo://app?vid=308aa7a2-a0e7-4338-b5de-6ad6c2b74bd9"},"vehicle_type_id":"4","last_reported":1745752057,"current_range_meters":20800,"station_id":"ce4bhbp2rcd13ifvqerg","pricing_plan_id":"cebpf4jnsgd1na2vs0mg"},{"bike_id":"f977d8fc-a486-45df-8727-671d07539b11","system_id":"levelo_inurba_marseille","lat":43.26215,"lon":5.37915,"is_reserved":false,"is_disabled":true,"rental_uris":{"android":"levelo://app?vid=f977d8fc-a486-45df-8727-671d07539b11","ios":"levelo://app?vid=f977d8fc-a486-45df-8727-671d07539b11"},"vehicle_type_id":"4","last_reported":1745752057,"current_range_meters":21600,"station_id":"ce4bhjp2rcd13ifvqg90","pricing_plan_id":"cebpf4jnsgd1na2vs0mg"},{"bike_id":"6a0de3d1-cabc-47be-8f17-6ae60956132b","system_id":"levelo_inurba_marseille","lat":43.29728,"lon":5.36024,"is_reserved":false,"is_disabled":false,"rental_uris":{"android":"levelo://app?vid=6a0de3d1-cabc-47be-8f17-6ae60956132b","ios":"levelo://app?vid=6a0de3d1-cabc-47be-8f17-6ae60956132b"},"vehicle_type_id":"4","last_reported":1745752057,"current_range_meters":21600,"station_id":"","pricing_plan_id":"cebpf4jnsgd1na2vs0mg"},{"bike_id":"377d6c91-5745-4aa9-b800-58608d5e28e3","system_id":"levelo_inurba_marseille","lat":43.231802,"lon":5.399826,"is_reserved":false,"is_disabled":false,"rental_uris":{"android":"levelo://app?vid=377d6c91-5745-4aa9-b800-58608d5e28e3","ios":"levelo://app?vid=377d6c91-5745-4aa9-b800-58608d5e28e3"},"vehicle_type_id":"4","last_reported":1745752057,"current_range_meters":21600,"station_id":"ce4bhn12rcd13ifvqgqg","pricing_plan_id":"cebpf4jnsgd1na2vs0mg"},{"bike_id":"d5792b96-81ae-4816-accb-680dcd29aa8e","system_id":"levelo_inurba_marseille","lat":43.24685,"lon":5.3818,"is_reserved":false,"is_disabled":true,"rental_uris":{"android":"levelo://app?vid=d5792b96-81ae-4816-accb-680dcd29aa8e","ios":"levelo://app?vid=d5792b96-81ae-4816-accb-680dcd29aa8e"},"vehicle_type_id":"4","last_reported":1745752057,"current_range_meters":21600,"station_id":"ce4bhih2rcd13ifvqfr0","pricing_plan_id":"cebpf4jnsgd1na2vs0mg"},{"bike_id":"3084c55e-44a6-404a-80d6-3955d79dfeb8","system_id":"levelo_inurba_marseille","lat":43.27564,"lon":5.38426,"is_reserved":false,"is_disabled":false,"rental_uris":{"android":"levelo://app?vid=3084c55e-44a6-404a-80d6-3955d79dfeb8","ios":"levelo://app?vid=3084c55e-44a6-404a-80d6-3955d79dfeb8"},"vehicle_type_id":"4","last_reported":1745752057,"current_range_meters":21600,"station_id":"ce4bhh92rcd13ifvqfi0","pricing_plan_id":"cebpf4jnsgd1na2vs0mg"},{"bike_id":"2927c78c-0541-4679-8cbb-57ff15cf607c","system_id":"levelo_inurba_marseille","lat":43.32354,"lon":5.40614,"is_reserved":false,"is_disabled":false,"rental_uris":{"android":"levelo://app?vid=2927c78c-0541-4679-8cbb-57ff15cf607c","ios":"levelo://app?vid=2927c78c-0541-4679-8cbb-57ff15cf607c"},"vehicle_type_id":"4","last_reported":1745752057,"current_range_meters":21600,"station_id":"ce4bhq92rcd13ifvqhjg","pricing_plan_id":"cebpf4jnsgd1na2vs0mg"},{"bike_id":"7ebed25e-822d-457a-b5a4-4dcbfabcf3c8","system_id":"levelo_inurba_marseille","lat":43.27811,"lon":5.40714,"is_reserved":false,"is_disabled":false,"rental_uris":{"android":"levelo://app?vid=7ebed25e-822d-457a-b5a4-4dcbfabcf3c8","ios":"levelo://app?vid=7ebed25e-822d-457a-b5a4-4dcbfabcf3c8"},"vehicle_type_id":"4","last_reported":1745752057,"current_range_meters":21600,"station_id":"ce4bhnh2rcd13ifvqgtg","pricing_plan_id":"cebpf4jnsgd1na2vs0mg"},{"bike_id":"5c7a45e5-85a5-4e55-9a3d-0000292257f1","system_id":"levelo_inurba_marseille","lat":43.27564,"lon":5.38435,"is_reserved":false,"is_disabled":false,"rental_uris":{"android":"levelo://app?vid=5c7a45e5-85a5-4e55-9a3d-0000292257f1","ios":"levelo://app?vid=5c7a45e5-85a5-4e55-9a3d-0000292257f1"},"vehicle_type_id":"4","last_reported":1745752057,"current_range_meters":22000,"station_id":"ce4bhh92rcd13ifvqfi0","pricing_plan_id":"cebpf4jnsgd1na2vs0mg"},{"bike_id":"d22fc549-1d72-4cfe-81f2-725501b5c4c5","system_id":"levelo_inurba_marseille","lat":43.31729,"lon":5.40427,"is_reserved":false,"is_disabled":false,"rental_uris":{"android":"levelo://app?vid=d22fc549-1d72-4cfe-81f2-725501b5c4c5","ios":"levelo://app?vid=d22fc549-1d72-4cfe-81f2-725501b5c4c5"},"vehicle_type_id":"4","last_reported":1745752057,"current_range_meters":22000,"station_id":"ce4bh012rcd13ifvqd00","pricing_plan_id":"cebpf4jnsgd1na2vs0mg"},{"bike_id":"26e2563a-5614-46af-9839-4e09e7d33768","system_id":"levelo_inurba_marseille","lat":43.33615,"lon":5.41022,"is_reserved":false,"is_disabled":false,"rental_uris":{"android":"levelo://app?vid=26e2563a-5614-46af-9839-4e09e7d33768","ios":"levelo://app?vid=26e2563a-5614-46af-9839-4e09e7d33768"},"vehicle_type_id":"4","last_reported":1745752057,"current_range_meters":22000,"station_id":"ce4bhqh2rcd13ifvqhmg","pricing_plan_id":"cebpf4jnsgd1na2vs0mg"},{"bike_id":"608ff1b0-b9e3-4944-8f39-c5b35dc7bd9e","system_id":"levelo_inurba_marseille","lat":43.21753,"lon":5.34609,"is_reserved":false,"is_disabled":false,"rental_uris":{"android":"levelo://app?vid=608ff1b0-b9e3-4944-8f39-c5b35dc7bd9e","ios":"levelo://app?vid=608ff1b0-b9e3-4944-8f39-c5b35dc7bd9e"},"vehicle_type_id":"4","last_reported":1745752057,"current_range_meters":22000,"station_id":"st_cvj6r9ubvosntc0bgbag","pricing_plan_id":"cebpf4jnsgd1na2vs0mg"},{"bike_id":"dd8f69fa-3b4d-4524-840e-6223607a2fce","system_id":"levelo_inurba_marseille","lat":43.29415,"lon":5.3863,"is_reserved":false,"is_disabled":false,"rental_uris":{"android":"levelo://app?vid=dd8f69fa-3b4d-4524-840e-6223607a2fce","ios":"levelo://app?vid=dd8f69fa-3b4d-4524-840e-6223607a2fce"},"vehicle_type_id":"4","last_reported":1745752057,"current_range_meters":22000,"station_id":"ce4bh2h2rcd13ifvqdh0","pricing_plan_id":"cebpf4jnsgd1na2vs0mg"},{"bike_id":"2420ad39-a5b7-4ea3-b775-69cf92e1a47f","system_id":"levelo_inurba_marseille","lat":43.25921,"lon":5.40875,"is_reserved":false,"is_disabled":false,"rental_uris":{"android":"levelo://app?vid=2420ad39-a5b7-4ea3-b775-69cf92e1a47f","ios":"levelo://app?vid=2420ad39-a5b7-4ea3-b775-69cf92e1a47f"},"vehicle_type_id":"4","last_reported":1745752057,"current_range_meters":22000,"station_id":"ce4bhm92rcd13ifvqglg","pricing_plan_id":"cebpf4jnsgd1na2vs0mg"},{"bike_id":"6810ee11-7526-4e0e-95e4-4e97095db1b2","system_id":"levelo_inurba_marseille","lat":43.279258,"lon":5.395981,"is_reserved":false,"is_disabled":false,"rental_uris":{"android":"levelo://app?vid=6810ee11-7526-4e0e-95e4-4e97095db1b2","ios":"levelo://app?vid=6810ee11-7526-4e0e-95e4-4e97095db1b2"},"vehicle_type_id":"4","last_reported":1745752057,"current_range_meters":22000,"station_id":"ce4bhf92rcd13ifvqf40","pricing_plan_id":"cebpf4jnsgd1na2vs0mg"},{"bike_id":"8f7294ac-7739-43f3-a086-c2207bac72ef","system_id":"levelo_inurba_marseille","lat":43.24398,"lon":5.37048,"is_reserved":false,"is_disabled":false,"rental_uris":{"android":"levelo://app?vid=8f7294ac-7739-43f3-a086-c2207bac72ef","ios":"levelo://app?vid=8f7294ac-7739-43f3-a086-c2207bac72ef"},"vehicle_type_id":"4","last_reported":1745752057,"current_range_meters":22800,"station_id":"ce4bhhh2rcd13ifvqfk0","pricing_plan_id":"cebpf4jnsgd1na2vs0mg"},{"bike_id":"160b924c-2a9d-4547-9508-6a62f757d7fc","system_id":"levelo_inurba_marseille","lat":43.28656,"lon":5.363518,"is_reserved":false,"is_disabled":false,"rental_uris":{"android":"levelo://app?vid=160b924c-2a9d-4547-9508-6a62f757d7fc","ios":"levelo://app?vid=160b924c-2a9d-4547-9508-6a62f757d7fc"},"vehicle_type_id":"4","last_reported":1745752057,"current_range_meters":22400,"station_id":"ce4bhah2rcd13ifvqej0","pricing_plan_id":"cebpf4jnsgd1na2vs0mg"},{"bike_id":"0c93d0e2-9309-42f3-9d4c-0d377c8c997f","system_id":"levelo_inurba_marseille","lat":43.284,"lon":5.37521,"is_reserved":false,"is_disabled":false,"rental_uris":{"android":"levelo://app?vid=0c93d0e2-9309-42f3-9d4c-0d377c8c997f","ios":"levelo://app?vid=0c93d0e2-9309-42f3-9d4c-0d377c8c997f"},"vehicle_type_id":"4","last_reported":1745752057,"current_range_meters":22400,"station_id":"ce4bh412rcd13ifvqds0","pricing_plan_id":"cebpf4jnsgd1na2vs0mg"},{"bike_id":"1589dba7-8029-4d4a-b1cf-7fa9279ef7ad","system_id":"levelo_inurba_marseille","lat":43.32426,"lon":5.39086,"is_reserved":false,"is_disabled":false,"rental_uris":{"android":"levelo://app?vid=1589dba7-8029-4d4a-b1cf-7fa9279ef7ad","ios":"levelo://app?vid=1589dba7-8029-4d4a-b1cf-7fa9279ef7ad"},"vehicle_type_id":"4","last_reported":1745752057,"current_range_meters":22400,"station_id":"ce4bhqp2rcd13ifvqhog","pricing_plan_id":"cebpf4jnsgd1na2vs0mg"},{"bike_id":"d0084b40-0977-469b-a971-471d5dd9a078","system_id":"levelo_inurba_marseille","lat":43.25915,"lon":5.40877,"is_reserved":false,"is_disabled":false,"rental_uris":{"android":"levelo://app?vid=d0084b40-0977-469b-a971-471d5dd9a078","ios":"levelo://app?vid=d0084b40-0977-469b-a971-471d5dd9a078"},"vehicle_type_id":"4","last_reported":1745752057,"current_range_meters":22400,"station_id":"ce4bhm92rcd13ifvqglg","pricing_plan_id":"cebpf4jnsgd1na2vs0mg"},{"bike_id":"c534372e-05d1-475e-8375-4c42f56a0a0d","system_id":"levelo_inurba_marseille","lat":43.295715,"lon":5.375291,"is_reserved":false,"is_disabled":false,"rental_uris":{"android":"levelo://app?vid=c534372e-05d1-475e-8375-4c42f56a0a0d","ios":"levelo://app?vid=c534372e-05d1-475e-8375-4c42f56a0a0d"},"vehicle_type_id":"4","last_reported":1745752057,"current_range_meters":22400,"station_id":"ce4bgh92rcd13ifvqb50","pricing_plan_id":"cebpf4jnsgd1na2vs0mg"},{"bike_id":"c96ce9c9-fd06-4af2-9d19-43e008c59cba","system_id":"levelo_inurba_marseille","lat":43.26224,"lon":5.40447,"is_reserved":false,"is_disabled":false,"rental_uris":{"android":"levelo://app?vid=c96ce9c9-fd06-4af2-9d19-43e008c59cba","ios":"levelo://app?vid=c96ce9c9-fd06-4af2-9d19-43e008c59cba"},"vehicle_type_id":"4","last_reported":1745752057,"current_range_meters":22400,"station_id":"ce4bhmh2rcd13ifvqgmg","pricing_plan_id":"cebpf4jnsgd1na2vs0mg"},{"bike_id":"579b9d02-e6b0-4faa-8aa6-d259af964e22","system_id":"levelo_inurba_marseille","lat":43.23971,"lon":5.36617,"is_reserved":false,"is_disabled":false,"rental_uris":{"android":"levelo://app?vid=579b9d02-e6b0-4faa-8aa6-d259af964e22","ios":"levelo://app?vid=579b9d02-e6b0-4faa-8aa6-d259af964e22"},"vehicle_type_id":"4","last_reported":1745752057,"current_range_meters":22800,"station_id":"ce4bhi12rcd13ifvqfp0","pricing_plan_id":"cebpf4jnsgd1na2vs0mg"},{"bike_id":"5b5279c4-e4ef-4116-bd16-593bc28de371","system_id":"levelo_inurba_marseille","lat":43.236079,"lon":5.403547,"is_reserved":false,"is_disabled":false,"rental_uris":{"android":"levelo://app?vid=5b5279c4-e4ef-4116-bd16-593bc28de371","ios":"levelo://app?vid=5b5279c4-e4ef-4116-bd16-593bc28de371"},"vehicle_type_id":"4","last_reported":1745752057,"current_range_meters":22800,"station_id":"","pricing_plan_id":"cebpf4jnsgd1na2vs0mg"},{"bike_id":"922be588-a2c7-4045-9260-d3ce0bd40f03","system_id":"levelo_inurba_marseille","lat":43.30536,"lon":5.36711,"is_reserved":false,"is_disabled":false,"rental_uris":{"android":"levelo://app?vid=922be588-a2c7-4045-9260-d3ce0bd40f03","ios":"levelo://app?vid=922be588-a2c7-4045-9260-d3ce0bd40f03"},"vehicle_type_id":"4","last_reported":1745752057,"current_range_meters":22800,"station_id":"ce4bgrp2rcd13ifvqc9g","pricing_plan_id":"cebpf4jnsgd1na2vs0mg"},{"bike_id":"03095dde-d602-45e8-a874-d59b4023c102","system_id":"levelo_inurba_marseille","lat":43.26935,"lon":5.40258,"is_reserved":false,"is_disabled":false,"rental_uris":{"android":"levelo://app?vid=03095dde-d602-45e8-a874-d59b4023c102","ios":"levelo://app?vid=03095dde-d602-45e8-a874-d59b4023c102"},"vehicle_type_id":"4","last_reported":1745752057,"current_range_meters":22800,"station_id":"cjm6bp8fraef2m0cb0m0","pricing_plan_id":"cebpf4jnsgd1na2vs0mg"},{"bike_id":"04587998-96bf-4827-95c6-d82de3d4144b","system_id":"levelo_inurba_marseille","lat":43.30536,"lon":5.36537,"is_reserved":false,"is_disabled":false,"rental_uris":{"android":"levelo://app?vid=04587998-96bf-4827-95c6-d82de3d4144b","ios":"levelo://app?vid=04587998-96bf-4827-95c6-d82de3d4144b"},"vehicle_type_id":"4","last_reported":1745752057,"current_range_meters":22800,"station_id":"ce4bgs12rcd13ifvqcag","pricing_plan_id":"cebpf4jnsgd1na2vs0mg"},{"bike_id":"9d202dbe-5f80-44e9-ad05-620bbd77ebff","system_id":"levelo_inurba_marseille","lat":43.3133,"lon":5.39677,"is_reserved":false,"is_disabled":false,"rental_uris":{"android":"levelo://app?vid=9d202dbe-5f80-44e9-ad05-620bbd77ebff","ios":"levelo://app?vid=9d202dbe-5f80-44e9-ad05-620bbd77ebff"},"vehicle_type_id":"4","last_reported":1745752057,"current_range_meters":22800,"station_id":"ce4bgvp2rcd13ifvqcu0","pricing_plan_id":"cebpf4jnsgd1na2vs0mg"},{"bike_id":"d3881236-172c-42f8-a3e0-7e01c42f9e73","system_id":"levelo_inurba_marseille","lat":43.30077,"lon":5.38587,"is_reserved":false,"is_disabled":true,"rental_uris":{"android":"levelo://app?vid=d3881236-172c-42f8-a3e0-7e01c42f9e73","ios":"levelo://app?vid=d3881236-172c-42f8-a3e0-7e01c42f9e73"},"vehicle_type_id":"4","last_reported":1745752057,"current_range_meters":22800,"station_id":"","pricing_plan_id":"cebpf4jnsgd1na2vs0mg"},{"bike_id":"08f8dd98-2653-4985-8722-3a86b1de2ed5","system_id":"levelo_inurba_marseille","lat":43.28148,"lon":5.42643,"is_reserved":false,"is_disabled":false,"rental_uris":{"android":"levelo://app?vid=08f8dd98-2653-4985-8722-3a86b1de2ed5","ios":"levelo://app?vid=08f8dd98-2653-4985-8722-3a86b1de2ed5"},"vehicle_type_id":"4","last_reported":1745752057,"current_range_meters":22800,"station_id":"ce4bhnh2rcd13ifvqgug","pricing_plan_id":"cebpf4jnsgd1na2vs0mg"},{"bike_id":"e2db68dd-f47f-4e15-8fe0-c97738bddb69","system_id":"levelo_inurba_marseille","lat":43.29271,"lon":5.36835,"is_reserved":false,"is_disabled":true,"rental_uris":{"android":"levelo://app?vid=e2db68dd-f47f-4e15-8fe0-c97738bddb69","ios":"levelo://app?vid=e2db68dd-f47f-4e15-8fe0-c97738bddb69"},"vehicle_type_id":"4","last_reported":1745752057,"current_range_meters":22800,"station_id":"ce4bhbp2rcd13ifvqesg","pricing_plan_id":"cebpf4jnsgd1na2vs0mg"},{"bike_id":"6c72de35-de49-45aa-84fb-0f4a50376358","system_id":"levelo_inurba_marseille","lat":43.33008,"lon":5.4385,"is_reserved":false,"is_disabled":false,"rental_uris":{"android":"levelo://app?vid=6c72de35-de49-45aa-84fb-0f4a50376358","ios":"levelo://app?vid=6c72de35-de49-45aa-84fb-0f4a50376358"},"vehicle_type_id":"4","last_reported":1745752057,"current_range_meters":22800,"station_id":"","pricing_plan_id":"cebpf4jnsgd1na2vs0mg"},{"bike_id":"ca1f44fc-6d11-4548-8a52-1f202ecc4be7","system_id":"levelo_inurba_marseille","lat":43.23192,"lon":5.39975,"is_reserved":false,"is_disabled":false,"rental_uris":{"android":"levelo://app?vid=ca1f44fc-6d11-4548-8a52-1f202ecc4be7","ios":"levelo://app?vid=ca1f44fc-6d11-4548-8a52-1f202ecc4be7"},"vehicle_type_id":"4","last_reported":1745752057,"current_range_meters":22800,"station_id":"ce4bhn12rcd13ifvqgqg","pricing_plan_id":"cebpf4jnsgd1na2vs0mg"},{"bike_id":"5609d54d-ae16-4b49-93c6-8b921ebb9de1","system_id":"levelo_inurba_marseille","lat":43.317083,"lon":5.436981,"is_reserved":false,"is_disabled":false,"rental_uris":{"android":"levelo://app?vid=5609d54d-ae16-4b49-93c6-8b921ebb9de1","ios":"levelo://app?vid=5609d54d-ae16-4b49-93c6-8b921ebb9de1"},"vehicle_type_id":"4","last_reported":1745752057,"current_range_meters":22800,"station_id":"ce4bhp92rcd13ifvqhcg","pricing_plan_id":"cebpf4jnsgd1na2vs0mg"},{"bike_id":"21ce1eae-2e14-454a-a0ff-1cae31fcf72d","system_id":"levelo_inurba_marseille","lat":43.28668,"lon":5.3636,"is_reserved":false,"is_disabled":false,"rental_uris":{"android":"levelo://app?vid=21ce1eae-2e14-454a-a0ff-1cae31fcf72d","ios":"levelo://app?vid=21ce1eae-2e14-454a-a0ff-1cae31fcf72d"},"vehicle_type_id":"4","last_reported":1745752057,"current_range_meters":22800,"station_id":"ce4bhah2rcd13ifvqej0","pricing_plan_id":"cebpf4jnsgd1na2vs0mg"},{"bike_id":"4eb51e7d-340e-400b-ac78-3737f259ed76","system_id":"levelo_inurba_marseille","lat":43.28421,"lon":5.34981,"is_reserved":false,"is_disabled":false,"rental_uris":{"android":"levelo://app?vid=4eb51e7d-340e-400b-ac78-3737f259ed76","ios":"levelo://app?vid=4eb51e7d-340e-400b-ac78-3737f259ed76"},"vehicle_type_id":"4","last_reported":1745752057,"current_range_meters":23200,"station_id":"ce4bhbh2rcd13ifvqepg","pricing_plan_id":"cebpf4jnsgd1na2vs0mg"},{"bike_id":"9d7be560-5444-46ca-bc57-fc04a058c458","system_id":"levelo_inurba_marseille","lat":43.309254,"lon":5.401552,"is_reserved":false,"is_disabled":true,"rental_uris":{"android":"levelo://app?vid=9d7be560-5444-46ca-bc57-fc04a058c458","ios":"levelo://app?vid=9d7be560-5444-46ca-bc57-fc04a058c458"},"vehicle_type_id":"4","last_reported":1745752057,"current_range_meters":23200,"station_id":"ce4bgvp2rcd13ifvqct0","pricing_plan_id":"cebpf4jnsgd1na2vs0mg"},{"bike_id":"f761d5dd-f14d-465b-b860-62f8e1905358","system_id":"levelo_inurba_marseille","lat":43.31116,"lon":5.37769,"is_reserved":false,"is_disabled":false,"rental_uris":{"android":"levelo://app?vid=f761d5dd-f14d-465b-b860-62f8e1905358","ios":"levelo://app?vid=f761d5dd-f14d-465b-b860-62f8e1905358"},"vehicle_type_id":"4","last_reported":1745752057,"current_range_meters":23200,"station_id":"ce4bgt92rcd13ifvqcg0","pricing_plan_id":"cebpf4jnsgd1na2vs0mg"},