{"last_updated":1748934678,"ttl":60,"version":"2.2","data":{"bikes":[{"bike_id":"5736accb-991c-4877-a612-8be882a83c2f","system_id":"levelo_inurba_marseille","lat":43.33771,"lon":5.37424,"is_reserved":false,"is_disabled":true,"rental_uris":{"android":"levelo://app?vid=5736accb-991c-4877-a612-8be882a83c2f","ios":"levelo://app?vid=5736accb-991c-4877-a612-8be882a83c2f"},"vehicle_type_id":"4","last_reported":1748934678,"current_range_meters":0,"station_id":"","pricing_plan_id":"cebpf4jnsgd1na2vs0mg"},{"bike_id":"55a5c057-4e97-4693-8616-8ebd3dc507dc","system_id":"levelo_inurba_marseille","lat":43.337499,"lon":5.374469,"is_reserved":false,"is_disabled":true,"rental_uris":{"android":"levelo://app?vid=55a5c057-4e97-4693-8616-8ebd3dc507dc","ios":"levelo://app?vid=55a5c057-4e97-4693-8616-8ebd3dc507dc"},"vehicle_type_id":"4","last_reported":1748934678,"current_range_meters":0,"station_id":"","pricing_plan_id":"cebpf4jnsgd1na2vs0mg"},{"bike_id":"674dfa73-164c-481d-bb22-455ab91f7a49","system_id":"levelo_inurba_marseille","lat":43.27559,"lon":5.58935,"is_reserved":false,"is_disabled":true,"rental_uris":{"android":"levelo://app?vid=674dfa73-164c-481d-bb22-455ab91f7a49","ios":"levelo://app?vid=674dfa73-164c-481d-bb22-455ab91f7a49"},"vehicle_type_id":"4","last_reported":1748934678,"current_range_meters":0,"station_id":"","pricing_plan_id":"cebpf4jnsgd1na2vs0mg"},{"bike_id":"aedab83c-b9e3-4c27-91f4-79f4c3b37920","system_id":"levelo_inurba_marseille","lat":43.337444,"lon":5.374475,"is_reserved":false,"is_disabled":true,"rental_uris":{"android":"levelo://app?vid=aedab83c-b9e3-4c27-91f4-79f4c3b37920","ios":"levelo://app?vid=aedab83c-b9e3-4c27-91f4-79f4c3b37920"},"vehicle_type_id":"4","last_reported":1748934678,"current_range_meters":0,"station_id":"","pricing_plan_id":"cebpf4jnsgd1na2vs0mg"},{"bike_id":"3621181b-9f99-47e1-be6f-05febdb33295","system_id":"levelo_inurba_marseille","lat":43.28237,"lon":5.38737,"is_reserved":false,"is_disabled":true,"rental_uris":{"android":"levelo://app?vid=3621181b-9f99-47e1-be6f-05febdb33295","ios":"levelo://app?vid=3621181b-9f99-47e1-be6f-05febdb33295"},"vehicle_type_id":"4","last_reported":1748934678,"current_range_meters":0,"station_id":"","pricing_plan_id":"cebpf4jnsgd1na2vs0mg"},{"bike_id":"9b38eb6b-a40b-41a9-8730-a272e219e304","system_id":"levelo_inurba_marseille","lat":43.29792,"lon":5.38093,"is_reserved":false,"is_disabled":true,"rental_uris":{"android":"levelo://app?vid=9b38eb6b-a40b-41a9-8730-a272e219e304","ios":"levelo://app?vid=9b38eb6b-a40b-41a9-8730-a272e219e304"},"vehicle_type_id":"4","last_reported":1748934678,"current_range_meters":0,"station_id":"ce4bgip2rcd13ifvqbb0","pricing_plan_id":"cebpf4jnsgd1na2vs0mg"},{"bike_id":"109103b3-9654-4fa8-a430-82de526bd954","system_id":"levelo_inurba_marseille","lat":43.29635,"lon":5.40596,"is_reserved":false,"is_disabled":false,"rental_uris":{"android":"levelo://app?vid=109103b3-9654-4fa8-a430-82de526bd954","ios":"levelo://app?vid=109103b3-9654-4fa8-a430-82de526bd954"},"vehicle_type_id":"4","last_reported":1748934678,"current_range_meters":0,"station_id":"ce4bh0h2rcd13ifvqd60","pricing_plan_id":"cebpf4jnsgd1na2vs0mg"},{"bike_id":"7be07451-72e2-4d04-9505-64998bbff158","system_id":"levelo_inurba_marseille","lat":43.283522,"lon":5.380984,"is_reserved":false,"is_disabled":true,"rental_uris":{"android":"levelo://app?vid=7be07451-72e2-4d04-9505-64998bbff158","ios":"levelo://app?vid=7be07451-72e2-4d04-9505-64998bbff158"},"vehicle_type_id":"4","last_reported":1748934678,"current_range_meters":0,"station_id":"ce4bh412rcd13ifvqdr0","pricing_plan_id":"cebpf4jnsgd1na2vs0mg"},{"bike_id":"dd543323-bf27-450e-b456-5dd429c0f09a","system_id":"levelo_inurba_marseille","lat":43.27206,"lon":5.39186,"is_reserved":false,"is_disabled":true,"rental_uris":{"android":"levelo://app?vid=dd543323-bf27-450e-b456-5dd429c0f09a","ios":"levelo://app?vid=dd543323-bf27-450e-b456-5dd429c0f09a"},"vehicle_type_id":"4","last_reported":1748934678,"current_range_meters":0,"station_id":"ce4bhhp2rcd13ifvqfm0","pricing_plan_id":"cebpf4jnsgd1na2vs0mg"},{"bike_id":"1c150564-6888-48e5-bfff-97526896182b","system_id":"levelo_inurba_marseille","lat":43.2955,"lon":5.42298,"is_reserved":false,"is_disabled":true,"rental_uris":{"android":"levelo://app?vid=1c150564-6888-48e5-bfff-97526896182b","ios":"levelo://app?vid=1c150564-6888-48e5-bfff-97526896182b"},"vehicle_type_id":"4","last_reported":1748934678,"current_range_meters":0,"station_id":"ce4bhph2rcd13ifvqhdg","pricing_plan_id":"cebpf4jnsgd1na2vs0mg"},{"bike_id":"f79b7d6d-3cd8-47c9-b55d-24ce52c214b3","system_id":"levelo_inurba_marseille","lat":43.29035,"lon":5.39969,"is_reserved":false,"is_disabled":true,"rental_uris":{"android":"levelo://app?vid=f79b7d6d-3cd8-47c9-b55d-24ce52c214b3","ios":"levelo://app?vid=f79b7d6d-3cd8-47c9-b55d-24ce52c214b3"},"vehicle_type_id":"4","last_reported":1748934678,"current_range_meters":400,"station_id":"ce4bh392rcd13ifvqdm0","pricing_plan_id":"cebpf4jnsgd1na2vs0mg"},{"bike_id":"612af5af-f3f5-44a3-b12e-64e2fddae1bd","system_id":"levelo_inurba_marseille","lat":43.26567,"lon":5.39012,"is_reserved":false,"is_disabled":true,"rental_uris":{"android":"levelo://app?vid=612af5af-f3f5-44a3-b12e-64e2fddae1bd","ios":"levelo://app?vid=612af5af-f3f5-44a3-b12e-64e2fddae1bd"},"vehicle_type_id":"4","last_reported":1748934678,"current_range_meters":400,"station_id":"ce4bhe12rcd13ifvqf30","pricing_plan_id":"cebpf4jnsgd1na2vs0mg"},{"bike_id":"927624eb-dea2-4105-b608-5f0056b0844c","system_id":"levelo_inurba_marseille","lat":43.2815,"lon":5.426493,"is_reserved":false,"is_disabled":true,"rental_uris":{"android":"levelo://app?vid=927624eb-dea2-4105-b608-5f0056b0844c","ios":"levelo://app?vid=927624eb-dea2-4105-b608-5f0056b0844c"},"vehicle_type_id":"4","last_reported":1748934678,"current_range_meters":400,"station_id":"ce4bhnh2rcd13ifvqgug","pricing_plan_id":"cebpf4jnsgd1na2vs0mg"},{"bike_id":"c4124a3c-1f46-4a64-aa09-bc62ef2e15bd","system_id":"levelo_inurba_marseille","lat":43.231999,"lon":5.355493,"is_reserved":false,"is_disabled":true,"rental_uris":{"android":"levelo://app?vid=c4124a3c-1f46-4a64-aa09-bc62ef2e15bd","ios":"levelo://app?vid=c4124a3c-1f46-4a64-aa09-bc62ef2e15bd"},"vehicle_type_id":"4","last_reported":1748934678,"current_range_meters":400,"station_id":"ce4bhu92rcd13ifvqi70","pricing_plan_id":"cebpf4jnsgd1na2vs0mg"},{"bike_id":"478459bf-db7a-4618-9ee0-d42c6f53345b","system_id":"levelo_inurba_marseille","lat":43.30127,"lon":5.39867,"is_reserved":false,"is_disabled":false,"rental_uris":{"android":"levelo://app?vid=478459bf-db7a-4618-9ee0-d42c6f53345b","ios":"levelo://app?vid=478459bf-db7a-4618-9ee0-d42c6f53345b"},"vehicle_type_id":"4","last_reported":1748934678,"current_range_meters":800,"station_id":"ce4bh0h2rcd13ifvqd40","pricing_plan_id":"cebpf4jnsgd1na2vs0mg"},{"bike_id":"d8bc9440-8e34-43c6-9111-b440ae186694","system_id":"levelo_inurba_marseille","lat":43.2963,"lon":5.40602,"is_reserved":false,"is_disabled":false,"rental_uris":{"android":"levelo://app?vid=d8bc9440-8e34-43c6-9111-b440ae186694","ios":"levelo://app?vid=d8bc9440-8e34-43c6-9111-b440ae186694"},"vehicle_type_id":"4","last_reported":1748934678,"current_range_meters":800,"station_id":"ce4bh0h2rcd13ifvqd60","pricing_plan_id":"cebpf4jnsgd1na2vs0mg"},{"bike_id":"c7f145d8-9d1a-4e32-8545-a441812c8e51","system_id":"levelo_inurba_marseille","lat":43.29293,"lon":5.37455,"is_reserved":false,"is_disabled":true,"rental_uris":{"android":"levelo://app?vid=c7f145d8-9d1a-4e32-8545-a441812c8e51","ios":"levelo://app?vid=c7f145d8-9d1a-4e32-8545-a441812c8e51"},"vehicle_type_id":"4","last_reported":1748934678,"current_range_meters":1200,"station_id":"ce4bgi12rcd13ifvqb70","pricing_plan_id":"cebpf4jnsgd1na2vs0mg"},{"bike_id":"dd2e8976-0cd9-40b9-ae36-c2c47678d553","system_id":"levelo_inurba_marseille","lat":43.30479,"lon":5.37911,"is_reserved":false,"is_disabled":true,"rental_uris":{"android":"levelo://app?vid=dd2e8976-0cd9-40b9-ae36-c2c47678d553","ios":"levelo://app?vid=dd2e8976-0cd9-40b9-ae36-c2c47678d553"},"vehicle_type_id":"4","last_reported":1748934678,"current_range_meters":1200,"station_id":"ce4bgup2rcd13ifvqcn0","pricing_plan_id":"cebpf4jnsgd1na2vs0mg"},{"bike_id":"cb3ca2dc-1203-4252-8ccd-ed906353c24c","system_id":"levelo_inurba_marseille","lat":43.28347,"lon":5.38108,"is_reserved":false,"is_disabled":true,"rental_uris":{"android":"levelo://app?vid=cb3ca2dc-1203-4252-8ccd-ed906353c24c","ios":"levelo://app?vid=cb3ca2dc-1203-4252-8ccd-ed906353c24c"},"vehicle_type_id":"4","last_reported":1748934678,"current_range_meters":1200,"station_id":"ce4bh412rcd13ifvqdr0","pricing_plan_id":"cebpf4jnsgd1na2vs0mg"},{"bike_id":"d0c0021c-11e7-4427-8c1b-073f196def1c","system_id":"levelo_inurba_marseille","lat":43.23149,"lon":5.43718,"is_reserved":false,"is_disabled":true,"rental_uris":{"android":"levelo://app?vid=d0c0021c-11e7-4427-8c1b-073f196def1c","ios":"levelo://app?vid=d0c0021c-11e7-4427-8c1b-073f196def1c"},"vehicle_type_id":"4","last_reported":1748934678,"current_range_meters":1200,"station_id":"ce4bhmp2rcd13ifvqgog","pricing_plan_id":"cebpf4jnsgd1na2vs0mg"},{"bike_id":"f83fb654-1d88-4708-a49f-9185650bfc20","system_id":"levelo_inurba_marseille","lat":43.34159,"lon":5.40897,"is_reserved":false,"is_disabled":true,"rental_uris":{"android":"levelo://app?vid=f83fb654-1d88-4708-a49f-9185650bfc20","ios":"levelo://app?vid=f83fb654-1d88-4708-a49f-9185650bfc20"},"vehicle_type_id":"4","last_reported":1748934678,"current_range_meters":1200,"station_id":"ce4bhqh2rcd13ifvqhlg","pricing_plan_id":"cebpf4jnsgd1na2vs0mg"},{"bike_id":"8e59657d-ead7-4d2f-a60a-596a06c70451","system_id":"levelo_inurba_marseille","lat":43.31224,"lon":5.36859,"is_reserved":false,"is_disabled":true,"rental_uris":{"android":"levelo://app?vid=8e59657d-ead7-4d2f-a60a-596a06c70451","ios":"levelo://app?vid=8e59657d-ead7-4d2f-a60a-596a06c70451"},"vehicle_type_id":"4","last_reported":1748934678,"current_range_meters":1600,"station_id":"ce4bgl92rcd13ifvqbq0","pricing_plan_id":"cebpf4jnsgd1na2vs0mg"},{"bike_id":"72e96ec4-1186-4c7f-9f59-a23e728a8413","system_id":"levelo_inurba_marseille","lat":43.290159,"lon":5.381259,"is_reserved":false,"is_disabled":false,"rental_uris":{"android":"levelo://app?vid=72e96ec4-1186-4c7f-9f59-a23e728a8413","ios":"levelo://app?vid=72e96ec4-1186-4c7f-9f59-a23e728a8413"},"vehicle_type_id":"4","last_reported":1748934678,"current_range_meters":2000,"station_id":"ce4bh4p2rcd13ifvqe1g","pricing_plan_id":"cebpf4jnsgd1na2vs0mg"},{"bike_id":"8cbffef0-809e-4c16-9fc0-265ce1f6465b","system_id":"levelo_inurba_marseille","lat":43.29259,"lon":5.38447,"is_reserved":false,"is_disabled":false,"rental_uris":{"android":"levelo://app?vid=8cbffef0-809e-4c16-9fc0-265ce1f6465b","ios":"levelo://app?vid=8cbffef0-809e-4c16-9fc0-265ce1f6465b"},"vehicle_type_id":"4","last_reported":1748934678,"current_range_meters":2000,"station_id":"ce4bh692rcd13ifvqea0","pricing_plan_id":"cebpf4jnsgd1na2vs0mg"},{"bike_id":"13686505-04b3-455f-a555-721104fd3eea","system_id":"levelo_inurba_marseille","lat":43.27515,"lon":5.4244,"is_reserved":false,"is_disabled":true,"rental_uris":{"android":"levelo://app?vid=13686505-04b3-455f-a555-721104fd3eea","ios":"levelo://app?vid=13686505-04b3-455f-a555-721104fd3eea"},"vehicle_type_id":"4","last_reported":1748934678,"current_range_meters":2000,"station_id":"ce4bhn92rcd13ifvqgrg","pricing_plan_id":"cebpf4jnsgd1na2vs0mg"},{"bike_id":"aadb95fc-d156-41e0-9614-75d762b11d28","system_id":"levelo_inurba_marseille","lat":43.319647,"lon":5.44032,"is_reserved":false,"is_disabled":false,"rental_uris":{"android":"levelo://app?vid=aadb95fc-d156-41e0-9614-75d762b11d28","ios":"levelo://app?vid=aadb95fc-d156-41e0-9614-75d762b11d28"},"vehicle_type_id":"4","last_reported":1748934678,"current_range_meters":2800,"station_id":"","pricing_plan_id":"cebpf4jnsgd1na2vs0mg"},{"bike_id":"18fee8f5-9c14-47cf-8b6f-3eb07b18646a","system_id":"levelo_inurba_marseille","lat":43.31375,"lon":5.3674,"is_reserved":false,"is_disabled":false,"rental_uris":{"android":"levelo://app?vid=18fee8f5-9c14-47cf-8b6f-3eb07b18646a","ios":"levelo://app?vid=18fee8f5-9c14-47cf-8b6f-3eb07b18646a"},"vehicle_type_id":"4","last_reported":1748934678,"current_range_meters":2800,"station_id":"ce4bgr92rcd13ifvqc6g","pricing_plan_id":"cebpf4jnsgd1na2vs0mg"},{"bike_id":"66e507d8-8405-4ed8-95e4-528313ee2703","system_id":"levelo_inurba_marseille","lat":43.30955,"lon":5.39038,"is_reserved":false,"is_disabled":false,"rental_uris":{"android":"levelo://app?vid=66e507d8-8405-4ed8-95e4-528313ee2703","ios":"levelo://app?vid=66e507d8-8405-4ed8-95e4-528313ee2703"},"vehicle_type_id":"4","last_reported":1748934678,"current_range_meters":3200,"station_id":"ce4bgup2rcd13ifvqco0","pricing_plan_id":"cebpf4jnsgd1na2vs0mg"},{"bike_id":"37674334-b57b-4043-9f96-4e0106b203f3","system_id":"levelo_inurba_marseille","lat":43.23962,"lon":5.36636,"is_reserved":false,"is_disabled":false,"rental_uris":{"android":"levelo://app?vid=37674334-b57b-4043-9f96-4e0106b203f3","ios":"levelo://app?vid=37674334-b57b-4043-9f96-4e0106b203f3"},"vehicle_type_id":"4","last_reported":1748934678,"current_range_meters":3600,"station_id":"ce4bhi12rcd13ifvqfp0","pricing_plan_id":"cebpf4jnsgd1na2vs0mg"},{"bike_id":"fbc78345-d087-4b06-b700-5c41575116a6","system_id":"levelo_inurba_marseille","lat":43.25936,"lon":5.40908,"is_reserved":false,"is_disabled":false,"rental_uris":{"android":"levelo://app?vid=fbc78345-d087-4b06-b700-5c41575116a6","ios":"levelo://app?vid=fbc78345-d087-4b06-b700-5c41575116a6"},"vehicle_type_id":"4","last_reported":1748934678,"current_range_meters":3600,"station_id":"ce4bhm92rcd13ifvqglg","pricing_plan_id":"cebpf4jnsgd1na2vs0mg"},{"bike_id":"a91a8acb-13a0-4f2f-b6e8-ba84a2457103","system_id":"levelo_inurba_marseille","lat":43.309515,"lon":5.390308,"is_reserved":false,"is_disabled":false,"rental_uris":{"android":"levelo://app?vid=a91a8acb-13a0-4f2f-b6e8-ba84a2457103","ios":"levelo://app?vid=a91a8acb-13a0-4f2f-b6e8-ba84a2457103"},"vehicle_type_id":"4","last_reported":1748934678,"current_range_meters":4000,"station_id":"ce4bgup2rcd13ifvqco0","pricing_plan_id":"cebpf4jnsgd1na2vs0mg"},{"bike_id":"73a4770d-0c02-48d5-a0f7-4d250b83527c","system_id":"levelo_inurba_marseille","lat":43.324747,"lon":5.424768,"is_reserved":false,"is_disabled":false,"rental_uris":{"android":"levelo://app?vid=73a4770d-0c02-48d5-a0f7-4d250b83527c","ios":"levelo://app?vid=73a4770d-0c02-48d5-a0f7-4d250b83527c"},"vehicle_type_id":"4","last_reported":1748934678,"current_range_meters":4800,"station_id":"","pricing_plan_id":"cebpf4jnsgd1na2vs0mg"},{"bike_id":"8a493212-5137-4323-92e4-9a720591e29b","system_id":"levelo_inurba_marseille","lat":43.30185,"lon":5.36629,"is_reserved":false,"is_disabled":false,"rental_uris":{"android":"levelo://app?vid=8a493212-5137-4323-92e4-9a720591e29b","ios":"levelo://app?vid=8a493212-5137-4323-92e4-9a720591e29b"},"vehicle_type_id":"4","last_reported":1748934678,"current_range_meters":4800,"station_id":"ce4bgrh2rcd13ifvqc8g","pricing_plan_id":"cebpf4jnsgd1na2vs0mg"},{"bike_id":"ae897091-b0ea-4f07-8124-a09c7cea5cb6","system_id":"levelo_inurba_marseille","lat":43.30938,"lon":5.39052,"is_reserved":false,"is_disabled":false,"rental_uris":{"android":"levelo://app?vid=ae897091-b0ea-4f07-8124-a09c7cea5cb6","ios":"levelo://app?vid=ae897091-b0ea-4f07-8124-a09c7cea5cb6"},"vehicle_type_id":"4","last_reported":1748934678,"current_range_meters":4800,"station_id":"ce4bgup2rcd13ifvqco0","pricing_plan_id":"cebpf4jnsgd1na2vs0mg"},{"bike_id":"5dead81c-52cf-467b-885d-461d40fb80a5","system_id":"levelo_inurba_marseille","lat":43.251016,"lon":5.409698,"is_reserved":false,"is_disabled":false,"rental_uris":{"android":"levelo://app?vid=5dead81c-52cf-467b-885d-461d40fb80a5","ios":"levelo://app?vid=5dead81c-52cf-467b-885d-461d40fb80a5"},"vehicle_type_id":"4","last_reported":1748934678,"current_range_meters":6000,"station_id":"","pricing_plan_id":"cebpf4jnsgd1na2vs0mg"},{"bike_id":"60d1f441-532c-4c5f-8fa3-8f5cd0976811","system_id":"levelo_inurba_marseille","lat":43.24179,"lon":5.39734,"is_reserved":false,"is_disabled":false,"rental_uris":{"android":"levelo://app?vid=60d1f441-532c-4c5f-8fa3-8f5cd0976811","ios":"levelo://app?vid=60d1f441-532c-4c5f-8fa3-8f5cd0976811"},"vehicle_type_id":"4","last_reported":1748934678,"current_range_meters":6000,"station_id":"ce4bhn12rcd13ifvqgpg","pricing_plan_id":"cebpf4jnsgd1na2vs0mg"},{"bike_id":"d72d5a5e-a033-4555-a5b7-2e9b101d2f01","system_id":"levelo_inurba_marseille","lat":43.24352,"lon":5.41162,"is_reserved":false,"is_disabled":false,"rental_uris":{"android":"levelo://app?vid=d72d5a5e-a033-4555-a5b7-2e9b101d2f01","ios":"levelo://app?vid=d72d5a5e-a033-4555-a5b7-2e9b101d2f01"},"vehicle_type_id":"4","last_reported":1748934678,"current_range_meters":6400,"station_id":"","pricing_plan_id":"cebpf4jnsgd1na2vs0mg"},{"bike_id":"0103e04c-2c1e-4fb3-8001-754a79318706","system_id":"levelo_inurba_marseille","lat":43.29531,"lon":5.37511,"is_reserved":false,"is_disabled":false,"rental_uris":{"android":"levelo://app?vid=0103e04c-2c1e-4fb3-8001-754a79318706","ios":"levelo://app?vid=0103e04c-2c1e-4fb3-8001-754a79318706"},"vehicle_type_id":"4","last_reported":1748934678,"current_range_meters":6400,"station_id":"ce4bgkp2rcd13ifvqbmg","pricing_plan_id":"cebpf4jnsgd1na2vs0mg"},{"bike_id":"95d6905e-9d99-4407-8c60-3bbff01062aa","system_id":"levelo_inurba_marseille","lat":43.27578,"lon":5.43384,"is_reserved":false,"is_disabled":false,"rental_uris":{"android":"levelo://app?vid=95d6905e-9d99-4407-8c60-3bbff01062aa","ios":"levelo://app?vid=95d6905e-9d99-4407-8c60-3bbff01062aa"},"vehicle_type_id":"4","last_reported":1748934678,"current_range_meters":6800,"station_id":"","pricing_plan_id":"cebpf4jnsgd1na2vs0mg"},{"bike_id":"0f7655e9-45ec-4205-8b29-d9694699193c","system_id":"levelo_inurba_marseille","lat":43.30202,"lon":5.39474,"is_reserved":false,"is_disabled":false,"rental_uris":{"android":"levelo://app?vid=0f7655e9-45ec-4205-8b29-d9694699193c","ios":"levelo://app?vid=0f7655e9-45ec-4205-8b29-d9694699193c"},"vehicle_type_id":"4","last_reported":1748934678,"current_range_meters":6800,"station_id":"ce4bh0p2rcd13ifvqd70","pricing_plan_id":"cebpf4jnsgd1na2vs0mg"},{"bike_id":"8fa2e07c-a362-494d-b1aa-2fdbeebe2926","system_id":"levelo_inurba_marseille","lat":43.28568,"lon":5.39501,"is_reserved":false,"is_disabled":false,"rental_uris":{"android":"levelo://app?vid=8fa2e07c-a362-494d-b1aa-2fdbeebe2926","ios":"levelo://app?vid=8fa2e07c-a362-494d-b1aa-2fdbeebe2926"},"vehicle_type_id":"4","last_reported":1748934678,"current_range_meters":6800,"station_id":"ce4bh292rcd13ifvqdg0","pricing_plan_id":"cebpf4jnsgd1na2vs0mg"},{"bike_id":"9b93d106-1dbe-47a6-a076-d123b3a3fb85","system_id":"levelo_inurba_marseille","lat":43.29046,"lon":5.3996,"is_reserved":false,"is_disabled":false,"rental_uris":{"android":"levelo://app?vid=9b93d106-1dbe-47a6-a076-d123b3a3fb85","ios":"levelo://app?vid=9b93d106-1dbe-47a6-a076-d123b3a3fb85"},"vehicle_type_id":"4","last_reported":1748934678,"current_range_meters":6800,"station_id":"ce4bh392rcd13ifvqdm0","pricing_plan_id":"cebpf4jnsgd1na2vs0mg"},{"bike_id":"f9371435-772c-4000-8006-9e2f42a924c3","system_id":"levelo_inurba_marseille","lat":43.26556,"lon":5.37285,"is_reserved":false,"is_disabled":false,"rental_uris":{"android":"levelo://app?vid=f9371435-772c-4000-8006-9e2f42a924c3","ios":"levelo://app?vid=f9371435-772c-4000-8006-9e2f42a924c3"},"vehicle_type_id":"4","last_reported":1748934678,"current_range_meters":6800,"station_id":"ce4bhg12rcd13ifvqf70","pricing_plan_id":"cebpf4jnsgd1na2vs0mg"},{"bike_id":"735836de-de9b-4dc8-9e27-f67a4e7a400b","system_id":"levelo_inurba_marseille","lat":43.33765,"lon":5.37433,"is_reserved":false,"is_disabled":false,"rental_uris":{"android":"levelo://app?vid=735836de-de9b-4dc8-9e27-f67a4e7a400b","ios":"levelo://app?vid=735836de-de9b-4dc8-9e27-f67a4e7a400b"},"vehicle_type_id":"4","last_reported":1748934678,"current_range_meters":7200,"station_id":"","pricing_plan_id":"cebpf4jnsgd1na2vs0mg"},{"bike_id":"037d8886-21b5-47fb-9dc0-a52111f5f981","system_id":"levelo_inurba_marseille","lat":43.28534,"lon":5.39864,"is_reserved":false,"is_disabled":false,"rental_uris":{"android":"levelo://app?vid=037d8886-21b5-47fb-9dc0-a52111f5f981","ios":"levelo://app?vid=037d8886-21b5-47fb-9dc0-a52111f5f981"},"vehicle_type_id":"4","last_reported":1748934678,"current_range_meters":7200,"station_id":"","pricing_plan_id":"cebpf4jnsgd1na2vs0mg"},{"bike_id":"d3f423ab-1bb1-4815-b53c-12de902293af","system_id":"levelo_inurba_marseille","lat":43.29215,"lon":5.39982,"is_reserved":false,"is_disabled":false,"rental_uris":{"android":"levelo://app?vid=d3f423ab-1bb1-4815-b53c-12de902293af","ios":"levelo://app?vid=d3f423ab-1bb1-4815-b53c-12de902293af"},"vehicle_type_id":"4","last_reported":1748934678,"current_range_meters":7200,"station_id":"","pricing_plan_id":"cebpf4jnsgd1na2vs0mg"},{"bike_id":"cfb4b455-d1cd-43d0-a6bd-48b2bcbc4252","system_id":"levelo_inurba_marseille","lat":43.29912,"lon":5.3752,"is_reserved":false,"is_disabled":false,"rental_uris":{"android":"levelo://app?vid=cfb4b455-d1cd-43d0-a6bd-48b2bcbc4252","ios":"levelo://app?vid=cfb4b455-d1cd-43d0-a6bd-48b2bcbc4252"},"vehicle_type_id":"4","last_reported":1748934678,"current_range_meters":7200,"station_id":"ce4bgjh2rcd13ifvqbg0","pricing_plan_id":"cebpf4jnsgd1na2vs0mg"},{"bike_id":"38543341-3e5a-4077-a7a9-20fe522fe2e9","system_id":"levelo_inurba_marseille","lat":43.3046,"lon":5.37905,"is_reserved":false,"is_disabled":false,"rental_uris":{"android":"levelo://app?vid=38543341-3e5a-4077-a7a9-20fe522fe2e9","ios":"levelo://app?vid=38543341-3e5a-4077-a7a9-20fe522fe2e9"},"vehicle_type_id":"4","last_reported":1748934678,"current_range_meters":7200,"station_id":"ce4bgup2rcd13ifvqcn0","pricing_plan_id":"cebpf4jnsgd1na2vs0mg"},{"bike_id":"fa19c054-32e8-4c0c-952a-1275684f3d25","system_id":"levelo_inurba_marseille","lat":43.24998,"lon":5.38932,"is_reserved":false,"is_disabled":false,"rental_uris":{"android":"levelo://app?vid=fa19c054-32e8-4c0c-952a-1275684f3d25","ios":"levelo://app?vid=fa19c054-32e8-4c0c-952a-1275684f3d25"},"vehicle_type_id":"4","last_reported":1748934678,"current_range_meters":7200,"station_id":"ce4bhgp2rcd13ifvqfd0","pricing_plan_id":"cebpf4jnsgd1na2vs0mg"},{"bike_id":"d5156bfd-cf45-4693-8714-ae5bd1025387","system_id":"levelo_inurba_marseille","lat":43.24177,"lon":5.39729,"is_reserved":false,"is_disabled":false,"rental_uris":{"android":"levelo://app?vid=d5156bfd-cf45-4693-8714-ae5bd1025387","ios":"levelo://app?vid=d5156bfd-cf45-4693-8714-ae5bd1025387"},"vehicle_type_id":"4","last_reported":1748934678,"current_range_meters":7200,"station_id":"ce4bhn12rcd13ifvqgpg","pricing_plan_id":"cebpf4jnsgd1na2vs0mg"},{"bike_id":"24b5a71f-fabf-4fa6-9fec-f2c7385ad3aa","system_id":"levelo_inurba_marseille","lat":43.330287,"lon":5.3904,"is_reserved":false,"is_disabled":false,"rental_uris":{"android":"levelo://app?vid=24b5a71f-fabf-4fa6-9fec-f2c7385ad3aa","ios":"levelo://app?vid=24b5a71f-fabf-4fa6-9fec-f2c7385ad3aa"},"vehicle_type_id":"4","last_reported":1748934678,"current_range_meters":8000,"station_id":"ce4bhr92rcd13ifvqhrg","pricing_plan_id":"cebpf4jnsgd1na2vs0mg"},{"bike_id":"4546e7a1-ccde-4d11-9def-a24ce13a0011","system_id":"levelo_inurba_marseille","lat":43.268,"lon":5.4027,"is_reserved":false,"is_disabled":false,"rental_uris":{"android":"levelo://app?vid=4546e7a1-ccde-4d11-9def-a24ce13a0011","ios":"levelo://app?vid=4546e7a1-ccde-4d11-9def-a24ce13a0011"},"vehicle_type_id":"4","last_reported":1748934678,"current_range_meters":8000,"station_id":"ce501612rcd8frsf0b60","pricing_plan_id":"cebpf4jnsgd1na2vs0mg"},{"bike_id":"0bde96b7-fe12-4c22-bf46-c75e41eb4dce","system_id":"levelo_inurba_marseille","lat":43.296097,"lon":5.37722,"is_reserved":false,"is_disabled":false,"rental_uris":{"android":"levelo://app?vid=0bde96b7-fe12-4c22-bf46-c75e41eb4dce","ios":"levelo://app?vid=0bde96b7-fe12-4c22-bf46-c75e41eb4dce"},"vehicle_type_id":"4","last_reported":1748934678,"current_range_meters":8400,"station_id":"ce4bgi92rcd13ifvqb90","pricing_plan_id":"cebpf4jnsgd1na2vs0mg"},{"bike_id":"a8db5997-e197-4694-85cc-147a90d4226f","system_id":"levelo_inurba_marseille","lat":43.27609,"lon":5.36109,"is_reserved":false,"is_disabled":false,"rental_uris":{"android":"levelo://app?vid=a8db5997-e197-4694-85cc-147a90d4226f","ios":"levelo://app?vid=a8db5997-e197-4694-85cc-147a90d4226f"},"vehicle_type_id":"4","last_reported":1748934678,"current_range_meters":8400,"station_id":"ce4bgj92rcd13ifvqbe0","pricing_plan_id":"cebpf4jnsgd1na2vs0mg"},{"bike_id":"23ef3f92-43e0-4a64-a382-222cc788fb10","system_id":"levelo_inurba_marseille","lat":43.31356,"lon":5.36736,"is_reserved":false,"is_disabled":false,"rental_uris":{"android":"levelo://app?vid=23ef3f92-43e0-4a64-a382-222cc788fb10","ios":"levelo://app?vid=23ef3f92-43e0-4a64-a382-222cc788fb10"},"vehicle_type_id":"4","last_reported":1748934678,"current_range_meters":8400,"station_id":"ce4bgr92rcd13ifvqc6g","pricing_plan_id":"cebpf4jnsgd1na2vs0mg"},{"bike_id":"b30164a7-dd39-415c-b59e-b4102a9fbfef","system_id":"levelo_inurba_marseille","lat":43.304697,"lon":5.379081,"is_reserved":false,"is_disabled":false,"rental_uris":{"android":"levelo://app?vid=b30164a7-dd39-415c-b59e-b4102a9fbfef","ios":"levelo://app?vid=b30164a7-dd39-415c-b59e-b4102a9fbfef"},"vehicle_type_id":"4","last_reported":1748934678,"current_range_meters":8400,"station_id":"ce4bgup2rcd13ifvqcn0","pricing_plan_id":"cebpf4jnsgd1na2vs0mg"},{"bike_id":"f1c8c7e1-3f34-4d38-a503-caa580ebde75","system_id":"levelo_inurba_marseille","lat":43.22498,"lon":5.34786,"is_reserved":false,"is_disabled":false,"rental_uris":{"android":"levelo://app?vid=f1c8c7e1-3f34-4d38-a503-caa580ebde75","ios":"levelo://app?vid=f1c8c7e1-3f34-4d38-a503-caa580ebde75"},"vehicle_type_id":"4","last_reported":1748934678,"current_range_meters":8400,"station_id":"st_cvj5dfep6f1abm77gieg","pricing_plan_id":"cebpf4jnsgd1na2vs0mg"},{"bike_id":"acdfb4ec-72f4-4860-9958-ed448301f50b","system_id":"levelo_inurba_marseille","lat":43.30077,"lon":5.37939,"is_reserved":false,"is_disabled":false,"rental_uris":{"android":"levelo://app?vid=acdfb4ec-72f4-4860-9958-ed448301f50b","ios":"levelo://app?vid=acdfb4ec-72f4-4860-9958-ed448301f50b"},"vehicle_type_id":"4","last_reported":1748934678,"current_range_meters":8800,"station_id":"","pricing_plan_id":"cebpf4jnsgd1na2vs0mg"},{"bike_id":"e4933e59-e8b4-428e-a4cc-69a2616a58a4","system_id":"levelo_inurba_marseille","lat":43.30952,"lon":5.3905,"is_reserved":false,"is_disabled":false,"rental_uris":{"android":"levelo://app?vid=e4933e59-e8b4-428e-a4cc-69a2616a58a4","ios":"levelo://app?vid=e4933e59-e8b4-428e-a4cc-69a2616a58a4"},"vehicle_type_id":"4","last_reported":1748934678,"current_range_meters":8800,"station_id":"ce4bgup2rcd13ifvqco0","pricing_plan_id":"cebpf4jnsgd1na2vs0mg"},{"bike_id":"f9ba8850-482d-43cd-93c6-da015477c7af","system_id":"levelo_inurba_marseille","lat":43.28629,"lon":5.38379,"is_reserved":false,"is_disabled":false,"rental_uris":{"android":"levelo://app?vid=f9ba8850-482d-43cd-93c6-da015477c7af","ios":"levelo://app?vid=f9ba8850-482d-43cd-93c6-da015477c7af"},"vehicle_type_id":"4","last_reported":1748934678,"current_range_meters":9200,"station_id":"","pricing_plan_id":"cebpf4jnsgd1na2vs0mg"},{"bike_id":"a10e8104-3c48-4a2c-b900-095b108aeaad","system_id":"levelo_inurba_marseille","lat":43.30303,"lon":5.36902,"is_reserved":false,"is_disabled":false,"rental_uris":{"android":"levelo://app?vid=a10e8104-3c48-4a2c-b900-095b108aeaad","ios":"levelo://app?vid=a10e8104-3c48-4a2c-b900-095b108aeaad"},"vehicle_type_id":"4","last_reported":1748934678,"current_range_meters":9200,"station_id":"ce4bgqh2rcd13ifvqc5g","pricing_plan_id":"cebpf4jnsgd1na2vs0mg"},{"bike_id":"fc552717-4c84-474c-a09f-8cf49d8d04b0","system_id":"levelo_inurba_marseille","lat":43.290855,"lon":5.399645,"is_reserved":false,"is_disabled":false,"rental_uris":{"android":"levelo://app?vid=fc552717-4c84-474c-a09f-8cf49d8d04b0","ios":"levelo://app?vid=fc552717-4c84-474c-a09f-8cf49d8d04b0"},"vehicle_type_id":"4","last_reported":1748934678,"current_range_meters":9200,"station_id":"ce4bh392rcd13ifvqdm0","pricing_plan_id":"cebpf4jnsgd1na2vs0mg"},{"bike_id":"56fe4555-e8a4-45f4-a5be-f2ae85f2973e","system_id":"levelo_inurba_marseille","lat":43.24999,"lon":5.3894,"is_reserved":false,"is_disabled":false,"rental_uris":{"android":"levelo://app?vid=56fe4555-e8a4-45f4-a5be-f2ae85f2973e","ios":"levelo://app?vid=56fe4555-e8a4-45f4-a5be-f2ae85f2973e"},"vehicle_type_id":"4","last_reported":1748934678,"current_range_meters":9200,"station_id":"ce4bhgp2rcd13ifvqfd0","pricing_plan_id":"cebpf4jnsgd1na2vs0mg"},{"bike_id":"5098cf80-f88b-463b-b6c9-630fa66360a9","system_id":"levelo_inurba_marseille","lat":43.33602,"lon":5.41036,"is_reserved":false,"is_disabled":false,"rental_uris":{"android":"levelo://app?vid=5098cf80-f88b-463b-b6c9-630fa66360a9","ios":"levelo://app?vid=5098cf80-f88b-463b-b6c9-630fa66360a9"},"vehicle_type_id":"4","last_reported":1748934678,"current_range_meters":9200,"station_id":"ce4bhqh2rcd13ifvqhmg","pricing_plan_id":"cebpf4jnsgd1na2vs0mg"},{"bike_id":"2972d438-e544-455a-bf90-031df554fa08","system_id":"levelo_inurba_marseille","lat":43.29578,"lon":5.37521,"is_reserved":false,"is_disabled":false,"rental_uris":{"android":"levelo://app?vid=2972d438-e544-455a-bf90-031df554fa08","ios":"levelo://app?vid=2972d438-e544-455a-bf90-031df554fa08"},"vehicle_type_id":"4","last_reported":1748934678,"current_range_meters":9600,"station_id":"ce4bgh92rcd13ifvqb50","pricing_plan_id":"cebpf4jnsgd1na2vs0mg"},{"bike_id":"11c9797e-8d9d-4774-ad51-5d680e6968ce","system_id":"levelo_inurba_marseille","lat":43.3012,"lon":5.37439,"is_reserved":false,"is_disabled":false,"rental_uris":{"android":"levelo://app?vid=11c9797e-8d9d-4774-ad51-5d680e6968ce","ios":"levelo://app?vid=11c9797e-8d9d-4774-ad51-5d680e6968ce"},"vehicle_type_id":"4","last_reported":1748934678,"current_range_meters":9600,"station_id":"ce4bgs92rcd13ifvqcc0","pricing_plan_id":"cebpf4jnsgd1na2vs0mg"},{"bike_id":"459e1c56-55c7-4cc5-a793-257295872300","system_id":"levelo_inurba_marseille","lat":43.2593,"lon":5.40914,"is_reserved":false,"is_disabled":false,"rental_uris":{"android":"levelo://app?vid=459e1c56-55c7-4cc5-a793-257295872300","ios":"levelo://app?vid=459e1c56-55c7-4cc5-a793-257295872300"},"vehicle_type_id":"4","last_reported":1748934678,"current_range_meters":9600,"station_id":"ce4bhm92rcd13ifvqglg","pricing_plan_id":"cebpf4jnsgd1na2vs0mg"},{"bike_id":"92c1eef7-1863-478d-9b55-bbd35e27ae0a","system_id":"levelo_inurba_marseille","lat":43.25946,"lon":5.40896,"is_reserved":false,"is_disabled":false,"rental_uris":{"android":"levelo://app?vid=92c1eef7-1863-478d-9b55-bbd35e27ae0a","ios":"levelo://app?vid=92c1eef7-1863-478d-9b55-bbd35e27ae0a"},"vehicle_type_id":"4","last_reported":1748934678,"current_range_meters":9600,"station_id":"ce4bhm92rcd13ifvqglg","pricing_plan_id":"cebpf4jnsgd1na2vs0mg"},{"bike_id":"0864ef3e-cdea-4252-a660-5d6f5e0fa53b","system_id":"levelo_inurba_marseille","lat":43.29004,"lon":5.35613,"is_reserved":false,"is_disabled":false,"rental_uris":{"android":"levelo://app?vid=0864ef3e-cdea-4252-a660-5d6f5e0fa53b","ios":"levelo://app?vid=0864ef3e-cdea-4252-a660-5d6f5e0fa53b"},"vehicle_type_id":"4","last_reported":1748934678,"current_range_meters":10000,"station_id":"ce4bhb92rcd13ifvqen0","pricing_plan_id":"cebpf4jnsgd1na2vs0mg"},{"bike_id":"5b0c04c7-3e5d-4981-ba91-7d65704822b2","system_id":"levelo_inurba_marseille","lat":43.279068,"lon":5.379941,"is_reserved":false,"is_disabled":false,"rental_uris":{"android":"levelo://app?vid=5b0c04c7-3e5d-4981-ba91-7d65704822b2","ios":"levelo://app?vid=5b0c04c7-3e5d-4981-ba91-7d65704822b2"},"vehicle_type_id":"4","last_reported":1748934678,"current_range_meters":10000,"station_id":"ce4bhf92rcd13ifvqf50","pricing_plan_id":"cebpf4jnsgd1na2vs0mg"},{"bike_id":"df180836-1bb3-4bfd-8356-ae5337544abf","system_id":"levelo_inurba_marseille","lat":43.26696,"lon":5.38271,"is_reserved":false,"is_disabled":false,"rental_uris":{"android":"levelo://app?vid=df180836-1bb3-4bfd-8356-ae5337544abf","ios":"levelo://app?vid=df180836-1bb3-4bfd-8356-ae5337544abf"},"vehicle_type_id":"4","last_reported":1748934678,"current_range_meters":10000,"station_id":"ce4bhg92rcd13ifvqf90","pricing_plan_id":"cebpf4jnsgd1na2vs0mg"},{"bike_id":"44625bd7-6168-4d67-9b3f-2654667d6152","system_id":"levelo_inurba_marseille","lat":43.2781,"lon":5.40717,"is_reserved":false,"is_disabled":false,"rental_uris":{"android":"levelo://app?vid=44625bd7-6168-4d67-9b3f-2654667d6152","ios":"levelo://app?vid=44625bd7-6168-4d67-9b3f-2654667d6152"},"vehicle_type_id":"4","last_reported":1748934678,"current_range_meters":10000,"station_id":"ce4bhnh2rcd13ifvqgtg","pricing_plan_id":"cebpf4jnsgd1na2vs0mg"},{"bike_id":"b90ea218-593c-4b9a-b061-18d5652decd4","system_id":"levelo_inurba_marseille","lat":43.32103,"lon":5.3677,"is_reserved":false,"is_disabled":false,"rental_uris":{"android":"levelo://app?vid=b90ea218-593c-4b9a-b061-18d5652decd4","ios":"levelo://app?vid=b90ea218-593c-4b9a-b061-18d5652decd4"},"vehicle_type_id":"4","last_reported":1748934678,"current_range_meters":10000,"station_id":"ce4bhrh2rcd13ifvqhug","pricing_plan_id":"cebpf4jnsgd1na2vs0mg"},{"bike_id":"fa62253e-e4db-42d1-9a63-6ab16922bf00","system_id":"levelo_inurba_marseille","lat":43.320154,"lon":5.368221,"is_reserved":false,"is_disabled":false,"rental_uris":{"android":"levelo://app?vid=fa62253e-e4db-42d1-9a63-6ab16922bf00","ios":"levelo://app?vid=fa62253e-e4db-42d1-9a63-6ab16922bf00"},"vehicle_type_id":"4","last_reported":1748934678,"current_range_meters":10800,"station_id":"","pricing_plan_id":"cebpf4jnsgd1na2vs0mg"},{"bike_id":"7fbd6b6d-c6d7-4a80-9062-0562d5ade833","system_id":"levelo_inurba_marseille","lat":43.30909,"lon":5.36852,"is_reserved":false,"is_disabled":false,"rental_uris":{"android":"levelo://app?vid=7fbd6b6d-c6d7-4a80-9062-0562d5ade833","ios":"levelo://app?vid=7fbd6b6d-c6d7-4a80-9062-0562d5ade833"},"vehicle_type_id":"4","last_reported":1748934678,"current_range_meters":10800,"station_id":"ce4bgn92rcd13ifvqbvg","pricing_plan_id":"cebpf4jnsgd1na2vs0mg"},{"bike_id":"e01ecc3e-5d76-492a-941d-ed976999f730","system_id":"levelo_inurba_marseille","lat":43.30466,"lon":5.37917,"is_reserved":false,"is_disabled":false,"rental_uris":{"android":"levelo://app?vid=e01ecc3e-5d76-492a-941d-ed976999f730","ios":"levelo://app?vid=e01ecc3e-5d76-492a-941d-ed976999f730"},"vehicle_type_id":"4","last_reported":1748934678,"current_range_meters":10800,"station_id":"ce4bgup2rcd13ifvqcn0","pricing_plan_id":"cebpf4jnsgd1na2vs0mg"},{"bike_id":"da24d751-219f-4504-9f69-33ec26fe97f9","system_id":"levelo_inurba_marseille","lat":43.30459,"lon":5.37908,"is_reserved":false,"is_disabled":false,"rental_uris":{"android":"levelo://app?vid=da24d751-219f-4504-9f69-33ec26fe97f9","ios":"levelo://app?vid=da24d751-219f-4504-9f69-33ec26fe97f9"},"vehicle_type_id":"4","last_reported":1748934678,"current_range_meters":10800,"station_id":"ce4bgup2rcd13ifvqcn0","pricing_plan_id":"cebpf4jnsgd1na2vs0mg"},{"bike_id":"c203af4c-7870-4792-9e16-7e5c3e30f1a0","system_id":"levelo_inurba_marseille","lat":43.26783,"lon":5.39414,"is_reserved":false,"is_disabled":false,"rental_uris":{"android":"levelo://app?vid=c203af4c-7870-4792-9e16-7e5c3e30f1a0","ios":"levelo://app?vid=c203af4c-7870-4792-9e16-7e5c3e30f1a0"},"vehicle_type_id":"4","last_reported":1748934678,"current_range_meters":10800,"station_id":"ce4bhh12rcd13ifvqfg0","pricing_plan_id":"cebpf4jnsgd1na2vs0mg"},{"bike_id":"be7de152-4c62-4bde-a668-ff01e38bc64e","system_id":"levelo_inurba_marseille","lat":43.275373,"lon":5.384328,"is_reserved":false,"is_disabled":false,"rental_uris":{"android":"levelo://app?vid=be7de152-4c62-4bde-a668-ff01e38bc64e","ios":"levelo://app?vid=be7de152-4c62-4bde-a668-ff01e38bc64e"},"vehicle_type_id":"4","last_reported":1748934678,"current_range_meters":10800,"station_id":"ce4bhh92rcd13ifvqfi0","pricing_plan_id":"cebpf4jnsgd1na2vs0mg"},{"bike_id":"20a80a33-9569-43fc-9eba-7e15555b274c","system_id":"levelo_inurba_marseille","lat":43.2315,"lon":5.43718,"is_reserved":false,"is_disabled":false,"rental_uris":{"android":"levelo://app?vid=20a80a33-9569-43fc-9eba-7e15555b274c","ios":"levelo://app?vid=20a80a33-9569-43fc-9eba-7e15555b274c"},"vehicle_type_id":"4","last_reported":1748934678,"current_range_meters":10800,"station_id":"ce4bhmp2rcd13ifvqgog","pricing_plan_id":"cebpf4jnsgd1na2vs0mg"},{"bike_id":"a33c9ded-afda-47fd-87fa-ac593a798cfa","system_id":"levelo_inurba_marseille","lat":43.268584,"lon":5.389106,"is_reserved":false,"is_disabled":false,"rental_uris":{"android":"levelo://app?vid=a33c9ded-afda-47fd-87fa-ac593a798cfa","ios":"levelo://app?vid=a33c9ded-afda-47fd-87fa-ac593a798cfa"},"vehicle_type_id":"4","last_reported":1748934678,"current_range_meters":11200,"station_id":"","pricing_plan_id":"cebpf4jnsgd1na2vs0mg"},{"bike_id":"537b5f05-04dc-4ba9-acfb-74fc08163321","system_id":"levelo_inurba_marseille","lat":43.2762,"lon":5.36113,"is_reserved":false,"is_disabled":false,"rental_uris":{"android":"levelo://app?vid=537b5f05-04dc-4ba9-acfb-74fc08163321","ios":"levelo://app?vid=537b5f05-04dc-4ba9-acfb-74fc08163321"},"vehicle_type_id":"4","last_reported":1748934678,"current_range_meters":11200,"station_id":"ce4bgj92rcd13ifvqbe0","pricing_plan_id":"cebpf4jnsgd1na2vs0mg"},{"bike_id":"eea9a40c-1a6e-4bbf-9e42-f9bad5bb0ec6","system_id":"levelo_inurba_marseille","lat":43.31352,"lon":5.36724,"is_reserved":false,"is_disabled":false,"rental_uris":{"android":"levelo://app?vid=eea9a40c-1a6e-4bbf-9e42-f9bad5bb0ec6","ios":"levelo://app?vid=eea9a40c-1a6e-4bbf-9e42-f9bad5bb0ec6"},"vehicle_type_id":"4","last_reported":1748934678,"current_range_meters":11200,"station_id":"ce4bgr92rcd13ifvqc6g","pricing_plan_id":"cebpf4jnsgd1na2vs0mg"},{"bike_id":"ed0174b3-8f0b-4c87-ab77-bf67e9a2304a","system_id":"levelo_inurba_marseille","lat":43.30552,"lon":5.36556,"is_reserved":false,"is_disabled":false,"rental_uris":{"android":"levelo://app?vid=ed0174b3-8f0b-4c87-ab77-bf67e9a2304a","ios":"levelo://app?vid=ed0174b3-8f0b-4c87-ab77-bf67e9a2304a"},"vehicle_type_id":"4","last_reported":1748934678,"current_range_meters":11200,"station_id":"ce4bgs12rcd13ifvqcag","pricing_plan_id":"cebpf4jnsgd1na2vs0mg"},{"bike_id":"d51b6ec2-c061-4d1a-ae94-11ec5e4d97c9","system_id":"levelo_inurba_marseille","lat":43.29039,"lon":5.39964,"is_reserved":false,"is_disabled":false,"rental_uris":{"android":"levelo://app?vid=d51b6ec2-c061-4d1a-ae94-11ec5e4d97c9","ios":"levelo://app?vid=d51b6ec2-c061-4d1a-ae94-11ec5e4d97c9"},"vehicle_type_id":"4","last_reported":1748934678,"current_range_meters":11200,"station_id":"ce4bh392rcd13ifvqdm0","pricing_plan_id":"cebpf4jnsgd1na2vs0mg"},{"bike_id":"2e579c58-e42e-4bb4-92e6-dc8f4a3892d3","system_id":"levelo_inurba_marseille","lat":43.26495,"lon":5.39543,"is_reserved":false,"is_disabled":false,"rental_uris":{"android":"levelo://app?vid=2e579c58-e42e-4bb4-92e6-dc8f4a3892d3","ios":"levelo://app?vid=2e579c58-e42e-4bb4-92e6-dc8f4a3892d3"},"vehicle_type_id":"4","last_reported":1748934678,"current_range_meters":11600,"station_id":"ce4bhi12rcd13ifvqfq0","pricing_plan_id":"cebpf4jnsgd1na2vs0mg"},{"bike_id":"d144d0a6-8442-4d6c-b649-3639d789aa9f","system_id":"levelo_inurba_marseille","lat":43.294743,"lon":5.386671,"is_reserved":false,"is_disabled":false,"rental_uris":{"android":"levelo://app?vid=d144d0a6-8442-4d6c-b649-3639d789aa9f","ios":"levelo://app?vid=d144d0a6-8442-4d6c-b649-3639d789aa9f"},"vehicle_type_id":"4","last_reported":1748934678,"current_range_meters":12000,"station_id":"","pricing_plan_id":"cebpf4jnsgd1na2vs0mg"},{"bike_id":"be5996ab-f489-42a2-9f51-be6614f3e93a","system_id":"levelo_inurba_marseille","lat":43.33762,"lon":5.37456,"is_reserved":false,"is_disabled":false,"rental_uris":{"android":"levelo://app?vid=be5996ab-f489-42a2-9f51-be6614f3e93a","ios":"levelo://app?vid=be5996ab-f489-42a2-9f51-be6614f3e93a"},"vehicle_type_id":"4","last_reported":1748934678,"current_range_meters":12000,"station_id":"","pricing_plan_id":"cebpf4jnsgd1na2vs0mg"},{"bike_id":"6c7dc0b6-cea1-43c5-94ac-b10f8cfc40be","system_id":"levelo_inurba_marseille","lat":43.331,"lon":5.38212,"is_reserved":false,"is_disabled":false,"rental_uris":{"android":"levelo://app?vid=6c7dc0b6-cea1-43c5-94ac-b10f8cfc40be","ios":"levelo://app?vid=6c7dc0b6-cea1-43c5-94ac-b10f8cfc40be"},"vehicle_type_id":"4","last_reported":1748934678,"current_range_meters":12000,"station_id":"","pricing_plan_id":"cebpf4jnsgd1na2vs0mg"},{"bike_id":"d0d33708-cc6c-4247-bbde-59e18dc37adb","system_id":"levelo_inurba_marseille","lat":43.2901,"lon":5.38137,"is_reserved":false,"is_disabled":false,"rental_uris":{"android":"levelo://app?vid=d0d33708-cc6c-4247-bbde-59e18dc37adb","ios":"levelo://app?vid=d0d33708-cc6c-4247-bbde-59e18dc37adb"},"vehicle_type_id":"4","last_reported":1748934678,"current_range_meters":12000,"station_id":"ce4bh4p2rcd13ifvqe1g","pricing_plan_id":"cebpf4jnsgd1na2vs0mg"},{"bike_id":"54b2fa6f-e6de-4e09-9db2-279b4286536e","system_id":"levelo_inurba_marseille","lat":43.25866,"lon":5.39894,"is_reserved":false,"is_disabled":false,"rental_uris":{"android":"levelo://app?vid=54b2fa6f-e6de-4e09-9db2-279b4286536e","ios":"levelo://app?vid=54b2fa6f-e6de-4e09-9db2-279b4286536e"},"vehicle_type_id":"4","last_reported":1748934678,"current_range_meters":12000,"station_id":"ce4bhl92rcd13ifvqghg","pricing_plan_id":"cebpf4jnsgd1na2vs0mg"},{"bike_id":"7a6279cc-d353-4cc7-baac-20fcc5c96f8c","system_id":"levelo_inurba_marseille","lat":43.31365,"lon":5.36685,"is_reserved":false,"is_disabled":false,"rental_uris":{"android":"levelo://app?vid=7a6279cc-d353-4cc7-baac-20fcc5c96f8c","ios":"levelo://app?vid=7a6279cc-d353-4cc7-baac-20fcc5c96f8c"},"vehicle_type_id":"4","last_reported":1748934678,"current_range_meters":12400,"station_id":"ce4bgr92rcd13ifvqc6g","pricing_plan_id":"cebpf4jnsgd1na2vs0mg"},{"bike_id":"01472228-3dcd-4d8e-8567-20d260cc2ff8","system_id":"levelo_inurba_marseille","lat":43.30541,"lon":5.367204,"is_reserved":false,"is_disabled":false,"rental_uris":{"android":"levelo://app?vid=01472228-3dcd-4d8e-8567-20d260cc2ff8","ios":"levelo://app?vid=01472228-3dcd-4d8e-8567-20d260cc2ff8"},"vehicle_type_id":"4","last_reported":1748934678,"current_range_meters":12400,"station_id":"ce4bgrp2rcd13ifvqc9g","pricing_plan_id":"cebpf4jnsgd1na2vs0mg"},{"bike_id":"d3ca2489-4e88-4201-a10f-f76ccc4f51d8","system_id":"levelo_inurba_marseille","lat":43.28929,"lon":5.36647,"is_reserved":false,"is_disabled":false,"rental_uris":{"android":"levelo://app?vid=d3ca2489-4e88-4201-a10f-f76ccc4f51d8","ios":"levelo://app?vid=d3ca2489-4e88-4201-a10f-f76ccc4f51d8"},"vehicle_type_id":"4","last_reported":1748934678,"current_range_meters":12400,"station_id":"ce4bhap2rcd13ifvqek0","pricing_plan_id":"cebpf4jnsgd1na2vs0mg"},{"bike_id":"08c8ad32-672b-4b70-a92f-9a07341eab4f","system_id":"levelo_inurba_marseille","lat":43.25937,"lon":5.4091,"is_reserved":false,"is_disabled":false,"rental_uris":{"android":"levelo://app?vid=08c8ad32-672b-4b70-a92f-9a07341eab4f","ios":"levelo://app?vid=08c8ad32-672b-4b70-a92f-9a07341eab4f"},"vehicle_type_id":"4","last_reported":1748934678,"current_range_meters":12400,"station_id":"ce4bhm92rcd13ifvqglg","pricing_plan_id":"cebpf4jnsgd1na2vs0mg"},{"bike_id":"de59c5df-1d51-48e3-a19d-5528e15d54e8","system_id":"levelo_inurba_marseille","lat":43.317115,"lon":5.37749,"is_reserved":false,"is_disabled":false,"rental_uris":{"android":"levelo://app?vid=de59c5df-1d51-48e3-a19d-5528e15d54e8","ios":"levelo://app?vid=de59c5df-1d51-48e3-a19d-5528e15d54e8"},"vehicle_type_id":"4","last_reported":1748934678,"current_range_meters":12800,"station_id":"ce4bgth2rcd13ifvqch0","pricing_plan_id":"cebpf4jnsgd1na2vs0mg"},{"bike_id":"15f15b05-475f-430a-8dc7-f88a026223e4","system_id":"levelo_inurba_marseille","lat":43.29265,"lon":5.3844,"is_reserved":false,"is_disabled":false,"rental_uris":{"android":"levelo://app?vid=15f15b05-475f-430a-8dc7-f88a026223e4","ios":"levelo://app?vid=15f15b05-475f-430a-8dc7-f88a026223e4"},"vehicle_type_id":"4","last_reported":1748934678,"current_range_meters":12800,"station_id":"ce4bh692rcd13ifvqea0","pricing_plan_id":"cebpf4jnsgd1na2vs0mg"},{"bike_id":"92706662-7702-4fb8-b061-be5f14ef0b09","system_id":"levelo_inurba_marseille","lat":43.2594,"lon":5.40902,"is_reserved":false,"is_disabled":false,"rental_uris":{"android":"levelo://app?vid=92706662-7702-4fb8-b061-be5f14ef0b09","ios":"levelo://app?vid=92706662-7702-4fb8-b061-be5f14ef0b09"},"vehicle_type_id":"4","last_reported":1748934678,"current_range_meters":12800,"station_id":"ce4bhm92rcd13ifvqglg","pricing_plan_id":"cebpf4jnsgd1na2vs0mg"},{"bike_id":"c9f2be1b-2f8c-4441-adc0-d5dcc13ac72f","system_id":"levelo_inurba_marseille","lat":43.32412,"lon":5.37385,"is_reserved":false,"is_disabled":false,"rental_uris":{"android":"levelo://app?vid=c9f2be1b-2f8c-4441-adc0-d5dcc13ac72f","ios":"levelo://app?vid=c9f2be1b-2f8c-4441-adc0-d5dcc13ac72f"},"vehicle_type_id":"4","last_reported":1748934678,"current_range_meters":13600,"station_id":"","pricing_plan_id":"cebpf4jnsgd1na2vs0mg"},{"bike_id":"1d188e3f-8e1f-48d7-ba28-70bb0057f0c0","system_id":"levelo_inurba_marseille","lat":43.29306,"lon":5.37172,"is_reserved":false,"is_disabled":false,"rental_uris":{"android":"levelo://app?vid=1d188e3f-8e1f-48d7-ba28-70bb0057f0c0","ios":"levelo://app?vid=1d188e3f-8e1f-48d7-ba28-70bb0057f0c0"},"vehicle_type_id":"4","last_reported":1748934678,"current_range_meters":13600,"station_id":"ce4bgh92rcd13ifvqb40","pricing_plan_id":"cebpf4jnsgd1na2vs0mg"},{"bike_id":"11fba9f1-9bf0-44a5-b8c0-fb6bc6694d79","system_id":"levelo_inurba_marseille","lat":43.30558,"lon":5.36542,"is_reserved":false,"is_disabled":false,"rental_uris":{"android":"levelo://app?vid=11fba9f1-9bf0-44a5-b8c0-fb6bc6694d79","ios":"levelo://app?vid=11fba9f1-9bf0-44a5-b8c0-fb6bc6694d79"},"vehicle_type_id":"4","last_reported":1748934678,"current_range_meters":13600,"station_id":"ce4bgs12rcd13ifvqcag","pricing_plan_id":"cebpf4jnsgd1na2vs0mg"},{"bike_id":"45be9f1d-4a37-48a9-a273-eb2edb3b40f2","system_id":"levelo_inurba_marseille","lat":43.30598,"lon":5.3937,"is_reserved":false,"is_disabled":false,"rental_uris":{"android":"levelo://app?vid=45be9f1d-4a37-48a9-a273-eb2edb3b40f2","ios":"levelo://app?vid=45be9f1d-4a37-48a9-a273-eb2edb3b40f2"},"vehicle_type_id":"4","last_reported":1748934678,"current_range_meters":13600,"station_id":"ce4bh0p2rcd13ifvqd80","pricing_plan_id":"cebpf4jnsgd1na2vs0mg"},{"bike_id":"d0dbff80-7608-4281-91dc-797d0812e339","system_id":"levelo_inurba_marseille","lat":43.25937,"lon":5.40902,"is_reserved":false,"is_disabled":false,"rental_uris":{"android":"levelo://app?vid=d0dbff80-7608-4281-91dc-797d0812e339","ios":"levelo://app?vid=d0dbff80-7608-4281-91dc-797d0812e339"},"vehicle_type_id":"4","last_reported":1748934678,"current_range_meters":13600,"station_id":"ce4bhm92rcd13ifvqglg","pricing_plan_id":"cebpf4jnsgd1na2vs0mg"},{"bike_id":"3706d379-0b34-4742-8d37-74cbfb999d73","system_id":"levelo_inurba_marseille","lat":43.27318,"lon":5.39074,"is_reserved":false,"is_disabled":false,"rental_uris":{"android":"levelo://app?vid=3706d379-0b34-4742-8d37-74cbfb999d73","ios":"levelo://app?vid=3706d379-0b34-4742-8d37-74cbfb999d73"},"vehicle_type_id":"4","last_reported":1748934678,"current_range_meters":14000,"station_id":"ce4bhgp2rcd13ifvqfe0","pricing_plan_id":"cebpf4jnsgd1na2vs0mg"},{"bike_id":"c1050a3b-57d1-4b11-85ec-351a02cb214e","system_id":"levelo_inurba_marseille","lat":43.267805,"lon":5.39415,"is_reserved":false,"is_disabled":false,"rental_uris":{"android":"levelo://app?vid=c1050a3b-57d1-4b11-85ec-351a02cb214e","ios":"levelo://app?vid=c1050a3b-57d1-4b11-85ec-351a02cb214e"},"vehicle_type_id":"4","last_reported":1748934678,"current_range_meters":14000,"station_id":"ce4bhh12rcd13ifvqfg0","pricing_plan_id":"cebpf4jnsgd1na2vs0mg"},{"bike_id":"ce3861f0-8083-4c09-b0ee-ce0a99378ef5","system_id":"levelo_inurba_marseille","lat":43.267814,"lon":5.394183,"is_reserved":false,"is_disabled":false,"rental_uris":{"android":"levelo://app?vid=ce3861f0-8083-4c09-b0ee-ce0a99378ef5","ios":"levelo://app?vid=ce3861f0-8083-4c09-b0ee-ce0a99378ef5"},"vehicle_type_id":"4","last_reported":1748934678,"current_range_meters":14000,"station_id":"ce4bhh12rcd13ifvqfg0","pricing_plan_id":"cebpf4jnsgd1na2vs0mg"},{"bike_id":"82762f70-216b-4762-9e82-daaa45d19a35","system_id":"levelo_inurba_marseille","lat":43.24168,"lon":5.36399,"is_reserved":false,"is_disabled":false,"rental_uris":{"android":"levelo://app?vid=82762f70-216b-4762-9e82-daaa45d19a35","ios":"levelo://app?vid=82762f70-216b-4762-9e82-daaa45d19a35"},"vehicle_type_id":"4","last_reported":1748934678,"current_range_meters":14000,"station_id":"cpo36qri1sfpv3e86is0","pricing_plan_id":"cebpf4jnsgd1na2vs0mg"},{"bike_id":"ed4e979e-0c24-42fc-86b5-b63c312816b3","system_id":"levelo_inurba_marseille","lat":43.30911,"lon":5.36843,"is_reserved":false,"is_disabled":false,"rental_uris":{"android":"levelo://app?vid=ed4e979e-0c24-42fc-86b5-b63c312816b3","ios":"levelo://app?vid=ed4e979e-0c24-42fc-86b5-b63c312816b3"},"vehicle_type_id":"4","last_reported":1748934678,"current_range_meters":14400,"station_id":"ce4bgn92rcd13ifvqbvg","pricing_plan_id":"cebpf4jnsgd1na2vs0mg"},{"bike_id":"c8ddf66e-3e4d-4e10-9445-353a0801528d","system_id":"levelo_inurba_marseille","lat":43.31345,"lon":5.36729,"is_reserved":false,"is_disabled":false,"rental_uris":{"android":"levelo://app?vid=c8ddf66e-3e4d-4e10-9445-353a0801528d","ios":"levelo://app?vid=c8ddf66e-3e4d-4e10-9445-353a0801528d"},"vehicle_type_id":"4","last_reported":1748934678,"current_range_meters":14400,"station_id":"ce4bgr92rcd13ifvqc6g","pricing_plan_id":"cebpf4jnsgd1na2vs0mg"},{"bike_id":"83a140cf-d943-48f5-8a00-d7ff764bdf94","system_id":"levelo_inurba_marseille","lat":43.31373,"lon":5.3671,"is_reserved":false,"is_disabled":false,"rental_uris":{"android":"levelo://app?vid=83a140cf-d943-48f5-8a00-d7ff764bdf94","ios":"levelo://app?vid=83a140cf-d943-48f5-8a00-d7ff764bdf94"},"vehicle_type_id":"4","last_reported":1748934678,"current_range_meters":14400,"station_id":"ce4bgr92rcd13ifvqc6g","pricing_plan_id":"cebpf4jnsgd1na2vs0mg"},{"bike_id":"97ff4cd0-bc10-4c66-945a-d687054185c9","system_id":"levelo_inurba_marseille","lat":43.23148,"lon":5.43723,"is_reserved":false,"is_disabled":false,"rental_uris":{"android":"levelo://app?vid=97ff4cd0-bc10-4c66-945a-d687054185c9","ios":"levelo://app?vid=97ff4cd0-bc10-4c66-945a-d687054185c9"},"vehicle_type_id":"4","last_reported":1748934678,"current_range_meters":14400,"station_id":"ce4bhmp2rcd13ifvqgog","pricing_plan_id":"cebpf4jnsgd1na2vs0mg"},{"bike_id":"cb972768-6e7c-4272-bc1d-1b19b1f6f647","system_id":"levelo_inurba_marseille","lat":43.24179,"lon":5.39731,"is_reserved":false,"is_disabled":false,"rental_uris":{"android":"levelo://app?vid=cb972768-6e7c-4272-bc1d-1b19b1f6f647","ios":"levelo://app?vid=cb972768-6e7c-4272-bc1d-1b19b1f6f647"},"vehicle_type_id":"4","last_reported":1748934678,"current_range_meters":14400,"station_id":"ce4bhn12rcd13ifvqgpg","pricing_plan_id":"cebpf4jnsgd1na2vs0mg"},{"bike_id":"3ebdd401-b80a-4fca-a4ae-7f76492c481d","system_id":"levelo_inurba_marseille","lat":43.23187,"lon":5.39986,"is_reserved":false,"is_disabled":false,"rental_uris":{"android":"levelo://app?vid=3ebdd401-b80a-4fca-a4ae-7f76492c481d","ios":"levelo://app?vid=3ebdd401-b80a-4fca-a4ae-7f76492c481d"},"vehicle_type_id":"4","last_reported":1748934678,"current_range_meters":14400,"station_id":"ce4bhn12rcd13ifvqgqg","pricing_plan_id":"cebpf4jnsgd1na2vs0mg"},{"bike_id":"b2de61e5-7f5f-4cb5-98e4-89fcb87828b9","system_id":"levelo_inurba_marseille","lat":43.26559,"lon":5.37287,"is_reserved":false,"is_disabled":false,"rental_uris":{"android":"levelo://app?vid=b2de61e5-7f5f-4cb5-98e4-89fcb87828b9","ios":"levelo://app?vid=b2de61e5-7f5f-4cb5-98e4-89fcb87828b9"},"vehicle_type_id":"4","last_reported":1748934678,"current_range_meters":14800,"station_id":"","pricing_plan_id":"cebpf4jnsgd1na2vs0mg"},{"bike_id":"3e0fd7af-3e04-4501-ab24-b02bb461a7e9","system_id":"levelo_inurba_marseille","lat":43.29361,"lon":5.37836,"is_reserved":false,"is_disabled":false,"rental_uris":{"android":"levelo://app?vid=3e0fd7af-3e04-4501-ab24-b02bb461a7e9","ios":"levelo://app?vid=3e0fd7af-3e04-4501-ab24-b02bb461a7e9"},"vehicle_type_id":"4","last_reported":1748934678,"current_range_meters":14800,"station_id":"ce4bgjh2rcd13ifvqbf0","pricing_plan_id":"cebpf4jnsgd1na2vs0mg"},{"bike_id":"aaadd803-939f-4a10-9e5e-f1566c78a389","system_id":"levelo_inurba_marseille","lat":43.2972,"lon":5.36626,"is_reserved":false,"is_disabled":false,"rental_uris":{"android":"levelo://app?vid=aaadd803-939f-4a10-9e5e-f1566c78a389","ios":"levelo://app?vid=aaadd803-939f-4a10-9e5e-f1566c78a389"},"vehicle_type_id":"4","last_reported":1748934678,"current_range_meters":14800,"station_id":"ce4bgn12rcd13ifvqbt0","pricing_plan_id":"cebpf4jnsgd1na2vs0mg"},{"bike_id":"cefa35ed-176a-45a9-be97-73f5e4d916b1","system_id":"levelo_inurba_marseille","lat":43.30949,"lon":5.39045,"is_reserved":false,"is_disabled":false,"rental_uris":{"android":"levelo://app?vid=cefa35ed-176a-45a9-be97-73f5e4d916b1","ios":"levelo://app?vid=cefa35ed-176a-45a9-be97-73f5e4d916b1"},"vehicle_type_id":"4","last_reported":1748934678,"current_range_meters":14800,"station_id":"ce4bgup2rcd13ifvqco0","pricing_plan_id":"cebpf4jnsgd1na2vs0mg"},{"bike_id":"c93701c3-283b-476c-84f5-16c1b3d9002d","system_id":"levelo_inurba_marseille","lat":43.26667,"lon":5.383,"is_reserved":false,"is_disabled":false,"rental_uris":{"android":"levelo://app?vid=c93701c3-283b-476c-84f5-16c1b3d9002d","ios":"levelo://app?vid=c93701c3-283b-476c-84f5-16c1b3d9002d"},"vehicle_type_id":"4","last_reported":1748934678,"current_range_meters":14800,"station_id":"ce4bhg92rcd13ifvqf90","pricing_plan_id":"cebpf4jnsgd1na2vs0mg"},{"bike_id":"f20ed4e3-2013-4339-bcb3-87a6aee97318","system_id":"levelo_inurba_marseille","lat":43.2396,"lon":5.3663,"is_reserved":false,"is_disabled":false,"rental_uris":{"android":"levelo://app?vid=f20ed4e3-2013-4339-bcb3-87a6aee97318","ios":"levelo://app?vid=f20ed4e3-2013-4339-bcb3-87a6aee97318"},"vehicle_type_id":"4","last_reported":1748934678,"current_range_meters":14800,"station_id":"ce4bhi12rcd13ifvqfp0","pricing_plan_id":"cebpf4jnsgd1na2vs0mg"},{"bike_id":"56ebd079-5325-4146-a252-c6e09bfabc00","system_id":"levelo_inurba_marseille","lat":43.318927,"lon":5.40749,"is_reserved":false,"is_disabled":false,"rental_uris":{"android":"levelo://app?vid=56ebd079-5325-4146-a252-c6e09bfabc00","ios":"levelo://app?vid=56ebd079-5325-4146-a252-c6e09bfabc00"},"vehicle_type_id":"4","last_reported":1748934678,"current_range_meters":14800,"station_id":"ce4bhq12rcd13ifvqhig","pricing_plan_id":"cebpf4jnsgd1na2vs0mg"},{"bike_id":"c57a4359-2678-4e7f-a576-187d9b57bc28","system_id":"levelo_inurba_marseille","lat":43.30549,"lon":5.36703,"is_reserved":false,"is_disabled":false,"rental_uris":{"android":"levelo://app?vid=c57a4359-2678-4e7f-a576-187d9b57bc28","ios":"levelo://app?vid=c57a4359-2678-4e7f-a576-187d9b57bc28"},"vehicle_type_id":"4","last_reported":1748934678,"current_range_meters":15200,"station_id":"ce4bgrp2rcd13ifvqc9g","pricing_plan_id":"cebpf4jnsgd1na2vs0mg"},{"bike_id":"cc309239-91f2-4ac2-80c6-0b2facfe3f59","system_id":"levelo_inurba_marseille","lat":43.29271,"lon":5.40147,"is_reserved":false,"is_disabled":false,"rental_uris":{"android":"levelo://app?vid=cc309239-91f2-4ac2-80c6-0b2facfe3f59","ios":"levelo://app?vid=cc309239-91f2-4ac2-80c6-0b2facfe3f59"},"vehicle_type_id":"4","last_reported":1748934678,"current_range_meters":15200,"station_id":"ce4bh312rcd13ifvqdk0","pricing_plan_id":"cebpf4jnsgd1na2vs0mg"},{"bike_id":"1fc3f234-77ff-4efc-8f2c-308786809b56","system_id":"levelo_inurba_marseille","lat":43.26679,"lon":5.38268,"is_reserved":false,"is_disabled":false,"rental_uris":{"android":"levelo://app?vid=1fc3f234-77ff-4efc-8f2c-308786809b56","ios":"levelo://app?vid=1fc3f234-77ff-4efc-8f2c-308786809b56"},"vehicle_type_id":"4","last_reported":1748934678,"current_range_meters":15200,"station_id":"ce4bhg92rcd13ifvqf90","pricing_plan_id":"cebpf4jnsgd1na2vs0mg"},{"bike_id":"1cb7c0a1-48f8-49ab-9106-52040059037c","system_id":"levelo_inurba_marseille","lat":43.23042,"lon":5.35501,"is_reserved":false,"is_disabled":false,"rental_uris":{"android":"levelo://app?vid=1cb7c0a1-48f8-49ab-9106-52040059037c","ios":"levelo://app?vid=1cb7c0a1-48f8-49ab-9106-52040059037c"},"vehicle_type_id":"4","last_reported":1748934678,"current_range_meters":15200,"station_id":"cpo3342slgdg3j2ifvpg","pricing_plan_id":"cebpf4jnsgd1na2vs0mg"},{"bike_id":"e31c84f5-c44b-48e2-adf2-52a2beace6c7","system_id":"levelo_inurba_marseille","lat":43.3173,"lon":5.37427,"is_reserved":false,"is_disabled":false,"rental_uris":{"android":"levelo://app?vid=e31c84f5-c44b-48e2-adf2-52a2beace6c7","ios":"levelo://app?vid=e31c84f5-c44b-48e2-adf2-52a2beace6c7"},"vehicle_type_id":"4","last_reported":1748934678,"current_range_meters":16000,"station_id":"","pricing_plan_id":"cebpf4jnsgd1na2vs0mg"},{"bike_id":"8e614df2-5050-400e-a596-ac75b6ca627d","system_id":"levelo_inurba_marseille","lat":43.30134,"lon":5.37418,"is_reserved":false,"is_disabled":false,"rental_uris":{"android":"levelo://app?vid=8e614df2-5050-400e-a596-ac75b6ca627d","ios":"levelo://app?vid=8e614df2-5050-400e-a596-ac75b6ca627d"},"vehicle_type_id":"4","last_reported":1748934678,"current_range_meters":16000,"station_id":"ce4bgs92rcd13ifvqcc0","pricing_plan_id":"cebpf4jnsgd1na2vs0mg"},{"bike_id":"beea8e78-1823-4ac0-9c83-016c684162cc","system_id":"levelo_inurba_marseille","lat":43.30585,"lon":5.39358,"is_reserved":false,"is_disabled":false,"rental_uris":{"android":"levelo://app?vid=beea8e78-1823-4ac0-9c83-016c684162cc","ios":"levelo://app?vid=beea8e78-1823-4ac0-9c83-016c684162cc"},"vehicle_type_id":"4","last_reported":1748934678,"current_range_meters":16000,"station_id":"ce4bh0p2rcd13ifvqd80","pricing_plan_id":"cebpf4jnsgd1na2vs0mg"},{"bike_id":"26dfd740-a8af-48f7-8c8c-f3395a83bd84","system_id":"levelo_inurba_marseille","lat":43.26677,"lon":5.38269,"is_reserved":false,"is_disabled":false,"rental_uris":{"android":"levelo://app?vid=26dfd740-a8af-48f7-8c8c-f3395a83bd84","ios":"levelo://app?vid=26dfd740-a8af-48f7-8c8c-f3395a83bd84"},"vehicle_type_id":"4","last_reported":1748934678,"current_range_meters":16000,"station_id":"ce4bhg92rcd13ifvqf90","pricing_plan_id":"cebpf4jnsgd1na2vs0mg"},{"bike_id":"6db8da9d-ed27-45cf-9935-6e37c99d0be9","system_id":"levelo_inurba_marseille","lat":43.26213,"lon":5.40169,"is_reserved":false,"is_disabled":false,"rental_uris":{"android":"levelo://app?vid=6db8da9d-ed27-45cf-9935-6e37c99d0be9","ios":"levelo://app?vid=6db8da9d-ed27-45cf-9935-6e37c99d0be9"},"vehicle_type_id":"4","last_reported":1748934678,"current_range_meters":16400,"station_id":"","pricing_plan_id":"cebpf4jnsgd1na2vs0mg"},{"bike_id":"02270903-cae6-4a15-ba2f-736489b38be0","system_id":"levelo_inurba_marseille","lat":43.30186,"lon":5.36626,"is_reserved":false,"is_disabled":false,"rental_uris":{"android":"levelo://app?vid=02270903-cae6-4a15-ba2f-736489b38be0","ios":"levelo://app?vid=02270903-cae6-4a15-ba2f-736489b38be0"},"vehicle_type_id":"4","last_reported":1748934678,"current_range_meters":16400,"station_id":"ce4bgrh2rcd13ifvqc8g","pricing_plan_id":"cebpf4jnsgd1na2vs0mg"},{"bike_id":"ecc2f2c9-db6d-4879-a771-48e06303dd24","system_id":"levelo_inurba_marseille","lat":43.309503,"lon":5.39033,"is_reserved":false,"is_disabled":false,"rental_uris":{"android":"levelo://app?vid=ecc2f2c9-db6d-4879-a771-48e06303dd24","ios":"levelo://app?vid=ecc2f2c9-db6d-4879-a771-48e06303dd24"},"vehicle_type_id":"4","last_reported":1748934678,"current_range_meters":16400,"station_id":"ce4bgup2rcd13ifvqco0","pricing_plan_id":"cebpf4jnsgd1na2vs0mg"},{"bike_id":"a3bfdda4-f43a-46f5-b6bc-d5c8ad298c4e","system_id":"levelo_inurba_marseille","lat":43.25936,"lon":5.40909,"is_reserved":false,"is_disabled":false,"rental_uris":{"android":"levelo://app?vid=a3bfdda4-f43a-46f5-b6bc-d5c8ad298c4e","ios":"levelo://app?vid=a3bfdda4-f43a-46f5-b6bc-d5c8ad298c4e"},"vehicle_type_id":"4","last_reported":1748934678,"current_range_meters":16400,"station_id":"ce4bhm92rcd13ifvqglg","pricing_plan_id":"cebpf4jnsgd1na2vs0mg"},{"bike_id":"255c84c6-3e62-4b6e-a0b2-8de4a6709244","system_id":"levelo_inurba_marseille","lat":43.27489,"lon":5.42448,"is_reserved":false,"is_disabled":false,"rental_uris":{"android":"levelo://app?vid=255c84c6-3e62-4b6e-a0b2-8de4a6709244","ios":"levelo://app?vid=255c84c6-3e62-4b6e-a0b2-8de4a6709244"},"vehicle_type_id":"4","last_reported":1748934678,"current_range_meters":16400,"station_id":"ce4bhn92rcd13ifvqgrg","pricing_plan_id":"cebpf4jnsgd1na2vs0mg"},{"bike_id":"859fcab1-74b2-40a1-b9e6-866c899a681e","system_id":"levelo_inurba_marseille","lat":43.279828,"lon":5.400219,"is_reserved":false,"is_disabled":false,"rental_uris":{"android":"levelo://app?vid=859fcab1-74b2-40a1-b9e6-866c899a681e","ios":"levelo://app?vid=859fcab1-74b2-40a1-b9e6-866c899a681e"},"vehicle_type_id":"4","last_reported":1748934678,"current_range_meters":16400,"station_id":"ce4bho92rcd13ifvqh4g","pricing_plan_id":"cebpf4jnsgd1na2vs0mg"},{"bike_id":"c0118801-0051-4d8b-93c0-8018e179fb2e","system_id":"levelo_inurba_marseille","lat":43.33712,"lon":5.39185,"is_reserved":false,"is_disabled":false,"rental_uris":{"android":"levelo://app?vid=c0118801-0051-4d8b-93c0-8018e179fb2e","ios":"levelo://app?vid=c0118801-0051-4d8b-93c0-8018e179fb2e"},"vehicle_type_id":"4","last_reported":1748934678,"current_range_meters":16400,"station_id":"ce4bhr92rcd13ifvqhsg","pricing_plan_id":"cebpf4jnsgd1na2vs0mg"},{"bike_id":"a332bb8d-4088-4873-b1e0-8582d22c01da","system_id":"levelo_inurba_marseille","lat":43.32472,"lon":5.36569,"is_reserved":false,"is_disabled":false,"rental_uris":{"android":"levelo://app?vid=a332bb8d-4088-4873-b1e0-8582d22c01da","ios":"levelo://app?vid=a332bb8d-4088-4873-b1e0-8582d22c01da"},"vehicle_type_id":"4","last_reported":1748934678,"current_range_meters":16400,"station_id":"ce4bhs12rcd13ifvqhvg","pricing_plan_id":"cebpf4jnsgd1na2vs0mg"},{"bike_id":"4e17c123-8236-4a02-a8a2-a61cdc625d7e","system_id":"levelo_inurba_marseille","lat":43.30461,"lon":5.37091,"is_reserved":false,"is_disabled":false,"rental_uris":{"android":"levelo://app?vid=4e17c123-8236-4a02-a8a2-a61cdc625d7e","ios":"levelo://app?vid=4e17c123-8236-4a02-a8a2-a61cdc625d7e"},"vehicle_type_id":"4","last_reported":1748934678,"current_range_meters":16800,"station_id":"","pricing_plan_id":"cebpf4jnsgd1na2vs0mg"},{"bike_id":"dfa53992-3af7-4de3-a929-dedb3588db26","system_id":"levelo_inurba_marseille","lat":43.30909,"lon":5.36849,"is_reserved":false,"is_disabled":false,"rental_uris":{"android":"levelo://app?vid=dfa53992-3af7-4de3-a929-dedb3588db26","ios":"levelo://app?vid=dfa53992-3af7-4de3-a929-dedb3588db26"},"vehicle_type_id":"4","last_reported":1748934678,"current_range_meters":16800,"station_id":"ce4bgn92rcd13ifvqbvg","pricing_plan_id":"cebpf4jnsgd1na2vs0mg"},{"bike_id":"b9ec55c3-ee26-4bfc-ab9e-54fe7f50fad9","system_id":"levelo_inurba_marseille","lat":43.30534,"lon":5.36551,"is_reserved":false,"is_disabled":false,"rental_uris":{"android":"levelo://app?vid=b9ec55c3-ee26-4bfc-ab9e-54fe7f50fad9","ios":"levelo://app?vid=b9ec55c3-ee26-4bfc-ab9e-54fe7f50fad9"},"vehicle_type_id":"4","last_reported":1748934678,"current_range_meters":16800,"station_id":"ce4bgs12rcd13ifvqcag","pricing_plan_id":"cebpf4jnsgd1na2vs0mg"},{"bike_id":"96425785-67ec-44b8-ac35-6530cd1939ae","system_id":"levelo_inurba_marseille","lat":43.24187,"lon":5.39749,"is_reserved":false,"is_disabled":false,"rental_uris":{"android":"levelo://app?vid=96425785-67ec-44b8-ac35-6530cd1939ae","ios":"levelo://app?vid=96425785-67ec-44b8-ac35-6530cd1939ae"},"vehicle_type_id":"4","last_reported":1748934678,"current_range_meters":16800,"station_id":"ce4bhn12rcd13ifvqgpg","pricing_plan_id":"cebpf4jnsgd1na2vs0mg"},{"bike_id":"50f34d3b-6952-4c0e-9f03-4186cfcd2935","system_id":"levelo_inurba_marseille","lat":43.28513,"lon":5.398627,"is_reserved":false,"is_disabled":false,"rental_uris":{"android":"levelo://app?vid=50f34d3b-6952-4c0e-9f03-4186cfcd2935","ios":"levelo://app?vid=50f34d3b-6952-4c0e-9f03-4186cfcd2935"},"vehicle_type_id":"4","last_reported":1748934678,"current_range_meters":17200,"station_id":"","pricing_plan_id":"cebpf4jnsgd1na2vs0mg"},{"bike_id":"bb2e16ac-61b1-4ee0-b9a9-48658a4920ff","system_id":"levelo_inurba_marseille","lat":43.295783,"lon":5.375776,"is_reserved":false,"is_disabled":false,"rental_uris":{"android":"levelo://app?vid=bb2e16ac-61b1-4ee0-b9a9-48658a4920ff","ios":"levelo://app?vid=bb2e16ac-61b1-4ee0-b9a9-48658a4920ff"},"vehicle_type_id":"4","last_reported":1748934678,"current_range_meters":17200,"station_id":"ce4bgi92rcd13ifvqb90","pricing_plan_id":"cebpf4jnsgd1na2vs0mg"},{"bike_id":"6a1d81c6-deed-4676-a232-253b9c013538","system_id":"levelo_inurba_marseille","lat":43.30398,"lon":5.38904,"is_reserved":false,"is_disabled":false,"rental_uris":{"android":"levelo://app?vid=6a1d81c6-deed-4676-a232-253b9c013538","ios":"levelo://app?vid=6a1d81c6-deed-4676-a232-253b9c013538"},"vehicle_type_id":"4","last_reported":1748934678,"current_range_meters":17200,"station_id":"ce4bgk12rcd13ifvqbi0","pricing_plan_id":"cebpf4jnsgd1na2vs0mg"},{"bike_id":"81c67772-6d9c-4467-9f67-35f05c97f2a0","system_id":"levelo_inurba_marseille","lat":43.31361,"lon":5.38492,"is_reserved":false,"is_disabled":false,"rental_uris":{"android":"levelo://app?vid=81c67772-6d9c-4467-9f67-35f05c97f2a0","ios":"levelo://app?vid=81c67772-6d9c-4467-9f67-35f05c97f2a0"},"vehicle_type_id":"4","last_reported":1748934678,"current_range_meters":17200,"station_id":"ce4bgt92rcd13ifvqcf0","pricing_plan_id":"cebpf4jnsgd1na2vs0mg"},{"bike_id":"a062fae3-bf19-4ed3-b11f-bbec44e3344b","system_id":"levelo_inurba_marseille","lat":43.32095,"lon":5.407826,"is_reserved":false,"is_disabled":false,"rental_uris":{"android":"levelo://app?vid=a062fae3-bf19-4ed3-b11f-bbec44e3344b","ios":"levelo://app?vid=a062fae3-bf19-4ed3-b11f-bbec44e3344b"},"vehicle_type_id":"4","last_reported":1748934678,"current_range_meters":17600,"station_id":"","pricing_plan_id":"cebpf4jnsgd1na2vs0mg"},{"bike_id":"a5c20a9b-6072-4572-84fe-d4fbf1b359ce","system_id":"levelo_inurba_marseille","lat":43.33778,"lon":5.37429,"is_reserved":false,"is_disabled":false,"rental_uris":{"android":"levelo://app?vid=a5c20a9b-6072-4572-84fe-d4fbf1b359ce","ios":"levelo://app?vid=a5c20a9b-6072-4572-84fe-d4fbf1b359ce"},"vehicle_type_id":"4","last_reported":1748934678,"current_range_meters":17600,"station_id":"","pricing_plan_id":"cebpf4jnsgd1na2vs0mg"},{"bike_id":"82d5e81d-09f8-42ff-9e2e-bd3b14e482ba","system_id":"levelo_inurba_marseille","lat":43.2621,"lon":5.37442,"is_reserved":false,"is_disabled":false,"rental_uris":{"android":"levelo://app?vid=82d5e81d-09f8-42ff-9e2e-bd3b14e482ba","ios":"levelo://app?vid=82d5e81d-09f8-42ff-9e2e-bd3b14e482ba"},"vehicle_type_id":"4","last_reported":1748934678,"current_range_meters":17600,"station_id":"ce4bhgp2rcd13ifvqfc0","pricing_plan_id":"cebpf4jnsgd1na2vs0mg"},{"bike_id":"3d72d00f-99c6-4cbe-888b-859c7a2d4834","system_id":"levelo_inurba_marseille","lat":43.24999,"lon":5.38932,"is_reserved":false,"is_disabled":false,"rental_uris":{"android":"levelo://app?vid=3d72d00f-99c6-4cbe-888b-859c7a2d4834","ios":"levelo://app?vid=3d72d00f-99c6-4cbe-888b-859c7a2d4834"},"vehicle_type_id":"4","last_reported":1748934678,"current_range_meters":17600,"station_id":"ce4bhgp2rcd13ifvqfd0","pricing_plan_id":"cebpf4jnsgd1na2vs0mg"},{"bike_id":"f3453623-595a-49ec-9f81-59505c481252","system_id":"levelo_inurba_marseille","lat":43.25477,"lon":5.37671,"is_reserved":false,"is_disabled":false,"rental_uris":{"android":"levelo://app?vid=f3453623-595a-49ec-9f81-59505c481252","ios":"levelo://app?vid=f3453623-595a-49ec-9f81-59505c481252"},"vehicle_type_id":"4","last_reported":1748934678,"current_range_meters":17600,"station_id":"ce4bhh12rcd13ifvqff0","pricing_plan_id":"cebpf4jnsgd1na2vs0mg"},{"bike_id":"4906f001-94f0-4eab-a4e7-33b74f81511c","system_id":"levelo_inurba_marseille","lat":43.24069,"lon":5.37764,"is_reserved":false,"is_disabled":false,"rental_uris":{"android":"levelo://app?vid=4906f001-94f0-4eab-a4e7-33b74f81511c","ios":"levelo://app?vid=4906f001-94f0-4eab-a4e7-33b74f81511c"},"vehicle_type_id":"4","last_reported":1748934678,"current_range_meters":17600,"station_id":"ce4bhnp2rcd13ifvqgvg","pricing_plan_id":"cebpf4jnsgd1na2vs0mg"},{"bike_id":"5b536054-600d-4e23-8558-f74f4f3ec365","system_id":"levelo_inurba_marseille","lat":43.33013,"lon":5.39045,"is_reserved":false,"is_disabled":false,"rental_uris":{"android":"levelo://app?vid=5b536054-600d-4e23-8558-f74f4f3ec365","ios":"levelo://app?vid=5b536054-600d-4e23-8558-f74f4f3ec365"},"vehicle_type_id":"4","last_reported":1748934678,"current_range_meters":17600,"station_id":"ce4bhr92rcd13ifvqhrg","pricing_plan_id":"cebpf4jnsgd1na2vs0mg"},{"bike_id":"f0d34e7f-8103-46e9-a438-c85d36f28543","system_id":"levelo_inurba_marseille","lat":43.278747,"lon":5.354369,"is_reserved":false,"is_disabled":false,"rental_uris":{"android":"levelo://app?vid=f0d34e7f-8103-46e9-a438-c85d36f28543","ios":"levelo://app?vid=f0d34e7f-8103-46e9-a438-c85d36f28543"},"vehicle_type_id":"4","last_reported":1748934678,"current_range_meters":18000,"station_id":"","pricing_plan_id":"cebpf4jnsgd1na2vs0mg"},{"bike_id":"f441fccc-ee8f-457a-b820-16b4b8b7a51a","system_id":"levelo_inurba_marseille","lat":43.29966,"lon":5.38503,"is_reserved":false,"is_disabled":false,"rental_uris":{"android":"levelo://app?vid=f441fccc-ee8f-457a-b820-16b4b8b7a51a","ios":"levelo://app?vid=f441fccc-ee8f-457a-b820-16b4b8b7a51a"},"vehicle_type_id":"4","last_reported":1748934678,"current_range_meters":18000,"station_id":"ce4bgj92rcd13ifvqbd0","pricing_plan_id":"cebpf4jnsgd1na2vs0mg"},{"bike_id":"bbdab15b-b33b-4570-a683-b2ab708c7da4","system_id":"levelo_inurba_marseille","lat":43.29722,"lon":5.3772,"is_reserved":false,"is_disabled":false,"rental_uris":{"android":"levelo://app?vid=bbdab15b-b33b-4570-a683-b2ab708c7da4","ios":"levelo://app?vid=bbdab15b-b33b-4570-a683-b2ab708c7da4"},"vehicle_type_id":"4","last_reported":1748934678,"current_range_meters":18000,"station_id":"ce4bgkh2rcd13ifvqbl0","pricing_plan_id":"cebpf4jnsgd1na2vs0mg"},{"bike_id":"b4a09779-3112-486d-8eb5-2645f8d54e59","system_id":"levelo_inurba_marseille","lat":43.30905,"lon":5.36847,"is_reserved":false,"is_disabled":false,"rental_uris":{"android":"levelo://app?vid=b4a09779-3112-486d-8eb5-2645f8d54e59","ios":"levelo://app?vid=b4a09779-3112-486d-8eb5-2645f8d54e59"},"vehicle_type_id":"4","last_reported":1748934678,"current_range_meters":18000,"station_id":"ce4bgn92rcd13ifvqbvg","pricing_plan_id":"cebpf4jnsgd1na2vs0mg"},{"bike_id":"8d20081c-fa1a-4df4-a128-0b5048cfd5f7","system_id":"levelo_inurba_marseille","lat":43.31355,"lon":5.36737,"is_reserved":false,"is_disabled":false,"rental_uris":{"android":"levelo://app?vid=8d20081c-fa1a-4df4-a128-0b5048cfd5f7","ios":"levelo://app?vid=8d20081c-fa1a-4df4-a128-0b5048cfd5f7"},"vehicle_type_id":"4","last_reported":1748934678,"current_range_meters":18000,"station_id":"ce4bgr92rcd13ifvqc6g","pricing_plan_id":"cebpf4jnsgd1na2vs0mg"},{"bike_id":"37164a9a-6cff-4f47-9e4b-4dd81e4690ab","system_id":"levelo_inurba_marseille","lat":43.30192,"lon":5.3663,"is_reserved":false,"is_disabled":false,"rental_uris":{"android":"levelo://app?vid=37164a9a-6cff-4f47-9e4b-4dd81e4690ab","ios":"levelo://app?vid=37164a9a-6cff-4f47-9e4b-4dd81e4690ab"},"vehicle_type_id":"4","last_reported":1748934678,"current_range_meters":18000,"station_id":"ce4bgrh2rcd13ifvqc8g","pricing_plan_id":"cebpf4jnsgd1na2vs0mg"},{"bike_id":"0338ae23-1405-40ee-a283-e023e760f846","system_id":"levelo_inurba_marseille","lat":43.27836,"lon":5.39211,"is_reserved":false,"is_disabled":false,"rental_uris":{"android":"levelo://app?vid=0338ae23-1405-40ee-a283-e023e760f846","ios":"levelo://app?vid=0338ae23-1405-40ee-a283-e023e760f846"},"vehicle_type_id":"4","last_reported":1748934678,"current_range_meters":18000,"station_id":"ce4bhjp2rcd13ifvqga0","pricing_plan_id":"cebpf4jnsgd1na2vs0mg"},{"bike_id":"83be22f4-6149-404e-a4f3-6f1226cfa703","system_id":"levelo_inurba_marseille","lat":43.27996,"lon":5.41666,"is_reserved":false,"is_disabled":false,"rental_uris":{"android":"levelo://app?vid=83be22f4-6149-404e-a4f3-6f1226cfa703","ios":"levelo://app?vid=83be22f4-6149-404e-a4f3-6f1226cfa703"},"vehicle_type_id":"4","last_reported":1748934678,"current_range_meters":18000,"station_id":"ce4bho12rcd13ifvqh1g","pricing_plan_id":"cebpf4jnsgd1na2vs0mg"},{"bike_id":"22f839c0-7837-49f4-b4b1-6cd233d79363","system_id":"levelo_inurba_marseille","lat":43.29893,"lon":5.43675,"is_reserved":false,"is_disabled":false,"rental_uris":{"android":"levelo://app?vid=22f839c0-7837-49f4-b4b1-6cd233d79363","ios":"levelo://app?vid=22f839c0-7837-49f4-b4b1-6cd233d79363"},"vehicle_type_id":"4","last_reported":1748934678,"current_range_meters":18000,"station_id":"ce4bhpp2rcd13ifvqhfg","pricing_plan_id":"cebpf4jnsgd1na2vs0mg"},{"bike_id":"dc036281-7307-45ba-bef7-f1c201a45449","system_id":"levelo_inurba_marseille","lat":43.32474,"lon":5.36563,"is_reserved":false,"is_disabled":false,"rental_uris":{"android":"levelo://app?vid=dc036281-7307-45ba-bef7-f1c201a45449","ios":"levelo://app?vid=dc036281-7307-45ba-bef7-f1c201a45449"},"vehicle_type_id":"4","last_reported":1748934678,"current_range_meters":18000,"station_id":"ce4bhs12rcd13ifvqhvg","pricing_plan_id":"cebpf4jnsgd1na2vs0mg"},{"bike_id":"dca66bed-5c27-48af-8abb-b3408d8ab3ae","system_id":"levelo_inurba_marseille","lat":43.30881,"lon":5.36843,"is_reserved":false,"is_disabled":false,"rental_uris":{"android":"levelo://app?vid=dca66bed-5c27-48af-8abb-b3408d8ab3ae","ios":"levelo://app?vid=dca66bed-5c27-48af-8abb-b3408d8ab3ae"},"vehicle_type_id":"4","last_reported":1748934678,"current_range_meters":18800,"station_id":"ce4bgn92rcd13ifvqbvg","pricing_plan_id":"cebpf4jnsgd1na2vs0mg"},{"bike_id":"70731e1b-3fe4-4a45-9b8e-e1b0b4da318a","system_id":"levelo_inurba_marseille","lat":43.30536,"lon":5.36557,"is_reserved":false,"is_disabled":false,"rental_uris":{"android":"levelo://app?vid=70731e1b-3fe4-4a45-9b8e-e1b0b4da318a","ios":"levelo://app?vid=70731e1b-3fe4-4a45-9b8e-e1b0b4da318a"},"vehicle_type_id":"4","last_reported":1748934678,"current_range_meters":18800,"station_id":"ce4bgs12rcd13ifvqcag","pricing_plan_id":"cebpf4jnsgd1na2vs0mg"},{"bike_id":"00921fac-499b-49af-a52e-f6576fd69f60","system_id":"levelo_inurba_marseille","lat":43.27944,"lon":5.38708,"is_reserved":false,"is_disabled":false,"rental_uris":{"android":"levelo://app?vid=00921fac-499b-49af-a52e-f6576fd69f60","ios":"levelo://app?vid=00921fac-499b-49af-a52e-f6576fd69f60"},"vehicle_type_id":"4","last_reported":1748934678,"current_range_meters":18800,"station_id":"ce4bhg12rcd13ifvqf80","pricing_plan_id":"cebpf4jnsgd1na2vs0mg"},{"bike_id":"f2f7cb97-983f-4603-a427-da85434a02d2","system_id":"levelo_inurba_marseille","lat":43.25001,"lon":5.38928,"is_reserved":false,"is_disabled":false,"rental_uris":{"android":"levelo://app?vid=f2f7cb97-983f-4603-a427-da85434a02d2","ios":"levelo://app?vid=f2f7cb97-983f-4603-a427-da85434a02d2"},"vehicle_type_id":"4","last_reported":1748934678,"current_range_meters":18800,"station_id":"ce4bhgp2rcd13ifvqfd0","pricing_plan_id":"cebpf4jnsgd1na2vs0mg"},{"bike_id":"e5ffc1cb-a704-403e-ab7b-31df1fc02011","system_id":"levelo_inurba_marseille","lat":43.27924,"lon":5.41042,"is_reserved":false,"is_disabled":false,"rental_uris":{"android":"levelo://app?vid=e5ffc1cb-a704-403e-ab7b-31df1fc02011","ios":"levelo://app?vid=e5ffc1cb-a704-403e-ab7b-31df1fc02011"},"vehicle_type_id":"4","last_reported":1748934678,"current_range_meters":18800,"station_id":"ce4bhnp2rcd13ifvqh0g","pricing_plan_id":"cebpf4jnsgd1na2vs0mg"},{"bike_id":"d509d84e-f359-4ef5-8817-0a56485e7e15","system_id":"levelo_inurba_marseille","lat":43.23883,"lon":5.38879,"is_reserved":false,"is_disabled":false,"rental_uris":{"android":"levelo://app?vid=d509d84e-f359-4ef5-8817-0a56485e7e15","ios":"levelo://app?vid=d509d84e-f359-4ef5-8817-0a56485e7e15"},"vehicle_type_id":"4","last_reported":1748934678,"current_range_meters":19200,"station_id":"","pricing_plan_id":"cebpf4jnsgd1na2vs0mg"},{"bike_id":"c1d75d08-0840-4bbb-8b59-f175aa7ee2c1","system_id":"levelo_inurba_marseille","lat":43.30527,"lon":5.36717,"is_reserved":false,"is_disabled":false,"rental_uris":{"android":"levelo://app?vid=c1d75d08-0840-4bbb-8b59-f175aa7ee2c1","ios":"levelo://app?vid=c1d75d08-0840-4bbb-8b59-f175aa7ee2c1"},"vehicle_type_id":"4","last_reported":1748934678,"current_range_meters":19200,"station_id":"ce4bgrp2rcd13ifvqc9g","pricing_plan_id":"cebpf4jnsgd1na2vs0mg"},{"bike_id":"826b2db6-1579-4beb-a849-09c1cda03041","system_id":"levelo_inurba_marseille","lat":43.278959,"lon":5.380034,"is_reserved":false,"is_disabled":false,"rental_uris":{"android":"levelo://app?vid=826b2db6-1579-4beb-a849-09c1cda03041","ios":"levelo://app?vid=826b2db6-1579-4beb-a849-09c1cda03041"},"vehicle_type_id":"4","last_reported":1748934678,"current_range_meters":19200,"station_id":"ce4bhf92rcd13ifvqf50","pricing_plan_id":"cebpf4jnsgd1na2vs0mg"},{"bike_id":"bb9df8e7-97b0-42c5-8087-cf95de0a52c4","system_id":"levelo_inurba_marseille","lat":43.25718,"lon":5.410677,"is_reserved":false,"is_disabled":false,"rental_uris":{"android":"levelo://app?vid=bb9df8e7-97b0-42c5-8087-cf95de0a52c4","ios":"levelo://app?vid=bb9df8e7-97b0-42c5-8087-cf95de0a52c4"},"vehicle_type_id":"4","last_reported":1748934678,"current_range_meters":19200,"station_id":"ce4bhkp2rcd13ifvqgd0","pricing_plan_id":"cebpf4jnsgd1na2vs0mg"},{"bike_id":"c2e1d283-a417-4a2a-b2e7-7c87606a7a42","system_id":"levelo_inurba_marseille","lat":43.25134,"lon":5.40323,"is_reserved":false,"is_disabled":false,"rental_uris":{"android":"levelo://app?vid=c2e1d283-a417-4a2a-b2e7-7c87606a7a42","ios":"levelo://app?vid=c2e1d283-a417-4a2a-b2e7-7c87606a7a42"},"vehicle_type_id":"4","last_reported":1748934678,"current_range_meters":19200,"station_id":"ce4bhlh2rcd13ifvqgig","pricing_plan_id":"cebpf4jnsgd1na2vs0mg"},{"bike_id":"bc2705d3-2059-4d83-a185-d1277e43f930","system_id":"levelo_inurba_marseille","lat":43.25932,"lon":5.40905,"is_reserved":false,"is_disabled":false,"rental_uris":{"android":"levelo://app?vid=bc2705d3-2059-4d83-a185-d1277e43f930","ios":"levelo://app?vid=bc2705d3-2059-4d83-a185-d1277e43f930"},"vehicle_type_id":"4","last_reported":1748934678,"current_range_meters":19200,"station_id":"ce4bhm92rcd13ifvqglg","pricing_plan_id":"cebpf4jnsgd1na2vs0mg"},{"bike_id":"c1b5eecc-5664-4bb0-ab72-8f9e7c58cb84","system_id":"levelo_inurba_marseille","lat":43.24155,"lon":5.39748,"is_reserved":false,"is_disabled":false,"rental_uris":{"android":"levelo://app?vid=c1b5eecc-5664-4bb0-ab72-8f9e7c58cb84","ios":"levelo://app?vid=c1b5eecc-5664-4bb0-ab72-8f9e7c58cb84"},"vehicle_type_id":"4","last_reported":1748934678,"current_range_meters":19200,"station_id":"ce4bhn12rcd13ifvqgpg","pricing_plan_id":"cebpf4jnsgd1na2vs0mg"},{"bike_id":"0ae70647-218d-4bae-a918-9ea32c7acae2","system_id":"levelo_inurba_marseille","lat":43.23177,"lon":5.39994,"is_reserved":false,"is_disabled":false,"rental_uris":{"android":"levelo://app?vid=0ae70647-218d-4bae-a918-9ea32c7acae2","ios":"levelo://app?vid=0ae70647-218d-4bae-a918-9ea32c7acae2"},"vehicle_type_id":"4","last_reported":1748934678,"current_range_meters":19200,"station_id":"ce4bhn12rcd13ifvqgqg","pricing_plan_id":"cebpf4jnsgd1na2vs0mg"},{"bike_id":"96c57d21-6980-4ee5-96a7-8e2360c37425","system_id":"levelo_inurba_marseille","lat":43.31216,"lon":5.36861,"is_reserved":false,"is_disabled":false,"rental_uris":{"android":"levelo://app?vid=96c57d21-6980-4ee5-96a7-8e2360c37425","ios":"levelo://app?vid=96c57d21-6980-4ee5-96a7-8e2360c37425"},"vehicle_type_id":"4","last_reported":1748934678,"current_range_meters":19600,"station_id":"ce4bgl92rcd13ifvqbq0","pricing_plan_id":"cebpf4jnsgd1na2vs0mg"},{"bike_id":"edeeefe1-6701-4b4c-8f26-92f4ec77a90d","system_id":"levelo_inurba_marseille","lat":43.30537,"lon":5.36692,"is_reserved":false,"is_disabled":false,"rental_uris":{"android":"levelo://app?vid=edeeefe1-6701-4b4c-8f26-92f4ec77a90d","ios":"levelo://app?vid=edeeefe1-6701-4b4c-8f26-92f4ec77a90d"},"vehicle_type_id":"4","last_reported":1748934678,"current_range_meters":19600,"station_id":"ce4bgrp2rcd13ifvqc9g","pricing_plan_id":"cebpf4jnsgd1na2vs0mg"},{"bike_id":"065dd1b1-d819-40f7-8bba-175534b2196f","system_id":"levelo_inurba_marseille","lat":43.3136,"lon":5.3849,"is_reserved":false,"is_disabled":false,"rental_uris":{"android":"levelo://app?vid=065dd1b1-d819-40f7-8bba-175534b2196f","ios":"levelo://app?vid=065dd1b1-d819-40f7-8bba-175534b2196f"},"vehicle_type_id":"4","last_reported":1748934678,"current_range_meters":19600,"station_id":"ce4bgt92rcd13ifvqcf0","pricing_plan_id":"cebpf4jnsgd1na2vs0mg"},{"bike_id":"615caafa-426e-47cf-88dd-c237767ac90d","system_id":"levelo_inurba_marseille","lat":43.31709,"lon":5.37747,"is_reserved":false,"is_disabled":false,"rental_uris":{"android":"levelo://app?vid=615caafa-426e-47cf-88dd-c237767ac90d","ios":"levelo://app?vid=615caafa-426e-47cf-88dd-c237767ac90d"},"vehicle_type_id":"4","last_reported":1748934678,"current_range_meters":19600,"station_id":"ce4bgth2rcd13ifvqch0","pricing_plan_id":"cebpf4jnsgd1na2vs0mg"},{"bike_id":"2cf5c3dc-6026-40f6-970c-d851d11de452","system_id":"levelo_inurba_marseille","lat":43.30215,"lon":5.39467,"is_reserved":false,"is_disabled":false,"rental_uris":{"android":"levelo://app?vid=2cf5c3dc-6026-40f6-970c-d851d11de452","ios":"levelo://app?vid=2cf5c3dc-6026-40f6-970c-d851d11de452"},"vehicle_type_id":"4","last_reported":1748934678,"current_range_meters":19600,"station_id":"ce4bh0p2rcd13ifvqd70","pricing_plan_id":"cebpf4jnsgd1na2vs0mg"},{"bike_id":"d9c86220-df82-44a4-b95f-94331aadd824","system_id":"levelo_inurba_marseille","lat":43.30587,"lon":5.39356,"is_reserved":false,"is_disabled":false,"rental_uris":{"android":"levelo://app?vid=d9c86220-df82-44a4-b95f-94331aadd824","ios":"levelo://app?vid=d9c86220-df82-44a4-b95f-94331aadd824"},"vehicle_type_id":"4","last_reported":1748934678,"current_range_meters":19600,"station_id":"ce4bh0p2rcd13ifvqd80","pricing_plan_id":"cebpf4jnsgd1na2vs0mg"},{"bike_id":"7b19a772-1983-4b09-981c-a610cba8dad8","system_id":"levelo_inurba_marseille","lat":43.27975,"lon":5.38668,"is_reserved":false,"is_disabled":false,"rental_uris":{"android":"levelo://app?vid=7b19a772-1983-4b09-981c-a610cba8dad8","ios":"levelo://app?vid=7b19a772-1983-4b09-981c-a610cba8dad8"},"vehicle_type_id":"4","last_reported":1748934678,"current_range_meters":19600,"station_id":"ce4bhg12rcd13ifvqf80","pricing_plan_id":"cebpf4jnsgd1na2vs0mg"},{"bike_id":"2ba5d3cc-b434-4130-8064-abda15867171","system_id":"levelo_inurba_marseille","lat":43.25939,"lon":5.40898,"is_reserved":false,"is_disabled":false,"rental_uris":{"android":"levelo://app?vid=2ba5d3cc-b434-4130-8064-abda15867171","ios":"levelo://app?vid=2ba5d3cc-b434-4130-8064-abda15867171"},"vehicle_type_id":"4","last_reported":1748934678,"current_range_meters":19600,"station_id":"ce4bhm92rcd13ifvqglg","pricing_plan_id":"cebpf4jnsgd1na2vs0mg"},{"bike_id":"412476d0-8f3d-4c2a-b5ee-b3566995a855","system_id":"levelo_inurba_marseille","lat":43.24168,"lon":5.36387,"is_reserved":false,"is_disabled":false,"rental_uris":{"android":"levelo://app?vid=412476d0-8f3d-4c2a-b5ee-b3566995a855","ios":"levelo://app?vid=412476d0-8f3d-4c2a-b5ee-b3566995a855"},"vehicle_type_id":"4","last_reported":1748934678,"current_range_meters":19600,"station_id":"cpo36qri1sfpv3e86is0","pricing_plan_id":"cebpf4jnsgd1na2vs0mg"},{"bike_id":"143434d9-c66a-4f6f-95e1-671fee3703ec","system_id":"levelo_inurba_marseille","lat":43.25322,"lon":5.377037,"is_reserved":false,"is_disabled":false,"rental_uris":{"android":"levelo://app?vid=143434d9-c66a-4f6f-95e1-671fee3703ec","ios":"levelo://app?vid=143434d9-c66a-4f6f-95e1-671fee3703ec"},"vehicle_type_id":"4","last_reported":1748934678,"current_range_meters":20000,"station_id":"","pricing_plan_id":"cebpf4jnsgd1na2vs0mg"},{"bike_id":"7872b429-0db4-46fa-b299-c99582846ddf","system_id":"levelo_inurba_marseille","lat":43.29919,"lon":5.3748,"is_reserved":false,"is_disabled":false,"rental_uris":{"android":"levelo://app?vid=7872b429-0db4-46fa-b299-c99582846ddf","ios":"levelo://app?vid=7872b429-0db4-46fa-b299-c99582846ddf"},"vehicle_type_id":"4","last_reported":1748934678,"current_range_meters":20000,"station_id":"ce4bgjh2rcd13ifvqbg0","pricing_plan_id":"cebpf4jnsgd1na2vs0mg"},{"bike_id":"2ada84cd-e2e4-47e4-9d3f-709500b23079","system_id":"levelo_inurba_marseille","lat":43.26193,"lon":5.37449,"is_reserved":false,"is_disabled":false,"rental_uris":{"android":"levelo://app?vid=2ada84cd-e2e4-47e4-9d3f-709500b23079","ios":"levelo://app?vid=2ada84cd-e2e4-47e4-9d3f-709500b23079"},"vehicle_type_id":"4","last_reported":1748934678,"current_range_meters":20000,"station_id":"ce4bhgp2rcd13ifvqfc0","pricing_plan_id":"cebpf4jnsgd1na2vs0mg"},{"bike_id":"a0adc4eb-5846-4a17-89b5-faecb211fef4","system_id":"levelo_inurba_marseille","lat":43.25865,"lon":5.3991,"is_reserved":false,"is_disabled":false,"rental_uris":{"android":"levelo://app?vid=a0adc4eb-5846-4a17-89b5-faecb211fef4","ios":"levelo://app?vid=a0adc4eb-5846-4a17-89b5-faecb211fef4"},"vehicle_type_id":"4","last_reported":1748934678,"current_range_meters":20000,"station_id":"ce4bhl92rcd13ifvqghg","pricing_plan_id":"cebpf4jnsgd1na2vs0mg"},{"bike_id":"ceb1816b-c7e3-4924-824e-780e5d9cb515","system_id":"levelo_inurba_marseille","lat":43.251086,"lon":5.403342,"is_reserved":false,"is_disabled":false,"rental_uris":{"android":"levelo://app?vid=ceb1816b-c7e3-4924-824e-780e5d9cb515","ios":"levelo://app?vid=ceb1816b-c7e3-4924-824e-780e5d9cb515"},"vehicle_type_id":"4","last_reported":1748934678,"current_range_meters":20000,"station_id":"ce4bhlh2rcd13ifvqgig","pricing_plan_id":"cebpf4jnsgd1na2vs0mg"},{"bike_id":"b51b1db2-9b2e-49e8-b205-a71387b379e5","system_id":"levelo_inurba_marseille","lat":43.259367,"lon":5.408993,"is_reserved":false,"is_disabled":false,"rental_uris":{"android":"levelo://app?vid=b51b1db2-9b2e-49e8-b205-a71387b379e5","ios":"levelo://app?vid=b51b1db2-9b2e-49e8-b205-a71387b379e5"},"vehicle_type_id":"4","last_reported":1748934678,"current_range_meters":20000,"station_id":"ce4bhm92rcd13ifvqglg","pricing_plan_id":"cebpf4jnsgd1na2vs0mg"},{"bike_id":"cba6c288-7603-41a8-92a6-e8587baf262b","system_id":"levelo_inurba_marseille","lat":43.33732,"lon":5.39192,"is_reserved":false,"is_disabled":false,"rental_uris":{"android":"levelo://app?vid=cba6c288-7603-41a8-92a6-e8587baf262b","ios":"levelo://app?vid=cba6c288-7603-41a8-92a6-e8587baf262b"},"vehicle_type_id":"4","last_reported":1748934678,"current_range_meters":20000,"station_id":"ce4bhr92rcd13ifvqhsg","pricing_plan_id":"cebpf4jnsgd1na2vs0mg"},{"bike_id":"34b7e1b4-c575-42aa-8b50-351efdd5d94b","system_id":"levelo_inurba_marseille","lat":43.30213,"lon":5.4375,"is_reserved":false,"is_disabled":false,"rental_uris":{"android":"levelo://app?vid=34b7e1b4-c575-42aa-8b50-351efdd5d94b","ios":"levelo://app?vid=34b7e1b4-c575-42aa-8b50-351efdd5d94b"},"vehicle_type_id":"4","last_reported":1748934678,"current_range_meters":20400,"station_id":"","pricing_plan_id":"cebpf4jnsgd1na2vs0mg"},{"bike_id":"2aded04a-397e-4bac-ad97-190ef70931da","system_id":"levelo_inurba_marseille","lat":43.2981,"lon":5.38241,"is_reserved":false,"is_disabled":false,"rental_uris":{"android":"levelo://app?vid=2aded04a-397e-4bac-ad97-190ef70931da","ios":"levelo://app?vid=2aded04a-397e-4bac-ad97-190ef70931da"},"vehicle_type_id":"4","last_reported":1748934678,"current_range_meters":20400,"station_id":"","pricing_plan_id":"cebpf4jnsgd1na2vs0mg"},{"bike_id":"0d3e580c-a425-440c-98d4-cfc4dcbc1afc","system_id":"levelo_inurba_marseille","lat":43.29706,"lon":5.37709,"is_reserved":false,"is_disabled":false,"rental_uris":{"android":"levelo://app?vid=0d3e580c-a425-440c-98d4-cfc4dcbc1afc","ios":"levelo://app?vid=0d3e580c-a425-440c-98d4-cfc4dcbc1afc"},"vehicle_type_id":"4","last_reported":1748934678,"current_range_meters":20400,"station_id":"ce4bgkh2rcd13ifvqbl0","pricing_plan_id":"cebpf4jnsgd1na2vs0mg"},{"bike_id":"b000afaf-fc36-4206-885e-e443e7375706","system_id":"levelo_inurba_marseille","lat":43.31222,"lon":5.36854,"is_reserved":false,"is_disabled":false,"rental_uris":{"android":"levelo://app?vid=b000afaf-fc36-4206-885e-e443e7375706","ios":"levelo://app?vid=b000afaf-fc36-4206-885e-e443e7375706"},"vehicle_type_id":"4","last_reported":1748934678,"current_range_meters":20400,"station_id":"ce4bgl92rcd13ifvqbq0","pricing_plan_id":"cebpf4jnsgd1na2vs0mg"},{"bike_id":"153a7c82-16f9-4816-bc37-c87ef055d462","system_id":"levelo_inurba_marseille","lat":43.30542,"lon":5.36544,"is_reserved":false,"is_disabled":false,"rental_uris":{"android":"levelo://app?vid=153a7c82-16f9-4816-bc37-c87ef055d462","ios":"levelo://app?vid=153a7c82-16f9-4816-bc37-c87ef055d462"},"vehicle_type_id":"4","last_reported":1748934678,"current_range_meters":20400,"station_id":"ce4bgs12rcd13ifvqcag","pricing_plan_id":"cebpf4jnsgd1na2vs0mg"},{"bike_id":"97152c23-9227-41e5-8e81-1440381cfeac","system_id":"levelo_inurba_marseille","lat":43.311656,"lon":5.387215,"is_reserved":false,"is_disabled":false,"rental_uris":{"android":"levelo://app?vid=97152c23-9227-41e5-8e81-1440381cfeac","ios":"levelo://app?vid=97152c23-9227-41e5-8e81-1440381cfeac"},"vehicle_type_id":"4","last_reported":1748934678,"current_range_meters":20400,"station_id":"ce4bgv12rcd13ifvqcp0","pricing_plan_id":"cebpf4jnsgd1na2vs0mg"},{"bike_id":"4ca01b7f-f941-4994-b984-e544190d4f6a","system_id":"levelo_inurba_marseille","lat":43.28046,"lon":5.369297,"is_reserved":false,"is_disabled":false,"rental_uris":{"android":"levelo://app?vid=4ca01b7f-f941-4994-b984-e544190d4f6a","ios":"levelo://app?vid=4ca01b7f-f941-4994-b984-e544190d4f6a"},"vehicle_type_id":"4","last_reported":1748934678,"current_range_meters":20400,"station_id":"ce4bha12rcd13ifvqef0","pricing_plan_id":"cebpf4jnsgd1na2vs0mg"},{"bike_id":"a926804c-ad76-4455-8a56-89085f2b7a0a","system_id":"levelo_inurba_marseille","lat":43.287105,"lon":5.379377,"is_reserved":false,"is_disabled":false,"rental_uris":{"android":"levelo://app?vid=a926804c-ad76-4455-8a56-89085f2b7a0a","ios":"levelo://app?vid=a926804c-ad76-4455-8a56-89085f2b7a0a"},"vehicle_type_id":"4","last_reported":1748934678,"current_range_meters":20400,"station_id":"ce4bhgp2rcd13ifvqfe0","pricing_plan_id":"cebpf4jnsgd1na2vs0mg"},{"bike_id":"06d405e9-0312-4d96-99c3-850c50d891c6","system_id":"levelo_inurba_marseille","lat":43.3254,"lon":5.41443,"is_reserved":false,"is_disabled":false,"rental_uris":{"android":"levelo://app?vid=06d405e9-0312-4d96-99c3-850c50d891c6","ios":"levelo://app?vid=06d405e9-0312-4d96-99c3-850c50d891c6"},"vehicle_type_id":"4","last_reported":1748934678,"current_range_meters":20400,"station_id":"ce4bhq12rcd13ifvqhhg","pricing_plan_id":"cebpf4jnsgd1na2vs0mg"},{"bike_id":"75b02700-ce78-48bd-a917-760161c62bfe","system_id":"levelo_inurba_marseille","lat":43.33608,"lon":5.41037,"is_reserved":false,"is_disabled":false,"rental_uris":{"android":"levelo://app?vid=75b02700-ce78-48bd-a917-760161c62bfe","ios":"levelo://app?vid=75b02700-ce78-48bd-a917-760161c62bfe"},"vehicle_type_id":"4","last_reported":1748934678,"current_range_meters":20400,"station_id":"ce4bhqh2rcd13ifvqhmg","pricing_plan_id":"cebpf4jnsgd1na2vs0mg"},{"bike_id":"417ce22f-2c54-4917-9f39-1b68f42232e8","system_id":"levelo_inurba_marseille","lat":43.31752,"lon":5.39018,"is_reserved":false,"is_disabled":false,"rental_uris":{"android":"levelo://app?vid=417ce22f-2c54-4917-9f39-1b68f42232e8","ios":"levelo://app?vid=417ce22f-2c54-4917-9f39-1b68f42232e8"},"vehicle_type_id":"4","last_reported":1748934678,"current_range_meters":20400,"station_id":"ce4bhqp2rcd13ifvqhng","pricing_plan_id":"cebpf4jnsgd1na2vs0mg"},{"bike_id":"4dd90fe0-496f-4cdd-b1ae-d82718f691e0","system_id":"levelo_inurba_marseille","lat":43.27906,"lon":5.42272,"is_reserved":false,"is_disabled":false,"rental_uris":{"android":"levelo://app?vid=4dd90fe0-496f-4cdd-b1ae-d82718f691e0","ios":"levelo://app?vid=4dd90fe0-496f-4cdd-b1ae-d82718f691e0"},"vehicle_type_id":"4","last_reported":1748934678,"current_range_meters":20800,"station_id":"","pricing_plan_id":"cebpf4jnsgd1na2vs0mg"},{"bike_id":"da99b291-6dad-41db-a290-41bb4575d1b3","system_id":"levelo_inurba_marseille","lat":43.30303,"lon":5.36905,"is_reserved":false,"is_disabled":false,"rental_uris":{"android":"levelo://app?vid=da99b291-6dad-41db-a290-41bb4575d1b3","ios":"levelo://app?vid=da99b291-6dad-41db-a290-41bb4575d1b3"},"vehicle_type_id":"4","last_reported":1748934678,"current_range_meters":20800,"station_id":"ce4bgqh2rcd13ifvqc5g","pricing_plan_id":"cebpf4jnsgd1na2vs0mg"},{"bike_id":"baa46a0d-4762-46c3-9ccc-7a85ba696a51","system_id":"levelo_inurba_marseille","lat":43.3134,"lon":5.36726,"is_reserved":false,"is_disabled":false,"rental_uris":{"android":"levelo://app?vid=baa46a0d-4762-46c3-9ccc-7a85ba696a51","ios":"levelo://app?vid=baa46a0d-4762-46c3-9ccc-7a85ba696a51"},"vehicle_type_id":"4","last_reported":1748934678,"current_range_meters":20800,"station_id":"ce4bgr92rcd13ifvqc6g","pricing_plan_id":"cebpf4jnsgd1na2vs0mg"},{"bike_id":"e8450607-4614-4397-ba52-996c87141c76","system_id":"levelo_inurba_marseille","lat":43.29043,"lon":5.39953,"is_reserved":false,"is_disabled":false,"rental_uris":{"android":"levelo://app?vid=e8450607-4614-4397-ba52-996c87141c76","ios":"levelo://app?vid=e8450607-4614-4397-ba52-996c87141c76"},"vehicle_type_id":"4","last_reported":1748934678,"current_range_meters":20800,"station_id":"ce4bh392rcd13ifvqdm0","pricing_plan_id":"cebpf4jnsgd1na2vs0mg"},{"bike_id":"a11ea1a8-2e68-484b-8edf-fe757e754272","system_id":"levelo_inurba_marseille","lat":43.278164,"lon":5.407231,"is_reserved":false,"is_disabled":false,"rental_uris":{"android":"levelo://app?vid=a11ea1a8-2e68-484b-8edf-fe757e754272","ios":"levelo://app?vid=a11ea1a8-2e68-484b-8edf-fe757e754272"},"vehicle_type_id":"4","last_reported":1748934678,"current_range_meters":20800,"station_id":"ce4bhnh2rcd13ifvqgtg","pricing_plan_id":"cebpf4jnsgd1na2vs0mg"},{"bike_id":"0f72fe9f-07d8-43fd-b97f-9c25fa4a4c66","system_id":"levelo_inurba_marseille","lat":43.30899,"lon":5.36837,"is_reserved":false,"is_disabled":false,"rental_uris":{"android":"levelo://app?vid=0f72fe9f-07d8-43fd-b97f-9c25fa4a4c66","ios":"levelo://app?vid=0f72fe9f-07d8-43fd-b97f-9c25fa4a4c66"},"vehicle_type_id":"4","last_reported":1748934678,"current_range_meters":21600,"station_id":"ce4bgn92rcd13ifvqbvg","pricing_plan_id":"cebpf4jnsgd1na2vs0mg"},{"bike_id":"92142b43-a631-40f8-9276-9dc07bcbcd27","system_id":"levelo_inurba_marseille","lat":43.305908,"lon":5.372246,"is_reserved":false,"is_disabled":false,"rental_uris":{"android":"levelo://app?vid=92142b43-a631-40f8-9276-9dc07bcbcd27","ios":"levelo://app?vid=92142b43-a631-40f8-9276-9dc07bcbcd27"},"vehicle_type_id":"4","last_reported":1748934678,"current_range_meters":21600,"station_id":"ce4bgqh2rcd13ifvqc4g","pricing_plan_id":"cebpf4jnsgd1na2vs0mg"},{"bike_id":"249ec9e0-91c7-4ae5-b237-e2197025b58a","system_id":"levelo_inurba_marseille","lat":43.31343,"lon":5.36719,"is_reserved":false,"is_disabled":false,"rental_uris":{"android":"levelo://app?vid=249ec9e0-91c7-4ae5-b237-e2197025b58a","ios":"levelo://app?vid=249ec9e0-91c7-4ae5-b237-e2197025b58a"},"vehicle_type_id":"4","last_reported":1748934678,"current_range_meters":21600,"station_id":"ce4bgr92rcd13ifvqc6g","pricing_plan_id":"cebpf4jnsgd1na2vs0mg"},{"bike_id":"203b951d-7233-481f-ac78-166d5cb5e3a0","system_id":"levelo_inurba_marseille","lat":43.24176,"lon":5.39717,"is_reserved":false,"is_disabled":false,"rental_uris":{"android":"levelo://app?vid=203b951d-7233-481f-ac78-166d5cb5e3a0","ios":"levelo://app?vid=203b951d-7233-481f-ac78-166d5cb5e3a0"},"vehicle_type_id":"4","last_reported":1748934678,"current_range_meters":21600,"station_id":"ce4bhn12rcd13ifvqgpg","pricing_plan_id":"cebpf4jnsgd1na2vs0mg"},{"bike_id":"cc8e4bf3-8319-497a-9448-94532012e874","system_id":"levelo_inurba_marseille","lat":43.27495,"lon":5.424623,"is_reserved":false,"is_disabled":false,"rental_uris":{"android":"levelo://app?vid=cc8e4bf3-8319-497a-9448-94532012e874","ios":"levelo://app?vid=cc8e4bf3-8319-497a-9448-94532012e874"},"vehicle_type_id":"4","last_reported":1748934678,"current_range_meters":21600,"station_id":"ce4bhn92rcd13ifvqgrg","pricing_plan_id":"cebpf4jnsgd1na2vs0mg"},{"bike_id":"5d8fbf6d-91c4-4527-8d9f-b6faee355b08","system_id":"levelo_inurba_marseille","lat":43.29892,"lon":5.43678,"is_reserved":false,"is_disabled":false,"rental_uris":{"android":"levelo://app?vid=5d8fbf6d-91c4-4527-8d9f-b6faee355b08","ios":"levelo://app?vid=5d8fbf6d-91c4-4527-8d9f-b6faee355b08"},"vehicle_type_id":"4","last_reported":1748934678,"current_range_meters":21600,"station_id":"ce4bhpp2rcd13ifvqhfg","pricing_plan_id":"cebpf4jnsgd1na2vs0mg"},{"bike_id":"d892feee-9a18-401d-b625-06d8fd444321","system_id":"levelo_inurba_marseille","lat":43.30563,"lon":5.36669,"is_reserved":false,"is_disabled":false,"rental_uris":{"android":"levelo://app?vid=d892feee-9a18-401d-b625-06d8fd444321","ios":"levelo://app?vid=d892feee-9a18-401d-b625-06d8fd444321"},"vehicle_type_id":"4","last_reported":1748934678,"current_range_meters":22000,"station_id":"","pricing_plan_id":"cebpf4jnsgd1na2vs0mg"},{"bike_id":"bd15d3c1-5fc5-4006-9923-c4638e3da994","system_id":"levelo_inurba_marseille","lat":43.301075,"lon":5.371115,"is_reserved":false,"is_disabled":false,"rental_uris":{"android":"levelo://app?vid=bd15d3c1-5fc5-4006-9923-c4638e3da994","ios":"levelo://app?vid=bd15d3c1-5fc5-4006-9923-c4638e3da994"},"vehicle_type_id":"4","last_reported":1748934678,"current_range_meters":22000,"station_id":"","pricing_plan_id":"cebpf4jnsgd1na2vs0mg"},{"bike_id":"2e5181cd-e81c-49f1-9367-38759898d7ce","system_id":"levelo_inurba_marseille","lat":43.312229,"lon":5.368651,"is_reserved":false,"is_disabled":false,"rental_uris":{"android":"levelo://app?vid=2e5181cd-e81c-49f1-9367-38759898d7ce","ios":"levelo://app?vid=2e5181cd-e81c-49f1-9367-38759898d7ce"},"vehicle_type_id":"4","last_reported":1748934678,"current_range_meters":22000,"station_id":"ce4bgl92rcd13ifvqbq0","pricing_plan_id":"cebpf4jnsgd1na2vs0mg"},{"bike_id":"a684ff2e-acd2-427b-87a5-d628bd099c06","system_id":"levelo_inurba_marseille","lat":43.3136,"lon":5.36688,"is_reserved":false,"is_disabled":false,"rental_uris":{"android":"levelo://app?vid=a684ff2e-acd2-427b-87a5-d628bd099c06","ios":"levelo://app?vid=a684ff2e-acd2-427b-87a5-d628bd099c06"},"vehicle_type_id":"4","last_reported":1748934678,"current_range_meters":22000,"station_id":"ce4bgr92rcd13ifvqc6g","pricing_plan_id":"cebpf4jnsgd1na2vs0mg"},{"bike_id":"4f4b5e49-0fec-4d12-a698-474343e4bbb0","system_id":"levelo_inurba_marseille","lat":43.284655,"lon":5.358894,"is_reserved":false,"is_disabled":false,"rental_uris":{"android":"levelo://app?vid=4f4b5e49-0fec-4d12-a698-474343e4bbb0","ios":"levelo://app?vid=4f4b5e49-0fec-4d12-a698-474343e4bbb0"},"vehicle_type_id":"4","last_reported":1748934678,"current_range_meters":22000,"station_id":"ce4bhah2rcd13ifvqei0","pricing_plan_id":"cebpf4jnsgd1na2vs0mg"},{"bike_id":"834ed25b-18cb-49a5-acd4-f49727893f74","system_id":"levelo_inurba_marseille","lat":43.24179,"lon":5.39731,"is_reserved":false,"is_disabled":false,"rental_uris":{"android":"levelo://app?vid=834ed25b-18cb-49a5-acd4-f49727893f74","ios":"levelo://app?vid=834ed25b-18cb-49a5-acd4-f49727893f74"},"vehicle_type_id":"4","last_reported":1748934678,"current_range_meters":22000,"station_id":"ce4bhn12rcd13ifvqgpg","pricing_plan_id":"cebpf4jnsgd1na2vs0mg"},{"bike_id":"242dd9ad-391b-48c1-bf2b-54dee401d2c8","system_id":"levelo_inurba_marseille","lat":43.3063,"lon":5.39431,"is_reserved":false,"is_disabled":false,"rental_uris":{"android":"levelo://app?vid=242dd9ad-391b-48c1-bf2b-54dee401d2c8","ios":"levelo://app?vid=242dd9ad-391b-48c1-bf2b-54dee401d2c8"},"vehicle_type_id":"4","last_reported":1748934678,"current_range_meters":22400,"station_id":"","pricing_plan_id":"cebpf4jnsgd1na2vs0mg"},{"bike_id":"e4522a4d-d806-4630-a495-da802e5dc846","system_id":"levelo_inurba_marseille","lat":43.3122,"lon":5.36856,"is_reserved":false,"is_disabled":false,"rental_uris":{"android":"levelo://app?vid=e4522a4d-d806-4630-a495-da802e5dc846","ios":"levelo://app?vid=e4522a4d-d806-4630-a495-da802e5dc846"},"vehicle_type_id":"4","last_reported":1748934678,"current_range_meters":22400,"station_id":"ce4bgl92rcd13ifvqbq0","pricing_plan_id":"cebpf4jnsgd1na2vs0mg"},