{"last_updated":1759065286,"ttl":60,"version":"2.2","data":{"bikes":[{"bike_id":"549e50b8-1a34-4b81-b2d2-12c88949b594","system_id":"levelo_inurba_marseille","lat":43.246526,"lon":5.38892,"is_reserved":false,"is_disabled":false,"rental_uris":{"android":"levelo://app?vid=549e50b8-1a34-4b81-b2d2-12c88949b594","ios":"levelo://app?vid=549e50b8-1a34-4b81-b2d2-12c88949b594"},"vehicle_type_id":"4","last_reported":1759065286,"current_range_meters":2000,"station_id":"ce4bhg12rcd13ifvqf60","pricing_plan_id":"cebpf4jnsgd1na2vs0mg"},{"bike_id":"999ad493-2a46-4f3b-90d2-1d6daaa15e57","system_id":"levelo_inurba_marseille","lat":43.29981,"lon":5.38473,"is_reserved":false,"is_disabled":false,"rental_uris":{"android":"levelo://app?vid=999ad493-2a46-4f3b-90d2-1d6daaa15e57","ios":"levelo://app?vid=999ad493-2a46-4f3b-90d2-1d6daaa15e57"},"vehicle_type_id":"4","last_reported":1759065286,"current_range_meters":2000,"station_id":"ce4bgj92rcd13ifvqbd0","pricing_plan_id":"cebpf4jnsgd1na2vs0mg"},{"bike_id":"af5b7fdf-6b71-4411-b11f-406ea44ecb80","system_id":"levelo_inurba_marseille","lat":43.24158,"lon":5.36376,"is_reserved":false,"is_disabled":true,"rental_uris":{"android":"levelo://app?vid=af5b7fdf-6b71-4411-b11f-406ea44ecb80","ios":"levelo://app?vid=af5b7fdf-6b71-4411-b11f-406ea44ecb80"},"vehicle_type_id":"4","last_reported":1759065286,"current_range_meters":2800,"station_id":"cpo36qri1sfpv3e86is0","pricing_plan_id":"cebpf4jnsgd1na2vs0mg"},{"bike_id":"1da7f463-be15-4efc-8593-aee0f0ac0120","system_id":"levelo_inurba_marseille","lat":43.28407,"lon":5.34972,"is_reserved":false,"is_disabled":false,"rental_uris":{"android":"levelo://app?vid=1da7f463-be15-4efc-8593-aee0f0ac0120","ios":"levelo://app?vid=1da7f463-be15-4efc-8593-aee0f0ac0120"},"vehicle_type_id":"4","last_reported":1759065286,"current_range_meters":2800,"station_id":"ce4bhbh2rcd13ifvqepg","pricing_plan_id":"cebpf4jnsgd1na2vs0mg"},{"bike_id":"9a819dc8-447d-4df7-8b5f-0b18332a26a7","system_id":"levelo_inurba_marseille","lat":43.32954,"lon":5.37632,"is_reserved":false,"is_disabled":false,"rental_uris":{"android":"levelo://app?vid=9a819dc8-447d-4df7-8b5f-0b18332a26a7","ios":"levelo://app?vid=9a819dc8-447d-4df7-8b5f-0b18332a26a7"},"vehicle_type_id":"4","last_reported":1759065286,"current_range_meters":2800,"station_id":"","pricing_plan_id":"cebpf4jnsgd1na2vs0mg"},{"bike_id":"83bdb11f-14eb-494d-90ab-ed3acb7bbbce","system_id":"levelo_inurba_marseille","lat":43.29946,"lon":5.36546,"is_reserved":false,"is_disabled":false,"rental_uris":{"android":"levelo://app?vid=83bdb11f-14eb-494d-90ab-ed3acb7bbbce","ios":"levelo://app?vid=83bdb11f-14eb-494d-90ab-ed3acb7bbbce"},"vehicle_type_id":"4","last_reported":1759065286,"current_range_meters":3200,"station_id":"ce4bgm92rcd13ifvqbr0","pricing_plan_id":"cebpf4jnsgd1na2vs0mg"},{"bike_id":"565ce595-d956-49f6-a6bc-7a74cba921ca","system_id":"levelo_inurba_marseille","lat":43.283509,"lon":5.381035,"is_reserved":false,"is_disabled":false,"rental_uris":{"android":"levelo://app?vid=565ce595-d956-49f6-a6bc-7a74cba921ca","ios":"levelo://app?vid=565ce595-d956-49f6-a6bc-7a74cba921ca"},"vehicle_type_id":"4","last_reported":1759065286,"current_range_meters":3200,"station_id":"ce4bh412rcd13ifvqdr0","pricing_plan_id":"cebpf4jnsgd1na2vs0mg"},{"bike_id":"588bb5c6-d90f-4edd-b1de-2d2164a39c00","system_id":"levelo_inurba_marseille","lat":43.32668,"lon":5.3916,"is_reserved":false,"is_disabled":true,"rental_uris":{"android":"levelo://app?vid=588bb5c6-d90f-4edd-b1de-2d2164a39c00","ios":"levelo://app?vid=588bb5c6-d90f-4edd-b1de-2d2164a39c00"},"vehicle_type_id":"4","last_reported":1759065286,"current_range_meters":3200,"station_id":"","pricing_plan_id":"cebpf4jnsgd1na2vs0mg"},{"bike_id":"7848e598-4ca7-479c-9c71-3a77e6143401","system_id":"levelo_inurba_marseille","lat":43.29919,"lon":5.3749,"is_reserved":false,"is_disabled":false,"rental_uris":{"android":"levelo://app?vid=7848e598-4ca7-479c-9c71-3a77e6143401","ios":"levelo://app?vid=7848e598-4ca7-479c-9c71-3a77e6143401"},"vehicle_type_id":"4","last_reported":1759065286,"current_range_meters":3200,"station_id":"ce4bgjh2rcd13ifvqbg0","pricing_plan_id":"cebpf4jnsgd1na2vs0mg"},{"bike_id":"56a8eaec-539c-4d2e-868c-36f116e684d0","system_id":"levelo_inurba_marseille","lat":43.231899,"lon":5.355505,"is_reserved":false,"is_disabled":false,"rental_uris":{"android":"levelo://app?vid=56a8eaec-539c-4d2e-868c-36f116e684d0","ios":"levelo://app?vid=56a8eaec-539c-4d2e-868c-36f116e684d0"},"vehicle_type_id":"4","last_reported":1759065286,"current_range_meters":3200,"station_id":"ce4bhu92rcd13ifvqi70","pricing_plan_id":"cebpf4jnsgd1na2vs0mg"},{"bike_id":"4b60d35d-2a84-4bf1-8b9d-74b488543afa","system_id":"levelo_inurba_marseille","lat":43.29255,"lon":5.3762,"is_reserved":false,"is_disabled":false,"rental_uris":{"android":"levelo://app?vid=4b60d35d-2a84-4bf1-8b9d-74b488543afa","ios":"levelo://app?vid=4b60d35d-2a84-4bf1-8b9d-74b488543afa"},"vehicle_type_id":"4","last_reported":1759065286,"current_range_meters":3600,"station_id":"ce4bgi12rcd13ifvqb80","pricing_plan_id":"cebpf4jnsgd1na2vs0mg"},{"bike_id":"f2b2065e-6167-4876-833e-d66a5f104019","system_id":"levelo_inurba_marseille","lat":43.250824,"lon":5.395305,"is_reserved":false,"is_disabled":false,"rental_uris":{"android":"levelo://app?vid=f2b2065e-6167-4876-833e-d66a5f104019","ios":"levelo://app?vid=f2b2065e-6167-4876-833e-d66a5f104019"},"vehicle_type_id":"4","last_reported":1759065286,"current_range_meters":3600,"station_id":"ce4bhm12rcd13ifvqgkg","pricing_plan_id":"cebpf4jnsgd1na2vs0mg"},{"bike_id":"9ed9de65-672a-40ad-b469-4b4dbf2ed5b3","system_id":"levelo_inurba_marseille","lat":43.2418,"lon":5.39719,"is_reserved":false,"is_disabled":false,"rental_uris":{"android":"levelo://app?vid=9ed9de65-672a-40ad-b469-4b4dbf2ed5b3","ios":"levelo://app?vid=9ed9de65-672a-40ad-b469-4b4dbf2ed5b3"},"vehicle_type_id":"4","last_reported":1759065286,"current_range_meters":3600,"station_id":"ce4bhn12rcd13ifvqgpg","pricing_plan_id":"cebpf4jnsgd1na2vs0mg"},{"bike_id":"0d71a786-5705-407f-a635-045a7629c3ef","system_id":"levelo_inurba_marseille","lat":43.21747,"lon":5.34606,"is_reserved":false,"is_disabled":false,"rental_uris":{"android":"levelo://app?vid=0d71a786-5705-407f-a635-045a7629c3ef","ios":"levelo://app?vid=0d71a786-5705-407f-a635-045a7629c3ef"},"vehicle_type_id":"4","last_reported":1759065286,"current_range_meters":3600,"station_id":"st_cvj6r9ubvosntc0bgbag","pricing_plan_id":"cebpf4jnsgd1na2vs0mg"},{"bike_id":"a609d160-7256-4c43-a951-9374f9a10817","system_id":"levelo_inurba_marseille","lat":43.29895,"lon":5.43662,"is_reserved":false,"is_disabled":false,"rental_uris":{"android":"levelo://app?vid=a609d160-7256-4c43-a951-9374f9a10817","ios":"levelo://app?vid=a609d160-7256-4c43-a951-9374f9a10817"},"vehicle_type_id":"4","last_reported":1759065286,"current_range_meters":3600,"station_id":"ce4bhpp2rcd13ifvqhfg","pricing_plan_id":"cebpf4jnsgd1na2vs0mg"},{"bike_id":"42c4078e-b304-4f20-9895-277bd46d735e","system_id":"levelo_inurba_marseille","lat":43.27192,"lon":5.39191,"is_reserved":false,"is_disabled":false,"rental_uris":{"android":"levelo://app?vid=42c4078e-b304-4f20-9895-277bd46d735e","ios":"levelo://app?vid=42c4078e-b304-4f20-9895-277bd46d735e"},"vehicle_type_id":"4","last_reported":1759065286,"current_range_meters":4000,"station_id":"ce4bhhp2rcd13ifvqfm0","pricing_plan_id":"cebpf4jnsgd1na2vs0mg"},{"bike_id":"7a527e81-e634-4a1c-8db5-fec811c7cb96","system_id":"levelo_inurba_marseille","lat":43.25323,"lon":5.42163,"is_reserved":false,"is_disabled":false,"rental_uris":{"android":"levelo://app?vid=7a527e81-e634-4a1c-8db5-fec811c7cb96","ios":"levelo://app?vid=7a527e81-e634-4a1c-8db5-fec811c7cb96"},"vehicle_type_id":"4","last_reported":1759065286,"current_range_meters":4000,"station_id":"st_d2m65c5bi1j21697t3ng","pricing_plan_id":"cebpf4jnsgd1na2vs0mg"},{"bike_id":"a639c491-c436-478a-8d5d-bd2c30b918ff","system_id":"levelo_inurba_marseille","lat":43.29752,"lon":5.37202,"is_reserved":false,"is_disabled":false,"rental_uris":{"android":"levelo://app?vid=a639c491-c436-478a-8d5d-bd2c30b918ff","ios":"levelo://app?vid=a639c491-c436-478a-8d5d-bd2c30b918ff"},"vehicle_type_id":"4","last_reported":1759065286,"current_range_meters":4000,"station_id":"","pricing_plan_id":"cebpf4jnsgd1na2vs0mg"},{"bike_id":"d9bcd853-d182-4bf2-b101-4527d57fec14","system_id":"levelo_inurba_marseille","lat":43.21188,"lon":5.35079,"is_reserved":false,"is_disabled":false,"rental_uris":{"android":"levelo://app?vid=d9bcd853-d182-4bf2-b101-4527d57fec14","ios":"levelo://app?vid=d9bcd853-d182-4bf2-b101-4527d57fec14"},"vehicle_type_id":"4","last_reported":1759065286,"current_range_meters":4400,"station_id":"","pricing_plan_id":"cebpf4jnsgd1na2vs0mg"},{"bike_id":"567c2e0b-ce3b-4789-b916-5f9b50da52fc","system_id":"levelo_inurba_marseille","lat":43.30548,"lon":5.36532,"is_reserved":false,"is_disabled":false,"rental_uris":{"android":"levelo://app?vid=567c2e0b-ce3b-4789-b916-5f9b50da52fc","ios":"levelo://app?vid=567c2e0b-ce3b-4789-b916-5f9b50da52fc"},"vehicle_type_id":"4","last_reported":1759065286,"current_range_meters":4400,"station_id":"ce4bgs12rcd13ifvqcag","pricing_plan_id":"cebpf4jnsgd1na2vs0mg"},{"bike_id":"376c2da2-657f-4b4c-9cca-9b3a0399eb8c","system_id":"levelo_inurba_marseille","lat":43.23961,"lon":5.36637,"is_reserved":false,"is_disabled":false,"rental_uris":{"android":"levelo://app?vid=376c2da2-657f-4b4c-9cca-9b3a0399eb8c","ios":"levelo://app?vid=376c2da2-657f-4b4c-9cca-9b3a0399eb8c"},"vehicle_type_id":"4","last_reported":1759065286,"current_range_meters":4400,"station_id":"ce4bhi12rcd13ifvqfp0","pricing_plan_id":"cebpf4jnsgd1na2vs0mg"},{"bike_id":"df2b5e27-a58b-4eeb-a90f-2e56411dc92d","system_id":"levelo_inurba_marseille","lat":43.31721,"lon":5.42416,"is_reserved":false,"is_disabled":false,"rental_uris":{"android":"levelo://app?vid=df2b5e27-a58b-4eeb-a90f-2e56411dc92d","ios":"levelo://app?vid=df2b5e27-a58b-4eeb-a90f-2e56411dc92d"},"vehicle_type_id":"4","last_reported":1759065286,"current_range_meters":4400,"station_id":"ce4bhp92rcd13ifvqhbg","pricing_plan_id":"cebpf4jnsgd1na2vs0mg"},{"bike_id":"d7cb2dee-4729-4e81-a6d7-db25211579cb","system_id":"levelo_inurba_marseille","lat":43.28413,"lon":5.34973,"is_reserved":false,"is_disabled":false,"rental_uris":{"android":"levelo://app?vid=d7cb2dee-4729-4e81-a6d7-db25211579cb","ios":"levelo://app?vid=d7cb2dee-4729-4e81-a6d7-db25211579cb"},"vehicle_type_id":"4","last_reported":1759065286,"current_range_meters":4400,"station_id":"ce4bhbh2rcd13ifvqepg","pricing_plan_id":"cebpf4jnsgd1na2vs0mg"},{"bike_id":"710afc9d-f327-4edf-9cc6-1daf66cca427","system_id":"levelo_inurba_marseille","lat":43.28612,"lon":5.35109,"is_reserved":false,"is_disabled":false,"rental_uris":{"android":"levelo://app?vid=710afc9d-f327-4edf-9cc6-1daf66cca427","ios":"levelo://app?vid=710afc9d-f327-4edf-9cc6-1daf66cca427"},"vehicle_type_id":"4","last_reported":1759065286,"current_range_meters":4400,"station_id":"ce4bhch2rcd13ifvqeug","pricing_plan_id":"cebpf4jnsgd1na2vs0mg"},{"bike_id":"6266bc05-bd87-4f31-b9c7-2b15c535a109","system_id":"levelo_inurba_marseille","lat":43.2827,"lon":5.35054,"is_reserved":false,"is_disabled":true,"rental_uris":{"android":"levelo://app?vid=6266bc05-bd87-4f31-b9c7-2b15c535a109","ios":"levelo://app?vid=6266bc05-bd87-4f31-b9c7-2b15c535a109"},"vehicle_type_id":"4","last_reported":1759065286,"current_range_meters":4400,"station_id":"ce4bhbp2rcd13ifvqerg","pricing_plan_id":"cebpf4jnsgd1na2vs0mg"},{"bike_id":"2ab688d1-a84d-44dc-84f9-90e801045290","system_id":"levelo_inurba_marseille","lat":43.29621,"lon":5.37169,"is_reserved":false,"is_disabled":false,"rental_uris":{"android":"levelo://app?vid=2ab688d1-a84d-44dc-84f9-90e801045290","ios":"levelo://app?vid=2ab688d1-a84d-44dc-84f9-90e801045290"},"vehicle_type_id":"4","last_reported":1759065286,"current_range_meters":4000,"station_id":"ce4bgnh2rcd13ifvqc0g","pricing_plan_id":"cebpf4jnsgd1na2vs0mg"},{"bike_id":"b498739b-f24a-4e47-944f-52f3b565e2e9","system_id":"levelo_inurba_marseille","lat":43.28616,"lon":5.35096,"is_reserved":false,"is_disabled":false,"rental_uris":{"android":"levelo://app?vid=b498739b-f24a-4e47-944f-52f3b565e2e9","ios":"levelo://app?vid=b498739b-f24a-4e47-944f-52f3b565e2e9"},"vehicle_type_id":"4","last_reported":1759065286,"current_range_meters":4800,"station_id":"ce4bhch2rcd13ifvqeug","pricing_plan_id":"cebpf4jnsgd1na2vs0mg"},{"bike_id":"2336a081-3301-4818-b498-4e2b16a6631f","system_id":"levelo_inurba_marseille","lat":43.3234,"lon":5.44006,"is_reserved":false,"is_disabled":false,"rental_uris":{"android":"levelo://app?vid=2336a081-3301-4818-b498-4e2b16a6631f","ios":"levelo://app?vid=2336a081-3301-4818-b498-4e2b16a6631f"},"vehicle_type_id":"4","last_reported":1759065286,"current_range_meters":4800,"station_id":"","pricing_plan_id":"cebpf4jnsgd1na2vs0mg"},{"bike_id":"4edeada2-e18e-46db-93f1-f08c43f971a2","system_id":"levelo_inurba_marseille","lat":43.246613,"lon":5.38168,"is_reserved":false,"is_disabled":false,"rental_uris":{"android":"levelo://app?vid=4edeada2-e18e-46db-93f1-f08c43f971a2","ios":"levelo://app?vid=4edeada2-e18e-46db-93f1-f08c43f971a2"},"vehicle_type_id":"4","last_reported":1759065286,"current_range_meters":4800,"station_id":"ce4bhih2rcd13ifvqfr0","pricing_plan_id":"cebpf4jnsgd1na2vs0mg"},{"bike_id":"dd83baea-a9cb-408b-88ae-b234b2bf880d","system_id":"levelo_inurba_marseille","lat":43.30292,"lon":5.36873,"is_reserved":false,"is_disabled":false,"rental_uris":{"android":"levelo://app?vid=dd83baea-a9cb-408b-88ae-b234b2bf880d","ios":"levelo://app?vid=dd83baea-a9cb-408b-88ae-b234b2bf880d"},"vehicle_type_id":"4","last_reported":1759065286,"current_range_meters":4800,"station_id":"ce4bgqh2rcd13ifvqc5g","pricing_plan_id":"cebpf4jnsgd1na2vs0mg"},{"bike_id":"08fe2b08-b3fa-43f8-ae73-04061f76318d","system_id":"levelo_inurba_marseille","lat":43.305552,"lon":5.365395,"is_reserved":false,"is_disabled":false,"rental_uris":{"android":"levelo://app?vid=08fe2b08-b3fa-43f8-ae73-04061f76318d","ios":"levelo://app?vid=08fe2b08-b3fa-43f8-ae73-04061f76318d"},"vehicle_type_id":"4","last_reported":1759065286,"current_range_meters":4800,"station_id":"","pricing_plan_id":"cebpf4jnsgd1na2vs0mg"},{"bike_id":"3bd66708-394a-468f-ab91-d9c2ed175cf0","system_id":"levelo_inurba_marseille","lat":43.29702,"lon":5.3771,"is_reserved":false,"is_disabled":false,"rental_uris":{"android":"levelo://app?vid=3bd66708-394a-468f-ab91-d9c2ed175cf0","ios":"levelo://app?vid=3bd66708-394a-468f-ab91-d9c2ed175cf0"},"vehicle_type_id":"4","last_reported":1759065286,"current_range_meters":4800,"station_id":"ce4bgkh2rcd13ifvqbl0","pricing_plan_id":"cebpf4jnsgd1na2vs0mg"},{"bike_id":"acf0db2c-bbc7-4b7a-8e8d-d43f7f7f6f6d","system_id":"levelo_inurba_marseille","lat":43.231492,"lon":5.437161,"is_reserved":false,"is_disabled":false,"rental_uris":{"android":"levelo://app?vid=acf0db2c-bbc7-4b7a-8e8d-d43f7f7f6f6d","ios":"levelo://app?vid=acf0db2c-bbc7-4b7a-8e8d-d43f7f7f6f6d"},"vehicle_type_id":"4","last_reported":1759065286,"current_range_meters":4400,"station_id":"ce4bhmp2rcd13ifvqgog","pricing_plan_id":"cebpf4jnsgd1na2vs0mg"},{"bike_id":"81f825bf-7bce-48a1-a6a4-fab9d8ce98c3","system_id":"levelo_inurba_marseille","lat":43.29042,"lon":5.39964,"is_reserved":false,"is_disabled":false,"rental_uris":{"android":"levelo://app?vid=81f825bf-7bce-48a1-a6a4-fab9d8ce98c3","ios":"levelo://app?vid=81f825bf-7bce-48a1-a6a4-fab9d8ce98c3"},"vehicle_type_id":"4","last_reported":1759065286,"current_range_meters":4800,"station_id":"ce4bh392rcd13ifvqdm0","pricing_plan_id":"cebpf4jnsgd1na2vs0mg"},{"bike_id":"31bb7d71-8a0d-42ca-b01a-f10febbed0af","system_id":"levelo_inurba_marseille","lat":43.30155,"lon":5.38094,"is_reserved":false,"is_disabled":true,"rental_uris":{"android":"levelo://app?vid=31bb7d71-8a0d-42ca-b01a-f10febbed0af","ios":"levelo://app?vid=31bb7d71-8a0d-42ca-b01a-f10febbed0af"},"vehicle_type_id":"4","last_reported":1759065286,"current_range_meters":5600,"station_id":"ce4bgjp2rcd13ifvqbh0","pricing_plan_id":"cebpf4jnsgd1na2vs0mg"},{"bike_id":"8e385f69-4a89-4bf0-86a4-c68fbcf7e1cb","system_id":"levelo_inurba_marseille","lat":43.225324,"lon":5.348325,"is_reserved":false,"is_disabled":false,"rental_uris":{"android":"levelo://app?vid=8e385f69-4a89-4bf0-86a4-c68fbcf7e1cb","ios":"levelo://app?vid=8e385f69-4a89-4bf0-86a4-c68fbcf7e1cb"},"vehicle_type_id":"4","last_reported":1759065286,"current_range_meters":5600,"station_id":"","pricing_plan_id":"cebpf4jnsgd1na2vs0mg"},{"bike_id":"fee74e98-eb52-4f66-a612-109c75f34aa6","system_id":"levelo_inurba_marseille","lat":43.29628,"lon":5.37937,"is_reserved":false,"is_disabled":false,"rental_uris":{"android":"levelo://app?vid=fee74e98-eb52-4f66-a612-109c75f34aa6","ios":"levelo://app?vid=fee74e98-eb52-4f66-a612-109c75f34aa6"},"vehicle_type_id":"4","last_reported":1759065286,"current_range_meters":5600,"station_id":"","pricing_plan_id":"cebpf4jnsgd1na2vs0mg"},{"bike_id":"39f7c9ac-b13c-42b0-991e-071ad2f95abb","system_id":"levelo_inurba_marseille","lat":43.2904,"lon":5.35909,"is_reserved":false,"is_disabled":false,"rental_uris":{"android":"levelo://app?vid=39f7c9ac-b13c-42b0-991e-071ad2f95abb","ios":"levelo://app?vid=39f7c9ac-b13c-42b0-991e-071ad2f95abb"},"vehicle_type_id":"4","last_reported":1759065286,"current_range_meters":5600,"station_id":"ce4bha92rcd13ifvqeg0","pricing_plan_id":"cebpf4jnsgd1na2vs0mg"},{"bike_id":"819a3d49-e2a7-48a2-8788-501477d766f4","system_id":"levelo_inurba_marseille","lat":43.25863,"lon":5.39921,"is_reserved":false,"is_disabled":false,"rental_uris":{"android":"levelo://app?vid=819a3d49-e2a7-48a2-8788-501477d766f4","ios":"levelo://app?vid=819a3d49-e2a7-48a2-8788-501477d766f4"},"vehicle_type_id":"4","last_reported":1759065286,"current_range_meters":6000,"station_id":"ce4bhl92rcd13ifvqghg","pricing_plan_id":"cebpf4jnsgd1na2vs0mg"},{"bike_id":"4bf60397-1e91-47d8-82db-05e7923ae27e","system_id":"levelo_inurba_marseille","lat":43.28613,"lon":5.35108,"is_reserved":false,"is_disabled":false,"rental_uris":{"android":"levelo://app?vid=4bf60397-1e91-47d8-82db-05e7923ae27e","ios":"levelo://app?vid=4bf60397-1e91-47d8-82db-05e7923ae27e"},"vehicle_type_id":"4","last_reported":1759065286,"current_range_meters":6000,"station_id":"ce4bhch2rcd13ifvqeug","pricing_plan_id":"cebpf4jnsgd1na2vs0mg"},{"bike_id":"577bd49d-ac71-4cbe-a4a8-ac298c06a915","system_id":"levelo_inurba_marseille","lat":43.26212,"lon":5.37443,"is_reserved":false,"is_disabled":false,"rental_uris":{"android":"levelo://app?vid=577bd49d-ac71-4cbe-a4a8-ac298c06a915","ios":"levelo://app?vid=577bd49d-ac71-4cbe-a4a8-ac298c06a915"},"vehicle_type_id":"4","last_reported":1759065286,"current_range_meters":6000,"station_id":"ce4bhgp2rcd13ifvqfc0","pricing_plan_id":"cebpf4jnsgd1na2vs0mg"},{"bike_id":"cc10a393-c8ce-43fb-8334-7d6d68691d22","system_id":"levelo_inurba_marseille","lat":43.26888,"lon":5.366,"is_reserved":false,"is_disabled":false,"rental_uris":{"android":"levelo://app?vid=cc10a393-c8ce-43fb-8334-7d6d68691d22","ios":"levelo://app?vid=cc10a393-c8ce-43fb-8334-7d6d68691d22"},"vehicle_type_id":"4","last_reported":1759065286,"current_range_meters":6400,"station_id":"","pricing_plan_id":"cebpf4jnsgd1na2vs0mg"},{"bike_id":"ab58cc8d-5f0a-45f8-a7d5-27adb7e11b1f","system_id":"levelo_inurba_marseille","lat":43.24656,"lon":5.38898,"is_reserved":false,"is_disabled":false,"rental_uris":{"android":"levelo://app?vid=ab58cc8d-5f0a-45f8-a7d5-27adb7e11b1f","ios":"levelo://app?vid=ab58cc8d-5f0a-45f8-a7d5-27adb7e11b1f"},"vehicle_type_id":"4","last_reported":1759065286,"current_range_meters":6400,"station_id":"","pricing_plan_id":"cebpf4jnsgd1na2vs0mg"},{"bike_id":"e56abdf1-f838-48d8-9391-bceb4c3ef9e5","system_id":"levelo_inurba_marseille","lat":43.22931,"lon":5.35381,"is_reserved":false,"is_disabled":false,"rental_uris":{"android":"levelo://app?vid=e56abdf1-f838-48d8-9391-bceb4c3ef9e5","ios":"levelo://app?vid=e56abdf1-f838-48d8-9391-bceb4c3ef9e5"},"vehicle_type_id":"4","last_reported":1759065286,"current_range_meters":6400,"station_id":"cpo3532slgdg3j2ikp40","pricing_plan_id":"cebpf4jnsgd1na2vs0mg"},{"bike_id":"87748896-3fac-4aa5-8f5c-60e596da0182","system_id":"levelo_inurba_marseille","lat":43.2656,"lon":5.37287,"is_reserved":false,"is_disabled":false,"rental_uris":{"android":"levelo://app?vid=87748896-3fac-4aa5-8f5c-60e596da0182","ios":"levelo://app?vid=87748896-3fac-4aa5-8f5c-60e596da0182"},"vehicle_type_id":"4","last_reported":1759065286,"current_range_meters":6400,"station_id":"ce4bhg12rcd13ifvqf70","pricing_plan_id":"cebpf4jnsgd1na2vs0mg"},{"bike_id":"7f089091-d1ee-44a0-aa87-84f533d192f9","system_id":"levelo_inurba_marseille","lat":43.31301,"lon":5.38486,"is_reserved":false,"is_disabled":false,"rental_uris":{"android":"levelo://app?vid=7f089091-d1ee-44a0-aa87-84f533d192f9","ios":"levelo://app?vid=7f089091-d1ee-44a0-aa87-84f533d192f9"},"vehicle_type_id":"4","last_reported":1759065286,"current_range_meters":6400,"station_id":"","pricing_plan_id":"cebpf4jnsgd1na2vs0mg"},{"bike_id":"29d5c7f6-4bed-4f5e-9e00-e06ba7a06612","system_id":"levelo_inurba_marseille","lat":43.29895,"lon":5.43647,"is_reserved":false,"is_disabled":false,"rental_uris":{"android":"levelo://app?vid=29d5c7f6-4bed-4f5e-9e00-e06ba7a06612","ios":"levelo://app?vid=29d5c7f6-4bed-4f5e-9e00-e06ba7a06612"},"vehicle_type_id":"4","last_reported":1759065286,"current_range_meters":6800,"station_id":"ce4bhpp2rcd13ifvqhfg","pricing_plan_id":"cebpf4jnsgd1na2vs0mg"},{"bike_id":"44e2096c-1cde-41f4-a970-da5427c7360e","system_id":"levelo_inurba_marseille","lat":43.21759,"lon":5.34593,"is_reserved":false,"is_disabled":false,"rental_uris":{"android":"levelo://app?vid=44e2096c-1cde-41f4-a970-da5427c7360e","ios":"levelo://app?vid=44e2096c-1cde-41f4-a970-da5427c7360e"},"vehicle_type_id":"4","last_reported":1759065286,"current_range_meters":6800,"station_id":"st_cvj6r9ubvosntc0bgbag","pricing_plan_id":"cebpf4jnsgd1na2vs0mg"},{"bike_id":"c666d8e2-bc20-44b2-8520-0d6a32d26858","system_id":"levelo_inurba_marseille","lat":43.23194,"lon":5.39983,"is_reserved":false,"is_disabled":false,"rental_uris":{"android":"levelo://app?vid=c666d8e2-bc20-44b2-8520-0d6a32d26858","ios":"levelo://app?vid=c666d8e2-bc20-44b2-8520-0d6a32d26858"},"vehicle_type_id":"4","last_reported":1759065286,"current_range_meters":6800,"station_id":"ce4bhn12rcd13ifvqgqg","pricing_plan_id":"cebpf4jnsgd1na2vs0mg"},{"bike_id":"5b38f8ea-49ad-4303-9772-2f562231897a","system_id":"levelo_inurba_marseille","lat":43.29717,"lon":5.36604,"is_reserved":false,"is_disabled":false,"rental_uris":{"android":"levelo://app?vid=5b38f8ea-49ad-4303-9772-2f562231897a","ios":"levelo://app?vid=5b38f8ea-49ad-4303-9772-2f562231897a"},"vehicle_type_id":"4","last_reported":1759065286,"current_range_meters":6800,"station_id":"ce4bgn12rcd13ifvqbt0","pricing_plan_id":"cebpf4jnsgd1na2vs0mg"},{"bike_id":"9bb4db31-0bf9-4171-bca1-76cb045f53a3","system_id":"levelo_inurba_marseille","lat":43.26924,"lon":5.389081,"is_reserved":false,"is_disabled":true,"rental_uris":{"android":"levelo://app?vid=9bb4db31-0bf9-4171-bca1-76cb045f53a3","ios":"levelo://app?vid=9bb4db31-0bf9-4171-bca1-76cb045f53a3"},"vehicle_type_id":"4","last_reported":1759065286,"current_range_meters":6800,"station_id":"ce4bhhh2rcd13ifvqfl0","pricing_plan_id":"cebpf4jnsgd1na2vs0mg"},{"bike_id":"01bf55f2-4ac6-46f6-8504-3267bf31e1a6","system_id":"levelo_inurba_marseille","lat":43.2973,"lon":5.381787,"is_reserved":false,"is_disabled":false,"rental_uris":{"android":"levelo://app?vid=01bf55f2-4ac6-46f6-8504-3267bf31e1a6","ios":"levelo://app?vid=01bf55f2-4ac6-46f6-8504-3267bf31e1a6"},"vehicle_type_id":"4","last_reported":1759065286,"current_range_meters":6800,"station_id":"","pricing_plan_id":"cebpf4jnsgd1na2vs0mg"},{"bike_id":"0e66d55d-e9e5-47d0-a7da-43fd751289a0","system_id":"levelo_inurba_marseille","lat":43.29231,"lon":5.36058,"is_reserved":false,"is_disabled":false,"rental_uris":{"android":"levelo://app?vid=0e66d55d-e9e5-47d0-a7da-43fd751289a0","ios":"levelo://app?vid=0e66d55d-e9e5-47d0-a7da-43fd751289a0"},"vehicle_type_id":"4","last_reported":1759065286,"current_range_meters":6800,"station_id":"ce4bhbh2rcd13ifvqeqg","pricing_plan_id":"cebpf4jnsgd1na2vs0mg"},{"bike_id":"9de1ee1c-6b3e-40c8-b6c2-73130c5ae845","system_id":"levelo_inurba_marseille","lat":43.26993,"lon":5.3661,"is_reserved":false,"is_disabled":false,"rental_uris":{"android":"levelo://app?vid=9de1ee1c-6b3e-40c8-b6c2-73130c5ae845","ios":"levelo://app?vid=9de1ee1c-6b3e-40c8-b6c2-73130c5ae845"},"vehicle_type_id":"4","last_reported":1759065286,"current_range_meters":6800,"station_id":"","pricing_plan_id":"cebpf4jnsgd1na2vs0mg"},{"bike_id":"561a0d47-2894-4f78-bd2b-ca0cdb3f4aee","system_id":"levelo_inurba_marseille","lat":43.22929,"lon":5.35373,"is_reserved":false,"is_disabled":false,"rental_uris":{"android":"levelo://app?vid=561a0d47-2894-4f78-bd2b-ca0cdb3f4aee","ios":"levelo://app?vid=561a0d47-2894-4f78-bd2b-ca0cdb3f4aee"},"vehicle_type_id":"4","last_reported":1759065286,"current_range_meters":7200,"station_id":"cpo3532slgdg3j2ikp40","pricing_plan_id":"cebpf4jnsgd1na2vs0mg"},{"bike_id":"21c3f299-c66a-4f5e-9775-ff7c24c59b6e","system_id":"levelo_inurba_marseille","lat":43.30598,"lon":5.37228,"is_reserved":false,"is_disabled":false,"rental_uris":{"android":"levelo://app?vid=21c3f299-c66a-4f5e-9775-ff7c24c59b6e","ios":"levelo://app?vid=21c3f299-c66a-4f5e-9775-ff7c24c59b6e"},"vehicle_type_id":"4","last_reported":1759065286,"current_range_meters":6800,"station_id":"ce4bgqh2rcd13ifvqc4g","pricing_plan_id":"cebpf4jnsgd1na2vs0mg"},{"bike_id":"5365e873-98ea-45e2-9689-7e119051f22e","system_id":"levelo_inurba_marseille","lat":43.33046,"lon":5.35887,"is_reserved":false,"is_disabled":true,"rental_uris":{"android":"levelo://app?vid=5365e873-98ea-45e2-9689-7e119051f22e","ios":"levelo://app?vid=5365e873-98ea-45e2-9689-7e119051f22e"},"vehicle_type_id":"4","last_reported":1759065286,"current_range_meters":7200,"station_id":"","pricing_plan_id":"cebpf4jnsgd1na2vs0mg"},{"bike_id":"7572e447-60af-402a-880a-c91ee6095500","system_id":"levelo_inurba_marseille","lat":43.31713,"lon":5.43709,"is_reserved":false,"is_disabled":false,"rental_uris":{"android":"levelo://app?vid=7572e447-60af-402a-880a-c91ee6095500","ios":"levelo://app?vid=7572e447-60af-402a-880a-c91ee6095500"},"vehicle_type_id":"4","last_reported":1759065286,"current_range_meters":6800,"station_id":"ce4bhp92rcd13ifvqhcg","pricing_plan_id":"cebpf4jnsgd1na2vs0mg"},{"bike_id":"14424f3c-a06a-491b-a89b-af61b20a0e12","system_id":"levelo_inurba_marseille","lat":43.28266,"lon":5.35062,"is_reserved":false,"is_disabled":false,"rental_uris":{"android":"levelo://app?vid=14424f3c-a06a-491b-a89b-af61b20a0e12","ios":"levelo://app?vid=14424f3c-a06a-491b-a89b-af61b20a0e12"},"vehicle_type_id":"4","last_reported":1759065286,"current_range_meters":7200,"station_id":"ce4bhbp2rcd13ifvqerg","pricing_plan_id":"cebpf4jnsgd1na2vs0mg"},{"bike_id":"fbef676b-8f42-450e-b448-da45ad596c28","system_id":"levelo_inurba_marseille","lat":43.28383,"lon":5.36297,"is_reserved":false,"is_disabled":false,"rental_uris":{"android":"levelo://app?vid=fbef676b-8f42-450e-b448-da45ad596c28","ios":"levelo://app?vid=fbef676b-8f42-450e-b448-da45ad596c28"},"vehicle_type_id":"4","last_reported":1759065286,"current_range_meters":7200,"station_id":"","pricing_plan_id":"cebpf4jnsgd1na2vs0mg"},{"bike_id":"3f51e03c-3abb-4dde-8cdd-da596aa3252f","system_id":"levelo_inurba_marseille","lat":43.27664,"lon":5.39069,"is_reserved":false,"is_disabled":true,"rental_uris":{"android":"levelo://app?vid=3f51e03c-3abb-4dde-8cdd-da596aa3252f","ios":"levelo://app?vid=3f51e03c-3abb-4dde-8cdd-da596aa3252f"},"vehicle_type_id":"4","last_reported":1759065286,"current_range_meters":7200,"station_id":"","pricing_plan_id":"cebpf4jnsgd1na2vs0mg"},{"bike_id":"ee96a502-9b76-492e-840a-498b02aefe72","system_id":"levelo_inurba_marseille","lat":43.32347,"lon":5.39219,"is_reserved":false,"is_disabled":false,"rental_uris":{"android":"levelo://app?vid=ee96a502-9b76-492e-840a-498b02aefe72","ios":"levelo://app?vid=ee96a502-9b76-492e-840a-498b02aefe72"},"vehicle_type_id":"4","last_reported":1759065286,"current_range_meters":7200,"station_id":"","pricing_plan_id":"cebpf4jnsgd1na2vs0mg"},{"bike_id":"a84905b2-4548-4f95-809a-a18e724f2658","system_id":"levelo_inurba_marseille","lat":43.27202,"lon":5.39178,"is_reserved":false,"is_disabled":false,"rental_uris":{"android":"levelo://app?vid=a84905b2-4548-4f95-809a-a18e724f2658","ios":"levelo://app?vid=a84905b2-4548-4f95-809a-a18e724f2658"},"vehicle_type_id":"4","last_reported":1759065286,"current_range_meters":7200,"station_id":"ce4bhhp2rcd13ifvqfm0","pricing_plan_id":"cebpf4jnsgd1na2vs0mg"},{"bike_id":"6b4056da-d6fb-4105-99ab-9200a9f9f4ce","system_id":"levelo_inurba_marseille","lat":43.21214,"lon":5.35071,"is_reserved":false,"is_disabled":false,"rental_uris":{"android":"levelo://app?vid=6b4056da-d6fb-4105-99ab-9200a9f9f4ce","ios":"levelo://app?vid=6b4056da-d6fb-4105-99ab-9200a9f9f4ce"},"vehicle_type_id":"4","last_reported":1759065286,"current_range_meters":7200,"station_id":"st_cvj6sg6p6f1abm77japg","pricing_plan_id":"cebpf4jnsgd1na2vs0mg"},{"bike_id":"e8917e0e-11e8-4ffb-80f5-ef464fce6089","system_id":"levelo_inurba_marseille","lat":43.23962,"lon":5.36631,"is_reserved":false,"is_disabled":false,"rental_uris":{"android":"levelo://app?vid=e8917e0e-11e8-4ffb-80f5-ef464fce6089","ios":"levelo://app?vid=e8917e0e-11e8-4ffb-80f5-ef464fce6089"},"vehicle_type_id":"4","last_reported":1759065286,"current_range_meters":7200,"station_id":"ce4bhi12rcd13ifvqfp0","pricing_plan_id":"cebpf4jnsgd1na2vs0mg"},{"bike_id":"cc39b63f-b6c2-446a-9e15-da3fed50125c","system_id":"levelo_inurba_marseille","lat":43.23186,"lon":5.39987,"is_reserved":false,"is_disabled":false,"rental_uris":{"android":"levelo://app?vid=cc39b63f-b6c2-446a-9e15-da3fed50125c","ios":"levelo://app?vid=cc39b63f-b6c2-446a-9e15-da3fed50125c"},"vehicle_type_id":"4","last_reported":1759065286,"current_range_meters":8000,"station_id":"ce4bhn12rcd13ifvqgqg","pricing_plan_id":"cebpf4jnsgd1na2vs0mg"},{"bike_id":"c7c385e1-93ac-4d41-9ffc-2eaef57061ad","system_id":"levelo_inurba_marseille","lat":43.3135,"lon":5.36721,"is_reserved":false,"is_disabled":false,"rental_uris":{"android":"levelo://app?vid=c7c385e1-93ac-4d41-9ffc-2eaef57061ad","ios":"levelo://app?vid=c7c385e1-93ac-4d41-9ffc-2eaef57061ad"},"vehicle_type_id":"4","last_reported":1759065286,"current_range_meters":7200,"station_id":"ce4bgr92rcd13ifvqc6g","pricing_plan_id":"cebpf4jnsgd1na2vs0mg"},{"bike_id":"53fdda69-cd39-4318-94a7-64d58e15dfe5","system_id":"levelo_inurba_marseille","lat":43.28263,"lon":5.3506,"is_reserved":false,"is_disabled":false,"rental_uris":{"android":"levelo://app?vid=53fdda69-cd39-4318-94a7-64d58e15dfe5","ios":"levelo://app?vid=53fdda69-cd39-4318-94a7-64d58e15dfe5"},"vehicle_type_id":"4","last_reported":1759065286,"current_range_meters":8000,"station_id":"ce4bhbp2rcd13ifvqerg","pricing_plan_id":"cebpf4jnsgd1na2vs0mg"},{"bike_id":"fb4e5171-bfe5-4382-9352-a0c18a6aa604","system_id":"levelo_inurba_marseille","lat":43.26555,"lon":5.37303,"is_reserved":false,"is_disabled":false,"rental_uris":{"android":"levelo://app?vid=fb4e5171-bfe5-4382-9352-a0c18a6aa604","ios":"levelo://app?vid=fb4e5171-bfe5-4382-9352-a0c18a6aa604"},"vehicle_type_id":"4","last_reported":1759065286,"current_range_meters":8000,"station_id":"ce4bhg12rcd13ifvqf70","pricing_plan_id":"cebpf4jnsgd1na2vs0mg"},{"bike_id":"9b42c38f-503e-439b-9005-c14199a83ed5","system_id":"levelo_inurba_marseille","lat":43.2175,"lon":5.346,"is_reserved":false,"is_disabled":false,"rental_uris":{"android":"levelo://app?vid=9b42c38f-503e-439b-9005-c14199a83ed5","ios":"levelo://app?vid=9b42c38f-503e-439b-9005-c14199a83ed5"},"vehicle_type_id":"4","last_reported":1759065286,"current_range_meters":8000,"station_id":"st_cvj6r9ubvosntc0bgbag","pricing_plan_id":"cebpf4jnsgd1na2vs0mg"},{"bike_id":"b730076c-4633-4909-9824-d2f1889ef2e8","system_id":"levelo_inurba_marseille","lat":43.29731,"lon":5.37772,"is_reserved":false,"is_disabled":false,"rental_uris":{"android":"levelo://app?vid=b730076c-4633-4909-9824-d2f1889ef2e8","ios":"levelo://app?vid=b730076c-4633-4909-9824-d2f1889ef2e8"},"vehicle_type_id":"4","last_reported":1759065286,"current_range_meters":8000,"station_id":"ce4bgkh2rcd13ifvqbl0","pricing_plan_id":"cebpf4jnsgd1na2vs0mg"},{"bike_id":"45258590-e674-4af9-8dec-d54e315bbecd","system_id":"levelo_inurba_marseille","lat":43.28617,"lon":5.35105,"is_reserved":false,"is_disabled":false,"rental_uris":{"android":"levelo://app?vid=45258590-e674-4af9-8dec-d54e315bbecd","ios":"levelo://app?vid=45258590-e674-4af9-8dec-d54e315bbecd"},"vehicle_type_id":"4","last_reported":1759065286,"current_range_meters":8400,"station_id":"ce4bhch2rcd13ifvqeug","pricing_plan_id":"cebpf4jnsgd1na2vs0mg"},{"bike_id":"af2feadb-8944-49d4-8a79-977222cc4152","system_id":"levelo_inurba_marseille","lat":43.23184,"lon":5.3999,"is_reserved":false,"is_disabled":false,"rental_uris":{"android":"levelo://app?vid=af2feadb-8944-49d4-8a79-977222cc4152","ios":"levelo://app?vid=af2feadb-8944-49d4-8a79-977222cc4152"},"vehicle_type_id":"4","last_reported":1759065286,"current_range_meters":8400,"station_id":"ce4bhn12rcd13ifvqgqg","pricing_plan_id":"cebpf4jnsgd1na2vs0mg"},{"bike_id":"f4700d7c-c4f4-4346-88f1-31c5451190d1","system_id":"levelo_inurba_marseille","lat":43.29298,"lon":5.37179,"is_reserved":false,"is_disabled":true,"rental_uris":{"android":"levelo://app?vid=f4700d7c-c4f4-4346-88f1-31c5451190d1","ios":"levelo://app?vid=f4700d7c-c4f4-4346-88f1-31c5451190d1"},"vehicle_type_id":"4","last_reported":1759065286,"current_range_meters":8400,"station_id":"ce4bgh92rcd13ifvqb40","pricing_plan_id":"cebpf4jnsgd1na2vs0mg"},{"bike_id":"934ea1ec-b7f6-49a1-9efa-287317d4eb22","system_id":"levelo_inurba_marseille","lat":43.29048,"lon":5.35914,"is_reserved":false,"is_disabled":false,"rental_uris":{"android":"levelo://app?vid=934ea1ec-b7f6-49a1-9efa-287317d4eb22","ios":"levelo://app?vid=934ea1ec-b7f6-49a1-9efa-287317d4eb22"},"vehicle_type_id":"4","last_reported":1759065286,"current_range_meters":8400,"station_id":"","pricing_plan_id":"cebpf4jnsgd1na2vs0mg"},{"bike_id":"8360fe96-8a6b-4a67-9ba4-0ef948b002e1","system_id":"levelo_inurba_marseille","lat":43.25007,"lon":5.38915,"is_reserved":false,"is_disabled":true,"rental_uris":{"android":"levelo://app?vid=8360fe96-8a6b-4a67-9ba4-0ef948b002e1","ios":"levelo://app?vid=8360fe96-8a6b-4a67-9ba4-0ef948b002e1"},"vehicle_type_id":"4","last_reported":1759065286,"current_range_meters":8400,"station_id":"ce4bhgp2rcd13ifvqfd0","pricing_plan_id":"cebpf4jnsgd1na2vs0mg"},{"bike_id":"c16d4a0a-fea1-4caf-95c6-36cd41921f63","system_id":"levelo_inurba_marseille","lat":43.28418,"lon":5.34974,"is_reserved":false,"is_disabled":false,"rental_uris":{"android":"levelo://app?vid=c16d4a0a-fea1-4caf-95c6-36cd41921f63","ios":"levelo://app?vid=c16d4a0a-fea1-4caf-95c6-36cd41921f63"},"vehicle_type_id":"4","last_reported":1759065286,"current_range_meters":8400,"station_id":"ce4bhbh2rcd13ifvqepg","pricing_plan_id":"cebpf4jnsgd1na2vs0mg"},{"bike_id":"16f2160e-b6d4-4e03-bef8-e4ad64f8eaf6","system_id":"levelo_inurba_marseille","lat":43.28424,"lon":5.34984,"is_reserved":false,"is_disabled":false,"rental_uris":{"android":"levelo://app?vid=16f2160e-b6d4-4e03-bef8-e4ad64f8eaf6","ios":"levelo://app?vid=16f2160e-b6d4-4e03-bef8-e4ad64f8eaf6"},"vehicle_type_id":"4","last_reported":1759065286,"current_range_meters":8400,"station_id":"ce4bhbh2rcd13ifvqepg","pricing_plan_id":"cebpf4jnsgd1na2vs0mg"},{"bike_id":"a25a65f4-add8-42c0-b81d-72f19f238ddf","system_id":"levelo_inurba_marseille","lat":43.22932,"lon":5.35375,"is_reserved":false,"is_disabled":false,"rental_uris":{"android":"levelo://app?vid=a25a65f4-add8-42c0-b81d-72f19f238ddf","ios":"levelo://app?vid=a25a65f4-add8-42c0-b81d-72f19f238ddf"},"vehicle_type_id":"4","last_reported":1759065286,"current_range_meters":8800,"station_id":"cpo3532slgdg3j2ikp40","pricing_plan_id":"cebpf4jnsgd1na2vs0mg"},{"bike_id":"c5532c33-1024-4a3a-b37d-bfcf3ef1a4b0","system_id":"levelo_inurba_marseille","lat":43.23185,"lon":5.39981,"is_reserved":false,"is_disabled":false,"rental_uris":{"android":"levelo://app?vid=c5532c33-1024-4a3a-b37d-bfcf3ef1a4b0","ios":"levelo://app?vid=c5532c33-1024-4a3a-b37d-bfcf3ef1a4b0"},"vehicle_type_id":"4","last_reported":1759065286,"current_range_meters":8800,"station_id":"ce4bhn12rcd13ifvqgqg","pricing_plan_id":"cebpf4jnsgd1na2vs0mg"},{"bike_id":"8b4d2dd7-6abb-487a-9156-5f320fe32a91","system_id":"levelo_inurba_marseille","lat":43.30138,"lon":5.3988,"is_reserved":false,"is_disabled":false,"rental_uris":{"android":"levelo://app?vid=8b4d2dd7-6abb-487a-9156-5f320fe32a91","ios":"levelo://app?vid=8b4d2dd7-6abb-487a-9156-5f320fe32a91"},"vehicle_type_id":"4","last_reported":1759065286,"current_range_meters":8400,"station_id":"ce4bh0h2rcd13ifvqd40","pricing_plan_id":"cebpf4jnsgd1na2vs0mg"},{"bike_id":"a6706513-6002-4f2c-8dab-5b1e365f8a7f","system_id":"levelo_inurba_marseille","lat":43.267102,"lon":5.382758,"is_reserved":false,"is_disabled":false,"rental_uris":{"android":"levelo://app?vid=a6706513-6002-4f2c-8dab-5b1e365f8a7f","ios":"levelo://app?vid=a6706513-6002-4f2c-8dab-5b1e365f8a7f"},"vehicle_type_id":"4","last_reported":1759065286,"current_range_meters":8800,"station_id":"ce4bhg92rcd13ifvqf90","pricing_plan_id":"cebpf4jnsgd1na2vs0mg"},{"bike_id":"72f29b73-bc46-48ab-bb44-875a253fa97b","system_id":"levelo_inurba_marseille","lat":43.29734,"lon":5.38039,"is_reserved":false,"is_disabled":false,"rental_uris":{"android":"levelo://app?vid=72f29b73-bc46-48ab-bb44-875a253fa97b","ios":"levelo://app?vid=72f29b73-bc46-48ab-bb44-875a253fa97b"},"vehicle_type_id":"4","last_reported":1759065286,"current_range_meters":8800,"station_id":"","pricing_plan_id":"cebpf4jnsgd1na2vs0mg"},{"bike_id":"2f0b2a28-9992-43c3-915b-e8097f04b870","system_id":"levelo_inurba_marseille","lat":43.24388,"lon":5.37055,"is_reserved":false,"is_disabled":false,"rental_uris":{"android":"levelo://app?vid=2f0b2a28-9992-43c3-915b-e8097f04b870","ios":"levelo://app?vid=2f0b2a28-9992-43c3-915b-e8097f04b870"},"vehicle_type_id":"4","last_reported":1759065286,"current_range_meters":8800,"station_id":"ce4bhhh2rcd13ifvqfk0","pricing_plan_id":"cebpf4jnsgd1na2vs0mg"},{"bike_id":"d2886970-0a6b-48c3-bfc6-168e64e2ef23","system_id":"levelo_inurba_marseille","lat":43.28929,"lon":5.3839,"is_reserved":false,"is_disabled":false,"rental_uris":{"android":"levelo://app?vid=d2886970-0a6b-48c3-bfc6-168e64e2ef23","ios":"levelo://app?vid=d2886970-0a6b-48c3-bfc6-168e64e2ef23"},"vehicle_type_id":"4","last_reported":1759065286,"current_range_meters":8800,"station_id":"ce4bh612rcd13ifvqe6g","pricing_plan_id":"cebpf4jnsgd1na2vs0mg"},{"bike_id":"020aa52e-bf8d-4b62-a19b-38ca9bd91c45","system_id":"levelo_inurba_marseille","lat":43.30434,"lon":5.4129,"is_reserved":false,"is_disabled":false,"rental_uris":{"android":"levelo://app?vid=020aa52e-bf8d-4b62-a19b-38ca9bd91c45","ios":"levelo://app?vid=020aa52e-bf8d-4b62-a19b-38ca9bd91c45"},"vehicle_type_id":"4","last_reported":1759065286,"current_range_meters":8800,"station_id":"ce4bhop2rcd13ifvqh8g","pricing_plan_id":"cebpf4jnsgd1na2vs0mg"},{"bike_id":"f2fd2284-837d-45c8-8a92-163c2aa30979","system_id":"levelo_inurba_marseille","lat":43.2693,"lon":5.38912,"is_reserved":false,"is_disabled":true,"rental_uris":{"android":"levelo://app?vid=f2fd2284-837d-45c8-8a92-163c2aa30979","ios":"levelo://app?vid=f2fd2284-837d-45c8-8a92-163c2aa30979"},"vehicle_type_id":"4","last_reported":1759065286,"current_range_meters":8800,"station_id":"ce4bhhh2rcd13ifvqfl0","pricing_plan_id":"cebpf4jnsgd1na2vs0mg"},{"bike_id":"30791067-9cc4-442f-a969-04832396d576","system_id":"levelo_inurba_marseille","lat":43.30275,"lon":5.37707,"is_reserved":false,"is_disabled":false,"rental_uris":{"android":"levelo://app?vid=30791067-9cc4-442f-a969-04832396d576","ios":"levelo://app?vid=30791067-9cc4-442f-a969-04832396d576"},"vehicle_type_id":"4","last_reported":1759065286,"current_range_meters":8800,"station_id":"ce4bguh2rcd13ifvqcj0","pricing_plan_id":"cebpf4jnsgd1na2vs0mg"},{"bike_id":"3fd7c937-a838-4d6f-932e-9e3bccbc6d3b","system_id":"levelo_inurba_marseille","lat":43.29943,"lon":5.38243,"is_reserved":false,"is_disabled":false,"rental_uris":{"android":"levelo://app?vid=3fd7c937-a838-4d6f-932e-9e3bccbc6d3b","ios":"levelo://app?vid=3fd7c937-a838-4d6f-932e-9e3bccbc6d3b"},"vehicle_type_id":"4","last_reported":1759065286,"current_range_meters":8800,"station_id":"","pricing_plan_id":"cebpf4jnsgd1na2vs0mg"},{"bike_id":"544562f6-c6c8-463d-9fa5-2451328e96ea","system_id":"levelo_inurba_marseille","lat":43.27992,"lon":5.41686,"is_reserved":false,"is_disabled":false,"rental_uris":{"android":"levelo://app?vid=544562f6-c6c8-463d-9fa5-2451328e96ea","ios":"levelo://app?vid=544562f6-c6c8-463d-9fa5-2451328e96ea"},"vehicle_type_id":"4","last_reported":1759065286,"current_range_meters":9200,"station_id":"ce4bho12rcd13ifvqh1g","pricing_plan_id":"cebpf4jnsgd1na2vs0mg"},{"bike_id":"cc995285-8965-4964-8542-c8a0dbe54426","system_id":"levelo_inurba_marseille","lat":43.21763,"lon":5.34591,"is_reserved":false,"is_disabled":false,"rental_uris":{"android":"levelo://app?vid=cc995285-8965-4964-8542-c8a0dbe54426","ios":"levelo://app?vid=cc995285-8965-4964-8542-c8a0dbe54426"},"vehicle_type_id":"4","last_reported":1759065286,"current_range_meters":9200,"station_id":"st_cvj6r9ubvosntc0bgbag","pricing_plan_id":"cebpf4jnsgd1na2vs0mg"},{"bike_id":"720623f7-9148-4a0e-ade4-a205c6fa44f0","system_id":"levelo_inurba_marseille","lat":43.28999,"lon":5.42911,"is_reserved":false,"is_disabled":false,"rental_uris":{"android":"levelo://app?vid=720623f7-9148-4a0e-ade4-a205c6fa44f0","ios":"levelo://app?vid=720623f7-9148-4a0e-ade4-a205c6fa44f0"},"vehicle_type_id":"4","last_reported":1759065286,"current_range_meters":9200,"station_id":"","pricing_plan_id":"cebpf4jnsgd1na2vs0mg"},{"bike_id":"579526e6-1a96-4dcb-9bab-181bf678c4cb","system_id":"levelo_inurba_marseille","lat":43.24194,"lon":5.39721,"is_reserved":false,"is_disabled":true,"rental_uris":{"android":"levelo://app?vid=579526e6-1a96-4dcb-9bab-181bf678c4cb","ios":"levelo://app?vid=579526e6-1a96-4dcb-9bab-181bf678c4cb"},"vehicle_type_id":"4","last_reported":1759065286,"current_range_meters":9200,"station_id":"ce4bhn12rcd13ifvqgpg","pricing_plan_id":"cebpf4jnsgd1na2vs0mg"},{"bike_id":"695662ab-65fe-4c59-81b6-3dceb9f5066d","system_id":"levelo_inurba_marseille","lat":43.25588,"lon":5.38224,"is_reserved":false,"is_disabled":true,"rental_uris":{"android":"levelo://app?vid=695662ab-65fe-4c59-81b6-3dceb9f5066d","ios":"levelo://app?vid=695662ab-65fe-4c59-81b6-3dceb9f5066d"},"vehicle_type_id":"4","last_reported":1759065286,"current_range_meters":9200,"station_id":"ce4bhih2rcd13ifvqfs0","pricing_plan_id":"cebpf4jnsgd1na2vs0mg"},{"bike_id":"03350417-1098-4d6c-b8fe-9e64358744bf","system_id":"levelo_inurba_marseille","lat":43.31066,"lon":5.37598,"is_reserved":false,"is_disabled":false,"rental_uris":{"android":"levelo://app?vid=03350417-1098-4d6c-b8fe-9e64358744bf","ios":"levelo://app?vid=03350417-1098-4d6c-b8fe-9e64358744bf"},"vehicle_type_id":"4","last_reported":1759065286,"current_range_meters":9200,"station_id":"","pricing_plan_id":"cebpf4jnsgd1na2vs0mg"},{"bike_id":"0b10856b-3dad-4052-bc3a-2c17e6f16e23","system_id":"levelo_inurba_marseille","lat":43.27568,"lon":5.38417,"is_reserved":false,"is_disabled":true,"rental_uris":{"android":"levelo://app?vid=0b10856b-3dad-4052-bc3a-2c17e6f16e23","ios":"levelo://app?vid=0b10856b-3dad-4052-bc3a-2c17e6f16e23"},"vehicle_type_id":"4","last_reported":1759065286,"current_range_meters":9600,"station_id":"ce4bhh92rcd13ifvqfi0","pricing_plan_id":"cebpf4jnsgd1na2vs0mg"},{"bike_id":"dc4883ea-8f06-44d1-8b3d-6660e39a87ec","system_id":"levelo_inurba_marseille","lat":43.229375,"lon":5.35375,"is_reserved":false,"is_disabled":true,"rental_uris":{"android":"levelo://app?vid=dc4883ea-8f06-44d1-8b3d-6660e39a87ec","ios":"levelo://app?vid=dc4883ea-8f06-44d1-8b3d-6660e39a87ec"},"vehicle_type_id":"4","last_reported":1759065286,"current_range_meters":9600,"station_id":"cpo3532slgdg3j2ikp40","pricing_plan_id":"cebpf4jnsgd1na2vs0mg"},{"bike_id":"6d1bccdb-76b4-4e18-9e2a-905375dd8686","system_id":"levelo_inurba_marseille","lat":43.264799,"lon":5.371459,"is_reserved":false,"is_disabled":false,"rental_uris":{"android":"levelo://app?vid=6d1bccdb-76b4-4e18-9e2a-905375dd8686","ios":"levelo://app?vid=6d1bccdb-76b4-4e18-9e2a-905375dd8686"},"vehicle_type_id":"4","last_reported":1759065286,"current_range_meters":9600,"station_id":"ce4bhch2rcd13ifvqeug","pricing_plan_id":"cebpf4jnsgd1na2vs0mg"},{"bike_id":"e67d30c9-865a-4ee7-893d-2aad1e475f2b","system_id":"levelo_inurba_marseille","lat":43.262,"lon":5.41545,"is_reserved":false,"is_disabled":false,"rental_uris":{"android":"levelo://app?vid=e67d30c9-865a-4ee7-893d-2aad1e475f2b","ios":"levelo://app?vid=e67d30c9-865a-4ee7-893d-2aad1e475f2b"},"vehicle_type_id":"4","last_reported":1759065286,"current_range_meters":9600,"station_id":"","pricing_plan_id":"cebpf4jnsgd1na2vs0mg"},{"bike_id":"9cff5bfc-5851-43b3-b2bc-6cdac415cc30","system_id":"levelo_inurba_marseille","lat":43.28616,"lon":5.35094,"is_reserved":false,"is_disabled":false,"rental_uris":{"android":"levelo://app?vid=9cff5bfc-5851-43b3-b2bc-6cdac415cc30","ios":"levelo://app?vid=9cff5bfc-5851-43b3-b2bc-6cdac415cc30"},"vehicle_type_id":"4","last_reported":1759065286,"current_range_meters":10000,"station_id":"ce4bhch2rcd13ifvqeug","pricing_plan_id":"cebpf4jnsgd1na2vs0mg"},{"bike_id":"f8e89d17-1c0d-4120-bc25-eb3d7af0e1a7","system_id":"levelo_inurba_marseille","lat":43.2407,"lon":5.37778,"is_reserved":false,"is_disabled":false,"rental_uris":{"android":"levelo://app?vid=f8e89d17-1c0d-4120-bc25-eb3d7af0e1a7","ios":"levelo://app?vid=f8e89d17-1c0d-4120-bc25-eb3d7af0e1a7"},"vehicle_type_id":"4","last_reported":1759065286,"current_range_meters":10000,"station_id":"ce4bhnp2rcd13ifvqgvg","pricing_plan_id":"cebpf4jnsgd1na2vs0mg"},{"bike_id":"e985a107-e60b-4acc-96d4-1e2a3fedca32","system_id":"levelo_inurba_marseille","lat":43.290321,"lon":5.376542,"is_reserved":false,"is_disabled":false,"rental_uris":{"android":"levelo://app?vid=e985a107-e60b-4acc-96d4-1e2a3fedca32","ios":"levelo://app?vid=e985a107-e60b-4acc-96d4-1e2a3fedca32"},"vehicle_type_id":"4","last_reported":1759065286,"current_range_meters":10000,"station_id":"","pricing_plan_id":"cebpf4jnsgd1na2vs0mg"},{"bike_id":"0fdee6d9-8d4f-4012-8c6f-5b04682b35e0","system_id":"levelo_inurba_marseille","lat":43.29759,"lon":5.36993,"is_reserved":false,"is_disabled":false,"rental_uris":{"android":"levelo://app?vid=0fdee6d9-8d4f-4012-8c6f-5b04682b35e0","ios":"levelo://app?vid=0fdee6d9-8d4f-4012-8c6f-5b04682b35e0"},"vehicle_type_id":"4","last_reported":1759065286,"current_range_meters":12000,"station_id":"","pricing_plan_id":"cebpf4jnsgd1na2vs0mg"},{"bike_id":"c884ec33-edbc-4e73-a77c-c93f4dde92ef","system_id":"levelo_inurba_marseille","lat":43.27371,"lon":5.36241,"is_reserved":false,"is_disabled":false,"rental_uris":{"android":"levelo://app?vid=c884ec33-edbc-4e73-a77c-c93f4dde92ef","ios":"levelo://app?vid=c884ec33-edbc-4e73-a77c-c93f4dde92ef"},"vehicle_type_id":"4","last_reported":1759065286,"current_range_meters":10000,"station_id":"ce4bhbh2rcd13ifvqeo0","pricing_plan_id":"cebpf4jnsgd1na2vs0mg"},{"bike_id":"ae17ab70-4248-4bb7-8c1b-d78473914a68","system_id":"levelo_inurba_marseille","lat":43.24982,"lon":5.38896,"is_reserved":false,"is_disabled":false,"rental_uris":{"android":"levelo://app?vid=ae17ab70-4248-4bb7-8c1b-d78473914a68","ios":"levelo://app?vid=ae17ab70-4248-4bb7-8c1b-d78473914a68"},"vehicle_type_id":"4","last_reported":1759065286,"current_range_meters":10800,"station_id":"ce4bhgp2rcd13ifvqfd0","pricing_plan_id":"cebpf4jnsgd1na2vs0mg"},{"bike_id":"3ded1cc0-b302-4bfd-96b2-92ae6cb0d1b5","system_id":"levelo_inurba_marseille","lat":43.27369,"lon":5.36264,"is_reserved":false,"is_disabled":false,"rental_uris":{"android":"levelo://app?vid=3ded1cc0-b302-4bfd-96b2-92ae6cb0d1b5","ios":"levelo://app?vid=3ded1cc0-b302-4bfd-96b2-92ae6cb0d1b5"},"vehicle_type_id":"4","last_reported":1759065286,"current_range_meters":10800,"station_id":"ce4bhbh2rcd13ifvqeo0","pricing_plan_id":"cebpf4jnsgd1na2vs0mg"},{"bike_id":"096c311a-e31f-4e60-ab8c-de0b76354103","system_id":"levelo_inurba_marseille","lat":43.27208,"lon":5.41019,"is_reserved":false,"is_disabled":true,"rental_uris":{"android":"levelo://app?vid=096c311a-e31f-4e60-ab8c-de0b76354103","ios":"levelo://app?vid=096c311a-e31f-4e60-ab8c-de0b76354103"},"vehicle_type_id":"4","last_reported":1759065286,"current_range_meters":10800,"station_id":"ce4bhl12rcd13ifvqgf0","pricing_plan_id":"cebpf4jnsgd1na2vs0mg"},{"bike_id":"0c26020a-6faa-4734-b745-1f0b64d6cfd8","system_id":"levelo_inurba_marseille","lat":43.29522,"lon":5.39055,"is_reserved":false,"is_disabled":false,"rental_uris":{"android":"levelo://app?vid=0c26020a-6faa-4734-b745-1f0b64d6cfd8","ios":"levelo://app?vid=0c26020a-6faa-4734-b745-1f0b64d6cfd8"},"vehicle_type_id":"4","last_reported":1759065286,"current_range_meters":10800,"station_id":"ce4bh3p2rcd13ifvqdp0","pricing_plan_id":"cebpf4jnsgd1na2vs0mg"},{"bike_id":"31ad08df-2e9b-49d8-ae7e-84ffa71954ee","system_id":"levelo_inurba_marseille","lat":43.28429,"lon":5.35274,"is_reserved":false,"is_disabled":false,"rental_uris":{"android":"levelo://app?vid=31ad08df-2e9b-49d8-ae7e-84ffa71954ee","ios":"levelo://app?vid=31ad08df-2e9b-49d8-ae7e-84ffa71954ee"},"vehicle_type_id":"4","last_reported":1759065286,"current_range_meters":10800,"station_id":"","pricing_plan_id":"cebpf4jnsgd1na2vs0mg"},{"bike_id":"eedfbf61-711e-444c-88e3-b720ea74f76a","system_id":"levelo_inurba_marseille","lat":43.21197,"lon":5.35055,"is_reserved":false,"is_disabled":false,"rental_uris":{"android":"levelo://app?vid=eedfbf61-711e-444c-88e3-b720ea74f76a","ios":"levelo://app?vid=eedfbf61-711e-444c-88e3-b720ea74f76a"},"vehicle_type_id":"4","last_reported":1759065286,"current_range_meters":10800,"station_id":"st_cvj6sg6p6f1abm77japg","pricing_plan_id":"cebpf4jnsgd1na2vs0mg"},{"bike_id":"c59612ca-d97f-43fe-922b-956e95ec4620","system_id":"levelo_inurba_marseille","lat":43.2293,"lon":5.3537,"is_reserved":false,"is_disabled":false,"rental_uris":{"android":"levelo://app?vid=c59612ca-d97f-43fe-922b-956e95ec4620","ios":"levelo://app?vid=c59612ca-d97f-43fe-922b-956e95ec4620"},"vehicle_type_id":"4","last_reported":1759065286,"current_range_meters":10800,"station_id":"cpo3532slgdg3j2ikp40","pricing_plan_id":"cebpf4jnsgd1na2vs0mg"},{"bike_id":"526aad02-1cbe-4006-a9b3-6aae4a867dd9","system_id":"levelo_inurba_marseille","lat":43.21185,"lon":5.35066,"is_reserved":false,"is_disabled":false,"rental_uris":{"android":"levelo://app?vid=526aad02-1cbe-4006-a9b3-6aae4a867dd9","ios":"levelo://app?vid=526aad02-1cbe-4006-a9b3-6aae4a867dd9"},"vehicle_type_id":"4","last_reported":1759065286,"current_range_meters":10800,"station_id":"st_cvj6sg6p6f1abm77japg","pricing_plan_id":"cebpf4jnsgd1na2vs0mg"},{"bike_id":"f8d719e1-8799-4542-8c0f-2edb96e4699e","system_id":"levelo_inurba_marseille","lat":43.27382,"lon":5.36257,"is_reserved":false,"is_disabled":false,"rental_uris":{"android":"levelo://app?vid=f8d719e1-8799-4542-8c0f-2edb96e4699e","ios":"levelo://app?vid=f8d719e1-8799-4542-8c0f-2edb96e4699e"},"vehicle_type_id":"4","last_reported":1759065286,"current_range_meters":10800,"station_id":"ce4bhbh2rcd13ifvqeo0","pricing_plan_id":"cebpf4jnsgd1na2vs0mg"},{"bike_id":"64388ab6-04b6-4884-85db-f49cb204f1fb","system_id":"levelo_inurba_marseille","lat":43.27529,"lon":5.39579,"is_reserved":false,"is_disabled":false,"rental_uris":{"android":"levelo://app?vid=64388ab6-04b6-4884-85db-f49cb204f1fb","ios":"levelo://app?vid=64388ab6-04b6-4884-85db-f49cb204f1fb"},"vehicle_type_id":"4","last_reported":1759065286,"current_range_meters":10800,"station_id":"","pricing_plan_id":"cebpf4jnsgd1na2vs0mg"},{"bike_id":"90daa87f-e96c-4746-b53c-a24d45074313","system_id":"levelo_inurba_marseille","lat":43.27808,"lon":5.40719,"is_reserved":false,"is_disabled":false,"rental_uris":{"android":"levelo://app?vid=90daa87f-e96c-4746-b53c-a24d45074313","ios":"levelo://app?vid=90daa87f-e96c-4746-b53c-a24d45074313"},"vehicle_type_id":"4","last_reported":1759065286,"current_range_meters":10000,"station_id":"ce4bhnh2rcd13ifvqgtg","pricing_plan_id":"cebpf4jnsgd1na2vs0mg"},{"bike_id":"16e5c8c7-ac8f-4b80-9e6b-a85d73f9fd1a","system_id":"levelo_inurba_marseille","lat":43.24994,"lon":5.38929,"is_reserved":false,"is_disabled":false,"rental_uris":{"android":"levelo://app?vid=16e5c8c7-ac8f-4b80-9e6b-a85d73f9fd1a","ios":"levelo://app?vid=16e5c8c7-ac8f-4b80-9e6b-a85d73f9fd1a"},"vehicle_type_id":"4","last_reported":1759065286,"current_range_meters":10000,"station_id":"ce4bhgp2rcd13ifvqfd0","pricing_plan_id":"cebpf4jnsgd1na2vs0mg"},{"bike_id":"c29cf720-3cf6-461d-adfe-8b21199bba35","system_id":"levelo_inurba_marseille","lat":43.255833,"lon":5.382327,"is_reserved":false,"is_disabled":false,"rental_uris":{"android":"levelo://app?vid=c29cf720-3cf6-461d-adfe-8b21199bba35","ios":"levelo://app?vid=c29cf720-3cf6-461d-adfe-8b21199bba35"},"vehicle_type_id":"4","last_reported":1759065286,"current_range_meters":11200,"station_id":"ce4bhih2rcd13ifvqfs0","pricing_plan_id":"cebpf4jnsgd1na2vs0mg"},{"bike_id":"17ffb585-9041-458a-b852-1a4d460c1625","system_id":"levelo_inurba_marseille","lat":43.29995,"lon":5.38477,"is_reserved":false,"is_disabled":false,"rental_uris":{"android":"levelo://app?vid=17ffb585-9041-458a-b852-1a4d460c1625","ios":"levelo://app?vid=17ffb585-9041-458a-b852-1a4d460c1625"},"vehicle_type_id":"4","last_reported":1759065286,"current_range_meters":11200,"station_id":"ce4bgj92rcd13ifvqbd0","pricing_plan_id":"cebpf4jnsgd1na2vs0mg"},{"bike_id":"4062f7e5-21b5-4791-8574-8ad3f23ad449","system_id":"levelo_inurba_marseille","lat":43.21191,"lon":5.35064,"is_reserved":false,"is_disabled":false,"rental_uris":{"android":"levelo://app?vid=4062f7e5-21b5-4791-8574-8ad3f23ad449","ios":"levelo://app?vid=4062f7e5-21b5-4791-8574-8ad3f23ad449"},"vehicle_type_id":"4","last_reported":1759065286,"current_range_meters":11200,"station_id":"st_cvj6sg6p6f1abm77japg","pricing_plan_id":"cebpf4jnsgd1na2vs0mg"},{"bike_id":"6d98ab21-1faa-4b15-97b2-a1dd6f53a5a7","system_id":"levelo_inurba_marseille","lat":43.27429,"lon":5.39394,"is_reserved":false,"is_disabled":true,"rental_uris":{"android":"levelo://app?vid=6d98ab21-1faa-4b15-97b2-a1dd6f53a5a7","ios":"levelo://app?vid=6d98ab21-1faa-4b15-97b2-a1dd6f53a5a7"},"vehicle_type_id":"4","last_reported":1759065286,"current_range_meters":11200,"station_id":"ce4bhdp2rcd13ifvqf20","pricing_plan_id":"cebpf4jnsgd1na2vs0mg"},{"bike_id":"94135a68-394b-488b-b15f-316f414f5c11","system_id":"levelo_inurba_marseille","lat":43.21187,"lon":5.35067,"is_reserved":false,"is_disabled":false,"rental_uris":{"android":"levelo://app?vid=94135a68-394b-488b-b15f-316f414f5c11","ios":"levelo://app?vid=94135a68-394b-488b-b15f-316f414f5c11"},"vehicle_type_id":"4","last_reported":1759065286,"current_range_meters":11200,"station_id":"st_cvj6sg6p6f1abm77japg","pricing_plan_id":"cebpf4jnsgd1na2vs0mg"},{"bike_id":"4c02c545-ad59-45b1-9b9c-d3678a5922c7","system_id":"levelo_inurba_marseille","lat":43.337444,"lon":5.374475,"is_reserved":false,"is_disabled":false,"rental_uris":{"android":"levelo://app?vid=4c02c545-ad59-45b1-9b9c-d3678a5922c7","ios":"levelo://app?vid=4c02c545-ad59-45b1-9b9c-d3678a5922c7"},"vehicle_type_id":"4","last_reported":1759065286,"current_range_meters":11200,"station_id":"","pricing_plan_id":"cebpf4jnsgd1na2vs0mg"},{"bike_id":"1c713857-e26a-40bd-9b06-378662945539","system_id":"levelo_inurba_marseille","lat":43.2466,"lon":5.38125,"is_reserved":false,"is_disabled":false,"rental_uris":{"android":"levelo://app?vid=1c713857-e26a-40bd-9b06-378662945539","ios":"levelo://app?vid=1c713857-e26a-40bd-9b06-378662945539"},"vehicle_type_id":"4","last_reported":1759065286,"current_range_meters":11200,"station_id":"ce4bhih2rcd13ifvqfr0","pricing_plan_id":"cebpf4jnsgd1na2vs0mg"},{"bike_id":"179205bc-39f5-4d7d-9b80-a8304bb1e409","system_id":"levelo_inurba_marseille","lat":43.21208,"lon":5.35056,"is_reserved":false,"is_disabled":false,"rental_uris":{"android":"levelo://app?vid=179205bc-39f5-4d7d-9b80-a8304bb1e409","ios":"levelo://app?vid=179205bc-39f5-4d7d-9b80-a8304bb1e409"},"vehicle_type_id":"4","last_reported":1759065286,"current_range_meters":11200,"station_id":"st_cvj6sg6p6f1abm77japg","pricing_plan_id":"cebpf4jnsgd1na2vs0mg"},{"bike_id":"f259ba4e-57c4-44fb-9079-ccf942ece097","system_id":"levelo_inurba_marseille","lat":43.296251,"lon":5.405804,"is_reserved":false,"is_disabled":false,"rental_uris":{"android":"levelo://app?vid=f259ba4e-57c4-44fb-9079-ccf942ece097","ios":"levelo://app?vid=f259ba4e-57c4-44fb-9079-ccf942ece097"},"vehicle_type_id":"4","last_reported":1759065286,"current_range_meters":11200,"station_id":"ce4bh0h2rcd13ifvqd60","pricing_plan_id":"cebpf4jnsgd1na2vs0mg"},{"bike_id":"2ec3a6d6-ee34-4467-9229-490d40bcd0cf","system_id":"levelo_inurba_marseille","lat":43.28001,"lon":5.41661,"is_reserved":false,"is_disabled":false,"rental_uris":{"android":"levelo://app?vid=2ec3a6d6-ee34-4467-9229-490d40bcd0cf","ios":"levelo://app?vid=2ec3a6d6-ee34-4467-9229-490d40bcd0cf"},"vehicle_type_id":"4","last_reported":1759065286,"current_range_meters":11600,"station_id":"ce4bho12rcd13ifvqh1g","pricing_plan_id":"cebpf4jnsgd1na2vs0mg"},{"bike_id":"ed6c5a8c-764b-4989-b76f-6b4dceee10d6","system_id":"levelo_inurba_marseille","lat":43.317254,"lon":5.423982,"is_reserved":false,"is_disabled":false,"rental_uris":{"android":"levelo://app?vid=ed6c5a8c-764b-4989-b76f-6b4dceee10d6","ios":"levelo://app?vid=ed6c5a8c-764b-4989-b76f-6b4dceee10d6"},"vehicle_type_id":"4","last_reported":1759065286,"current_range_meters":11200,"station_id":"ce4bhp92rcd13ifvqhbg","pricing_plan_id":"cebpf4jnsgd1na2vs0mg"},{"bike_id":"33ac03ed-dfbb-4aa1-aee0-f01e22e067d9","system_id":"levelo_inurba_marseille","lat":43.24667,"lon":5.43168,"is_reserved":false,"is_disabled":false,"rental_uris":{"android":"levelo://app?vid=33ac03ed-dfbb-4aa1-aee0-f01e22e067d9","ios":"levelo://app?vid=33ac03ed-dfbb-4aa1-aee0-f01e22e067d9"},"vehicle_type_id":"4","last_reported":1759065286,"current_range_meters":11600,"station_id":"st_d2m6c4gdas8pm72e190g","pricing_plan_id":"cebpf4jnsgd1na2vs0mg"},{"bike_id":"c097f066-7651-435e-913f-a8a7838aba88","system_id":"levelo_inurba_marseille","lat":43.33722,"lon":5.37459,"is_reserved":false,"is_disabled":false,"rental_uris":{"android":"levelo://app?vid=c097f066-7651-435e-913f-a8a7838aba88","ios":"levelo://app?vid=c097f066-7651-435e-913f-a8a7838aba88"},"vehicle_type_id":"4","last_reported":1759065286,"current_range_meters":11600,"station_id":"","pricing_plan_id":"cebpf4jnsgd1na2vs0mg"},{"bike_id":"9ea6d5e0-a462-4229-8485-254e0551bf57","system_id":"levelo_inurba_marseille","lat":43.28,"lon":5.41673,"is_reserved":false,"is_disabled":false,"rental_uris":{"android":"levelo://app?vid=9ea6d5e0-a462-4229-8485-254e0551bf57","ios":"levelo://app?vid=9ea6d5e0-a462-4229-8485-254e0551bf57"},"vehicle_type_id":"4","last_reported":1759065286,"current_range_meters":11600,"station_id":"ce4bho12rcd13ifvqh1g","pricing_plan_id":"cebpf4jnsgd1na2vs0mg"},{"bike_id":"a1e6b7c4-ab80-4720-900c-ffe4f847973c","system_id":"levelo_inurba_marseille","lat":43.24181,"lon":5.3972,"is_reserved":false,"is_disabled":false,"rental_uris":{"android":"levelo://app?vid=a1e6b7c4-ab80-4720-900c-ffe4f847973c","ios":"levelo://app?vid=a1e6b7c4-ab80-4720-900c-ffe4f847973c"},"vehicle_type_id":"4","last_reported":1759065286,"current_range_meters":12000,"station_id":"ce4bhn12rcd13ifvqgpg","pricing_plan_id":"cebpf4jnsgd1na2vs0mg"},{"bike_id":"26bbfbb9-4413-47e3-a087-54fd398639f1","system_id":"levelo_inurba_marseille","lat":43.25967,"lon":5.41373,"is_reserved":false,"is_disabled":false,"rental_uris":{"android":"levelo://app?vid=26bbfbb9-4413-47e3-a087-54fd398639f1","ios":"levelo://app?vid=26bbfbb9-4413-47e3-a087-54fd398639f1"},"vehicle_type_id":"4","last_reported":1759065286,"current_range_meters":11600,"station_id":"","pricing_plan_id":"cebpf4jnsgd1na2vs0mg"},{"bike_id":"2243febf-ebaf-474b-8e3e-799410e4c867","system_id":"levelo_inurba_marseille","lat":43.32577,"lon":5.36338,"is_reserved":false,"is_disabled":false,"rental_uris":{"android":"levelo://app?vid=2243febf-ebaf-474b-8e3e-799410e4c867","ios":"levelo://app?vid=2243febf-ebaf-474b-8e3e-799410e4c867"},"vehicle_type_id":"4","last_reported":1759065286,"current_range_meters":12000,"station_id":"","pricing_plan_id":"cebpf4jnsgd1na2vs0mg"},{"bike_id":"33cbd8fb-809d-4d40-9856-390e625b6c41","system_id":"levelo_inurba_marseille","lat":43.25929,"lon":5.40908,"is_reserved":false,"is_disabled":false,"rental_uris":{"android":"levelo://app?vid=33cbd8fb-809d-4d40-9856-390e625b6c41","ios":"levelo://app?vid=33cbd8fb-809d-4d40-9856-390e625b6c41"},"vehicle_type_id":"4","last_reported":1759065286,"current_range_meters":12000,"station_id":"ce4bhm92rcd13ifvqglg","pricing_plan_id":"cebpf4jnsgd1na2vs0mg"},{"bike_id":"72c47d07-f4a8-4f58-b6bc-b8c6013ac540","system_id":"levelo_inurba_marseille","lat":43.3139,"lon":5.39127,"is_reserved":false,"is_disabled":false,"rental_uris":{"android":"levelo://app?vid=72c47d07-f4a8-4f58-b6bc-b8c6013ac540","ios":"levelo://app?vid=72c47d07-f4a8-4f58-b6bc-b8c6013ac540"},"vehicle_type_id":"4","last_reported":1759065286,"current_range_meters":12000,"station_id":"","pricing_plan_id":"cebpf4jnsgd1na2vs0mg"},{"bike_id":"1466822f-1fc3-4e0d-b3b6-915dad2d241c","system_id":"levelo_inurba_marseille","lat":43.299,"lon":5.43655,"is_reserved":false,"is_disabled":false,"rental_uris":{"android":"levelo://app?vid=1466822f-1fc3-4e0d-b3b6-915dad2d241c","ios":"levelo://app?vid=1466822f-1fc3-4e0d-b3b6-915dad2d241c"},"vehicle_type_id":"4","last_reported":1759065286,"current_range_meters":12000,"station_id":"ce4bhpp2rcd13ifvqhfg","pricing_plan_id":"cebpf4jnsgd1na2vs0mg"},{"bike_id":"f62fe733-90ac-444a-a20a-73d227678ff7","system_id":"levelo_inurba_marseille","lat":43.29599,"lon":5.37713,"is_reserved":false,"is_disabled":true,"rental_uris":{"android":"levelo://app?vid=f62fe733-90ac-444a-a20a-73d227678ff7","ios":"levelo://app?vid=f62fe733-90ac-444a-a20a-73d227678ff7"},"vehicle_type_id":"4","last_reported":1759065286,"current_range_meters":12400,"station_id":"ce4bgi92rcd13ifvqb90","pricing_plan_id":"cebpf4jnsgd1na2vs0mg"},{"bike_id":"0fd0c927-4233-40f0-86de-fca65390471c","system_id":"levelo_inurba_marseille","lat":43.23958,"lon":5.36643,"is_reserved":false,"is_disabled":false,"rental_uris":{"android":"levelo://app?vid=0fd0c927-4233-40f0-86de-fca65390471c","ios":"levelo://app?vid=0fd0c927-4233-40f0-86de-fca65390471c"},"vehicle_type_id":"4","last_reported":1759065286,"current_range_meters":12400,"station_id":"ce4bhi12rcd13ifvqfp0","pricing_plan_id":"cebpf4jnsgd1na2vs0mg"},{"bike_id":"95bafeb0-6c7b-407a-a73b-a6569ff5cb66","system_id":"levelo_inurba_marseille","lat":43.33739,"lon":5.37409,"is_reserved":false,"is_disabled":false,"rental_uris":{"android":"levelo://app?vid=95bafeb0-6c7b-407a-a73b-a6569ff5cb66","ios":"levelo://app?vid=95bafeb0-6c7b-407a-a73b-a6569ff5cb66"},"vehicle_type_id":"4","last_reported":1759065286,"current_range_meters":12400,"station_id":"","pricing_plan_id":"cebpf4jnsgd1na2vs0mg"},{"bike_id":"f4c53ff4-73a4-4134-bb3f-bbf464878afb","system_id":"levelo_inurba_marseille","lat":43.24166,"lon":5.36392,"is_reserved":false,"is_disabled":true,"rental_uris":{"android":"levelo://app?vid=f4c53ff4-73a4-4134-bb3f-bbf464878afb","ios":"levelo://app?vid=f4c53ff4-73a4-4134-bb3f-bbf464878afb"},"vehicle_type_id":"4","last_reported":1759065286,"current_range_meters":12400,"station_id":"cpo36qri1sfpv3e86is0","pricing_plan_id":"cebpf4jnsgd1na2vs0mg"},{"bike_id":"99f8e706-cfb0-4eb6-929e-527298f2a0db","system_id":"levelo_inurba_marseille","lat":43.28349,"lon":5.37627,"is_reserved":false,"is_disabled":false,"rental_uris":{"android":"levelo://app?vid=99f8e706-cfb0-4eb6-929e-527298f2a0db","ios":"levelo://app?vid=99f8e706-cfb0-4eb6-929e-527298f2a0db"},"vehicle_type_id":"4","last_reported":1759065286,"current_range_meters":12400,"station_id":"","pricing_plan_id":"cebpf4jnsgd1na2vs0mg"},{"bike_id":"8ba5e33b-48f1-42b5-a531-76085f7229c8","system_id":"levelo_inurba_marseille","lat":43.24631,"lon":5.43149,"is_reserved":false,"is_disabled":false,"rental_uris":{"android":"levelo://app?vid=8ba5e33b-48f1-42b5-a531-76085f7229c8","ios":"levelo://app?vid=8ba5e33b-48f1-42b5-a531-76085f7229c8"},"vehicle_type_id":"4","last_reported":1759065286,"current_range_meters":12400,"station_id":"st_d2m6c4gdas8pm72e190g","pricing_plan_id":"cebpf4jnsgd1na2vs0mg"},{"bike_id":"fda9e2dd-cf9e-4a17-9a03-0254c52897c1","system_id":"levelo_inurba_marseille","lat":43.30524,"lon":5.397705,"is_reserved":false,"is_disabled":false,"rental_uris":{"android":"levelo://app?vid=fda9e2dd-cf9e-4a17-9a03-0254c52897c1","ios":"levelo://app?vid=fda9e2dd-cf9e-4a17-9a03-0254c52897c1"},"vehicle_type_id":"4","last_reported":1759065286,"current_range_meters":12400,"station_id":"ce4bh012rcd13ifvqcv0","pricing_plan_id":"cebpf4jnsgd1na2vs0mg"},{"bike_id":"258ab053-1083-4ca9-a32a-1e85f085fc22","system_id":"levelo_inurba_marseille","lat":43.337444,"lon":5.374475,"is_reserved":false,"is_disabled":false,"rental_uris":{"android":"levelo://app?vid=258ab053-1083-4ca9-a32a-1e85f085fc22","ios":"levelo://app?vid=258ab053-1083-4ca9-a32a-1e85f085fc22"},"vehicle_type_id":"4","last_reported":1759065286,"current_range_meters":12400,"station_id":"","pricing_plan_id":"cebpf4jnsgd1na2vs0mg"},{"bike_id":"fa439b7c-5bb6-45ce-a291-e27442fd1b99","system_id":"levelo_inurba_marseille","lat":43.30376,"lon":5.42491,"is_reserved":false,"is_disabled":false,"rental_uris":{"android":"levelo://app?vid=fa439b7c-5bb6-45ce-a291-e27442fd1b99","ios":"levelo://app?vid=fa439b7c-5bb6-45ce-a291-e27442fd1b99"},"vehicle_type_id":"4","last_reported":1759065286,"current_range_meters":12800,"station_id":"ce4bhoh2rcd13ifvqh6g","pricing_plan_id":"cebpf4jnsgd1na2vs0mg"},{"bike_id":"c9916796-5f07-4d22-aceb-87882fb08ac5","system_id":"levelo_inurba_marseille","lat":43.30599,"lon":5.36548,"is_reserved":false,"is_disabled":false,"rental_uris":{"android":"levelo://app?vid=c9916796-5f07-4d22-aceb-87882fb08ac5","ios":"levelo://app?vid=c9916796-5f07-4d22-aceb-87882fb08ac5"},"vehicle_type_id":"4","last_reported":1759065286,"current_range_meters":12800,"station_id":"ce4bgs12rcd13ifvqcag","pricing_plan_id":"cebpf4jnsgd1na2vs0mg"},{"bike_id":"360c0746-c854-4629-884f-7c911de53d9d","system_id":"levelo_inurba_marseille","lat":43.31097,"lon":5.37687,"is_reserved":false,"is_disabled":true,"rental_uris":{"android":"levelo://app?vid=360c0746-c854-4629-884f-7c911de53d9d","ios":"levelo://app?vid=360c0746-c854-4629-884f-7c911de53d9d"},"vehicle_type_id":"4","last_reported":1759065286,"current_range_meters":12800,"station_id":"","pricing_plan_id":"cebpf4jnsgd1na2vs0mg"},{"bike_id":"7ac81eae-aed2-4f3f-a100-b35f399befc9","system_id":"levelo_inurba_marseille","lat":43.25107,"lon":5.40331,"is_reserved":false,"is_disabled":false,"rental_uris":{"android":"levelo://app?vid=7ac81eae-aed2-4f3f-a100-b35f399befc9","ios":"levelo://app?vid=7ac81eae-aed2-4f3f-a100-b35f399befc9"},"vehicle_type_id":"4","last_reported":1759065286,"current_range_meters":12800,"station_id":"ce4bhlh2rcd13ifvqgig","pricing_plan_id":"cebpf4jnsgd1na2vs0mg"},{"bike_id":"f9165d00-cdb7-4a5f-a2b5-273539535e11","system_id":"levelo_inurba_marseille","lat":43.24391,"lon":5.37048,"is_reserved":false,"is_disabled":false,"rental_uris":{"android":"levelo://app?vid=f9165d00-cdb7-4a5f-a2b5-273539535e11","ios":"levelo://app?vid=f9165d00-cdb7-4a5f-a2b5-273539535e11"},"vehicle_type_id":"4","last_reported":1759065286,"current_range_meters":12800,"station_id":"ce4bhhh2rcd13ifvqfk0","pricing_plan_id":"cebpf4jnsgd1na2vs0mg"},{"bike_id":"aa7078ed-2304-4dfe-92d3-066b6c4af5e2","system_id":"levelo_inurba_marseille","lat":43.27421,"lon":5.39418,"is_reserved":false,"is_disabled":false,"rental_uris":{"android":"levelo://app?vid=aa7078ed-2304-4dfe-92d3-066b6c4af5e2","ios":"levelo://app?vid=aa7078ed-2304-4dfe-92d3-066b6c4af5e2"},"vehicle_type_id":"4","last_reported":1759065286,"current_range_meters":12400,"station_id":"ce4bhdp2rcd13ifvqf20","pricing_plan_id":"cebpf4jnsgd1na2vs0mg"},{"bike_id":"afb3a0b1-c807-4eff-8fb4-4964910f49c8","system_id":"levelo_inurba_marseille","lat":43.21761,"lon":5.34571,"is_reserved":false,"is_disabled":true,"rental_uris":{"android":"levelo://app?vid=afb3a0b1-c807-4eff-8fb4-4964910f49c8","ios":"levelo://app?vid=afb3a0b1-c807-4eff-8fb4-4964910f49c8"},"vehicle_type_id":"4","last_reported":1759065286,"current_range_meters":12800,"station_id":"st_cvj6r9ubvosntc0bgbag","pricing_plan_id":"cebpf4jnsgd1na2vs0mg"},{"bike_id":"2c6518be-b3f0-42d2-93c9-c1de9e54885f","system_id":"levelo_inurba_marseille","lat":43.29227,"lon":5.38219,"is_reserved":false,"is_disabled":false,"rental_uris":{"android":"levelo://app?vid=2c6518be-b3f0-42d2-93c9-c1de9e54885f","ios":"levelo://app?vid=2c6518be-b3f0-42d2-93c9-c1de9e54885f"},"vehicle_type_id":"4","last_reported":1759065286,"current_range_meters":13600,"station_id":"","pricing_plan_id":"cebpf4jnsgd1na2vs0mg"},{"bike_id":"80424971-bc99-4940-b768-08e08f2f8272","system_id":"levelo_inurba_marseille","lat":43.24648,"lon":5.38903,"is_reserved":false,"is_disabled":false,"rental_uris":{"android":"levelo://app?vid=80424971-bc99-4940-b768-08e08f2f8272","ios":"levelo://app?vid=80424971-bc99-4940-b768-08e08f2f8272"},"vehicle_type_id":"4","last_reported":1759065286,"current_range_meters":13600,"station_id":"ce4bhg12rcd13ifvqf60","pricing_plan_id":"cebpf4jnsgd1na2vs0mg"},{"bike_id":"07fd6a7a-e026-4ded-991b-6091c8176a3a","system_id":"levelo_inurba_marseille","lat":43.26929,"lon":5.38907,"is_reserved":false,"is_disabled":false,"rental_uris":{"android":"levelo://app?vid=07fd6a7a-e026-4ded-991b-6091c8176a3a","ios":"levelo://app?vid=07fd6a7a-e026-4ded-991b-6091c8176a3a"},"vehicle_type_id":"4","last_reported":1759065286,"current_range_meters":13600,"station_id":"ce4bhhh2rcd13ifvqfl0","pricing_plan_id":"cebpf4jnsgd1na2vs0mg"},{"bike_id":"1b27b95b-d9be-4e5e-9d1e-c3b5fd451bfe","system_id":"levelo_inurba_marseille","lat":43.29545,"lon":5.42276,"is_reserved":false,"is_disabled":false,"rental_uris":{"android":"levelo://app?vid=1b27b95b-d9be-4e5e-9d1e-c3b5fd451bfe","ios":"levelo://app?vid=1b27b95b-d9be-4e5e-9d1e-c3b5fd451bfe"},"vehicle_type_id":"4","last_reported":1759065286,"current_range_meters":13600,"station_id":"ce4bhph2rcd13ifvqhdg","pricing_plan_id":"cebpf4jnsgd1na2vs0mg"},{"bike_id":"a2a842f6-fc46-40d7-b7a6-d9d5a8c99dfa","system_id":"levelo_inurba_marseille","lat":43.31996,"lon":5.38157,"is_reserved":false,"is_disabled":true,"rental_uris":{"android":"levelo://app?vid=a2a842f6-fc46-40d7-b7a6-d9d5a8c99dfa","ios":"levelo://app?vid=a2a842f6-fc46-40d7-b7a6-d9d5a8c99dfa"},"vehicle_type_id":"4","last_reported":1759065286,"current_range_meters":13600,"station_id":"ce4bhr12rcd13ifvqhpg","pricing_plan_id":"cebpf4jnsgd1na2vs0mg"},{"bike_id":"1dad2113-89e2-44fc-a0b6-ddd6a09baff1","system_id":"levelo_inurba_marseille","lat":43.337444,"lon":5.374475,"is_reserved":false,"is_disabled":false,"rental_uris":{"android":"levelo://app?vid=1dad2113-89e2-44fc-a0b6-ddd6a09baff1","ios":"levelo://app?vid=1dad2113-89e2-44fc-a0b6-ddd6a09baff1"},"vehicle_type_id":"4","last_reported":1759065286,"current_range_meters":13600,"station_id":"","pricing_plan_id":"cebpf4jnsgd1na2vs0mg"},{"bike_id":"a1e2b7f3-f53e-4b6a-b8f1-27b0fbf9634d","system_id":"levelo_inurba_marseille","lat":43.315898,"lon":5.375817,"is_reserved":false,"is_disabled":false,"rental_uris":{"android":"levelo://app?vid=a1e2b7f3-f53e-4b6a-b8f1-27b0fbf9634d","ios":"levelo://app?vid=a1e2b7f3-f53e-4b6a-b8f1-27b0fbf9634d"},"vehicle_type_id":"4","last_reported":1759065286,"current_range_meters":14000,"station_id":"","pricing_plan_id":"cebpf4jnsgd1na2vs0mg"},{"bike_id":"3cb1dae7-6bcd-41e5-b1b7-c1d25c751a99","system_id":"levelo_inurba_marseille","lat":43.337635,"lon":5.374385,"is_reserved":false,"is_disabled":false,"rental_uris":{"android":"levelo://app?vid=3cb1dae7-6bcd-41e5-b1b7-c1d25c751a99","ios":"levelo://app?vid=3cb1dae7-6bcd-41e5-b1b7-c1d25c751a99"},"vehicle_type_id":"4","last_reported":1759065286,"current_range_meters":14000,"station_id":"","pricing_plan_id":"cebpf4jnsgd1na2vs0mg"},{"bike_id":"5fe7f407-3191-4d84-bcf8-5bce6d58e56d","system_id":"levelo_inurba_marseille","lat":43.22934,"lon":5.35371,"is_reserved":false,"is_disabled":false,"rental_uris":{"android":"levelo://app?vid=5fe7f407-3191-4d84-bcf8-5bce6d58e56d","ios":"levelo://app?vid=5fe7f407-3191-4d84-bcf8-5bce6d58e56d"},"vehicle_type_id":"4","last_reported":1759065286,"current_range_meters":14000,"station_id":"cpo3532slgdg3j2ikp40","pricing_plan_id":"cebpf4jnsgd1na2vs0mg"},{"bike_id":"d34660ba-b4e2-4c07-bab0-5799ca6a3821","system_id":"levelo_inurba_marseille","lat":43.29607,"lon":5.38093,"is_reserved":false,"is_disabled":false,"rental_uris":{"android":"levelo://app?vid=d34660ba-b4e2-4c07-bab0-5799ca6a3821","ios":"levelo://app?vid=d34660ba-b4e2-4c07-bab0-5799ca6a3821"},"vehicle_type_id":"4","last_reported":1759065286,"current_range_meters":14000,"station_id":"ce4bgl12rcd13ifvqbo0","pricing_plan_id":"cebpf4jnsgd1na2vs0mg"},{"bike_id":"cf049d12-98a8-4ddc-b283-f17c3725a209","system_id":"levelo_inurba_marseille","lat":43.31232,"lon":5.36867,"is_reserved":false,"is_disabled":false,"rental_uris":{"android":"levelo://app?vid=cf049d12-98a8-4ddc-b283-f17c3725a209","ios":"levelo://app?vid=cf049d12-98a8-4ddc-b283-f17c3725a209"},"vehicle_type_id":"4","last_reported":1759065286,"current_range_meters":14000,"station_id":"ce4bgl92rcd13ifvqbq0","pricing_plan_id":"cebpf4jnsgd1na2vs0mg"},{"bike_id":"e3fe1c25-77d6-4c99-a172-35c670f24da9","system_id":"levelo_inurba_marseille","lat":43.28989,"lon":5.35576,"is_reserved":false,"is_disabled":true,"rental_uris":{"android":"levelo://app?vid=e3fe1c25-77d6-4c99-a172-35c670f24da9","ios":"levelo://app?vid=e3fe1c25-77d6-4c99-a172-35c670f24da9"},"vehicle_type_id":"4","last_reported":1759065286,"current_range_meters":14000,"station_id":"ce4bhb92rcd13ifvqen0","pricing_plan_id":"cebpf4jnsgd1na2vs0mg"},{"bike_id":"c6e8f581-b12d-4d6c-8485-531b67b145a1","system_id":"levelo_inurba_marseille","lat":43.25084,"lon":5.39528,"is_reserved":false,"is_disabled":false,"rental_uris":{"android":"levelo://app?vid=c6e8f581-b12d-4d6c-8485-531b67b145a1","ios":"levelo://app?vid=c6e8f581-b12d-4d6c-8485-531b67b145a1"},"vehicle_type_id":"4","last_reported":1759065286,"current_range_meters":13600,"station_id":"ce4bhm12rcd13ifvqgkg","pricing_plan_id":"cebpf4jnsgd1na2vs0mg"},{"bike_id":"aa5fa060-752c-4ae0-8b8d-8bd04c3b5bc0","system_id":"levelo_inurba_marseille","lat":43.28259,"lon":5.35062,"is_reserved":false,"is_disabled":false,"rental_uris":{"android":"levelo://app?vid=aa5fa060-752c-4ae0-8b8d-8bd04c3b5bc0","ios":"levelo://app?vid=aa5fa060-752c-4ae0-8b8d-8bd04c3b5bc0"},"vehicle_type_id":"4","last_reported":1759065286,"current_range_meters":14400,"station_id":"ce4bhbp2rcd13ifvqerg","pricing_plan_id":"cebpf4jnsgd1na2vs0mg"},{"bike_id":"6f0c1749-517c-4897-91c9-50c589e202de","system_id":"levelo_inurba_marseille","lat":43.34141,"lon":5.40926,"is_reserved":false,"is_disabled":true,"rental_uris":{"android":"levelo://app?vid=6f0c1749-517c-4897-91c9-50c589e202de","ios":"levelo://app?vid=6f0c1749-517c-4897-91c9-50c589e202de"},"vehicle_type_id":"4","last_reported":1759065286,"current_range_meters":14400,"station_id":"ce4bhqh2rcd13ifvqhlg","pricing_plan_id":"cebpf4jnsgd1na2vs0mg"},{"bike_id":"20c1c77a-f4d0-45da-bf37-9dfdc8268d18","system_id":"levelo_inurba_marseille","lat":43.31991,"lon":5.38157,"is_reserved":false,"is_disabled":false,"rental_uris":{"android":"levelo://app?vid=20c1c77a-f4d0-45da-bf37-9dfdc8268d18","ios":"levelo://app?vid=20c1c77a-f4d0-45da-bf37-9dfdc8268d18"},"vehicle_type_id":"4","last_reported":1759065286,"current_range_meters":14400,"station_id":"ce4bhr12rcd13ifvqhpg","pricing_plan_id":"cebpf4jnsgd1na2vs0mg"},{"bike_id":"151d75a0-434c-41d6-a3a8-42bc6a9a604c","system_id":"levelo_inurba_marseille","lat":43.31757,"lon":5.39017,"is_reserved":false,"is_disabled":false,"rental_uris":{"android":"levelo://app?vid=151d75a0-434c-41d6-a3a8-42bc6a9a604c","ios":"levelo://app?vid=151d75a0-434c-41d6-a3a8-42bc6a9a604c"},"vehicle_type_id":"4","last_reported":1759065286,"current_range_meters":14400,"station_id":"ce4bgt92rcd13ifvqcf0","pricing_plan_id":"cebpf4jnsgd1na2vs0mg"},{"bike_id":"d58ddcbe-70d7-4259-abad-73cc43b8b8b9","system_id":"levelo_inurba_marseille","lat":43.23044,"lon":5.35486,"is_reserved":false,"is_disabled":true,"rental_uris":{"android":"levelo://app?vid=d58ddcbe-70d7-4259-abad-73cc43b8b8b9","ios":"levelo://app?vid=d58ddcbe-70d7-4259-abad-73cc43b8b8b9"},"vehicle_type_id":"4","last_reported":1759065286,"current_range_meters":14400,"station_id":"cpo3342slgdg3j2ifvpg","pricing_plan_id":"cebpf4jnsgd1na2vs0mg"},{"bike_id":"d7d09523-34bb-44d2-9695-02f0abea9b47","system_id":"levelo_inurba_marseille","lat":43.29732,"lon":5.37907,"is_reserved":false,"is_disabled":false,"rental_uris":{"android":"levelo://app?vid=d7d09523-34bb-44d2-9695-02f0abea9b47","ios":"levelo://app?vid=d7d09523-34bb-44d2-9695-02f0abea9b47"},"vehicle_type_id":"4","last_reported":1759065286,"current_range_meters":14400,"station_id":"","pricing_plan_id":"cebpf4jnsgd1na2vs0mg"},{"bike_id":"afa773c8-7bb5-4845-9614-6d76a21ebf8b","system_id":"levelo_inurba_marseille","lat":43.29264,"lon":5.3843,"is_reserved":false,"is_disabled":false,"rental_uris":{"android":"levelo://app?vid=afa773c8-7bb5-4845-9614-6d76a21ebf8b","ios":"levelo://app?vid=afa773c8-7bb5-4845-9614-6d76a21ebf8b"},"vehicle_type_id":"4","last_reported":1759065286,"current_range_meters":14400,"station_id":"ce4bh692rcd13ifvqea0","pricing_plan_id":"cebpf4jnsgd1na2vs0mg"},{"bike_id":"6141dabf-0d2d-4b9e-a5ae-7c61bd579820","system_id":"levelo_inurba_marseille","lat":43.2396,"lon":5.36617,"is_reserved":false,"is_disabled":false,"rental_uris":{"android":"levelo://app?vid=6141dabf-0d2d-4b9e-a5ae-7c61bd579820","ios":"levelo://app?vid=6141dabf-0d2d-4b9e-a5ae-7c61bd579820"},"vehicle_type_id":"4","last_reported":1759065286,"current_range_meters":14800,"station_id":"ce4bhi12rcd13ifvqfp0","pricing_plan_id":"cebpf4jnsgd1na2vs0mg"},{"bike_id":"35e8f722-b82a-4247-beb8-7e2827829ce6","system_id":"levelo_inurba_marseille","lat":43.32405,"lon":5.3911,"is_reserved":false,"is_disabled":false,"rental_uris":{"android":"levelo://app?vid=35e8f722-b82a-4247-beb8-7e2827829ce6","ios":"levelo://app?vid=35e8f722-b82a-4247-beb8-7e2827829ce6"},"vehicle_type_id":"4","last_reported":1759065286,"current_range_meters":14800,"station_id":"","pricing_plan_id":"cebpf4jnsgd1na2vs0mg"},{"bike_id":"d3613364-e944-4212-985f-1dc3d1fe89c9","system_id":"levelo_inurba_marseille","lat":43.28616,"lon":5.35101,"is_reserved":false,"is_disabled":false,"rental_uris":{"android":"levelo://app?vid=d3613364-e944-4212-985f-1dc3d1fe89c9","ios":"levelo://app?vid=d3613364-e944-4212-985f-1dc3d1fe89c9"},"vehicle_type_id":"4","last_reported":1759065286,"current_range_meters":14800,"station_id":"ce4bhch2rcd13ifvqeug","pricing_plan_id":"cebpf4jnsgd1na2vs0mg"},{"bike_id":"e5378695-fba9-432a-9cfb-3b5b05e40fec","system_id":"levelo_inurba_marseille","lat":43.337986,"lon":5.374304,"is_reserved":false,"is_disabled":false,"rental_uris":{"android":"levelo://app?vid=e5378695-fba9-432a-9cfb-3b5b05e40fec","ios":"levelo://app?vid=e5378695-fba9-432a-9cfb-3b5b05e40fec"},"vehicle_type_id":"4","last_reported":1759065286,"current_range_meters":14800,"station_id":"","pricing_plan_id":"cebpf4jnsgd1na2vs0mg"},{"bike_id":"a29cc1fe-a530-42fd-bf4a-ac3a330752cd","system_id":"levelo_inurba_marseille","lat":43.30193,"lon":5.36607,"is_reserved":false,"is_disabled":false,"rental_uris":{"android":"levelo://app?vid=a29cc1fe-a530-42fd-bf4a-ac3a330752cd","ios":"levelo://app?vid=a29cc1fe-a530-42fd-bf4a-ac3a330752cd"},"vehicle_type_id":"4","last_reported":1759065286,"current_range_meters":15200,"station_id":"ce4bgrh2rcd13ifvqc8g","pricing_plan_id":"cebpf4jnsgd1na2vs0mg"},{"bike_id":"01e260f5-828c-4df2-9bc4-ca80e799f979","system_id":"levelo_inurba_marseille","lat":43.24135,"lon":5.36459,"is_reserved":false,"is_disabled":true,"rental_uris":{"android":"levelo://app?vid=01e260f5-828c-4df2-9bc4-ca80e799f979","ios":"levelo://app?vid=01e260f5-828c-4df2-9bc4-ca80e799f979"},"vehicle_type_id":"4","last_reported":1759065286,"current_range_meters":15200,"station_id":"cpo36qri1sfpv3e86is0","pricing_plan_id":"cebpf4jnsgd1na2vs0mg"},{"bike_id":"4fb58689-967e-4abe-a0e6-912a768ddaef","system_id":"levelo_inurba_marseille","lat":43.29913,"lon":5.4364,"is_reserved":false,"is_disabled":false,"rental_uris":{"android":"levelo://app?vid=4fb58689-967e-4abe-a0e6-912a768ddaef","ios":"levelo://app?vid=4fb58689-967e-4abe-a0e6-912a768ddaef"},"vehicle_type_id":"4","last_reported":1759065286,"current_range_meters":15200,"station_id":"ce4bhpp2rcd13ifvqhfg","pricing_plan_id":"cebpf4jnsgd1na2vs0mg"},{"bike_id":"4822dd99-56ec-44f6-a9b9-ee0ae5dcc1bf","system_id":"levelo_inurba_marseille","lat":43.30009,"lon":5.39994,"is_reserved":false,"is_disabled":false,"rental_uris":{"android":"levelo://app?vid=4822dd99-56ec-44f6-a9b9-ee0ae5dcc1bf","ios":"levelo://app?vid=4822dd99-56ec-44f6-a9b9-ee0ae5dcc1bf"},"vehicle_type_id":"4","last_reported":1759065286,"current_range_meters":15200,"station_id":"ce4bh0h2rcd13ifvqd40","pricing_plan_id":"cebpf4jnsgd1na2vs0mg"},{"bike_id":"e5cca1d3-7b83-4815-adc1-45ead40eb28d","system_id":"levelo_inurba_marseille","lat":43.3211,"lon":5.36753,"is_reserved":false,"is_disabled":false,"rental_uris":{"android":"levelo://app?vid=e5cca1d3-7b83-4815-adc1-45ead40eb28d","ios":"levelo://app?vid=e5cca1d3-7b83-4815-adc1-45ead40eb28d"},"vehicle_type_id":"4","last_reported":1759065286,"current_range_meters":15200,"station_id":"ce4bhrh2rcd13ifvqhug","pricing_plan_id":"cebpf4jnsgd1na2vs0mg"},{"bike_id":"342aa4a8-2613-4079-ad39-b792bb12bc57","system_id":"levelo_inurba_marseille","lat":43.321097,"lon":5.36784,"is_reserved":false,"is_disabled":false,"rental_uris":{"android":"levelo://app?vid=342aa4a8-2613-4079-ad39-b792bb12bc57","ios":"levelo://app?vid=342aa4a8-2613-4079-ad39-b792bb12bc57"},"vehicle_type_id":"4","last_reported":1759065286,"current_range_meters":15200,"station_id":"ce4bhrh2rcd13ifvqhug","pricing_plan_id":"cebpf4jnsgd1na2vs0mg"},{"bike_id":"473be798-955e-44ad-a92b-7b9cc5bbebba","system_id":"levelo_inurba_marseille","lat":43.23962,"lon":5.36647,"is_reserved":false,"is_disabled":false,"rental_uris":{"android":"levelo://app?vid=473be798-955e-44ad-a92b-7b9cc5bbebba","ios":"levelo://app?vid=473be798-955e-44ad-a92b-7b9cc5bbebba"},"vehicle_type_id":"4","last_reported":1759065286,"current_range_meters":16000,"station_id":"ce4bhi12rcd13ifvqfp0","pricing_plan_id":"cebpf4jnsgd1na2vs0mg"},{"bike_id":"327c041e-5c9e-4b0d-a97c-a2dbaab036ae","system_id":"levelo_inurba_marseille","lat":43.32813,"lon":5.4113,"is_reserved":false,"is_disabled":false,"rental_uris":{"android":"levelo://app?vid=327c041e-5c9e-4b0d-a97c-a2dbaab036ae","ios":"levelo://app?vid=327c041e-5c9e-4b0d-a97c-a2dbaab036ae"},"vehicle_type_id":"4","last_reported":1759065286,"current_range_meters":16000,"station_id":"","pricing_plan_id":"cebpf4jnsgd1na2vs0mg"},{"bike_id":"303889c8-7e07-4e6b-8d4e-86631abf5bf5","system_id":"levelo_inurba_marseille","lat":43.28414,"lon":5.34983,"is_reserved":false,"is_disabled":false,"rental_uris":{"android":"levelo://app?vid=303889c8-7e07-4e6b-8d4e-86631abf5bf5","ios":"levelo://app?vid=303889c8-7e07-4e6b-8d4e-86631abf5bf5"},"vehicle_type_id":"4","last_reported":1759065286,"current_range_meters":16000,"station_id":"ce4bhbh2rcd13ifvqepg","pricing_plan_id":"cebpf4jnsgd1na2vs0mg"},{"bike_id":"cf5bd213-ba60-4faa-94f2-8e954176abd4","system_id":"levelo_inurba_marseille","lat":43.23971,"lon":5.36616,"is_reserved":false,"is_disabled":false,"rental_uris":{"android":"levelo://app?vid=cf5bd213-ba60-4faa-94f2-8e954176abd4","ios":"levelo://app?vid=cf5bd213-ba60-4faa-94f2-8e954176abd4"},"vehicle_type_id":"4","last_reported":1759065286,"current_range_meters":16000,"station_id":"ce4bhi12rcd13ifvqfp0","pricing_plan_id":"cebpf4jnsgd1na2vs0mg"},{"bike_id":"aef170f6-3306-46fe-9dab-25f26114ab13","system_id":"levelo_inurba_marseille","lat":43.32343,"lon":5.36741,"is_reserved":false,"is_disabled":false,"rental_uris":{"android":"levelo://app?vid=aef170f6-3306-46fe-9dab-25f26114ab13","ios":"levelo://app?vid=aef170f6-3306-46fe-9dab-25f26114ab13"},"vehicle_type_id":"4","last_reported":1759065286,"current_range_meters":16000,"station_id":"ce4bhsh2rcd13ifvqi2g","pricing_plan_id":"cebpf4jnsgd1na2vs0mg"},{"bike_id":"e0e9194b-710d-4981-ad65-ba5929d7512b","system_id":"levelo_inurba_marseille","lat":43.306022,"lon":5.384559,"is_reserved":false,"is_disabled":false,"rental_uris":{"android":"levelo://app?vid=e0e9194b-710d-4981-ad65-ba5929d7512b","ios":"levelo://app?vid=e0e9194b-710d-4981-ad65-ba5929d7512b"},"vehicle_type_id":"4","last_reported":1759065286,"current_range_meters":16000,"station_id":"","pricing_plan_id":"cebpf4jnsgd1na2vs0mg"},{"bike_id":"c3fbd9d5-807a-470d-9847-b57698a5a915","system_id":"levelo_inurba_marseille","lat":43.30373,"lon":5.4249,"is_reserved":false,"is_disabled":false,"rental_uris":{"android":"levelo://app?vid=c3fbd9d5-807a-470d-9847-b57698a5a915","ios":"levelo://app?vid=c3fbd9d5-807a-470d-9847-b57698a5a915"},"vehicle_type_id":"4","last_reported":1759065286,"current_range_meters":16000,"station_id":"ce4bhoh2rcd13ifvqh6g","pricing_plan_id":"cebpf4jnsgd1na2vs0mg"},{"bike_id":"f1aed6d1-98cc-458f-93c4-54430d20c1ac","system_id":"levelo_inurba_marseille","lat":43.21189,"lon":5.35081,"is_reserved":false,"is_disabled":false,"rental_uris":{"android":"levelo://app?vid=f1aed6d1-98cc-458f-93c4-54430d20c1ac","ios":"levelo://app?vid=f1aed6d1-98cc-458f-93c4-54430d20c1ac"},"vehicle_type_id":"4","last_reported":1759065286,"current_range_meters":16000,"station_id":"st_cvj6sg6p6f1abm77japg","pricing_plan_id":"cebpf4jnsgd1na2vs0mg"},{"bike_id":"f6557b1a-bb82-449e-8cb8-cdc5bba39739","system_id":"levelo_inurba_marseille","lat":43.21192,"lon":5.35071,"is_reserved":false,"is_disabled":false,"rental_uris":{"android":"levelo://app?vid=f6557b1a-bb82-449e-8cb8-cdc5bba39739","ios":"levelo://app?vid=f6557b1a-bb82-449e-8cb8-cdc5bba39739"},"vehicle_type_id":"4","last_reported":1759065286,"current_range_meters":16000,"station_id":"st_cvj6sg6p6f1abm77japg","pricing_plan_id":"cebpf4jnsgd1na2vs0mg"},{"bike_id":"422d94f6-9fc7-4855-9b60-2ca9d32316af","system_id":"levelo_inurba_marseille","lat":43.30896,"lon":5.36841,"is_reserved":false,"is_disabled":false,"rental_uris":{"android":"levelo://app?vid=422d94f6-9fc7-4855-9b60-2ca9d32316af","ios":"levelo://app?vid=422d94f6-9fc7-4855-9b60-2ca9d32316af"},"vehicle_type_id":"4","last_reported":1759065286,"current_range_meters":16000,"station_id":"ce4bgn92rcd13ifvqbvg","pricing_plan_id":"cebpf4jnsgd1na2vs0mg"},{"bike_id":"80b98ce0-3233-47ce-84db-722943723d1e","system_id":"levelo_inurba_marseille","lat":43.269329,"lon":5.38928,"is_reserved":false,"is_disabled":false,"rental_uris":{"android":"levelo://app?vid=80b98ce0-3233-47ce-84db-722943723d1e","ios":"levelo://app?vid=80b98ce0-3233-47ce-84db-722943723d1e"},"vehicle_type_id":"4","last_reported":1759065286,"current_range_meters":16000,"station_id":"","pricing_plan_id":"cebpf4jnsgd1na2vs0mg"},{"bike_id":"bae5902c-b7cf-40a4-9123-e936c8dbf1d8","system_id":"levelo_inurba_marseille","lat":43.21169,"lon":5.35054,"is_reserved":false,"is_disabled":false,"rental_uris":{"android":"levelo://app?vid=bae5902c-b7cf-40a4-9123-e936c8dbf1d8","ios":"levelo://app?vid=bae5902c-b7cf-40a4-9123-e936c8dbf1d8"},"vehicle_type_id":"4","last_reported":1759065286,"current_range_meters":16000,"station_id":"st_cvj6sg6p6f1abm77japg","pricing_plan_id":"cebpf4jnsgd1na2vs0mg"},{"bike_id":"0656741e-4baa-4804-921b-3ed5233045aa","system_id":"levelo_inurba_marseille","lat":43.24633,"lon":5.4313,"is_reserved":false,"is_disabled":false,"rental_uris":{"android":"levelo://app?vid=0656741e-4baa-4804-921b-3ed5233045aa","ios":"levelo://app?vid=0656741e-4baa-4804-921b-3ed5233045aa"},"vehicle_type_id":"4","last_reported":1759065286,"current_range_meters":16000,"station_id":"st_d2m6c4gdas8pm72e190g","pricing_plan_id":"cebpf4jnsgd1na2vs0mg"},{"bike_id":"3ecab9fb-ebd1-48b2-bfce-30928b04fa5e","system_id":"levelo_inurba_marseille","lat":43.26283,"lon":5.39886,"is_reserved":false,"is_disabled":false,"rental_uris":{"android":"levelo://app?vid=3ecab9fb-ebd1-48b2-bfce-30928b04fa5e","ios":"levelo://app?vid=3ecab9fb-ebd1-48b2-bfce-30928b04fa5e"},"vehicle_type_id":"4","last_reported":1759065286,"current_range_meters":16000,"station_id":"","pricing_plan_id":"cebpf4jnsgd1na2vs0mg"},{"bike_id":"8b93ea1c-9712-46fe-8b54-d75a5dda80e7","system_id":"levelo_inurba_marseille","lat":43.246572,"lon":5.381622,"is_reserved":false,"is_disabled":false,"rental_uris":{"android":"levelo://app?vid=8b93ea1c-9712-46fe-8b54-d75a5dda80e7","ios":"levelo://app?vid=8b93ea1c-9712-46fe-8b54-d75a5dda80e7"},"vehicle_type_id":"4","last_reported":1759065286,"current_range_meters":16000,"station_id":"ce4bhih2rcd13ifvqfr0","pricing_plan_id":"cebpf4jnsgd1na2vs0mg"},{"bike_id":"677a0b1c-d5ca-4154-a464-cd0c0a8279d2","system_id":"levelo_inurba_marseille","lat":43.29016,"lon":5.35612,"is_reserved":false,"is_disabled":true,"rental_uris":{"android":"levelo://app?vid=677a0b1c-d5ca-4154-a464-cd0c0a8279d2","ios":"levelo://app?vid=677a0b1c-d5ca-4154-a464-cd0c0a8279d2"},"vehicle_type_id":"4","last_reported":1759065286,"current_range_meters":16400,"station_id":"ce4bhb92rcd13ifvqen0","pricing_plan_id":"cebpf4jnsgd1na2vs0mg"},{"bike_id":"73bbd8a8-62e4-4a7e-9641-f59dbff0423a","system_id":"levelo_inurba_marseille","lat":43.30225,"lon":5.3946,"is_reserved":false,"is_disabled":true,"rental_uris":{"android":"levelo://app?vid=73bbd8a8-62e4-4a7e-9641-f59dbff0423a","ios":"levelo://app?vid=73bbd8a8-62e4-4a7e-9641-f59dbff0423a"},"vehicle_type_id":"4","last_reported":1759065286,"current_range_meters":16400,"station_id":"ce4bh0p2rcd13ifvqd70","pricing_plan_id":"cebpf4jnsgd1na2vs0mg"},{"bike_id":"c8eb7660-6046-4e9c-8c85-8306cbdbfdf8","system_id":"levelo_inurba_marseille","lat":43.24629,"lon":5.4315,"is_reserved":false,"is_disabled":false,"rental_uris":{"android":"levelo://app?vid=c8eb7660-6046-4e9c-8c85-8306cbdbfdf8","ios":"levelo://app?vid=c8eb7660-6046-4e9c-8c85-8306cbdbfdf8"},"vehicle_type_id":"4","last_reported":1759065286,"current_range_meters":16400,"station_id":"st_d2m6c4gdas8pm72e190g","pricing_plan_id":"cebpf4jnsgd1na2vs0mg"},{"bike_id":"01fcaae0-f6f0-479b-bae0-0c23de576e9e","system_id":"levelo_inurba_marseille","lat":43.21184,"lon":5.3507,"is_reserved":false,"is_disabled":false,"rental_uris":{"android":"levelo://app?vid=01fcaae0-f6f0-479b-bae0-0c23de576e9e","ios":"levelo://app?vid=01fcaae0-f6f0-479b-bae0-0c23de576e9e"},"vehicle_type_id":"4","last_reported":1759065286,"current_range_meters":16400,"station_id":"st_cvj6sg6p6f1abm77japg","pricing_plan_id":"cebpf4jnsgd1na2vs0mg"},{"bike_id":"e7f30816-4be3-4a4d-8c88-9aa039c43386","system_id":"levelo_inurba_marseille","lat":43.30576,"lon":5.3655,"is_reserved":false,"is_disabled":false,"rental_uris":{"android":"levelo://app?vid=e7f30816-4be3-4a4d-8c88-9aa039c43386","ios":"levelo://app?vid=e7f30816-4be3-4a4d-8c88-9aa039c43386"},"vehicle_type_id":"4","last_reported":1759065286,"current_range_meters":16400,"station_id":"ce4bgs12rcd13ifvqcag","pricing_plan_id":"cebpf4jnsgd1na2vs0mg"},{"bike_id":"01d71389-0b80-4650-affd-c19dc5c27b50","system_id":"levelo_inurba_marseille","lat":43.23957,"lon":5.36633,"is_reserved":false,"is_disabled":true,"rental_uris":{"android":"levelo://app?vid=01d71389-0b80-4650-affd-c19dc5c27b50","ios":"levelo://app?vid=01d71389-0b80-4650-affd-c19dc5c27b50"},"vehicle_type_id":"4","last_reported":1759065286,"current_range_meters":16400,"station_id":"ce4bhi12rcd13ifvqfp0","pricing_plan_id":"cebpf4jnsgd1na2vs0mg"},{"bike_id":"f060d515-f268-4371-95a2-f04eea0ad05f","system_id":"levelo_inurba_marseille","lat":43.24642,"lon":5.43127,"is_reserved":false,"is_disabled":false,"rental_uris":{"android":"levelo://app?vid=f060d515-f268-4371-95a2-f04eea0ad05f","ios":"levelo://app?vid=f060d515-f268-4371-95a2-f04eea0ad05f"},"vehicle_type_id":"4","last_reported":1759065286,"current_range_meters":16400,"station_id":"st_d2m6c4gdas8pm72e190g","pricing_plan_id":"cebpf4jnsgd1na2vs0mg"},{"bike_id":"db54ae1e-766a-4881-94b4-a4cf26d411ba","system_id":"levelo_inurba_marseille","lat":43.29255,"lon":5.38433,"is_reserved":false,"is_disabled":true,"rental_uris":{"android":"levelo://app?vid=db54ae1e-766a-4881-94b4-a4cf26d411ba","ios":"levelo://app?vid=db54ae1e-766a-4881-94b4-a4cf26d411ba"},"vehicle_type_id":"4","last_reported":1759065286,"current_range_meters":16800,"station_id":"ce4bh692rcd13ifvqea0","pricing_plan_id":"cebpf4jnsgd1na2vs0mg"},{"bike_id":"1d65299e-cf34-435b-a60a-0ba0d66bcde6","system_id":"levelo_inurba_marseille","lat":43.28403,"lon":5.37515,"is_reserved":false,"is_disabled":true,"rental_uris":{"android":"levelo://app?vid=1d65299e-cf34-435b-a60a-0ba0d66bcde6","ios":"levelo://app?vid=1d65299e-cf34-435b-a60a-0ba0d66bcde6"},"vehicle_type_id":"4","last_reported":1759065286,"current_range_meters":16800,"station_id":"ce4bh412rcd13ifvqds0","pricing_plan_id":"cebpf4jnsgd1na2vs0mg"},{"bike_id":"d16ea7b2-dd60-41b0-a0cf-862f37a1902e","system_id":"levelo_inurba_marseille","lat":43.29624,"lon":5.37721,"is_reserved":false,"is_disabled":false,"rental_uris":{"android":"levelo://app?vid=d16ea7b2-dd60-41b0-a0cf-862f37a1902e","ios":"levelo://app?vid=d16ea7b2-dd60-41b0-a0cf-862f37a1902e"},"vehicle_type_id":"4","last_reported":1759065286,"current_range_meters":16800,"station_id":"ce4bgi92rcd13ifvqb90","pricing_plan_id":"cebpf4jnsgd1na2vs0mg"},{"bike_id":"99e8a4a2-b21a-48b9-8677-5adc5932e949","system_id":"levelo_inurba_marseille","lat":43.23153,"lon":5.43702,"is_reserved":false,"is_disabled":false,"rental_uris":{"android":"levelo://app?vid=99e8a4a2-b21a-48b9-8677-5adc5932e949","ios":"levelo://app?vid=99e8a4a2-b21a-48b9-8677-5adc5932e949"},"vehicle_type_id":"4","last_reported":1759065286,"current_range_meters":16800,"station_id":"ce4bhmp2rcd13ifvqgog","pricing_plan_id":"cebpf4jnsgd1na2vs0mg"},{"bike_id":"0aaeaeea-f989-4189-a35c-12287226941b","system_id":"levelo_inurba_marseille","lat":43.26556,"lon":5.37281,"is_reserved":false,"is_disabled":false,"rental_uris":{"android":"levelo://app?vid=0aaeaeea-f989-4189-a35c-12287226941b","ios":"levelo://app?vid=0aaeaeea-f989-4189-a35c-12287226941b"},"vehicle_type_id":"4","last_reported":1759065286,"current_range_meters":16800,"station_id":"ce4bhg12rcd13ifvqf70","pricing_plan_id":"cebpf4jnsgd1na2vs0mg"},{"bike_id":"48b20b0d-e102-48c2-bed2-5ad13a5eeb87","system_id":"levelo_inurba_marseille","lat":43.28411,"lon":5.34977,"is_reserved":false,"is_disabled":false,"rental_uris":{"android":"levelo://app?vid=48b20b0d-e102-48c2-bed2-5ad13a5eeb87","ios":"levelo://app?vid=48b20b0d-e102-48c2-bed2-5ad13a5eeb87"},"vehicle_type_id":"4","last_reported":1759065286,"current_range_meters":16800,"station_id":"ce4bhbh2rcd13ifvqepg","pricing_plan_id":"cebpf4jnsgd1na2vs0mg"},{"bike_id":"74dab905-f0a5-4a35-8e06-8ce13422dbf0","system_id":"levelo_inurba_marseille","lat":43.29528,"lon":5.38742,"is_reserved":false,"is_disabled":false,"rental_uris":{"android":"levelo://app?vid=74dab905-f0a5-4a35-8e06-8ce13422dbf0","ios":"levelo://app?vid=74dab905-f0a5-4a35-8e06-8ce13422dbf0"},"vehicle_type_id":"4","last_reported":1759065286,"current_range_meters":16800,"station_id":"","pricing_plan_id":"cebpf4jnsgd1na2vs0mg"},{"bike_id":"89fe513c-a434-4cf8-a56c-ee0844b2f3be","system_id":"levelo_inurba_marseille","lat":43.29975,"lon":5.38491,"is_reserved":false,"is_disabled":true,"rental_uris":{"android":"levelo://app?vid=89fe513c-a434-4cf8-a56c-ee0844b2f3be","ios":"levelo://app?vid=89fe513c-a434-4cf8-a56c-ee0844b2f3be"},"vehicle_type_id":"4","last_reported":1759065286,"current_range_meters":16800,"station_id":"ce4bgj92rcd13ifvqbd0","pricing_plan_id":"cebpf4jnsgd1na2vs0mg"},{"bike_id":"24480dd6-800c-4b10-9af9-6455ad90569d","system_id":"levelo_inurba_marseille","lat":43.29576,"lon":5.37519,"is_reserved":false,"is_disabled":false,"rental_uris":{"android":"levelo://app?vid=24480dd6-800c-4b10-9af9-6455ad90569d","ios":"levelo://app?vid=24480dd6-800c-4b10-9af9-6455ad90569d"},"vehicle_type_id":"4","last_reported":1759065286,"current_range_meters":16800,"station_id":"ce4bgh92rcd13ifvqb50","pricing_plan_id":"cebpf4jnsgd1na2vs0mg"},{"bike_id":"9c4235da-d3d0-4056-aa6b-c6aa6e8e7367","system_id":"levelo_inurba_marseille","lat":43.30665,"lon":5.37509,"is_reserved":false,"is_disabled":false,"rental_uris":{"android":"levelo://app?vid=9c4235da-d3d0-4056-aa6b-c6aa6e8e7367","ios":"levelo://app?vid=9c4235da-d3d0-4056-aa6b-c6aa6e8e7367"},"vehicle_type_id":"4","last_reported":1759065286,"current_range_meters":16800,"station_id":"","pricing_plan_id":"cebpf4jnsgd1na2vs0mg"},{"bike_id":"470494ca-cc92-47a4-8039-70c68c9afe18","system_id":"levelo_inurba_marseille","lat":43.24391,"lon":5.3707,"is_reserved":false,"is_disabled":false,"rental_uris":{"android":"levelo://app?vid=470494ca-cc92-47a4-8039-70c68c9afe18","ios":"levelo://app?vid=470494ca-cc92-47a4-8039-70c68c9afe18"},"vehicle_type_id":"4","last_reported":1759065286,"current_range_meters":16800,"station_id":"ce4bhhh2rcd13ifvqfk0","pricing_plan_id":"cebpf4jnsgd1na2vs0mg"},{"bike_id":"31b129bc-fda0-4e29-817e-a219e2fdc059","system_id":"levelo_inurba_marseille","lat":43.25881,"lon":5.39885,"is_reserved":false,"is_disabled":false,"rental_uris":{"android":"levelo://app?vid=31b129bc-fda0-4e29-817e-a219e2fdc059","ios":"levelo://app?vid=31b129bc-fda0-4e29-817e-a219e2fdc059"},"vehicle_type_id":"4","last_reported":1759065286,"current_range_meters":17200,"station_id":"ce4bhl92rcd13ifvqghg","pricing_plan_id":"cebpf4jnsgd1na2vs0mg"},{"bike_id":"d0b3d212-f5a7-4abd-a7f9-53ed0dd48eb7","system_id":"levelo_inurba_marseille","lat":43.28264,"lon":5.35062,"is_reserved":false,"is_disabled":false,"rental_uris":{"android":"levelo://app?vid=d0b3d212-f5a7-4abd-a7f9-53ed0dd48eb7","ios":"levelo://app?vid=d0b3d212-f5a7-4abd-a7f9-53ed0dd48eb7"},"vehicle_type_id":"4","last_reported":1759065286,"current_range_meters":16800,"station_id":"ce4bhbp2rcd13ifvqerg","pricing_plan_id":"cebpf4jnsgd1na2vs0mg"},{"bike_id":"52c84e1b-4d26-4791-bbdd-dcd38cf1f46e","system_id":"levelo_inurba_marseille","lat":43.24163,"lon":5.3637,"is_reserved":false,"is_disabled":false,"rental_uris":{"android":"levelo://app?vid=52c84e1b-4d26-4791-bbdd-dcd38cf1f46e","ios":"levelo://app?vid=52c84e1b-4d26-4791-bbdd-dcd38cf1f46e"},"vehicle_type_id":"4","last_reported":1759065286,"current_range_meters":17200,"station_id":"cpo36qri1sfpv3e86is0","pricing_plan_id":"cebpf4jnsgd1na2vs0mg"},{"bike_id":"29cfda73-00db-4929-a2b3-ce8279930d59","system_id":"levelo_inurba_marseille","lat":43.31142,"lon":5.37712,"is_reserved":false,"is_disabled":false,"rental_uris":{"android":"levelo://app?vid=29cfda73-00db-4929-a2b3-ce8279930d59","ios":"levelo://app?vid=29cfda73-00db-4929-a2b3-ce8279930d59"},"vehicle_type_id":"4","last_reported":1759065286,"current_range_meters":17200,"station_id":"","pricing_plan_id":"cebpf4jnsgd1na2vs0mg"},{"bike_id":"384efac5-59f9-4f69-9707-df501f006913","system_id":"levelo_inurba_marseille","lat":43.24635,"lon":5.43146,"is_reserved":false,"is_disabled":false,"rental_uris":{"android":"levelo://app?vid=384efac5-59f9-4f69-9707-df501f006913","ios":"levelo://app?vid=384efac5-59f9-4f69-9707-df501f006913"},"vehicle_type_id":"4","last_reported":1759065286,"current_range_meters":17600,"station_id":"st_d2m6c4gdas8pm72e190g","pricing_plan_id":"cebpf4jnsgd1na2vs0mg"},{"bike_id":"27639a38-d715-4834-a88a-1024cb735e8b","system_id":"levelo_inurba_marseille","lat":43.32372,"lon":5.38882,"is_reserved":false,"is_disabled":false,"rental_uris":{"android":"levelo://app?vid=27639a38-d715-4834-a88a-1024cb735e8b","ios":"levelo://app?vid=27639a38-d715-4834-a88a-1024cb735e8b"},"vehicle_type_id":"4","last_reported":1759065286,"current_range_meters":17600,"station_id":"ce4bhqp2rcd13ifvqhog","pricing_plan_id":"cebpf4jnsgd1na2vs0mg"},{"bike_id":"edbde5bd-2d40-4383-8fce-de60fa73ebf1","system_id":"levelo_inurba_marseille","lat":43.26028,"lon":5.37546,"is_reserved":false,"is_disabled":false,"rental_uris":{"android":"levelo://app?vid=edbde5bd-2d40-4383-8fce-de60fa73ebf1","ios":"levelo://app?vid=edbde5bd-2d40-4383-8fce-de60fa73ebf1"},"vehicle_type_id":"4","last_reported":1759065286,"current_range_meters":17200,"station_id":"ce4bhgh2rcd13ifvqfa0","pricing_plan_id":"cebpf4jnsgd1na2vs0mg"},