{"last_updated":1727341763,"ttl":60,"version":"2.2","data":{"bikes":[{"bike_id":"f82c8257-bab0-4d5a-b202-1064bb5dc194","system_id":"levelo_inurba_marseille","lat":43.27076,"lon":5.42277,"is_reserved":false,"is_disabled":false,"rental_uris":{"android":"levelo://app?vid=f82c8257-bab0-4d5a-b202-1064bb5dc194","ios":"levelo://app?vid=f82c8257-bab0-4d5a-b202-1064bb5dc194"},"vehicle_type_id":"4","last_reported":1727341764,"current_range_meters":12400,"station_id":"ce4bhk92rcd13ifvqgb0","pricing_plan_id":"cebpf4jnsgd1na2vs0mg"},{"bike_id":"2f3efc0e-dc90-4c60-98eb-a6d5b154f6e0","system_id":"levelo_inurba_marseille","lat":43.29838,"lon":5.36269,"is_reserved":false,"is_disabled":false,"rental_uris":{"android":"levelo://app?vid=2f3efc0e-dc90-4c60-98eb-a6d5b154f6e0","ios":"levelo://app?vid=2f3efc0e-dc90-4c60-98eb-a6d5b154f6e0"},"vehicle_type_id":"4","last_reported":1727341764,"current_range_meters":4400,"station_id":"ce4bgpp2rcd13ifvqc3g","pricing_plan_id":"cebpf4jnsgd1na2vs0mg"},{"bike_id":"8bc53cdf-0b0e-4448-88b8-b15c46af21d2","system_id":"levelo_inurba_marseille","lat":43.26699,"lon":5.38269,"is_reserved":false,"is_disabled":false,"rental_uris":{"android":"levelo://app?vid=8bc53cdf-0b0e-4448-88b8-b15c46af21d2","ios":"levelo://app?vid=8bc53cdf-0b0e-4448-88b8-b15c46af21d2"},"vehicle_type_id":"4","last_reported":1727341764,"current_range_meters":38800,"station_id":"ce4bhg92rcd13ifvqf90","pricing_plan_id":"cebpf4jnsgd1na2vs0mg"},{"bike_id":"56ec2c14-3439-479d-a467-8970648caa23","system_id":"levelo_inurba_marseille","lat":43.255188,"lon":5.376604,"is_reserved":false,"is_disabled":false,"rental_uris":{"android":"levelo://app?vid=56ec2c14-3439-479d-a467-8970648caa23","ios":"levelo://app?vid=56ec2c14-3439-479d-a467-8970648caa23"},"vehicle_type_id":"4","last_reported":1727341764,"current_range_meters":22800,"station_id":"ce4bhh12rcd13ifvqff0","pricing_plan_id":"cebpf4jnsgd1na2vs0mg"},{"bike_id":"74d68aab-dcd1-4d0a-976e-418b8bad0fdd","system_id":"levelo_inurba_marseille","lat":43.23149,"lon":5.43699,"is_reserved":false,"is_disabled":false,"rental_uris":{"android":"levelo://app?vid=74d68aab-dcd1-4d0a-976e-418b8bad0fdd","ios":"levelo://app?vid=74d68aab-dcd1-4d0a-976e-418b8bad0fdd"},"vehicle_type_id":"4","last_reported":1727341764,"current_range_meters":38400,"station_id":"ce4bhmp2rcd13ifvqgog","pricing_plan_id":"cebpf4jnsgd1na2vs0mg"},{"bike_id":"6867a5cc-3719-43a0-a0a1-1af2b8b70384","system_id":"levelo_inurba_marseille","lat":43.30459,"lon":5.37896,"is_reserved":false,"is_disabled":false,"rental_uris":{"android":"levelo://app?vid=6867a5cc-3719-43a0-a0a1-1af2b8b70384","ios":"levelo://app?vid=6867a5cc-3719-43a0-a0a1-1af2b8b70384"},"vehicle_type_id":"4","last_reported":1727341764,"current_range_meters":39200,"station_id":"ce4bgup2rcd13ifvqcn0","pricing_plan_id":"cebpf4jnsgd1na2vs0mg"},{"bike_id":"bcd2ae98-ab9d-4259-8697-47911a18774c","system_id":"levelo_inurba_marseille","lat":43.290314,"lon":5.376803,"is_reserved":false,"is_disabled":false,"rental_uris":{"android":"levelo://app?vid=bcd2ae98-ab9d-4259-8697-47911a18774c","ios":"levelo://app?vid=bcd2ae98-ab9d-4259-8697-47911a18774c"},"vehicle_type_id":"4","last_reported":1727341764,"current_range_meters":38800,"station_id":"ce4bh692rcd13ifvqe90","pricing_plan_id":"cebpf4jnsgd1na2vs0mg"},{"bike_id":"f2d346e2-35ed-4bb7-ae46-f1e76162498b","system_id":"levelo_inurba_marseille","lat":43.2407,"lon":5.37744,"is_reserved":false,"is_disabled":false,"rental_uris":{"android":"levelo://app?vid=f2d346e2-35ed-4bb7-ae46-f1e76162498b","ios":"levelo://app?vid=f2d346e2-35ed-4bb7-ae46-f1e76162498b"},"vehicle_type_id":"4","last_reported":1727341764,"current_range_meters":34800,"station_id":"ce4bhnp2rcd13ifvqgvg","pricing_plan_id":"cebpf4jnsgd1na2vs0mg"},{"bike_id":"e324bd11-9a04-409a-bde4-0b52ee496d60","system_id":"levelo_inurba_marseille","lat":43.30904,"lon":5.36844,"is_reserved":false,"is_disabled":false,"rental_uris":{"android":"levelo://app?vid=e324bd11-9a04-409a-bde4-0b52ee496d60","ios":"levelo://app?vid=e324bd11-9a04-409a-bde4-0b52ee496d60"},"vehicle_type_id":"4","last_reported":1727341764,"current_range_meters":32400,"station_id":"ce4bgn92rcd13ifvqbvg","pricing_plan_id":"cebpf4jnsgd1na2vs0mg"},{"bike_id":"3ade15d9-4038-4fe2-a9fb-2515b89ae4bd","system_id":"levelo_inurba_marseille","lat":43.24559,"lon":5.39523,"is_reserved":false,"is_disabled":false,"rental_uris":{"android":"levelo://app?vid=3ade15d9-4038-4fe2-a9fb-2515b89ae4bd","ios":"levelo://app?vid=3ade15d9-4038-4fe2-a9fb-2515b89ae4bd"},"vehicle_type_id":"4","last_reported":1727341764,"current_range_meters":33600,"station_id":"ce4bhlp2rcd13ifvqgjg","pricing_plan_id":"cebpf4jnsgd1na2vs0mg"},{"bike_id":"40ec5bfa-1b9f-4e34-8561-543b16e14199","system_id":"levelo_inurba_marseille","lat":43.27488,"lon":5.42455,"is_reserved":false,"is_disabled":false,"rental_uris":{"android":"levelo://app?vid=40ec5bfa-1b9f-4e34-8561-543b16e14199","ios":"levelo://app?vid=40ec5bfa-1b9f-4e34-8561-543b16e14199"},"vehicle_type_id":"4","last_reported":1727341764,"current_range_meters":24800,"station_id":"ce4bhn92rcd13ifvqgrg","pricing_plan_id":"cebpf4jnsgd1na2vs0mg"},{"bike_id":"c3dc0bfd-1047-4800-8b7c-7d8cb2ac491b","system_id":"levelo_inurba_marseille","lat":43.3054,"lon":5.36528,"is_reserved":false,"is_disabled":false,"rental_uris":{"android":"levelo://app?vid=c3dc0bfd-1047-4800-8b7c-7d8cb2ac491b","ios":"levelo://app?vid=c3dc0bfd-1047-4800-8b7c-7d8cb2ac491b"},"vehicle_type_id":"4","last_reported":1727341764,"current_range_meters":25200,"station_id":"ce4bgs12rcd13ifvqcag","pricing_plan_id":"cebpf4jnsgd1na2vs0mg"},{"bike_id":"f7817ba7-e252-458f-ae87-46b773db6a5d","system_id":"levelo_inurba_marseille","lat":43.2406,"lon":5.37716,"is_reserved":false,"is_disabled":false,"rental_uris":{"android":"levelo://app?vid=f7817ba7-e252-458f-ae87-46b773db6a5d","ios":"levelo://app?vid=f7817ba7-e252-458f-ae87-46b773db6a5d"},"vehicle_type_id":"4","last_reported":1727341764,"current_range_meters":11200,"station_id":"ce4bhnp2rcd13ifvqgvg","pricing_plan_id":"cebpf4jnsgd1na2vs0mg"},{"bike_id":"e46ff160-d947-4030-ac63-bf4012cce178","system_id":"levelo_inurba_marseille","lat":43.32652,"lon":5.40983,"is_reserved":false,"is_disabled":false,"rental_uris":{"android":"levelo://app?vid=e46ff160-d947-4030-ac63-bf4012cce178","ios":"levelo://app?vid=e46ff160-d947-4030-ac63-bf4012cce178"},"vehicle_type_id":"4","last_reported":1727341764,"current_range_meters":38400,"station_id":"ce4bhpp2rcd13ifvqhgg","pricing_plan_id":"cebpf4jnsgd1na2vs0mg"},{"bike_id":"15d7c3a9-d9ec-41ce-86e8-1cad926acbcc","system_id":"levelo_inurba_marseille","lat":43.28706,"lon":5.39984,"is_reserved":false,"is_disabled":false,"rental_uris":{"android":"levelo://app?vid=15d7c3a9-d9ec-41ce-86e8-1cad926acbcc","ios":"levelo://app?vid=15d7c3a9-d9ec-41ce-86e8-1cad926acbcc"},"vehicle_type_id":"4","last_reported":1727341764,"current_range_meters":37600,"station_id":"ce4bho92rcd13ifvqh3g","pricing_plan_id":"cebpf4jnsgd1na2vs0mg"},{"bike_id":"eb965b44-7547-4d6c-8d03-5439b5c3f4a8","system_id":"levelo_inurba_marseille","lat":43.27482,"lon":5.42466,"is_reserved":false,"is_disabled":false,"rental_uris":{"android":"levelo://app?vid=eb965b44-7547-4d6c-8d03-5439b5c3f4a8","ios":"levelo://app?vid=eb965b44-7547-4d6c-8d03-5439b5c3f4a8"},"vehicle_type_id":"4","last_reported":1727341764,"current_range_meters":14400,"station_id":"ce4bhn92rcd13ifvqgrg","pricing_plan_id":"cebpf4jnsgd1na2vs0mg"},{"bike_id":"3b8b1f92-ed32-436e-9e7c-472e6ff0fca3","system_id":"levelo_inurba_marseille","lat":43.27067,"lon":5.42279,"is_reserved":false,"is_disabled":false,"rental_uris":{"android":"levelo://app?vid=3b8b1f92-ed32-436e-9e7c-472e6ff0fca3","ios":"levelo://app?vid=3b8b1f92-ed32-436e-9e7c-472e6ff0fca3"},"vehicle_type_id":"4","last_reported":1727341764,"current_range_meters":6800,"station_id":"ce4bhk92rcd13ifvqgb0","pricing_plan_id":"cebpf4jnsgd1na2vs0mg"},{"bike_id":"818eb369-4c70-42e8-b04d-afc706498bad","system_id":"levelo_inurba_marseille","lat":43.30271,"lon":5.37699,"is_reserved":false,"is_disabled":false,"rental_uris":{"android":"levelo://app?vid=818eb369-4c70-42e8-b04d-afc706498bad","ios":"levelo://app?vid=818eb369-4c70-42e8-b04d-afc706498bad"},"vehicle_type_id":"4","last_reported":1727341764,"current_range_meters":39200,"station_id":"ce4bguh2rcd13ifvqcj0","pricing_plan_id":"cebpf4jnsgd1na2vs0mg"},{"bike_id":"9fa4f99d-a411-4ef4-b6c8-d9fd7e40a915","system_id":"levelo_inurba_marseille","lat":43.23193,"lon":5.35548,"is_reserved":false,"is_disabled":false,"rental_uris":{"android":"levelo://app?vid=9fa4f99d-a411-4ef4-b6c8-d9fd7e40a915","ios":"levelo://app?vid=9fa4f99d-a411-4ef4-b6c8-d9fd7e40a915"},"vehicle_type_id":"4","last_reported":1727341764,"current_range_meters":28000,"station_id":"ce4bhu92rcd13ifvqi70","pricing_plan_id":"cebpf4jnsgd1na2vs0mg"},{"bike_id":"18dcc2de-6658-4930-a51b-2c944671767f","system_id":"levelo_inurba_marseille","lat":43.313499,"lon":5.367026,"is_reserved":false,"is_disabled":false,"rental_uris":{"android":"levelo://app?vid=18dcc2de-6658-4930-a51b-2c944671767f","ios":"levelo://app?vid=18dcc2de-6658-4930-a51b-2c944671767f"},"vehicle_type_id":"4","last_reported":1727341764,"current_range_meters":32000,"station_id":"ce4bgr92rcd13ifvqc6g","pricing_plan_id":"cebpf4jnsgd1na2vs0mg"},{"bike_id":"6f81454f-c6f2-4c20-86c3-cce455ad9812","system_id":"levelo_inurba_marseille","lat":43.27493,"lon":5.42457,"is_reserved":false,"is_disabled":false,"rental_uris":{"android":"levelo://app?vid=6f81454f-c6f2-4c20-86c3-cce455ad9812","ios":"levelo://app?vid=6f81454f-c6f2-4c20-86c3-cce455ad9812"},"vehicle_type_id":"4","last_reported":1727341764,"current_range_meters":8000,"station_id":"ce4bhn92rcd13ifvqgrg","pricing_plan_id":"cebpf4jnsgd1na2vs0mg"},{"bike_id":"76f04f0b-8972-4855-8f16-68c3285d8689","system_id":"levelo_inurba_marseille","lat":43.29166,"lon":5.37154,"is_reserved":false,"is_disabled":false,"rental_uris":{"android":"levelo://app?vid=76f04f0b-8972-4855-8f16-68c3285d8689","ios":"levelo://app?vid=76f04f0b-8972-4855-8f16-68c3285d8689"},"vehicle_type_id":"4","last_reported":1727341764,"current_range_meters":3600,"station_id":"ce4bha92rcd13ifvqeh0","pricing_plan_id":"cebpf4jnsgd1na2vs0mg"},{"bike_id":"9821750f-6a14-4833-8735-fbaef1ad8e28","system_id":"levelo_inurba_marseille","lat":43.29928,"lon":5.36532,"is_reserved":false,"is_disabled":false,"rental_uris":{"android":"levelo://app?vid=9821750f-6a14-4833-8735-fbaef1ad8e28","ios":"levelo://app?vid=9821750f-6a14-4833-8735-fbaef1ad8e28"},"vehicle_type_id":"4","last_reported":1727341764,"current_range_meters":17600,"station_id":"ce4bgm92rcd13ifvqbr0","pricing_plan_id":"cebpf4jnsgd1na2vs0mg"},{"bike_id":"90f01120-67fa-4ef1-b4c3-3c9f7df17fa0","system_id":"levelo_inurba_marseille","lat":43.30156,"lon":5.38075,"is_reserved":false,"is_disabled":false,"rental_uris":{"android":"levelo://app?vid=90f01120-67fa-4ef1-b4c3-3c9f7df17fa0","ios":"levelo://app?vid=90f01120-67fa-4ef1-b4c3-3c9f7df17fa0"},"vehicle_type_id":"4","last_reported":1727341764,"current_range_meters":32800,"station_id":"ce4bgjp2rcd13ifvqbh0","pricing_plan_id":"cebpf4jnsgd1na2vs0mg"},{"bike_id":"eafd53b1-010f-48f5-93e8-ec1c20ebf7cc","system_id":"levelo_inurba_marseille","lat":43.30903,"lon":5.36855,"is_reserved":false,"is_disabled":false,"rental_uris":{"android":"levelo://app?vid=eafd53b1-010f-48f5-93e8-ec1c20ebf7cc","ios":"levelo://app?vid=eafd53b1-010f-48f5-93e8-ec1c20ebf7cc"},"vehicle_type_id":"4","last_reported":1727341764,"current_range_meters":27200,"station_id":"ce4bgn92rcd13ifvqbvg","pricing_plan_id":"cebpf4jnsgd1na2vs0mg"},{"bike_id":"98a297bf-4fdd-4e06-9f56-610226c5414c","system_id":"levelo_inurba_marseille","lat":43.3361,"lon":5.41033,"is_reserved":false,"is_disabled":false,"rental_uris":{"android":"levelo://app?vid=98a297bf-4fdd-4e06-9f56-610226c5414c","ios":"levelo://app?vid=98a297bf-4fdd-4e06-9f56-610226c5414c"},"vehicle_type_id":"4","last_reported":1727341764,"current_range_meters":4800,"station_id":"ce4bhqh2rcd13ifvqhmg","pricing_plan_id":"cebpf4jnsgd1na2vs0mg"},{"bike_id":"ef070f67-7946-467a-a946-98a3e79e3941","system_id":"levelo_inurba_marseille","lat":43.27911,"lon":5.41363,"is_reserved":false,"is_disabled":false,"rental_uris":{"android":"levelo://app?vid=ef070f67-7946-467a-a946-98a3e79e3941","ios":"levelo://app?vid=ef070f67-7946-467a-a946-98a3e79e3941"},"vehicle_type_id":"4","last_reported":1727341764,"current_range_meters":36400,"station_id":"","pricing_plan_id":"cebpf4jnsgd1na2vs0mg"},{"bike_id":"15f5f257-3d2a-4028-becb-fa65e24c49ea","system_id":"levelo_inurba_marseille","lat":43.3136,"lon":5.38488,"is_reserved":false,"is_disabled":false,"rental_uris":{"android":"levelo://app?vid=15f5f257-3d2a-4028-becb-fa65e24c49ea","ios":"levelo://app?vid=15f5f257-3d2a-4028-becb-fa65e24c49ea"},"vehicle_type_id":"4","last_reported":1727341764,"current_range_meters":21600,"station_id":"ce4bgt92rcd13ifvqcf0","pricing_plan_id":"cebpf4jnsgd1na2vs0mg"},{"bike_id":"b0da3b8b-593c-4a97-b84c-abb310164520","system_id":"levelo_inurba_marseille","lat":43.31347,"lon":5.36716,"is_reserved":false,"is_disabled":false,"rental_uris":{"android":"levelo://app?vid=b0da3b8b-593c-4a97-b84c-abb310164520","ios":"levelo://app?vid=b0da3b8b-593c-4a97-b84c-abb310164520"},"vehicle_type_id":"4","last_reported":1727341764,"current_range_meters":30400,"station_id":"ce4bgr92rcd13ifvqc6g","pricing_plan_id":"cebpf4jnsgd1na2vs0mg"},{"bike_id":"8558800d-510d-485f-92b3-9d01cd114fab","system_id":"levelo_inurba_marseille","lat":43.29525,"lon":5.39397,"is_reserved":false,"is_disabled":false,"rental_uris":{"android":"levelo://app?vid=8558800d-510d-485f-92b3-9d01cd114fab","ios":"levelo://app?vid=8558800d-510d-485f-92b3-9d01cd114fab"},"vehicle_type_id":"4","last_reported":1727341764,"current_range_meters":32400,"station_id":"ce4bh292rcd13ifvqdf0","pricing_plan_id":"cebpf4jnsgd1na2vs0mg"},{"bike_id":"64458427-85d5-4ac4-8859-e4ecdf247b77","system_id":"levelo_inurba_marseille","lat":43.3014,"lon":5.37417,"is_reserved":false,"is_disabled":false,"rental_uris":{"android":"levelo://app?vid=64458427-85d5-4ac4-8859-e4ecdf247b77","ios":"levelo://app?vid=64458427-85d5-4ac4-8859-e4ecdf247b77"},"vehicle_type_id":"4","last_reported":1727341764,"current_range_meters":34000,"station_id":"ce4bgs92rcd13ifvqcc0","pricing_plan_id":"cebpf4jnsgd1na2vs0mg"},{"bike_id":"b2f9bb05-66bd-4925-8263-7d95ed712e7c","system_id":"levelo_inurba_marseille","lat":43.29527,"lon":5.38541,"is_reserved":false,"is_disabled":false,"rental_uris":{"android":"levelo://app?vid=b2f9bb05-66bd-4925-8263-7d95ed712e7c","ios":"levelo://app?vid=b2f9bb05-66bd-4925-8263-7d95ed712e7c"},"vehicle_type_id":"4","last_reported":1727341764,"current_range_meters":26800,"station_id":"ce4bgih2rcd13ifvqba0","pricing_plan_id":"cebpf4jnsgd1na2vs0mg"},{"bike_id":"7737b815-6daf-41f0-8354-4b28ba75917f","system_id":"levelo_inurba_marseille","lat":43.30184,"lon":5.39822,"is_reserved":false,"is_disabled":false,"rental_uris":{"android":"levelo://app?vid=7737b815-6daf-41f0-8354-4b28ba75917f","ios":"levelo://app?vid=7737b815-6daf-41f0-8354-4b28ba75917f"},"vehicle_type_id":"4","last_reported":1727341764,"current_range_meters":12400,"station_id":"ce4bgvp2rcd13ifvqct0","pricing_plan_id":"cebpf4jnsgd1na2vs0mg"},{"bike_id":"3df56cf6-183d-48e0-8c1c-f8eaad3a37e3","system_id":"levelo_inurba_marseille","lat":43.24084,"lon":5.37748,"is_reserved":false,"is_disabled":false,"rental_uris":{"android":"levelo://app?vid=3df56cf6-183d-48e0-8c1c-f8eaad3a37e3","ios":"levelo://app?vid=3df56cf6-183d-48e0-8c1c-f8eaad3a37e3"},"vehicle_type_id":"4","last_reported":1727341764,"current_range_meters":21600,"station_id":"ce4bhnp2rcd13ifvqgvg","pricing_plan_id":"cebpf4jnsgd1na2vs0mg"},{"bike_id":"da46a019-d715-418c-86b6-c032c73ef947","system_id":"levelo_inurba_marseille","lat":43.2958,"lon":5.36741,"is_reserved":false,"is_disabled":false,"rental_uris":{"android":"levelo://app?vid=da46a019-d715-418c-86b6-c032c73ef947","ios":"levelo://app?vid=da46a019-d715-418c-86b6-c032c73ef947"},"vehicle_type_id":"4","last_reported":1727341764,"current_range_meters":20000,"station_id":"ce4bgph2rcd13ifvqc2g","pricing_plan_id":"cebpf4jnsgd1na2vs0mg"},{"bike_id":"379d63ca-2f4e-4723-ada2-e0ac6c8bd9b2","system_id":"levelo_inurba_marseille","lat":43.24077,"lon":5.37758,"is_reserved":false,"is_disabled":false,"rental_uris":{"android":"levelo://app?vid=379d63ca-2f4e-4723-ada2-e0ac6c8bd9b2","ios":"levelo://app?vid=379d63ca-2f4e-4723-ada2-e0ac6c8bd9b2"},"vehicle_type_id":"4","last_reported":1727341764,"current_range_meters":9600,"station_id":"ce4bhnp2rcd13ifvqgvg","pricing_plan_id":"cebpf4jnsgd1na2vs0mg"},{"bike_id":"3109b08e-97cb-47e0-ba01-1d18ed43f231","system_id":"levelo_inurba_marseille","lat":43.26032,"lon":5.37551,"is_reserved":false,"is_disabled":false,"rental_uris":{"android":"levelo://app?vid=3109b08e-97cb-47e0-ba01-1d18ed43f231","ios":"levelo://app?vid=3109b08e-97cb-47e0-ba01-1d18ed43f231"},"vehicle_type_id":"4","last_reported":1727341764,"current_range_meters":38800,"station_id":"ce4bhgh2rcd13ifvqfa0","pricing_plan_id":"cebpf4jnsgd1na2vs0mg"},{"bike_id":"e14566a6-555f-4434-b8ae-bf20815898da","system_id":"levelo_inurba_marseille","lat":43.26058,"lon":5.39388,"is_reserved":false,"is_disabled":false,"rental_uris":{"android":"levelo://app?vid=e14566a6-555f-4434-b8ae-bf20815898da","ios":"levelo://app?vid=e14566a6-555f-4434-b8ae-bf20815898da"},"vehicle_type_id":"4","last_reported":1727341764,"current_range_meters":8400,"station_id":"ce4bhh92rcd13ifvqfj0","pricing_plan_id":"cebpf4jnsgd1na2vs0mg"},{"bike_id":"86ec87f8-7c00-40fa-adcd-87335ef4639c","system_id":"levelo_inurba_marseille","lat":43.31345,"lon":5.36722,"is_reserved":false,"is_disabled":false,"rental_uris":{"android":"levelo://app?vid=86ec87f8-7c00-40fa-adcd-87335ef4639c","ios":"levelo://app?vid=86ec87f8-7c00-40fa-adcd-87335ef4639c"},"vehicle_type_id":"4","last_reported":1727341764,"current_range_meters":36000,"station_id":"ce4bgr92rcd13ifvqc6g","pricing_plan_id":"cebpf4jnsgd1na2vs0mg"},{"bike_id":"b6daf4df-7c90-4c5e-b397-06a87d15013f","system_id":"levelo_inurba_marseille","lat":43.33702,"lon":5.37443,"is_reserved":false,"is_disabled":false,"rental_uris":{"android":"levelo://app?vid=b6daf4df-7c90-4c5e-b397-06a87d15013f","ios":"levelo://app?vid=b6daf4df-7c90-4c5e-b397-06a87d15013f"},"vehicle_type_id":"4","last_reported":1727341764,"current_range_meters":30800,"station_id":"","pricing_plan_id":"cebpf4jnsgd1na2vs0mg"},{"bike_id":"f71e4327-68c5-4fbd-afb4-e2e415509296","system_id":"levelo_inurba_marseille","lat":43.23153,"lon":5.43719,"is_reserved":false,"is_disabled":false,"rental_uris":{"android":"levelo://app?vid=f71e4327-68c5-4fbd-afb4-e2e415509296","ios":"levelo://app?vid=f71e4327-68c5-4fbd-afb4-e2e415509296"},"vehicle_type_id":"4","last_reported":1727341764,"current_range_meters":5600,"station_id":"ce4bhmp2rcd13ifvqgog","pricing_plan_id":"cebpf4jnsgd1na2vs0mg"},{"bike_id":"6dbdbd0e-21c7-4286-b08d-23971de7f263","system_id":"levelo_inurba_marseille","lat":43.2799,"lon":5.40011,"is_reserved":false,"is_disabled":false,"rental_uris":{"android":"levelo://app?vid=6dbdbd0e-21c7-4286-b08d-23971de7f263","ios":"levelo://app?vid=6dbdbd0e-21c7-4286-b08d-23971de7f263"},"vehicle_type_id":"4","last_reported":1727341764,"current_range_meters":37600,"station_id":"ce4bho92rcd13ifvqh4g","pricing_plan_id":"cebpf4jnsgd1na2vs0mg"},{"bike_id":"dab37bf3-4a86-4251-b6a1-c4d272e4ea4d","system_id":"levelo_inurba_marseille","lat":43.33605,"lon":5.4103,"is_reserved":false,"is_disabled":false,"rental_uris":{"android":"levelo://app?vid=dab37bf3-4a86-4251-b6a1-c4d272e4ea4d","ios":"levelo://app?vid=dab37bf3-4a86-4251-b6a1-c4d272e4ea4d"},"vehicle_type_id":"4","last_reported":1727341764,"current_range_meters":38400,"station_id":"ce4bhqh2rcd13ifvqhmg","pricing_plan_id":"cebpf4jnsgd1na2vs0mg"},{"bike_id":"4d83d334-2ab6-48d6-9c2d-ac5c14ae4175","system_id":"levelo_inurba_marseille","lat":43.30082,"lon":5.39087,"is_reserved":false,"is_disabled":false,"rental_uris":{"android":"levelo://app?vid=4d83d334-2ab6-48d6-9c2d-ac5c14ae4175","ios":"levelo://app?vid=4d83d334-2ab6-48d6-9c2d-ac5c14ae4175"},"vehicle_type_id":"4","last_reported":1727341764,"current_range_meters":38800,"station_id":"ce4bh192rcd13ifvqdb0","pricing_plan_id":"cebpf4jnsgd1na2vs0mg"},{"bike_id":"ac82d897-e001-4942-9da4-df3eb9480018","system_id":"levelo_inurba_marseille","lat":43.33605,"lon":5.41028,"is_reserved":false,"is_disabled":false,"rental_uris":{"android":"levelo://app?vid=ac82d897-e001-4942-9da4-df3eb9480018","ios":"levelo://app?vid=ac82d897-e001-4942-9da4-df3eb9480018"},"vehicle_type_id":"4","last_reported":1727341764,"current_range_meters":30800,"station_id":"ce4bhqh2rcd13ifvqhmg","pricing_plan_id":"cebpf4jnsgd1na2vs0mg"},{"bike_id":"580ae86b-8013-49dd-9a7b-02e865f80137","system_id":"levelo_inurba_marseille","lat":43.29228,"lon":5.36068,"is_reserved":false,"is_disabled":false,"rental_uris":{"android":"levelo://app?vid=580ae86b-8013-49dd-9a7b-02e865f80137","ios":"levelo://app?vid=580ae86b-8013-49dd-9a7b-02e865f80137"},"vehicle_type_id":"4","last_reported":1727341764,"current_range_meters":30000,"station_id":"ce4bhbh2rcd13ifvqeqg","pricing_plan_id":"cebpf4jnsgd1na2vs0mg"},{"bike_id":"920a992c-b9bd-467d-8738-97c73c4e43f7","system_id":"levelo_inurba_marseille","lat":43.31219,"lon":5.36877,"is_reserved":false,"is_disabled":false,"rental_uris":{"android":"levelo://app?vid=920a992c-b9bd-467d-8738-97c73c4e43f7","ios":"levelo://app?vid=920a992c-b9bd-467d-8738-97c73c4e43f7"},"vehicle_type_id":"4","last_reported":1727341764,"current_range_meters":34000,"station_id":"ce4bgl92rcd13ifvqbq0","pricing_plan_id":"cebpf4jnsgd1na2vs0mg"},{"bike_id":"57bc1e84-e83e-4198-85b5-3e7f9c3f0b0b","system_id":"levelo_inurba_marseille","lat":43.24166,"lon":5.36392,"is_reserved":false,"is_disabled":false,"rental_uris":{"android":"levelo://app?vid=57bc1e84-e83e-4198-85b5-3e7f9c3f0b0b","ios":"levelo://app?vid=57bc1e84-e83e-4198-85b5-3e7f9c3f0b0b"},"vehicle_type_id":"4","last_reported":1727341764,"current_range_meters":28400,"station_id":"cpo36qri1sfpv3e86is0","pricing_plan_id":"cebpf4jnsgd1na2vs0mg"},{"bike_id":"7a8458d5-44ac-4f2e-abef-3f01eb31f7ca","system_id":"levelo_inurba_marseille","lat":43.337444,"lon":5.374475,"is_reserved":false,"is_disabled":false,"rental_uris":{"android":"levelo://app?vid=7a8458d5-44ac-4f2e-abef-3f01eb31f7ca","ios":"levelo://app?vid=7a8458d5-44ac-4f2e-abef-3f01eb31f7ca"},"vehicle_type_id":"4","last_reported":1727341764,"current_range_meters":22000,"station_id":"","pricing_plan_id":"cebpf4jnsgd1na2vs0mg"},{"bike_id":"d21f333e-112b-4099-8bbc-e47d4552fd6f","system_id":"levelo_inurba_marseille","lat":43.30418,"lon":5.41279,"is_reserved":false,"is_disabled":false,"rental_uris":{"android":"levelo://app?vid=d21f333e-112b-4099-8bbc-e47d4552fd6f","ios":"levelo://app?vid=d21f333e-112b-4099-8bbc-e47d4552fd6f"},"vehicle_type_id":"4","last_reported":1727341764,"current_range_meters":6800,"station_id":"ce4bhop2rcd13ifvqh8g","pricing_plan_id":"cebpf4jnsgd1na2vs0mg"},{"bike_id":"561a023e-e7ad-4409-b544-1add77743790","system_id":"levelo_inurba_marseille","lat":43.27201,"lon":5.39167,"is_reserved":false,"is_disabled":false,"rental_uris":{"android":"levelo://app?vid=561a023e-e7ad-4409-b544-1add77743790","ios":"levelo://app?vid=561a023e-e7ad-4409-b544-1add77743790"},"vehicle_type_id":"4","last_reported":1727341764,"current_range_meters":32400,"station_id":"ce4bhhp2rcd13ifvqfm0","pricing_plan_id":"cebpf4jnsgd1na2vs0mg"},{"bike_id":"0a5498d1-2c08-4f3d-af23-80c73fef4615","system_id":"levelo_inurba_marseille","lat":43.24074,"lon":5.37755,"is_reserved":false,"is_disabled":false,"rental_uris":{"android":"levelo://app?vid=0a5498d1-2c08-4f3d-af23-80c73fef4615","ios":"levelo://app?vid=0a5498d1-2c08-4f3d-af23-80c73fef4615"},"vehicle_type_id":"4","last_reported":1727341764,"current_range_meters":38400,"station_id":"ce4bhnp2rcd13ifvqgvg","pricing_plan_id":"cebpf4jnsgd1na2vs0mg"},{"bike_id":"388a507e-86c4-4df5-b075-d43d70469bdd","system_id":"levelo_inurba_marseille","lat":43.301753,"lon":5.36612,"is_reserved":false,"is_disabled":false,"rental_uris":{"android":"levelo://app?vid=388a507e-86c4-4df5-b075-d43d70469bdd","ios":"levelo://app?vid=388a507e-86c4-4df5-b075-d43d70469bdd"},"vehicle_type_id":"4","last_reported":1727341764,"current_range_meters":35200,"station_id":"ce4bgrh2rcd13ifvqc8g","pricing_plan_id":"cebpf4jnsgd1na2vs0mg"},{"bike_id":"0ff4805d-5eb0-413d-9fd8-adffbbf2ce16","system_id":"levelo_inurba_marseille","lat":43.29841,"lon":5.36279,"is_reserved":false,"is_disabled":false,"rental_uris":{"android":"levelo://app?vid=0ff4805d-5eb0-413d-9fd8-adffbbf2ce16","ios":"levelo://app?vid=0ff4805d-5eb0-413d-9fd8-adffbbf2ce16"},"vehicle_type_id":"4","last_reported":1727341764,"current_range_meters":39200,"station_id":"ce4bgpp2rcd13ifvqc3g","pricing_plan_id":"cebpf4jnsgd1na2vs0mg"},{"bike_id":"1641169f-2609-48fc-9fa8-62b9cffac069","system_id":"levelo_inurba_marseille","lat":43.30533,"lon":5.36554,"is_reserved":false,"is_disabled":false,"rental_uris":{"android":"levelo://app?vid=1641169f-2609-48fc-9fa8-62b9cffac069","ios":"levelo://app?vid=1641169f-2609-48fc-9fa8-62b9cffac069"},"vehicle_type_id":"4","last_reported":1727341764,"current_range_meters":36800,"station_id":"ce4bgs12rcd13ifvqcag","pricing_plan_id":"cebpf4jnsgd1na2vs0mg"},{"bike_id":"ed9d69a6-a921-4251-b073-fdfe53c8cdc2","system_id":"levelo_inurba_marseille","lat":43.24074,"lon":5.37745,"is_reserved":false,"is_disabled":false,"rental_uris":{"android":"levelo://app?vid=ed9d69a6-a921-4251-b073-fdfe53c8cdc2","ios":"levelo://app?vid=ed9d69a6-a921-4251-b073-fdfe53c8cdc2"},"vehicle_type_id":"4","last_reported":1727341764,"current_range_meters":36800,"station_id":"ce4bhnp2rcd13ifvqgvg","pricing_plan_id":"cebpf4jnsgd1na2vs0mg"},{"bike_id":"988281a9-1e9b-43a6-8fff-090a3d5b8e50","system_id":"levelo_inurba_marseille","lat":43.30948,"lon":5.39043,"is_reserved":false,"is_disabled":false,"rental_uris":{"android":"levelo://app?vid=988281a9-1e9b-43a6-8fff-090a3d5b8e50","ios":"levelo://app?vid=988281a9-1e9b-43a6-8fff-090a3d5b8e50"},"vehicle_type_id":"4","last_reported":1727341764,"current_range_meters":6400,"station_id":"ce4bgup2rcd13ifvqco0","pricing_plan_id":"cebpf4jnsgd1na2vs0mg"},{"bike_id":"eb3b7637-175c-41db-9c2d-778c2a0c50e2","system_id":"levelo_inurba_marseille","lat":43.28997,"lon":5.35602,"is_reserved":false,"is_disabled":false,"rental_uris":{"android":"levelo://app?vid=eb3b7637-175c-41db-9c2d-778c2a0c50e2","ios":"levelo://app?vid=eb3b7637-175c-41db-9c2d-778c2a0c50e2"},"vehicle_type_id":"4","last_reported":1727341764,"current_range_meters":12400,"station_id":"ce4bhb92rcd13ifvqen0","pricing_plan_id":"cebpf4jnsgd1na2vs0mg"},{"bike_id":"9d073943-f5f8-4878-a9c1-9cd044e25bbe","system_id":"levelo_inurba_marseille","lat":43.23153,"lon":5.43709,"is_reserved":false,"is_disabled":false,"rental_uris":{"android":"levelo://app?vid=9d073943-f5f8-4878-a9c1-9cd044e25bbe","ios":"levelo://app?vid=9d073943-f5f8-4878-a9c1-9cd044e25bbe"},"vehicle_type_id":"4","last_reported":1727341764,"current_range_meters":23200,"station_id":"ce4bhmp2rcd13ifvqgog","pricing_plan_id":"cebpf4jnsgd1na2vs0mg"},{"bike_id":"6ce78276-8ec0-4d60-a72c-c0fc9ac59e97","system_id":"levelo_inurba_marseille","lat":43.24079,"lon":5.37755,"is_reserved":false,"is_disabled":false,"rental_uris":{"android":"levelo://app?vid=6ce78276-8ec0-4d60-a72c-c0fc9ac59e97","ios":"levelo://app?vid=6ce78276-8ec0-4d60-a72c-c0fc9ac59e97"},"vehicle_type_id":"4","last_reported":1727341764,"current_range_meters":36000,"station_id":"ce4bhnp2rcd13ifvqgvg","pricing_plan_id":"cebpf4jnsgd1na2vs0mg"},{"bike_id":"3a705eee-12a8-4d5e-a9d9-cb2026320587","system_id":"levelo_inurba_marseille","lat":43.26945,"lon":5.38642,"is_reserved":false,"is_disabled":false,"rental_uris":{"android":"levelo://app?vid=3a705eee-12a8-4d5e-a9d9-cb2026320587","ios":"levelo://app?vid=3a705eee-12a8-4d5e-a9d9-cb2026320587"},"vehicle_type_id":"4","last_reported":1727341764,"current_range_meters":35600,"station_id":"ce4bhh92rcd13ifvqfh0","pricing_plan_id":"cebpf4jnsgd1na2vs0mg"},{"bike_id":"0b99d1fa-df06-4286-94b9-9fb5bea0909a","system_id":"levelo_inurba_marseille","lat":43.30545,"lon":5.365594,"is_reserved":false,"is_disabled":false,"rental_uris":{"android":"levelo://app?vid=0b99d1fa-df06-4286-94b9-9fb5bea0909a","ios":"levelo://app?vid=0b99d1fa-df06-4286-94b9-9fb5bea0909a"},"vehicle_type_id":"4","last_reported":1727341764,"current_range_meters":32800,"station_id":"ce4bgs12rcd13ifvqcag","pricing_plan_id":"cebpf4jnsgd1na2vs0mg"},{"bike_id":"e0321300-37ad-4bce-a17c-4bf73cb9114f","system_id":"levelo_inurba_marseille","lat":43.29896,"lon":5.43659,"is_reserved":false,"is_disabled":false,"rental_uris":{"android":"levelo://app?vid=e0321300-37ad-4bce-a17c-4bf73cb9114f","ios":"levelo://app?vid=e0321300-37ad-4bce-a17c-4bf73cb9114f"},"vehicle_type_id":"4","last_reported":1727341764,"current_range_meters":36000,"station_id":"ce4bhpp2rcd13ifvqhfg","pricing_plan_id":"cebpf4jnsgd1na2vs0mg"},{"bike_id":"fb8dbcb4-f3ca-4dc2-8469-db6b421828f0","system_id":"levelo_inurba_marseille","lat":43.30551,"lon":5.36707,"is_reserved":false,"is_disabled":false,"rental_uris":{"android":"levelo://app?vid=fb8dbcb4-f3ca-4dc2-8469-db6b421828f0","ios":"levelo://app?vid=fb8dbcb4-f3ca-4dc2-8469-db6b421828f0"},"vehicle_type_id":"4","last_reported":1727341764,"current_range_meters":31200,"station_id":"ce4bgrp2rcd13ifvqc9g","pricing_plan_id":"cebpf4jnsgd1na2vs0mg"},{"bike_id":"a997bf5b-16b3-4273-bcac-6545c92219a8","system_id":"levelo_inurba_marseille","lat":43.2904,"lon":5.39958,"is_reserved":false,"is_disabled":false,"rental_uris":{"android":"levelo://app?vid=a997bf5b-16b3-4273-bcac-6545c92219a8","ios":"levelo://app?vid=a997bf5b-16b3-4273-bcac-6545c92219a8"},"vehicle_type_id":"4","last_reported":1727341764,"current_range_meters":33600,"station_id":"ce4bh392rcd13ifvqdm0","pricing_plan_id":"cebpf4jnsgd1na2vs0mg"},{"bike_id":"5998edb1-c12b-4b6e-8439-caa5c7c173af","system_id":"levelo_inurba_marseille","lat":43.26955,"lon":5.38623,"is_reserved":false,"is_disabled":false,"rental_uris":{"android":"levelo://app?vid=5998edb1-c12b-4b6e-8439-caa5c7c173af","ios":"levelo://app?vid=5998edb1-c12b-4b6e-8439-caa5c7c173af"},"vehicle_type_id":"4","last_reported":1727341764,"current_range_meters":28800,"station_id":"ce4bhh92rcd13ifvqfh0","pricing_plan_id":"cebpf4jnsgd1na2vs0mg"},{"bike_id":"17a078e4-ebb0-4651-a520-5b5f918b6ab4","system_id":"levelo_inurba_marseille","lat":43.24069,"lon":5.37752,"is_reserved":false,"is_disabled":false,"rental_uris":{"android":"levelo://app?vid=17a078e4-ebb0-4651-a520-5b5f918b6ab4","ios":"levelo://app?vid=17a078e4-ebb0-4651-a520-5b5f918b6ab4"},"vehicle_type_id":"4","last_reported":1727341764,"current_range_meters":36400,"station_id":"ce4bhnp2rcd13ifvqgvg","pricing_plan_id":"cebpf4jnsgd1na2vs0mg"},{"bike_id":"739277f5-a4df-443b-8ba0-9247b8971ff3","system_id":"levelo_inurba_marseille","lat":43.30463,"lon":5.37901,"is_reserved":false,"is_disabled":false,"rental_uris":{"android":"levelo://app?vid=739277f5-a4df-443b-8ba0-9247b8971ff3","ios":"levelo://app?vid=739277f5-a4df-443b-8ba0-9247b8971ff3"},"vehicle_type_id":"4","last_reported":1727341764,"current_range_meters":26800,"station_id":"ce4bgup2rcd13ifvqcn0","pricing_plan_id":"cebpf4jnsgd1na2vs0mg"},{"bike_id":"018668e8-a530-4d21-ab04-2b5e2f2cf015","system_id":"levelo_inurba_marseille","lat":43.29589,"lon":5.40223,"is_reserved":false,"is_disabled":false,"rental_uris":{"android":"levelo://app?vid=018668e8-a530-4d21-ab04-2b5e2f2cf015","ios":"levelo://app?vid=018668e8-a530-4d21-ab04-2b5e2f2cf015"},"vehicle_type_id":"4","last_reported":1727341764,"current_range_meters":30000,"station_id":"","pricing_plan_id":"cebpf4jnsgd1na2vs0mg"},{"bike_id":"bb888b5e-5ef9-4e83-ac22-c75b070a294a","system_id":"levelo_inurba_marseille","lat":43.29024,"lon":5.38137,"is_reserved":false,"is_disabled":false,"rental_uris":{"android":"levelo://app?vid=bb888b5e-5ef9-4e83-ac22-c75b070a294a","ios":"levelo://app?vid=bb888b5e-5ef9-4e83-ac22-c75b070a294a"},"vehicle_type_id":"4","last_reported":1727341764,"current_range_meters":26000,"station_id":"ce4bh4p2rcd13ifvqe1g","pricing_plan_id":"cebpf4jnsgd1na2vs0mg"},{"bike_id":"79a05bb1-ccec-47f0-8ebd-1f95854549f8","system_id":"levelo_inurba_marseille","lat":43.31282,"lon":5.380327,"is_reserved":false,"is_disabled":false,"rental_uris":{"android":"levelo://app?vid=79a05bb1-ccec-47f0-8ebd-1f95854549f8","ios":"levelo://app?vid=79a05bb1-ccec-47f0-8ebd-1f95854549f8"},"vehicle_type_id":"4","last_reported":1727341764,"current_range_meters":8000,"station_id":"","pricing_plan_id":"cebpf4jnsgd1na2vs0mg"},{"bike_id":"30136007-4af8-4987-a9f0-08680d42d88d","system_id":"levelo_inurba_marseille","lat":43.27495,"lon":5.42453,"is_reserved":false,"is_disabled":false,"rental_uris":{"android":"levelo://app?vid=30136007-4af8-4987-a9f0-08680d42d88d","ios":"levelo://app?vid=30136007-4af8-4987-a9f0-08680d42d88d"},"vehicle_type_id":"4","last_reported":1727341764,"current_range_meters":32000,"station_id":"ce4bhn92rcd13ifvqgrg","pricing_plan_id":"cebpf4jnsgd1na2vs0mg"},{"bike_id":"4ca8f2df-d07d-4530-b77f-5472e4a1443e","system_id":"levelo_inurba_marseille","lat":43.32537,"lon":5.41437,"is_reserved":false,"is_disabled":false,"rental_uris":{"android":"levelo://app?vid=4ca8f2df-d07d-4530-b77f-5472e4a1443e","ios":"levelo://app?vid=4ca8f2df-d07d-4530-b77f-5472e4a1443e"},"vehicle_type_id":"4","last_reported":1727341764,"current_range_meters":31200,"station_id":"ce4bhq12rcd13ifvqhhg","pricing_plan_id":"cebpf4jnsgd1na2vs0mg"},{"bike_id":"ca773917-fd3d-491c-a782-60d4807ce677","system_id":"levelo_inurba_marseille","lat":43.24995,"lon":5.38912,"is_reserved":false,"is_disabled":false,"rental_uris":{"android":"levelo://app?vid=ca773917-fd3d-491c-a782-60d4807ce677","ios":"levelo://app?vid=ca773917-fd3d-491c-a782-60d4807ce677"},"vehicle_type_id":"4","last_reported":1727341764,"current_range_meters":20000,"station_id":"ce4bhgp2rcd13ifvqfd0","pricing_plan_id":"cebpf4jnsgd1na2vs0mg"},{"bike_id":"c91c1474-e429-4df2-b297-c8ab2155d81c","system_id":"levelo_inurba_marseille","lat":43.325394,"lon":5.414277,"is_reserved":false,"is_disabled":false,"rental_uris":{"android":"levelo://app?vid=c91c1474-e429-4df2-b297-c8ab2155d81c","ios":"levelo://app?vid=c91c1474-e429-4df2-b297-c8ab2155d81c"},"vehicle_type_id":"4","last_reported":1727341764,"current_range_meters":32000,"station_id":"ce4bgth2rcd13ifvqch0","pricing_plan_id":"cebpf4jnsgd1na2vs0mg"},{"bike_id":"df1bb53e-c106-4893-ad76-6a4c9dfa43a7","system_id":"levelo_inurba_marseille","lat":43.30149,"lon":5.38081,"is_reserved":false,"is_disabled":false,"rental_uris":{"android":"levelo://app?vid=df1bb53e-c106-4893-ad76-6a4c9dfa43a7","ios":"levelo://app?vid=df1bb53e-c106-4893-ad76-6a4c9dfa43a7"},"vehicle_type_id":"4","last_reported":1727341764,"current_range_meters":14400,"station_id":"ce4bgjp2rcd13ifvqbh0","pricing_plan_id":"cebpf4jnsgd1na2vs0mg"},{"bike_id":"94684309-8430-4a88-9798-819abff5d61a","system_id":"levelo_inurba_marseille","lat":43.23153,"lon":5.43708,"is_reserved":false,"is_disabled":false,"rental_uris":{"android":"levelo://app?vid=94684309-8430-4a88-9798-819abff5d61a","ios":"levelo://app?vid=94684309-8430-4a88-9798-819abff5d61a"},"vehicle_type_id":"4","last_reported":1727341764,"current_range_meters":21600,"station_id":"ce4bhmp2rcd13ifvqgog","pricing_plan_id":"cebpf4jnsgd1na2vs0mg"},{"bike_id":"7f7cfb71-e29e-44f8-9bcf-1cbb0dfe5d35","system_id":"levelo_inurba_marseille","lat":43.298583,"lon":5.362749,"is_reserved":false,"is_disabled":false,"rental_uris":{"android":"levelo://app?vid=7f7cfb71-e29e-44f8-9bcf-1cbb0dfe5d35","ios":"levelo://app?vid=7f7cfb71-e29e-44f8-9bcf-1cbb0dfe5d35"},"vehicle_type_id":"4","last_reported":1727341764,"current_range_meters":26800,"station_id":"ce4bgpp2rcd13ifvqc3g","pricing_plan_id":"cebpf4jnsgd1na2vs0mg"},{"bike_id":"6d8afc51-1e06-42c4-8af4-e022774ef154","system_id":"levelo_inurba_marseille","lat":43.24631,"lon":5.43631,"is_reserved":false,"is_disabled":false,"rental_uris":{"android":"levelo://app?vid=6d8afc51-1e06-42c4-8af4-e022774ef154","ios":"levelo://app?vid=6d8afc51-1e06-42c4-8af4-e022774ef154"},"vehicle_type_id":"4","last_reported":1727341764,"current_range_meters":7200,"station_id":"","pricing_plan_id":"cebpf4jnsgd1na2vs0mg"},{"bike_id":"e2439c25-39ef-4ab9-9943-1cd0b7edb5dd","system_id":"levelo_inurba_marseille","lat":43.30518,"lon":5.3671,"is_reserved":false,"is_disabled":false,"rental_uris":{"android":"levelo://app?vid=e2439c25-39ef-4ab9-9943-1cd0b7edb5dd","ios":"levelo://app?vid=e2439c25-39ef-4ab9-9943-1cd0b7edb5dd"},"vehicle_type_id":"4","last_reported":1727341764,"current_range_meters":39200,"station_id":"ce4bgrp2rcd13ifvqc9g","pricing_plan_id":"cebpf4jnsgd1na2vs0mg"},{"bike_id":"778cf1da-b1f9-4770-9dd3-7f9f6f29c740","system_id":"levelo_inurba_marseille","lat":43.31218,"lon":5.3687,"is_reserved":false,"is_disabled":false,"rental_uris":{"android":"levelo://app?vid=778cf1da-b1f9-4770-9dd3-7f9f6f29c740","ios":"levelo://app?vid=778cf1da-b1f9-4770-9dd3-7f9f6f29c740"},"vehicle_type_id":"4","last_reported":1727341764,"current_range_meters":20800,"station_id":"ce4bgl92rcd13ifvqbq0","pricing_plan_id":"cebpf4jnsgd1na2vs0mg"},{"bike_id":"12fd5c68-a189-44be-8c96-00f99e9d5e8d","system_id":"levelo_inurba_marseille","lat":43.2438,"lon":5.37046,"is_reserved":false,"is_disabled":false,"rental_uris":{"android":"levelo://app?vid=12fd5c68-a189-44be-8c96-00f99e9d5e8d","ios":"levelo://app?vid=12fd5c68-a189-44be-8c96-00f99e9d5e8d"},"vehicle_type_id":"4","last_reported":1727341764,"current_range_meters":39200,"station_id":"ce4bhhh2rcd13ifvqfk0","pricing_plan_id":"cebpf4jnsgd1na2vs0mg"},{"bike_id":"00c55a61-da74-4c36-8c8e-499983e3e52b","system_id":"levelo_inurba_marseille","lat":43.29835,"lon":5.36261,"is_reserved":false,"is_disabled":false,"rental_uris":{"android":"levelo://app?vid=00c55a61-da74-4c36-8c8e-499983e3e52b","ios":"levelo://app?vid=00c55a61-da74-4c36-8c8e-499983e3e52b"},"vehicle_type_id":"4","last_reported":1727341764,"current_range_meters":25200,"station_id":"ce4bgpp2rcd13ifvqc3g","pricing_plan_id":"cebpf4jnsgd1na2vs0mg"},{"bike_id":"a45b32cb-a6de-431e-803d-cc517d45cc1f","system_id":"levelo_inurba_marseille","lat":43.289001,"lon":5.38396,"is_reserved":false,"is_disabled":false,"rental_uris":{"android":"levelo://app?vid=a45b32cb-a6de-431e-803d-cc517d45cc1f","ios":"levelo://app?vid=a45b32cb-a6de-431e-803d-cc517d45cc1f"},"vehicle_type_id":"4","last_reported":1727341764,"current_range_meters":21600,"station_id":"ce4bh612rcd13ifvqe6g","pricing_plan_id":"cebpf4jnsgd1na2vs0mg"},{"bike_id":"1cee0ed5-9ab6-4608-aef5-25ff56d0fd88","system_id":"levelo_inurba_marseille","lat":43.29523,"lon":5.39366,"is_reserved":false,"is_disabled":false,"rental_uris":{"android":"levelo://app?vid=1cee0ed5-9ab6-4608-aef5-25ff56d0fd88","ios":"levelo://app?vid=1cee0ed5-9ab6-4608-aef5-25ff56d0fd88"},"vehicle_type_id":"4","last_reported":1727341764,"current_range_meters":38800,"station_id":"ce4bh292rcd13ifvqdf0","pricing_plan_id":"cebpf4jnsgd1na2vs0mg"},{"bike_id":"c017f362-9664-45c4-b19b-7118d6bf47c1","system_id":"levelo_inurba_marseille","lat":43.28154,"lon":5.42649,"is_reserved":false,"is_disabled":false,"rental_uris":{"android":"levelo://app?vid=c017f362-9664-45c4-b19b-7118d6bf47c1","ios":"levelo://app?vid=c017f362-9664-45c4-b19b-7118d6bf47c1"},"vehicle_type_id":"4","last_reported":1727341764,"current_range_meters":39200,"station_id":"ce4bhnh2rcd13ifvqgug","pricing_plan_id":"cebpf4jnsgd1na2vs0mg"},{"bike_id":"7208fb73-1e72-409e-a427-61a1ad82e181","system_id":"levelo_inurba_marseille","lat":43.30892,"lon":5.37187,"is_reserved":false,"is_disabled":false,"rental_uris":{"android":"levelo://app?vid=7208fb73-1e72-409e-a427-61a1ad82e181","ios":"levelo://app?vid=7208fb73-1e72-409e-a427-61a1ad82e181"},"vehicle_type_id":"4","last_reported":1727341764,"current_range_meters":30800,"station_id":"ce4bguh2rcd13ifvqckg","pricing_plan_id":"cebpf4jnsgd1na2vs0mg"},{"bike_id":"c9d4c683-43dc-4467-8f72-99d1eef1801c","system_id":"levelo_inurba_marseille","lat":43.28078,"lon":5.39656,"is_reserved":false,"is_disabled":false,"rental_uris":{"android":"levelo://app?vid=c9d4c683-43dc-4467-8f72-99d1eef1801c","ios":"levelo://app?vid=c9d4c683-43dc-4467-8f72-99d1eef1801c"},"vehicle_type_id":"4","last_reported":1727341764,"current_range_meters":38400,"station_id":"ce4bho12rcd13ifvqh2g","pricing_plan_id":"cebpf4jnsgd1na2vs0mg"},{"bike_id":"46d52982-a28c-45ce-8862-61223745de47","system_id":"levelo_inurba_marseille","lat":43.31357,"lon":5.38494,"is_reserved":false,"is_disabled":false,"rental_uris":{"android":"levelo://app?vid=46d52982-a28c-45ce-8862-61223745de47","ios":"levelo://app?vid=46d52982-a28c-45ce-8862-61223745de47"},"vehicle_type_id":"4","last_reported":1727341764,"current_range_meters":37600,"station_id":"ce4bgt92rcd13ifvqcf0","pricing_plan_id":"cebpf4jnsgd1na2vs0mg"},{"bike_id":"7b6af971-55be-4258-8d2e-b2558b0985e3","system_id":"levelo_inurba_marseille","lat":43.24071,"lon":5.37754,"is_reserved":false,"is_disabled":false,"rental_uris":{"android":"levelo://app?vid=7b6af971-55be-4258-8d2e-b2558b0985e3","ios":"levelo://app?vid=7b6af971-55be-4258-8d2e-b2558b0985e3"},"vehicle_type_id":"4","last_reported":1727341764,"current_range_meters":25200,"station_id":"ce4bhnp2rcd13ifvqgvg","pricing_plan_id":"cebpf4jnsgd1na2vs0mg"},{"bike_id":"3c7601b8-5a7c-406e-b0cb-14cdad59fce2","system_id":"levelo_inurba_marseille","lat":43.29582,"lon":5.36746,"is_reserved":false,"is_disabled":false,"rental_uris":{"android":"levelo://app?vid=3c7601b8-5a7c-406e-b0cb-14cdad59fce2","ios":"levelo://app?vid=3c7601b8-5a7c-406e-b0cb-14cdad59fce2"},"vehicle_type_id":"4","last_reported":1727341764,"current_range_meters":37600,"station_id":"ce4bgph2rcd13ifvqc2g","pricing_plan_id":"cebpf4jnsgd1na2vs0mg"},{"bike_id":"70e05815-a8a2-4db7-8b59-06d52d294aff","system_id":"levelo_inurba_marseille","lat":43.26674,"lon":5.38271,"is_reserved":false,"is_disabled":false,"rental_uris":{"android":"levelo://app?vid=70e05815-a8a2-4db7-8b59-06d52d294aff","ios":"levelo://app?vid=70e05815-a8a2-4db7-8b59-06d52d294aff"},"vehicle_type_id":"4","last_reported":1727341764,"current_range_meters":22800,"station_id":"ce4bhg92rcd13ifvqf90","pricing_plan_id":"cebpf4jnsgd1na2vs0mg"},{"bike_id":"b7463f4f-384a-40f3-8b7f-9f0eca2e3a87","system_id":"levelo_inurba_marseille","lat":43.30145,"lon":5.38775,"is_reserved":false,"is_disabled":false,"rental_uris":{"android":"levelo://app?vid=b7463f4f-384a-40f3-8b7f-9f0eca2e3a87","ios":"levelo://app?vid=b7463f4f-384a-40f3-8b7f-9f0eca2e3a87"},"vehicle_type_id":"4","last_reported":1727341764,"current_range_meters":33600,"station_id":"ce4bghh2rcd13ifvqb60","pricing_plan_id":"cebpf4jnsgd1na2vs0mg"},{"bike_id":"5325b546-be8c-45ee-8bcb-8af51028126d","system_id":"levelo_inurba_marseille","lat":43.312203,"lon":5.368753,"is_reserved":false,"is_disabled":false,"rental_uris":{"android":"levelo://app?vid=5325b546-be8c-45ee-8bcb-8af51028126d","ios":"levelo://app?vid=5325b546-be8c-45ee-8bcb-8af51028126d"},"vehicle_type_id":"4","last_reported":1727341764,"current_range_meters":28000,"station_id":"ce4bgl92rcd13ifvqbq0","pricing_plan_id":"cebpf4jnsgd1na2vs0mg"},{"bike_id":"38674e62-e768-405d-9590-89d89d7b7b0f","system_id":"levelo_inurba_marseille","lat":43.26062,"lon":5.39396,"is_reserved":false,"is_disabled":false,"rental_uris":{"android":"levelo://app?vid=38674e62-e768-405d-9590-89d89d7b7b0f","ios":"levelo://app?vid=38674e62-e768-405d-9590-89d89d7b7b0f"},"vehicle_type_id":"4","last_reported":1727341764,"current_range_meters":38800,"station_id":"ce4bhh92rcd13ifvqfj0","pricing_plan_id":"cebpf4jnsgd1na2vs0mg"},{"bike_id":"b0a5c5c8-b96f-4d5c-ad0a-9a4c9139d21f","system_id":"levelo_inurba_marseille","lat":43.29775,"lon":5.371,"is_reserved":false,"is_disabled":false,"rental_uris":{"android":"levelo://app?vid=b0a5c5c8-b96f-4d5c-ad0a-9a4c9139d21f","ios":"levelo://app?vid=b0a5c5c8-b96f-4d5c-ad0a-9a4c9139d21f"},"vehicle_type_id":"4","last_reported":1727341764,"current_range_meters":20000,"station_id":"ce4bgop2rcd13ifvqc1g","pricing_plan_id":"cebpf4jnsgd1na2vs0mg"},{"bike_id":"510ca38e-0a4b-4a9a-83a5-24442e5133a6","system_id":"levelo_inurba_marseille","lat":43.29517,"lon":5.37488,"is_reserved":false,"is_disabled":false,"rental_uris":{"android":"levelo://app?vid=510ca38e-0a4b-4a9a-83a5-24442e5133a6","ios":"levelo://app?vid=510ca38e-0a4b-4a9a-83a5-24442e5133a6"},"vehicle_type_id":"4","last_reported":1727341764,"current_range_meters":22800,"station_id":"ce4bgkp2rcd13ifvqbmg","pricing_plan_id":"cebpf4jnsgd1na2vs0mg"},{"bike_id":"1b01696d-69a3-45f6-85c7-5dc14a0edeac","system_id":"levelo_inurba_marseille","lat":43.27849,"lon":5.42465,"is_reserved":false,"is_disabled":false,"rental_uris":{"android":"levelo://app?vid=1b01696d-69a3-45f6-85c7-5dc14a0edeac","ios":"levelo://app?vid=1b01696d-69a3-45f6-85c7-5dc14a0edeac"},"vehicle_type_id":"4","last_reported":1727341764,"current_range_meters":24000,"station_id":"","pricing_plan_id":"cebpf4jnsgd1na2vs0mg"},{"bike_id":"40e9355b-9414-4477-8704-345512ef270d","system_id":"levelo_inurba_marseille","lat":43.28378,"lon":5.37501,"is_reserved":false,"is_disabled":false,"rental_uris":{"android":"levelo://app?vid=40e9355b-9414-4477-8704-345512ef270d","ios":"levelo://app?vid=40e9355b-9414-4477-8704-345512ef270d"},"vehicle_type_id":"4","last_reported":1727341764,"current_range_meters":38800,"station_id":"ce4bh412rcd13ifvqds0","pricing_plan_id":"cebpf4jnsgd1na2vs0mg"},{"bike_id":"980a6e78-e57a-42f3-8e3b-e7ab987b675c","system_id":"levelo_inurba_marseille","lat":43.24072,"lon":5.3775,"is_reserved":false,"is_disabled":false,"rental_uris":{"android":"levelo://app?vid=980a6e78-e57a-42f3-8e3b-e7ab987b675c","ios":"levelo://app?vid=980a6e78-e57a-42f3-8e3b-e7ab987b675c"},"vehicle_type_id":"4","last_reported":1727341764,"current_range_meters":18000,"station_id":"ce4bhnp2rcd13ifvqgvg","pricing_plan_id":"cebpf4jnsgd1na2vs0mg"},{"bike_id":"9bf99674-74df-4a10-b0ee-37fec6acd16b","system_id":"levelo_inurba_marseille","lat":43.250252,"lon":5.389328,"is_reserved":false,"is_disabled":false,"rental_uris":{"android":"levelo://app?vid=9bf99674-74df-4a10-b0ee-37fec6acd16b","ios":"levelo://app?vid=9bf99674-74df-4a10-b0ee-37fec6acd16b"},"vehicle_type_id":"4","last_reported":1727341764,"current_range_meters":14000,"station_id":"ce4bhgp2rcd13ifvqfd0","pricing_plan_id":"cebpf4jnsgd1na2vs0mg"},{"bike_id":"9f9c6052-e813-4141-968a-017042695798","system_id":"levelo_inurba_marseille","lat":43.30463,"lon":5.37908,"is_reserved":false,"is_disabled":false,"rental_uris":{"android":"levelo://app?vid=9f9c6052-e813-4141-968a-017042695798","ios":"levelo://app?vid=9f9c6052-e813-4141-968a-017042695798"},"vehicle_type_id":"4","last_reported":1727341764,"current_range_meters":31200,"station_id":"ce4bgup2rcd13ifvqcn0","pricing_plan_id":"cebpf4jnsgd1na2vs0mg"},{"bike_id":"975cfa91-3f3a-404a-81ad-c41e634f810f","system_id":"levelo_inurba_marseille","lat":43.26928,"lon":5.3891,"is_reserved":false,"is_disabled":false,"rental_uris":{"android":"levelo://app?vid=975cfa91-3f3a-404a-81ad-c41e634f810f","ios":"levelo://app?vid=975cfa91-3f3a-404a-81ad-c41e634f810f"},"vehicle_type_id":"4","last_reported":1727341764,"current_range_meters":25600,"station_id":"ce4bhhh2rcd13ifvqfl0","pricing_plan_id":"cebpf4jnsgd1na2vs0mg"},{"bike_id":"99d44a35-6595-4df5-8399-2ae2357600c8","system_id":"levelo_inurba_marseille","lat":43.25929,"lon":5.40894,"is_reserved":false,"is_disabled":false,"rental_uris":{"android":"levelo://app?vid=99d44a35-6595-4df5-8399-2ae2357600c8","ios":"levelo://app?vid=99d44a35-6595-4df5-8399-2ae2357600c8"},"vehicle_type_id":"4","last_reported":1727341764,"current_range_meters":33600,"station_id":"ce4bhm92rcd13ifvqglg","pricing_plan_id":"cebpf4jnsgd1na2vs0mg"},{"bike_id":"4ea34562-389f-4b34-95fd-d6d990a97fa7","system_id":"levelo_inurba_marseille","lat":43.30458,"lon":5.37918,"is_reserved":false,"is_disabled":false,"rental_uris":{"android":"levelo://app?vid=4ea34562-389f-4b34-95fd-d6d990a97fa7","ios":"levelo://app?vid=4ea34562-389f-4b34-95fd-d6d990a97fa7"},"vehicle_type_id":"4","last_reported":1727341764,"current_range_meters":8800,"station_id":"ce4bgup2rcd13ifvqcn0","pricing_plan_id":"cebpf4jnsgd1na2vs0mg"},{"bike_id":"96f6d639-28da-4754-984f-4559c4536fe5","system_id":"levelo_inurba_marseille","lat":43.3014,"lon":5.38075,"is_reserved":false,"is_disabled":false,"rental_uris":{"android":"levelo://app?vid=96f6d639-28da-4754-984f-4559c4536fe5","ios":"levelo://app?vid=96f6d639-28da-4754-984f-4559c4536fe5"},"vehicle_type_id":"4","last_reported":1727341764,"current_range_meters":35200,"station_id":"ce4bgjp2rcd13ifvqbh0","pricing_plan_id":"cebpf4jnsgd1na2vs0mg"},{"bike_id":"9ef630c4-b740-4af2-85dd-1b33e4b82b30","system_id":"levelo_inurba_marseille","lat":43.27438,"lon":5.39399,"is_reserved":false,"is_disabled":false,"rental_uris":{"android":"levelo://app?vid=9ef630c4-b740-4af2-85dd-1b33e4b82b30","ios":"levelo://app?vid=9ef630c4-b740-4af2-85dd-1b33e4b82b30"},"vehicle_type_id":"4","last_reported":1727341764,"current_range_meters":20400,"station_id":"ce4bhdp2rcd13ifvqf20","pricing_plan_id":"cebpf4jnsgd1na2vs0mg"},{"bike_id":"48e6bb39-de35-46b7-b057-3295a5474807","system_id":"levelo_inurba_marseille","lat":43.28369,"lon":5.38483,"is_reserved":false,"is_disabled":false,"rental_uris":{"android":"levelo://app?vid=48e6bb39-de35-46b7-b057-3295a5474807","ios":"levelo://app?vid=48e6bb39-de35-46b7-b057-3295a5474807"},"vehicle_type_id":"4","last_reported":1727341764,"current_range_meters":25600,"station_id":"","pricing_plan_id":"cebpf4jnsgd1na2vs0mg"},{"bike_id":"4182c563-86d3-4f43-ad87-ec8d2778d436","system_id":"levelo_inurba_marseille","lat":43.2656,"lon":5.39035,"is_reserved":false,"is_disabled":false,"rental_uris":{"android":"levelo://app?vid=4182c563-86d3-4f43-ad87-ec8d2778d436","ios":"levelo://app?vid=4182c563-86d3-4f43-ad87-ec8d2778d436"},"vehicle_type_id":"4","last_reported":1727341764,"current_range_meters":8000,"station_id":"ce4bhe12rcd13ifvqf30","pricing_plan_id":"cebpf4jnsgd1na2vs0mg"},{"bike_id":"178cba8c-1927-49a5-ada2-fb6bb85a9228","system_id":"levelo_inurba_marseille","lat":43.24077,"lon":5.37753,"is_reserved":false,"is_disabled":false,"rental_uris":{"android":"levelo://app?vid=178cba8c-1927-49a5-ada2-fb6bb85a9228","ios":"levelo://app?vid=178cba8c-1927-49a5-ada2-fb6bb85a9228"},"vehicle_type_id":"4","last_reported":1727341764,"current_range_meters":31200,"station_id":"ce4bhnp2rcd13ifvqgvg","pricing_plan_id":"cebpf4jnsgd1na2vs0mg"},{"bike_id":"bca61560-0fea-43b7-9dea-bd8851a6b8fd","system_id":"levelo_inurba_marseille","lat":43.29571,"lon":5.36739,"is_reserved":false,"is_disabled":false,"rental_uris":{"android":"levelo://app?vid=bca61560-0fea-43b7-9dea-bd8851a6b8fd","ios":"levelo://app?vid=bca61560-0fea-43b7-9dea-bd8851a6b8fd"},"vehicle_type_id":"4","last_reported":1727341764,"current_range_meters":30400,"station_id":"ce4bgph2rcd13ifvqc2g","pricing_plan_id":"cebpf4jnsgd1na2vs0mg"},{"bike_id":"69a44723-2ad3-42ce-8d16-6968ae7b4b69","system_id":"levelo_inurba_marseille","lat":43.31343,"lon":5.36712,"is_reserved":false,"is_disabled":false,"rental_uris":{"android":"levelo://app?vid=69a44723-2ad3-42ce-8d16-6968ae7b4b69","ios":"levelo://app?vid=69a44723-2ad3-42ce-8d16-6968ae7b4b69"},"vehicle_type_id":"4","last_reported":1727341764,"current_range_meters":30800,"station_id":"ce4bgr92rcd13ifvqc6g","pricing_plan_id":"cebpf4jnsgd1na2vs0mg"},{"bike_id":"bce45dc2-9e69-408a-8e32-7cb632f50711","system_id":"levelo_inurba_marseille","lat":43.27209,"lon":5.391697,"is_reserved":false,"is_disabled":false,"rental_uris":{"android":"levelo://app?vid=bce45dc2-9e69-408a-8e32-7cb632f50711","ios":"levelo://app?vid=bce45dc2-9e69-408a-8e32-7cb632f50711"},"vehicle_type_id":"4","last_reported":1727341764,"current_range_meters":8000,"station_id":"ce4bhhp2rcd13ifvqfm0","pricing_plan_id":"cebpf4jnsgd1na2vs0mg"},{"bike_id":"b3f548d7-4b97-47ca-9cd4-ea7964e564c3","system_id":"levelo_inurba_marseille","lat":43.29799,"lon":5.40394,"is_reserved":false,"is_disabled":false,"rental_uris":{"android":"levelo://app?vid=b3f548d7-4b97-47ca-9cd4-ea7964e564c3","ios":"levelo://app?vid=b3f548d7-4b97-47ca-9cd4-ea7964e564c3"},"vehicle_type_id":"4","last_reported":1727341764,"current_range_meters":20000,"station_id":"ce4bh112rcd13ifvqd90","pricing_plan_id":"cebpf4jnsgd1na2vs0mg"},{"bike_id":"37fecb50-8314-4ea6-af9e-327f32dd6a1b","system_id":"levelo_inurba_marseille","lat":43.25826,"lon":5.39436,"is_reserved":false,"is_disabled":false,"rental_uris":{"android":"levelo://app?vid=37fecb50-8314-4ea6-af9e-327f32dd6a1b","ios":"levelo://app?vid=37fecb50-8314-4ea6-af9e-327f32dd6a1b"},"vehicle_type_id":"4","last_reported":1727341764,"current_range_meters":14400,"station_id":"ce4bhip2rcd13ifvqft0","pricing_plan_id":"cebpf4jnsgd1na2vs0mg"},{"bike_id":"91372296-66f0-4955-9ea7-af2aeb756cbd","system_id":"levelo_inurba_marseille","lat":43.29834,"lon":5.3627,"is_reserved":false,"is_disabled":false,"rental_uris":{"android":"levelo://app?vid=91372296-66f0-4955-9ea7-af2aeb756cbd","ios":"levelo://app?vid=91372296-66f0-4955-9ea7-af2aeb756cbd"},"vehicle_type_id":"4","last_reported":1727341764,"current_range_meters":3200,"station_id":"ce4bgpp2rcd13ifvqc3g","pricing_plan_id":"cebpf4jnsgd1na2vs0mg"},{"bike_id":"cf36a53a-3509-423f-8075-777dbf5a32a1","system_id":"levelo_inurba_marseille","lat":43.2293,"lon":5.35379,"is_reserved":false,"is_disabled":false,"rental_uris":{"android":"levelo://app?vid=cf36a53a-3509-423f-8075-777dbf5a32a1","ios":"levelo://app?vid=cf36a53a-3509-423f-8075-777dbf5a32a1"},"vehicle_type_id":"4","last_reported":1727341764,"current_range_meters":26000,"station_id":"cpo3532slgdg3j2ikp40","pricing_plan_id":"cebpf4jnsgd1na2vs0mg"},{"bike_id":"d8898c38-d84b-4a32-81d5-f35fe017d87f","system_id":"levelo_inurba_marseille","lat":43.31217,"lon":5.36863,"is_reserved":false,"is_disabled":false,"rental_uris":{"android":"levelo://app?vid=d8898c38-d84b-4a32-81d5-f35fe017d87f","ios":"levelo://app?vid=d8898c38-d84b-4a32-81d5-f35fe017d87f"},"vehicle_type_id":"4","last_reported":1727341764,"current_range_meters":39200,"station_id":"ce4bgl92rcd13ifvqbq0","pricing_plan_id":"cebpf4jnsgd1na2vs0mg"},{"bike_id":"d6560913-1d7a-4400-9d1e-5f8aab3df492","system_id":"levelo_inurba_marseille","lat":43.296111,"lon":5.37702,"is_reserved":false,"is_disabled":false,"rental_uris":{"android":"levelo://app?vid=d6560913-1d7a-4400-9d1e-5f8aab3df492","ios":"levelo://app?vid=d6560913-1d7a-4400-9d1e-5f8aab3df492"},"vehicle_type_id":"4","last_reported":1727341764,"current_range_meters":23200,"station_id":"ce4bgi92rcd13ifvqb90","pricing_plan_id":"cebpf4jnsgd1na2vs0mg"},{"bike_id":"f42c4187-ecfc-4039-810d-5085549f73c1","system_id":"levelo_inurba_marseille","lat":43.30294,"lon":5.39222,"is_reserved":false,"is_disabled":false,"rental_uris":{"android":"levelo://app?vid=f42c4187-ecfc-4039-810d-5085549f73c1","ios":"levelo://app?vid=f42c4187-ecfc-4039-810d-5085549f73c1"},"vehicle_type_id":"4","last_reported":1727341764,"current_range_meters":8400,"station_id":"ce4bgkh2rcd13ifvqbk0","pricing_plan_id":"cebpf4jnsgd1na2vs0mg"},{"bike_id":"78abe469-536b-42bc-9bee-73f10028bf3e","system_id":"levelo_inurba_marseille","lat":43.27491,"lon":5.42455,"is_reserved":false,"is_disabled":false,"rental_uris":{"android":"levelo://app?vid=78abe469-536b-42bc-9bee-73f10028bf3e","ios":"levelo://app?vid=78abe469-536b-42bc-9bee-73f10028bf3e"},"vehicle_type_id":"4","last_reported":1727341764,"current_range_meters":35600,"station_id":"ce4bhn92rcd13ifvqgrg","pricing_plan_id":"cebpf4jnsgd1na2vs0mg"},{"bike_id":"d16f415b-91b0-49f3-895b-28b198556ee1","system_id":"levelo_inurba_marseille","lat":43.30929,"lon":5.39042,"is_reserved":false,"is_disabled":false,"rental_uris":{"android":"levelo://app?vid=d16f415b-91b0-49f3-895b-28b198556ee1","ios":"levelo://app?vid=d16f415b-91b0-49f3-895b-28b198556ee1"},"vehicle_type_id":"4","last_reported":1727341764,"current_range_meters":38000,"station_id":"ce4bgup2rcd13ifvqco0","pricing_plan_id":"cebpf4jnsgd1na2vs0mg"},{"bike_id":"97466f41-082d-4770-abd1-c840cce860d0","system_id":"levelo_inurba_marseille","lat":43.29891,"lon":5.36509,"is_reserved":false,"is_disabled":false,"rental_uris":{"android":"levelo://app?vid=97466f41-082d-4770-abd1-c840cce860d0","ios":"levelo://app?vid=97466f41-082d-4770-abd1-c840cce860d0"},"vehicle_type_id":"4","last_reported":1727341764,"current_range_meters":13600,"station_id":"ce4bgm92rcd13ifvqbr0","pricing_plan_id":"cebpf4jnsgd1na2vs0mg"},{"bike_id":"f2385d2b-ef6a-4a18-a08b-9bc5e94d8cd6","system_id":"levelo_inurba_marseille","lat":43.24083,"lon":5.3774,"is_reserved":false,"is_disabled":false,"rental_uris":{"android":"levelo://app?vid=f2385d2b-ef6a-4a18-a08b-9bc5e94d8cd6","ios":"levelo://app?vid=f2385d2b-ef6a-4a18-a08b-9bc5e94d8cd6"},"vehicle_type_id":"4","last_reported":1727341764,"current_range_meters":24400,"station_id":"ce4bhnp2rcd13ifvqgvg","pricing_plan_id":"cebpf4jnsgd1na2vs0mg"},{"bike_id":"03ee95af-84cc-44ed-a76a-332d8cd751b2","system_id":"levelo_inurba_marseille","lat":43.23154,"lon":5.43711,"is_reserved":false,"is_disabled":false,"rental_uris":{"android":"levelo://app?vid=03ee95af-84cc-44ed-a76a-332d8cd751b2","ios":"levelo://app?vid=03ee95af-84cc-44ed-a76a-332d8cd751b2"},"vehicle_type_id":"4","last_reported":1727341764,"current_range_meters":4800,"station_id":"ce4bhmp2rcd13ifvqgog","pricing_plan_id":"cebpf4jnsgd1na2vs0mg"},{"bike_id":"d8b73ccb-2d65-410b-b0a4-78eab21e119e","system_id":"levelo_inurba_marseille","lat":43.3091,"lon":5.36848,"is_reserved":false,"is_disabled":false,"rental_uris":{"android":"levelo://app?vid=d8b73ccb-2d65-410b-b0a4-78eab21e119e","ios":"levelo://app?vid=d8b73ccb-2d65-410b-b0a4-78eab21e119e"},"vehicle_type_id":"4","last_reported":1727341764,"current_range_meters":18800,"station_id":"ce4bgn92rcd13ifvqbvg","pricing_plan_id":"cebpf4jnsgd1na2vs0mg"},{"bike_id":"08a5cd66-f021-4853-bec7-3221a1186d83","system_id":"levelo_inurba_marseille","lat":43.27491,"lon":5.42455,"is_reserved":false,"is_disabled":false,"rental_uris":{"android":"levelo://app?vid=08a5cd66-f021-4853-bec7-3221a1186d83","ios":"levelo://app?vid=08a5cd66-f021-4853-bec7-3221a1186d83"},"vehicle_type_id":"4","last_reported":1727341764,"current_range_meters":22400,"station_id":"ce4bhn92rcd13ifvqgrg","pricing_plan_id":"cebpf4jnsgd1na2vs0mg"},{"bike_id":"a62d0fd0-89ef-4ce2-b8e5-2cabb9bba87d","system_id":"levelo_inurba_marseille","lat":43.294098,"lon":5.374089,"is_reserved":false,"is_disabled":false,"rental_uris":{"android":"levelo://app?vid=a62d0fd0-89ef-4ce2-b8e5-2cabb9bba87d","ios":"levelo://app?vid=a62d0fd0-89ef-4ce2-b8e5-2cabb9bba87d"},"vehicle_type_id":"4","last_reported":1727341764,"current_range_meters":16800,"station_id":"ce4bgkp2rcd13ifvqbmg","pricing_plan_id":"cebpf4jnsgd1na2vs0mg"},{"bike_id":"e3957d14-62b8-4556-99f8-ab988c9dd032","system_id":"levelo_inurba_marseille","lat":43.30263,"lon":5.36988,"is_reserved":false,"is_disabled":false,"rental_uris":{"android":"levelo://app?vid=e3957d14-62b8-4556-99f8-ab988c9dd032","ios":"levelo://app?vid=e3957d14-62b8-4556-99f8-ab988c9dd032"},"vehicle_type_id":"4","last_reported":1727341764,"current_range_meters":33200,"station_id":"ce4bgup2rcd13ifvqcn0","pricing_plan_id":"cebpf4jnsgd1na2vs0mg"},{"bike_id":"d8654ec4-6c00-4844-bf03-787bfe5964d4","system_id":"levelo_inurba_marseille","lat":43.27493,"lon":5.42451,"is_reserved":false,"is_disabled":false,"rental_uris":{"android":"levelo://app?vid=d8654ec4-6c00-4844-bf03-787bfe5964d4","ios":"levelo://app?vid=d8654ec4-6c00-4844-bf03-787bfe5964d4"},"vehicle_type_id":"4","last_reported":1727341764,"current_range_meters":25200,"station_id":"ce4bhn92rcd13ifvqgrg","pricing_plan_id":"cebpf4jnsgd1na2vs0mg"},{"bike_id":"c30ac5e9-d37a-47ad-b922-6cb588098cab","system_id":"levelo_inurba_marseille","lat":43.29,"lon":5.35603,"is_reserved":false,"is_disabled":false,"rental_uris":{"android":"levelo://app?vid=c30ac5e9-d37a-47ad-b922-6cb588098cab","ios":"levelo://app?vid=c30ac5e9-d37a-47ad-b922-6cb588098cab"},"vehicle_type_id":"4","last_reported":1727341764,"current_range_meters":18800,"station_id":"ce4bhb92rcd13ifvqen0","pricing_plan_id":"cebpf4jnsgd1na2vs0mg"},{"bike_id":"815e1ad5-78af-4ad2-b6ba-82b99bbc0f09","system_id":"levelo_inurba_marseille","lat":43.30313,"lon":5.36899,"is_reserved":false,"is_disabled":false,"rental_uris":{"android":"levelo://app?vid=815e1ad5-78af-4ad2-b6ba-82b99bbc0f09","ios":"levelo://app?vid=815e1ad5-78af-4ad2-b6ba-82b99bbc0f09"},"vehicle_type_id":"4","last_reported":1727341764,"current_range_meters":10000,"station_id":"ce4bgqh2rcd13ifvqc5g","pricing_plan_id":"cebpf4jnsgd1na2vs0mg"},{"bike_id":"637beff3-55bd-4f15-99c0-4cb53d5dddb9","system_id":"levelo_inurba_marseille","lat":43.30647,"lon":5.39532,"is_reserved":false,"is_disabled":false,"rental_uris":{"android":"levelo://app?vid=637beff3-55bd-4f15-99c0-4cb53d5dddb9","ios":"levelo://app?vid=637beff3-55bd-4f15-99c0-4cb53d5dddb9"},"vehicle_type_id":"4","last_reported":1727341764,"current_range_meters":37600,"station_id":"","pricing_plan_id":"cebpf4jnsgd1na2vs0mg"},{"bike_id":"ba8290d1-f090-44a1-af10-4e654d71056b","system_id":"levelo_inurba_marseille","lat":43.29581,"lon":5.36742,"is_reserved":false,"is_disabled":false,"rental_uris":{"android":"levelo://app?vid=ba8290d1-f090-44a1-af10-4e654d71056b","ios":"levelo://app?vid=ba8290d1-f090-44a1-af10-4e654d71056b"},"vehicle_type_id":"4","last_reported":1727341764,"current_range_meters":29600,"station_id":"ce4bgph2rcd13ifvqc2g","pricing_plan_id":"cebpf4jnsgd1na2vs0mg"},{"bike_id":"24c96040-78e5-4d3d-98c2-da1d0a848e1f","system_id":"levelo_inurba_marseille","lat":43.24073,"lon":5.37761,"is_reserved":false,"is_disabled":false,"rental_uris":{"android":"levelo://app?vid=24c96040-78e5-4d3d-98c2-da1d0a848e1f","ios":"levelo://app?vid=24c96040-78e5-4d3d-98c2-da1d0a848e1f"},"vehicle_type_id":"4","last_reported":1727341764,"current_range_meters":25200,"station_id":"ce4bhnp2rcd13ifvqgvg","pricing_plan_id":"cebpf4jnsgd1na2vs0mg"},{"bike_id":"8b7c5d69-3d9c-49a8-9703-129810f5e463","system_id":"levelo_inurba_marseille","lat":43.28155,"lon":5.42639,"is_reserved":false,"is_disabled":false,"rental_uris":{"android":"levelo://app?vid=8b7c5d69-3d9c-49a8-9703-129810f5e463","ios":"levelo://app?vid=8b7c5d69-3d9c-49a8-9703-129810f5e463"},"vehicle_type_id":"4","last_reported":1727341764,"current_range_meters":8400,"station_id":"ce4bhnh2rcd13ifvqgug","pricing_plan_id":"cebpf4jnsgd1na2vs0mg"},{"bike_id":"3c7619a0-cb05-43e4-bd1c-18414b732318","system_id":"levelo_inurba_marseille","lat":43.26552,"lon":5.39017,"is_reserved":false,"is_disabled":false,"rental_uris":{"android":"levelo://app?vid=3c7619a0-cb05-43e4-bd1c-18414b732318","ios":"levelo://app?vid=3c7619a0-cb05-43e4-bd1c-18414b732318"},"vehicle_type_id":"4","last_reported":1727341764,"current_range_meters":4000,"station_id":"ce4bhe12rcd13ifvqf30","pricing_plan_id":"cebpf4jnsgd1na2vs0mg"},{"bike_id":"b860d883-c194-47c2-a427-633aacf2d83d","system_id":"levelo_inurba_marseille","lat":43.33603,"lon":5.41011,"is_reserved":false,"is_disabled":false,"rental_uris":{"android":"levelo://app?vid=b860d883-c194-47c2-a427-633aacf2d83d","ios":"levelo://app?vid=b860d883-c194-47c2-a427-633aacf2d83d"},"vehicle_type_id":"4","last_reported":1727341764,"current_range_meters":24000,"station_id":"ce4bhqh2rcd13ifvqhmg","pricing_plan_id":"cebpf4jnsgd1na2vs0mg"},{"bike_id":"80acf362-48b4-417c-81b1-76bc2e105559","system_id":"levelo_inurba_marseille","lat":43.2962,"lon":5.37153,"is_reserved":false,"is_disabled":false,"rental_uris":{"android":"levelo://app?vid=80acf362-48b4-417c-81b1-76bc2e105559","ios":"levelo://app?vid=80acf362-48b4-417c-81b1-76bc2e105559"},"vehicle_type_id":"4","last_reported":1727341764,"current_range_meters":38800,"station_id":"ce4bgnh2rcd13ifvqc0g","pricing_plan_id":"cebpf4jnsgd1na2vs0mg"},{"bike_id":"086467af-eb55-40d9-bf12-d79311bd4582","system_id":"levelo_inurba_marseille","lat":43.28709,"lon":5.37936,"is_reserved":false,"is_disabled":false,"rental_uris":{"android":"levelo://app?vid=086467af-eb55-40d9-bf12-d79311bd4582","ios":"levelo://app?vid=086467af-eb55-40d9-bf12-d79311bd4582"},"vehicle_type_id":"4","last_reported":1727341764,"current_range_meters":28000,"station_id":"ce4bh9p2rcd13ifvqec0","pricing_plan_id":"cebpf4jnsgd1na2vs0mg"},{"bike_id":"5933e752-2163-42fe-ae1d-31c1fb0105f2","system_id":"levelo_inurba_marseille","lat":43.3047,"lon":5.37902,"is_reserved":false,"is_disabled":false,"rental_uris":{"android":"levelo://app?vid=5933e752-2163-42fe-ae1d-31c1fb0105f2","ios":"levelo://app?vid=5933e752-2163-42fe-ae1d-31c1fb0105f2"},"vehicle_type_id":"4","last_reported":1727341764,"current_range_meters":16800,"station_id":"ce4bgup2rcd13ifvqcn0","pricing_plan_id":"cebpf4jnsgd1na2vs0mg"},{"bike_id":"71417a4e-e058-47af-99fe-23be5a623ecf","system_id":"levelo_inurba_marseille","lat":43.27491,"lon":5.42459,"is_reserved":false,"is_disabled":false,"rental_uris":{"android":"levelo://app?vid=71417a4e-e058-47af-99fe-23be5a623ecf","ios":"levelo://app?vid=71417a4e-e058-47af-99fe-23be5a623ecf"},"vehicle_type_id":"4","last_reported":1727341764,"current_range_meters":14000,"station_id":"ce4bhn92rcd13ifvqgrg","pricing_plan_id":"cebpf4jnsgd1na2vs0mg"},{"bike_id":"36c8e788-c711-4ae7-9ff8-f7f816e7f2fb","system_id":"levelo_inurba_marseille","lat":43.24073,"lon":5.37761,"is_reserved":false,"is_disabled":false,"rental_uris":{"android":"levelo://app?vid=36c8e788-c711-4ae7-9ff8-f7f816e7f2fb","ios":"levelo://app?vid=36c8e788-c711-4ae7-9ff8-f7f816e7f2fb"},"vehicle_type_id":"4","last_reported":1727341764,"current_range_meters":20400,"station_id":"ce4bhnp2rcd13ifvqgvg","pricing_plan_id":"cebpf4jnsgd1na2vs0mg"},{"bike_id":"5233d857-1fab-42f4-9c19-87f7a987f56d","system_id":"levelo_inurba_marseille","lat":43.27484,"lon":5.42453,"is_reserved":false,"is_disabled":false,"rental_uris":{"android":"levelo://app?vid=5233d857-1fab-42f4-9c19-87f7a987f56d","ios":"levelo://app?vid=5233d857-1fab-42f4-9c19-87f7a987f56d"},"vehicle_type_id":"4","last_reported":1727341764,"current_range_meters":32800,"station_id":"ce4bhn92rcd13ifvqgrg","pricing_plan_id":"cebpf4jnsgd1na2vs0mg"},{"bike_id":"538dac14-9de1-4375-a115-13e606449aa7","system_id":"levelo_inurba_marseille","lat":43.24075,"lon":5.37755,"is_reserved":false,"is_disabled":false,"rental_uris":{"android":"levelo://app?vid=538dac14-9de1-4375-a115-13e606449aa7","ios":"levelo://app?vid=538dac14-9de1-4375-a115-13e606449aa7"},"vehicle_type_id":"4","last_reported":1727341764,"current_range_meters":34800,"station_id":"ce4bhnp2rcd13ifvqgvg","pricing_plan_id":"cebpf4jnsgd1na2vs0mg"},{"bike_id":"e8c84b26-eed4-40f4-9d87-cd358fe306f2","system_id":"levelo_inurba_marseille","lat":43.30179,"lon":5.36623,"is_reserved":false,"is_disabled":false,"rental_uris":{"android":"levelo://app?vid=e8c84b26-eed4-40f4-9d87-cd358fe306f2","ios":"levelo://app?vid=e8c84b26-eed4-40f4-9d87-cd358fe306f2"},"vehicle_type_id":"4","last_reported":1727341764,"current_range_meters":24800,"station_id":"ce4bgrh2rcd13ifvqc8g","pricing_plan_id":"cebpf4jnsgd1na2vs0mg"},{"bike_id":"0a5ef607-1314-4ea7-a547-44134686620f","system_id":"levelo_inurba_marseille","lat":43.27485,"lon":5.4246,"is_reserved":false,"is_disabled":false,"rental_uris":{"android":"levelo://app?vid=0a5ef607-1314-4ea7-a547-44134686620f","ios":"levelo://app?vid=0a5ef607-1314-4ea7-a547-44134686620f"},"vehicle_type_id":"4","last_reported":1727341764,"current_range_meters":37600,"station_id":"ce4bhn92rcd13ifvqgrg","pricing_plan_id":"cebpf4jnsgd1na2vs0mg"},{"bike_id":"86b4e325-71e4-4c02-a6bd-d807e22475e5","system_id":"levelo_inurba_marseille","lat":43.32532,"lon":5.41442,"is_reserved":false,"is_disabled":false,"rental_uris":{"android":"levelo://app?vid=86b4e325-71e4-4c02-a6bd-d807e22475e5","ios":"levelo://app?vid=86b4e325-71e4-4c02-a6bd-d807e22475e5"},"vehicle_type_id":"4","last_reported":1727341764,"current_range_meters":39200,"station_id":"ce4bhq12rcd13ifvqhhg","pricing_plan_id":"cebpf4jnsgd1na2vs0mg"},{"bike_id":"e868c1c8-1da6-4beb-8a99-b79f5ec61971","system_id":"levelo_inurba_marseille","lat":43.26955,"lon":5.38633,"is_reserved":false,"is_disabled":false,"rental_uris":{"android":"levelo://app?vid=e868c1c8-1da6-4beb-8a99-b79f5ec61971","ios":"levelo://app?vid=e868c1c8-1da6-4beb-8a99-b79f5ec61971"},"vehicle_type_id":"4","last_reported":1727341764,"current_range_meters":20800,"station_id":"ce4bhh92rcd13ifvqfh0","pricing_plan_id":"cebpf4jnsgd1na2vs0mg"},{"bike_id":"f4c7606d-8d35-432b-ad47-9f01b319c0de","system_id":"levelo_inurba_marseille","lat":43.29866,"lon":5.39739,"is_reserved":false,"is_disabled":false,"rental_uris":{"android":"levelo://app?vid=f4c7606d-8d35-432b-ad47-9f01b319c0de","ios":"levelo://app?vid=f4c7606d-8d35-432b-ad47-9f01b319c0de"},"vehicle_type_id":"4","last_reported":1727341764,"current_range_meters":38400,"station_id":"ce4bh0h2rcd13ifvqd50","pricing_plan_id":"cebpf4jnsgd1na2vs0mg"},{"bike_id":"acc235a4-8579-4ea1-85b1-7447f430c3ae","system_id":"levelo_inurba_marseille","lat":43.26562,"lon":5.39025,"is_reserved":false,"is_disabled":false,"rental_uris":{"android":"levelo://app?vid=acc235a4-8579-4ea1-85b1-7447f430c3ae","ios":"levelo://app?vid=acc235a4-8579-4ea1-85b1-7447f430c3ae"},"vehicle_type_id":"4","last_reported":1727341764,"current_range_meters":19600,"station_id":"ce4bhe12rcd13ifvqf30","pricing_plan_id":"cebpf4jnsgd1na2vs0mg"},{"bike_id":"76d1b7d9-000e-4d75-850b-449f86c84cd5","system_id":"levelo_inurba_marseille","lat":43.2512,"lon":5.40315,"is_reserved":false,"is_disabled":false,"rental_uris":{"android":"levelo://app?vid=76d1b7d9-000e-4d75-850b-449f86c84cd5","ios":"levelo://app?vid=76d1b7d9-000e-4d75-850b-449f86c84cd5"},"vehicle_type_id":"4","last_reported":1727341764,"current_range_meters":25200,"station_id":"ce4bhlh2rcd13ifvqgig","pricing_plan_id":"cebpf4jnsgd1na2vs0mg"},{"bike_id":"86cc00fb-3115-49c4-8209-a596309893f4","system_id":"levelo_inurba_marseille","lat":43.28148,"lon":5.42646,"is_reserved":false,"is_disabled":false,"rental_uris":{"android":"levelo://app?vid=86cc00fb-3115-49c4-8209-a596309893f4","ios":"levelo://app?vid=86cc00fb-3115-49c4-8209-a596309893f4"},"vehicle_type_id":"4","last_reported":1727341764,"current_range_meters":38000,"station_id":"ce4bhnh2rcd13ifvqgug","pricing_plan_id":"cebpf4jnsgd1na2vs0mg"},{"bike_id":"cdd4a971-88d1-4937-adf9-51649b8b80ee","system_id":"levelo_inurba_marseille","lat":43.30906,"lon":5.36851,"is_reserved":false,"is_disabled":false,"rental_uris":{"android":"levelo://app?vid=cdd4a971-88d1-4937-adf9-51649b8b80ee","ios":"levelo://app?vid=cdd4a971-88d1-4937-adf9-51649b8b80ee"},"vehicle_type_id":"4","last_reported":1727341764,"current_range_meters":40000,"station_id":"ce4bgn92rcd13ifvqbvg","pricing_plan_id":"cebpf4jnsgd1na2vs0mg"},{"bike_id":"a2c30071-cf26-4a67-a5bd-fe6db5795b59","system_id":"levelo_inurba_marseille","lat":43.24176,"lon":5.397373,"is_reserved":false,"is_disabled":false,"rental_uris":{"android":"levelo://app?vid=a2c30071-cf26-4a67-a5bd-fe6db5795b59","ios":"levelo://app?vid=a2c30071-cf26-4a67-a5bd-fe6db5795b59"},"vehicle_type_id":"4","last_reported":1727341764,"current_range_meters":33200,"station_id":"ce4bhn12rcd13ifvqgpg","pricing_plan_id":"cebpf4jnsgd1na2vs0mg"},{"bike_id":"2ed98b51-95b7-4b57-a44b-84e22c01b097","system_id":"levelo_inurba_marseille","lat":43.25938,"lon":5.409,"is_reserved":false,"is_disabled":false,"rental_uris":{"android":"levelo://app?vid=2ed98b51-95b7-4b57-a44b-84e22c01b097","ios":"levelo://app?vid=2ed98b51-95b7-4b57-a44b-84e22c01b097"},"vehicle_type_id":"4","last_reported":1727341764,"current_range_meters":26800,"station_id":"ce4bhm92rcd13ifvqglg","pricing_plan_id":"cebpf4jnsgd1na2vs0mg"},{"bike_id":"a246a953-a4ec-471b-920b-c6955e25b8b0","system_id":"levelo_inurba_marseille","lat":43.30937,"lon":5.39034,"is_reserved":false,"is_disabled":false,"rental_uris":{"android":"levelo://app?vid=a246a953-a4ec-471b-920b-c6955e25b8b0","ios":"levelo://app?vid=a246a953-a4ec-471b-920b-c6955e25b8b0"},"vehicle_type_id":"4","last_reported":1727341764,"current_range_meters":33200,"station_id":"ce4bgup2rcd13ifvqco0","pricing_plan_id":"cebpf4jnsgd1na2vs0mg"},{"bike_id":"db901e4b-152d-44f9-bf8e-0ac06b2af6fe","system_id":"levelo_inurba_marseille","lat":43.30536,"lon":5.36711,"is_reserved":false,"is_disabled":false,"rental_uris":{"android":"levelo://app?vid=db901e4b-152d-44f9-bf8e-0ac06b2af6fe","ios":"levelo://app?vid=db901e4b-152d-44f9-bf8e-0ac06b2af6fe"},"vehicle_type_id":"4","last_reported":1727341764,"current_range_meters":30000,"station_id":"ce4bgrp2rcd13ifvqc9g","pricing_plan_id":"cebpf4jnsgd1na2vs0mg"},{"bike_id":"8c91e0b6-13ce-49b6-8cb1-92033cf800fd","system_id":"levelo_inurba_marseille","lat":43.26619,"lon":5.39005,"is_reserved":false,"is_disabled":false,"rental_uris":{"android":"levelo://app?vid=8c91e0b6-13ce-49b6-8cb1-92033cf800fd","ios":"levelo://app?vid=8c91e0b6-13ce-49b6-8cb1-92033cf800fd"},"vehicle_type_id":"4","last_reported":1727341764,"current_range_meters":27600,"station_id":"ce4bhe12rcd13ifvqf30","pricing_plan_id":"cebpf4jnsgd1na2vs0mg"},{"bike_id":"c859838e-9668-46a6-9add-c65973b9865a","system_id":"levelo_inurba_marseille","lat":43.27075,"lon":5.42279,"is_reserved":false,"is_disabled":false,"rental_uris":{"android":"levelo://app?vid=c859838e-9668-46a6-9add-c65973b9865a","ios":"levelo://app?vid=c859838e-9668-46a6-9add-c65973b9865a"},"vehicle_type_id":"4","last_reported":1727341764,"current_range_meters":28800,"station_id":"ce4bhk92rcd13ifvqgb0","pricing_plan_id":"cebpf4jnsgd1na2vs0mg"},{"bike_id":"b31b5c21-71df-4080-af7b-1aa0a83e47c5","system_id":"levelo_inurba_marseille","lat":43.30877,"lon":5.37201,"is_reserved":false,"is_disabled":false,"rental_uris":{"android":"levelo://app?vid=b31b5c21-71df-4080-af7b-1aa0a83e47c5","ios":"levelo://app?vid=b31b5c21-71df-4080-af7b-1aa0a83e47c5"},"vehicle_type_id":"4","last_reported":1727341764,"current_range_meters":32800,"station_id":"ce4bguh2rcd13ifvqckg","pricing_plan_id":"cebpf4jnsgd1na2vs0mg"},{"bike_id":"95fe7401-4c82-4571-a0d3-1e2e6b5e2476","system_id":"levelo_inurba_marseille","lat":43.26943,"lon":5.3863,"is_reserved":false,"is_disabled":false,"rental_uris":{"android":"levelo://app?vid=95fe7401-4c82-4571-a0d3-1e2e6b5e2476","ios":"levelo://app?vid=95fe7401-4c82-4571-a0d3-1e2e6b5e2476"},"vehicle_type_id":"4","last_reported":1727341764,"current_range_meters":22000,"station_id":"ce4bhh92rcd13ifvqfh0","pricing_plan_id":"cebpf4jnsgd1na2vs0mg"},{"bike_id":"e9a8dbaf-57f8-49f9-b8b9-f8977d9d8a8f","system_id":"levelo_inurba_marseille","lat":43.32477,"lon":5.36567,"is_reserved":false,"is_disabled":false,"rental_uris":{"android":"levelo://app?vid=e9a8dbaf-57f8-49f9-b8b9-f8977d9d8a8f","ios":"levelo://app?vid=e9a8dbaf-57f8-49f9-b8b9-f8977d9d8a8f"},"vehicle_type_id":"4","last_reported":1727341764,"current_range_meters":9600,"station_id":"ce4bhs12rcd13ifvqhvg","pricing_plan_id":"cebpf4jnsgd1na2vs0mg"},{"bike_id":"32f2ee49-0647-4da0-a723-7687c3b8c1c9","system_id":"levelo_inurba_marseille","lat":43.23153,"lon":5.43719,"is_reserved":false,"is_disabled":false,"rental_uris":{"android":"levelo://app?vid=32f2ee49-0647-4da0-a723-7687c3b8c1c9","ios":"levelo://app?vid=32f2ee49-0647-4da0-a723-7687c3b8c1c9"},"vehicle_type_id":"4","last_reported":1727341764,"current_range_meters":11200,"station_id":"ce4bhmp2rcd13ifvqgog","pricing_plan_id":"cebpf4jnsgd1na2vs0mg"},{"bike_id":"22e78102-e61a-40ce-aa23-528aa9929fe6","system_id":"levelo_inurba_marseille","lat":43.27065,"lon":5.42276,"is_reserved":false,"is_disabled":false,"rental_uris":{"android":"levelo://app?vid=22e78102-e61a-40ce-aa23-528aa9929fe6","ios":"levelo://app?vid=22e78102-e61a-40ce-aa23-528aa9929fe6"},"vehicle_type_id":"4","last_reported":1727341764,"current_range_meters":8000,"station_id":"ce4bhk92rcd13ifvqgb0","pricing_plan_id":"cebpf4jnsgd1na2vs0mg"},{"bike_id":"45daab6e-bdfa-4378-bb67-2ff46e2c4c5d","system_id":"levelo_inurba_marseille","lat":43.26948,"lon":5.38639,"is_reserved":false,"is_disabled":false,"rental_uris":{"android":"levelo://app?vid=45daab6e-bdfa-4378-bb67-2ff46e2c4c5d","ios":"levelo://app?vid=45daab6e-bdfa-4378-bb67-2ff46e2c4c5d"},"vehicle_type_id":"4","last_reported":1727341764,"current_range_meters":32000,"station_id":"ce4bhh92rcd13ifvqfh0","pricing_plan_id":"cebpf4jnsgd1na2vs0mg"},{"bike_id":"83a36a9f-9334-4ac7-9001-decf1cb87617","system_id":"levelo_inurba_marseille","lat":43.33606,"lon":5.41029,"is_reserved":false,"is_disabled":false,"rental_uris":{"android":"levelo://app?vid=83a36a9f-9334-4ac7-9001-decf1cb87617","ios":"levelo://app?vid=83a36a9f-9334-4ac7-9001-decf1cb87617"},"vehicle_type_id":"4","last_reported":1727341764,"current_range_meters":24800,"station_id":"ce4bhqh2rcd13ifvqhmg","pricing_plan_id":"cebpf4jnsgd1na2vs0mg"},{"bike_id":"4c9ebba9-92e0-4ef4-9b48-37715295cf85","system_id":"levelo_inurba_marseille","lat":43.30907,"lon":5.36845,"is_reserved":false,"is_disabled":false,"rental_uris":{"android":"levelo://app?vid=4c9ebba9-92e0-4ef4-9b48-37715295cf85","ios":"levelo://app?vid=4c9ebba9-92e0-4ef4-9b48-37715295cf85"},"vehicle_type_id":"4","last_reported":1727341764,"current_range_meters":25200,"station_id":"ce4bgn92rcd13ifvqbvg","pricing_plan_id":"cebpf4jnsgd1na2vs0mg"},{"bike_id":"ef7aeb25-c5f4-4914-9996-a2c34e4d7ae3","system_id":"levelo_inurba_marseille","lat":43.314971,"lon":5.373069,"is_reserved":false,"is_disabled":false,"rental_uris":{"android":"levelo://app?vid=ef7aeb25-c5f4-4914-9996-a2c34e4d7ae3","ios":"levelo://app?vid=ef7aeb25-c5f4-4914-9996-a2c34e4d7ae3"},"vehicle_type_id":"4","last_reported":1727341764,"current_range_meters":5600,"station_id":"ce4bgt12rcd13ifvqcd0","pricing_plan_id":"cebpf4jnsgd1na2vs0mg"},{"bike_id":"04243385-cef7-4580-a7bb-cde4428a2ddc","system_id":"levelo_inurba_marseille","lat":43.303195,"lon":5.36899,"is_reserved":false,"is_disabled":false,"rental_uris":{"android":"levelo://app?vid=04243385-cef7-4580-a7bb-cde4428a2ddc","ios":"levelo://app?vid=04243385-cef7-4580-a7bb-cde4428a2ddc"},"vehicle_type_id":"4","last_reported":1727341764,"current_range_meters":8400,"station_id":"ce4bgqh2rcd13ifvqc5g","pricing_plan_id":"cebpf4jnsgd1na2vs0mg"},{"bike_id":"730a8251-d94a-4277-99a9-1c8f6d01216c","system_id":"levelo_inurba_marseille","lat":43.25932,"lon":5.40913,"is_reserved":false,"is_disabled":false,"rental_uris":{"android":"levelo://app?vid=730a8251-d94a-4277-99a9-1c8f6d01216c","ios":"levelo://app?vid=730a8251-d94a-4277-99a9-1c8f6d01216c"},"vehicle_type_id":"4","last_reported":1727341764,"current_range_meters":18000,"station_id":"ce4bhm92rcd13ifvqglg","pricing_plan_id":"cebpf4jnsgd1na2vs0mg"},{"bike_id":"5f6c79fc-4a32-4034-b731-a210b1c8c48d","system_id":"levelo_inurba_marseille","lat":43.30535,"lon":5.36694,"is_reserved":false,"is_disabled":false,"rental_uris":{"android":"levelo://app?vid=5f6c79fc-4a32-4034-b731-a210b1c8c48d","ios":"levelo://app?vid=5f6c79fc-4a32-4034-b731-a210b1c8c48d"},"vehicle_type_id":"4","last_reported":1727341764,"current_range_meters":9600,"station_id":"ce4bgrp2rcd13ifvqc9g","pricing_plan_id":"cebpf4jnsgd1na2vs0mg"},{"bike_id":"78b9129e-a744-4324-85c5-bd0f43ab7765","system_id":"levelo_inurba_marseille","lat":43.33609,"lon":5.41038,"is_reserved":false,"is_disabled":false,"rental_uris":{"android":"levelo://app?vid=78b9129e-a744-4324-85c5-bd0f43ab7765","ios":"levelo://app?vid=78b9129e-a744-4324-85c5-bd0f43ab7765"},"vehicle_type_id":"4","last_reported":1727341764,"current_range_meters":32800,"station_id":"ce4bhqh2rcd13ifvqhmg","pricing_plan_id":"cebpf4jnsgd1na2vs0mg"},{"bike_id":"d09622a2-aaf2-4ad4-921f-fa78add55e28","system_id":"levelo_inurba_marseille","lat":43.29293,"lon":5.37448,"is_reserved":false,"is_disabled":false,"rental_uris":{"android":"levelo://app?vid=d09622a2-aaf2-4ad4-921f-fa78add55e28","ios":"levelo://app?vid=d09622a2-aaf2-4ad4-921f-fa78add55e28"},"vehicle_type_id":"4","last_reported":1727341764,"current_range_meters":12800,"station_id":"ce4bgi12rcd13ifvqb70","pricing_plan_id":"cebpf4jnsgd1na2vs0mg"},{"bike_id":"77c97b80-03e6-4816-abec-8831ed02cb98","system_id":"levelo_inurba_marseille","lat":43.24077,"lon":5.37756,"is_reserved":false,"is_disabled":false,"rental_uris":{"android":"levelo://app?vid=77c97b80-03e6-4816-abec-8831ed02cb98","ios":"levelo://app?vid=77c97b80-03e6-4816-abec-8831ed02cb98"},"vehicle_type_id":"4","last_reported":1727341764,"current_range_meters":10800,"station_id":"ce4bhnp2rcd13ifvqgvg","pricing_plan_id":"cebpf4jnsgd1na2vs0mg"},{"bike_id":"751bff45-76c1-4c5f-b949-27cb0e9aacd7","system_id":"levelo_inurba_marseille","lat":43.33787,"lon":5.37447,"is_reserved":false,"is_disabled":false,"rental_uris":{"android":"levelo://app?vid=751bff45-76c1-4c5f-b949-27cb0e9aacd7","ios":"levelo://app?vid=751bff45-76c1-4c5f-b949-27cb0e9aacd7"},"vehicle_type_id":"4","last_reported":1727341764,"current_range_meters":38800,"station_id":"","pricing_plan_id":"cebpf4jnsgd1na2vs0mg"},{"bike_id":"8d9c6ed5-96e9-4a18-8b86-7b149395fb80","system_id":"levelo_inurba_marseille","lat":43.30541,"lon":5.36711,"is_reserved":false,"is_disabled":false,"rental_uris":{"android":"levelo://app?vid=8d9c6ed5-96e9-4a18-8b86-7b149395fb80","ios":"levelo://app?vid=8d9c6ed5-96e9-4a18-8b86-7b149395fb80"},"vehicle_type_id":"4","last_reported":1727341764,"current_range_meters":16000,"station_id":"ce4bgrp2rcd13ifvqc9g","pricing_plan_id":"cebpf4jnsgd1na2vs0mg"},{"bike_id":"be6597c7-36df-467d-8d7f-8202a760e6f4","system_id":"levelo_inurba_marseille","lat":43.31351,"lon":5.36708,"is_reserved":false,"is_disabled":false,"rental_uris":{"android":"levelo://app?vid=be6597c7-36df-467d-8d7f-8202a760e6f4","ios":"levelo://app?vid=be6597c7-36df-467d-8d7f-8202a760e6f4"},"vehicle_type_id":"4","last_reported":1727341764,"current_range_meters":11200,"station_id":"ce4bgr92rcd13ifvqc6g","pricing_plan_id":"cebpf4jnsgd1na2vs0mg"},{"bike_id":"e1610c3c-4848-4805-a3f9-1a4dd01368cf","system_id":"levelo_inurba_marseille","lat":43.29026,"lon":5.37549,"is_reserved":false,"is_disabled":false,"rental_uris":{"android":"levelo://app?vid=e1610c3c-4848-4805-a3f9-1a4dd01368cf","ios":"levelo://app?vid=e1610c3c-4848-4805-a3f9-1a4dd01368cf"},"vehicle_type_id":"4","last_reported":1727341764,"current_range_meters":38800,"station_id":"ce4bh692rcd13ifvqe90","pricing_plan_id":"cebpf4jnsgd1na2vs0mg"},{"bike_id":"faeb7aea-6217-4662-a25c-3acbab1752d3","system_id":"levelo_inurba_marseille","lat":43.30085,"lon":5.39063,"is_reserved":false,"is_disabled":false,"rental_uris":{"android":"levelo://app?vid=faeb7aea-6217-4662-a25c-3acbab1752d3","ios":"levelo://app?vid=faeb7aea-6217-4662-a25c-3acbab1752d3"},"vehicle_type_id":"4","last_reported":1727341764,"current_range_meters":36800,"station_id":"ce4bh192rcd13ifvqdb0","pricing_plan_id":"cebpf4jnsgd1na2vs0mg"},{"bike_id":"dfccf60a-17b8-4f5b-bb7e-495eba2ceb6f","system_id":"levelo_inurba_marseille","lat":43.308899,"lon":5.371948,"is_reserved":false,"is_disabled":false,"rental_uris":{"android":"levelo://app?vid=dfccf60a-17b8-4f5b-bb7e-495eba2ceb6f","ios":"levelo://app?vid=dfccf60a-17b8-4f5b-bb7e-495eba2ceb6f"},"vehicle_type_id":"4","last_reported":1727341764,"current_range_meters":35600,"station_id":"ce4bguh2rcd13ifvqckg","pricing_plan_id":"cebpf4jnsgd1na2vs0mg"},{"bike_id":"1a4252c3-05b9-4471-8eed-398eca369e49","system_id":"levelo_inurba_marseille","lat":43.24078,"lon":5.37754,"is_reserved":false,"is_disabled":false,"rental_uris":{"android":"levelo://app?vid=1a4252c3-05b9-4471-8eed-398eca369e49","ios":"levelo://app?vid=1a4252c3-05b9-4471-8eed-398eca369e49"},"vehicle_type_id":"4","last_reported":1727341764,"current_range_meters":19200,"station_id":"ce4bhnp2rcd13ifvqgvg","pricing_plan_id":"cebpf4jnsgd1na2vs0mg"},{"bike_id":"b89f3c75-62ef-439a-891a-3e5717a4b61a","system_id":"levelo_inurba_marseille","lat":43.27919,"lon":5.37937,"is_reserved":false,"is_disabled":false,"rental_uris":{"android":"levelo://app?vid=b89f3c75-62ef-439a-891a-3e5717a4b61a","ios":"levelo://app?vid=b89f3c75-62ef-439a-891a-3e5717a4b61a"},"vehicle_type_id":"4","last_reported":1727341764,"current_range_meters":24000,"station_id":"","pricing_plan_id":"cebpf4jnsgd1na2vs0mg"},{"bike_id":"c7dc6043-7dad-4ca0-bb83-79cc5921580c","system_id":"levelo_inurba_marseille","lat":43.2694,"lon":5.38636,"is_reserved":false,"is_disabled":false,"rental_uris":{"android":"levelo://app?vid=c7dc6043-7dad-4ca0-bb83-79cc5921580c","ios":"levelo://app?vid=c7dc6043-7dad-4ca0-bb83-79cc5921580c"},"vehicle_type_id":"4","last_reported":1727341764,"current_range_meters":38800,"station_id":"ce4bhh92rcd13ifvqfh0","pricing_plan_id":"cebpf4jnsgd1na2vs0mg"},{"bike_id":"f9cefe39-9e01-48d0-9432-d12f8a7da9df","system_id":"levelo_inurba_marseille","lat":43.30878,"lon":5.37192,"is_reserved":false,"is_disabled":false,"rental_uris":{"android":"levelo://app?vid=f9cefe39-9e01-48d0-9432-d12f8a7da9df","ios":"levelo://app?vid=f9cefe39-9e01-48d0-9432-d12f8a7da9df"},"vehicle_type_id":"4","last_reported":1727341764,"current_range_meters":38800,"station_id":"ce4bguh2rcd13ifvqckg","pricing_plan_id":"cebpf4jnsgd1na2vs0mg"},{"bike_id":"235024ea-823b-43f0-a223-3e703f9a9ef0","system_id":"levelo_inurba_marseille","lat":43.24386,"lon":5.37053,"is_reserved":false,"is_disabled":false,"rental_uris":{"android":"levelo://app?vid=235024ea-823b-43f0-a223-3e703f9a9ef0","ios":"levelo://app?vid=235024ea-823b-43f0-a223-3e703f9a9ef0"},"vehicle_type_id":"4","last_reported":1727341764,"current_range_meters":20400,"station_id":"ce4bhhh2rcd13ifvqfk0","pricing_plan_id":"cebpf4jnsgd1na2vs0mg"},{"bike_id":"15091c48-fa1f-42b0-a263-2568d4978cd4","system_id":"levelo_inurba_marseille","lat":43.24074,"lon":5.37764,"is_reserved":false,"is_disabled":false,"rental_uris":{"android":"levelo://app?vid=15091c48-fa1f-42b0-a263-2568d4978cd4","ios":"levelo://app?vid=15091c48-fa1f-42b0-a263-2568d4978cd4"},"vehicle_type_id":"4","last_reported":1727341764,"current_range_meters":14800,"station_id":"ce4bhnp2rcd13ifvqgvg","pricing_plan_id":"cebpf4jnsgd1na2vs0mg"},{"bike_id":"e7538fd8-10d9-40e4-aff9-8eb2f36b73c6","system_id":"levelo_inurba_marseille","lat":43.32474,"lon":5.36584,"is_reserved":false,"is_disabled":false,"rental_uris":{"android":"levelo://app?vid=e7538fd8-10d9-40e4-aff9-8eb2f36b73c6","ios":"levelo://app?vid=e7538fd8-10d9-40e4-aff9-8eb2f36b73c6"},"vehicle_type_id":"4","last_reported":1727341764,"current_range_meters":28800,"station_id":"ce4bhs12rcd13ifvqhvg","pricing_plan_id":"cebpf4jnsgd1na2vs0mg"},{"bike_id":"c2e5a81e-6912-4cb0-98ad-5f3df477fa43","system_id":"levelo_inurba_marseille","lat":43.28993,"lon":5.37581,"is_reserved":false,"is_disabled":false,"rental_uris":{"android":"levelo://app?vid=c2e5a81e-6912-4cb0-98ad-5f3df477fa43","ios":"levelo://app?vid=c2e5a81e-6912-4cb0-98ad-5f3df477fa43"},"vehicle_type_id":"4","last_reported":1727341764,"current_range_meters":38000,"station_id":"ce4bh692rcd13ifvqe90","pricing_plan_id":"cebpf4jnsgd1na2vs0mg"},{"bike_id":"3f8308e1-7d6c-4759-b3e7-86f24d3853c1","system_id":"levelo_inurba_marseille","lat":43.24807,"lon":5.37455,"is_reserved":false,"is_disabled":false,"rental_uris":{"android":"levelo://app?vid=3f8308e1-7d6c-4759-b3e7-86f24d3853c1","ios":"levelo://app?vid=3f8308e1-7d6c-4759-b3e7-86f24d3853c1"},"vehicle_type_id":"4","last_reported":1727341764,"current_range_meters":30400,"station_id":"ce4bhgh2rcd13ifvqfb0","pricing_plan_id":"cebpf4jnsgd1na2vs0mg"},{"bike_id":"8342097b-c3f3-4565-885b-b4c3f72abd8c","system_id":"levelo_inurba_marseille","lat":43.24672,"lon":5.3816,"is_reserved":false,"is_disabled":false,"rental_uris":{"android":"levelo://app?vid=8342097b-c3f3-4565-885b-b4c3f72abd8c","ios":"levelo://app?vid=8342097b-c3f3-4565-885b-b4c3f72abd8c"},"vehicle_type_id":"4","last_reported":1727341764,"current_range_meters":35600,"station_id":"ce4bhih2rcd13ifvqfr0","pricing_plan_id":"cebpf4jnsgd1na2vs0mg"},{"bike_id":"e4d55da8-9a0e-4c4d-8c5f-3b668bd4aeae","system_id":"levelo_inurba_marseille","lat":43.23154,"lon":5.43714,"is_reserved":false,"is_disabled":false,"rental_uris":{"android":"levelo://app?vid=e4d55da8-9a0e-4c4d-8c5f-3b668bd4aeae","ios":"levelo://app?vid=e4d55da8-9a0e-4c4d-8c5f-3b668bd4aeae"},"vehicle_type_id":"4","last_reported":1727341764,"current_range_meters":16400,"station_id":"ce4bhmp2rcd13ifvqgog","pricing_plan_id":"cebpf4jnsgd1na2vs0mg"},{"bike_id":"8460a7e8-1a9d-4ecf-8e31-4e5a3fd8d5e0","system_id":"levelo_inurba_marseille","lat":43.29934,"lon":5.36531,"is_reserved":false,"is_disabled":false,"rental_uris":{"android":"levelo://app?vid=8460a7e8-1a9d-4ecf-8e31-4e5a3fd8d5e0","ios":"levelo://app?vid=8460a7e8-1a9d-4ecf-8e31-4e5a3fd8d5e0"},"vehicle_type_id":"4","last_reported":1727341764,"current_range_meters":17200,"station_id":"ce4bgm92rcd13ifvqbr0","pricing_plan_id":"cebpf4jnsgd1na2vs0mg"},{"bike_id":"92cbf2c2-f751-4816-b9d4-b3e8aa15ca1a","system_id":"levelo_inurba_marseille","lat":43.2926,"lon":5.36842,"is_reserved":false,"is_disabled":false,"rental_uris":{"android":"levelo://app?vid=92cbf2c2-f751-4816-b9d4-b3e8aa15ca1a","ios":"levelo://app?vid=92cbf2c2-f751-4816-b9d4-b3e8aa15ca1a"},"vehicle_type_id":"4","last_reported":1727341764,"current_range_meters":26000,"station_id":"ce4bhbp2rcd13ifvqesg","pricing_plan_id":"cebpf4jnsgd1na2vs0mg"},{"bike_id":"94ef9032-e27f-420d-aed7-9262181a3b94","system_id":"levelo_inurba_marseille","lat":43.29061,"lon":5.37156,"is_reserved":false,"is_disabled":false,"rental_uris":{"android":"levelo://app?vid=94ef9032-e27f-420d-aed7-9262181a3b94","ios":"levelo://app?vid=94ef9032-e27f-420d-aed7-9262181a3b94"},"vehicle_type_id":"4","last_reported":1727341764,"current_range_meters":36400,"station_id":"ce4bh5p2rcd13ifvqe4g","pricing_plan_id":"cebpf4jnsgd1na2vs0mg"},{"bike_id":"ba28c655-7b18-4e97-988d-7b8744ba7e35","system_id":"levelo_inurba_marseille","lat":43.30541,"lon":5.36528,"is_reserved":false,"is_disabled":false,"rental_uris":{"android":"levelo://app?vid=ba28c655-7b18-4e97-988d-7b8744ba7e35","ios":"levelo://app?vid=ba28c655-7b18-4e97-988d-7b8744ba7e35"},"vehicle_type_id":"4","last_reported":1727341764,"current_range_meters":24400,"station_id":"ce4bgs12rcd13ifvqcag","pricing_plan_id":"cebpf4jnsgd1na2vs0mg"},{"bike_id":"e7aeb33b-2d1a-4f23-86c4-d95ed913d334","system_id":"levelo_inurba_marseille","lat":43.25926,"lon":5.409,"is_reserved":false,"is_disabled":false,"rental_uris":{"android":"levelo://app?vid=e7aeb33b-2d1a-4f23-86c4-d95ed913d334","ios":"levelo://app?vid=e7aeb33b-2d1a-4f23-86c4-d95ed913d334"},"vehicle_type_id":"4","last_reported":1727341764,"current_range_meters":11600,"station_id":"ce4bhm92rcd13ifvqglg","pricing_plan_id":"cebpf4jnsgd1na2vs0mg"},{"bike_id":"17a7cc45-ad5b-43c0-82fc-b454be44a18d","system_id":"levelo_inurba_marseille","lat":43.24071,"lon":5.37753,"is_reserved":false,"is_disabled":false,"rental_uris":{"android":"levelo://app?vid=17a7cc45-ad5b-43c0-82fc-b454be44a18d","ios":"levelo://app?vid=17a7cc45-ad5b-43c0-82fc-b454be44a18d"},"vehicle_type_id":"4","last_reported":1727341764,"current_range_meters":23200,"station_id":"ce4bhnp2rcd13ifvqgvg","pricing_plan_id":"cebpf4jnsgd1na2vs0mg"},{"bike_id":"e86a47d3-3a92-417d-bef8-b12a1e3abdd1","system_id":"levelo_inurba_marseille","lat":43.30929,"lon":5.3904,"is_reserved":false,"is_disabled":false,"rental_uris":{"android":"levelo://app?vid=e86a47d3-3a92-417d-bef8-b12a1e3abdd1","ios":"levelo://app?vid=e86a47d3-3a92-417d-bef8-b12a1e3abdd1"},"vehicle_type_id":"4","last_reported":1727341764,"current_range_meters":29600,"station_id":"ce4bgup2rcd13ifvqco0","pricing_plan_id":"cebpf4jnsgd1na2vs0mg"},{"bike_id":"64577474-503b-47b8-ba02-db6057494fc8","system_id":"levelo_inurba_marseille","lat":43.25941,"lon":5.40906,"is_reserved":false,"is_disabled":false,"rental_uris":{"android":"levelo://app?vid=64577474-503b-47b8-ba02-db6057494fc8","ios":"levelo://app?vid=64577474-503b-47b8-ba02-db6057494fc8"},"vehicle_type_id":"4","last_reported":1727341764,"current_range_meters":35200,"station_id":"ce4bhm92rcd13ifvqglg","pricing_plan_id":"cebpf4jnsgd1na2vs0mg"},{"bike_id":"2838c3b1-75b7-40b1-8f0c-0d005fb9dee7","system_id":"levelo_inurba_marseille","lat":43.32528,"lon":5.41432,"is_reserved":false,"is_disabled":false,"rental_uris":{"android":"levelo://app?vid=2838c3b1-75b7-40b1-8f0c-0d005fb9dee7","ios":"levelo://app?vid=2838c3b1-75b7-40b1-8f0c-0d005fb9dee7"},"vehicle_type_id":"4","last_reported":1727341764,"current_range_meters":15200,"station_id":"ce4bhq12rcd13ifvqhhg","pricing_plan_id":"cebpf4jnsgd1na2vs0mg"},{"bike_id":"666cfbb3-1b46-4df5-a347-94d4c62ca70f","system_id":"levelo_inurba_marseille","lat":43.24064,"lon":5.37746,"is_reserved":false,"is_disabled":false,"rental_uris":{"android":"levelo://app?vid=666cfbb3-1b46-4df5-a347-94d4c62ca70f","ios":"levelo://app?vid=666cfbb3-1b46-4df5-a347-94d4c62ca70f"},"vehicle_type_id":"4","last_reported":1727341764,"current_range_meters":6800,"station_id":"ce4bhnp2rcd13ifvqgvg","pricing_plan_id":"cebpf4jnsgd1na2vs0mg"},{"bike_id":"8daa29e7-59b8-4d33-b3a3-84845f7aff9b","system_id":"levelo_inurba_marseille","lat":43.26193,"lon":5.37927,"is_reserved":false,"is_disabled":false,"rental_uris":{"android":"levelo://app?vid=8daa29e7-59b8-4d33-b3a3-84845f7aff9b","ios":"levelo://app?vid=8daa29e7-59b8-4d33-b3a3-84845f7aff9b"},"vehicle_type_id":"4","last_reported":1727341764,"current_range_meters":38800,"station_id":"ce4bhjp2rcd13ifvqg90","pricing_plan_id":"cebpf4jnsgd1na2vs0mg"},{"bike_id":"c6ebdc49-4729-4e81-a2ad-ad9c2b48e60f","system_id":"levelo_inurba_marseille","lat":43.29932,"lon":5.36541,"is_reserved":false,"is_disabled":false,"rental_uris":{"android":"levelo://app?vid=c6ebdc49-4729-4e81-a2ad-ad9c2b48e60f","ios":"levelo://app?vid=c6ebdc49-4729-4e81-a2ad-ad9c2b48e60f"},"vehicle_type_id":"4","last_reported":1727341764,"current_range_meters":32400,"station_id":"ce4bgm92rcd13ifvqbr0","pricing_plan_id":"cebpf4jnsgd1na2vs0mg"},{"bike_id":"61ba633a-8900-4b79-a56d-faed658056c1","system_id":"levelo_inurba_marseille","lat":43.30542,"lon":5.36708,"is_reserved":false,"is_disabled":false,"rental_uris":{"android":"levelo://app?vid=61ba633a-8900-4b79-a56d-faed658056c1","ios":"levelo://app?vid=61ba633a-8900-4b79-a56d-faed658056c1"},"vehicle_type_id":"4","last_reported":1727341764,"current_range_meters":16800,"station_id":"ce4bgrp2rcd13ifvqc9g","pricing_plan_id":"cebpf4jnsgd1na2vs0mg"},{"bike_id":"47984ad2-c175-435c-88b3-31757c572c31","system_id":"levelo_inurba_marseille","lat":43.2408,"lon":5.37752,"is_reserved":false,"is_disabled":false,"rental_uris":{"android":"levelo://app?vid=47984ad2-c175-435c-88b3-31757c572c31","ios":"levelo://app?vid=47984ad2-c175-435c-88b3-31757c572c31"},"vehicle_type_id":"4","last_reported":1727341764,"current_range_meters":30000,"station_id":"ce4bhnp2rcd13ifvqgvg","pricing_plan_id":"cebpf4jnsgd1na2vs0mg"},{"bike_id":"6b2d6110-047a-4374-b820-0abaa9613131","system_id":"levelo_inurba_marseille","lat":43.32479,"lon":5.36563,"is_reserved":false,"is_disabled":false,"rental_uris":{"android":"levelo://app?vid=6b2d6110-047a-4374-b820-0abaa9613131","ios":"levelo://app?vid=6b2d6110-047a-4374-b820-0abaa9613131"},"vehicle_type_id":"4","last_reported":1727341764,"current_range_meters":37600,"station_id":"ce4bhs12rcd13ifvqhvg","pricing_plan_id":"cebpf4jnsgd1na2vs0mg"},{"bike_id":"b90aebb6-9350-4611-bb73-5ffa7602d9ca","system_id":"levelo_inurba_marseille","lat":43.26674,"lon":5.38258,"is_reserved":false,"is_disabled":false,"rental_uris":{"android":"levelo://app?vid=b90aebb6-9350-4611-bb73-5ffa7602d9ca","ios":"levelo://app?vid=b90aebb6-9350-4611-bb73-5ffa7602d9ca"},"vehicle_type_id":"4","last_reported":1727341764,"current_range_meters":25600,"station_id":"ce4bhg92rcd13ifvqf90","pricing_plan_id":"cebpf4jnsgd1na2vs0mg"},{"bike_id":"a7bca3df-0344-4204-86d7-b742d4769839","system_id":"levelo_inurba_marseille","lat":43.30863,"lon":5.3685,"is_reserved":false,"is_disabled":false,"rental_uris":{"android":"levelo://app?vid=a7bca3df-0344-4204-86d7-b742d4769839","ios":"levelo://app?vid=a7bca3df-0344-4204-86d7-b742d4769839"},"vehicle_type_id":"4","last_reported":1727341764,"current_range_meters":24000,"station_id":"ce4bgn92rcd13ifvqbvg","pricing_plan_id":"cebpf4jnsgd1na2vs0mg"},{"bike_id":"5c5d6480-15ef-41d1-819d-f6b78d27575d","system_id":"levelo_inurba_marseille","lat":43.29834,"lon":5.3626,"is_reserved":false,"is_disabled":false,"rental_uris":{"android":"levelo://app?vid=5c5d6480-15ef-41d1-819d-f6b78d27575d","ios":"levelo://app?vid=5c5d6480-15ef-41d1-819d-f6b78d27575d"},"vehicle_type_id":"4","last_reported":1727341764,"current_range_meters":24800,"station_id":"ce4bgpp2rcd13ifvqc3g","pricing_plan_id":"cebpf4jnsgd1na2vs0mg"},{"bike_id":"a42a4355-f441-42ee-ba49-846b018efed6","system_id":"levelo_inurba_marseille","lat":43.30466,"lon":5.37902,"is_reserved":false,"is_disabled":false,"rental_uris":{"android":"levelo://app?vid=a42a4355-f441-42ee-ba49-846b018efed6","ios":"levelo://app?vid=a42a4355-f441-42ee-ba49-846b018efed6"},"vehicle_type_id":"4","last_reported":1727341764,"current_range_meters":16000,"station_id":"ce4bgup2rcd13ifvqcn0","pricing_plan_id":"cebpf4jnsgd1na2vs0mg"},{"bike_id":"3b95d26e-f06e-49bf-b839-e0adcd439c46","system_id":"levelo_inurba_marseille","lat":43.23188,"lon":5.3999,"is_reserved":false,"is_disabled":false,"rental_uris":{"android":"levelo://app?vid=3b95d26e-f06e-49bf-b839-e0adcd439c46","ios":"levelo://app?vid=3b95d26e-f06e-49bf-b839-e0adcd439c46"},"vehicle_type_id":"4","last_reported":1727341764,"current_range_meters":38000,"station_id":"ce4bhn12rcd13ifvqgqg","pricing_plan_id":"cebpf4jnsgd1na2vs0mg"},{"bike_id":"7fbea70d-ce0f-4c4b-8487-6bd3d302654c","system_id":"levelo_inurba_marseille","lat":43.29004,"lon":5.35599,"is_reserved":false,"is_disabled":false,"rental_uris":{"android":"levelo://app?vid=7fbea70d-ce0f-4c4b-8487-6bd3d302654c","ios":"levelo://app?vid=7fbea70d-ce0f-4c4b-8487-6bd3d302654c"},"vehicle_type_id":"4","last_reported":1727341764,"current_range_meters":6400,"station_id":"ce4bhb92rcd13ifvqen0","pricing_plan_id":"cebpf4jnsgd1na2vs0mg"},{"bike_id":"7eb9ce67-a47c-4f95-9e57-af5e0f346d25","system_id":"levelo_inurba_marseille","lat":43.31356,"lon":5.36712,"is_reserved":false,"is_disabled":false,"rental_uris":{"android":"levelo://app?vid=7eb9ce67-a47c-4f95-9e57-af5e0f346d25","ios":"levelo://app?vid=7eb9ce67-a47c-4f95-9e57-af5e0f346d25"},"vehicle_type_id":"4","last_reported":1727341764,"current_range_meters":37600,"station_id":"ce4bgr92rcd13ifvqc6g","pricing_plan_id":"cebpf4jnsgd1na2vs0mg"},{"bike_id":"80d1d5df-61ca-4f88-bada-c65e746a68df","system_id":"levelo_inurba_marseille","lat":43.29841,"lon":5.3627,"is_reserved":false,"is_disabled":false,"rental_uris":{"android":"levelo://app?vid=80d1d5df-61ca-4f88-bada-c65e746a68df","ios":"levelo://app?vid=80d1d5df-61ca-4f88-bada-c65e746a68df"},"vehicle_type_id":"4","last_reported":1727341764,"current_range_meters":38800,"station_id":"ce4bgpp2rcd13ifvqc3g","pricing_plan_id":"cebpf4jnsgd1na2vs0mg"},{"bike_id":"7827170f-fe53-4f76-acc5-1f9d10e67145","system_id":"levelo_inurba_marseille","lat":43.22928,"lon":5.35377,"is_reserved":false,"is_disabled":false,"rental_uris":{"android":"levelo://app?vid=7827170f-fe53-4f76-acc5-1f9d10e67145","ios":"levelo://app?vid=7827170f-fe53-4f76-acc5-1f9d10e67145"},"vehicle_type_id":"4","last_reported":1727341764,"current_range_meters":34800,"station_id":"cpo3532slgdg3j2ikp40","pricing_plan_id":"cebpf4jnsgd1na2vs0mg"},{"bike_id":"89464f84-bf53-4274-83b9-26c2bf788c11","system_id":"levelo_inurba_marseille","lat":43.28709,"lon":5.37943,"is_reserved":false,"is_disabled":false,"rental_uris":{"android":"levelo://app?vid=89464f84-bf53-4274-83b9-26c2bf788c11","ios":"levelo://app?vid=89464f84-bf53-4274-83b9-26c2bf788c11"},"vehicle_type_id":"4","last_reported":1727341764,"current_range_meters":38000,"station_id":"ce4bh9p2rcd13ifvqec0","pricing_plan_id":"cebpf4jnsgd1na2vs0mg"},{"bike_id":"aca8d0ee-d8aa-4ab4-a81a-5ba8a117fb3c","system_id":"levelo_inurba_marseille","lat":43.28704,"lon":5.3998,"is_reserved":false,"is_disabled":false,"rental_uris":{"android":"levelo://app?vid=aca8d0ee-d8aa-4ab4-a81a-5ba8a117fb3c","ios":"levelo://app?vid=aca8d0ee-d8aa-4ab4-a81a-5ba8a117fb3c"},"vehicle_type_id":"4","last_reported":1727341764,"current_range_meters":23200,"station_id":"ce4bho92rcd13ifvqh3g","pricing_plan_id":"cebpf4jnsgd1na2vs0mg"},{"bike_id":"ebae3c15-7e7e-4b53-bbfe-281af6e0853b","system_id":"levelo_inurba_marseille","lat":43.27472,"lon":5.42455,"is_reserved":false,"is_disabled":false,"rental_uris":{"android":"levelo://app?vid=ebae3c15-7e7e-4b53-bbfe-281af6e0853b","ios":"levelo://app?vid=ebae3c15-7e7e-4b53-bbfe-281af6e0853b"},"vehicle_type_id":"4","last_reported":1727341764,"current_range_meters":36800,"station_id":"ce4bhn92rcd13ifvqgrg","pricing_plan_id":"cebpf4jnsgd1na2vs0mg"},