{"last_updated":1750162890,"ttl":60,"version":"2.2","data":{"bikes":[{"bike_id":"3da29fb8-fc97-44c6-b9ac-31dd456b2fd4","system_id":"levelo_inurba_marseille","lat":43.33771,"lon":5.37424,"is_reserved":false,"is_disabled":true,"rental_uris":{"android":"levelo://app?vid=3da29fb8-fc97-44c6-b9ac-31dd456b2fd4","ios":"levelo://app?vid=3da29fb8-fc97-44c6-b9ac-31dd456b2fd4"},"vehicle_type_id":"4","last_reported":1750162890,"current_range_meters":0,"station_id":"","pricing_plan_id":"cebpf4jnsgd1na2vs0mg"},{"bike_id":"01861ad8-a8d7-4be6-816e-651927c87584","system_id":"levelo_inurba_marseille","lat":43.33751,"lon":5.37456,"is_reserved":false,"is_disabled":true,"rental_uris":{"android":"levelo://app?vid=01861ad8-a8d7-4be6-816e-651927c87584","ios":"levelo://app?vid=01861ad8-a8d7-4be6-816e-651927c87584"},"vehicle_type_id":"4","last_reported":1750162890,"current_range_meters":0,"station_id":"","pricing_plan_id":"cebpf4jnsgd1na2vs0mg"},{"bike_id":"b81ba2bd-624d-43c3-b702-6c0cdad38ab2","system_id":"levelo_inurba_marseille","lat":43.31129,"lon":5.39346,"is_reserved":false,"is_disabled":true,"rental_uris":{"android":"levelo://app?vid=b81ba2bd-624d-43c3-b702-6c0cdad38ab2","ios":"levelo://app?vid=b81ba2bd-624d-43c3-b702-6c0cdad38ab2"},"vehicle_type_id":"4","last_reported":1750162890,"current_range_meters":0,"station_id":"","pricing_plan_id":"cebpf4jnsgd1na2vs0mg"},{"bike_id":"d2bd57c8-6b64-48db-ad24-5398eb3fd9d6","system_id":"levelo_inurba_marseille","lat":43.337444,"lon":5.374475,"is_reserved":false,"is_disabled":true,"rental_uris":{"android":"levelo://app?vid=d2bd57c8-6b64-48db-ad24-5398eb3fd9d6","ios":"levelo://app?vid=d2bd57c8-6b64-48db-ad24-5398eb3fd9d6"},"vehicle_type_id":"4","last_reported":1750162890,"current_range_meters":0,"station_id":"","pricing_plan_id":"cebpf4jnsgd1na2vs0mg"},{"bike_id":"62a493c7-4534-4419-ad43-0582de34a72a","system_id":"levelo_inurba_marseille","lat":43.21366,"lon":5.355183,"is_reserved":false,"is_disabled":true,"rental_uris":{"android":"levelo://app?vid=62a493c7-4534-4419-ad43-0582de34a72a","ios":"levelo://app?vid=62a493c7-4534-4419-ad43-0582de34a72a"},"vehicle_type_id":"4","last_reported":1750162890,"current_range_meters":0,"station_id":"","pricing_plan_id":"cebpf4jnsgd1na2vs0mg"},{"bike_id":"93af304b-67b5-47b8-a3fd-e0775f7cde8c","system_id":"levelo_inurba_marseille","lat":43.21545,"lon":5.34739,"is_reserved":false,"is_disabled":true,"rental_uris":{"android":"levelo://app?vid=93af304b-67b5-47b8-a3fd-e0775f7cde8c","ios":"levelo://app?vid=93af304b-67b5-47b8-a3fd-e0775f7cde8c"},"vehicle_type_id":"4","last_reported":1750162890,"current_range_meters":0,"station_id":"","pricing_plan_id":"cebpf4jnsgd1na2vs0mg"},{"bike_id":"d6609b4f-333b-43c1-9ebe-8726f5e76e88","system_id":"levelo_inurba_marseille","lat":43.337444,"lon":5.374475,"is_reserved":false,"is_disabled":true,"rental_uris":{"android":"levelo://app?vid=d6609b4f-333b-43c1-9ebe-8726f5e76e88","ios":"levelo://app?vid=d6609b4f-333b-43c1-9ebe-8726f5e76e88"},"vehicle_type_id":"4","last_reported":1750162890,"current_range_meters":0,"station_id":"","pricing_plan_id":"cebpf4jnsgd1na2vs0mg"},{"bike_id":"7c6fdbaa-49a0-4e5c-bca1-a07989fcd59f","system_id":"levelo_inurba_marseille","lat":43.31258,"lon":5.38632,"is_reserved":false,"is_disabled":true,"rental_uris":{"android":"levelo://app?vid=7c6fdbaa-49a0-4e5c-bca1-a07989fcd59f","ios":"levelo://app?vid=7c6fdbaa-49a0-4e5c-bca1-a07989fcd59f"},"vehicle_type_id":"4","last_reported":1750162890,"current_range_meters":0,"station_id":"","pricing_plan_id":"cebpf4jnsgd1na2vs0mg"},{"bike_id":"04276415-42b1-4736-aa9f-2d33227b99de","system_id":"levelo_inurba_marseille","lat":43.3093,"lon":5.40137,"is_reserved":false,"is_disabled":true,"rental_uris":{"android":"levelo://app?vid=04276415-42b1-4736-aa9f-2d33227b99de","ios":"levelo://app?vid=04276415-42b1-4736-aa9f-2d33227b99de"},"vehicle_type_id":"4","last_reported":1750162890,"current_range_meters":0,"station_id":"ce4bgvp2rcd13ifvqct0","pricing_plan_id":"cebpf4jnsgd1na2vs0mg"},{"bike_id":"f7dec2a8-51b8-49a3-bfda-a71d010f6796","system_id":"levelo_inurba_marseille","lat":43.29032,"lon":5.38646,"is_reserved":false,"is_disabled":true,"rental_uris":{"android":"levelo://app?vid=f7dec2a8-51b8-49a3-bfda-a71d010f6796","ios":"levelo://app?vid=f7dec2a8-51b8-49a3-bfda-a71d010f6796"},"vehicle_type_id":"4","last_reported":1750162890,"current_range_meters":0,"station_id":"ce4bh4p2rcd13ifvqe0g","pricing_plan_id":"cebpf4jnsgd1na2vs0mg"},{"bike_id":"970dcbf2-acc2-45f3-82ff-5a4f5aea8e7a","system_id":"levelo_inurba_marseille","lat":43.24666,"lon":5.38163,"is_reserved":false,"is_disabled":true,"rental_uris":{"android":"levelo://app?vid=970dcbf2-acc2-45f3-82ff-5a4f5aea8e7a","ios":"levelo://app?vid=970dcbf2-acc2-45f3-82ff-5a4f5aea8e7a"},"vehicle_type_id":"4","last_reported":1750162890,"current_range_meters":0,"station_id":"ce4bhih2rcd13ifvqfr0","pricing_plan_id":"cebpf4jnsgd1na2vs0mg"},{"bike_id":"f62f9e46-b331-474b-b699-ef69b5516897","system_id":"levelo_inurba_marseille","lat":43.27076,"lon":5.42275,"is_reserved":false,"is_disabled":true,"rental_uris":{"android":"levelo://app?vid=f62f9e46-b331-474b-b699-ef69b5516897","ios":"levelo://app?vid=f62f9e46-b331-474b-b699-ef69b5516897"},"vehicle_type_id":"4","last_reported":1750162890,"current_range_meters":0,"station_id":"ce4bhk92rcd13ifvqgb0","pricing_plan_id":"cebpf4jnsgd1na2vs0mg"},{"bike_id":"75dad30d-a80e-463a-b94f-58c375560c1f","system_id":"levelo_inurba_marseille","lat":43.24071,"lon":5.37752,"is_reserved":false,"is_disabled":true,"rental_uris":{"android":"levelo://app?vid=75dad30d-a80e-463a-b94f-58c375560c1f","ios":"levelo://app?vid=75dad30d-a80e-463a-b94f-58c375560c1f"},"vehicle_type_id":"4","last_reported":1750162890,"current_range_meters":0,"station_id":"ce4bhnp2rcd13ifvqgvg","pricing_plan_id":"cebpf4jnsgd1na2vs0mg"},{"bike_id":"469631ef-be20-44e0-9976-d6f151b4db94","system_id":"levelo_inurba_marseille","lat":43.29295,"lon":5.37458,"is_reserved":false,"is_disabled":true,"rental_uris":{"android":"levelo://app?vid=469631ef-be20-44e0-9976-d6f151b4db94","ios":"levelo://app?vid=469631ef-be20-44e0-9976-d6f151b4db94"},"vehicle_type_id":"4","last_reported":1750162890,"current_range_meters":400,"station_id":"ce4bgi12rcd13ifvqb70","pricing_plan_id":"cebpf4jnsgd1na2vs0mg"},{"bike_id":"16ff64da-77bb-4f5a-9681-d4bb414fe829","system_id":"levelo_inurba_marseille","lat":43.23151,"lon":5.43719,"is_reserved":false,"is_disabled":true,"rental_uris":{"android":"levelo://app?vid=16ff64da-77bb-4f5a-9681-d4bb414fe829","ios":"levelo://app?vid=16ff64da-77bb-4f5a-9681-d4bb414fe829"},"vehicle_type_id":"4","last_reported":1750162890,"current_range_meters":400,"station_id":"ce4bhmp2rcd13ifvqgog","pricing_plan_id":"cebpf4jnsgd1na2vs0mg"},{"bike_id":"aac0fc11-191e-42ff-91e6-143cca72b34b","system_id":"levelo_inurba_marseille","lat":43.23189,"lon":5.35571,"is_reserved":false,"is_disabled":true,"rental_uris":{"android":"levelo://app?vid=aac0fc11-191e-42ff-91e6-143cca72b34b","ios":"levelo://app?vid=aac0fc11-191e-42ff-91e6-143cca72b34b"},"vehicle_type_id":"4","last_reported":1750162890,"current_range_meters":400,"station_id":"ce4bhu92rcd13ifvqi70","pricing_plan_id":"cebpf4jnsgd1na2vs0mg"},{"bike_id":"dbfce7a3-3423-4296-b193-a177dea644ac","system_id":"levelo_inurba_marseille","lat":43.27279,"lon":5.41613,"is_reserved":false,"is_disabled":true,"rental_uris":{"android":"levelo://app?vid=dbfce7a3-3423-4296-b193-a177dea644ac","ios":"levelo://app?vid=dbfce7a3-3423-4296-b193-a177dea644ac"},"vehicle_type_id":"4","last_reported":1750162890,"current_range_meters":800,"station_id":"","pricing_plan_id":"cebpf4jnsgd1na2vs0mg"},{"bike_id":"609f5f74-25c8-4106-b760-1e56a25a88ee","system_id":"levelo_inurba_marseille","lat":43.30259,"lon":5.40097,"is_reserved":false,"is_disabled":true,"rental_uris":{"android":"levelo://app?vid=609f5f74-25c8-4106-b760-1e56a25a88ee","ios":"levelo://app?vid=609f5f74-25c8-4106-b760-1e56a25a88ee"},"vehicle_type_id":"4","last_reported":1750162890,"current_range_meters":800,"station_id":"ce4bgvh2rcd13ifvqcs0","pricing_plan_id":"cebpf4jnsgd1na2vs0mg"},{"bike_id":"ba9580b9-96f1-4248-bb28-981845da1fe4","system_id":"levelo_inurba_marseille","lat":43.28419,"lon":5.37549,"is_reserved":false,"is_disabled":true,"rental_uris":{"android":"levelo://app?vid=ba9580b9-96f1-4248-bb28-981845da1fe4","ios":"levelo://app?vid=ba9580b9-96f1-4248-bb28-981845da1fe4"},"vehicle_type_id":"4","last_reported":1750162890,"current_range_meters":800,"station_id":"ce4bh412rcd13ifvqds0","pricing_plan_id":"cebpf4jnsgd1na2vs0mg"},{"bike_id":"6d3cd767-d2a3-45cd-9394-19d39262360d","system_id":"levelo_inurba_marseille","lat":43.25105,"lon":5.40323,"is_reserved":false,"is_disabled":true,"rental_uris":{"android":"levelo://app?vid=6d3cd767-d2a3-45cd-9394-19d39262360d","ios":"levelo://app?vid=6d3cd767-d2a3-45cd-9394-19d39262360d"},"vehicle_type_id":"4","last_reported":1750162890,"current_range_meters":800,"station_id":"ce4bhlh2rcd13ifvqgig","pricing_plan_id":"cebpf4jnsgd1na2vs0mg"},{"bike_id":"f16a5698-ddc2-4e59-97f5-5526424b5a60","system_id":"levelo_inurba_marseille","lat":43.211876,"lon":5.350741,"is_reserved":false,"is_disabled":true,"rental_uris":{"android":"levelo://app?vid=f16a5698-ddc2-4e59-97f5-5526424b5a60","ios":"levelo://app?vid=f16a5698-ddc2-4e59-97f5-5526424b5a60"},"vehicle_type_id":"4","last_reported":1750162890,"current_range_meters":800,"station_id":"st_cvj6sg6p6f1abm77japg","pricing_plan_id":"cebpf4jnsgd1na2vs0mg"},{"bike_id":"8d83ddbb-e2fa-411f-bd7d-7d8d0c132d3c","system_id":"levelo_inurba_marseille","lat":43.28485,"lon":5.38427,"is_reserved":false,"is_disabled":true,"rental_uris":{"android":"levelo://app?vid=8d83ddbb-e2fa-411f-bd7d-7d8d0c132d3c","ios":"levelo://app?vid=8d83ddbb-e2fa-411f-bd7d-7d8d0c132d3c"},"vehicle_type_id":"4","last_reported":1750162890,"current_range_meters":1200,"station_id":"ce4bh512rcd13ifvqe3g","pricing_plan_id":"cebpf4jnsgd1na2vs0mg"},{"bike_id":"2561b5be-5324-47ea-9b68-bc83800f2407","system_id":"levelo_inurba_marseille","lat":43.23165,"lon":5.43716,"is_reserved":false,"is_disabled":true,"rental_uris":{"android":"levelo://app?vid=2561b5be-5324-47ea-9b68-bc83800f2407","ios":"levelo://app?vid=2561b5be-5324-47ea-9b68-bc83800f2407"},"vehicle_type_id":"4","last_reported":1750162890,"current_range_meters":1200,"station_id":"ce4bhmp2rcd13ifvqgog","pricing_plan_id":"cebpf4jnsgd1na2vs0mg"},{"bike_id":"a504485c-f568-4403-a49f-5d7459986974","system_id":"levelo_inurba_marseille","lat":43.32306,"lon":5.38307,"is_reserved":false,"is_disabled":true,"rental_uris":{"android":"levelo://app?vid=a504485c-f568-4403-a49f-5d7459986974","ios":"levelo://app?vid=a504485c-f568-4403-a49f-5d7459986974"},"vehicle_type_id":"4","last_reported":1750162890,"current_range_meters":1200,"station_id":"ce4bhr12rcd13ifvqhqg","pricing_plan_id":"cebpf4jnsgd1na2vs0mg"},{"bike_id":"5797a32f-7a91-4579-a5a2-b10721bc2dc8","system_id":"levelo_inurba_marseille","lat":43.30948,"lon":5.39032,"is_reserved":false,"is_disabled":true,"rental_uris":{"android":"levelo://app?vid=5797a32f-7a91-4579-a5a2-b10721bc2dc8","ios":"levelo://app?vid=5797a32f-7a91-4579-a5a2-b10721bc2dc8"},"vehicle_type_id":"4","last_reported":1750162890,"current_range_meters":1600,"station_id":"ce4bgup2rcd13ifvqco0","pricing_plan_id":"cebpf4jnsgd1na2vs0mg"},{"bike_id":"b0b364bf-8f8c-4437-af01-66a4e4f44fcc","system_id":"levelo_inurba_marseille","lat":43.23962,"lon":5.36629,"is_reserved":false,"is_disabled":true,"rental_uris":{"android":"levelo://app?vid=b0b364bf-8f8c-4437-af01-66a4e4f44fcc","ios":"levelo://app?vid=b0b364bf-8f8c-4437-af01-66a4e4f44fcc"},"vehicle_type_id":"4","last_reported":1750162890,"current_range_meters":1600,"station_id":"ce4bhi12rcd13ifvqfp0","pricing_plan_id":"cebpf4jnsgd1na2vs0mg"},{"bike_id":"b9e37238-9abe-4b8b-b932-edaee33a7e59","system_id":"levelo_inurba_marseille","lat":43.27462,"lon":5.38981,"is_reserved":false,"is_disabled":true,"rental_uris":{"android":"levelo://app?vid=b9e37238-9abe-4b8b-b932-edaee33a7e59","ios":"levelo://app?vid=b9e37238-9abe-4b8b-b932-edaee33a7e59"},"vehicle_type_id":"4","last_reported":1750162890,"current_range_meters":2000,"station_id":"","pricing_plan_id":"cebpf4jnsgd1na2vs0mg"},{"bike_id":"e4921755-ae47-4644-8267-548fec4a566e","system_id":"levelo_inurba_marseille","lat":43.28569,"lon":5.395,"is_reserved":false,"is_disabled":true,"rental_uris":{"android":"levelo://app?vid=e4921755-ae47-4644-8267-548fec4a566e","ios":"levelo://app?vid=e4921755-ae47-4644-8267-548fec4a566e"},"vehicle_type_id":"4","last_reported":1750162890,"current_range_meters":2000,"station_id":"ce4bh292rcd13ifvqdg0","pricing_plan_id":"cebpf4jnsgd1na2vs0mg"},{"bike_id":"de5395cc-661d-443c-bbf6-2ac65c84f359","system_id":"levelo_inurba_marseille","lat":43.26212,"lon":5.37443,"is_reserved":false,"is_disabled":true,"rental_uris":{"android":"levelo://app?vid=de5395cc-661d-443c-bbf6-2ac65c84f359","ios":"levelo://app?vid=de5395cc-661d-443c-bbf6-2ac65c84f359"},"vehicle_type_id":"4","last_reported":1750162890,"current_range_meters":2000,"station_id":"ce4bhgp2rcd13ifvqfc0","pricing_plan_id":"cebpf4jnsgd1na2vs0mg"},{"bike_id":"abb0f54b-b297-4d00-941b-57056436fb21","system_id":"levelo_inurba_marseille","lat":43.26188,"lon":5.37457,"is_reserved":false,"is_disabled":true,"rental_uris":{"android":"levelo://app?vid=abb0f54b-b297-4d00-941b-57056436fb21","ios":"levelo://app?vid=abb0f54b-b297-4d00-941b-57056436fb21"},"vehicle_type_id":"4","last_reported":1750162890,"current_range_meters":2000,"station_id":"ce4bhgp2rcd13ifvqfc0","pricing_plan_id":"cebpf4jnsgd1na2vs0mg"},{"bike_id":"10ca7bc5-a7f4-436e-9430-dcb60c0fbc70","system_id":"levelo_inurba_marseille","lat":43.295163,"lon":5.393946,"is_reserved":false,"is_disabled":false,"rental_uris":{"android":"levelo://app?vid=10ca7bc5-a7f4-436e-9430-dcb60c0fbc70","ios":"levelo://app?vid=10ca7bc5-a7f4-436e-9430-dcb60c0fbc70"},"vehicle_type_id":"4","last_reported":1750162890,"current_range_meters":2800,"station_id":"ce4bh292rcd13ifvqdf0","pricing_plan_id":"cebpf4jnsgd1na2vs0mg"},{"bike_id":"37685d7c-2700-4146-adc9-257d10f34b81","system_id":"levelo_inurba_marseille","lat":43.24073,"lon":5.377647,"is_reserved":false,"is_disabled":false,"rental_uris":{"android":"levelo://app?vid=37685d7c-2700-4146-adc9-257d10f34b81","ios":"levelo://app?vid=37685d7c-2700-4146-adc9-257d10f34b81"},"vehicle_type_id":"4","last_reported":1750162890,"current_range_meters":2800,"station_id":"ce4bhnp2rcd13ifvqgvg","pricing_plan_id":"cebpf4jnsgd1na2vs0mg"},{"bike_id":"00add97f-b019-47c3-a9f2-027dcb140f01","system_id":"levelo_inurba_marseille","lat":43.34146,"lon":5.40902,"is_reserved":false,"is_disabled":false,"rental_uris":{"android":"levelo://app?vid=00add97f-b019-47c3-a9f2-027dcb140f01","ios":"levelo://app?vid=00add97f-b019-47c3-a9f2-027dcb140f01"},"vehicle_type_id":"4","last_reported":1750162890,"current_range_meters":3200,"station_id":"ce4bhqh2rcd13ifvqhlg","pricing_plan_id":"cebpf4jnsgd1na2vs0mg"},{"bike_id":"8d297b38-f666-4a46-9dee-0132f800019c","system_id":"levelo_inurba_marseille","lat":43.32208,"lon":5.38647,"is_reserved":false,"is_disabled":false,"rental_uris":{"android":"levelo://app?vid=8d297b38-f666-4a46-9dee-0132f800019c","ios":"levelo://app?vid=8d297b38-f666-4a46-9dee-0132f800019c"},"vehicle_type_id":"4","last_reported":1750162890,"current_range_meters":3600,"station_id":"","pricing_plan_id":"cebpf4jnsgd1na2vs0mg"},{"bike_id":"03790488-f957-48bc-b06a-589c8ccd9d7e","system_id":"levelo_inurba_marseille","lat":43.29569,"lon":5.39972,"is_reserved":false,"is_disabled":false,"rental_uris":{"android":"levelo://app?vid=03790488-f957-48bc-b06a-589c8ccd9d7e","ios":"levelo://app?vid=03790488-f957-48bc-b06a-589c8ccd9d7e"},"vehicle_type_id":"4","last_reported":1750162890,"current_range_meters":3600,"station_id":"ce4bh312rcd13ifvqdj0","pricing_plan_id":"cebpf4jnsgd1na2vs0mg"},{"bike_id":"057b9133-e1b1-4088-9367-faa813b66fec","system_id":"levelo_inurba_marseille","lat":43.28669,"lon":5.38658,"is_reserved":false,"is_disabled":false,"rental_uris":{"android":"levelo://app?vid=057b9133-e1b1-4088-9367-faa813b66fec","ios":"levelo://app?vid=057b9133-e1b1-4088-9367-faa813b66fec"},"vehicle_type_id":"4","last_reported":1750162890,"current_range_meters":3600,"station_id":"ce4bh492rcd13ifvqdug","pricing_plan_id":"cebpf4jnsgd1na2vs0mg"},{"bike_id":"d3da679b-f853-4f26-84fc-fac9426959df","system_id":"levelo_inurba_marseille","lat":43.30466,"lon":5.37904,"is_reserved":false,"is_disabled":false,"rental_uris":{"android":"levelo://app?vid=d3da679b-f853-4f26-84fc-fac9426959df","ios":"levelo://app?vid=d3da679b-f853-4f26-84fc-fac9426959df"},"vehicle_type_id":"4","last_reported":1750162890,"current_range_meters":4000,"station_id":"ce4bgup2rcd13ifvqcn0","pricing_plan_id":"cebpf4jnsgd1na2vs0mg"},{"bike_id":"08f15c4e-61f1-4b44-a9b1-0bf8251a4a02","system_id":"levelo_inurba_marseille","lat":43.24079,"lon":5.37756,"is_reserved":false,"is_disabled":false,"rental_uris":{"android":"levelo://app?vid=08f15c4e-61f1-4b44-a9b1-0bf8251a4a02","ios":"levelo://app?vid=08f15c4e-61f1-4b44-a9b1-0bf8251a4a02"},"vehicle_type_id":"4","last_reported":1750162890,"current_range_meters":4000,"station_id":"ce4bhnp2rcd13ifvqgvg","pricing_plan_id":"cebpf4jnsgd1na2vs0mg"},{"bike_id":"38092509-c7c3-4745-889a-24b0a8904943","system_id":"levelo_inurba_marseille","lat":43.28418,"lon":5.34973,"is_reserved":false,"is_disabled":false,"rental_uris":{"android":"levelo://app?vid=38092509-c7c3-4745-889a-24b0a8904943","ios":"levelo://app?vid=38092509-c7c3-4745-889a-24b0a8904943"},"vehicle_type_id":"4","last_reported":1750162890,"current_range_meters":4400,"station_id":"ce4bhbh2rcd13ifvqepg","pricing_plan_id":"cebpf4jnsgd1na2vs0mg"},{"bike_id":"1a463d5b-88a1-42ab-a337-d8c627a0d36f","system_id":"levelo_inurba_marseille","lat":43.275522,"lon":5.384303,"is_reserved":false,"is_disabled":false,"rental_uris":{"android":"levelo://app?vid=1a463d5b-88a1-42ab-a337-d8c627a0d36f","ios":"levelo://app?vid=1a463d5b-88a1-42ab-a337-d8c627a0d36f"},"vehicle_type_id":"4","last_reported":1750162890,"current_range_meters":4400,"station_id":"ce4bhh92rcd13ifvqfi0","pricing_plan_id":"cebpf4jnsgd1na2vs0mg"},{"bike_id":"69af7404-5ec1-4810-9e8f-2b24aa559381","system_id":"levelo_inurba_marseille","lat":43.29346,"lon":5.38384,"is_reserved":false,"is_disabled":false,"rental_uris":{"android":"levelo://app?vid=69af7404-5ec1-4810-9e8f-2b24aa559381","ios":"levelo://app?vid=69af7404-5ec1-4810-9e8f-2b24aa559381"},"vehicle_type_id":"4","last_reported":1750162890,"current_range_meters":4800,"station_id":"","pricing_plan_id":"cebpf4jnsgd1na2vs0mg"},{"bike_id":"ba527b9c-acdd-4831-a5ea-42c971aa0888","system_id":"levelo_inurba_marseille","lat":43.26041,"lon":5.37575,"is_reserved":false,"is_disabled":false,"rental_uris":{"android":"levelo://app?vid=ba527b9c-acdd-4831-a5ea-42c971aa0888","ios":"levelo://app?vid=ba527b9c-acdd-4831-a5ea-42c971aa0888"},"vehicle_type_id":"4","last_reported":1750162890,"current_range_meters":4800,"station_id":"ce4bhgh2rcd13ifvqfa0","pricing_plan_id":"cebpf4jnsgd1na2vs0mg"},{"bike_id":"9a4ae33e-ff8d-42ab-87d3-75b84d046739","system_id":"levelo_inurba_marseille","lat":43.26501,"lon":5.39543,"is_reserved":false,"is_disabled":false,"rental_uris":{"android":"levelo://app?vid=9a4ae33e-ff8d-42ab-87d3-75b84d046739","ios":"levelo://app?vid=9a4ae33e-ff8d-42ab-87d3-75b84d046739"},"vehicle_type_id":"4","last_reported":1750162890,"current_range_meters":4800,"station_id":"ce4bhi12rcd13ifvqfq0","pricing_plan_id":"cebpf4jnsgd1na2vs0mg"},{"bike_id":"7f8a3718-92f3-4d8f-b137-2b70ada08f1e","system_id":"levelo_inurba_marseille","lat":43.34148,"lon":5.40899,"is_reserved":false,"is_disabled":false,"rental_uris":{"android":"levelo://app?vid=7f8a3718-92f3-4d8f-b137-2b70ada08f1e","ios":"levelo://app?vid=7f8a3718-92f3-4d8f-b137-2b70ada08f1e"},"vehicle_type_id":"4","last_reported":1750162890,"current_range_meters":4800,"station_id":"ce4bhqh2rcd13ifvqhlg","pricing_plan_id":"cebpf4jnsgd1na2vs0mg"},{"bike_id":"7b60ab4e-8780-4fbb-b5f1-5ef288a37cbd","system_id":"levelo_inurba_marseille","lat":43.273723,"lon":5.362573,"is_reserved":false,"is_disabled":false,"rental_uris":{"android":"levelo://app?vid=7b60ab4e-8780-4fbb-b5f1-5ef288a37cbd","ios":"levelo://app?vid=7b60ab4e-8780-4fbb-b5f1-5ef288a37cbd"},"vehicle_type_id":"4","last_reported":1750162890,"current_range_meters":5600,"station_id":"ce4bhbh2rcd13ifvqeo0","pricing_plan_id":"cebpf4jnsgd1na2vs0mg"},{"bike_id":"23899892-5d16-4764-996a-6916578bae04","system_id":"levelo_inurba_marseille","lat":43.27313,"lon":5.39071,"is_reserved":false,"is_disabled":false,"rental_uris":{"android":"levelo://app?vid=23899892-5d16-4764-996a-6916578bae04","ios":"levelo://app?vid=23899892-5d16-4764-996a-6916578bae04"},"vehicle_type_id":"4","last_reported":1750162890,"current_range_meters":5600,"station_id":"ce4bhgp2rcd13ifvqfe0","pricing_plan_id":"cebpf4jnsgd1na2vs0mg"},{"bike_id":"59791e4b-9175-49e1-a95d-0c8e19736bad","system_id":"levelo_inurba_marseille","lat":43.23197,"lon":5.35551,"is_reserved":false,"is_disabled":false,"rental_uris":{"android":"levelo://app?vid=59791e4b-9175-49e1-a95d-0c8e19736bad","ios":"levelo://app?vid=59791e4b-9175-49e1-a95d-0c8e19736bad"},"vehicle_type_id":"4","last_reported":1750162890,"current_range_meters":5600,"station_id":"ce4bhu92rcd13ifvqi70","pricing_plan_id":"cebpf4jnsgd1na2vs0mg"},{"bike_id":"dcb87a9a-18f8-41c6-9134-949f31e21b42","system_id":"levelo_inurba_marseille","lat":43.26995,"lon":5.39979,"is_reserved":false,"is_disabled":false,"rental_uris":{"android":"levelo://app?vid=dcb87a9a-18f8-41c6-9134-949f31e21b42","ios":"levelo://app?vid=dcb87a9a-18f8-41c6-9134-949f31e21b42"},"vehicle_type_id":"4","last_reported":1750162890,"current_range_meters":6000,"station_id":"","pricing_plan_id":"cebpf4jnsgd1na2vs0mg"},{"bike_id":"497f2d61-6a6c-4965-b1d9-07a62e73fb36","system_id":"levelo_inurba_marseille","lat":43.26217,"lon":5.37438,"is_reserved":false,"is_disabled":false,"rental_uris":{"android":"levelo://app?vid=497f2d61-6a6c-4965-b1d9-07a62e73fb36","ios":"levelo://app?vid=497f2d61-6a6c-4965-b1d9-07a62e73fb36"},"vehicle_type_id":"4","last_reported":1750162890,"current_range_meters":6000,"station_id":"ce4bhgp2rcd13ifvqfc0","pricing_plan_id":"cebpf4jnsgd1na2vs0mg"},{"bike_id":"c03c3b97-f680-4f6a-a7cf-8f8918b04de7","system_id":"levelo_inurba_marseille","lat":43.31074,"lon":5.38366,"is_reserved":false,"is_disabled":false,"rental_uris":{"android":"levelo://app?vid=c03c3b97-f680-4f6a-a7cf-8f8918b04de7","ios":"levelo://app?vid=c03c3b97-f680-4f6a-a7cf-8f8918b04de7"},"vehicle_type_id":"4","last_reported":1750162890,"current_range_meters":6400,"station_id":"ce4bgv92rcd13ifvqcr0","pricing_plan_id":"cebpf4jnsgd1na2vs0mg"},{"bike_id":"ad515d13-b86a-447b-9afc-2f5f23d22a3b","system_id":"levelo_inurba_marseille","lat":43.28573,"lon":5.39494,"is_reserved":false,"is_disabled":false,"rental_uris":{"android":"levelo://app?vid=ad515d13-b86a-447b-9afc-2f5f23d22a3b","ios":"levelo://app?vid=ad515d13-b86a-447b-9afc-2f5f23d22a3b"},"vehicle_type_id":"4","last_reported":1750162890,"current_range_meters":6400,"station_id":"ce4bh292rcd13ifvqdg0","pricing_plan_id":"cebpf4jnsgd1na2vs0mg"},{"bike_id":"f625322a-1365-46b1-a897-85012c0358fa","system_id":"levelo_inurba_marseille","lat":43.29016,"lon":5.38641,"is_reserved":false,"is_disabled":false,"rental_uris":{"android":"levelo://app?vid=f625322a-1365-46b1-a897-85012c0358fa","ios":"levelo://app?vid=f625322a-1365-46b1-a897-85012c0358fa"},"vehicle_type_id":"4","last_reported":1750162890,"current_range_meters":6400,"station_id":"ce4bh4p2rcd13ifvqe0g","pricing_plan_id":"cebpf4jnsgd1na2vs0mg"},{"bike_id":"8afe0aa6-6c0a-4c74-93ea-999bee69ea49","system_id":"levelo_inurba_marseille","lat":43.29008,"lon":5.35609,"is_reserved":false,"is_disabled":false,"rental_uris":{"android":"levelo://app?vid=8afe0aa6-6c0a-4c74-93ea-999bee69ea49","ios":"levelo://app?vid=8afe0aa6-6c0a-4c74-93ea-999bee69ea49"},"vehicle_type_id":"4","last_reported":1750162890,"current_range_meters":6400,"station_id":"ce4bhb92rcd13ifvqen0","pricing_plan_id":"cebpf4jnsgd1na2vs0mg"},{"bike_id":"865ef206-3fa1-4f06-aade-230077662c7e","system_id":"levelo_inurba_marseille","lat":43.33039,"lon":5.39019,"is_reserved":false,"is_disabled":false,"rental_uris":{"android":"levelo://app?vid=865ef206-3fa1-4f06-aade-230077662c7e","ios":"levelo://app?vid=865ef206-3fa1-4f06-aade-230077662c7e"},"vehicle_type_id":"4","last_reported":1750162890,"current_range_meters":6400,"station_id":"ce4bhr92rcd13ifvqhrg","pricing_plan_id":"cebpf4jnsgd1na2vs0mg"},{"bike_id":"f43f2d4b-7022-47e7-9d02-0f666a989515","system_id":"levelo_inurba_marseille","lat":43.23198,"lon":5.35546,"is_reserved":false,"is_disabled":false,"rental_uris":{"android":"levelo://app?vid=f43f2d4b-7022-47e7-9d02-0f666a989515","ios":"levelo://app?vid=f43f2d4b-7022-47e7-9d02-0f666a989515"},"vehicle_type_id":"4","last_reported":1750162890,"current_range_meters":6400,"station_id":"ce4bhu92rcd13ifvqi70","pricing_plan_id":"cebpf4jnsgd1na2vs0mg"},{"bike_id":"3042c9e5-c5a5-4a11-94d1-8e536b5e25f7","system_id":"levelo_inurba_marseille","lat":43.21189,"lon":5.35046,"is_reserved":false,"is_disabled":false,"rental_uris":{"android":"levelo://app?vid=3042c9e5-c5a5-4a11-94d1-8e536b5e25f7","ios":"levelo://app?vid=3042c9e5-c5a5-4a11-94d1-8e536b5e25f7"},"vehicle_type_id":"4","last_reported":1750162890,"current_range_meters":6400,"station_id":"st_cvj6sg6p6f1abm77japg","pricing_plan_id":"cebpf4jnsgd1na2vs0mg"},{"bike_id":"b94ad41f-3cd1-4a81-9863-922080040a44","system_id":"levelo_inurba_marseille","lat":43.22505,"lon":5.34785,"is_reserved":false,"is_disabled":false,"rental_uris":{"android":"levelo://app?vid=b94ad41f-3cd1-4a81-9863-922080040a44","ios":"levelo://app?vid=b94ad41f-3cd1-4a81-9863-922080040a44"},"vehicle_type_id":"4","last_reported":1750162890,"current_range_meters":6800,"station_id":"","pricing_plan_id":"cebpf4jnsgd1na2vs0mg"},{"bike_id":"36014139-0991-4f4b-8d6d-7e8949373f5c","system_id":"levelo_inurba_marseille","lat":43.26786,"lon":5.39417,"is_reserved":false,"is_disabled":false,"rental_uris":{"android":"levelo://app?vid=36014139-0991-4f4b-8d6d-7e8949373f5c","ios":"levelo://app?vid=36014139-0991-4f4b-8d6d-7e8949373f5c"},"vehicle_type_id":"4","last_reported":1750162890,"current_range_meters":6800,"station_id":"ce4bhh12rcd13ifvqfg0","pricing_plan_id":"cebpf4jnsgd1na2vs0mg"},{"bike_id":"0a474896-69b7-491d-9f6b-77bba385e529","system_id":"levelo_inurba_marseille","lat":43.26061,"lon":5.39399,"is_reserved":false,"is_disabled":false,"rental_uris":{"android":"levelo://app?vid=0a474896-69b7-491d-9f6b-77bba385e529","ios":"levelo://app?vid=0a474896-69b7-491d-9f6b-77bba385e529"},"vehicle_type_id":"4","last_reported":1750162890,"current_range_meters":7200,"station_id":"ce4bhh92rcd13ifvqfj0","pricing_plan_id":"cebpf4jnsgd1na2vs0mg"},{"bike_id":"b519ae5b-0b89-4515-8c33-7df77434803f","system_id":"levelo_inurba_marseille","lat":43.2315,"lon":5.4371,"is_reserved":false,"is_disabled":false,"rental_uris":{"android":"levelo://app?vid=b519ae5b-0b89-4515-8c33-7df77434803f","ios":"levelo://app?vid=b519ae5b-0b89-4515-8c33-7df77434803f"},"vehicle_type_id":"4","last_reported":1750162890,"current_range_meters":7200,"station_id":"ce4bhmp2rcd13ifvqgog","pricing_plan_id":"cebpf4jnsgd1na2vs0mg"},{"bike_id":"097091b7-2102-4ed1-8f68-6fcdd0bd2cff","system_id":"levelo_inurba_marseille","lat":43.29635,"lon":5.37734,"is_reserved":false,"is_disabled":false,"rental_uris":{"android":"levelo://app?vid=097091b7-2102-4ed1-8f68-6fcdd0bd2cff","ios":"levelo://app?vid=097091b7-2102-4ed1-8f68-6fcdd0bd2cff"},"vehicle_type_id":"4","last_reported":1750162890,"current_range_meters":8000,"station_id":"ce4bgi92rcd13ifvqb90","pricing_plan_id":"cebpf4jnsgd1na2vs0mg"},{"bike_id":"cfc82a10-8d52-42f6-94f0-8ed715236c6e","system_id":"levelo_inurba_marseille","lat":43.30979,"lon":5.39071,"is_reserved":false,"is_disabled":false,"rental_uris":{"android":"levelo://app?vid=cfc82a10-8d52-42f6-94f0-8ed715236c6e","ios":"levelo://app?vid=cfc82a10-8d52-42f6-94f0-8ed715236c6e"},"vehicle_type_id":"4","last_reported":1750162890,"current_range_meters":8000,"station_id":"ce4bgup2rcd13ifvqco0","pricing_plan_id":"cebpf4jnsgd1na2vs0mg"},{"bike_id":"a16a08dd-7a2d-4e6d-b7b0-8682eac15dcd","system_id":"levelo_inurba_marseille","lat":43.28347,"lon":5.38102,"is_reserved":false,"is_disabled":false,"rental_uris":{"android":"levelo://app?vid=a16a08dd-7a2d-4e6d-b7b0-8682eac15dcd","ios":"levelo://app?vid=a16a08dd-7a2d-4e6d-b7b0-8682eac15dcd"},"vehicle_type_id":"4","last_reported":1750162890,"current_range_meters":8000,"station_id":"ce4bh412rcd13ifvqdr0","pricing_plan_id":"cebpf4jnsgd1na2vs0mg"},{"bike_id":"6afc644c-08c3-42de-8619-3f94e2ba41cd","system_id":"levelo_inurba_marseille","lat":43.29901,"lon":5.43668,"is_reserved":false,"is_disabled":false,"rental_uris":{"android":"levelo://app?vid=6afc644c-08c3-42de-8619-3f94e2ba41cd","ios":"levelo://app?vid=6afc644c-08c3-42de-8619-3f94e2ba41cd"},"vehicle_type_id":"4","last_reported":1750162890,"current_range_meters":8000,"station_id":"ce4bhpp2rcd13ifvqhfg","pricing_plan_id":"cebpf4jnsgd1na2vs0mg"},{"bike_id":"361c0171-8979-4b22-8ef4-b88b100820ef","system_id":"levelo_inurba_marseille","lat":43.26206,"lon":5.37448,"is_reserved":false,"is_disabled":false,"rental_uris":{"android":"levelo://app?vid=361c0171-8979-4b22-8ef4-b88b100820ef","ios":"levelo://app?vid=361c0171-8979-4b22-8ef4-b88b100820ef"},"vehicle_type_id":"4","last_reported":1750162890,"current_range_meters":8400,"station_id":"ce4bhgp2rcd13ifvqfc0","pricing_plan_id":"cebpf4jnsgd1na2vs0mg"},{"bike_id":"3b507939-f917-4297-93c8-36d22918eb2a","system_id":"levelo_inurba_marseille","lat":43.27209,"lon":5.39181,"is_reserved":false,"is_disabled":false,"rental_uris":{"android":"levelo://app?vid=3b507939-f917-4297-93c8-36d22918eb2a","ios":"levelo://app?vid=3b507939-f917-4297-93c8-36d22918eb2a"},"vehicle_type_id":"4","last_reported":1750162890,"current_range_meters":8400,"station_id":"ce4bhhp2rcd13ifvqfm0","pricing_plan_id":"cebpf4jnsgd1na2vs0mg"},{"bike_id":"c5f2f299-7e0f-4ea2-abcd-aaa65ae3837f","system_id":"levelo_inurba_marseille","lat":43.30423,"lon":5.41277,"is_reserved":false,"is_disabled":false,"rental_uris":{"android":"levelo://app?vid=c5f2f299-7e0f-4ea2-abcd-aaa65ae3837f","ios":"levelo://app?vid=c5f2f299-7e0f-4ea2-abcd-aaa65ae3837f"},"vehicle_type_id":"4","last_reported":1750162890,"current_range_meters":8400,"station_id":"ce4bhop2rcd13ifvqh8g","pricing_plan_id":"cebpf4jnsgd1na2vs0mg"},{"bike_id":"545d22d0-4bdb-4967-b574-d0f808cfcbea","system_id":"levelo_inurba_marseille","lat":43.21209,"lon":5.35081,"is_reserved":false,"is_disabled":false,"rental_uris":{"android":"levelo://app?vid=545d22d0-4bdb-4967-b574-d0f808cfcbea","ios":"levelo://app?vid=545d22d0-4bdb-4967-b574-d0f808cfcbea"},"vehicle_type_id":"4","last_reported":1750162890,"current_range_meters":8400,"station_id":"st_cvj6sg6p6f1abm77japg","pricing_plan_id":"cebpf4jnsgd1na2vs0mg"},{"bike_id":"1e0c05f0-348e-4a54-a5ea-9ef9b871bfb7","system_id":"levelo_inurba_marseille","lat":43.29708,"lon":5.37692,"is_reserved":false,"is_disabled":false,"rental_uris":{"android":"levelo://app?vid=1e0c05f0-348e-4a54-a5ea-9ef9b871bfb7","ios":"levelo://app?vid=1e0c05f0-348e-4a54-a5ea-9ef9b871bfb7"},"vehicle_type_id":"4","last_reported":1750162890,"current_range_meters":8800,"station_id":"ce4bgkh2rcd13ifvqbl0","pricing_plan_id":"cebpf4jnsgd1na2vs0mg"},{"bike_id":"99c78eee-78d5-4e75-ad29-53a8e323757e","system_id":"levelo_inurba_marseille","lat":43.30887,"lon":5.37193,"is_reserved":false,"is_disabled":false,"rental_uris":{"android":"levelo://app?vid=99c78eee-78d5-4e75-ad29-53a8e323757e","ios":"levelo://app?vid=99c78eee-78d5-4e75-ad29-53a8e323757e"},"vehicle_type_id":"4","last_reported":1750162890,"current_range_meters":8800,"station_id":"ce4bguh2rcd13ifvqckg","pricing_plan_id":"cebpf4jnsgd1na2vs0mg"},{"bike_id":"a36d0658-dc13-4302-8f4e-17d902cedbc3","system_id":"levelo_inurba_marseille","lat":43.24545,"lon":5.3952,"is_reserved":false,"is_disabled":false,"rental_uris":{"android":"levelo://app?vid=a36d0658-dc13-4302-8f4e-17d902cedbc3","ios":"levelo://app?vid=a36d0658-dc13-4302-8f4e-17d902cedbc3"},"vehicle_type_id":"4","last_reported":1750162890,"current_range_meters":8800,"station_id":"ce4bhlp2rcd13ifvqgjg","pricing_plan_id":"cebpf4jnsgd1na2vs0mg"},{"bike_id":"da3e1724-606c-4f9a-9130-d56dd48e22e0","system_id":"levelo_inurba_marseille","lat":43.3296,"lon":5.40599,"is_reserved":false,"is_disabled":false,"rental_uris":{"android":"levelo://app?vid=da3e1724-606c-4f9a-9130-d56dd48e22e0","ios":"levelo://app?vid=da3e1724-606c-4f9a-9130-d56dd48e22e0"},"vehicle_type_id":"4","last_reported":1750162890,"current_range_meters":9200,"station_id":"","pricing_plan_id":"cebpf4jnsgd1na2vs0mg"},{"bike_id":"64c6d212-acc6-47e3-9e04-fbaf04a7ed4e","system_id":"levelo_inurba_marseille","lat":43.27008,"lon":5.38836,"is_reserved":false,"is_disabled":false,"rental_uris":{"android":"levelo://app?vid=64c6d212-acc6-47e3-9e04-fbaf04a7ed4e","ios":"levelo://app?vid=64c6d212-acc6-47e3-9e04-fbaf04a7ed4e"},"vehicle_type_id":"4","last_reported":1750162890,"current_range_meters":9200,"station_id":"","pricing_plan_id":"cebpf4jnsgd1na2vs0mg"},{"bike_id":"60cae3e4-f824-4bef-9fdb-8feeea8ebfe9","system_id":"levelo_inurba_marseille","lat":43.2558,"lon":5.38237,"is_reserved":false,"is_disabled":false,"rental_uris":{"android":"levelo://app?vid=60cae3e4-f824-4bef-9fdb-8feeea8ebfe9","ios":"levelo://app?vid=60cae3e4-f824-4bef-9fdb-8feeea8ebfe9"},"vehicle_type_id":"4","last_reported":1750162890,"current_range_meters":9200,"station_id":"ce4bhih2rcd13ifvqfs0","pricing_plan_id":"cebpf4jnsgd1na2vs0mg"},{"bike_id":"355d33db-d830-4abb-a2f9-34e06aea68bc","system_id":"levelo_inurba_marseille","lat":43.32223,"lon":5.38103,"is_reserved":false,"is_disabled":false,"rental_uris":{"android":"levelo://app?vid=355d33db-d830-4abb-a2f9-34e06aea68bc","ios":"levelo://app?vid=355d33db-d830-4abb-a2f9-34e06aea68bc"},"vehicle_type_id":"4","last_reported":1750162890,"current_range_meters":9600,"station_id":"","pricing_plan_id":"cebpf4jnsgd1na2vs0mg"},{"bike_id":"356258c8-0ad6-493b-b5a4-77e865070f65","system_id":"levelo_inurba_marseille","lat":43.32612,"lon":5.41982,"is_reserved":false,"is_disabled":false,"rental_uris":{"android":"levelo://app?vid=356258c8-0ad6-493b-b5a4-77e865070f65","ios":"levelo://app?vid=356258c8-0ad6-493b-b5a4-77e865070f65"},"vehicle_type_id":"4","last_reported":1750162890,"current_range_meters":9600,"station_id":"","pricing_plan_id":"cebpf4jnsgd1na2vs0mg"},{"bike_id":"26782e56-21f5-4acd-a2e5-b5c1635a6df2","system_id":"levelo_inurba_marseille","lat":43.27922,"lon":5.39592,"is_reserved":false,"is_disabled":false,"rental_uris":{"android":"levelo://app?vid=26782e56-21f5-4acd-a2e5-b5c1635a6df2","ios":"levelo://app?vid=26782e56-21f5-4acd-a2e5-b5c1635a6df2"},"vehicle_type_id":"4","last_reported":1750162890,"current_range_meters":9600,"station_id":"ce4bhf92rcd13ifvqf40","pricing_plan_id":"cebpf4jnsgd1na2vs0mg"},{"bike_id":"f522b07b-cafd-41a9-86b7-04590a3909c7","system_id":"levelo_inurba_marseille","lat":43.26794,"lon":5.40246,"is_reserved":false,"is_disabled":false,"rental_uris":{"android":"levelo://app?vid=f522b07b-cafd-41a9-86b7-04590a3909c7","ios":"levelo://app?vid=f522b07b-cafd-41a9-86b7-04590a3909c7"},"vehicle_type_id":"4","last_reported":1750162890,"current_range_meters":9600,"station_id":"ce501612rcd8frsf0b60","pricing_plan_id":"cebpf4jnsgd1na2vs0mg"},{"bike_id":"495ed5a6-10f8-4ae0-9798-3eec6b4ecf2c","system_id":"levelo_inurba_marseille","lat":43.26249,"lon":5.3932,"is_reserved":false,"is_disabled":false,"rental_uris":{"android":"levelo://app?vid=495ed5a6-10f8-4ae0-9798-3eec6b4ecf2c","ios":"levelo://app?vid=495ed5a6-10f8-4ae0-9798-3eec6b4ecf2c"},"vehicle_type_id":"4","last_reported":1750162890,"current_range_meters":10000,"station_id":"","pricing_plan_id":"cebpf4jnsgd1na2vs0mg"},{"bike_id":"b86dff87-b6e8-4a22-b120-c506c0a6289f","system_id":"levelo_inurba_marseille","lat":43.22506,"lon":5.34786,"is_reserved":false,"is_disabled":false,"rental_uris":{"android":"levelo://app?vid=b86dff87-b6e8-4a22-b120-c506c0a6289f","ios":"levelo://app?vid=b86dff87-b6e8-4a22-b120-c506c0a6289f"},"vehicle_type_id":"4","last_reported":1750162890,"current_range_meters":10000,"station_id":"","pricing_plan_id":"cebpf4jnsgd1na2vs0mg"},{"bike_id":"7db2dafb-5c52-41eb-95fb-ee667194c9d2","system_id":"levelo_inurba_marseille","lat":43.30949,"lon":5.39087,"is_reserved":false,"is_disabled":false,"rental_uris":{"android":"levelo://app?vid=7db2dafb-5c52-41eb-95fb-ee667194c9d2","ios":"levelo://app?vid=7db2dafb-5c52-41eb-95fb-ee667194c9d2"},"vehicle_type_id":"4","last_reported":1750162890,"current_range_meters":10000,"station_id":"","pricing_plan_id":"cebpf4jnsgd1na2vs0mg"},{"bike_id":"3d824200-2559-4508-8649-0d945c679083","system_id":"levelo_inurba_marseille","lat":43.30912,"lon":5.36853,"is_reserved":false,"is_disabled":false,"rental_uris":{"android":"levelo://app?vid=3d824200-2559-4508-8649-0d945c679083","ios":"levelo://app?vid=3d824200-2559-4508-8649-0d945c679083"},"vehicle_type_id":"4","last_reported":1750162890,"current_range_meters":10000,"station_id":"ce4bgn92rcd13ifvqbvg","pricing_plan_id":"cebpf4jnsgd1na2vs0mg"},{"bike_id":"7c08ad99-fdc9-4d14-a3a0-0490fe86507c","system_id":"levelo_inurba_marseille","lat":43.21181,"lon":5.35104,"is_reserved":false,"is_disabled":false,"rental_uris":{"android":"levelo://app?vid=7c08ad99-fdc9-4d14-a3a0-0490fe86507c","ios":"levelo://app?vid=7c08ad99-fdc9-4d14-a3a0-0490fe86507c"},"vehicle_type_id":"4","last_reported":1750162890,"current_range_meters":10000,"station_id":"st_cvj6sg6p6f1abm77japg","pricing_plan_id":"cebpf4jnsgd1na2vs0mg"},{"bike_id":"3b136301-d892-4bf1-aa15-695ec30464ca","system_id":"levelo_inurba_marseille","lat":43.32105,"lon":5.36708,"is_reserved":false,"is_disabled":false,"rental_uris":{"android":"levelo://app?vid=3b136301-d892-4bf1-aa15-695ec30464ca","ios":"levelo://app?vid=3b136301-d892-4bf1-aa15-695ec30464ca"},"vehicle_type_id":"4","last_reported":1750162890,"current_range_meters":10800,"station_id":"","pricing_plan_id":"cebpf4jnsgd1na2vs0mg"},{"bike_id":"1ca305fd-152a-470e-8296-72b162ad66fc","system_id":"levelo_inurba_marseille","lat":43.30139,"lon":5.37422,"is_reserved":false,"is_disabled":false,"rental_uris":{"android":"levelo://app?vid=1ca305fd-152a-470e-8296-72b162ad66fc","ios":"levelo://app?vid=1ca305fd-152a-470e-8296-72b162ad66fc"},"vehicle_type_id":"4","last_reported":1750162890,"current_range_meters":10800,"station_id":"ce4bgs92rcd13ifvqcc0","pricing_plan_id":"cebpf4jnsgd1na2vs0mg"},{"bike_id":"de984505-74c1-4076-9a29-c0f8b4e3a098","system_id":"levelo_inurba_marseille","lat":43.290735,"lon":5.365727,"is_reserved":false,"is_disabled":false,"rental_uris":{"android":"levelo://app?vid=de984505-74c1-4076-9a29-c0f8b4e3a098","ios":"levelo://app?vid=de984505-74c1-4076-9a29-c0f8b4e3a098"},"vehicle_type_id":"4","last_reported":1750162890,"current_range_meters":11200,"station_id":"ce4bgs92rcd13ifvqcc0","pricing_plan_id":"cebpf4jnsgd1na2vs0mg"},{"bike_id":"4c4b177d-83c8-4b0d-acd7-caa239ba9e2a","system_id":"levelo_inurba_marseille","lat":43.29029,"lon":5.3863,"is_reserved":false,"is_disabled":false,"rental_uris":{"android":"levelo://app?vid=4c4b177d-83c8-4b0d-acd7-caa239ba9e2a","ios":"levelo://app?vid=4c4b177d-83c8-4b0d-acd7-caa239ba9e2a"},"vehicle_type_id":"4","last_reported":1750162890,"current_range_meters":11200,"station_id":"ce4bh4p2rcd13ifvqe0g","pricing_plan_id":"cebpf4jnsgd1na2vs0mg"},{"bike_id":"25960fd9-8509-4555-9b23-fa4fae1e21d0","system_id":"levelo_inurba_marseille","lat":43.290058,"lon":5.38199,"is_reserved":false,"is_disabled":false,"rental_uris":{"android":"levelo://app?vid=25960fd9-8509-4555-9b23-fa4fae1e21d0","ios":"levelo://app?vid=25960fd9-8509-4555-9b23-fa4fae1e21d0"},"vehicle_type_id":"4","last_reported":1750162890,"current_range_meters":11200,"station_id":"ce4bh4p2rcd13ifvqe1g","pricing_plan_id":"cebpf4jnsgd1na2vs0mg"},{"bike_id":"caff9461-825e-4eec-9c12-4ca61d2dde3b","system_id":"levelo_inurba_marseille","lat":43.27377,"lon":5.36255,"is_reserved":false,"is_disabled":false,"rental_uris":{"android":"levelo://app?vid=caff9461-825e-4eec-9c12-4ca61d2dde3b","ios":"levelo://app?vid=caff9461-825e-4eec-9c12-4ca61d2dde3b"},"vehicle_type_id":"4","last_reported":1750162890,"current_range_meters":11200,"station_id":"ce4bhbh2rcd13ifvqeo0","pricing_plan_id":"cebpf4jnsgd1na2vs0mg"},{"bike_id":"55e7ad4a-c359-4d67-9104-7034150d6bcc","system_id":"levelo_inurba_marseille","lat":43.28939,"lon":5.36393,"is_reserved":false,"is_disabled":false,"rental_uris":{"android":"levelo://app?vid=55e7ad4a-c359-4d67-9104-7034150d6bcc","ios":"levelo://app?vid=55e7ad4a-c359-4d67-9104-7034150d6bcc"},"vehicle_type_id":"4","last_reported":1750162890,"current_range_meters":11200,"station_id":"ce4bhc92rcd13ifvqetg","pricing_plan_id":"cebpf4jnsgd1na2vs0mg"},{"bike_id":"74966967-4262-47a8-b898-c10e45c1f375","system_id":"levelo_inurba_marseille","lat":43.21192,"lon":5.35071,"is_reserved":false,"is_disabled":false,"rental_uris":{"android":"levelo://app?vid=74966967-4262-47a8-b898-c10e45c1f375","ios":"levelo://app?vid=74966967-4262-47a8-b898-c10e45c1f375"},"vehicle_type_id":"4","last_reported":1750162890,"current_range_meters":11200,"station_id":"st_cvj6sg6p6f1abm77japg","pricing_plan_id":"cebpf4jnsgd1na2vs0mg"},{"bike_id":"5aecd506-2140-4b5b-b2d7-a7220caa1805","system_id":"levelo_inurba_marseille","lat":43.24064,"lon":5.37781,"is_reserved":false,"is_disabled":false,"rental_uris":{"android":"levelo://app?vid=5aecd506-2140-4b5b-b2d7-a7220caa1805","ios":"levelo://app?vid=5aecd506-2140-4b5b-b2d7-a7220caa1805"},"vehicle_type_id":"4","last_reported":1750162890,"current_range_meters":11600,"station_id":"ce4bhnp2rcd13ifvqgvg","pricing_plan_id":"cebpf4jnsgd1na2vs0mg"},{"bike_id":"222abc74-91c7-44a6-88b6-c71afabef20f","system_id":"levelo_inurba_marseille","lat":43.32478,"lon":5.36558,"is_reserved":false,"is_disabled":false,"rental_uris":{"android":"levelo://app?vid=222abc74-91c7-44a6-88b6-c71afabef20f","ios":"levelo://app?vid=222abc74-91c7-44a6-88b6-c71afabef20f"},"vehicle_type_id":"4","last_reported":1750162890,"current_range_meters":11600,"station_id":"ce4bhs12rcd13ifvqhvg","pricing_plan_id":"cebpf4jnsgd1na2vs0mg"},{"bike_id":"d15e97b3-501f-458f-810d-aadce744705f","system_id":"levelo_inurba_marseille","lat":43.31227,"lon":5.36856,"is_reserved":false,"is_disabled":false,"rental_uris":{"android":"levelo://app?vid=d15e97b3-501f-458f-810d-aadce744705f","ios":"levelo://app?vid=d15e97b3-501f-458f-810d-aadce744705f"},"vehicle_type_id":"4","last_reported":1750162890,"current_range_meters":12000,"station_id":"ce4bgl92rcd13ifvqbq0","pricing_plan_id":"cebpf4jnsgd1na2vs0mg"},{"bike_id":"78f1f7cb-01ae-46ec-aa4c-b08be023ad34","system_id":"levelo_inurba_marseille","lat":43.28694,"lon":5.37388,"is_reserved":false,"is_disabled":false,"rental_uris":{"android":"levelo://app?vid=78f1f7cb-01ae-46ec-aa4c-b08be023ad34","ios":"levelo://app?vid=78f1f7cb-01ae-46ec-aa4c-b08be023ad34"},"vehicle_type_id":"4","last_reported":1750162890,"current_range_meters":12000,"station_id":"ce4bh3p2rcd13ifvqdq0","pricing_plan_id":"cebpf4jnsgd1na2vs0mg"},{"bike_id":"e8b36dda-27db-4789-bd06-6de29a475b91","system_id":"levelo_inurba_marseille","lat":43.26211,"lon":5.37442,"is_reserved":false,"is_disabled":false,"rental_uris":{"android":"levelo://app?vid=e8b36dda-27db-4789-bd06-6de29a475b91","ios":"levelo://app?vid=e8b36dda-27db-4789-bd06-6de29a475b91"},"vehicle_type_id":"4","last_reported":1750162890,"current_range_meters":12000,"station_id":"ce4bhgp2rcd13ifvqfc0","pricing_plan_id":"cebpf4jnsgd1na2vs0mg"},{"bike_id":"87b44484-5d0e-4764-8407-39526d7ac5db","system_id":"levelo_inurba_marseille","lat":43.28153,"lon":5.4264,"is_reserved":false,"is_disabled":false,"rental_uris":{"android":"levelo://app?vid=87b44484-5d0e-4764-8407-39526d7ac5db","ios":"levelo://app?vid=87b44484-5d0e-4764-8407-39526d7ac5db"},"vehicle_type_id":"4","last_reported":1750162890,"current_range_meters":12000,"station_id":"ce4bhnh2rcd13ifvqgug","pricing_plan_id":"cebpf4jnsgd1na2vs0mg"},{"bike_id":"a48f89be-792c-4114-b951-5ad486d89736","system_id":"levelo_inurba_marseille","lat":43.24068,"lon":5.3776,"is_reserved":false,"is_disabled":false,"rental_uris":{"android":"levelo://app?vid=a48f89be-792c-4114-b951-5ad486d89736","ios":"levelo://app?vid=a48f89be-792c-4114-b951-5ad486d89736"},"vehicle_type_id":"4","last_reported":1750162890,"current_range_meters":12000,"station_id":"ce4bhnp2rcd13ifvqgvg","pricing_plan_id":"cebpf4jnsgd1na2vs0mg"},{"bike_id":"3638d867-6083-4397-a9de-aa9b5262e05e","system_id":"levelo_inurba_marseille","lat":43.29897,"lon":5.43668,"is_reserved":false,"is_disabled":false,"rental_uris":{"android":"levelo://app?vid=3638d867-6083-4397-a9de-aa9b5262e05e","ios":"levelo://app?vid=3638d867-6083-4397-a9de-aa9b5262e05e"},"vehicle_type_id":"4","last_reported":1750162890,"current_range_meters":12000,"station_id":"ce4bhpp2rcd13ifvqhfg","pricing_plan_id":"cebpf4jnsgd1na2vs0mg"},{"bike_id":"1e373418-986e-4d3c-9ff7-c37dd7c7a214","system_id":"levelo_inurba_marseille","lat":43.29915,"lon":5.43675,"is_reserved":false,"is_disabled":false,"rental_uris":{"android":"levelo://app?vid=1e373418-986e-4d3c-9ff7-c37dd7c7a214","ios":"levelo://app?vid=1e373418-986e-4d3c-9ff7-c37dd7c7a214"},"vehicle_type_id":"4","last_reported":1750162890,"current_range_meters":12000,"station_id":"ce4bhpp2rcd13ifvqhfg","pricing_plan_id":"cebpf4jnsgd1na2vs0mg"},{"bike_id":"0e27dafc-21df-4fb1-bd36-2450a7866702","system_id":"levelo_inurba_marseille","lat":43.27155,"lon":5.40019,"is_reserved":false,"is_disabled":false,"rental_uris":{"android":"levelo://app?vid=0e27dafc-21df-4fb1-bd36-2450a7866702","ios":"levelo://app?vid=0e27dafc-21df-4fb1-bd36-2450a7866702"},"vehicle_type_id":"4","last_reported":1750162890,"current_range_meters":12400,"station_id":"","pricing_plan_id":"cebpf4jnsgd1na2vs0mg"},{"bike_id":"21db6be8-f2e2-48de-81b0-b885d32bca75","system_id":"levelo_inurba_marseille","lat":43.30604,"lon":5.372023,"is_reserved":false,"is_disabled":false,"rental_uris":{"android":"levelo://app?vid=21db6be8-f2e2-48de-81b0-b885d32bca75","ios":"levelo://app?vid=21db6be8-f2e2-48de-81b0-b885d32bca75"},"vehicle_type_id":"4","last_reported":1750162890,"current_range_meters":12400,"station_id":"ce4bgqh2rcd13ifvqc4g","pricing_plan_id":"cebpf4jnsgd1na2vs0mg"},{"bike_id":"1382c38a-3a06-4e0a-9ac1-8e32117e7e46","system_id":"levelo_inurba_marseille","lat":43.31273,"lon":5.40167,"is_reserved":false,"is_disabled":false,"rental_uris":{"android":"levelo://app?vid=1382c38a-3a06-4e0a-9ac1-8e32117e7e46","ios":"levelo://app?vid=1382c38a-3a06-4e0a-9ac1-8e32117e7e46"},"vehicle_type_id":"4","last_reported":1750162890,"current_range_meters":12400,"station_id":"ce4bh092rcd13ifvqd30","pricing_plan_id":"cebpf4jnsgd1na2vs0mg"},{"bike_id":"3ccfb044-30d5-4fb6-9e95-d71c594274d8","system_id":"levelo_inurba_marseille","lat":43.26558,"lon":5.3729,"is_reserved":false,"is_disabled":false,"rental_uris":{"android":"levelo://app?vid=3ccfb044-30d5-4fb6-9e95-d71c594274d8","ios":"levelo://app?vid=3ccfb044-30d5-4fb6-9e95-d71c594274d8"},"vehicle_type_id":"4","last_reported":1750162890,"current_range_meters":12400,"station_id":"ce4bhg12rcd13ifvqf70","pricing_plan_id":"cebpf4jnsgd1na2vs0mg"},{"bike_id":"9433400b-5753-4bb8-acbb-b0c5ea82dac2","system_id":"levelo_inurba_marseille","lat":43.2594,"lon":5.40905,"is_reserved":false,"is_disabled":false,"rental_uris":{"android":"levelo://app?vid=9433400b-5753-4bb8-acbb-b0c5ea82dac2","ios":"levelo://app?vid=9433400b-5753-4bb8-acbb-b0c5ea82dac2"},"vehicle_type_id":"4","last_reported":1750162890,"current_range_meters":12400,"station_id":"ce4bhm92rcd13ifvqglg","pricing_plan_id":"cebpf4jnsgd1na2vs0mg"},{"bike_id":"d620a795-8152-48d8-980e-a6898c473f35","system_id":"levelo_inurba_marseille","lat":43.30194,"lon":5.36633,"is_reserved":false,"is_disabled":false,"rental_uris":{"android":"levelo://app?vid=d620a795-8152-48d8-980e-a6898c473f35","ios":"levelo://app?vid=d620a795-8152-48d8-980e-a6898c473f35"},"vehicle_type_id":"4","last_reported":1750162890,"current_range_meters":12800,"station_id":"ce4bgrh2rcd13ifvqc8g","pricing_plan_id":"cebpf4jnsgd1na2vs0mg"},{"bike_id":"8a0501e8-a28b-4854-a2d5-21f891db590e","system_id":"levelo_inurba_marseille","lat":43.28667,"lon":5.38666,"is_reserved":false,"is_disabled":false,"rental_uris":{"android":"levelo://app?vid=8a0501e8-a28b-4854-a2d5-21f891db590e","ios":"levelo://app?vid=8a0501e8-a28b-4854-a2d5-21f891db590e"},"vehicle_type_id":"4","last_reported":1750162890,"current_range_meters":12800,"station_id":"ce4bh492rcd13ifvqdug","pricing_plan_id":"cebpf4jnsgd1na2vs0mg"},{"bike_id":"ae4a4975-860f-4de4-b558-473168840959","system_id":"levelo_inurba_marseille","lat":43.28704,"lon":5.3999,"is_reserved":false,"is_disabled":false,"rental_uris":{"android":"levelo://app?vid=ae4a4975-860f-4de4-b558-473168840959","ios":"levelo://app?vid=ae4a4975-860f-4de4-b558-473168840959"},"vehicle_type_id":"4","last_reported":1750162890,"current_range_meters":12800,"station_id":"ce4bho92rcd13ifvqh3g","pricing_plan_id":"cebpf4jnsgd1na2vs0mg"},{"bike_id":"2f7067ff-67c7-4a26-96db-dddd6395059e","system_id":"levelo_inurba_marseille","lat":43.30798,"lon":5.37649,"is_reserved":false,"is_disabled":false,"rental_uris":{"android":"levelo://app?vid=2f7067ff-67c7-4a26-96db-dddd6395059e","ios":"levelo://app?vid=2f7067ff-67c7-4a26-96db-dddd6395059e"},"vehicle_type_id":"4","last_reported":1750162890,"current_range_meters":13600,"station_id":"ce4bgv92rcd13ifvqcq0","pricing_plan_id":"cebpf4jnsgd1na2vs0mg"},{"bike_id":"d0644631-69fa-4920-a4c4-33226581918b","system_id":"levelo_inurba_marseille","lat":43.29279,"lon":5.3684,"is_reserved":false,"is_disabled":false,"rental_uris":{"android":"levelo://app?vid=d0644631-69fa-4920-a4c4-33226581918b","ios":"levelo://app?vid=d0644631-69fa-4920-a4c4-33226581918b"},"vehicle_type_id":"4","last_reported":1750162890,"current_range_meters":13600,"station_id":"ce4bhbp2rcd13ifvqesg","pricing_plan_id":"cebpf4jnsgd1na2vs0mg"},{"bike_id":"c43bc47b-a41e-493c-846e-c200bc5e09ab","system_id":"levelo_inurba_marseille","lat":43.24809,"lon":5.37454,"is_reserved":false,"is_disabled":false,"rental_uris":{"android":"levelo://app?vid=c43bc47b-a41e-493c-846e-c200bc5e09ab","ios":"levelo://app?vid=c43bc47b-a41e-493c-846e-c200bc5e09ab"},"vehicle_type_id":"4","last_reported":1750162890,"current_range_meters":13600,"station_id":"ce4bhgh2rcd13ifvqfb0","pricing_plan_id":"cebpf4jnsgd1na2vs0mg"},{"bike_id":"a2016f67-8d4d-4a8e-a3fc-c503b2451046","system_id":"levelo_inurba_marseille","lat":43.24178,"lon":5.39732,"is_reserved":false,"is_disabled":false,"rental_uris":{"android":"levelo://app?vid=a2016f67-8d4d-4a8e-a3fc-c503b2451046","ios":"levelo://app?vid=a2016f67-8d4d-4a8e-a3fc-c503b2451046"},"vehicle_type_id":"4","last_reported":1750162890,"current_range_meters":13600,"station_id":"ce4bhn12rcd13ifvqgpg","pricing_plan_id":"cebpf4jnsgd1na2vs0mg"},{"bike_id":"eca25bd6-1b44-4388-a7b0-074a85a4f502","system_id":"levelo_inurba_marseille","lat":43.31103,"lon":5.39713,"is_reserved":false,"is_disabled":false,"rental_uris":{"android":"levelo://app?vid=eca25bd6-1b44-4388-a7b0-074a85a4f502","ios":"levelo://app?vid=eca25bd6-1b44-4388-a7b0-074a85a4f502"},"vehicle_type_id":"4","last_reported":1750162890,"current_range_meters":14000,"station_id":"","pricing_plan_id":"cebpf4jnsgd1na2vs0mg"},{"bike_id":"de9dc2cc-3866-471b-958e-878946f52f11","system_id":"levelo_inurba_marseille","lat":43.26558,"lon":5.3728,"is_reserved":false,"is_disabled":false,"rental_uris":{"android":"levelo://app?vid=de9dc2cc-3866-471b-958e-878946f52f11","ios":"levelo://app?vid=de9dc2cc-3866-471b-958e-878946f52f11"},"vehicle_type_id":"4","last_reported":1750162890,"current_range_meters":14000,"station_id":"ce4bhg12rcd13ifvqf70","pricing_plan_id":"cebpf4jnsgd1na2vs0mg"},{"bike_id":"15457d03-8aa5-40fe-a39e-b9a8265e0cfb","system_id":"levelo_inurba_marseille","lat":43.31079,"lon":5.42436,"is_reserved":false,"is_disabled":false,"rental_uris":{"android":"levelo://app?vid=15457d03-8aa5-40fe-a39e-b9a8265e0cfb","ios":"levelo://app?vid=15457d03-8aa5-40fe-a39e-b9a8265e0cfb"},"vehicle_type_id":"4","last_reported":1750162890,"current_range_meters":14000,"station_id":"ce4bhp92rcd13ifvqhag","pricing_plan_id":"cebpf4jnsgd1na2vs0mg"},{"bike_id":"83cfee7d-980d-496a-98c8-745c7e44c68d","system_id":"levelo_inurba_marseille","lat":43.32915,"lon":5.39105,"is_reserved":false,"is_disabled":false,"rental_uris":{"android":"levelo://app?vid=83cfee7d-980d-496a-98c8-745c7e44c68d","ios":"levelo://app?vid=83cfee7d-980d-496a-98c8-745c7e44c68d"},"vehicle_type_id":"4","last_reported":1750162890,"current_range_meters":14400,"station_id":"","pricing_plan_id":"cebpf4jnsgd1na2vs0mg"},{"bike_id":"508fa291-f0f2-404f-9d5a-2b28b2745b4f","system_id":"levelo_inurba_marseille","lat":43.30276,"lon":5.37708,"is_reserved":false,"is_disabled":false,"rental_uris":{"android":"levelo://app?vid=508fa291-f0f2-404f-9d5a-2b28b2745b4f","ios":"levelo://app?vid=508fa291-f0f2-404f-9d5a-2b28b2745b4f"},"vehicle_type_id":"4","last_reported":1750162890,"current_range_meters":14400,"station_id":"ce4bguh2rcd13ifvqcj0","pricing_plan_id":"cebpf4jnsgd1na2vs0mg"},{"bike_id":"8b915adb-b554-48f4-97d9-fb16e95526c5","system_id":"levelo_inurba_marseille","lat":43.30462,"lon":5.37907,"is_reserved":false,"is_disabled":false,"rental_uris":{"android":"levelo://app?vid=8b915adb-b554-48f4-97d9-fb16e95526c5","ios":"levelo://app?vid=8b915adb-b554-48f4-97d9-fb16e95526c5"},"vehicle_type_id":"4","last_reported":1750162890,"current_range_meters":14400,"station_id":"ce4bgup2rcd13ifvqcn0","pricing_plan_id":"cebpf4jnsgd1na2vs0mg"},{"bike_id":"6d392914-420e-49a0-9a62-e1c19d840639","system_id":"levelo_inurba_marseille","lat":43.30385,"lon":5.42484,"is_reserved":false,"is_disabled":false,"rental_uris":{"android":"levelo://app?vid=6d392914-420e-49a0-9a62-e1c19d840639","ios":"levelo://app?vid=6d392914-420e-49a0-9a62-e1c19d840639"},"vehicle_type_id":"4","last_reported":1750162890,"current_range_meters":14400,"station_id":"ce4bhoh2rcd13ifvqh6g","pricing_plan_id":"cebpf4jnsgd1na2vs0mg"},{"bike_id":"7c5d0588-82b8-4608-9bdc-83ca6f35ab3a","system_id":"levelo_inurba_marseille","lat":43.3248,"lon":5.3657,"is_reserved":false,"is_disabled":false,"rental_uris":{"android":"levelo://app?vid=7c5d0588-82b8-4608-9bdc-83ca6f35ab3a","ios":"levelo://app?vid=7c5d0588-82b8-4608-9bdc-83ca6f35ab3a"},"vehicle_type_id":"4","last_reported":1750162890,"current_range_meters":14400,"station_id":"ce4bhs12rcd13ifvqhvg","pricing_plan_id":"cebpf4jnsgd1na2vs0mg"},{"bike_id":"0c4a988b-d617-4a75-b0db-7028aea1889b","system_id":"levelo_inurba_marseille","lat":43.24072,"lon":5.3775,"is_reserved":false,"is_disabled":false,"rental_uris":{"android":"levelo://app?vid=0c4a988b-d617-4a75-b0db-7028aea1889b","ios":"levelo://app?vid=0c4a988b-d617-4a75-b0db-7028aea1889b"},"vehicle_type_id":"4","last_reported":1750162890,"current_range_meters":14800,"station_id":"ce4bhnp2rcd13ifvqgvg","pricing_plan_id":"cebpf4jnsgd1na2vs0mg"},{"bike_id":"576c5ce1-2820-4793-a6d3-3807e08284f7","system_id":"levelo_inurba_marseille","lat":43.31173,"lon":5.38726,"is_reserved":false,"is_disabled":false,"rental_uris":{"android":"levelo://app?vid=576c5ce1-2820-4793-a6d3-3807e08284f7","ios":"levelo://app?vid=576c5ce1-2820-4793-a6d3-3807e08284f7"},"vehicle_type_id":"4","last_reported":1750162890,"current_range_meters":15200,"station_id":"ce4bgv12rcd13ifvqcp0","pricing_plan_id":"cebpf4jnsgd1na2vs0mg"},{"bike_id":"ecb44b62-5a0e-45ec-974d-1c8fb9781634","system_id":"levelo_inurba_marseille","lat":43.30332,"lon":5.40435,"is_reserved":false,"is_disabled":false,"rental_uris":{"android":"levelo://app?vid=ecb44b62-5a0e-45ec-974d-1c8fb9781634","ios":"levelo://app?vid=ecb44b62-5a0e-45ec-974d-1c8fb9781634"},"vehicle_type_id":"4","last_reported":1750162890,"current_range_meters":15200,"station_id":"ce4bh012rcd13ifvqd10","pricing_plan_id":"cebpf4jnsgd1na2vs0mg"},{"bike_id":"a3c01525-c841-41e7-8c1a-46d9a545f432","system_id":"levelo_inurba_marseille","lat":43.27916,"lon":5.39581,"is_reserved":false,"is_disabled":false,"rental_uris":{"android":"levelo://app?vid=a3c01525-c841-41e7-8c1a-46d9a545f432","ios":"levelo://app?vid=a3c01525-c841-41e7-8c1a-46d9a545f432"},"vehicle_type_id":"4","last_reported":1750162890,"current_range_meters":16000,"station_id":"ce4bhf92rcd13ifvqf40","pricing_plan_id":"cebpf4jnsgd1na2vs0mg"},{"bike_id":"cb3b1dfb-27de-4f4d-b44a-0cb3a06f4d6d","system_id":"levelo_inurba_marseille","lat":43.27213,"lon":5.39172,"is_reserved":false,"is_disabled":false,"rental_uris":{"android":"levelo://app?vid=cb3b1dfb-27de-4f4d-b44a-0cb3a06f4d6d","ios":"levelo://app?vid=cb3b1dfb-27de-4f4d-b44a-0cb3a06f4d6d"},"vehicle_type_id":"4","last_reported":1750162890,"current_range_meters":16000,"station_id":"ce4bhhp2rcd13ifvqfm0","pricing_plan_id":"cebpf4jnsgd1na2vs0mg"},{"bike_id":"a305b754-32de-4968-8747-7e5ba2923a93","system_id":"levelo_inurba_marseille","lat":43.27504,"lon":5.42452,"is_reserved":false,"is_disabled":false,"rental_uris":{"android":"levelo://app?vid=a305b754-32de-4968-8747-7e5ba2923a93","ios":"levelo://app?vid=a305b754-32de-4968-8747-7e5ba2923a93"},"vehicle_type_id":"4","last_reported":1750162890,"current_range_meters":16000,"station_id":"ce4bhn92rcd13ifvqgrg","pricing_plan_id":"cebpf4jnsgd1na2vs0mg"},{"bike_id":"8294296b-2596-40bf-ac83-56912bf5277b","system_id":"levelo_inurba_marseille","lat":43.24076,"lon":5.37757,"is_reserved":false,"is_disabled":false,"rental_uris":{"android":"levelo://app?vid=8294296b-2596-40bf-ac83-56912bf5277b","ios":"levelo://app?vid=8294296b-2596-40bf-ac83-56912bf5277b"},"vehicle_type_id":"4","last_reported":1750162890,"current_range_meters":16000,"station_id":"ce4bhnp2rcd13ifvqgvg","pricing_plan_id":"cebpf4jnsgd1na2vs0mg"},{"bike_id":"3e35cb00-7b2d-4acb-a07e-5a98b8474985","system_id":"levelo_inurba_marseille","lat":43.31083,"lon":5.42432,"is_reserved":false,"is_disabled":false,"rental_uris":{"android":"levelo://app?vid=3e35cb00-7b2d-4acb-a07e-5a98b8474985","ios":"levelo://app?vid=3e35cb00-7b2d-4acb-a07e-5a98b8474985"},"vehicle_type_id":"4","last_reported":1750162890,"current_range_meters":16000,"station_id":"ce4bhp92rcd13ifvqhag","pricing_plan_id":"cebpf4jnsgd1na2vs0mg"},{"bike_id":"2090556a-ebe6-4fcd-b60b-df67d7c8e4f7","system_id":"levelo_inurba_marseille","lat":43.29905,"lon":5.43671,"is_reserved":false,"is_disabled":false,"rental_uris":{"android":"levelo://app?vid=2090556a-ebe6-4fcd-b60b-df67d7c8e4f7","ios":"levelo://app?vid=2090556a-ebe6-4fcd-b60b-df67d7c8e4f7"},"vehicle_type_id":"4","last_reported":1750162890,"current_range_meters":16000,"station_id":"ce4bhpp2rcd13ifvqhfg","pricing_plan_id":"cebpf4jnsgd1na2vs0mg"},{"bike_id":"228f3a59-915d-4c38-b99b-a9d470ca63fb","system_id":"levelo_inurba_marseille","lat":43.3303,"lon":5.39023,"is_reserved":false,"is_disabled":false,"rental_uris":{"android":"levelo://app?vid=228f3a59-915d-4c38-b99b-a9d470ca63fb","ios":"levelo://app?vid=228f3a59-915d-4c38-b99b-a9d470ca63fb"},"vehicle_type_id":"4","last_reported":1750162890,"current_range_meters":16000,"station_id":"ce4bhr92rcd13ifvqhrg","pricing_plan_id":"cebpf4jnsgd1na2vs0mg"},{"bike_id":"675ba28e-d230-4f78-89cd-e8c81d8da15f","system_id":"levelo_inurba_marseille","lat":43.21191,"lon":5.35079,"is_reserved":false,"is_disabled":false,"rental_uris":{"android":"levelo://app?vid=675ba28e-d230-4f78-89cd-e8c81d8da15f","ios":"levelo://app?vid=675ba28e-d230-4f78-89cd-e8c81d8da15f"},"vehicle_type_id":"4","last_reported":1750162890,"current_range_meters":16000,"station_id":"st_cvj6sg6p6f1abm77japg","pricing_plan_id":"cebpf4jnsgd1na2vs0mg"},{"bike_id":"d5dec79f-15a6-4f91-91ac-c63b1ab7b7f7","system_id":"levelo_inurba_marseille","lat":43.31144,"lon":5.38655,"is_reserved":false,"is_disabled":false,"rental_uris":{"android":"levelo://app?vid=d5dec79f-15a6-4f91-91ac-c63b1ab7b7f7","ios":"levelo://app?vid=d5dec79f-15a6-4f91-91ac-c63b1ab7b7f7"},"vehicle_type_id":"4","last_reported":1750162890,"current_range_meters":16400,"station_id":"","pricing_plan_id":"cebpf4jnsgd1na2vs0mg"},{"bike_id":"2a66c5d6-2b92-4fd4-9f33-6c2256ab8544","system_id":"levelo_inurba_marseille","lat":43.26046,"lon":5.37536,"is_reserved":false,"is_disabled":false,"rental_uris":{"android":"levelo://app?vid=2a66c5d6-2b92-4fd4-9f33-6c2256ab8544","ios":"levelo://app?vid=2a66c5d6-2b92-4fd4-9f33-6c2256ab8544"},"vehicle_type_id":"4","last_reported":1750162890,"current_range_meters":16400,"station_id":"ce4bhgh2rcd13ifvqfa0","pricing_plan_id":"cebpf4jnsgd1na2vs0mg"},{"bike_id":"d0ca9a6e-5ec2-4e06-8c77-4ac48d783ffa","system_id":"levelo_inurba_marseille","lat":43.27815,"lon":5.40713,"is_reserved":false,"is_disabled":false,"rental_uris":{"android":"levelo://app?vid=d0ca9a6e-5ec2-4e06-8c77-4ac48d783ffa","ios":"levelo://app?vid=d0ca9a6e-5ec2-4e06-8c77-4ac48d783ffa"},"vehicle_type_id":"4","last_reported":1750162890,"current_range_meters":16400,"station_id":"ce4bhnh2rcd13ifvqgtg","pricing_plan_id":"cebpf4jnsgd1na2vs0mg"},{"bike_id":"68b69c32-2076-4a85-9793-aa4899be2f55","system_id":"levelo_inurba_marseille","lat":43.21195,"lon":5.35078,"is_reserved":false,"is_disabled":false,"rental_uris":{"android":"levelo://app?vid=68b69c32-2076-4a85-9793-aa4899be2f55","ios":"levelo://app?vid=68b69c32-2076-4a85-9793-aa4899be2f55"},"vehicle_type_id":"4","last_reported":1750162890,"current_range_meters":16400,"station_id":"st_cvj6sg6p6f1abm77japg","pricing_plan_id":"cebpf4jnsgd1na2vs0mg"},{"bike_id":"3518210a-6d90-482f-a11b-11cb7c94acd1","system_id":"levelo_inurba_marseille","lat":43.26484,"lon":5.39243,"is_reserved":false,"is_disabled":false,"rental_uris":{"android":"levelo://app?vid=3518210a-6d90-482f-a11b-11cb7c94acd1","ios":"levelo://app?vid=3518210a-6d90-482f-a11b-11cb7c94acd1"},"vehicle_type_id":"4","last_reported":1750162890,"current_range_meters":16800,"station_id":"","pricing_plan_id":"cebpf4jnsgd1na2vs0mg"},{"bike_id":"de0f7c2b-5974-4035-a240-8ed367c0e3f3","system_id":"levelo_inurba_marseille","lat":43.31968,"lon":5.37621,"is_reserved":false,"is_disabled":false,"rental_uris":{"android":"levelo://app?vid=de0f7c2b-5974-4035-a240-8ed367c0e3f3","ios":"levelo://app?vid=de0f7c2b-5974-4035-a240-8ed367c0e3f3"},"vehicle_type_id":"4","last_reported":1750162890,"current_range_meters":16800,"station_id":"","pricing_plan_id":"cebpf4jnsgd1na2vs0mg"},{"bike_id":"9502a6cc-f588-42d1-810a-75566881c143","system_id":"levelo_inurba_marseille","lat":43.30528,"lon":5.36598,"is_reserved":false,"is_disabled":false,"rental_uris":{"android":"levelo://app?vid=9502a6cc-f588-42d1-810a-75566881c143","ios":"levelo://app?vid=9502a6cc-f588-42d1-810a-75566881c143"},"vehicle_type_id":"4","last_reported":1750162890,"current_range_meters":16800,"station_id":"ce4bgs12rcd13ifvqcag","pricing_plan_id":"cebpf4jnsgd1na2vs0mg"},{"bike_id":"a6d88587-8bd5-4961-a372-7ed2aa71a7cf","system_id":"levelo_inurba_marseille","lat":43.30217,"lon":5.39463,"is_reserved":false,"is_disabled":false,"rental_uris":{"android":"levelo://app?vid=a6d88587-8bd5-4961-a372-7ed2aa71a7cf","ios":"levelo://app?vid=a6d88587-8bd5-4961-a372-7ed2aa71a7cf"},"vehicle_type_id":"4","last_reported":1750162890,"current_range_meters":16800,"station_id":"ce4bh0p2rcd13ifvqd70","pricing_plan_id":"cebpf4jnsgd1na2vs0mg"},{"bike_id":"bb448a52-ed97-4551-b9bc-c436e30fbe47","system_id":"levelo_inurba_marseille","lat":43.27381,"lon":5.36252,"is_reserved":false,"is_disabled":false,"rental_uris":{"android":"levelo://app?vid=bb448a52-ed97-4551-b9bc-c436e30fbe47","ios":"levelo://app?vid=bb448a52-ed97-4551-b9bc-c436e30fbe47"},"vehicle_type_id":"4","last_reported":1750162890,"current_range_meters":16800,"station_id":"ce4bhbh2rcd13ifvqeo0","pricing_plan_id":"cebpf4jnsgd1na2vs0mg"},{"bike_id":"1dca189b-e58d-407e-91a0-5d0b482c7bd9","system_id":"levelo_inurba_marseille","lat":43.28267,"lon":5.35062,"is_reserved":false,"is_disabled":false,"rental_uris":{"android":"levelo://app?vid=1dca189b-e58d-407e-91a0-5d0b482c7bd9","ios":"levelo://app?vid=1dca189b-e58d-407e-91a0-5d0b482c7bd9"},"vehicle_type_id":"4","last_reported":1750162890,"current_range_meters":16800,"station_id":"ce4bhbp2rcd13ifvqerg","pricing_plan_id":"cebpf4jnsgd1na2vs0mg"},{"bike_id":"48bedda6-dbb2-415c-b627-66dd0cd6851c","system_id":"levelo_inurba_marseille","lat":43.2894,"lon":5.36396,"is_reserved":false,"is_disabled":false,"rental_uris":{"android":"levelo://app?vid=48bedda6-dbb2-415c-b627-66dd0cd6851c","ios":"levelo://app?vid=48bedda6-dbb2-415c-b627-66dd0cd6851c"},"vehicle_type_id":"4","last_reported":1750162890,"current_range_meters":16800,"station_id":"ce4bhc92rcd13ifvqetg","pricing_plan_id":"cebpf4jnsgd1na2vs0mg"},{"bike_id":"b72d5c6d-aa69-46a1-82f4-f15329dddc92","system_id":"levelo_inurba_marseille","lat":43.23146,"lon":5.43698,"is_reserved":false,"is_disabled":false,"rental_uris":{"android":"levelo://app?vid=b72d5c6d-aa69-46a1-82f4-f15329dddc92","ios":"levelo://app?vid=b72d5c6d-aa69-46a1-82f4-f15329dddc92"},"vehicle_type_id":"4","last_reported":1750162890,"current_range_meters":16800,"station_id":"ce4bhmp2rcd13ifvqgog","pricing_plan_id":"cebpf4jnsgd1na2vs0mg"},{"bike_id":"dab6fb6d-3e6d-412b-a0e1-f672326dbd00","system_id":"levelo_inurba_marseille","lat":43.24185,"lon":5.39771,"is_reserved":false,"is_disabled":false,"rental_uris":{"android":"levelo://app?vid=dab6fb6d-3e6d-412b-a0e1-f672326dbd00","ios":"levelo://app?vid=dab6fb6d-3e6d-412b-a0e1-f672326dbd00"},"vehicle_type_id":"4","last_reported":1750162890,"current_range_meters":16800,"station_id":"ce4bhn12rcd13ifvqgpg","pricing_plan_id":"cebpf4jnsgd1na2vs0mg"},{"bike_id":"132790ef-ceed-44c2-a33f-0bd71b7e1cbe","system_id":"levelo_inurba_marseille","lat":43.27821,"lon":5.40711,"is_reserved":false,"is_disabled":false,"rental_uris":{"android":"levelo://app?vid=132790ef-ceed-44c2-a33f-0bd71b7e1cbe","ios":"levelo://app?vid=132790ef-ceed-44c2-a33f-0bd71b7e1cbe"},"vehicle_type_id":"4","last_reported":1750162890,"current_range_meters":16800,"station_id":"ce4bhnh2rcd13ifvqgtg","pricing_plan_id":"cebpf4jnsgd1na2vs0mg"},{"bike_id":"f6f31aa3-e91d-4bf1-9fdd-d2b77a513e1c","system_id":"levelo_inurba_marseille","lat":43.24087,"lon":5.37744,"is_reserved":false,"is_disabled":false,"rental_uris":{"android":"levelo://app?vid=f6f31aa3-e91d-4bf1-9fdd-d2b77a513e1c","ios":"levelo://app?vid=f6f31aa3-e91d-4bf1-9fdd-d2b77a513e1c"},"vehicle_type_id":"4","last_reported":1750162890,"current_range_meters":16800,"station_id":"ce4bhnp2rcd13ifvqgvg","pricing_plan_id":"cebpf4jnsgd1na2vs0mg"},{"bike_id":"8ce88c20-7164-4569-bf49-0f29de965c0b","system_id":"levelo_inurba_marseille","lat":43.28084,"lon":5.39625,"is_reserved":false,"is_disabled":false,"rental_uris":{"android":"levelo://app?vid=8ce88c20-7164-4569-bf49-0f29de965c0b","ios":"levelo://app?vid=8ce88c20-7164-4569-bf49-0f29de965c0b"},"vehicle_type_id":"4","last_reported":1750162890,"current_range_meters":16800,"station_id":"ce4bho12rcd13ifvqh2g","pricing_plan_id":"cebpf4jnsgd1na2vs0mg"},{"bike_id":"c6f6e5b7-832c-4edb-8720-8c101d6c4165","system_id":"levelo_inurba_marseille","lat":43.26937,"lon":5.40251,"is_reserved":false,"is_disabled":false,"rental_uris":{"android":"levelo://app?vid=c6f6e5b7-832c-4edb-8720-8c101d6c4165","ios":"levelo://app?vid=c6f6e5b7-832c-4edb-8720-8c101d6c4165"},"vehicle_type_id":"4","last_reported":1750162890,"current_range_meters":16800,"station_id":"cjm6bp8fraef2m0cb0m0","pricing_plan_id":"cebpf4jnsgd1na2vs0mg"},{"bike_id":"2b5ebc81-3f36-4e3a-8c5d-5c38fc0fcb31","system_id":"levelo_inurba_marseille","lat":43.275618,"lon":5.384248,"is_reserved":false,"is_disabled":false,"rental_uris":{"android":"levelo://app?vid=2b5ebc81-3f36-4e3a-8c5d-5c38fc0fcb31","ios":"levelo://app?vid=2b5ebc81-3f36-4e3a-8c5d-5c38fc0fcb31"},"vehicle_type_id":"4","last_reported":1750162890,"current_range_meters":17200,"station_id":"ce4bgi12rcd13ifvqb70","pricing_plan_id":"cebpf4jnsgd1na2vs0mg"},{"bike_id":"d03edb42-51e8-4fbd-9f2f-a1864ffdc8f5","system_id":"levelo_inurba_marseille","lat":43.29872,"lon":5.38914,"is_reserved":false,"is_disabled":false,"rental_uris":{"android":"levelo://app?vid=d03edb42-51e8-4fbd-9f2f-a1864ffdc8f5","ios":"levelo://app?vid=d03edb42-51e8-4fbd-9f2f-a1864ffdc8f5"},"vehicle_type_id":"4","last_reported":1750162890,"current_range_meters":17200,"station_id":"ce4bh392rcd13ifvqdl0","pricing_plan_id":"cebpf4jnsgd1na2vs0mg"},{"bike_id":"23fc72c8-71e4-41d3-bbb7-52def1eb1878","system_id":"levelo_inurba_marseille","lat":43.28862,"lon":5.35852,"is_reserved":false,"is_disabled":false,"rental_uris":{"android":"levelo://app?vid=23fc72c8-71e4-41d3-bbb7-52def1eb1878","ios":"levelo://app?vid=23fc72c8-71e4-41d3-bbb7-52def1eb1878"},"vehicle_type_id":"4","last_reported":1750162890,"current_range_meters":17200,"station_id":"ce4bhb12rcd13ifvqem0","pricing_plan_id":"cebpf4jnsgd1na2vs0mg"},{"bike_id":"a771ad52-246c-4d0c-9098-18920f5d0760","system_id":"levelo_inurba_marseille","lat":43.25943,"lon":5.40905,"is_reserved":false,"is_disabled":false,"rental_uris":{"android":"levelo://app?vid=a771ad52-246c-4d0c-9098-18920f5d0760","ios":"levelo://app?vid=a771ad52-246c-4d0c-9098-18920f5d0760"},"vehicle_type_id":"4","last_reported":1750162890,"current_range_meters":17200,"station_id":"ce4bhm92rcd13ifvqglg","pricing_plan_id":"cebpf4jnsgd1na2vs0mg"},{"bike_id":"99e77f60-a771-44ec-bd4c-544b62356f64","system_id":"levelo_inurba_marseille","lat":43.24084,"lon":5.37752,"is_reserved":false,"is_disabled":false,"rental_uris":{"android":"levelo://app?vid=99e77f60-a771-44ec-bd4c-544b62356f64","ios":"levelo://app?vid=99e77f60-a771-44ec-bd4c-544b62356f64"},"vehicle_type_id":"4","last_reported":1750162890,"current_range_meters":17200,"station_id":"ce4bhnp2rcd13ifvqgvg","pricing_plan_id":"cebpf4jnsgd1na2vs0mg"},{"bike_id":"2f0f7865-53e4-4955-8eb9-1bb98bf95595","system_id":"levelo_inurba_marseille","lat":43.31751,"lon":5.37586,"is_reserved":false,"is_disabled":false,"rental_uris":{"android":"levelo://app?vid=2f0f7865-53e4-4955-8eb9-1bb98bf95595","ios":"levelo://app?vid=2f0f7865-53e4-4955-8eb9-1bb98bf95595"},"vehicle_type_id":"4","last_reported":1750162890,"current_range_meters":17600,"station_id":"","pricing_plan_id":"cebpf4jnsgd1na2vs0mg"},{"bike_id":"de0bda34-41a6-4231-8ed4-c93e07fc3176","system_id":"levelo_inurba_marseille","lat":43.3263,"lon":5.37519,"is_reserved":false,"is_disabled":false,"rental_uris":{"android":"levelo://app?vid=de0bda34-41a6-4231-8ed4-c93e07fc3176","ios":"levelo://app?vid=de0bda34-41a6-4231-8ed4-c93e07fc3176"},"vehicle_type_id":"4","last_reported":1750162890,"current_range_meters":17600,"station_id":"","pricing_plan_id":"cebpf4jnsgd1na2vs0mg"},{"bike_id":"c3ac8bec-e191-41cc-944a-61017d5413fe","system_id":"levelo_inurba_marseille","lat":43.30305,"lon":5.36887,"is_reserved":false,"is_disabled":false,"rental_uris":{"android":"levelo://app?vid=c3ac8bec-e191-41cc-944a-61017d5413fe","ios":"levelo://app?vid=c3ac8bec-e191-41cc-944a-61017d5413fe"},"vehicle_type_id":"4","last_reported":1750162890,"current_range_meters":17600,"station_id":"ce4bgqh2rcd13ifvqc5g","pricing_plan_id":"cebpf4jnsgd1na2vs0mg"},{"bike_id":"ceb81bc1-e8a7-4bf4-9d8c-d1699f07cc19","system_id":"levelo_inurba_marseille","lat":43.30599,"lon":5.3936,"is_reserved":false,"is_disabled":false,"rental_uris":{"android":"levelo://app?vid=ceb81bc1-e8a7-4bf4-9d8c-d1699f07cc19","ios":"levelo://app?vid=ceb81bc1-e8a7-4bf4-9d8c-d1699f07cc19"},"vehicle_type_id":"4","last_reported":1750162890,"current_range_meters":17600,"station_id":"ce4bh0p2rcd13ifvqd80","pricing_plan_id":"cebpf4jnsgd1na2vs0mg"},{"bike_id":"06f920e5-9d55-47f7-b7b0-d072e85243cf","system_id":"levelo_inurba_marseille","lat":43.29796,"lon":5.40397,"is_reserved":false,"is_disabled":false,"rental_uris":{"android":"levelo://app?vid=06f920e5-9d55-47f7-b7b0-d072e85243cf","ios":"levelo://app?vid=06f920e5-9d55-47f7-b7b0-d072e85243cf"},"vehicle_type_id":"4","last_reported":1750162890,"current_range_meters":17600,"station_id":"ce4bh112rcd13ifvqd90","pricing_plan_id":"cebpf4jnsgd1na2vs0mg"},{"bike_id":"d781838d-bbf5-445a-b6c5-2dc37458052b","system_id":"levelo_inurba_marseille","lat":43.28262,"lon":5.35067,"is_reserved":false,"is_disabled":false,"rental_uris":{"android":"levelo://app?vid=d781838d-bbf5-445a-b6c5-2dc37458052b","ios":"levelo://app?vid=d781838d-bbf5-445a-b6c5-2dc37458052b"},"vehicle_type_id":"4","last_reported":1750162890,"current_range_meters":17600,"station_id":"ce4bhbp2rcd13ifvqerg","pricing_plan_id":"cebpf4jnsgd1na2vs0mg"},{"bike_id":"6c6ce972-4d4c-4210-922d-2711bd8ecabd","system_id":"levelo_inurba_marseille","lat":43.27066,"lon":5.40249,"is_reserved":false,"is_disabled":false,"rental_uris":{"android":"levelo://app?vid=6c6ce972-4d4c-4210-922d-2711bd8ecabd","ios":"levelo://app?vid=6c6ce972-4d4c-4210-922d-2711bd8ecabd"},"vehicle_type_id":"4","last_reported":1750162890,"current_range_meters":17600,"station_id":"ce4bhk92rcd13ifvqgc0","pricing_plan_id":"cebpf4jnsgd1na2vs0mg"},{"bike_id":"d8cca091-a0fe-4f51-8c26-021946b118f8","system_id":"levelo_inurba_marseille","lat":43.24176,"lon":5.3972,"is_reserved":false,"is_disabled":false,"rental_uris":{"android":"levelo://app?vid=d8cca091-a0fe-4f51-8c26-021946b118f8","ios":"levelo://app?vid=d8cca091-a0fe-4f51-8c26-021946b118f8"},"vehicle_type_id":"4","last_reported":1750162890,"current_range_meters":17600,"station_id":"ce4bhn12rcd13ifvqgpg","pricing_plan_id":"cebpf4jnsgd1na2vs0mg"},{"bike_id":"8752f1b7-2598-4daf-81a4-a4c4c23bd1f1","system_id":"levelo_inurba_marseille","lat":43.28438,"lon":5.39201,"is_reserved":false,"is_disabled":false,"rental_uris":{"android":"levelo://app?vid=8752f1b7-2598-4daf-81a4-a4c4c23bd1f1","ios":"levelo://app?vid=8752f1b7-2598-4daf-81a4-a4c4c23bd1f1"},"vehicle_type_id":"4","last_reported":1750162890,"current_range_meters":17600,"station_id":"ce4bhoh2rcd13ifvqh5g","pricing_plan_id":"cebpf4jnsgd1na2vs0mg"},{"bike_id":"f8362ca9-4613-44a9-974d-eebe86161a1c","system_id":"levelo_inurba_marseille","lat":43.23195,"lon":5.35569,"is_reserved":false,"is_disabled":false,"rental_uris":{"android":"levelo://app?vid=f8362ca9-4613-44a9-974d-eebe86161a1c","ios":"levelo://app?vid=f8362ca9-4613-44a9-974d-eebe86161a1c"},"vehicle_type_id":"4","last_reported":1750162890,"current_range_meters":17600,"station_id":"ce4bhu92rcd13ifvqi70","pricing_plan_id":"cebpf4jnsgd1na2vs0mg"},{"bike_id":"0fdc182e-0b16-455d-a406-68b7efeb0a33","system_id":"levelo_inurba_marseille","lat":43.2176,"lon":5.34595,"is_reserved":false,"is_disabled":false,"rental_uris":{"android":"levelo://app?vid=0fdc182e-0b16-455d-a406-68b7efeb0a33","ios":"levelo://app?vid=0fdc182e-0b16-455d-a406-68b7efeb0a33"},"vehicle_type_id":"4","last_reported":1750162890,"current_range_meters":18000,"station_id":"","pricing_plan_id":"cebpf4jnsgd1na2vs0mg"},{"bike_id":"4b8da722-ee9e-48a4-a5e5-3a8a10364708","system_id":"levelo_inurba_marseille","lat":43.31227,"lon":5.37801,"is_reserved":false,"is_disabled":false,"rental_uris":{"android":"levelo://app?vid=4b8da722-ee9e-48a4-a5e5-3a8a10364708","ios":"levelo://app?vid=4b8da722-ee9e-48a4-a5e5-3a8a10364708"},"vehicle_type_id":"4","last_reported":1750162890,"current_range_meters":18000,"station_id":"","pricing_plan_id":"cebpf4jnsgd1na2vs0mg"},{"bike_id":"4ce5b165-f22d-40cf-abd3-1cb294861955","system_id":"levelo_inurba_marseille","lat":43.21191,"lon":5.35077,"is_reserved":false,"is_disabled":false,"rental_uris":{"android":"levelo://app?vid=4ce5b165-f22d-40cf-abd3-1cb294861955","ios":"levelo://app?vid=4ce5b165-f22d-40cf-abd3-1cb294861955"},"vehicle_type_id":"4","last_reported":1750162890,"current_range_meters":18000,"station_id":"","pricing_plan_id":"cebpf4jnsgd1na2vs0mg"},{"bike_id":"7d6d83f6-3c62-4acb-a45b-ec2c706ed862","system_id":"levelo_inurba_marseille","lat":43.30913,"lon":5.36848,"is_reserved":false,"is_disabled":false,"rental_uris":{"android":"levelo://app?vid=7d6d83f6-3c62-4acb-a45b-ec2c706ed862","ios":"levelo://app?vid=7d6d83f6-3c62-4acb-a45b-ec2c706ed862"},"vehicle_type_id":"4","last_reported":1750162890,"current_range_meters":18000,"station_id":"ce4bgn92rcd13ifvqbvg","pricing_plan_id":"cebpf4jnsgd1na2vs0mg"},{"bike_id":"5b7c3cfc-d05e-4999-b669-dc11e23b557f","system_id":"levelo_inurba_marseille","lat":43.29257,"lon":5.36851,"is_reserved":false,"is_disabled":false,"rental_uris":{"android":"levelo://app?vid=5b7c3cfc-d05e-4999-b669-dc11e23b557f","ios":"levelo://app?vid=5b7c3cfc-d05e-4999-b669-dc11e23b557f"},"vehicle_type_id":"4","last_reported":1750162890,"current_range_meters":18000,"station_id":"ce4bhbp2rcd13ifvqesg","pricing_plan_id":"cebpf4jnsgd1na2vs0mg"},{"bike_id":"a19a9f31-1f31-4268-8484-22ff57209050","system_id":"levelo_inurba_marseille","lat":43.26568,"lon":5.39011,"is_reserved":false,"is_disabled":false,"rental_uris":{"android":"levelo://app?vid=a19a9f31-1f31-4268-8484-22ff57209050","ios":"levelo://app?vid=a19a9f31-1f31-4268-8484-22ff57209050"},"vehicle_type_id":"4","last_reported":1750162890,"current_range_meters":18000,"station_id":"ce4bhe12rcd13ifvqf30","pricing_plan_id":"cebpf4jnsgd1na2vs0mg"},{"bike_id":"ea77b429-6756-4877-a9aa-fb5769c12bba","system_id":"levelo_inurba_marseille","lat":43.2669,"lon":5.38271,"is_reserved":false,"is_disabled":false,"rental_uris":{"android":"levelo://app?vid=ea77b429-6756-4877-a9aa-fb5769c12bba","ios":"levelo://app?vid=ea77b429-6756-4877-a9aa-fb5769c12bba"},"vehicle_type_id":"4","last_reported":1750162890,"current_range_meters":18000,"station_id":"ce4bhg92rcd13ifvqf90","pricing_plan_id":"cebpf4jnsgd1na2vs0mg"},{"bike_id":"75359f04-b0f8-44e2-b49a-3bd75534bfb7","system_id":"levelo_inurba_marseille","lat":43.3248,"lon":5.36575,"is_reserved":false,"is_disabled":false,"rental_uris":{"android":"levelo://app?vid=75359f04-b0f8-44e2-b49a-3bd75534bfb7","ios":"levelo://app?vid=75359f04-b0f8-44e2-b49a-3bd75534bfb7"},"vehicle_type_id":"4","last_reported":1750162890,"current_range_meters":18000,"station_id":"ce4bhs12rcd13ifvqhvg","pricing_plan_id":"cebpf4jnsgd1na2vs0mg"},{"bike_id":"cc8086c3-023b-4662-b7ba-91199240f1a1","system_id":"levelo_inurba_marseille","lat":43.23064,"lon":5.35496,"is_reserved":false,"is_disabled":false,"rental_uris":{"android":"levelo://app?vid=cc8086c3-023b-4662-b7ba-91199240f1a1","ios":"levelo://app?vid=cc8086c3-023b-4662-b7ba-91199240f1a1"},"vehicle_type_id":"4","last_reported":1750162890,"current_range_meters":18000,"station_id":"cpo3342slgdg3j2ifvpg","pricing_plan_id":"cebpf4jnsgd1na2vs0mg"},{"bike_id":"4cda9327-46c6-426e-87dd-c291d5dc5ff7","system_id":"levelo_inurba_marseille","lat":43.21188,"lon":5.35082,"is_reserved":false,"is_disabled":false,"rental_uris":{"android":"levelo://app?vid=4cda9327-46c6-426e-87dd-c291d5dc5ff7","ios":"levelo://app?vid=4cda9327-46c6-426e-87dd-c291d5dc5ff7"},"vehicle_type_id":"4","last_reported":1750162890,"current_range_meters":18000,"station_id":"st_cvj6sg6p6f1abm77japg","pricing_plan_id":"cebpf4jnsgd1na2vs0mg"},{"bike_id":"4044121f-8112-4080-985e-ba2a383fbd39","system_id":"levelo_inurba_marseille","lat":43.312282,"lon":5.368438,"is_reserved":false,"is_disabled":false,"rental_uris":{"android":"levelo://app?vid=4044121f-8112-4080-985e-ba2a383fbd39","ios":"levelo://app?vid=4044121f-8112-4080-985e-ba2a383fbd39"},"vehicle_type_id":"4","last_reported":1750162890,"current_range_meters":18800,"station_id":"ce4bgl92rcd13ifvqbq0","pricing_plan_id":"cebpf4jnsgd1na2vs0mg"},{"bike_id":"8a709f57-ece0-4df0-9650-614d4077dd43","system_id":"levelo_inurba_marseille","lat":43.30958,"lon":5.39071,"is_reserved":false,"is_disabled":false,"rental_uris":{"android":"levelo://app?vid=8a709f57-ece0-4df0-9650-614d4077dd43","ios":"levelo://app?vid=8a709f57-ece0-4df0-9650-614d4077dd43"},"vehicle_type_id":"4","last_reported":1750162890,"current_range_meters":18800,"station_id":"ce4bgup2rcd13ifvqco0","pricing_plan_id":"cebpf4jnsgd1na2vs0mg"},{"bike_id":"742780b3-0844-4444-917e-c947d9e8e16e","system_id":"levelo_inurba_marseille","lat":43.29158,"lon":5.37163,"is_reserved":false,"is_disabled":false,"rental_uris":{"android":"levelo://app?vid=742780b3-0844-4444-917e-c947d9e8e16e","ios":"levelo://app?vid=742780b3-0844-4444-917e-c947d9e8e16e"},"vehicle_type_id":"4","last_reported":1750162890,"current_range_meters":18800,"station_id":"ce4bha92rcd13ifvqeh0","pricing_plan_id":"cebpf4jnsgd1na2vs0mg"},{"bike_id":"2a977167-669d-4e13-bcb2-d7bdb4c33fc6","system_id":"levelo_inurba_marseille","lat":43.24413,"lon":5.37057,"is_reserved":false,"is_disabled":false,"rental_uris":{"android":"levelo://app?vid=2a977167-669d-4e13-bcb2-d7bdb4c33fc6","ios":"levelo://app?vid=2a977167-669d-4e13-bcb2-d7bdb4c33fc6"},"vehicle_type_id":"4","last_reported":1750162890,"current_range_meters":18800,"station_id":"ce4bhhh2rcd13ifvqfk0","pricing_plan_id":"cebpf4jnsgd1na2vs0mg"},{"bike_id":"43c9ec49-f42d-4b26-bd27-97128f401b71","system_id":"levelo_inurba_marseille","lat":43.24076,"lon":5.37759,"is_reserved":false,"is_disabled":false,"rental_uris":{"android":"levelo://app?vid=43c9ec49-f42d-4b26-bd27-97128f401b71","ios":"levelo://app?vid=43c9ec49-f42d-4b26-bd27-97128f401b71"},"vehicle_type_id":"4","last_reported":1750162890,"current_range_meters":18800,"station_id":"ce4bhnp2rcd13ifvqgvg","pricing_plan_id":"cebpf4jnsgd1na2vs0mg"},{"bike_id":"8196fa73-344f-42fc-9223-ebf7722c68b9","system_id":"levelo_inurba_marseille","lat":43.24071,"lon":5.3776,"is_reserved":false,"is_disabled":false,"rental_uris":{"android":"levelo://app?vid=8196fa73-344f-42fc-9223-ebf7722c68b9","ios":"levelo://app?vid=8196fa73-344f-42fc-9223-ebf7722c68b9"},"vehicle_type_id":"4","last_reported":1750162890,"current_range_meters":18800,"station_id":"ce4bhnp2rcd13ifvqgvg","pricing_plan_id":"cebpf4jnsgd1na2vs0mg"},{"bike_id":"5cbdd979-131e-4b0a-a5c9-96ef156802c9","system_id":"levelo_inurba_marseille","lat":43.28412,"lon":5.39225,"is_reserved":false,"is_disabled":false,"rental_uris":{"android":"levelo://app?vid=5cbdd979-131e-4b0a-a5c9-96ef156802c9","ios":"levelo://app?vid=5cbdd979-131e-4b0a-a5c9-96ef156802c9"},"vehicle_type_id":"4","last_reported":1750162890,"current_range_meters":18800,"station_id":"ce4bhoh2rcd13ifvqh5g","pricing_plan_id":"cebpf4jnsgd1na2vs0mg"},{"bike_id":"653a05d9-205d-420f-b0c9-a638667f0917","system_id":"levelo_inurba_marseille","lat":43.2118,"lon":5.351,"is_reserved":false,"is_disabled":false,"rental_uris":{"android":"levelo://app?vid=653a05d9-205d-420f-b0c9-a638667f0917","ios":"levelo://app?vid=653a05d9-205d-420f-b0c9-a638667f0917"},"vehicle_type_id":"4","last_reported":1750162890,"current_range_meters":18800,"station_id":"st_cvj6sg6p6f1abm77japg","pricing_plan_id":"cebpf4jnsgd1na2vs0mg"},{"bike_id":"8ad9234e-001a-4549-8bba-9baf2ef98804","system_id":"levelo_inurba_marseille","lat":43.26701,"lon":5.4019,"is_reserved":false,"is_disabled":false,"rental_uris":{"android":"levelo://app?vid=8ad9234e-001a-4549-8bba-9baf2ef98804","ios":"levelo://app?vid=8ad9234e-001a-4549-8bba-9baf2ef98804"},"vehicle_type_id":"4","last_reported":1750162890,"current_range_meters":19200,"station_id":"","pricing_plan_id":"cebpf4jnsgd1na2vs0mg"},{"bike_id":"3a556026-c701-4f37-9192-c33892476639","system_id":"levelo_inurba_marseille","lat":43.21748,"lon":5.34606,"is_reserved":false,"is_disabled":false,"rental_uris":{"android":"levelo://app?vid=3a556026-c701-4f37-9192-c33892476639","ios":"levelo://app?vid=3a556026-c701-4f37-9192-c33892476639"},"vehicle_type_id":"4","last_reported":1750162890,"current_range_meters":19200,"station_id":"","pricing_plan_id":"cebpf4jnsgd1na2vs0mg"},{"bike_id":"15c8ae02-8e99-4704-aa0b-0b411ebbfdc4","system_id":"levelo_inurba_marseille","lat":43.3055,"lon":5.36631,"is_reserved":false,"is_disabled":false,"rental_uris":{"android":"levelo://app?vid=15c8ae02-8e99-4704-aa0b-0b411ebbfdc4","ios":"levelo://app?vid=15c8ae02-8e99-4704-aa0b-0b411ebbfdc4"},"vehicle_type_id":"4","last_reported":1750162890,"current_range_meters":19200,"station_id":"ce4bgs12rcd13ifvqcag","pricing_plan_id":"cebpf4jnsgd1na2vs0mg"},{"bike_id":"7fa74511-b265-4cf1-b60f-9690a22df1c4","system_id":"levelo_inurba_marseille","lat":43.28353,"lon":5.38106,"is_reserved":false,"is_disabled":false,"rental_uris":{"android":"levelo://app?vid=7fa74511-b265-4cf1-b60f-9690a22df1c4","ios":"levelo://app?vid=7fa74511-b265-4cf1-b60f-9690a22df1c4"},"vehicle_type_id":"4","last_reported":1750162890,"current_range_meters":19200,"station_id":"ce4bh412rcd13ifvqdr0","pricing_plan_id":"cebpf4jnsgd1na2vs0mg"},{"bike_id":"3a8877e4-eb06-4a4a-81a2-6b01fad1afcc","system_id":"levelo_inurba_marseille","lat":43.249924,"lon":5.389396,"is_reserved":false,"is_disabled":false,"rental_uris":{"android":"levelo://app?vid=3a8877e4-eb06-4a4a-81a2-6b01fad1afcc","ios":"levelo://app?vid=3a8877e4-eb06-4a4a-81a2-6b01fad1afcc"},"vehicle_type_id":"4","last_reported":1750162890,"current_range_meters":19200,"station_id":"ce4bhgp2rcd13ifvqfd0","pricing_plan_id":"cebpf4jnsgd1na2vs0mg"},{"bike_id":"b5df771f-0292-4acc-afde-88c7e4fb1865","system_id":"levelo_inurba_marseille","lat":43.24177,"lon":5.39747,"is_reserved":false,"is_disabled":false,"rental_uris":{"android":"levelo://app?vid=b5df771f-0292-4acc-afde-88c7e4fb1865","ios":"levelo://app?vid=b5df771f-0292-4acc-afde-88c7e4fb1865"},"vehicle_type_id":"4","last_reported":1750162890,"current_range_meters":19200,"station_id":"ce4bhn12rcd13ifvqgpg","pricing_plan_id":"cebpf4jnsgd1na2vs0mg"},{"bike_id":"268aafb4-1331-426c-97bc-a7d6564caeb6","system_id":"levelo_inurba_marseille","lat":43.32901,"lon":5.37938,"is_reserved":false,"is_disabled":false,"rental_uris":{"android":"levelo://app?vid=268aafb4-1331-426c-97bc-a7d6564caeb6","ios":"levelo://app?vid=268aafb4-1331-426c-97bc-a7d6564caeb6"},"vehicle_type_id":"4","last_reported":1750162890,"current_range_meters":19600,"station_id":"","pricing_plan_id":"cebpf4jnsgd1na2vs0mg"},{"bike_id":"7d637ca4-a634-42d1-9b45-120b1ec61cc1","system_id":"levelo_inurba_marseille","lat":43.312243,"lon":5.368622,"is_reserved":false,"is_disabled":false,"rental_uris":{"android":"levelo://app?vid=7d637ca4-a634-42d1-9b45-120b1ec61cc1","ios":"levelo://app?vid=7d637ca4-a634-42d1-9b45-120b1ec61cc1"},"vehicle_type_id":"4","last_reported":1750162890,"current_range_meters":19600,"station_id":"ce4bgl92rcd13ifvqbq0","pricing_plan_id":"cebpf4jnsgd1na2vs0mg"},{"bike_id":"ab441150-186c-4e1b-8122-702d76c85399","system_id":"levelo_inurba_marseille","lat":43.304609,"lon":5.379067,"is_reserved":false,"is_disabled":false,"rental_uris":{"android":"levelo://app?vid=ab441150-186c-4e1b-8122-702d76c85399","ios":"levelo://app?vid=ab441150-186c-4e1b-8122-702d76c85399"},"vehicle_type_id":"4","last_reported":1750162890,"current_range_meters":19600,"station_id":"ce4bgup2rcd13ifvqcn0","pricing_plan_id":"cebpf4jnsgd1na2vs0mg"},{"bike_id":"ed42a794-bac6-4119-8088-e27515344cd4","system_id":"levelo_inurba_marseille","lat":43.29031,"lon":5.38653,"is_reserved":false,"is_disabled":false,"rental_uris":{"android":"levelo://app?vid=ed42a794-bac6-4119-8088-e27515344cd4","ios":"levelo://app?vid=ed42a794-bac6-4119-8088-e27515344cd4"},"vehicle_type_id":"4","last_reported":1750162890,"current_range_meters":19600,"station_id":"ce4bh4p2rcd13ifvqe0g","pricing_plan_id":"cebpf4jnsgd1na2vs0mg"},{"bike_id":"31b99bbc-b7b5-49a0-8d6c-b936f46c7593","system_id":"levelo_inurba_marseille","lat":43.28478,"lon":5.38397,"is_reserved":false,"is_disabled":false,"rental_uris":{"android":"levelo://app?vid=31b99bbc-b7b5-49a0-8d6c-b936f46c7593","ios":"levelo://app?vid=31b99bbc-b7b5-49a0-8d6c-b936f46c7593"},"vehicle_type_id":"4","last_reported":1750162890,"current_range_meters":19600,"station_id":"ce4bh512rcd13ifvqe3g","pricing_plan_id":"cebpf4jnsgd1na2vs0mg"},{"bike_id":"8d8672f5-a668-4c19-82b4-1aa3c6e3959d","system_id":"levelo_inurba_marseille","lat":43.28412,"lon":5.34997,"is_reserved":false,"is_disabled":false,"rental_uris":{"android":"levelo://app?vid=8d8672f5-a668-4c19-82b4-1aa3c6e3959d","ios":"levelo://app?vid=8d8672f5-a668-4c19-82b4-1aa3c6e3959d"},"vehicle_type_id":"4","last_reported":1750162890,"current_range_meters":19600,"station_id":"ce4bhbh2rcd13ifvqepg","pricing_plan_id":"cebpf4jnsgd1na2vs0mg"},{"bike_id":"16be8df0-d0ed-41a9-bebc-deefb8ca0a8d","system_id":"levelo_inurba_marseille","lat":43.28257,"lon":5.35067,"is_reserved":false,"is_disabled":false,"rental_uris":{"android":"levelo://app?vid=16be8df0-d0ed-41a9-bebc-deefb8ca0a8d","ios":"levelo://app?vid=16be8df0-d0ed-41a9-bebc-deefb8ca0a8d"},"vehicle_type_id":"4","last_reported":1750162890,"current_range_meters":19600,"station_id":"ce4bhbp2rcd13ifvqerg","pricing_plan_id":"cebpf4jnsgd1na2vs0mg"},{"bike_id":"34011965-7337-4c76-bc6d-833dad6810be","system_id":"levelo_inurba_marseille","lat":43.26208,"lon":5.37465,"is_reserved":false,"is_disabled":false,"rental_uris":{"android":"levelo://app?vid=34011965-7337-4c76-bc6d-833dad6810be","ios":"levelo://app?vid=34011965-7337-4c76-bc6d-833dad6810be"},"vehicle_type_id":"4","last_reported":1750162890,"current_range_meters":19600,"station_id":"ce4bhgp2rcd13ifvqfc0","pricing_plan_id":"cebpf4jnsgd1na2vs0mg"},{"bike_id":"22cb1e82-295f-45ff-8b69-011548868819","system_id":"levelo_inurba_marseille","lat":43.26058,"lon":5.3938,"is_reserved":false,"is_disabled":false,"rental_uris":{"android":"levelo://app?vid=22cb1e82-295f-45ff-8b69-011548868819","ios":"levelo://app?vid=22cb1e82-295f-45ff-8b69-011548868819"},"vehicle_type_id":"4","last_reported":1750162890,"current_range_meters":19600,"station_id":"ce4bhh92rcd13ifvqfj0","pricing_plan_id":"cebpf4jnsgd1na2vs0mg"},{"bike_id":"8be5fb14-427e-46b1-80ce-e9c688e8ff19","system_id":"levelo_inurba_marseille","lat":43.25107,"lon":5.40331,"is_reserved":false,"is_disabled":false,"rental_uris":{"android":"levelo://app?vid=8be5fb14-427e-46b1-80ce-e9c688e8ff19","ios":"levelo://app?vid=8be5fb14-427e-46b1-80ce-e9c688e8ff19"},"vehicle_type_id":"4","last_reported":1750162890,"current_range_meters":19600,"station_id":"ce4bhlh2rcd13ifvqgig","pricing_plan_id":"cebpf4jnsgd1na2vs0mg"},{"bike_id":"a42bea11-7204-4721-bc75-a9d0581d59cf","system_id":"levelo_inurba_marseille","lat":43.24081,"lon":5.37757,"is_reserved":false,"is_disabled":false,"rental_uris":{"android":"levelo://app?vid=a42bea11-7204-4721-bc75-a9d0581d59cf","ios":"levelo://app?vid=a42bea11-7204-4721-bc75-a9d0581d59cf"},"vehicle_type_id":"4","last_reported":1750162890,"current_range_meters":19600,"station_id":"ce4bhnp2rcd13ifvqgvg","pricing_plan_id":"cebpf4jnsgd1na2vs0mg"},{"bike_id":"3eaf5d76-7bdb-454a-8e3f-54f986b432e6","system_id":"levelo_inurba_marseille","lat":43.31359,"lon":5.36725,"is_reserved":false,"is_disabled":false,"rental_uris":{"android":"levelo://app?vid=3eaf5d76-7bdb-454a-8e3f-54f986b432e6","ios":"levelo://app?vid=3eaf5d76-7bdb-454a-8e3f-54f986b432e6"},"vehicle_type_id":"4","last_reported":1750162890,"current_range_meters":20000,"station_id":"ce4bgr92rcd13ifvqc6g","pricing_plan_id":"cebpf4jnsgd1na2vs0mg"},{"bike_id":"bea5595f-dc4e-4787-a000-3ba86a97e39d","system_id":"levelo_inurba_marseille","lat":43.31343,"lon":5.36668,"is_reserved":false,"is_disabled":false,"rental_uris":{"android":"levelo://app?vid=bea5595f-dc4e-4787-a000-3ba86a97e39d","ios":"levelo://app?vid=bea5595f-dc4e-4787-a000-3ba86a97e39d"},"vehicle_type_id":"4","last_reported":1750162890,"current_range_meters":20000,"station_id":"ce4bgr92rcd13ifvqc6g","pricing_plan_id":"cebpf4jnsgd1na2vs0mg"},{"bike_id":"27163fe7-8360-47bf-9b9c-ee1c18076818","system_id":"levelo_inurba_marseille","lat":43.28568,"lon":5.39504,"is_reserved":false,"is_disabled":false,"rental_uris":{"android":"levelo://app?vid=27163fe7-8360-47bf-9b9c-ee1c18076818","ios":"levelo://app?vid=27163fe7-8360-47bf-9b9c-ee1c18076818"},"vehicle_type_id":"4","last_reported":1750162890,"current_range_meters":20000,"station_id":"ce4bh292rcd13ifvqdg0","pricing_plan_id":"cebpf4jnsgd1na2vs0mg"},{"bike_id":"1c724053-b460-4aee-a0dc-bd4b9a89ec38","system_id":"levelo_inurba_marseille","lat":43.23151,"lon":5.43745,"is_reserved":false,"is_disabled":false,"rental_uris":{"android":"levelo://app?vid=1c724053-b460-4aee-a0dc-bd4b9a89ec38","ios":"levelo://app?vid=1c724053-b460-4aee-a0dc-bd4b9a89ec38"},"vehicle_type_id":"4","last_reported":1750162890,"current_range_meters":20000,"station_id":"ce4bhmp2rcd13ifvqgog","pricing_plan_id":"cebpf4jnsgd1na2vs0mg"},{"bike_id":"974151d0-3ebe-443b-ba3c-74ef84e4c3dc","system_id":"levelo_inurba_marseille","lat":43.24071,"lon":5.37765,"is_reserved":false,"is_disabled":false,"rental_uris":{"android":"levelo://app?vid=974151d0-3ebe-443b-ba3c-74ef84e4c3dc","ios":"levelo://app?vid=974151d0-3ebe-443b-ba3c-74ef84e4c3dc"},"vehicle_type_id":"4","last_reported":1750162890,"current_range_meters":20000,"station_id":"ce4bhnp2rcd13ifvqgvg","pricing_plan_id":"cebpf4jnsgd1na2vs0mg"},{"bike_id":"a3d1bfc5-7768-4fea-abd9-657a35b40ca4","system_id":"levelo_inurba_marseille","lat":43.24081,"lon":5.37755,"is_reserved":false,"is_disabled":false,"rental_uris":{"android":"levelo://app?vid=a3d1bfc5-7768-4fea-abd9-657a35b40ca4","ios":"levelo://app?vid=a3d1bfc5-7768-4fea-abd9-657a35b40ca4"},"vehicle_type_id":"4","last_reported":1750162890,"current_range_meters":20000,"station_id":"ce4bhnp2rcd13ifvqgvg","pricing_plan_id":"cebpf4jnsgd1na2vs0mg"},{"bike_id":"c7706ddd-19c4-44aa-8e92-38a6a4bfc45d","system_id":"levelo_inurba_marseille","lat":43.284424,"lon":5.391997,"is_reserved":false,"is_disabled":false,"rental_uris":{"android":"levelo://app?vid=c7706ddd-19c4-44aa-8e92-38a6a4bfc45d","ios":"levelo://app?vid=c7706ddd-19c4-44aa-8e92-38a6a4bfc45d"},"vehicle_type_id":"4","last_reported":1750162890,"current_range_meters":20000,"station_id":"ce4bhoh2rcd13ifvqh5g","pricing_plan_id":"cebpf4jnsgd1na2vs0mg"},{"bike_id":"744cf4fa-bb14-4576-929f-2f6effc633c9","system_id":"levelo_inurba_marseille","lat":43.29434,"lon":5.43261,"is_reserved":false,"is_disabled":false,"rental_uris":{"android":"levelo://app?vid=744cf4fa-bb14-4576-929f-2f6effc633c9","ios":"levelo://app?vid=744cf4fa-bb14-4576-929f-2f6effc633c9"},"vehicle_type_id":"4","last_reported":1750162890,"current_range_meters":20400,"station_id":"","pricing_plan_id":"cebpf4jnsgd1na2vs0mg"},{"bike_id":"f589e6c3-f100-497f-9faf-1c738864bdaf","system_id":"levelo_inurba_marseille","lat":43.2827,"lon":5.35063,"is_reserved":false,"is_disabled":false,"rental_uris":{"android":"levelo://app?vid=f589e6c3-f100-497f-9faf-1c738864bdaf","ios":"levelo://app?vid=f589e6c3-f100-497f-9faf-1c738864bdaf"},"vehicle_type_id":"4","last_reported":1750162890,"current_range_meters":20400,"station_id":"ce4bhbp2rcd13ifvqerg","pricing_plan_id":"cebpf4jnsgd1na2vs0mg"},{"bike_id":"456e3e01-d483-4af3-ad8c-fac20db5c110","system_id":"levelo_inurba_marseille","lat":43.24157,"lon":5.3979,"is_reserved":false,"is_disabled":false,"rental_uris":{"android":"levelo://app?vid=456e3e01-d483-4af3-ad8c-fac20db5c110","ios":"levelo://app?vid=456e3e01-d483-4af3-ad8c-fac20db5c110"},"vehicle_type_id":"4","last_reported":1750162890,"current_range_meters":20400,"station_id":"ce4bhn12rcd13ifvqgpg","pricing_plan_id":"cebpf4jnsgd1na2vs0mg"},{"bike_id":"fcbef9c6-84a3-42f4-92d5-ca097e20762b","system_id":"levelo_inurba_marseille","lat":43.26764,"lon":5.39498,"is_reserved":false,"is_disabled":false,"rental_uris":{"android":"levelo://app?vid=fcbef9c6-84a3-42f4-92d5-ca097e20762b","ios":"levelo://app?vid=fcbef9c6-84a3-42f4-92d5-ca097e20762b"},"vehicle_type_id":"4","last_reported":1750162890,"current_range_meters":20800,"station_id":"","pricing_plan_id":"cebpf4jnsgd1na2vs0mg"},{"bike_id":"7ab828d7-bff8-42f2-a98a-78f3ebd2297f","system_id":"levelo_inurba_marseille","lat":43.255067,"lon":5.376317,"is_reserved":false,"is_disabled":false,"rental_uris":{"android":"levelo://app?vid=7ab828d7-bff8-42f2-a98a-78f3ebd2297f","ios":"levelo://app?vid=7ab828d7-bff8-42f2-a98a-78f3ebd2297f"},"vehicle_type_id":"4","last_reported":1750162890,"current_range_meters":20800,"station_id":"ce4bhh12rcd13ifvqff0","pricing_plan_id":"cebpf4jnsgd1na2vs0mg"},{"bike_id":"ff9253f2-8837-42aa-afb4-5895d78323e2","system_id":"levelo_inurba_marseille","lat":43.28698,"lon":5.39998,"is_reserved":false,"is_disabled":false,"rental_uris":{"android":"levelo://app?vid=ff9253f2-8837-42aa-afb4-5895d78323e2","ios":"levelo://app?vid=ff9253f2-8837-42aa-afb4-5895d78323e2"},"vehicle_type_id":"4","last_reported":1750162890,"current_range_meters":20800,"station_id":"ce4bho92rcd13ifvqh3g","pricing_plan_id":"cebpf4jnsgd1na2vs0mg"},{"bike_id":"61185e51-def2-4557-89b9-f06c340ff2e2","system_id":"levelo_inurba_marseille","lat":43.21184,"lon":5.35123,"is_reserved":false,"is_disabled":false,"rental_uris":{"android":"levelo://app?vid=61185e51-def2-4557-89b9-f06c340ff2e2","ios":"levelo://app?vid=61185e51-def2-4557-89b9-f06c340ff2e2"},"vehicle_type_id":"4","last_reported":1750162890,"current_range_meters":20800,"station_id":"st_cvj6sg6p6f1abm77japg","pricing_plan_id":"cebpf4jnsgd1na2vs0mg"},{"bike_id":"07b772c1-7da4-4726-b18c-9c7918a9b778","system_id":"levelo_inurba_marseille","lat":43.281,"lon":5.37838,"is_reserved":false,"is_disabled":false,"rental_uris":{"android":"levelo://app?vid=07b772c1-7da4-4726-b18c-9c7918a9b778","ios":"levelo://app?vid=07b772c1-7da4-4726-b18c-9c7918a9b778"},"vehicle_type_id":"4","last_reported":1750162890,"current_range_meters":21600,"station_id":"ce4bha12rcd13ifvqee0","pricing_plan_id":"cebpf4jnsgd1na2vs0mg"},{"bike_id":"2d011489-3a50-4137-8707-13a2dba13148","system_id":"levelo_inurba_marseille","lat":43.25929,"lon":5.40884,"is_reserved":false,"is_disabled":false,"rental_uris":{"android":"levelo://app?vid=2d011489-3a50-4137-8707-13a2dba13148","ios":"levelo://app?vid=2d011489-3a50-4137-8707-13a2dba13148"},"vehicle_type_id":"4","last_reported":1750162890,"current_range_meters":21600,"station_id":"ce4bhm92rcd13ifvqglg","pricing_plan_id":"cebpf4jnsgd1na2vs0mg"},{"bike_id":"aebd12da-766f-4242-a9f6-9430df140b4c","system_id":"levelo_inurba_marseille","lat":43.24165,"lon":5.39707,"is_reserved":false,"is_disabled":false,"rental_uris":{"android":"levelo://app?vid=aebd12da-766f-4242-a9f6-9430df140b4c","ios":"levelo://app?vid=aebd12da-766f-4242-a9f6-9430df140b4c"},"vehicle_type_id":"4","last_reported":1750162890,"current_range_meters":21600,"station_id":"ce4bhn12rcd13ifvqgpg","pricing_plan_id":"cebpf4jnsgd1na2vs0mg"},{"bike_id":"16c87cf5-1f53-47ca-9701-5e9d1df22075","system_id":"levelo_inurba_marseille","lat":43.23184,"lon":5.39989,"is_reserved":false,"is_disabled":false,"rental_uris":{"android":"levelo://app?vid=16c87cf5-1f53-47ca-9701-5e9d1df22075","ios":"levelo://app?vid=16c87cf5-1f53-47ca-9701-5e9d1df22075"},"vehicle_type_id":"4","last_reported":1750162890,"current_range_meters":21600,"station_id":"ce4bhn12rcd13ifvqgqg","pricing_plan_id":"cebpf4jnsgd1na2vs0mg"},{"bike_id":"b3cdad6c-556d-4119-8fdf-c1d641f91c60","system_id":"levelo_inurba_marseille","lat":43.24079,"lon":5.37761,"is_reserved":false,"is_disabled":false,"rental_uris":{"android":"levelo://app?vid=b3cdad6c-556d-4119-8fdf-c1d641f91c60","ios":"levelo://app?vid=b3cdad6c-556d-4119-8fdf-c1d641f91c60"},"vehicle_type_id":"4","last_reported":1750162890,"current_range_meters":21600,"station_id":"ce4bhnp2rcd13ifvqgvg","pricing_plan_id":"cebpf4jnsgd1na2vs0mg"},{"bike_id":"1d226aaf-0f48-4ae0-8347-f0f6f55f2bb6","system_id":"levelo_inurba_marseille","lat":43.28268,"lon":5.35074,"is_reserved":false,"is_disabled":false,"rental_uris":{"android":"levelo://app?vid=1d226aaf-0f48-4ae0-8347-f0f6f55f2bb6","ios":"levelo://app?vid=1d226aaf-0f48-4ae0-8347-f0f6f55f2bb6"},"vehicle_type_id":"4","last_reported":1750162890,"current_range_meters":22000,"station_id":"ce4bhbp2rcd13ifvqerg","pricing_plan_id":"cebpf4jnsgd1na2vs0mg"},{"bike_id":"bd726b04-590b-469e-95dd-44dd959c2275","system_id":"levelo_inurba_marseille","lat":43.26789,"lon":5.3942,"is_reserved":false,"is_disabled":false,"rental_uris":{"android":"levelo://app?vid=bd726b04-590b-469e-95dd-44dd959c2275","ios":"levelo://app?vid=bd726b04-590b-469e-95dd-44dd959c2275"},"vehicle_type_id":"4","last_reported":1750162890,"current_range_meters":22000,"station_id":"ce4bhh12rcd13ifvqfg0","pricing_plan_id":"cebpf4jnsgd1na2vs0mg"},{"bike_id":"0bfd102e-1051-4eca-850e-072e5a1c5409","system_id":"levelo_inurba_marseille","lat":43.33716,"lon":5.39193,"is_reserved":false,"is_disabled":false,"rental_uris":{"android":"levelo://app?vid=0bfd102e-1051-4eca-850e-072e5a1c5409","ios":"levelo://app?vid=0bfd102e-1051-4eca-850e-072e5a1c5409"},"vehicle_type_id":"4","last_reported":1750162890,"current_range_meters":22000,"station_id":"ce4bhr92rcd13ifvqhsg","pricing_plan_id":"cebpf4jnsgd1na2vs0mg"},