{"last_updated":1741872012,"ttl":60,"version":"2.2","data":{"bikes":[{"bike_id":"a6f5671e-0abb-4a30-9466-bb58614d716a","system_id":"levelo_inurba_marseille","lat":43.30891,"lon":5.39644,"is_reserved":false,"is_disabled":false,"rental_uris":{"android":"levelo://app?vid=a6f5671e-0abb-4a30-9466-bb58614d716a","ios":"levelo://app?vid=a6f5671e-0abb-4a30-9466-bb58614d716a"},"vehicle_type_id":"4","last_reported":1741872012,"current_range_meters":3200,"station_id":"ce4bh012rcd13ifvqcv0","pricing_plan_id":"cebpf4jnsgd1na2vs0mg"},{"bike_id":"1d1290cf-da89-4e5e-9676-250f65cf5c33","system_id":"levelo_inurba_marseille","lat":43.29551,"lon":5.42279,"is_reserved":false,"is_disabled":false,"rental_uris":{"android":"levelo://app?vid=1d1290cf-da89-4e5e-9676-250f65cf5c33","ios":"levelo://app?vid=1d1290cf-da89-4e5e-9676-250f65cf5c33"},"vehicle_type_id":"4","last_reported":1741872012,"current_range_meters":2800,"station_id":"ce4bhph2rcd13ifvqhdg","pricing_plan_id":"cebpf4jnsgd1na2vs0mg"},{"bike_id":"be1443e8-5c9b-4421-b4bc-456f16aed568","system_id":"levelo_inurba_marseille","lat":43.29444,"lon":5.39754,"is_reserved":false,"is_disabled":false,"rental_uris":{"android":"levelo://app?vid=be1443e8-5c9b-4421-b4bc-456f16aed568","ios":"levelo://app?vid=be1443e8-5c9b-4421-b4bc-456f16aed568"},"vehicle_type_id":"4","last_reported":1741872012,"current_range_meters":2800,"station_id":"ce4bh3h2rcd13ifvqdo0","pricing_plan_id":"cebpf4jnsgd1na2vs0mg"},{"bike_id":"6ca08143-9d43-4f95-bd08-77d3bf37c3fe","system_id":"levelo_inurba_marseille","lat":43.31336,"lon":5.36745,"is_reserved":false,"is_disabled":false,"rental_uris":{"android":"levelo://app?vid=6ca08143-9d43-4f95-bd08-77d3bf37c3fe","ios":"levelo://app?vid=6ca08143-9d43-4f95-bd08-77d3bf37c3fe"},"vehicle_type_id":"4","last_reported":1741872012,"current_range_meters":3200,"station_id":"ce4bgr92rcd13ifvqc6g","pricing_plan_id":"cebpf4jnsgd1na2vs0mg"},{"bike_id":"31925a5d-9226-49bf-9e66-3d71a1eaae74","system_id":"levelo_inurba_marseille","lat":43.27212,"lon":5.3918,"is_reserved":false,"is_disabled":false,"rental_uris":{"android":"levelo://app?vid=31925a5d-9226-49bf-9e66-3d71a1eaae74","ios":"levelo://app?vid=31925a5d-9226-49bf-9e66-3d71a1eaae74"},"vehicle_type_id":"4","last_reported":1741872012,"current_range_meters":3200,"station_id":"ce4bhhp2rcd13ifvqfm0","pricing_plan_id":"cebpf4jnsgd1na2vs0mg"},{"bike_id":"c29dc4a6-5df7-4d4e-879a-59bdb58cd207","system_id":"levelo_inurba_marseille","lat":43.33359,"lon":5.39653,"is_reserved":false,"is_disabled":false,"rental_uris":{"android":"levelo://app?vid=c29dc4a6-5df7-4d4e-879a-59bdb58cd207","ios":"levelo://app?vid=c29dc4a6-5df7-4d4e-879a-59bdb58cd207"},"vehicle_type_id":"4","last_reported":1741872012,"current_range_meters":3600,"station_id":"","pricing_plan_id":"cebpf4jnsgd1na2vs0mg"},{"bike_id":"9d87ad49-b8f9-4d84-b258-c7331abbbb40","system_id":"levelo_inurba_marseille","lat":43.32538,"lon":5.41445,"is_reserved":false,"is_disabled":false,"rental_uris":{"android":"levelo://app?vid=9d87ad49-b8f9-4d84-b258-c7331abbbb40","ios":"levelo://app?vid=9d87ad49-b8f9-4d84-b258-c7331abbbb40"},"vehicle_type_id":"4","last_reported":1741872012,"current_range_meters":3600,"station_id":"ce4bhq12rcd13ifvqhhg","pricing_plan_id":"cebpf4jnsgd1na2vs0mg"},{"bike_id":"0b10bdb0-0e56-4a3f-afa9-9b00f497b1d2","system_id":"levelo_inurba_marseille","lat":43.28363,"lon":5.38267,"is_reserved":false,"is_disabled":false,"rental_uris":{"android":"levelo://app?vid=0b10bdb0-0e56-4a3f-afa9-9b00f497b1d2","ios":"levelo://app?vid=0b10bdb0-0e56-4a3f-afa9-9b00f497b1d2"},"vehicle_type_id":"4","last_reported":1741872012,"current_range_meters":3600,"station_id":"ce4bh8p2rcd13ifvqeb0","pricing_plan_id":"cebpf4jnsgd1na2vs0mg"},{"bike_id":"aaf82c25-b642-4dcf-a800-9a0b8952e9d8","system_id":"levelo_inurba_marseille","lat":43.29865,"lon":5.3973,"is_reserved":false,"is_disabled":false,"rental_uris":{"android":"levelo://app?vid=aaf82c25-b642-4dcf-a800-9a0b8952e9d8","ios":"levelo://app?vid=aaf82c25-b642-4dcf-a800-9a0b8952e9d8"},"vehicle_type_id":"4","last_reported":1741872012,"current_range_meters":4000,"station_id":"ce4bh0h2rcd13ifvqd50","pricing_plan_id":"cebpf4jnsgd1na2vs0mg"},{"bike_id":"8ce5ecf3-7703-4088-b4c1-823a1c5e8675","system_id":"levelo_inurba_marseille","lat":43.2979,"lon":5.38098,"is_reserved":false,"is_disabled":false,"rental_uris":{"android":"levelo://app?vid=8ce5ecf3-7703-4088-b4c1-823a1c5e8675","ios":"levelo://app?vid=8ce5ecf3-7703-4088-b4c1-823a1c5e8675"},"vehicle_type_id":"4","last_reported":1741872012,"current_range_meters":4000,"station_id":"ce4bgip2rcd13ifvqbb0","pricing_plan_id":"cebpf4jnsgd1na2vs0mg"},{"bike_id":"55dc750d-f370-4c1e-97f6-b400dd9ac846","system_id":"levelo_inurba_marseille","lat":43.28351,"lon":5.381,"is_reserved":false,"is_disabled":false,"rental_uris":{"android":"levelo://app?vid=55dc750d-f370-4c1e-97f6-b400dd9ac846","ios":"levelo://app?vid=55dc750d-f370-4c1e-97f6-b400dd9ac846"},"vehicle_type_id":"4","last_reported":1741872012,"current_range_meters":4000,"station_id":"ce4bh412rcd13ifvqdr0","pricing_plan_id":"cebpf4jnsgd1na2vs0mg"},{"bike_id":"b8f9d267-d48f-48cb-8919-9af992e0f1f5","system_id":"levelo_inurba_marseille","lat":43.33185,"lon":5.39488,"is_reserved":false,"is_disabled":false,"rental_uris":{"android":"levelo://app?vid=b8f9d267-d48f-48cb-8919-9af992e0f1f5","ios":"levelo://app?vid=b8f9d267-d48f-48cb-8919-9af992e0f1f5"},"vehicle_type_id":"4","last_reported":1741872012,"current_range_meters":4400,"station_id":"","pricing_plan_id":"cebpf4jnsgd1na2vs0mg"},{"bike_id":"cd18e0c0-304a-442d-9f39-9bcb1549b7a5","system_id":"levelo_inurba_marseille","lat":43.27933,"lon":5.41046,"is_reserved":false,"is_disabled":false,"rental_uris":{"android":"levelo://app?vid=cd18e0c0-304a-442d-9f39-9bcb1549b7a5","ios":"levelo://app?vid=cd18e0c0-304a-442d-9f39-9bcb1549b7a5"},"vehicle_type_id":"4","last_reported":1741872012,"current_range_meters":4400,"station_id":"ce4bhnp2rcd13ifvqh0g","pricing_plan_id":"cebpf4jnsgd1na2vs0mg"},{"bike_id":"6e3fe187-e764-4eae-9010-e17a2730acd6","system_id":"levelo_inurba_marseille","lat":43.3137,"lon":5.36763,"is_reserved":false,"is_disabled":false,"rental_uris":{"android":"levelo://app?vid=6e3fe187-e764-4eae-9010-e17a2730acd6","ios":"levelo://app?vid=6e3fe187-e764-4eae-9010-e17a2730acd6"},"vehicle_type_id":"4","last_reported":1741872012,"current_range_meters":4800,"station_id":"ce4bgr92rcd13ifvqc6g","pricing_plan_id":"cebpf4jnsgd1na2vs0mg"},{"bike_id":"94034bc0-8063-4d44-87f5-4179a31cabe3","system_id":"levelo_inurba_marseille","lat":43.33609,"lon":5.41033,"is_reserved":false,"is_disabled":false,"rental_uris":{"android":"levelo://app?vid=94034bc0-8063-4d44-87f5-4179a31cabe3","ios":"levelo://app?vid=94034bc0-8063-4d44-87f5-4179a31cabe3"},"vehicle_type_id":"4","last_reported":1741872012,"current_range_meters":4800,"station_id":"ce4bhqh2rcd13ifvqhmg","pricing_plan_id":"cebpf4jnsgd1na2vs0mg"},{"bike_id":"ee50a542-2bd9-4608-b916-1115a5e50110","system_id":"levelo_inurba_marseille","lat":43.32477,"lon":5.36561,"is_reserved":false,"is_disabled":false,"rental_uris":{"android":"levelo://app?vid=ee50a542-2bd9-4608-b916-1115a5e50110","ios":"levelo://app?vid=ee50a542-2bd9-4608-b916-1115a5e50110"},"vehicle_type_id":"4","last_reported":1741872012,"current_range_meters":4800,"station_id":"ce4bhs12rcd13ifvqhvg","pricing_plan_id":"cebpf4jnsgd1na2vs0mg"},{"bike_id":"58c5e8c6-6e3e-4bac-b702-9219905970c2","system_id":"levelo_inurba_marseille","lat":43.23193,"lon":5.355603,"is_reserved":false,"is_disabled":false,"rental_uris":{"android":"levelo://app?vid=58c5e8c6-6e3e-4bac-b702-9219905970c2","ios":"levelo://app?vid=58c5e8c6-6e3e-4bac-b702-9219905970c2"},"vehicle_type_id":"4","last_reported":1741872012,"current_range_meters":4800,"station_id":"ce4bhu92rcd13ifvqi70","pricing_plan_id":"cebpf4jnsgd1na2vs0mg"},{"bike_id":"b7750009-6836-4f4d-8e60-d86893e18e14","system_id":"levelo_inurba_marseille","lat":43.31052,"lon":5.37115,"is_reserved":false,"is_disabled":false,"rental_uris":{"android":"levelo://app?vid=b7750009-6836-4f4d-8e60-d86893e18e14","ios":"levelo://app?vid=b7750009-6836-4f4d-8e60-d86893e18e14"},"vehicle_type_id":"4","last_reported":1741872012,"current_range_meters":4800,"station_id":"","pricing_plan_id":"cebpf4jnsgd1na2vs0mg"},{"bike_id":"db2bdd25-d774-4bf6-87f5-1c5357cf7d5a","system_id":"levelo_inurba_marseille","lat":43.28327,"lon":5.38115,"is_reserved":false,"is_disabled":false,"rental_uris":{"android":"levelo://app?vid=db2bdd25-d774-4bf6-87f5-1c5357cf7d5a","ios":"levelo://app?vid=db2bdd25-d774-4bf6-87f5-1c5357cf7d5a"},"vehicle_type_id":"4","last_reported":1741872012,"current_range_meters":4800,"station_id":"ce4bh412rcd13ifvqdr0","pricing_plan_id":"cebpf4jnsgd1na2vs0mg"},{"bike_id":"d099896f-ad35-4181-948a-4d3f20333eb7","system_id":"levelo_inurba_marseille","lat":43.306213,"lon":5.365783,"is_reserved":false,"is_disabled":false,"rental_uris":{"android":"levelo://app?vid=d099896f-ad35-4181-948a-4d3f20333eb7","ios":"levelo://app?vid=d099896f-ad35-4181-948a-4d3f20333eb7"},"vehicle_type_id":"4","last_reported":1741872012,"current_range_meters":5600,"station_id":"ce4bgn12rcd13ifvqbt0","pricing_plan_id":"cebpf4jnsgd1na2vs0mg"},{"bike_id":"91919df0-a609-4174-9c4e-96f0a7ea657d","system_id":"levelo_inurba_marseille","lat":43.26589,"lon":5.39048,"is_reserved":false,"is_disabled":false,"rental_uris":{"android":"levelo://app?vid=91919df0-a609-4174-9c4e-96f0a7ea657d","ios":"levelo://app?vid=91919df0-a609-4174-9c4e-96f0a7ea657d"},"vehicle_type_id":"4","last_reported":1741872012,"current_range_meters":5600,"station_id":"ce4bhe12rcd13ifvqf30","pricing_plan_id":"cebpf4jnsgd1na2vs0mg"},{"bike_id":"496cf118-d66c-41cb-ab0b-5059d7b73b2f","system_id":"levelo_inurba_marseille","lat":43.320801,"lon":5.367639,"is_reserved":false,"is_disabled":false,"rental_uris":{"android":"levelo://app?vid=496cf118-d66c-41cb-ab0b-5059d7b73b2f","ios":"levelo://app?vid=496cf118-d66c-41cb-ab0b-5059d7b73b2f"},"vehicle_type_id":"4","last_reported":1741872012,"current_range_meters":5600,"station_id":"","pricing_plan_id":"cebpf4jnsgd1na2vs0mg"},{"bike_id":"5fc825e4-29fb-4b44-b27c-c4a9b5f82ac6","system_id":"levelo_inurba_marseille","lat":43.29532,"lon":5.38556,"is_reserved":false,"is_disabled":false,"rental_uris":{"android":"levelo://app?vid=5fc825e4-29fb-4b44-b27c-c4a9b5f82ac6","ios":"levelo://app?vid=5fc825e4-29fb-4b44-b27c-c4a9b5f82ac6"},"vehicle_type_id":"4","last_reported":1741872012,"current_range_meters":5600,"station_id":"ce4bgih2rcd13ifvqba0","pricing_plan_id":"cebpf4jnsgd1na2vs0mg"},{"bike_id":"f871e1ed-89aa-49e2-a608-241380b8bb49","system_id":"levelo_inurba_marseille","lat":43.24066,"lon":5.37738,"is_reserved":false,"is_disabled":false,"rental_uris":{"android":"levelo://app?vid=f871e1ed-89aa-49e2-a608-241380b8bb49","ios":"levelo://app?vid=f871e1ed-89aa-49e2-a608-241380b8bb49"},"vehicle_type_id":"4","last_reported":1741872012,"current_range_meters":5600,"station_id":"ce4bhnp2rcd13ifvqgvg","pricing_plan_id":"cebpf4jnsgd1na2vs0mg"},{"bike_id":"e8f489b7-d4f0-43fb-8e13-066a797660fd","system_id":"levelo_inurba_marseille","lat":43.32362,"lon":5.3676,"is_reserved":false,"is_disabled":false,"rental_uris":{"android":"levelo://app?vid=e8f489b7-d4f0-43fb-8e13-066a797660fd","ios":"levelo://app?vid=e8f489b7-d4f0-43fb-8e13-066a797660fd"},"vehicle_type_id":"4","last_reported":1741872012,"current_range_meters":5600,"station_id":"ce4bhsh2rcd13ifvqi2g","pricing_plan_id":"cebpf4jnsgd1na2vs0mg"},{"bike_id":"42fa512b-feb0-4c3c-ad4f-95c57ac75c75","system_id":"levelo_inurba_marseille","lat":43.27977,"lon":5.3866,"is_reserved":false,"is_disabled":false,"rental_uris":{"android":"levelo://app?vid=42fa512b-feb0-4c3c-ad4f-95c57ac75c75","ios":"levelo://app?vid=42fa512b-feb0-4c3c-ad4f-95c57ac75c75"},"vehicle_type_id":"4","last_reported":1741872012,"current_range_meters":5600,"station_id":"ce4bhg12rcd13ifvqf80","pricing_plan_id":"cebpf4jnsgd1na2vs0mg"},{"bike_id":"bd281108-88fe-41c2-9e30-8c87bd7ba00e","system_id":"levelo_inurba_marseille","lat":43.23151,"lon":5.43721,"is_reserved":false,"is_disabled":false,"rental_uris":{"android":"levelo://app?vid=bd281108-88fe-41c2-9e30-8c87bd7ba00e","ios":"levelo://app?vid=bd281108-88fe-41c2-9e30-8c87bd7ba00e"},"vehicle_type_id":"4","last_reported":1741872012,"current_range_meters":6000,"station_id":"ce4bhmp2rcd13ifvqgog","pricing_plan_id":"cebpf4jnsgd1na2vs0mg"},{"bike_id":"5484eded-6e0d-4e04-b6be-ebaa2f78310d","system_id":"levelo_inurba_marseille","lat":43.26683,"lon":5.3826,"is_reserved":false,"is_disabled":false,"rental_uris":{"android":"levelo://app?vid=5484eded-6e0d-4e04-b6be-ebaa2f78310d","ios":"levelo://app?vid=5484eded-6e0d-4e04-b6be-ebaa2f78310d"},"vehicle_type_id":"4","last_reported":1741872012,"current_range_meters":6000,"station_id":"ce4bhg92rcd13ifvqf90","pricing_plan_id":"cebpf4jnsgd1na2vs0mg"},{"bike_id":"8104a5eb-8745-4911-a3a5-da03fbb24c3d","system_id":"levelo_inurba_marseille","lat":43.25729,"lon":5.41111,"is_reserved":false,"is_disabled":false,"rental_uris":{"android":"levelo://app?vid=8104a5eb-8745-4911-a3a5-da03fbb24c3d","ios":"levelo://app?vid=8104a5eb-8745-4911-a3a5-da03fbb24c3d"},"vehicle_type_id":"4","last_reported":1741872012,"current_range_meters":6000,"station_id":"ce4bhkp2rcd13ifvqgd0","pricing_plan_id":"cebpf4jnsgd1na2vs0mg"},{"bike_id":"9ce45443-98c2-49d9-abd6-961bb33be739","system_id":"levelo_inurba_marseille","lat":43.24548,"lon":5.39521,"is_reserved":false,"is_disabled":false,"rental_uris":{"android":"levelo://app?vid=9ce45443-98c2-49d9-abd6-961bb33be739","ios":"levelo://app?vid=9ce45443-98c2-49d9-abd6-961bb33be739"},"vehicle_type_id":"4","last_reported":1741872012,"current_range_meters":6000,"station_id":"ce4bhlp2rcd13ifvqgjg","pricing_plan_id":"cebpf4jnsgd1na2vs0mg"},{"bike_id":"e65f842e-69b2-436a-a201-83a06add3a55","system_id":"levelo_inurba_marseille","lat":43.250092,"lon":5.389163,"is_reserved":false,"is_disabled":false,"rental_uris":{"android":"levelo://app?vid=e65f842e-69b2-436a-a201-83a06add3a55","ios":"levelo://app?vid=e65f842e-69b2-436a-a201-83a06add3a55"},"vehicle_type_id":"4","last_reported":1741872012,"current_range_meters":6000,"station_id":"ce4bhgp2rcd13ifvqfd0","pricing_plan_id":"cebpf4jnsgd1na2vs0mg"},{"bike_id":"567efd5e-5a26-435c-87ea-dbb26dd20ff0","system_id":"levelo_inurba_marseille","lat":43.28331,"lon":5.38098,"is_reserved":false,"is_disabled":false,"rental_uris":{"android":"levelo://app?vid=567efd5e-5a26-435c-87ea-dbb26dd20ff0","ios":"levelo://app?vid=567efd5e-5a26-435c-87ea-dbb26dd20ff0"},"vehicle_type_id":"4","last_reported":1741872012,"current_range_meters":6000,"station_id":"ce4bh412rcd13ifvqdr0","pricing_plan_id":"cebpf4jnsgd1na2vs0mg"},{"bike_id":"a30dde02-f910-4510-a3e0-37d679e04d58","system_id":"levelo_inurba_marseille","lat":43.27409,"lon":5.42391,"is_reserved":false,"is_disabled":false,"rental_uris":{"android":"levelo://app?vid=a30dde02-f910-4510-a3e0-37d679e04d58","ios":"levelo://app?vid=a30dde02-f910-4510-a3e0-37d679e04d58"},"vehicle_type_id":"4","last_reported":1741872012,"current_range_meters":6400,"station_id":"","pricing_plan_id":"cebpf4jnsgd1na2vs0mg"},{"bike_id":"854e5b3c-1373-4bcb-8903-bfa4f8b4e34f","system_id":"levelo_inurba_marseille","lat":43.30958,"lon":5.39032,"is_reserved":false,"is_disabled":false,"rental_uris":{"android":"levelo://app?vid=854e5b3c-1373-4bcb-8903-bfa4f8b4e34f","ios":"levelo://app?vid=854e5b3c-1373-4bcb-8903-bfa4f8b4e34f"},"vehicle_type_id":"4","last_reported":1741872012,"current_range_meters":6400,"station_id":"ce4bgup2rcd13ifvqco0","pricing_plan_id":"cebpf4jnsgd1na2vs0mg"},{"bike_id":"dc804c71-a744-4844-af3b-67393c6a15ad","system_id":"levelo_inurba_marseille","lat":43.32354,"lon":5.36753,"is_reserved":false,"is_disabled":false,"rental_uris":{"android":"levelo://app?vid=dc804c71-a744-4844-af3b-67393c6a15ad","ios":"levelo://app?vid=dc804c71-a744-4844-af3b-67393c6a15ad"},"vehicle_type_id":"4","last_reported":1741872012,"current_range_meters":6400,"station_id":"ce4bhsh2rcd13ifvqi2g","pricing_plan_id":"cebpf4jnsgd1na2vs0mg"},{"bike_id":"f0941bc6-6455-4a2f-a075-8b5919ffb5a6","system_id":"levelo_inurba_marseille","lat":43.29229,"lon":5.36058,"is_reserved":false,"is_disabled":false,"rental_uris":{"android":"levelo://app?vid=f0941bc6-6455-4a2f-a075-8b5919ffb5a6","ios":"levelo://app?vid=f0941bc6-6455-4a2f-a075-8b5919ffb5a6"},"vehicle_type_id":"4","last_reported":1741872012,"current_range_meters":6400,"station_id":"ce4bhbh2rcd13ifvqeqg","pricing_plan_id":"cebpf4jnsgd1na2vs0mg"},{"bike_id":"0e1454f0-c501-449b-b78c-ddfc8f4d9aab","system_id":"levelo_inurba_marseille","lat":43.33768,"lon":5.3749,"is_reserved":false,"is_disabled":false,"rental_uris":{"android":"levelo://app?vid=0e1454f0-c501-449b-b78c-ddfc8f4d9aab","ios":"levelo://app?vid=0e1454f0-c501-449b-b78c-ddfc8f4d9aab"},"vehicle_type_id":"4","last_reported":1741872012,"current_range_meters":6400,"station_id":"","pricing_plan_id":"cebpf4jnsgd1na2vs0mg"},{"bike_id":"4f22fe17-a417-41ba-bcf4-f26309487b11","system_id":"levelo_inurba_marseille","lat":43.33423,"lon":5.40076,"is_reserved":false,"is_disabled":false,"rental_uris":{"android":"levelo://app?vid=4f22fe17-a417-41ba-bcf4-f26309487b11","ios":"levelo://app?vid=4f22fe17-a417-41ba-bcf4-f26309487b11"},"vehicle_type_id":"4","last_reported":1741872012,"current_range_meters":6400,"station_id":"","pricing_plan_id":"cebpf4jnsgd1na2vs0mg"},{"bike_id":"6cc29379-148b-4075-a688-3f5b84405e75","system_id":"levelo_inurba_marseille","lat":43.2587,"lon":5.39921,"is_reserved":false,"is_disabled":false,"rental_uris":{"android":"levelo://app?vid=6cc29379-148b-4075-a688-3f5b84405e75","ios":"levelo://app?vid=6cc29379-148b-4075-a688-3f5b84405e75"},"vehicle_type_id":"4","last_reported":1741872012,"current_range_meters":6400,"station_id":"ce4bhl92rcd13ifvqghg","pricing_plan_id":"cebpf4jnsgd1na2vs0mg"},{"bike_id":"aeaa874f-419f-4778-8d6f-91d9043c7d57","system_id":"levelo_inurba_marseille","lat":43.33607,"lon":5.41039,"is_reserved":false,"is_disabled":false,"rental_uris":{"android":"levelo://app?vid=aeaa874f-419f-4778-8d6f-91d9043c7d57","ios":"levelo://app?vid=aeaa874f-419f-4778-8d6f-91d9043c7d57"},"vehicle_type_id":"4","last_reported":1741872012,"current_range_meters":6800,"station_id":"ce4bhqh2rcd13ifvqhmg","pricing_plan_id":"cebpf4jnsgd1na2vs0mg"},{"bike_id":"8a5be889-430b-4f3c-ad97-bb7a2b97f12e","system_id":"levelo_inurba_marseille","lat":43.2955,"lon":5.42278,"is_reserved":false,"is_disabled":false,"rental_uris":{"android":"levelo://app?vid=8a5be889-430b-4f3c-ad97-bb7a2b97f12e","ios":"levelo://app?vid=8a5be889-430b-4f3c-ad97-bb7a2b97f12e"},"vehicle_type_id":"4","last_reported":1741872012,"current_range_meters":6800,"station_id":"ce4bhph2rcd13ifvqhdg","pricing_plan_id":"cebpf4jnsgd1na2vs0mg"},{"bike_id":"616a435f-89dc-43cc-870e-cd4d9550de2e","system_id":"levelo_inurba_marseille","lat":43.31415,"lon":5.3763,"is_reserved":false,"is_disabled":false,"rental_uris":{"android":"levelo://app?vid=616a435f-89dc-43cc-870e-cd4d9550de2e","ios":"levelo://app?vid=616a435f-89dc-43cc-870e-cd4d9550de2e"},"vehicle_type_id":"4","last_reported":1741872012,"current_range_meters":6800,"station_id":"","pricing_plan_id":"cebpf4jnsgd1na2vs0mg"},{"bike_id":"f66ccf26-4d21-4165-8140-301d0cd2257a","system_id":"levelo_inurba_marseille","lat":43.3054,"lon":5.36526,"is_reserved":false,"is_disabled":false,"rental_uris":{"android":"levelo://app?vid=f66ccf26-4d21-4165-8140-301d0cd2257a","ios":"levelo://app?vid=f66ccf26-4d21-4165-8140-301d0cd2257a"},"vehicle_type_id":"4","last_reported":1741872012,"current_range_meters":6800,"station_id":"ce4bgs12rcd13ifvqcag","pricing_plan_id":"cebpf4jnsgd1na2vs0mg"},{"bike_id":"650c05f7-ae71-4838-82d2-7cb5c3fa9f43","system_id":"levelo_inurba_marseille","lat":43.291779,"lon":5.407137,"is_reserved":false,"is_disabled":false,"rental_uris":{"android":"levelo://app?vid=650c05f7-ae71-4838-82d2-7cb5c3fa9f43","ios":"levelo://app?vid=650c05f7-ae71-4838-82d2-7cb5c3fa9f43"},"vehicle_type_id":"4","last_reported":1741872012,"current_range_meters":7200,"station_id":"ce4bh192rcd13ifvqdc0","pricing_plan_id":"cebpf4jnsgd1na2vs0mg"},{"bike_id":"2a69e639-a0be-4da5-b497-a75be2f56c13","system_id":"levelo_inurba_marseille","lat":43.25092,"lon":5.39516,"is_reserved":false,"is_disabled":false,"rental_uris":{"android":"levelo://app?vid=2a69e639-a0be-4da5-b497-a75be2f56c13","ios":"levelo://app?vid=2a69e639-a0be-4da5-b497-a75be2f56c13"},"vehicle_type_id":"4","last_reported":1741872012,"current_range_meters":6800,"station_id":"ce4bhm12rcd13ifvqgkg","pricing_plan_id":"cebpf4jnsgd1na2vs0mg"},{"bike_id":"a3bd5dca-4bd8-49b0-9cb3-808a14eff980","system_id":"levelo_inurba_marseille","lat":43.31485,"lon":5.37287,"is_reserved":false,"is_disabled":false,"rental_uris":{"android":"levelo://app?vid=a3bd5dca-4bd8-49b0-9cb3-808a14eff980","ios":"levelo://app?vid=a3bd5dca-4bd8-49b0-9cb3-808a14eff980"},"vehicle_type_id":"4","last_reported":1741872012,"current_range_meters":6800,"station_id":"ce4bgt12rcd13ifvqcd0","pricing_plan_id":"cebpf4jnsgd1na2vs0mg"},{"bike_id":"2053d644-c7c1-4a84-85e5-e0d75fa3de3a","system_id":"levelo_inurba_marseille","lat":43.26226,"lon":5.40449,"is_reserved":false,"is_disabled":false,"rental_uris":{"android":"levelo://app?vid=2053d644-c7c1-4a84-85e5-e0d75fa3de3a","ios":"levelo://app?vid=2053d644-c7c1-4a84-85e5-e0d75fa3de3a"},"vehicle_type_id":"4","last_reported":1741872012,"current_range_meters":6800,"station_id":"ce4bhmh2rcd13ifvqgmg","pricing_plan_id":"cebpf4jnsgd1na2vs0mg"},{"bike_id":"38294457-b8fd-4730-b5aa-3748c651b319","system_id":"levelo_inurba_marseille","lat":43.2315,"lon":5.43709,"is_reserved":false,"is_disabled":false,"rental_uris":{"android":"levelo://app?vid=38294457-b8fd-4730-b5aa-3748c651b319","ios":"levelo://app?vid=38294457-b8fd-4730-b5aa-3748c651b319"},"vehicle_type_id":"4","last_reported":1741872012,"current_range_meters":7200,"station_id":"ce4bhmp2rcd13ifvqgog","pricing_plan_id":"cebpf4jnsgd1na2vs0mg"},{"bike_id":"32aebc3a-14c2-412a-9dd1-139c73270c7f","system_id":"levelo_inurba_marseille","lat":43.24999,"lon":5.3894,"is_reserved":false,"is_disabled":false,"rental_uris":{"android":"levelo://app?vid=32aebc3a-14c2-412a-9dd1-139c73270c7f","ios":"levelo://app?vid=32aebc3a-14c2-412a-9dd1-139c73270c7f"},"vehicle_type_id":"4","last_reported":1741872012,"current_range_meters":7200,"station_id":"ce4bhgp2rcd13ifvqfd0","pricing_plan_id":"cebpf4jnsgd1na2vs0mg"},{"bike_id":"57dd54e3-4a62-4d62-a03b-5320a176e579","system_id":"levelo_inurba_marseille","lat":43.24175,"lon":5.36385,"is_reserved":false,"is_disabled":false,"rental_uris":{"android":"levelo://app?vid=57dd54e3-4a62-4d62-a03b-5320a176e579","ios":"levelo://app?vid=57dd54e3-4a62-4d62-a03b-5320a176e579"},"vehicle_type_id":"4","last_reported":1741872012,"current_range_meters":7200,"station_id":"cpo36qri1sfpv3e86is0","pricing_plan_id":"cebpf4jnsgd1na2vs0mg"},{"bike_id":"f1077625-0232-49a4-a55f-c012ff95a0be","system_id":"levelo_inurba_marseille","lat":43.23968,"lon":5.36632,"is_reserved":false,"is_disabled":false,"rental_uris":{"android":"levelo://app?vid=f1077625-0232-49a4-a55f-c012ff95a0be","ios":"levelo://app?vid=f1077625-0232-49a4-a55f-c012ff95a0be"},"vehicle_type_id":"4","last_reported":1741872012,"current_range_meters":7200,"station_id":"ce4bhi12rcd13ifvqfp0","pricing_plan_id":"cebpf4jnsgd1na2vs0mg"},{"bike_id":"2fe54254-5b11-4939-bb74-6fb31c1295ea","system_id":"levelo_inurba_marseille","lat":43.2293,"lon":5.35381,"is_reserved":false,"is_disabled":false,"rental_uris":{"android":"levelo://app?vid=2fe54254-5b11-4939-bb74-6fb31c1295ea","ios":"levelo://app?vid=2fe54254-5b11-4939-bb74-6fb31c1295ea"},"vehicle_type_id":"4","last_reported":1741872012,"current_range_meters":7200,"station_id":"cpo3532slgdg3j2ikp40","pricing_plan_id":"cebpf4jnsgd1na2vs0mg"},{"bike_id":"02e6ffe7-801a-4c7c-86fd-3d3f4a092e39","system_id":"levelo_inurba_marseille","lat":43.2407,"lon":5.37756,"is_reserved":false,"is_disabled":false,"rental_uris":{"android":"levelo://app?vid=02e6ffe7-801a-4c7c-86fd-3d3f4a092e39","ios":"levelo://app?vid=02e6ffe7-801a-4c7c-86fd-3d3f4a092e39"},"vehicle_type_id":"4","last_reported":1741872012,"current_range_meters":7200,"station_id":"ce4bhnp2rcd13ifvqgvg","pricing_plan_id":"cebpf4jnsgd1na2vs0mg"},{"bike_id":"fb03e9b9-f1d4-4d2f-8575-deaaf2914ec9","system_id":"levelo_inurba_marseille","lat":43.24064,"lon":5.37699,"is_reserved":false,"is_disabled":false,"rental_uris":{"android":"levelo://app?vid=fb03e9b9-f1d4-4d2f-8575-deaaf2914ec9","ios":"levelo://app?vid=fb03e9b9-f1d4-4d2f-8575-deaaf2914ec9"},"vehicle_type_id":"4","last_reported":1741872012,"current_range_meters":7200,"station_id":"","pricing_plan_id":"cebpf4jnsgd1na2vs0mg"},{"bike_id":"99cd4659-bcc4-4174-a160-083ddf3d852d","system_id":"levelo_inurba_marseille","lat":43.2792,"lon":5.39576,"is_reserved":false,"is_disabled":false,"rental_uris":{"android":"levelo://app?vid=99cd4659-bcc4-4174-a160-083ddf3d852d","ios":"levelo://app?vid=99cd4659-bcc4-4174-a160-083ddf3d852d"},"vehicle_type_id":"4","last_reported":1741872012,"current_range_meters":7200,"station_id":"ce4bhf92rcd13ifvqf40","pricing_plan_id":"cebpf4jnsgd1na2vs0mg"},{"bike_id":"cb567277-cc92-473f-ba27-13f9d7cbb613","system_id":"levelo_inurba_marseille","lat":43.2501,"lon":5.38919,"is_reserved":false,"is_disabled":false,"rental_uris":{"android":"levelo://app?vid=cb567277-cc92-473f-ba27-13f9d7cbb613","ios":"levelo://app?vid=cb567277-cc92-473f-ba27-13f9d7cbb613"},"vehicle_type_id":"4","last_reported":1741872012,"current_range_meters":7200,"station_id":"ce4bhgp2rcd13ifvqfd0","pricing_plan_id":"cebpf4jnsgd1na2vs0mg"},{"bike_id":"d5d27681-4cf0-4f00-9849-e320d119461c","system_id":"levelo_inurba_marseille","lat":43.27974,"lon":5.38755,"is_reserved":false,"is_disabled":false,"rental_uris":{"android":"levelo://app?vid=d5d27681-4cf0-4f00-9849-e320d119461c","ios":"levelo://app?vid=d5d27681-4cf0-4f00-9849-e320d119461c"},"vehicle_type_id":"4","last_reported":1741872012,"current_range_meters":7200,"station_id":"ce4bhg12rcd13ifvqf80","pricing_plan_id":"cebpf4jnsgd1na2vs0mg"},{"bike_id":"902ef0c3-b048-4761-95fe-ff43a8bf29c2","system_id":"levelo_inurba_marseille","lat":43.30121,"lon":5.37455,"is_reserved":false,"is_disabled":false,"rental_uris":{"android":"levelo://app?vid=902ef0c3-b048-4761-95fe-ff43a8bf29c2","ios":"levelo://app?vid=902ef0c3-b048-4761-95fe-ff43a8bf29c2"},"vehicle_type_id":"4","last_reported":1741872012,"current_range_meters":7200,"station_id":"ce4bgs92rcd13ifvqcc0","pricing_plan_id":"cebpf4jnsgd1na2vs0mg"},{"bike_id":"056881be-0c8d-480a-b266-5cf481b8a8f3","system_id":"levelo_inurba_marseille","lat":43.275746,"lon":5.384325,"is_reserved":false,"is_disabled":false,"rental_uris":{"android":"levelo://app?vid=056881be-0c8d-480a-b266-5cf481b8a8f3","ios":"levelo://app?vid=056881be-0c8d-480a-b266-5cf481b8a8f3"},"vehicle_type_id":"4","last_reported":1741872012,"current_range_meters":7200,"station_id":"ce4bhh92rcd13ifvqfi0","pricing_plan_id":"cebpf4jnsgd1na2vs0mg"},{"bike_id":"d5ae4600-476e-4c8a-b248-76c73ec9f040","system_id":"levelo_inurba_marseille","lat":43.25002,"lon":5.38921,"is_reserved":false,"is_disabled":false,"rental_uris":{"android":"levelo://app?vid=d5ae4600-476e-4c8a-b248-76c73ec9f040","ios":"levelo://app?vid=d5ae4600-476e-4c8a-b248-76c73ec9f040"},"vehicle_type_id":"4","last_reported":1741872012,"current_range_meters":8000,"station_id":"ce4bhgp2rcd13ifvqfd0","pricing_plan_id":"cebpf4jnsgd1na2vs0mg"},{"bike_id":"7f97dab3-6641-4c6a-9b12-3940cae11793","system_id":"levelo_inurba_marseille","lat":43.2498,"lon":5.38974,"is_reserved":false,"is_disabled":false,"rental_uris":{"android":"levelo://app?vid=7f97dab3-6641-4c6a-9b12-3940cae11793","ios":"levelo://app?vid=7f97dab3-6641-4c6a-9b12-3940cae11793"},"vehicle_type_id":"4","last_reported":1741872012,"current_range_meters":8000,"station_id":"","pricing_plan_id":"cebpf4jnsgd1na2vs0mg"},{"bike_id":"ce9250ff-4229-4ccb-a37a-4b380950241a","system_id":"levelo_inurba_marseille","lat":43.24678,"lon":5.38158,"is_reserved":false,"is_disabled":false,"rental_uris":{"android":"levelo://app?vid=ce9250ff-4229-4ccb-a37a-4b380950241a","ios":"levelo://app?vid=ce9250ff-4229-4ccb-a37a-4b380950241a"},"vehicle_type_id":"4","last_reported":1741872012,"current_range_meters":8000,"station_id":"ce4bhih2rcd13ifvqfr0","pricing_plan_id":"cebpf4jnsgd1na2vs0mg"},{"bike_id":"143da0ef-e0f9-4bd7-abc9-c7086ac8f4b0","system_id":"levelo_inurba_marseille","lat":43.29815,"lon":5.3811,"is_reserved":false,"is_disabled":false,"rental_uris":{"android":"levelo://app?vid=143da0ef-e0f9-4bd7-abc9-c7086ac8f4b0","ios":"levelo://app?vid=143da0ef-e0f9-4bd7-abc9-c7086ac8f4b0"},"vehicle_type_id":"4","last_reported":1741872012,"current_range_meters":8000,"station_id":"ce4bgip2rcd13ifvqbb0","pricing_plan_id":"cebpf4jnsgd1na2vs0mg"},{"bike_id":"cd7d2f23-14c8-4b00-b3ea-b5313802c0fa","system_id":"levelo_inurba_marseille","lat":43.25869,"lon":5.399,"is_reserved":false,"is_disabled":false,"rental_uris":{"android":"levelo://app?vid=cd7d2f23-14c8-4b00-b3ea-b5313802c0fa","ios":"levelo://app?vid=cd7d2f23-14c8-4b00-b3ea-b5313802c0fa"},"vehicle_type_id":"4","last_reported":1741872012,"current_range_meters":8000,"station_id":"ce4bhl92rcd13ifvqghg","pricing_plan_id":"cebpf4jnsgd1na2vs0mg"},{"bike_id":"6edb934c-f9d5-43ae-8b43-f27b70dab8d2","system_id":"levelo_inurba_marseille","lat":43.2927,"lon":5.37624,"is_reserved":false,"is_disabled":true,"rental_uris":{"android":"levelo://app?vid=6edb934c-f9d5-43ae-8b43-f27b70dab8d2","ios":"levelo://app?vid=6edb934c-f9d5-43ae-8b43-f27b70dab8d2"},"vehicle_type_id":"4","last_reported":1741872012,"current_range_meters":8000,"station_id":"ce4bgi12rcd13ifvqb80","pricing_plan_id":"cebpf4jnsgd1na2vs0mg"},{"bike_id":"9182940f-c570-4583-b99a-b35f1afe2ef6","system_id":"levelo_inurba_marseille","lat":43.30541,"lon":5.36526,"is_reserved":false,"is_disabled":false,"rental_uris":{"android":"levelo://app?vid=9182940f-c570-4583-b99a-b35f1afe2ef6","ios":"levelo://app?vid=9182940f-c570-4583-b99a-b35f1afe2ef6"},"vehicle_type_id":"4","last_reported":1741872012,"current_range_meters":8000,"station_id":"ce4bgs12rcd13ifvqcag","pricing_plan_id":"cebpf4jnsgd1na2vs0mg"},{"bike_id":"a6ef1521-0e4e-444e-93ad-c9371b6a9eac","system_id":"levelo_inurba_marseille","lat":43.27967,"lon":5.38697,"is_reserved":false,"is_disabled":false,"rental_uris":{"android":"levelo://app?vid=a6ef1521-0e4e-444e-93ad-c9371b6a9eac","ios":"levelo://app?vid=a6ef1521-0e4e-444e-93ad-c9371b6a9eac"},"vehicle_type_id":"4","last_reported":1741872012,"current_range_meters":8000,"station_id":"ce4bhg12rcd13ifvqf80","pricing_plan_id":"cebpf4jnsgd1na2vs0mg"},{"bike_id":"13acb16b-eaf6-4f3a-a616-544b881a006c","system_id":"levelo_inurba_marseille","lat":43.30452,"lon":5.37878,"is_reserved":false,"is_disabled":false,"rental_uris":{"android":"levelo://app?vid=13acb16b-eaf6-4f3a-a616-544b881a006c","ios":"levelo://app?vid=13acb16b-eaf6-4f3a-a616-544b881a006c"},"vehicle_type_id":"4","last_reported":1741872012,"current_range_meters":8000,"station_id":"ce4bgup2rcd13ifvqcn0","pricing_plan_id":"cebpf4jnsgd1na2vs0mg"},{"bike_id":"5b7dcee6-e15c-472e-a498-5a10b2578633","system_id":"levelo_inurba_marseille","lat":43.303847,"lon":5.424865,"is_reserved":false,"is_disabled":false,"rental_uris":{"android":"levelo://app?vid=5b7dcee6-e15c-472e-a498-5a10b2578633","ios":"levelo://app?vid=5b7dcee6-e15c-472e-a498-5a10b2578633"},"vehicle_type_id":"4","last_reported":1741872012,"current_range_meters":8000,"station_id":"ce4bghh2rcd13ifvqb60","pricing_plan_id":"cebpf4jnsgd1na2vs0mg"},{"bike_id":"931a65f6-98be-4189-b167-a49aeaf4dc43","system_id":"levelo_inurba_marseille","lat":43.25037,"lon":5.3892,"is_reserved":false,"is_disabled":false,"rental_uris":{"android":"levelo://app?vid=931a65f6-98be-4189-b167-a49aeaf4dc43","ios":"levelo://app?vid=931a65f6-98be-4189-b167-a49aeaf4dc43"},"vehicle_type_id":"4","last_reported":1741872012,"current_range_meters":8000,"station_id":"ce4bhgp2rcd13ifvqfd0","pricing_plan_id":"cebpf4jnsgd1na2vs0mg"},{"bike_id":"8a01a9ee-0b5d-4dcf-86c8-3a55476e2aa0","system_id":"levelo_inurba_marseille","lat":43.24073,"lon":5.37753,"is_reserved":false,"is_disabled":false,"rental_uris":{"android":"levelo://app?vid=8a01a9ee-0b5d-4dcf-86c8-3a55476e2aa0","ios":"levelo://app?vid=8a01a9ee-0b5d-4dcf-86c8-3a55476e2aa0"},"vehicle_type_id":"4","last_reported":1741872012,"current_range_meters":8000,"station_id":"ce4bhnp2rcd13ifvqgvg","pricing_plan_id":"cebpf4jnsgd1na2vs0mg"},{"bike_id":"9860d6c5-905a-44ee-8baf-e5ed916689aa","system_id":"levelo_inurba_marseille","lat":43.31338,"lon":5.36718,"is_reserved":false,"is_disabled":false,"rental_uris":{"android":"levelo://app?vid=9860d6c5-905a-44ee-8baf-e5ed916689aa","ios":"levelo://app?vid=9860d6c5-905a-44ee-8baf-e5ed916689aa"},"vehicle_type_id":"4","last_reported":1741872012,"current_range_meters":8400,"station_id":"ce4bgr92rcd13ifvqc6g","pricing_plan_id":"cebpf4jnsgd1na2vs0mg"},{"bike_id":"a1d5c912-c4fd-4f7b-831c-fa99a6489895","system_id":"levelo_inurba_marseille","lat":43.27367,"lon":5.36268,"is_reserved":false,"is_disabled":false,"rental_uris":{"android":"levelo://app?vid=a1d5c912-c4fd-4f7b-831c-fa99a6489895","ios":"levelo://app?vid=a1d5c912-c4fd-4f7b-831c-fa99a6489895"},"vehicle_type_id":"4","last_reported":1741872012,"current_range_meters":8400,"station_id":"ce4bhbh2rcd13ifvqeo0","pricing_plan_id":"cebpf4jnsgd1na2vs0mg"},{"bike_id":"3ef25e14-98e7-4282-bf08-8b393d7e4855","system_id":"levelo_inurba_marseille","lat":43.28848,"lon":5.39327,"is_reserved":false,"is_disabled":false,"rental_uris":{"android":"levelo://app?vid=3ef25e14-98e7-4282-bf08-8b393d7e4855","ios":"levelo://app?vid=3ef25e14-98e7-4282-bf08-8b393d7e4855"},"vehicle_type_id":"4","last_reported":1741872012,"current_range_meters":8400,"station_id":"ce4bh2p2rcd13ifvqdi0","pricing_plan_id":"cebpf4jnsgd1na2vs0mg"},{"bike_id":"d84bd22e-28b1-45d7-a74f-fbd938c36381","system_id":"levelo_inurba_marseille","lat":43.30553,"lon":5.36702,"is_reserved":false,"is_disabled":false,"rental_uris":{"android":"levelo://app?vid=d84bd22e-28b1-45d7-a74f-fbd938c36381","ios":"levelo://app?vid=d84bd22e-28b1-45d7-a74f-fbd938c36381"},"vehicle_type_id":"4","last_reported":1741872012,"current_range_meters":8400,"station_id":"ce4bgrp2rcd13ifvqc9g","pricing_plan_id":"cebpf4jnsgd1na2vs0mg"},{"bike_id":"d7cf3da4-03cf-4eae-b183-47670a6b872f","system_id":"levelo_inurba_marseille","lat":43.23208,"lon":5.35538,"is_reserved":false,"is_disabled":false,"rental_uris":{"android":"levelo://app?vid=d7cf3da4-03cf-4eae-b183-47670a6b872f","ios":"levelo://app?vid=d7cf3da4-03cf-4eae-b183-47670a6b872f"},"vehicle_type_id":"4","last_reported":1741872012,"current_range_meters":8400,"station_id":"ce4bhu92rcd13ifvqi70","pricing_plan_id":"cebpf4jnsgd1na2vs0mg"},{"bike_id":"ccde3be1-4144-427e-acc2-fed605e4915f","system_id":"levelo_inurba_marseille","lat":43.280981,"lon":5.398533,"is_reserved":false,"is_disabled":false,"rental_uris":{"android":"levelo://app?vid=ccde3be1-4144-427e-acc2-fed605e4915f","ios":"levelo://app?vid=ccde3be1-4144-427e-acc2-fed605e4915f"},"vehicle_type_id":"4","last_reported":1741872012,"current_range_meters":8400,"station_id":"","pricing_plan_id":"cebpf4jnsgd1na2vs0mg"},{"bike_id":"b945d8d0-7f7e-44e7-a580-44ad2dfbe250","system_id":"levelo_inurba_marseille","lat":43.25931,"lon":5.40913,"is_reserved":false,"is_disabled":false,"rental_uris":{"android":"levelo://app?vid=b945d8d0-7f7e-44e7-a580-44ad2dfbe250","ios":"levelo://app?vid=b945d8d0-7f7e-44e7-a580-44ad2dfbe250"},"vehicle_type_id":"4","last_reported":1741872012,"current_range_meters":8400,"station_id":"ce4bhm92rcd13ifvqglg","pricing_plan_id":"cebpf4jnsgd1na2vs0mg"},{"bike_id":"1bcce178-7e11-4c71-8837-7b1748cf932f","system_id":"levelo_inurba_marseille","lat":43.30374,"lon":5.42489,"is_reserved":false,"is_disabled":false,"rental_uris":{"android":"levelo://app?vid=1bcce178-7e11-4c71-8837-7b1748cf932f","ios":"levelo://app?vid=1bcce178-7e11-4c71-8837-7b1748cf932f"},"vehicle_type_id":"4","last_reported":1741872012,"current_range_meters":8400,"station_id":"ce4bghh2rcd13ifvqb60","pricing_plan_id":"cebpf4jnsgd1na2vs0mg"},{"bike_id":"66dedbcd-86e4-4407-9834-f963fc926dd0","system_id":"levelo_inurba_marseille","lat":43.26576,"lon":5.37272,"is_reserved":false,"is_disabled":false,"rental_uris":{"android":"levelo://app?vid=66dedbcd-86e4-4407-9834-f963fc926dd0","ios":"levelo://app?vid=66dedbcd-86e4-4407-9834-f963fc926dd0"},"vehicle_type_id":"4","last_reported":1741872012,"current_range_meters":8400,"station_id":"ce4bhg12rcd13ifvqf70","pricing_plan_id":"cebpf4jnsgd1na2vs0mg"},{"bike_id":"7534fd57-2f73-402a-939e-490397703aff","system_id":"levelo_inurba_marseille","lat":43.27494,"lon":5.42469,"is_reserved":false,"is_disabled":false,"rental_uris":{"android":"levelo://app?vid=7534fd57-2f73-402a-939e-490397703aff","ios":"levelo://app?vid=7534fd57-2f73-402a-939e-490397703aff"},"vehicle_type_id":"4","last_reported":1741872012,"current_range_meters":8400,"station_id":"ce4bhn92rcd13ifvqgrg","pricing_plan_id":"cebpf4jnsgd1na2vs0mg"},{"bike_id":"aeff4ce1-034b-4014-b913-fcaa42ffff4c","system_id":"levelo_inurba_marseille","lat":43.2707,"lon":5.42285,"is_reserved":false,"is_disabled":false,"rental_uris":{"android":"levelo://app?vid=aeff4ce1-034b-4014-b913-fcaa42ffff4c","ios":"levelo://app?vid=aeff4ce1-034b-4014-b913-fcaa42ffff4c"},"vehicle_type_id":"4","last_reported":1741872012,"current_range_meters":8400,"station_id":"ce4bhk92rcd13ifvqgb0","pricing_plan_id":"cebpf4jnsgd1na2vs0mg"},{"bike_id":"4a9c9b97-dfdf-4679-85c2-aacc3c399c23","system_id":"levelo_inurba_marseille","lat":43.31404,"lon":5.36693,"is_reserved":false,"is_disabled":false,"rental_uris":{"android":"levelo://app?vid=4a9c9b97-dfdf-4679-85c2-aacc3c399c23","ios":"levelo://app?vid=4a9c9b97-dfdf-4679-85c2-aacc3c399c23"},"vehicle_type_id":"4","last_reported":1741872012,"current_range_meters":8800,"station_id":"ce4bgr92rcd13ifvqc6g","pricing_plan_id":"cebpf4jnsgd1na2vs0mg"},{"bike_id":"6c58e2e0-6c43-4bd8-b702-60260c436f60","system_id":"levelo_inurba_marseille","lat":43.28486,"lon":5.38572,"is_reserved":false,"is_disabled":false,"rental_uris":{"android":"levelo://app?vid=6c58e2e0-6c43-4bd8-b702-60260c436f60","ios":"levelo://app?vid=6c58e2e0-6c43-4bd8-b702-60260c436f60"},"vehicle_type_id":"4","last_reported":1741872012,"current_range_meters":8800,"station_id":"ce4bh8p2rcd13ifvqeb0","pricing_plan_id":"cebpf4jnsgd1na2vs0mg"},{"bike_id":"da2755da-e147-4ac1-a3a7-f5a31cd36490","system_id":"levelo_inurba_marseille","lat":43.23158,"lon":5.43708,"is_reserved":false,"is_disabled":false,"rental_uris":{"android":"levelo://app?vid=da2755da-e147-4ac1-a3a7-f5a31cd36490","ios":"levelo://app?vid=da2755da-e147-4ac1-a3a7-f5a31cd36490"},"vehicle_type_id":"4","last_reported":1741872012,"current_range_meters":8800,"station_id":"ce4bhmp2rcd13ifvqgog","pricing_plan_id":"cebpf4jnsgd1na2vs0mg"},{"bike_id":"029fb6fd-b72e-4414-b77e-130af98ebad6","system_id":"levelo_inurba_marseille","lat":43.30648,"lon":5.40102,"is_reserved":false,"is_disabled":false,"rental_uris":{"android":"levelo://app?vid=029fb6fd-b72e-4414-b77e-130af98ebad6","ios":"levelo://app?vid=029fb6fd-b72e-4414-b77e-130af98ebad6"},"vehicle_type_id":"4","last_reported":1741872012,"current_range_meters":9600,"station_id":"ce4bh112rcd13ifvqda0","pricing_plan_id":"cebpf4jnsgd1na2vs0mg"},{"bike_id":"da92525d-691b-4e51-989f-b5c466d8ec4c","system_id":"levelo_inurba_marseille","lat":43.22938,"lon":5.35379,"is_reserved":false,"is_disabled":false,"rental_uris":{"android":"levelo://app?vid=da92525d-691b-4e51-989f-b5c466d8ec4c","ios":"levelo://app?vid=da92525d-691b-4e51-989f-b5c466d8ec4c"},"vehicle_type_id":"4","last_reported":1741872012,"current_range_meters":8800,"station_id":"cpo3532slgdg3j2ikp40","pricing_plan_id":"cebpf4jnsgd1na2vs0mg"},{"bike_id":"a95984ab-3dbf-4249-a239-07fcdd289d64","system_id":"levelo_inurba_marseille","lat":43.29867,"lon":5.36272,"is_reserved":false,"is_disabled":false,"rental_uris":{"android":"levelo://app?vid=a95984ab-3dbf-4249-a239-07fcdd289d64","ios":"levelo://app?vid=a95984ab-3dbf-4249-a239-07fcdd289d64"},"vehicle_type_id":"4","last_reported":1741872012,"current_range_meters":8800,"station_id":"ce4bgpp2rcd13ifvqc3g","pricing_plan_id":"cebpf4jnsgd1na2vs0mg"},{"bike_id":"52d92dfb-25dd-4602-be58-36849cd50edc","system_id":"levelo_inurba_marseille","lat":43.27931,"lon":5.39574,"is_reserved":false,"is_disabled":false,"rental_uris":{"android":"levelo://app?vid=52d92dfb-25dd-4602-be58-36849cd50edc","ios":"levelo://app?vid=52d92dfb-25dd-4602-be58-36849cd50edc"},"vehicle_type_id":"4","last_reported":1741872012,"current_range_meters":8800,"station_id":"ce4bhf92rcd13ifvqf40","pricing_plan_id":"cebpf4jnsgd1na2vs0mg"},{"bike_id":"02856e9e-87a0-4db1-8d36-2f035a3cb82d","system_id":"levelo_inurba_marseille","lat":43.25922,"lon":5.40923,"is_reserved":false,"is_disabled":false,"rental_uris":{"android":"levelo://app?vid=02856e9e-87a0-4db1-8d36-2f035a3cb82d","ios":"levelo://app?vid=02856e9e-87a0-4db1-8d36-2f035a3cb82d"},"vehicle_type_id":"4","last_reported":1741872012,"current_range_meters":8800,"station_id":"ce4bhm92rcd13ifvqglg","pricing_plan_id":"cebpf4jnsgd1na2vs0mg"},{"bike_id":"097b290e-bbf9-4c4b-b3f2-542c2279cfde","system_id":"levelo_inurba_marseille","lat":43.30138,"lon":5.37422,"is_reserved":false,"is_disabled":false,"rental_uris":{"android":"levelo://app?vid=097b290e-bbf9-4c4b-b3f2-542c2279cfde","ios":"levelo://app?vid=097b290e-bbf9-4c4b-b3f2-542c2279cfde"},"vehicle_type_id":"4","last_reported":1741872012,"current_range_meters":9200,"station_id":"ce4bgs92rcd13ifvqcc0","pricing_plan_id":"cebpf4jnsgd1na2vs0mg"},{"bike_id":"441d2ddc-39dd-48e4-898d-eee7c497f120","system_id":"levelo_inurba_marseille","lat":43.30541,"lon":5.36544,"is_reserved":false,"is_disabled":false,"rental_uris":{"android":"levelo://app?vid=441d2ddc-39dd-48e4-898d-eee7c497f120","ios":"levelo://app?vid=441d2ddc-39dd-48e4-898d-eee7c497f120"},"vehicle_type_id":"4","last_reported":1741872012,"current_range_meters":9200,"station_id":"ce4bgs12rcd13ifvqcag","pricing_plan_id":"cebpf4jnsgd1na2vs0mg"},{"bike_id":"f4ddda03-7476-4db9-8ee5-7e9aafed439e","system_id":"levelo_inurba_marseille","lat":43.30087,"lon":5.39093,"is_reserved":false,"is_disabled":false,"rental_uris":{"android":"levelo://app?vid=f4ddda03-7476-4db9-8ee5-7e9aafed439e","ios":"levelo://app?vid=f4ddda03-7476-4db9-8ee5-7e9aafed439e"},"vehicle_type_id":"4","last_reported":1741872012,"current_range_meters":9200,"station_id":"ce4bh192rcd13ifvqdb0","pricing_plan_id":"cebpf4jnsgd1na2vs0mg"},{"bike_id":"ffceb2f3-9942-41c3-82da-fce06ef1b319","system_id":"levelo_inurba_marseille","lat":43.28767,"lon":5.38407,"is_reserved":false,"is_disabled":false,"rental_uris":{"android":"levelo://app?vid=ffceb2f3-9942-41c3-82da-fce06ef1b319","ios":"levelo://app?vid=ffceb2f3-9942-41c3-82da-fce06ef1b319"},"vehicle_type_id":"4","last_reported":1741872012,"current_range_meters":9200,"station_id":"","pricing_plan_id":"cebpf4jnsgd1na2vs0mg"},{"bike_id":"d211ffcd-a1c7-40a2-b189-5906e841284b","system_id":"levelo_inurba_marseille","lat":43.22932,"lon":5.35377,"is_reserved":false,"is_disabled":false,"rental_uris":{"android":"levelo://app?vid=d211ffcd-a1c7-40a2-b189-5906e841284b","ios":"levelo://app?vid=d211ffcd-a1c7-40a2-b189-5906e841284b"},"vehicle_type_id":"4","last_reported":1741872012,"current_range_meters":9200,"station_id":"cpo3532slgdg3j2ikp40","pricing_plan_id":"cebpf4jnsgd1na2vs0mg"},{"bike_id":"e4f9cba8-8b7d-4660-84a7-86c182fc3582","system_id":"levelo_inurba_marseille","lat":43.30907,"lon":5.36844,"is_reserved":false,"is_disabled":false,"rental_uris":{"android":"levelo://app?vid=e4f9cba8-8b7d-4660-84a7-86c182fc3582","ios":"levelo://app?vid=e4f9cba8-8b7d-4660-84a7-86c182fc3582"},"vehicle_type_id":"4","last_reported":1741872012,"current_range_meters":9200,"station_id":"ce4bgn92rcd13ifvqbvg","pricing_plan_id":"cebpf4jnsgd1na2vs0mg"},{"bike_id":"fe2dbfad-2b3c-45be-b26a-7ab6c0dcbc97","system_id":"levelo_inurba_marseille","lat":43.30131,"lon":5.37695,"is_reserved":false,"is_disabled":false,"rental_uris":{"android":"levelo://app?vid=fe2dbfad-2b3c-45be-b26a-7ab6c0dcbc97","ios":"levelo://app?vid=fe2dbfad-2b3c-45be-b26a-7ab6c0dcbc97"},"vehicle_type_id":"4","last_reported":1741872012,"current_range_meters":9200,"station_id":"","pricing_plan_id":"cebpf4jnsgd1na2vs0mg"},{"bike_id":"97ba1768-fb66-4214-8ccc-a93a364823cb","system_id":"levelo_inurba_marseille","lat":43.24154,"lon":5.39722,"is_reserved":false,"is_disabled":false,"rental_uris":{"android":"levelo://app?vid=97ba1768-fb66-4214-8ccc-a93a364823cb","ios":"levelo://app?vid=97ba1768-fb66-4214-8ccc-a93a364823cb"},"vehicle_type_id":"4","last_reported":1741872012,"current_range_meters":9200,"station_id":"ce4bhn12rcd13ifvqgpg","pricing_plan_id":"cebpf4jnsgd1na2vs0mg"},{"bike_id":"b3fead73-4c4c-401e-81a0-a7fad437c748","system_id":"levelo_inurba_marseille","lat":43.25003,"lon":5.38962,"is_reserved":false,"is_disabled":false,"rental_uris":{"android":"levelo://app?vid=b3fead73-4c4c-401e-81a0-a7fad437c748","ios":"levelo://app?vid=b3fead73-4c4c-401e-81a0-a7fad437c748"},"vehicle_type_id":"4","last_reported":1741872012,"current_range_meters":9200,"station_id":"ce4bhgp2rcd13ifvqfd0","pricing_plan_id":"cebpf4jnsgd1na2vs0mg"},{"bike_id":"ab73057a-abc1-457e-948b-9f097eb10b97","system_id":"levelo_inurba_marseille","lat":43.29629,"lon":5.37175,"is_reserved":false,"is_disabled":false,"rental_uris":{"android":"levelo://app?vid=ab73057a-abc1-457e-948b-9f097eb10b97","ios":"levelo://app?vid=ab73057a-abc1-457e-948b-9f097eb10b97"},"vehicle_type_id":"4","last_reported":1741872012,"current_range_meters":9200,"station_id":"ce4bgnh2rcd13ifvqc0g","pricing_plan_id":"cebpf4jnsgd1na2vs0mg"},{"bike_id":"da04e804-4a1b-43be-893e-b35feadd6a91","system_id":"levelo_inurba_marseille","lat":43.29612,"lon":5.37722,"is_reserved":false,"is_disabled":false,"rental_uris":{"android":"levelo://app?vid=da04e804-4a1b-43be-893e-b35feadd6a91","ios":"levelo://app?vid=da04e804-4a1b-43be-893e-b35feadd6a91"},"vehicle_type_id":"4","last_reported":1741872012,"current_range_meters":9600,"station_id":"ce4bgi92rcd13ifvqb90","pricing_plan_id":"cebpf4jnsgd1na2vs0mg"},{"bike_id":"3575270d-96a4-4f1f-a338-23507e412d90","system_id":"levelo_inurba_marseille","lat":43.29525,"lon":5.38548,"is_reserved":false,"is_disabled":false,"rental_uris":{"android":"levelo://app?vid=3575270d-96a4-4f1f-a338-23507e412d90","ios":"levelo://app?vid=3575270d-96a4-4f1f-a338-23507e412d90"},"vehicle_type_id":"4","last_reported":1741872012,"current_range_meters":9600,"station_id":"ce4bgih2rcd13ifvqba0","pricing_plan_id":"cebpf4jnsgd1na2vs0mg"},{"bike_id":"0a20d436-3a95-41db-8dea-28d50f58e2ee","system_id":"levelo_inurba_marseille","lat":43.24079,"lon":5.37755,"is_reserved":false,"is_disabled":false,"rental_uris":{"android":"levelo://app?vid=0a20d436-3a95-41db-8dea-28d50f58e2ee","ios":"levelo://app?vid=0a20d436-3a95-41db-8dea-28d50f58e2ee"},"vehicle_type_id":"4","last_reported":1741872012,"current_range_meters":9600,"station_id":"ce4bhnp2rcd13ifvqgvg","pricing_plan_id":"cebpf4jnsgd1na2vs0mg"},{"bike_id":"987dc339-bae3-4e86-97d3-4816065b1a6a","system_id":"levelo_inurba_marseille","lat":43.26564,"lon":5.39029,"is_reserved":false,"is_disabled":false,"rental_uris":{"android":"levelo://app?vid=987dc339-bae3-4e86-97d3-4816065b1a6a","ios":"levelo://app?vid=987dc339-bae3-4e86-97d3-4816065b1a6a"},"vehicle_type_id":"4","last_reported":1741872012,"current_range_meters":9600,"station_id":"ce4bhe12rcd13ifvqf30","pricing_plan_id":"cebpf4jnsgd1na2vs0mg"},{"bike_id":"b6d8ba2a-aca4-4c1c-a0ae-1b9b91f76e1f","system_id":"levelo_inurba_marseille","lat":43.26544,"lon":5.37297,"is_reserved":false,"is_disabled":false,"rental_uris":{"android":"levelo://app?vid=b6d8ba2a-aca4-4c1c-a0ae-1b9b91f76e1f","ios":"levelo://app?vid=b6d8ba2a-aca4-4c1c-a0ae-1b9b91f76e1f"},"vehicle_type_id":"4","last_reported":1741872012,"current_range_meters":9600,"station_id":"ce4bhg12rcd13ifvqf70","pricing_plan_id":"cebpf4jnsgd1na2vs0mg"},{"bike_id":"58fcbc8c-9a0f-47cf-bc32-b43f95505588","system_id":"levelo_inurba_marseille","lat":43.31173,"lon":5.38715,"is_reserved":false,"is_disabled":false,"rental_uris":{"android":"levelo://app?vid=58fcbc8c-9a0f-47cf-bc32-b43f95505588","ios":"levelo://app?vid=58fcbc8c-9a0f-47cf-bc32-b43f95505588"},"vehicle_type_id":"4","last_reported":1741872012,"current_range_meters":12000,"station_id":"ce4bgv12rcd13ifvqcp0","pricing_plan_id":"cebpf4jnsgd1na2vs0mg"},{"bike_id":"15597867-bc45-408a-9b1b-2fc13aa7fe49","system_id":"levelo_inurba_marseille","lat":43.27209,"lon":5.39194,"is_reserved":false,"is_disabled":false,"rental_uris":{"android":"levelo://app?vid=15597867-bc45-408a-9b1b-2fc13aa7fe49","ios":"levelo://app?vid=15597867-bc45-408a-9b1b-2fc13aa7fe49"},"vehicle_type_id":"4","last_reported":1741872012,"current_range_meters":9600,"station_id":"ce4bhhp2rcd13ifvqfm0","pricing_plan_id":"cebpf4jnsgd1na2vs0mg"},{"bike_id":"eff09b91-9566-4440-a010-d19c4008f7f2","system_id":"levelo_inurba_marseille","lat":43.2848,"lon":5.3843,"is_reserved":false,"is_disabled":false,"rental_uris":{"android":"levelo://app?vid=eff09b91-9566-4440-a010-d19c4008f7f2","ios":"levelo://app?vid=eff09b91-9566-4440-a010-d19c4008f7f2"},"vehicle_type_id":"4","last_reported":1741872012,"current_range_meters":9600,"station_id":"ce4bh512rcd13ifvqe3g","pricing_plan_id":"cebpf4jnsgd1na2vs0mg"},{"bike_id":"38c88b08-41ba-4381-9de5-3b8ecb213ecf","system_id":"levelo_inurba_marseille","lat":43.29938,"lon":5.36546,"is_reserved":false,"is_disabled":false,"rental_uris":{"android":"levelo://app?vid=38c88b08-41ba-4381-9de5-3b8ecb213ecf","ios":"levelo://app?vid=38c88b08-41ba-4381-9de5-3b8ecb213ecf"},"vehicle_type_id":"4","last_reported":1741872012,"current_range_meters":10000,"station_id":"ce4bgm92rcd13ifvqbr0","pricing_plan_id":"cebpf4jnsgd1na2vs0mg"},{"bike_id":"532bd0d2-17be-446b-b45c-c828131e3b43","system_id":"levelo_inurba_marseille","lat":43.29254,"lon":5.376277,"is_reserved":false,"is_disabled":false,"rental_uris":{"android":"levelo://app?vid=532bd0d2-17be-446b-b45c-c828131e3b43","ios":"levelo://app?vid=532bd0d2-17be-446b-b45c-c828131e3b43"},"vehicle_type_id":"4","last_reported":1741872012,"current_range_meters":10000,"station_id":"ce4bgi12rcd13ifvqb80","pricing_plan_id":"cebpf4jnsgd1na2vs0mg"},{"bike_id":"b3f2feba-3094-4859-afc5-532ddc2fc5f7","system_id":"levelo_inurba_marseille","lat":43.26955,"lon":5.38633,"is_reserved":false,"is_disabled":false,"rental_uris":{"android":"levelo://app?vid=b3f2feba-3094-4859-afc5-532ddc2fc5f7","ios":"levelo://app?vid=b3f2feba-3094-4859-afc5-532ddc2fc5f7"},"vehicle_type_id":"4","last_reported":1741872012,"current_range_meters":10000,"station_id":"ce4bhh92rcd13ifvqfh0","pricing_plan_id":"cebpf4jnsgd1na2vs0mg"},{"bike_id":"ccbf9314-2e01-4157-b305-00182a64533f","system_id":"levelo_inurba_marseille","lat":43.29557,"lon":5.42295,"is_reserved":false,"is_disabled":false,"rental_uris":{"android":"levelo://app?vid=ccbf9314-2e01-4157-b305-00182a64533f","ios":"levelo://app?vid=ccbf9314-2e01-4157-b305-00182a64533f"},"vehicle_type_id":"4","last_reported":1741872012,"current_range_meters":10000,"station_id":"ce4bhph2rcd13ifvqhdg","pricing_plan_id":"cebpf4jnsgd1na2vs0mg"},{"bike_id":"a98ca72d-93b6-4de6-87d2-dc4cc8056236","system_id":"levelo_inurba_marseille","lat":43.28345,"lon":5.38105,"is_reserved":false,"is_disabled":false,"rental_uris":{"android":"levelo://app?vid=a98ca72d-93b6-4de6-87d2-dc4cc8056236","ios":"levelo://app?vid=a98ca72d-93b6-4de6-87d2-dc4cc8056236"},"vehicle_type_id":"4","last_reported":1741872012,"current_range_meters":10000,"station_id":"ce4bh412rcd13ifvqdr0","pricing_plan_id":"cebpf4jnsgd1na2vs0mg"},{"bike_id":"d9b67e63-1738-47a5-96ee-8badfa308a96","system_id":"levelo_inurba_marseille","lat":43.2669,"lon":5.38254,"is_reserved":false,"is_disabled":false,"rental_uris":{"android":"levelo://app?vid=d9b67e63-1738-47a5-96ee-8badfa308a96","ios":"levelo://app?vid=d9b67e63-1738-47a5-96ee-8badfa308a96"},"vehicle_type_id":"4","last_reported":1741872012,"current_range_meters":10000,"station_id":"ce4bhg92rcd13ifvqf90","pricing_plan_id":"cebpf4jnsgd1na2vs0mg"},{"bike_id":"a2700207-e47d-4273-8901-cf86d647c953","system_id":"levelo_inurba_marseille","lat":43.24066,"lon":5.37702,"is_reserved":false,"is_disabled":false,"rental_uris":{"android":"levelo://app?vid=a2700207-e47d-4273-8901-cf86d647c953","ios":"levelo://app?vid=a2700207-e47d-4273-8901-cf86d647c953"},"vehicle_type_id":"4","last_reported":1741872012,"current_range_meters":10000,"station_id":"ce4bhnp2rcd13ifvqgvg","pricing_plan_id":"cebpf4jnsgd1na2vs0mg"},{"bike_id":"d1254f3a-99a6-4211-b35e-4273d4289083","system_id":"levelo_inurba_marseille","lat":43.28356,"lon":5.38112,"is_reserved":false,"is_disabled":false,"rental_uris":{"android":"levelo://app?vid=d1254f3a-99a6-4211-b35e-4273d4289083","ios":"levelo://app?vid=d1254f3a-99a6-4211-b35e-4273d4289083"},"vehicle_type_id":"4","last_reported":1741872012,"current_range_meters":10000,"station_id":"ce4bh412rcd13ifvqdr0","pricing_plan_id":"cebpf4jnsgd1na2vs0mg"},{"bike_id":"e48c9fb6-9d4d-44ac-817b-fc611c6ae38a","system_id":"levelo_inurba_marseille","lat":43.32542,"lon":5.41423,"is_reserved":false,"is_disabled":false,"rental_uris":{"android":"levelo://app?vid=e48c9fb6-9d4d-44ac-817b-fc611c6ae38a","ios":"levelo://app?vid=e48c9fb6-9d4d-44ac-817b-fc611c6ae38a"},"vehicle_type_id":"4","last_reported":1741872012,"current_range_meters":10000,"station_id":"ce4bhq12rcd13ifvqhhg","pricing_plan_id":"cebpf4jnsgd1na2vs0mg"},{"bike_id":"1cbeb49c-8d51-46f2-ad03-8af78ea79d9a","system_id":"levelo_inurba_marseille","lat":43.24175,"lon":5.39716,"is_reserved":false,"is_disabled":false,"rental_uris":{"android":"levelo://app?vid=1cbeb49c-8d51-46f2-ad03-8af78ea79d9a","ios":"levelo://app?vid=1cbeb49c-8d51-46f2-ad03-8af78ea79d9a"},"vehicle_type_id":"4","last_reported":1741872012,"current_range_meters":10000,"station_id":"ce4bhn12rcd13ifvqgpg","pricing_plan_id":"cebpf4jnsgd1na2vs0mg"},{"bike_id":"750d0927-9ff5-4f6e-afb1-8f672acbfebc","system_id":"levelo_inurba_marseille","lat":43.27822,"lon":5.39217,"is_reserved":false,"is_disabled":false,"rental_uris":{"android":"levelo://app?vid=750d0927-9ff5-4f6e-afb1-8f672acbfebc","ios":"levelo://app?vid=750d0927-9ff5-4f6e-afb1-8f672acbfebc"},"vehicle_type_id":"4","last_reported":1741872012,"current_range_meters":10000,"station_id":"ce4bhjp2rcd13ifvqga0","pricing_plan_id":"cebpf4jnsgd1na2vs0mg"},{"bike_id":"d0be61ee-8c6c-4bf7-99b6-f099a281a656","system_id":"levelo_inurba_marseille","lat":43.25001,"lon":5.38929,"is_reserved":false,"is_disabled":false,"rental_uris":{"android":"levelo://app?vid=d0be61ee-8c6c-4bf7-99b6-f099a281a656","ios":"levelo://app?vid=d0be61ee-8c6c-4bf7-99b6-f099a281a656"},"vehicle_type_id":"4","last_reported":1741872012,"current_range_meters":10000,"station_id":"ce4bhgp2rcd13ifvqfd0","pricing_plan_id":"cebpf4jnsgd1na2vs0mg"},{"bike_id":"95f6bccd-52da-4c1e-b208-b8e282624c79","system_id":"levelo_inurba_marseille","lat":43.29046,"lon":5.37563,"is_reserved":false,"is_disabled":false,"rental_uris":{"android":"levelo://app?vid=95f6bccd-52da-4c1e-b208-b8e282624c79","ios":"levelo://app?vid=95f6bccd-52da-4c1e-b208-b8e282624c79"},"vehicle_type_id":"4","last_reported":1741872012,"current_range_meters":10000,"station_id":"ce4bh692rcd13ifvqe90","pricing_plan_id":"cebpf4jnsgd1na2vs0mg"},{"bike_id":"5a0002da-b687-4872-932d-20fcc86b0c9d","system_id":"levelo_inurba_marseille","lat":43.25018,"lon":5.38912,"is_reserved":false,"is_disabled":false,"rental_uris":{"android":"levelo://app?vid=5a0002da-b687-4872-932d-20fcc86b0c9d","ios":"levelo://app?vid=5a0002da-b687-4872-932d-20fcc86b0c9d"},"vehicle_type_id":"4","last_reported":1741872012,"current_range_meters":10800,"station_id":"ce4bhgp2rcd13ifvqfd0","pricing_plan_id":"cebpf4jnsgd1na2vs0mg"},{"bike_id":"af1bfcbf-6d70-4682-a895-c4ae6738b248","system_id":"levelo_inurba_marseille","lat":43.3013,"lon":5.37425,"is_reserved":false,"is_disabled":false,"rental_uris":{"android":"levelo://app?vid=af1bfcbf-6d70-4682-a895-c4ae6738b248","ios":"levelo://app?vid=af1bfcbf-6d70-4682-a895-c4ae6738b248"},"vehicle_type_id":"4","last_reported":1741872012,"current_range_meters":10800,"station_id":"ce4bgs92rcd13ifvqcc0","pricing_plan_id":"cebpf4jnsgd1na2vs0mg"},{"bike_id":"d041a7b5-732c-474f-b556-c0142a8f7b8d","system_id":"levelo_inurba_marseille","lat":43.31267,"lon":5.36913,"is_reserved":false,"is_disabled":false,"rental_uris":{"android":"levelo://app?vid=d041a7b5-732c-474f-b556-c0142a8f7b8d","ios":"levelo://app?vid=d041a7b5-732c-474f-b556-c0142a8f7b8d"},"vehicle_type_id":"4","last_reported":1741872012,"current_range_meters":10800,"station_id":"ce4bgl92rcd13ifvqbq0","pricing_plan_id":"cebpf4jnsgd1na2vs0mg"},{"bike_id":"4be2cbb2-7c5e-4b7f-8401-6f1518bf2984","system_id":"levelo_inurba_marseille","lat":43.33196,"lon":5.39585,"is_reserved":false,"is_disabled":false,"rental_uris":{"android":"levelo://app?vid=4be2cbb2-7c5e-4b7f-8401-6f1518bf2984","ios":"levelo://app?vid=4be2cbb2-7c5e-4b7f-8401-6f1518bf2984"},"vehicle_type_id":"4","last_reported":1741872012,"current_range_meters":10800,"station_id":"","pricing_plan_id":"cebpf4jnsgd1na2vs0mg"},{"bike_id":"00b489e6-2d1b-4399-99f8-fb9c65f26ebb","system_id":"levelo_inurba_marseille","lat":43.24076,"lon":5.37761,"is_reserved":false,"is_disabled":false,"rental_uris":{"android":"levelo://app?vid=00b489e6-2d1b-4399-99f8-fb9c65f26ebb","ios":"levelo://app?vid=00b489e6-2d1b-4399-99f8-fb9c65f26ebb"},"vehicle_type_id":"4","last_reported":1741872012,"current_range_meters":10800,"station_id":"ce4bhnp2rcd13ifvqgvg","pricing_plan_id":"cebpf4jnsgd1na2vs0mg"},{"bike_id":"a5685bee-9f0c-4f66-9b7f-9b64f37b16ba","system_id":"levelo_inurba_marseille","lat":43.25725,"lon":5.4111,"is_reserved":false,"is_disabled":false,"rental_uris":{"android":"levelo://app?vid=a5685bee-9f0c-4f66-9b7f-9b64f37b16ba","ios":"levelo://app?vid=a5685bee-9f0c-4f66-9b7f-9b64f37b16ba"},"vehicle_type_id":"4","last_reported":1741872012,"current_range_meters":10800,"station_id":"ce4bhkp2rcd13ifvqgd0","pricing_plan_id":"cebpf4jnsgd1na2vs0mg"},{"bike_id":"1179ea35-4831-4438-984a-d67269a5255b","system_id":"levelo_inurba_marseille","lat":43.23198,"lon":5.35545,"is_reserved":false,"is_disabled":false,"rental_uris":{"android":"levelo://app?vid=1179ea35-4831-4438-984a-d67269a5255b","ios":"levelo://app?vid=1179ea35-4831-4438-984a-d67269a5255b"},"vehicle_type_id":"4","last_reported":1741872012,"current_range_meters":10800,"station_id":"ce4bhu92rcd13ifvqi70","pricing_plan_id":"cebpf4jnsgd1na2vs0mg"},{"bike_id":"154d0f4a-7cf1-4b4a-8919-807104d462e1","system_id":"levelo_inurba_marseille","lat":43.26665,"lon":5.38612,"is_reserved":false,"is_disabled":false,"rental_uris":{"android":"levelo://app?vid=154d0f4a-7cf1-4b4a-8919-807104d462e1","ios":"levelo://app?vid=154d0f4a-7cf1-4b4a-8919-807104d462e1"},"vehicle_type_id":"4","last_reported":1741872012,"current_range_meters":10800,"station_id":"","pricing_plan_id":"cebpf4jnsgd1na2vs0mg"},{"bike_id":"079f3adc-4b20-4152-b0b0-dabdb04df937","system_id":"levelo_inurba_marseille","lat":43.29833,"lon":5.36282,"is_reserved":false,"is_disabled":false,"rental_uris":{"android":"levelo://app?vid=079f3adc-4b20-4152-b0b0-dabdb04df937","ios":"levelo://app?vid=079f3adc-4b20-4152-b0b0-dabdb04df937"},"vehicle_type_id":"4","last_reported":1741872012,"current_range_meters":10800,"station_id":"ce4bgpp2rcd13ifvqc3g","pricing_plan_id":"cebpf4jnsgd1na2vs0mg"},{"bike_id":"86d56884-7fc9-4629-89dc-1e64bfc5f337","system_id":"levelo_inurba_marseille","lat":43.28625,"lon":5.35093,"is_reserved":false,"is_disabled":false,"rental_uris":{"android":"levelo://app?vid=86d56884-7fc9-4629-89dc-1e64bfc5f337","ios":"levelo://app?vid=86d56884-7fc9-4629-89dc-1e64bfc5f337"},"vehicle_type_id":"4","last_reported":1741872012,"current_range_meters":10800,"station_id":"ce4bhch2rcd13ifvqeug","pricing_plan_id":"cebpf4jnsgd1na2vs0mg"},{"bike_id":"6618053d-dde2-47c0-a12d-f4d2effeb906","system_id":"levelo_inurba_marseille","lat":43.305952,"lon":5.393621,"is_reserved":false,"is_disabled":false,"rental_uris":{"android":"levelo://app?vid=6618053d-dde2-47c0-a12d-f4d2effeb906","ios":"levelo://app?vid=6618053d-dde2-47c0-a12d-f4d2effeb906"},"vehicle_type_id":"4","last_reported":1741872012,"current_range_meters":14400,"station_id":"ce4bh192rcd13ifvqdd0","pricing_plan_id":"cebpf4jnsgd1na2vs0mg"},{"bike_id":"5233e443-1736-449b-bfef-634509c8ee4b","system_id":"levelo_inurba_marseille","lat":43.2949,"lon":5.3864,"is_reserved":false,"is_disabled":false,"rental_uris":{"android":"levelo://app?vid=5233e443-1736-449b-bfef-634509c8ee4b","ios":"levelo://app?vid=5233e443-1736-449b-bfef-634509c8ee4b"},"vehicle_type_id":"4","last_reported":1741872012,"current_range_meters":11200,"station_id":"","pricing_plan_id":"cebpf4jnsgd1na2vs0mg"},{"bike_id":"81e446ed-0846-46c4-8f21-1cce76626937","system_id":"levelo_inurba_marseille","lat":43.28845,"lon":5.39325,"is_reserved":false,"is_disabled":false,"rental_uris":{"android":"levelo://app?vid=81e446ed-0846-46c4-8f21-1cce76626937","ios":"levelo://app?vid=81e446ed-0846-46c4-8f21-1cce76626937"},"vehicle_type_id":"4","last_reported":1741872012,"current_range_meters":10800,"station_id":"ce4bh2p2rcd13ifvqdi0","pricing_plan_id":"cebpf4jnsgd1na2vs0mg"},{"bike_id":"5ecdb12c-36da-48a5-bb20-9b777db2eeab","system_id":"levelo_inurba_marseille","lat":43.31167,"lon":5.38719,"is_reserved":false,"is_disabled":false,"rental_uris":{"android":"levelo://app?vid=5ecdb12c-36da-48a5-bb20-9b777db2eeab","ios":"levelo://app?vid=5ecdb12c-36da-48a5-bb20-9b777db2eeab"},"vehicle_type_id":"4","last_reported":1741872012,"current_range_meters":11200,"station_id":"ce4bgv12rcd13ifvqcp0","pricing_plan_id":"cebpf4jnsgd1na2vs0mg"},{"bike_id":"70d7825b-a30c-4b78-bae2-c7ac789d6f10","system_id":"levelo_inurba_marseille","lat":43.29854,"lon":5.3627,"is_reserved":false,"is_disabled":false,"rental_uris":{"android":"levelo://app?vid=70d7825b-a30c-4b78-bae2-c7ac789d6f10","ios":"levelo://app?vid=70d7825b-a30c-4b78-bae2-c7ac789d6f10"},"vehicle_type_id":"4","last_reported":1741872012,"current_range_meters":11600,"station_id":"ce4bgpp2rcd13ifvqc3g","pricing_plan_id":"cebpf4jnsgd1na2vs0mg"},{"bike_id":"647ce4fb-fd79-4734-870d-f132fd7d3848","system_id":"levelo_inurba_marseille","lat":43.30949,"lon":5.39065,"is_reserved":false,"is_disabled":false,"rental_uris":{"android":"levelo://app?vid=647ce4fb-fd79-4734-870d-f132fd7d3848","ios":"levelo://app?vid=647ce4fb-fd79-4734-870d-f132fd7d3848"},"vehicle_type_id":"4","last_reported":1741872012,"current_range_meters":11600,"station_id":"ce4bgup2rcd13ifvqco0","pricing_plan_id":"cebpf4jnsgd1na2vs0mg"},{"bike_id":"4760c4a3-2ebc-4787-9bfd-517781e41b15","system_id":"levelo_inurba_marseille","lat":43.28612,"lon":5.37063,"is_reserved":false,"is_disabled":false,"rental_uris":{"android":"levelo://app?vid=4760c4a3-2ebc-4787-9bfd-517781e41b15","ios":"levelo://app?vid=4760c4a3-2ebc-4787-9bfd-517781e41b15"},"vehicle_type_id":"4","last_reported":1741872012,"current_range_meters":11600,"station_id":"ce4bht12rcd13ifvqi60","pricing_plan_id":"cebpf4jnsgd1na2vs0mg"},{"bike_id":"23310646-2eaa-4b03-9b40-98800746bac9","system_id":"levelo_inurba_marseille","lat":43.26497,"lon":5.39544,"is_reserved":false,"is_disabled":false,"rental_uris":{"android":"levelo://app?vid=23310646-2eaa-4b03-9b40-98800746bac9","ios":"levelo://app?vid=23310646-2eaa-4b03-9b40-98800746bac9"},"vehicle_type_id":"4","last_reported":1741872012,"current_range_meters":11600,"station_id":"ce4bhi12rcd13ifvqfq0","pricing_plan_id":"cebpf4jnsgd1na2vs0mg"},{"bike_id":"5cce8c68-ab9c-4191-af50-cc1d03765c2b","system_id":"levelo_inurba_marseille","lat":43.259214,"lon":5.408973,"is_reserved":false,"is_disabled":false,"rental_uris":{"android":"levelo://app?vid=5cce8c68-ab9c-4191-af50-cc1d03765c2b","ios":"levelo://app?vid=5cce8c68-ab9c-4191-af50-cc1d03765c2b"},"vehicle_type_id":"4","last_reported":1741872012,"current_range_meters":12000,"station_id":"ce4bhm92rcd13ifvqglg","pricing_plan_id":"cebpf4jnsgd1na2vs0mg"},{"bike_id":"abb4d827-d99d-447a-b69c-566f9402f115","system_id":"levelo_inurba_marseille","lat":43.25906,"lon":5.40915,"is_reserved":false,"is_disabled":false,"rental_uris":{"android":"levelo://app?vid=abb4d827-d99d-447a-b69c-566f9402f115","ios":"levelo://app?vid=abb4d827-d99d-447a-b69c-566f9402f115"},"vehicle_type_id":"4","last_reported":1741872012,"current_range_meters":12000,"station_id":"ce4bhm92rcd13ifvqglg","pricing_plan_id":"cebpf4jnsgd1na2vs0mg"},{"bike_id":"61b9ad25-9195-424f-875c-94c04a329ec9","system_id":"levelo_inurba_marseille","lat":43.33026,"lon":5.39046,"is_reserved":false,"is_disabled":false,"rental_uris":{"android":"levelo://app?vid=61b9ad25-9195-424f-875c-94c04a329ec9","ios":"levelo://app?vid=61b9ad25-9195-424f-875c-94c04a329ec9"},"vehicle_type_id":"4","last_reported":1741872012,"current_range_meters":12000,"station_id":"ce4bhr92rcd13ifvqhrg","pricing_plan_id":"cebpf4jnsgd1na2vs0mg"},{"bike_id":"d7d0cdbd-3f6b-4af6-9958-1322ed4e09c5","system_id":"levelo_inurba_marseille","lat":43.31014,"lon":5.37553,"is_reserved":false,"is_disabled":false,"rental_uris":{"android":"levelo://app?vid=d7d0cdbd-3f6b-4af6-9958-1322ed4e09c5","ios":"levelo://app?vid=d7d0cdbd-3f6b-4af6-9958-1322ed4e09c5"},"vehicle_type_id":"4","last_reported":1741872012,"current_range_meters":12000,"station_id":"","pricing_plan_id":"cebpf4jnsgd1na2vs0mg"},{"bike_id":"a840c813-de68-43a4-881a-5419fa38c2c8","system_id":"levelo_inurba_marseille","lat":43.28941,"lon":5.36407,"is_reserved":false,"is_disabled":false,"rental_uris":{"android":"levelo://app?vid=a840c813-de68-43a4-881a-5419fa38c2c8","ios":"levelo://app?vid=a840c813-de68-43a4-881a-5419fa38c2c8"},"vehicle_type_id":"4","last_reported":1741872012,"current_range_meters":12000,"station_id":"ce4bhc92rcd13ifvqetg","pricing_plan_id":"cebpf4jnsgd1na2vs0mg"},{"bike_id":"f6769e2a-4269-40bc-9871-eb9c34f1d0d7","system_id":"levelo_inurba_marseille","lat":43.28111,"lon":5.37838,"is_reserved":false,"is_disabled":false,"rental_uris":{"android":"levelo://app?vid=f6769e2a-4269-40bc-9871-eb9c34f1d0d7","ios":"levelo://app?vid=f6769e2a-4269-40bc-9871-eb9c34f1d0d7"},"vehicle_type_id":"4","last_reported":1741872012,"current_range_meters":12000,"station_id":"ce4bha12rcd13ifvqee0","pricing_plan_id":"cebpf4jnsgd1na2vs0mg"},{"bike_id":"870a345f-b616-4652-8242-0593283c2ba6","system_id":"levelo_inurba_marseille","lat":43.28618,"lon":5.35101,"is_reserved":false,"is_disabled":false,"rental_uris":{"android":"levelo://app?vid=870a345f-b616-4652-8242-0593283c2ba6","ios":"levelo://app?vid=870a345f-b616-4652-8242-0593283c2ba6"},"vehicle_type_id":"4","last_reported":1741872012,"current_range_meters":12000,"station_id":"ce4bhch2rcd13ifvqeug","pricing_plan_id":"cebpf4jnsgd1na2vs0mg"},{"bike_id":"a3512859-e395-437f-b299-2d45702f1f76","system_id":"levelo_inurba_marseille","lat":43.31166,"lon":5.38707,"is_reserved":false,"is_disabled":false,"rental_uris":{"android":"levelo://app?vid=a3512859-e395-437f-b299-2d45702f1f76","ios":"levelo://app?vid=a3512859-e395-437f-b299-2d45702f1f76"},"vehicle_type_id":"4","last_reported":1741872012,"current_range_meters":12000,"station_id":"ce4bgv12rcd13ifvqcp0","pricing_plan_id":"cebpf4jnsgd1na2vs0mg"},{"bike_id":"af4fb67b-0711-4730-92c6-c1c2106de2eb","system_id":"levelo_inurba_marseille","lat":43.28852,"lon":5.39313,"is_reserved":false,"is_disabled":false,"rental_uris":{"android":"levelo://app?vid=af4fb67b-0711-4730-92c6-c1c2106de2eb","ios":"levelo://app?vid=af4fb67b-0711-4730-92c6-c1c2106de2eb"},"vehicle_type_id":"4","last_reported":1741872012,"current_range_meters":11600,"station_id":"ce4bh2p2rcd13ifvqdi0","pricing_plan_id":"cebpf4jnsgd1na2vs0mg"},{"bike_id":"00e9cc9b-4e9f-4f02-aa23-0b824e0e7a79","system_id":"levelo_inurba_marseille","lat":43.24184,"lon":5.3973,"is_reserved":false,"is_disabled":false,"rental_uris":{"android":"levelo://app?vid=00e9cc9b-4e9f-4f02-aa23-0b824e0e7a79","ios":"levelo://app?vid=00e9cc9b-4e9f-4f02-aa23-0b824e0e7a79"},"vehicle_type_id":"4","last_reported":1741872012,"current_range_meters":12000,"station_id":"ce4bhn12rcd13ifvqgpg","pricing_plan_id":"cebpf4jnsgd1na2vs0mg"},{"bike_id":"414a87d8-0320-4da5-94cb-1c2e9eb2c2e2","system_id":"levelo_inurba_marseille","lat":43.2581,"lon":5.3944,"is_reserved":false,"is_disabled":false,"rental_uris":{"android":"levelo://app?vid=414a87d8-0320-4da5-94cb-1c2e9eb2c2e2","ios":"levelo://app?vid=414a87d8-0320-4da5-94cb-1c2e9eb2c2e2"},"vehicle_type_id":"4","last_reported":1741872012,"current_range_meters":12400,"station_id":"ce4bhip2rcd13ifvqft0","pricing_plan_id":"cebpf4jnsgd1na2vs0mg"},{"bike_id":"2ee09967-204b-4f56-99c7-f17a638b168d","system_id":"levelo_inurba_marseille","lat":43.2795,"lon":5.41042,"is_reserved":false,"is_disabled":false,"rental_uris":{"android":"levelo://app?vid=2ee09967-204b-4f56-99c7-f17a638b168d","ios":"levelo://app?vid=2ee09967-204b-4f56-99c7-f17a638b168d"},"vehicle_type_id":"4","last_reported":1741872012,"current_range_meters":12400,"station_id":"ce4bhnp2rcd13ifvqh0g","pricing_plan_id":"cebpf4jnsgd1na2vs0mg"},{"bike_id":"d53c9d55-c016-4f0b-a7bc-524296ab5950","system_id":"levelo_inurba_marseille","lat":43.284766,"lon":5.384286,"is_reserved":false,"is_disabled":false,"rental_uris":{"android":"levelo://app?vid=d53c9d55-c016-4f0b-a7bc-524296ab5950","ios":"levelo://app?vid=d53c9d55-c016-4f0b-a7bc-524296ab5950"},"vehicle_type_id":"4","last_reported":1741872012,"current_range_meters":8800,"station_id":"ce4bhb12rcd13ifvqem0","pricing_plan_id":"cebpf4jnsgd1na2vs0mg"},{"bike_id":"90c3c366-34c7-435d-97f2-64cd52aa5749","system_id":"levelo_inurba_marseille","lat":43.28497,"lon":5.38403,"is_reserved":false,"is_disabled":false,"rental_uris":{"android":"levelo://app?vid=90c3c366-34c7-435d-97f2-64cd52aa5749","ios":"levelo://app?vid=90c3c366-34c7-435d-97f2-64cd52aa5749"},"vehicle_type_id":"4","last_reported":1741872012,"current_range_meters":12400,"station_id":"ce4bh512rcd13ifvqe3g","pricing_plan_id":"cebpf4jnsgd1na2vs0mg"},{"bike_id":"6944bb06-8a8c-4cf4-86a1-ca9561cf4ee4","system_id":"levelo_inurba_marseille","lat":43.23055,"lon":5.35497,"is_reserved":false,"is_disabled":false,"rental_uris":{"android":"levelo://app?vid=6944bb06-8a8c-4cf4-86a1-ca9561cf4ee4","ios":"levelo://app?vid=6944bb06-8a8c-4cf4-86a1-ca9561cf4ee4"},"vehicle_type_id":"4","last_reported":1741872012,"current_range_meters":12400,"station_id":"cpo3342slgdg3j2ifvpg","pricing_plan_id":"cebpf4jnsgd1na2vs0mg"},{"bike_id":"41404971-8a00-4e9f-960f-3da0974a46d4","system_id":"levelo_inurba_marseille","lat":43.24996,"lon":5.3894,"is_reserved":false,"is_disabled":false,"rental_uris":{"android":"levelo://app?vid=41404971-8a00-4e9f-960f-3da0974a46d4","ios":"levelo://app?vid=41404971-8a00-4e9f-960f-3da0974a46d4"},"vehicle_type_id":"4","last_reported":1741872012,"current_range_meters":12400,"station_id":"ce4bhgp2rcd13ifvqfd0","pricing_plan_id":"cebpf4jnsgd1na2vs0mg"},{"bike_id":"c54fd0be-7a4e-4b77-a737-cd1b6b7ff121","system_id":"levelo_inurba_marseille","lat":43.2907,"lon":5.37159,"is_reserved":false,"is_disabled":false,"rental_uris":{"android":"levelo://app?vid=c54fd0be-7a4e-4b77-a737-cd1b6b7ff121","ios":"levelo://app?vid=c54fd0be-7a4e-4b77-a737-cd1b6b7ff121"},"vehicle_type_id":"4","last_reported":1741872012,"current_range_meters":8400,"station_id":"ce4bh5p2rcd13ifvqe4g","pricing_plan_id":"cebpf4jnsgd1na2vs0mg"},{"bike_id":"4ed09335-0162-4416-a9cd-f5cc0d7ae866","system_id":"levelo_inurba_marseille","lat":43.23153,"lon":5.43726,"is_reserved":false,"is_disabled":false,"rental_uris":{"android":"levelo://app?vid=4ed09335-0162-4416-a9cd-f5cc0d7ae866","ios":"levelo://app?vid=4ed09335-0162-4416-a9cd-f5cc0d7ae866"},"vehicle_type_id":"4","last_reported":1741872012,"current_range_meters":12800,"station_id":"ce4bhmp2rcd13ifvqgog","pricing_plan_id":"cebpf4jnsgd1na2vs0mg"},{"bike_id":"4e376f55-e98a-4bf1-8d5f-c79209c93ec1","system_id":"levelo_inurba_marseille","lat":43.30547,"lon":5.36536,"is_reserved":false,"is_disabled":false,"rental_uris":{"android":"levelo://app?vid=4e376f55-e98a-4bf1-8d5f-c79209c93ec1","ios":"levelo://app?vid=4e376f55-e98a-4bf1-8d5f-c79209c93ec1"},"vehicle_type_id":"4","last_reported":1741872012,"current_range_meters":12800,"station_id":"ce4bgs12rcd13ifvqcag","pricing_plan_id":"cebpf4jnsgd1na2vs0mg"},{"bike_id":"2189b7d1-7835-47c5-a635-4d29db82de0f","system_id":"levelo_inurba_marseille","lat":43.24087,"lon":5.37732,"is_reserved":false,"is_disabled":false,"rental_uris":{"android":"levelo://app?vid=2189b7d1-7835-47c5-a635-4d29db82de0f","ios":"levelo://app?vid=2189b7d1-7835-47c5-a635-4d29db82de0f"},"vehicle_type_id":"4","last_reported":1741872012,"current_range_meters":12800,"station_id":"ce4bhnp2rcd13ifvqgvg","pricing_plan_id":"cebpf4jnsgd1na2vs0mg"},{"bike_id":"9db5f361-402f-483a-bcdc-9e6d2c49648d","system_id":"levelo_inurba_marseille","lat":43.28116,"lon":5.37848,"is_reserved":false,"is_disabled":false,"rental_uris":{"android":"levelo://app?vid=9db5f361-402f-483a-bcdc-9e6d2c49648d","ios":"levelo://app?vid=9db5f361-402f-483a-bcdc-9e6d2c49648d"},"vehicle_type_id":"4","last_reported":1741872012,"current_range_meters":12800,"station_id":"ce4bha12rcd13ifvqee0","pricing_plan_id":"cebpf4jnsgd1na2vs0mg"},{"bike_id":"a9506dd6-2164-46b0-9578-9303d5dfb6f7","system_id":"levelo_inurba_marseille","lat":43.26556,"lon":5.37285,"is_reserved":false,"is_disabled":false,"rental_uris":{"android":"levelo://app?vid=a9506dd6-2164-46b0-9578-9303d5dfb6f7","ios":"levelo://app?vid=a9506dd6-2164-46b0-9578-9303d5dfb6f7"},"vehicle_type_id":"4","last_reported":1741872012,"current_range_meters":12800,"station_id":"ce4bhg12rcd13ifvqf70","pricing_plan_id":"cebpf4jnsgd1na2vs0mg"},{"bike_id":"7a2815b8-abd1-41e8-b898-fdea78b1c8e2","system_id":"levelo_inurba_marseille","lat":43.301423,"lon":5.374222,"is_reserved":false,"is_disabled":false,"rental_uris":{"android":"levelo://app?vid=7a2815b8-abd1-41e8-b898-fdea78b1c8e2","ios":"levelo://app?vid=7a2815b8-abd1-41e8-b898-fdea78b1c8e2"},"vehicle_type_id":"4","last_reported":1741872012,"current_range_meters":12800,"station_id":"ce4bgjh2rcd13ifvqbf0","pricing_plan_id":"cebpf4jnsgd1na2vs0mg"},{"bike_id":"7121d818-13e2-43ed-b445-7134fefdd64f","system_id":"levelo_inurba_marseille","lat":43.231958,"lon":5.355512,"is_reserved":false,"is_disabled":false,"rental_uris":{"android":"levelo://app?vid=7121d818-13e2-43ed-b445-7134fefdd64f","ios":"levelo://app?vid=7121d818-13e2-43ed-b445-7134fefdd64f"},"vehicle_type_id":"4","last_reported":1741872012,"current_range_meters":13600,"station_id":"ce4bhu92rcd13ifvqi70","pricing_plan_id":"cebpf4jnsgd1na2vs0mg"},{"bike_id":"9b750467-87e2-4fdb-93d7-edcb536818eb","system_id":"levelo_inurba_marseille","lat":43.3059,"lon":5.36738,"is_reserved":false,"is_disabled":false,"rental_uris":{"android":"levelo://app?vid=9b750467-87e2-4fdb-93d7-edcb536818eb","ios":"levelo://app?vid=9b750467-87e2-4fdb-93d7-edcb536818eb"},"vehicle_type_id":"4","last_reported":1741872012,"current_range_meters":13600,"station_id":"ce4bgrp2rcd13ifvqc9g","pricing_plan_id":"cebpf4jnsgd1na2vs0mg"},{"bike_id":"317454e4-dd48-4611-814d-533bcc596415","system_id":"levelo_inurba_marseille","lat":43.29043,"lon":5.37559,"is_reserved":false,"is_disabled":false,"rental_uris":{"android":"levelo://app?vid=317454e4-dd48-4611-814d-533bcc596415","ios":"levelo://app?vid=317454e4-dd48-4611-814d-533bcc596415"},"vehicle_type_id":"4","last_reported":1741872012,"current_range_meters":13600,"station_id":"ce4bh692rcd13ifvqe90","pricing_plan_id":"cebpf4jnsgd1na2vs0mg"},{"bike_id":"a1fcbf01-446c-4e19-b411-15c149ea7aa3","system_id":"levelo_inurba_marseille","lat":43.29971,"lon":5.41348,"is_reserved":false,"is_disabled":false,"rental_uris":{"android":"levelo://app?vid=a1fcbf01-446c-4e19-b411-15c149ea7aa3","ios":"levelo://app?vid=a1fcbf01-446c-4e19-b411-15c149ea7aa3"},"vehicle_type_id":"4","last_reported":1741872012,"current_range_meters":13600,"station_id":"ce4bhp12rcd13ifvqh9g","pricing_plan_id":"cebpf4jnsgd1na2vs0mg"},{"bike_id":"b58c8907-99d2-493e-a9cb-37d0a6855ab5","system_id":"levelo_inurba_marseille","lat":43.28621,"lon":5.35106,"is_reserved":false,"is_disabled":false,"rental_uris":{"android":"levelo://app?vid=b58c8907-99d2-493e-a9cb-37d0a6855ab5","ios":"levelo://app?vid=b58c8907-99d2-493e-a9cb-37d0a6855ab5"},"vehicle_type_id":"4","last_reported":1741872012,"current_range_meters":13600,"station_id":"ce4bhch2rcd13ifvqeug","pricing_plan_id":"cebpf4jnsgd1na2vs0mg"},{"bike_id":"45f5800a-99c6-4c7e-892e-8047007584fe","system_id":"levelo_inurba_marseille","lat":43.29869,"lon":5.36275,"is_reserved":false,"is_disabled":false,"rental_uris":{"android":"levelo://app?vid=45f5800a-99c6-4c7e-892e-8047007584fe","ios":"levelo://app?vid=45f5800a-99c6-4c7e-892e-8047007584fe"},"vehicle_type_id":"4","last_reported":1741872012,"current_range_meters":13600,"station_id":"ce4bgpp2rcd13ifvqc3g","pricing_plan_id":"cebpf4jnsgd1na2vs0mg"},{"bike_id":"36ec5a15-215b-4367-a3ca-336aadd9a251","system_id":"levelo_inurba_marseille","lat":43.33746,"lon":5.3745,"is_reserved":false,"is_disabled":false,"rental_uris":{"android":"levelo://app?vid=36ec5a15-215b-4367-a3ca-336aadd9a251","ios":"levelo://app?vid=36ec5a15-215b-4367-a3ca-336aadd9a251"},"vehicle_type_id":"4","last_reported":1741872012,"current_range_meters":13600,"station_id":"","pricing_plan_id":"cebpf4jnsgd1na2vs0mg"},{"bike_id":"c4e17f26-b51c-4d27-9aba-21a82338cf13","system_id":"levelo_inurba_marseille","lat":43.27049,"lon":5.40269,"is_reserved":false,"is_disabled":false,"rental_uris":{"android":"levelo://app?vid=c4e17f26-b51c-4d27-9aba-21a82338cf13","ios":"levelo://app?vid=c4e17f26-b51c-4d27-9aba-21a82338cf13"},"vehicle_type_id":"4","last_reported":1741872012,"current_range_meters":14000,"station_id":"ce4bhk92rcd13ifvqgc0","pricing_plan_id":"cebpf4jnsgd1na2vs0mg"},{"bike_id":"05f7e6b4-489c-490e-8c71-1ca366b76b36","system_id":"levelo_inurba_marseille","lat":43.26503,"lon":5.39548,"is_reserved":false,"is_disabled":false,"rental_uris":{"android":"levelo://app?vid=05f7e6b4-489c-490e-8c71-1ca366b76b36","ios":"levelo://app?vid=05f7e6b4-489c-490e-8c71-1ca366b76b36"},"vehicle_type_id":"4","last_reported":1741872012,"current_range_meters":14000,"station_id":"ce4bhi12rcd13ifvqfq0","pricing_plan_id":"cebpf4jnsgd1na2vs0mg"},{"bike_id":"c21d61f0-bcdb-4f5b-905a-e9e09c25ab8b","system_id":"levelo_inurba_marseille","lat":43.240674,"lon":5.377229,"is_reserved":false,"is_disabled":false,"rental_uris":{"android":"levelo://app?vid=c21d61f0-bcdb-4f5b-905a-e9e09c25ab8b","ios":"levelo://app?vid=c21d61f0-bcdb-4f5b-905a-e9e09c25ab8b"},"vehicle_type_id":"4","last_reported":1741872012,"current_range_meters":14000,"station_id":"ce4bhnp2rcd13ifvqgvg","pricing_plan_id":"cebpf4jnsgd1na2vs0mg"},{"bike_id":"3363e5ed-aafd-4c83-9f97-12270e6ffcf4","system_id":"levelo_inurba_marseille","lat":43.24867,"lon":5.40685,"is_reserved":false,"is_disabled":false,"rental_uris":{"android":"levelo://app?vid=3363e5ed-aafd-4c83-9f97-12270e6ffcf4","ios":"levelo://app?vid=3363e5ed-aafd-4c83-9f97-12270e6ffcf4"},"vehicle_type_id":"4","last_reported":1741872012,"current_range_meters":14000,"station_id":"","pricing_plan_id":"cebpf4jnsgd1na2vs0mg"},{"bike_id":"2b1b509a-ae2c-4705-a5bd-2d2a5200b454","system_id":"levelo_inurba_marseille","lat":43.3054,"lon":5.36534,"is_reserved":false,"is_disabled":false,"rental_uris":{"android":"levelo://app?vid=2b1b509a-ae2c-4705-a5bd-2d2a5200b454","ios":"levelo://app?vid=2b1b509a-ae2c-4705-a5bd-2d2a5200b454"},"vehicle_type_id":"4","last_reported":1741872012,"current_range_meters":14000,"station_id":"ce4bgs12rcd13ifvqcag","pricing_plan_id":"cebpf4jnsgd1na2vs0mg"},{"bike_id":"436bf6fd-98f0-4c70-968c-7fcac8f398a5","system_id":"levelo_inurba_marseille","lat":43.25089,"lon":5.41065,"is_reserved":false,"is_disabled":false,"rental_uris":{"android":"levelo://app?vid=436bf6fd-98f0-4c70-968c-7fcac8f398a5","ios":"levelo://app?vid=436bf6fd-98f0-4c70-968c-7fcac8f398a5"},"vehicle_type_id":"4","last_reported":1741872012,"current_range_meters":14400,"station_id":"","pricing_plan_id":"cebpf4jnsgd1na2vs0mg"},{"bike_id":"5f2dca58-e98b-4b38-acb0-95e8625ef0e9","system_id":"levelo_inurba_marseille","lat":43.29785,"lon":5.38082,"is_reserved":false,"is_disabled":false,"rental_uris":{"android":"levelo://app?vid=5f2dca58-e98b-4b38-acb0-95e8625ef0e9","ios":"levelo://app?vid=5f2dca58-e98b-4b38-acb0-95e8625ef0e9"},"vehicle_type_id":"4","last_reported":1741872012,"current_range_meters":14400,"station_id":"ce4bgip2rcd13ifvqbb0","pricing_plan_id":"cebpf4jnsgd1na2vs0mg"},{"bike_id":"b634fcd7-4303-4fed-a2f8-fcd04ed2a4dd","system_id":"levelo_inurba_marseille","lat":43.23053,"lon":5.35512,"is_reserved":false,"is_disabled":false,"rental_uris":{"android":"levelo://app?vid=b634fcd7-4303-4fed-a2f8-fcd04ed2a4dd","ios":"levelo://app?vid=b634fcd7-4303-4fed-a2f8-fcd04ed2a4dd"},"vehicle_type_id":"4","last_reported":1741872012,"current_range_meters":14400,"station_id":"cpo3342slgdg3j2ifvpg","pricing_plan_id":"cebpf4jnsgd1na2vs0mg"},{"bike_id":"9a719051-5115-4a08-8e7b-ae42f9cbb7fe","system_id":"levelo_inurba_marseille","lat":43.31105,"lon":5.37773,"is_reserved":false,"is_disabled":false,"rental_uris":{"android":"levelo://app?vid=9a719051-5115-4a08-8e7b-ae42f9cbb7fe","ios":"levelo://app?vid=9a719051-5115-4a08-8e7b-ae42f9cbb7fe"},"vehicle_type_id":"4","last_reported":1741872012,"current_range_meters":14400,"station_id":"ce4bgt92rcd13ifvqcg0","pricing_plan_id":"cebpf4jnsgd1na2vs0mg"},{"bike_id":"e4f59c94-c98b-4350-9de1-3ea0397f9325","system_id":"levelo_inurba_marseille","lat":43.24071,"lon":5.37754,"is_reserved":false,"is_disabled":false,"rental_uris":{"android":"levelo://app?vid=e4f59c94-c98b-4350-9de1-3ea0397f9325","ios":"levelo://app?vid=e4f59c94-c98b-4350-9de1-3ea0397f9325"},"vehicle_type_id":"4","last_reported":1741872012,"current_range_meters":14400,"station_id":"ce4bhnp2rcd13ifvqgvg","pricing_plan_id":"cebpf4jnsgd1na2vs0mg"},{"bike_id":"7a2528c7-fc51-47b3-b130-bcfcd01c1079","system_id":"levelo_inurba_marseille","lat":43.25932,"lon":5.40908,"is_reserved":false,"is_disabled":false,"rental_uris":{"android":"levelo://app?vid=7a2528c7-fc51-47b3-b130-bcfcd01c1079","ios":"levelo://app?vid=7a2528c7-fc51-47b3-b130-bcfcd01c1079"},"vehicle_type_id":"4","last_reported":1741872012,"current_range_meters":14800,"station_id":"ce4bhm92rcd13ifvqglg","pricing_plan_id":"cebpf4jnsgd1na2vs0mg"},{"bike_id":"ea639f24-b77c-40d9-975f-98b9d156fe6b","system_id":"levelo_inurba_marseille","lat":43.30559,"lon":5.36536,"is_reserved":false,"is_disabled":false,"rental_uris":{"android":"levelo://app?vid=ea639f24-b77c-40d9-975f-98b9d156fe6b","ios":"levelo://app?vid=ea639f24-b77c-40d9-975f-98b9d156fe6b"},"vehicle_type_id":"4","last_reported":1741872012,"current_range_meters":14800,"station_id":"ce4bgs12rcd13ifvqcag","pricing_plan_id":"cebpf4jnsgd1na2vs0mg"},{"bike_id":"c36d1500-f4d5-46bc-8fde-f914dc989473","system_id":"levelo_inurba_marseille","lat":43.29965,"lon":5.41333,"is_reserved":false,"is_disabled":false,"rental_uris":{"android":"levelo://app?vid=c36d1500-f4d5-46bc-8fde-f914dc989473","ios":"levelo://app?vid=c36d1500-f4d5-46bc-8fde-f914dc989473"},"vehicle_type_id":"4","last_reported":1741872012,"current_range_meters":14800,"station_id":"ce4bhp12rcd13ifvqh9g","pricing_plan_id":"cebpf4jnsgd1na2vs0mg"},{"bike_id":"64f01230-4fcb-46c5-915f-6a8b3b29b167","system_id":"levelo_inurba_marseille","lat":43.2751,"lon":5.42452,"is_reserved":false,"is_disabled":false,"rental_uris":{"android":"levelo://app?vid=64f01230-4fcb-46c5-915f-6a8b3b29b167","ios":"levelo://app?vid=64f01230-4fcb-46c5-915f-6a8b3b29b167"},"vehicle_type_id":"4","last_reported":1741872012,"current_range_meters":14800,"station_id":"ce4bhn92rcd13ifvqgrg","pricing_plan_id":"cebpf4jnsgd1na2vs0mg"},{"bike_id":"77cbc960-d867-4b5b-9b37-36d75958c974","system_id":"levelo_inurba_marseille","lat":43.29938,"lon":5.36541,"is_reserved":false,"is_disabled":false,"rental_uris":{"android":"levelo://app?vid=77cbc960-d867-4b5b-9b37-36d75958c974","ios":"levelo://app?vid=77cbc960-d867-4b5b-9b37-36d75958c974"},"vehicle_type_id":"4","last_reported":1741872012,"current_range_meters":14800,"station_id":"ce4bgm92rcd13ifvqbr0","pricing_plan_id":"cebpf4jnsgd1na2vs0mg"},{"bike_id":"edeff993-7353-413f-b42c-b0f5072095e8","system_id":"levelo_inurba_marseille","lat":43.25947,"lon":5.40841,"is_reserved":false,"is_disabled":false,"rental_uris":{"android":"levelo://app?vid=edeff993-7353-413f-b42c-b0f5072095e8","ios":"levelo://app?vid=edeff993-7353-413f-b42c-b0f5072095e8"},"vehicle_type_id":"4","last_reported":1741872012,"current_range_meters":14800,"station_id":"","pricing_plan_id":"cebpf4jnsgd1na2vs0mg"},{"bike_id":"36fa1bfb-4451-41ac-ac56-73ee9f3feeab","system_id":"levelo_inurba_marseille","lat":43.31197,"lon":5.3687,"is_reserved":false,"is_disabled":false,"rental_uris":{"android":"levelo://app?vid=36fa1bfb-4451-41ac-ac56-73ee9f3feeab","ios":"levelo://app?vid=36fa1bfb-4451-41ac-ac56-73ee9f3feeab"},"vehicle_type_id":"4","last_reported":1741872012,"current_range_meters":15200,"station_id":"ce4bgl92rcd13ifvqbq0","pricing_plan_id":"cebpf4jnsgd1na2vs0mg"},{"bike_id":"a5e71948-735a-4229-b2ca-74d55fc62066","system_id":"levelo_inurba_marseille","lat":43.28038,"lon":5.36931,"is_reserved":false,"is_disabled":false,"rental_uris":{"android":"levelo://app?vid=a5e71948-735a-4229-b2ca-74d55fc62066","ios":"levelo://app?vid=a5e71948-735a-4229-b2ca-74d55fc62066"},"vehicle_type_id":"4","last_reported":1741872012,"current_range_meters":15200,"station_id":"ce4bha12rcd13ifvqef0","pricing_plan_id":"cebpf4jnsgd1na2vs0mg"},{"bike_id":"9c4c1bbb-ba31-4ce3-aa87-661359cc4d42","system_id":"levelo_inurba_marseille","lat":43.31359,"lon":5.36727,"is_reserved":false,"is_disabled":false,"rental_uris":{"android":"levelo://app?vid=9c4c1bbb-ba31-4ce3-aa87-661359cc4d42","ios":"levelo://app?vid=9c4c1bbb-ba31-4ce3-aa87-661359cc4d42"},"vehicle_type_id":"4","last_reported":1741872012,"current_range_meters":15200,"station_id":"ce4bgr92rcd13ifvqc6g","pricing_plan_id":"cebpf4jnsgd1na2vs0mg"},{"bike_id":"77cc074f-a4fc-4efc-9943-a45c92a22bc2","system_id":"levelo_inurba_marseille","lat":43.3125,"lon":5.369,"is_reserved":false,"is_disabled":false,"rental_uris":{"android":"levelo://app?vid=77cc074f-a4fc-4efc-9943-a45c92a22bc2","ios":"levelo://app?vid=77cc074f-a4fc-4efc-9943-a45c92a22bc2"},"vehicle_type_id":"4","last_reported":1741872012,"current_range_meters":15200,"station_id":"ce4bgl92rcd13ifvqbq0","pricing_plan_id":"cebpf4jnsgd1na2vs0mg"},{"bike_id":"ba65a00b-1706-404b-96ce-8aa4e7aad497","system_id":"levelo_inurba_marseille","lat":43.30173,"lon":5.36628,"is_reserved":false,"is_disabled":false,"rental_uris":{"android":"levelo://app?vid=ba65a00b-1706-404b-96ce-8aa4e7aad497","ios":"levelo://app?vid=ba65a00b-1706-404b-96ce-8aa4e7aad497"},"vehicle_type_id":"4","last_reported":1741872012,"current_range_meters":15200,"station_id":"ce4bgrh2rcd13ifvqc8g","pricing_plan_id":"cebpf4jnsgd1na2vs0mg"},{"bike_id":"20cf9b1f-595a-46ff-b2c1-133275f66c95","system_id":"levelo_inurba_marseille","lat":43.2314,"lon":5.4373,"is_reserved":false,"is_disabled":false,"rental_uris":{"android":"levelo://app?vid=20cf9b1f-595a-46ff-b2c1-133275f66c95","ios":"levelo://app?vid=20cf9b1f-595a-46ff-b2c1-133275f66c95"},"vehicle_type_id":"4","last_reported":1741872012,"current_range_meters":16000,"station_id":"ce4bhmp2rcd13ifvqgog","pricing_plan_id":"cebpf4jnsgd1na2vs0mg"},{"bike_id":"28f0bf0a-6741-4f29-a6e5-19d17211d8df","system_id":"levelo_inurba_marseille","lat":43.25918,"lon":5.40925,"is_reserved":false,"is_disabled":false,"rental_uris":{"android":"levelo://app?vid=28f0bf0a-6741-4f29-a6e5-19d17211d8df","ios":"levelo://app?vid=28f0bf0a-6741-4f29-a6e5-19d17211d8df"},"vehicle_type_id":"4","last_reported":1741872012,"current_range_meters":16000,"station_id":"ce4bhm92rcd13ifvqglg","pricing_plan_id":"cebpf4jnsgd1na2vs0mg"},{"bike_id":"8af0edff-6988-443e-bfbb-62952732ede6","system_id":"levelo_inurba_marseille","lat":43.3055,"lon":5.36528,"is_reserved":false,"is_disabled":false,"rental_uris":{"android":"levelo://app?vid=8af0edff-6988-443e-bfbb-62952732ede6","ios":"levelo://app?vid=8af0edff-6988-443e-bfbb-62952732ede6"},"vehicle_type_id":"4","last_reported":1741872012,"current_range_meters":16000,"station_id":"ce4bgs12rcd13ifvqcag","pricing_plan_id":"cebpf4jnsgd1na2vs0mg"},{"bike_id":"bf702e5c-17d7-4b8b-9869-f878cb0ee2a1","system_id":"levelo_inurba_marseille","lat":43.30141,"lon":5.37423,"is_reserved":false,"is_disabled":false,"rental_uris":{"android":"levelo://app?vid=bf702e5c-17d7-4b8b-9869-f878cb0ee2a1","ios":"levelo://app?vid=bf702e5c-17d7-4b8b-9869-f878cb0ee2a1"},"vehicle_type_id":"4","last_reported":1741872012,"current_range_meters":16000,"station_id":"ce4bgs92rcd13ifvqcc0","pricing_plan_id":"cebpf4jnsgd1na2vs0mg"},{"bike_id":"b98d4e8c-9214-47b7-afd0-4c805e8c336e","system_id":"levelo_inurba_marseille","lat":43.30949,"lon":5.39021,"is_reserved":false,"is_disabled":false,"rental_uris":{"android":"levelo://app?vid=b98d4e8c-9214-47b7-afd0-4c805e8c336e","ios":"levelo://app?vid=b98d4e8c-9214-47b7-afd0-4c805e8c336e"},"vehicle_type_id":"4","last_reported":1741872012,"current_range_meters":16000,"station_id":"ce4bgup2rcd13ifvqco0","pricing_plan_id":"cebpf4jnsgd1na2vs0mg"},{"bike_id":"dc2dc920-7061-4611-9ad3-02d4898aaa15","system_id":"levelo_inurba_marseille","lat":43.23187,"lon":5.39999,"is_reserved":false,"is_disabled":false,"rental_uris":{"android":"levelo://app?vid=dc2dc920-7061-4611-9ad3-02d4898aaa15","ios":"levelo://app?vid=dc2dc920-7061-4611-9ad3-02d4898aaa15"},"vehicle_type_id":"4","last_reported":1741872012,"current_range_meters":16000,"station_id":"ce4bhn12rcd13ifvqgqg","pricing_plan_id":"cebpf4jnsgd1na2vs0mg"},{"bike_id":"10a5337d-8921-46d8-96fd-7acca89af959","system_id":"levelo_inurba_marseille","lat":43.28399,"lon":5.34987,"is_reserved":false,"is_disabled":false,"rental_uris":{"android":"levelo://app?vid=10a5337d-8921-46d8-96fd-7acca89af959","ios":"levelo://app?vid=10a5337d-8921-46d8-96fd-7acca89af959"},"vehicle_type_id":"4","last_reported":1741872012,"current_range_meters":16000,"station_id":"ce4bhbh2rcd13ifvqepg","pricing_plan_id":"cebpf4jnsgd1na2vs0mg"},{"bike_id":"e514d185-4131-49cd-8a7c-317241865033","system_id":"levelo_inurba_marseille","lat":43.31458,"lon":5.37281,"is_reserved":false,"is_disabled":false,"rental_uris":{"android":"levelo://app?vid=e514d185-4131-49cd-8a7c-317241865033","ios":"levelo://app?vid=e514d185-4131-49cd-8a7c-317241865033"},"vehicle_type_id":"4","last_reported":1741872012,"current_range_meters":16000,"station_id":"ce4bgt12rcd13ifvqcd0","pricing_plan_id":"cebpf4jnsgd1na2vs0mg"},{"bike_id":"3bad18b8-0fb0-4375-9176-fe7e8f9156a6","system_id":"levelo_inurba_marseille","lat":43.30471,"lon":5.37903,"is_reserved":false,"is_disabled":false,"rental_uris":{"android":"levelo://app?vid=3bad18b8-0fb0-4375-9176-fe7e8f9156a6","ios":"levelo://app?vid=3bad18b8-0fb0-4375-9176-fe7e8f9156a6"},"vehicle_type_id":"4","last_reported":1741872012,"current_range_meters":16000,"station_id":"ce4bgup2rcd13ifvqcn0","pricing_plan_id":"cebpf4jnsgd1na2vs0mg"},{"bike_id":"7c476112-a4a5-487a-a215-459b0bb3c217","system_id":"levelo_inurba_marseille","lat":43.28932,"lon":5.36646,"is_reserved":false,"is_disabled":false,"rental_uris":{"android":"levelo://app?vid=7c476112-a4a5-487a-a215-459b0bb3c217","ios":"levelo://app?vid=7c476112-a4a5-487a-a215-459b0bb3c217"},"vehicle_type_id":"4","last_reported":1741872012,"current_range_meters":19200,"station_id":"ce4bhap2rcd13ifvqek0","pricing_plan_id":"cebpf4jnsgd1na2vs0mg"},{"bike_id":"594a33ea-5c85-49b0-893b-48b1f5e1011a","system_id":"levelo_inurba_marseille","lat":43.30935,"lon":5.40069,"is_reserved":false,"is_disabled":true,"rental_uris":{"android":"levelo://app?vid=594a33ea-5c85-49b0-893b-48b1f5e1011a","ios":"levelo://app?vid=594a33ea-5c85-49b0-893b-48b1f5e1011a"},"vehicle_type_id":"4","last_reported":1741872012,"current_range_meters":16000,"station_id":"ce4bgvp2rcd13ifvqct0","pricing_plan_id":"cebpf4jnsgd1na2vs0mg"},{"bike_id":"92c7a07a-61be-4170-8fc7-b6f505b25671","system_id":"levelo_inurba_marseille","lat":43.29584,"lon":5.37513,"is_reserved":false,"is_disabled":false,"rental_uris":{"android":"levelo://app?vid=92c7a07a-61be-4170-8fc7-b6f505b25671","ios":"levelo://app?vid=92c7a07a-61be-4170-8fc7-b6f505b25671"},"vehicle_type_id":"4","last_reported":1741872012,"current_range_meters":16000,"station_id":"ce4bgh92rcd13ifvqb50","pricing_plan_id":"cebpf4jnsgd1na2vs0mg"},{"bike_id":"9b572cd2-81bd-48af-9d83-1ced9d950819","system_id":"levelo_inurba_marseille","lat":43.31886,"lon":5.40758,"is_reserved":false,"is_disabled":false,"rental_uris":{"android":"levelo://app?vid=9b572cd2-81bd-48af-9d83-1ced9d950819","ios":"levelo://app?vid=9b572cd2-81bd-48af-9d83-1ced9d950819"},"vehicle_type_id":"4","last_reported":1741872012,"current_range_meters":16000,"station_id":"ce4bhq12rcd13ifvqhig","pricing_plan_id":"cebpf4jnsgd1na2vs0mg"},{"bike_id":"1325da75-776a-4642-9fc6-f8f19b135371","system_id":"levelo_inurba_marseille","lat":43.27497,"lon":5.42455,"is_reserved":false,"is_disabled":false,"rental_uris":{"android":"levelo://app?vid=1325da75-776a-4642-9fc6-f8f19b135371","ios":"levelo://app?vid=1325da75-776a-4642-9fc6-f8f19b135371"},"vehicle_type_id":"4","last_reported":1741872012,"current_range_meters":16400,"station_id":"ce4bhn92rcd13ifvqgrg","pricing_plan_id":"cebpf4jnsgd1na2vs0mg"},{"bike_id":"29832e81-b63f-44c3-a8ae-1ccbc505bd58","system_id":"levelo_inurba_marseille","lat":43.27819,"lon":5.40695,"is_reserved":false,"is_disabled":false,"rental_uris":{"android":"levelo://app?vid=29832e81-b63f-44c3-a8ae-1ccbc505bd58","ios":"levelo://app?vid=29832e81-b63f-44c3-a8ae-1ccbc505bd58"},"vehicle_type_id":"4","last_reported":1741872012,"current_range_meters":16400,"station_id":"ce4bhnh2rcd13ifvqgtg","pricing_plan_id":"cebpf4jnsgd1na2vs0mg"},{"bike_id":"ef54e204-3b84-4126-b082-aa51dcd00d8d","system_id":"levelo_inurba_marseille","lat":43.28361,"lon":5.38105,"is_reserved":false,"is_disabled":false,"rental_uris":{"android":"levelo://app?vid=ef54e204-3b84-4126-b082-aa51dcd00d8d","ios":"levelo://app?vid=ef54e204-3b84-4126-b082-aa51dcd00d8d"},"vehicle_type_id":"4","last_reported":1741872012,"current_range_meters":16400,"station_id":"ce4bh412rcd13ifvqdr0","pricing_plan_id":"cebpf4jnsgd1na2vs0mg"},{"bike_id":"c1d436d7-774d-43af-b435-8a997e0e1056","system_id":"levelo_inurba_marseille","lat":43.27683,"lon":5.3889,"is_reserved":false,"is_disabled":false,"rental_uris":{"android":"levelo://app?vid=c1d436d7-774d-43af-b435-8a997e0e1056","ios":"levelo://app?vid=c1d436d7-774d-43af-b435-8a997e0e1056"},"vehicle_type_id":"4","last_reported":1741872012,"current_range_meters":16400,"station_id":"ce4bhi12rcd13ifvqfo0","pricing_plan_id":"cebpf4jnsgd1na2vs0mg"},{"bike_id":"55ccb224-acdb-40c0-9250-20b5e51fc613","system_id":"levelo_inurba_marseille","lat":43.31237,"lon":5.36885,"is_reserved":false,"is_disabled":false,"rental_uris":{"android":"levelo://app?vid=55ccb224-acdb-40c0-9250-20b5e51fc613","ios":"levelo://app?vid=55ccb224-acdb-40c0-9250-20b5e51fc613"},"vehicle_type_id":"4","last_reported":1741872012,"current_range_meters":16400,"station_id":"ce4bgl92rcd13ifvqbq0","pricing_plan_id":"cebpf4jnsgd1na2vs0mg"},{"bike_id":"7872084c-4416-4e1a-aca0-0937de9b675c","system_id":"levelo_inurba_marseille","lat":43.31759,"lon":5.3901,"is_reserved":false,"is_disabled":false,"rental_uris":{"android":"levelo://app?vid=7872084c-4416-4e1a-aca0-0937de9b675c","ios":"levelo://app?vid=7872084c-4416-4e1a-aca0-0937de9b675c"},"vehicle_type_id":"4","last_reported":1741872012,"current_range_meters":16400,"station_id":"ce4bhqp2rcd13ifvqhng","pricing_plan_id":"cebpf4jnsgd1na2vs0mg"},{"bike_id":"25adabdc-0a72-4390-afb0-67ed8c940b17","system_id":"levelo_inurba_marseille","lat":43.30462,"lon":5.37908,"is_reserved":false,"is_disabled":false,"rental_uris":{"android":"levelo://app?vid=25adabdc-0a72-4390-afb0-67ed8c940b17","ios":"levelo://app?vid=25adabdc-0a72-4390-afb0-67ed8c940b17"},"vehicle_type_id":"4","last_reported":1741872012,"current_range_meters":16400,"station_id":"ce4bgup2rcd13ifvqcn0","pricing_plan_id":"cebpf4jnsgd1na2vs0mg"},{"bike_id":"01759a64-793e-4942-92f4-1c75f013d037","system_id":"levelo_inurba_marseille","lat":43.30559,"lon":5.36527,"is_reserved":false,"is_disabled":false,"rental_uris":{"android":"levelo://app?vid=01759a64-793e-4942-92f4-1c75f013d037","ios":"levelo://app?vid=01759a64-793e-4942-92f4-1c75f013d037"},"vehicle_type_id":"4","last_reported":1741872012,"current_range_meters":16400,"station_id":"ce4bgs12rcd13ifvqcag","pricing_plan_id":"cebpf4jnsgd1na2vs0mg"},{"bike_id":"2ceb360e-fd9f-4f66-bf1c-f7e43365ac15","system_id":"levelo_inurba_marseille","lat":43.28946,"lon":5.3639,"is_reserved":false,"is_disabled":false,"rental_uris":{"android":"levelo://app?vid=2ceb360e-fd9f-4f66-bf1c-f7e43365ac15","ios":"levelo://app?vid=2ceb360e-fd9f-4f66-bf1c-f7e43365ac15"},"vehicle_type_id":"4","last_reported":1741872012,"current_range_meters":16800,"station_id":"ce4bhc92rcd13ifvqetg","pricing_plan_id":"cebpf4jnsgd1na2vs0mg"},{"bike_id":"79abd121-2d2d-49a9-a24c-3de698807100","system_id":"levelo_inurba_marseille","lat":43.292888,"lon":5.37478,"is_reserved":false,"is_disabled":false,"rental_uris":{"android":"levelo://app?vid=79abd121-2d2d-49a9-a24c-3de698807100","ios":"levelo://app?vid=79abd121-2d2d-49a9-a24c-3de698807100"},"vehicle_type_id":"4","last_reported":1741872012,"current_range_meters":16800,"station_id":"ce4bhah2rcd13ifvqej0","pricing_plan_id":"cebpf4jnsgd1na2vs0mg"},{"bike_id":"3a0ca2ac-ad4f-4f28-856e-a8dc668ca745","system_id":"levelo_inurba_marseille","lat":43.23965,"lon":5.36638,"is_reserved":false,"is_disabled":false,"rental_uris":{"android":"levelo://app?vid=3a0ca2ac-ad4f-4f28-856e-a8dc668ca745","ios":"levelo://app?vid=3a0ca2ac-ad4f-4f28-856e-a8dc668ca745"},"vehicle_type_id":"4","last_reported":1741872012,"current_range_meters":16800,"station_id":"ce4bhi12rcd13ifvqfp0","pricing_plan_id":"cebpf4jnsgd1na2vs0mg"},{"bike_id":"68888e20-f16d-40a5-afb4-5bb464e72937","system_id":"levelo_inurba_marseille","lat":43.28946,"lon":5.364013,"is_reserved":false,"is_disabled":false,"rental_uris":{"android":"levelo://app?vid=68888e20-f16d-40a5-afb4-5bb464e72937","ios":"levelo://app?vid=68888e20-f16d-40a5-afb4-5bb464e72937"},"vehicle_type_id":"4","last_reported":1741872012,"current_range_meters":16800,"station_id":"ce4bhc92rcd13ifvqetg","pricing_plan_id":"cebpf4jnsgd1na2vs0mg"},{"bike_id":"0f207a93-feeb-434c-8e09-168ddedfe662","system_id":"levelo_inurba_marseille","lat":43.24071,"lon":5.37762,"is_reserved":false,"is_disabled":false,"rental_uris":{"android":"levelo://app?vid=0f207a93-feeb-434c-8e09-168ddedfe662","ios":"levelo://app?vid=0f207a93-feeb-434c-8e09-168ddedfe662"},"vehicle_type_id":"4","last_reported":1741872012,"current_range_meters":16800,"station_id":"ce4bhnp2rcd13ifvqgvg","pricing_plan_id":"cebpf4jnsgd1na2vs0mg"},{"bike_id":"e56fb427-cb0e-4ea5-b418-6fa630f8c8f8","system_id":"levelo_inurba_marseille","lat":43.26212,"lon":5.37441,"is_reserved":false,"is_disabled":false,"rental_uris":{"android":"levelo://app?vid=e56fb427-cb0e-4ea5-b418-6fa630f8c8f8","ios":"levelo://app?vid=e56fb427-cb0e-4ea5-b418-6fa630f8c8f8"},"vehicle_type_id":"4","last_reported":1741872012,"current_range_meters":16800,"station_id":"ce4bhgp2rcd13ifvqfc0","pricing_plan_id":"cebpf4jnsgd1na2vs0mg"},{"bike_id":"b21aaa21-82e6-4bbf-ba40-161f0790e583","system_id":"levelo_inurba_marseille","lat":43.29615,"lon":5.37727,"is_reserved":false,"is_disabled":false,"rental_uris":{"android":"levelo://app?vid=b21aaa21-82e6-4bbf-ba40-161f0790e583","ios":"levelo://app?vid=b21aaa21-82e6-4bbf-ba40-161f0790e583"},"vehicle_type_id":"4","last_reported":1741872012,"current_range_meters":16800,"station_id":"ce4bgi92rcd13ifvqb90","pricing_plan_id":"cebpf4jnsgd1na2vs0mg"},{"bike_id":"2a5ef00e-c400-47dc-bf9a-4a122a486851","system_id":"levelo_inurba_marseille","lat":43.22929,"lon":5.35385,"is_reserved":false,"is_disabled":false,"rental_uris":{"android":"levelo://app?vid=2a5ef00e-c400-47dc-bf9a-4a122a486851","ios":"levelo://app?vid=2a5ef00e-c400-47dc-bf9a-4a122a486851"},"vehicle_type_id":"4","last_reported":1741872012,"current_range_meters":16800,"station_id":"cpo3532slgdg3j2ikp40","pricing_plan_id":"cebpf4jnsgd1na2vs0mg"},{"bike_id":"05bf619a-286a-4f73-abcb-0761f5cf9800","system_id":"levelo_inurba_marseille","lat":43.30163,"lon":5.38085,"is_reserved":false,"is_disabled":false,"rental_uris":{"android":"levelo://app?vid=05bf619a-286a-4f73-abcb-0761f5cf9800","ios":"levelo://app?vid=05bf619a-286a-4f73-abcb-0761f5cf9800"},