{"last_updated":1717431024,"ttl":30,"version":"2.2","data":{"bikes":[{"bike_id":"883eeb81-bd0d-4755-bed8-9f39733c7fe6","system_id":"levelo_inurba_marseille","lat":43.31353,"lon":5.36708,"is_reserved":false,"is_disabled":false,"rental_uris":{"android":"levelo://app?vid=883eeb81-bd0d-4755-bed8-9f39733c7fe6","ios":"levelo://app?vid=883eeb81-bd0d-4755-bed8-9f39733c7fe6"},"vehicle_type_id":"4","last_reported":1717431024,"current_range_meters":0,"station_id":"ce4bgr92rcd13ifvqc6g","pricing_plan_id":"cebpf4jnsgd1na2vs0mg"},{"bike_id":"71a8ce6a-081e-49b3-a739-877ba9543c6f","system_id":"levelo_inurba_marseille","lat":43.309076,"lon":5.368465,"is_reserved":false,"is_disabled":false,"rental_uris":{"android":"levelo://app?vid=71a8ce6a-081e-49b3-a739-877ba9543c6f","ios":"levelo://app?vid=71a8ce6a-081e-49b3-a739-877ba9543c6f"},"vehicle_type_id":"4","last_reported":1717431024,"current_range_meters":5600,"station_id":"ce4bgn92rcd13ifvqbvg","pricing_plan_id":"cebpf4jnsgd1na2vs0mg"},{"bike_id":"1ba2386e-fb00-4227-afa2-d840093ececb","system_id":"levelo_inurba_marseille","lat":43.314811,"lon":5.373104,"is_reserved":false,"is_disabled":false,"rental_uris":{"android":"levelo://app?vid=1ba2386e-fb00-4227-afa2-d840093ececb","ios":"levelo://app?vid=1ba2386e-fb00-4227-afa2-d840093ececb"},"vehicle_type_id":"4","last_reported":1717431024,"current_range_meters":10400,"station_id":"ce4bgt12rcd13ifvqcd0","pricing_plan_id":"cebpf4jnsgd1na2vs0mg"},{"bike_id":"decb3eb9-8ea0-4cb5-af54-76d00677f681","system_id":"levelo_inurba_marseille","lat":43.314811,"lon":5.373103,"is_reserved":false,"is_disabled":false,"rental_uris":{"android":"levelo://app?vid=decb3eb9-8ea0-4cb5-af54-76d00677f681","ios":"levelo://app?vid=decb3eb9-8ea0-4cb5-af54-76d00677f681"},"vehicle_type_id":"4","last_reported":1717431024,"current_range_meters":0,"station_id":"ce4bgt12rcd13ifvqcd0","pricing_plan_id":"cebpf4jnsgd1na2vs0mg"},{"bike_id":"09ec9f6f-c4bb-489a-912c-92be0457e214","system_id":"levelo_inurba_marseille","lat":43.309039,"lon":5.371797,"is_reserved":false,"is_disabled":false,"rental_uris":{"android":"levelo://app?vid=09ec9f6f-c4bb-489a-912c-92be0457e214","ios":"levelo://app?vid=09ec9f6f-c4bb-489a-912c-92be0457e214"},"vehicle_type_id":"4","last_reported":1717431024,"current_range_meters":0,"station_id":"ce4bguh2rcd13ifvqckg","pricing_plan_id":"cebpf4jnsgd1na2vs0mg"},{"bike_id":"6f0b46ff-e369-4c17-b573-53279d47134d","system_id":"levelo_inurba_marseille","lat":43.3089,"lon":5.37192,"is_reserved":false,"is_disabled":false,"rental_uris":{"android":"levelo://app?vid=6f0b46ff-e369-4c17-b573-53279d47134d","ios":"levelo://app?vid=6f0b46ff-e369-4c17-b573-53279d47134d"},"vehicle_type_id":"4","last_reported":1717431024,"current_range_meters":0,"station_id":"ce4bguh2rcd13ifvqckg","pricing_plan_id":"cebpf4jnsgd1na2vs0mg"},{"bike_id":"ba306e90-8257-4f46-b24b-52e8987daad1","system_id":"levelo_inurba_marseille","lat":43.309039,"lon":5.371797,"is_reserved":false,"is_disabled":false,"rental_uris":{"android":"levelo://app?vid=ba306e90-8257-4f46-b24b-52e8987daad1","ios":"levelo://app?vid=ba306e90-8257-4f46-b24b-52e8987daad1"},"vehicle_type_id":"4","last_reported":1717431024,"current_range_meters":15600,"station_id":"ce4bguh2rcd13ifvqckg","pricing_plan_id":"cebpf4jnsgd1na2vs0mg"},{"bike_id":"44aa6dc3-6866-4e27-8232-194ad1ed3f6d","system_id":"levelo_inurba_marseille","lat":43.305712,"lon":5.365641,"is_reserved":false,"is_disabled":false,"rental_uris":{"android":"levelo://app?vid=44aa6dc3-6866-4e27-8232-194ad1ed3f6d","ios":"levelo://app?vid=44aa6dc3-6866-4e27-8232-194ad1ed3f6d"},"vehicle_type_id":"4","last_reported":1717431024,"current_range_meters":0,"station_id":"ce4bgs12rcd13ifvqcag","pricing_plan_id":"cebpf4jnsgd1na2vs0mg"},{"bike_id":"d95e369b-0059-4690-a43e-e6cfbca32b3f","system_id":"levelo_inurba_marseille","lat":43.305714,"lon":5.365633,"is_reserved":false,"is_disabled":false,"rental_uris":{"android":"levelo://app?vid=d95e369b-0059-4690-a43e-e6cfbca32b3f","ios":"levelo://app?vid=d95e369b-0059-4690-a43e-e6cfbca32b3f"},"vehicle_type_id":"4","last_reported":1717431024,"current_range_meters":0,"station_id":"ce4bgs12rcd13ifvqcag","pricing_plan_id":"cebpf4jnsgd1na2vs0mg"},{"bike_id":"ef056237-668d-471b-8d00-5055afc8e16c","system_id":"levelo_inurba_marseille","lat":43.305714,"lon":5.365633,"is_reserved":false,"is_disabled":false,"rental_uris":{"android":"levelo://app?vid=ef056237-668d-471b-8d00-5055afc8e16c","ios":"levelo://app?vid=ef056237-668d-471b-8d00-5055afc8e16c"},"vehicle_type_id":"4","last_reported":1717431024,"current_range_meters":10000,"station_id":"ce4bgs12rcd13ifvqcag","pricing_plan_id":"cebpf4jnsgd1na2vs0mg"},{"bike_id":"3f90b586-3378-4085-bfbf-db1c3251d251","system_id":"levelo_inurba_marseille","lat":43.305445,"lon":5.36729,"is_reserved":false,"is_disabled":false,"rental_uris":{"android":"levelo://app?vid=3f90b586-3378-4085-bfbf-db1c3251d251","ios":"levelo://app?vid=3f90b586-3378-4085-bfbf-db1c3251d251"},"vehicle_type_id":"4","last_reported":1717431024,"current_range_meters":0,"station_id":"ce4bgrp2rcd13ifvqc9g","pricing_plan_id":"cebpf4jnsgd1na2vs0mg"},{"bike_id":"e30b475e-484e-4b24-811e-9dde8c024d3f","system_id":"levelo_inurba_marseille","lat":43.305427,"lon":5.367023,"is_reserved":false,"is_disabled":false,"rental_uris":{"android":"levelo://app?vid=e30b475e-484e-4b24-811e-9dde8c024d3f","ios":"levelo://app?vid=e30b475e-484e-4b24-811e-9dde8c024d3f"},"vehicle_type_id":"4","last_reported":1717431024,"current_range_meters":0,"station_id":"ce4bgrp2rcd13ifvqc9g","pricing_plan_id":"cebpf4jnsgd1na2vs0mg"},{"bike_id":"6a3c41d0-cf49-40ee-805e-a953ca205a1a","system_id":"levelo_inurba_marseille","lat":43.305714,"lon":5.365633,"is_reserved":false,"is_disabled":false,"rental_uris":{"android":"levelo://app?vid=6a3c41d0-cf49-40ee-805e-a953ca205a1a","ios":"levelo://app?vid=6a3c41d0-cf49-40ee-805e-a953ca205a1a"},"vehicle_type_id":"4","last_reported":1717431024,"current_range_meters":0,"station_id":"ce4bgs12rcd13ifvqcag","pricing_plan_id":"cebpf4jnsgd1na2vs0mg"},{"bike_id":"9572ef5d-02b5-499b-ab3f-c6b31ce01c06","system_id":"levelo_inurba_marseille","lat":43.311131,"lon":5.377651,"is_reserved":false,"is_disabled":false,"rental_uris":{"android":"levelo://app?vid=9572ef5d-02b5-499b-ab3f-c6b31ce01c06","ios":"levelo://app?vid=9572ef5d-02b5-499b-ab3f-c6b31ce01c06"},"vehicle_type_id":"4","last_reported":1717431024,"current_range_meters":3600,"station_id":"ce4bgt92rcd13ifvqcg0","pricing_plan_id":"cebpf4jnsgd1na2vs0mg"},{"bike_id":"af551838-b85a-4087-8afa-99fc50c75662","system_id":"levelo_inurba_marseille","lat":43.311125,"lon":5.377624,"is_reserved":false,"is_disabled":false,"rental_uris":{"android":"levelo://app?vid=af551838-b85a-4087-8afa-99fc50c75662","ios":"levelo://app?vid=af551838-b85a-4087-8afa-99fc50c75662"},"vehicle_type_id":"4","last_reported":1717431024,"current_range_meters":8400,"station_id":"ce4bgt92rcd13ifvqcg0","pricing_plan_id":"cebpf4jnsgd1na2vs0mg"},{"bike_id":"fde8235c-6dd9-4f36-90a8-17f54756d1b5","system_id":"levelo_inurba_marseille","lat":43.307945,"lon":5.376487,"is_reserved":false,"is_disabled":false,"rental_uris":{"android":"levelo://app?vid=fde8235c-6dd9-4f36-90a8-17f54756d1b5","ios":"levelo://app?vid=fde8235c-6dd9-4f36-90a8-17f54756d1b5"},"vehicle_type_id":"4","last_reported":1717431024,"current_range_meters":800,"station_id":"ce4bgv92rcd13ifvqcq0","pricing_plan_id":"cebpf4jnsgd1na2vs0mg"},{"bike_id":"bf0b1df0-6e13-4f33-992d-456ccb991ceb","system_id":"levelo_inurba_marseille","lat":43.307945,"lon":5.376487,"is_reserved":false,"is_disabled":false,"rental_uris":{"android":"levelo://app?vid=bf0b1df0-6e13-4f33-992d-456ccb991ceb","ios":"levelo://app?vid=bf0b1df0-6e13-4f33-992d-456ccb991ceb"},"vehicle_type_id":"4","last_reported":1717431024,"current_range_meters":0,"station_id":"ce4bgv92rcd13ifvqcq0","pricing_plan_id":"cebpf4jnsgd1na2vs0mg"},{"bike_id":"eca15702-c40a-4d38-b684-050bd07386a0","system_id":"levelo_inurba_marseille","lat":43.317075,"lon":5.377367,"is_reserved":false,"is_disabled":false,"rental_uris":{"android":"levelo://app?vid=eca15702-c40a-4d38-b684-050bd07386a0","ios":"levelo://app?vid=eca15702-c40a-4d38-b684-050bd07386a0"},"vehicle_type_id":"4","last_reported":1717431024,"current_range_meters":31600,"station_id":"ce4bgth2rcd13ifvqch0","pricing_plan_id":"cebpf4jnsgd1na2vs0mg"},{"bike_id":"5401ff84-06c4-4c94-b76e-411da2f5ffe9","system_id":"levelo_inurba_marseille","lat":43.32213,"lon":5.371229,"is_reserved":false,"is_disabled":false,"rental_uris":{"android":"levelo://app?vid=5401ff84-06c4-4c94-b76e-411da2f5ffe9","ios":"levelo://app?vid=5401ff84-06c4-4c94-b76e-411da2f5ffe9"},"vehicle_type_id":"4","last_reported":1717431024,"current_range_meters":15600,"station_id":"","pricing_plan_id":"cebpf4jnsgd1na2vs0mg"},{"bike_id":"ba53272c-3e17-4650-82a5-04db2f29d051","system_id":"levelo_inurba_marseille","lat":43.315293,"lon":5.380349,"is_reserved":false,"is_disabled":false,"rental_uris":{"android":"levelo://app?vid=ba53272c-3e17-4650-82a5-04db2f29d051","ios":"levelo://app?vid=ba53272c-3e17-4650-82a5-04db2f29d051"},"vehicle_type_id":"4","last_reported":1717431024,"current_range_meters":16400,"station_id":"ce4bhsp2rcd13ifvqi50","pricing_plan_id":"cebpf4jnsgd1na2vs0mg"},{"bike_id":"69f1eeb6-89d2-4a34-9367-9e7cf1fee138","system_id":"levelo_inurba_marseille","lat":43.315348,"lon":5.380357,"is_reserved":false,"is_disabled":false,"rental_uris":{"android":"levelo://app?vid=69f1eeb6-89d2-4a34-9367-9e7cf1fee138","ios":"levelo://app?vid=69f1eeb6-89d2-4a34-9367-9e7cf1fee138"},"vehicle_type_id":"4","last_reported":1717431024,"current_range_meters":0,"station_id":"ce4bhsp2rcd13ifvqi50","pricing_plan_id":"cebpf4jnsgd1na2vs0mg"},{"bike_id":"83df1a51-33c8-4bf6-804d-b1d19098dc08","system_id":"levelo_inurba_marseille","lat":43.315293,"lon":5.380349,"is_reserved":false,"is_disabled":false,"rental_uris":{"android":"levelo://app?vid=83df1a51-33c8-4bf6-804d-b1d19098dc08","ios":"levelo://app?vid=83df1a51-33c8-4bf6-804d-b1d19098dc08"},"vehicle_type_id":"4","last_reported":1717431024,"current_range_meters":14400,"station_id":"ce4bhsp2rcd13ifvqi50","pricing_plan_id":"cebpf4jnsgd1na2vs0mg"},{"bike_id":"4f2e2243-0c07-4eaa-b9c6-d8f4403bdfc1","system_id":"levelo_inurba_marseille","lat":43.30244,"lon":5.36927,"is_reserved":false,"is_disabled":false,"rental_uris":{"android":"levelo://app?vid=4f2e2243-0c07-4eaa-b9c6-d8f4403bdfc1","ios":"levelo://app?vid=4f2e2243-0c07-4eaa-b9c6-d8f4403bdfc1"},"vehicle_type_id":"4","last_reported":1717431024,"current_range_meters":0,"station_id":"","pricing_plan_id":"cebpf4jnsgd1na2vs0mg"},{"bike_id":"74e41788-1a55-4110-84f7-c2e21cab04cf","system_id":"levelo_inurba_marseille","lat":43.308012,"lon":5.381511,"is_reserved":false,"is_disabled":false,"rental_uris":{"android":"levelo://app?vid=74e41788-1a55-4110-84f7-c2e21cab04cf","ios":"levelo://app?vid=74e41788-1a55-4110-84f7-c2e21cab04cf"},"vehicle_type_id":"4","last_reported":1717431024,"current_range_meters":0,"station_id":"ce4bgt12rcd13ifvqce0","pricing_plan_id":"cebpf4jnsgd1na2vs0mg"},{"bike_id":"3203c345-11d7-445d-8b02-5003acc6ba7e","system_id":"levelo_inurba_marseille","lat":43.308012,"lon":5.381511,"is_reserved":false,"is_disabled":false,"rental_uris":{"android":"levelo://app?vid=3203c345-11d7-445d-8b02-5003acc6ba7e","ios":"levelo://app?vid=3203c345-11d7-445d-8b02-5003acc6ba7e"},"vehicle_type_id":"4","last_reported":1717431024,"current_range_meters":11600,"station_id":"ce4bgt12rcd13ifvqce0","pricing_plan_id":"cebpf4jnsgd1na2vs0mg"},{"bike_id":"be7e284a-e958-4e95-8a10-07d0b2e1826c","system_id":"levelo_inurba_marseille","lat":43.308012,"lon":5.381511,"is_reserved":false,"is_disabled":false,"rental_uris":{"android":"levelo://app?vid=be7e284a-e958-4e95-8a10-07d0b2e1826c","ios":"levelo://app?vid=be7e284a-e958-4e95-8a10-07d0b2e1826c"},"vehicle_type_id":"4","last_reported":1717431024,"current_range_meters":400,"station_id":"ce4bgt12rcd13ifvqce0","pricing_plan_id":"cebpf4jnsgd1na2vs0mg"},{"bike_id":"99155971-c3e8-44e5-b3c8-36bd6b7b1592","system_id":"levelo_inurba_marseille","lat":43.324771,"lon":5.36557,"is_reserved":false,"is_disabled":false,"rental_uris":{"android":"levelo://app?vid=99155971-c3e8-44e5-b3c8-36bd6b7b1592","ios":"levelo://app?vid=99155971-c3e8-44e5-b3c8-36bd6b7b1592"},"vehicle_type_id":"4","last_reported":1717431024,"current_range_meters":0,"station_id":"ce4bhs12rcd13ifvqhvg","pricing_plan_id":"cebpf4jnsgd1na2vs0mg"},{"bike_id":"aeea1de2-e08a-423a-b0af-d0dd0eeb69da","system_id":"levelo_inurba_marseille","lat":43.304606,"lon":5.379026,"is_reserved":false,"is_disabled":false,"rental_uris":{"android":"levelo://app?vid=aeea1de2-e08a-423a-b0af-d0dd0eeb69da","ios":"levelo://app?vid=aeea1de2-e08a-423a-b0af-d0dd0eeb69da"},"vehicle_type_id":"4","last_reported":1717431024,"current_range_meters":3600,"station_id":"ce4bgup2rcd13ifvqcn0","pricing_plan_id":"cebpf4jnsgd1na2vs0mg"},{"bike_id":"e71e1fe8-4785-4934-8d84-f21e269c48f3","system_id":"levelo_inurba_marseille","lat":43.310804,"lon":5.38359,"is_reserved":false,"is_disabled":false,"rental_uris":{"android":"levelo://app?vid=e71e1fe8-4785-4934-8d84-f21e269c48f3","ios":"levelo://app?vid=e71e1fe8-4785-4934-8d84-f21e269c48f3"},"vehicle_type_id":"4","last_reported":1717431024,"current_range_meters":0,"station_id":"ce4bgv92rcd13ifvqcr0","pricing_plan_id":"cebpf4jnsgd1na2vs0mg"},{"bike_id":"4b3f7f7d-a07b-4fce-828d-7a19a6e6e79a","system_id":"levelo_inurba_marseille","lat":43.310804,"lon":5.38359,"is_reserved":false,"is_disabled":false,"rental_uris":{"android":"levelo://app?vid=4b3f7f7d-a07b-4fce-828d-7a19a6e6e79a","ios":"levelo://app?vid=4b3f7f7d-a07b-4fce-828d-7a19a6e6e79a"},"vehicle_type_id":"4","last_reported":1717431024,"current_range_meters":21600,"station_id":"ce4bgv92rcd13ifvqcr0","pricing_plan_id":"cebpf4jnsgd1na2vs0mg"},{"bike_id":"995639c1-3f45-4e98-9470-4ce709dae28b","system_id":"levelo_inurba_marseille","lat":43.31078,"lon":5.38368,"is_reserved":false,"is_disabled":false,"rental_uris":{"android":"levelo://app?vid=995639c1-3f45-4e98-9470-4ce709dae28b","ios":"levelo://app?vid=995639c1-3f45-4e98-9470-4ce709dae28b"},"vehicle_type_id":"4","last_reported":1717431024,"current_range_meters":1200,"station_id":"ce4bgv92rcd13ifvqcr0","pricing_plan_id":"cebpf4jnsgd1na2vs0mg"},{"bike_id":"773c9074-c7ce-4f05-8f27-7c4aa715d461","system_id":"levelo_inurba_marseille","lat":43.30147,"lon":5.37418,"is_reserved":false,"is_disabled":false,"rental_uris":{"android":"levelo://app?vid=773c9074-c7ce-4f05-8f27-7c4aa715d461","ios":"levelo://app?vid=773c9074-c7ce-4f05-8f27-7c4aa715d461"},"vehicle_type_id":"4","last_reported":1717431024,"current_range_meters":0,"station_id":"ce4bgs92rcd13ifvqcc0","pricing_plan_id":"cebpf4jnsgd1na2vs0mg"},{"bike_id":"6432b0a3-3567-4ec7-a53c-753d7152f28d","system_id":"levelo_inurba_marseille","lat":43.30149,"lon":5.37424,"is_reserved":false,"is_disabled":false,"rental_uris":{"android":"levelo://app?vid=6432b0a3-3567-4ec7-a53c-753d7152f28d","ios":"levelo://app?vid=6432b0a3-3567-4ec7-a53c-753d7152f28d"},"vehicle_type_id":"4","last_reported":1717431024,"current_range_meters":0,"station_id":"ce4bgs92rcd13ifvqcc0","pricing_plan_id":"cebpf4jnsgd1na2vs0mg"},{"bike_id":"800a667a-fb37-4050-b16c-34914efc7d70","system_id":"levelo_inurba_marseille","lat":43.30143,"lon":5.37413,"is_reserved":false,"is_disabled":false,"rental_uris":{"android":"levelo://app?vid=800a667a-fb37-4050-b16c-34914efc7d70","ios":"levelo://app?vid=800a667a-fb37-4050-b16c-34914efc7d70"},"vehicle_type_id":"4","last_reported":1717431024,"current_range_meters":13200,"station_id":"ce4bgs92rcd13ifvqcc0","pricing_plan_id":"cebpf4jnsgd1na2vs0mg"},{"bike_id":"b397f237-e7be-47e5-b6dc-525e2e59fa2d","system_id":"levelo_inurba_marseille","lat":43.314521,"lon":5.384271,"is_reserved":false,"is_disabled":false,"rental_uris":{"android":"levelo://app?vid=b397f237-e7be-47e5-b6dc-525e2e59fa2d","ios":"levelo://app?vid=b397f237-e7be-47e5-b6dc-525e2e59fa2d"},"vehicle_type_id":"4","last_reported":1717431024,"current_range_meters":13200,"station_id":"","pricing_plan_id":"cebpf4jnsgd1na2vs0mg"},{"bike_id":"20350782-2ef8-4180-a14b-4dd4e6627c9a","system_id":"levelo_inurba_marseille","lat":43.320016,"lon":5.381544,"is_reserved":false,"is_disabled":false,"rental_uris":{"android":"levelo://app?vid=20350782-2ef8-4180-a14b-4dd4e6627c9a","ios":"levelo://app?vid=20350782-2ef8-4180-a14b-4dd4e6627c9a"},"vehicle_type_id":"4","last_reported":1717431024,"current_range_meters":0,"station_id":"ce4bhr12rcd13ifvqhpg","pricing_plan_id":"cebpf4jnsgd1na2vs0mg"},{"bike_id":"b545247b-46a6-4839-aae2-7dfc0595744d","system_id":"levelo_inurba_marseille","lat":43.313571,"lon":5.384829,"is_reserved":false,"is_disabled":false,"rental_uris":{"android":"levelo://app?vid=b545247b-46a6-4839-aae2-7dfc0595744d","ios":"levelo://app?vid=b545247b-46a6-4839-aae2-7dfc0595744d"},"vehicle_type_id":"4","last_reported":1717431024,"current_range_meters":0,"station_id":"ce4bgt92rcd13ifvqcf0","pricing_plan_id":"cebpf4jnsgd1na2vs0mg"},{"bike_id":"51a77ba6-b674-448f-9ddc-66da7ceb6ebd","system_id":"levelo_inurba_marseille","lat":43.3,"lon":5.37174,"is_reserved":false,"is_disabled":false,"rental_uris":{"android":"levelo://app?vid=51a77ba6-b674-448f-9ddc-66da7ceb6ebd","ios":"levelo://app?vid=51a77ba6-b674-448f-9ddc-66da7ceb6ebd"},"vehicle_type_id":"4","last_reported":1717431024,"current_range_meters":12400,"station_id":"ce4bgr92rcd13ifvqc7g","pricing_plan_id":"cebpf4jnsgd1na2vs0mg"},{"bike_id":"4a3a351a-ee99-48c4-a77f-f3daf25e79ed","system_id":"levelo_inurba_marseille","lat":43.305364,"lon":5.384119,"is_reserved":false,"is_disabled":false,"rental_uris":{"android":"levelo://app?vid=4a3a351a-ee99-48c4-a77f-f3daf25e79ed","ios":"levelo://app?vid=4a3a351a-ee99-48c4-a77f-f3daf25e79ed"},"vehicle_type_id":"4","last_reported":1717431024,"current_range_meters":4400,"station_id":"ce4bgg92rcd13ifvqb30","pricing_plan_id":"cebpf4jnsgd1na2vs0mg"},{"bike_id":"be7af57b-52df-40eb-a3dd-22e7abb96a7a","system_id":"levelo_inurba_marseille","lat":43.296921,"lon":5.376579,"is_reserved":false,"is_disabled":false,"rental_uris":{"android":"levelo://app?vid=be7af57b-52df-40eb-a3dd-22e7abb96a7a","ios":"levelo://app?vid=be7af57b-52df-40eb-a3dd-22e7abb96a7a"},"vehicle_type_id":"4","last_reported":1717431024,"current_range_meters":0,"station_id":"ce4bgkh2rcd13ifvqbl0","pricing_plan_id":"cebpf4jnsgd1na2vs0mg"},{"bike_id":"7c0279c4-785e-41cc-9875-11b1aa5697b0","system_id":"levelo_inurba_marseille","lat":43.29843,"lon":5.36266,"is_reserved":false,"is_disabled":false,"rental_uris":{"android":"levelo://app?vid=7c0279c4-785e-41cc-9875-11b1aa5697b0","ios":"levelo://app?vid=7c0279c4-785e-41cc-9875-11b1aa5697b0"},"vehicle_type_id":"4","last_reported":1717431024,"current_range_meters":28400,"station_id":"ce4bgpp2rcd13ifvqc3g","pricing_plan_id":"cebpf4jnsgd1na2vs0mg"},{"bike_id":"944ceca1-4a69-41cb-896a-f249437dcf32","system_id":"levelo_inurba_marseille","lat":43.299249,"lon":5.374809,"is_reserved":false,"is_disabled":false,"rental_uris":{"android":"levelo://app?vid=944ceca1-4a69-41cb-896a-f249437dcf32","ios":"levelo://app?vid=944ceca1-4a69-41cb-896a-f249437dcf32"},"vehicle_type_id":"4","last_reported":1717431024,"current_range_meters":0,"station_id":"","pricing_plan_id":"cebpf4jnsgd1na2vs0mg"},{"bike_id":"6c9b3f32-c39d-49e3-bafe-122f6d0a689a","system_id":"levelo_inurba_marseille","lat":43.305364,"lon":5.384119,"is_reserved":false,"is_disabled":false,"rental_uris":{"android":"levelo://app?vid=6c9b3f32-c39d-49e3-bafe-122f6d0a689a","ios":"levelo://app?vid=6c9b3f32-c39d-49e3-bafe-122f6d0a689a"},"vehicle_type_id":"4","last_reported":1717431024,"current_range_meters":28400,"station_id":"ce4bgg92rcd13ifvqb30","pricing_plan_id":"cebpf4jnsgd1na2vs0mg"},{"bike_id":"b58bfdf3-297f-4bab-a47c-df4b3265f494","system_id":"levelo_inurba_marseille","lat":43.31177,"lon":5.38719,"is_reserved":false,"is_disabled":false,"rental_uris":{"android":"levelo://app?vid=b58bfdf3-297f-4bab-a47c-df4b3265f494","ios":"levelo://app?vid=b58bfdf3-297f-4bab-a47c-df4b3265f494"},"vehicle_type_id":"4","last_reported":1717431024,"current_range_meters":15600,"station_id":"ce4bgv12rcd13ifvqcp0","pricing_plan_id":"cebpf4jnsgd1na2vs0mg"},{"bike_id":"10fb4334-c940-4455-979b-d3f1ca32e262","system_id":"levelo_inurba_marseille","lat":43.297794,"lon":5.370888,"is_reserved":false,"is_disabled":false,"rental_uris":{"android":"levelo://app?vid=10fb4334-c940-4455-979b-d3f1ca32e262","ios":"levelo://app?vid=10fb4334-c940-4455-979b-d3f1ca32e262"},"vehicle_type_id":"4","last_reported":1717431024,"current_range_meters":28800,"station_id":"ce4bgop2rcd13ifvqc1g","pricing_plan_id":"cebpf4jnsgd1na2vs0mg"},{"bike_id":"b2811a9d-c5e9-45d9-9c17-a1dc74662e5a","system_id":"levelo_inurba_marseille","lat":43.322872,"lon":5.382756,"is_reserved":false,"is_disabled":false,"rental_uris":{"android":"levelo://app?vid=b2811a9d-c5e9-45d9-9c17-a1dc74662e5a","ios":"levelo://app?vid=b2811a9d-c5e9-45d9-9c17-a1dc74662e5a"},"vehicle_type_id":"4","last_reported":1717431024,"current_range_meters":17600,"station_id":"ce4bhr12rcd13ifvqhqg","pricing_plan_id":"cebpf4jnsgd1na2vs0mg"},{"bike_id":"643a8877-546b-4652-8b16-b37f2cc6b884","system_id":"levelo_inurba_marseille","lat":43.322872,"lon":5.382756,"is_reserved":false,"is_disabled":false,"rental_uris":{"android":"levelo://app?vid=643a8877-546b-4652-8b16-b37f2cc6b884","ios":"levelo://app?vid=643a8877-546b-4652-8b16-b37f2cc6b884"},"vehicle_type_id":"4","last_reported":1717431024,"current_range_meters":14400,"station_id":"ce4bhr12rcd13ifvqhqg","pricing_plan_id":"cebpf4jnsgd1na2vs0mg"},{"bike_id":"bd5a4184-402a-4131-ae37-86366984eb6f","system_id":"levelo_inurba_marseille","lat":43.32364,"lon":5.38509,"is_reserved":false,"is_disabled":false,"rental_uris":{"android":"levelo://app?vid=bd5a4184-402a-4131-ae37-86366984eb6f","ios":"levelo://app?vid=bd5a4184-402a-4131-ae37-86366984eb6f"},"vehicle_type_id":"4","last_reported":1717431024,"current_range_meters":0,"station_id":"","pricing_plan_id":"cebpf4jnsgd1na2vs0mg"},{"bike_id":"4dd70234-b6d9-4537-99d6-66adf4c5e556","system_id":"levelo_inurba_marseille","lat":43.299028,"lon":5.381509,"is_reserved":false,"is_disabled":false,"rental_uris":{"android":"levelo://app?vid=4dd70234-b6d9-4537-99d6-66adf4c5e556","ios":"levelo://app?vid=4dd70234-b6d9-4537-99d6-66adf4c5e556"},"vehicle_type_id":"4","last_reported":1717431024,"current_range_meters":12400,"station_id":"ce4bgj12rcd13ifvqbc0","pricing_plan_id":"cebpf4jnsgd1na2vs0mg"},{"bike_id":"9cbbf9a4-2620-486c-a43c-14c65538669f","system_id":"levelo_inurba_marseille","lat":43.30062,"lon":5.3839,"is_reserved":false,"is_disabled":false,"rental_uris":{"android":"levelo://app?vid=9cbbf9a4-2620-486c-a43c-14c65538669f","ios":"levelo://app?vid=9cbbf9a4-2620-486c-a43c-14c65538669f"},"vehicle_type_id":"4","last_reported":1717431024,"current_range_meters":22400,"station_id":"","pricing_plan_id":"cebpf4jnsgd1na2vs0mg"},{"bike_id":"e186634a-b696-4e83-ad34-1d769ade9b1e","system_id":"levelo_inurba_marseille","lat":43.286595,"lon":5.386795,"is_reserved":false,"is_disabled":false,"rental_uris":{"android":"levelo://app?vid=e186634a-b696-4e83-ad34-1d769ade9b1e","ios":"levelo://app?vid=e186634a-b696-4e83-ad34-1d769ade9b1e"},"vehicle_type_id":"4","last_reported":1717431024,"current_range_meters":800,"station_id":"ce4bh492rcd13ifvqdug","pricing_plan_id":"cebpf4jnsgd1na2vs0mg"},{"bike_id":"7162a367-3690-4d12-a280-1223705a1713","system_id":"levelo_inurba_marseille","lat":43.296921,"lon":5.376579,"is_reserved":false,"is_disabled":false,"rental_uris":{"android":"levelo://app?vid=7162a367-3690-4d12-a280-1223705a1713","ios":"levelo://app?vid=7162a367-3690-4d12-a280-1223705a1713"},"vehicle_type_id":"4","last_reported":1717431024,"current_range_meters":0,"station_id":"ce4bgkh2rcd13ifvqbl0","pricing_plan_id":"cebpf4jnsgd1na2vs0mg"},{"bike_id":"0b570da9-727d-4c7f-a3ad-59496d4efc15","system_id":"levelo_inurba_marseille","lat":43.317557,"lon":5.390173,"is_reserved":false,"is_disabled":false,"rental_uris":{"android":"levelo://app?vid=0b570da9-727d-4c7f-a3ad-59496d4efc15","ios":"levelo://app?vid=0b570da9-727d-4c7f-a3ad-59496d4efc15"},"vehicle_type_id":"4","last_reported":1717431024,"current_range_meters":22800,"station_id":"ce4bhqp2rcd13ifvqhng","pricing_plan_id":"cebpf4jnsgd1na2vs0mg"},{"bike_id":"1d50e86b-9384-4779-8eaa-d926d2402ed1","system_id":"levelo_inurba_marseille","lat":43.317557,"lon":5.390173,"is_reserved":false,"is_disabled":false,"rental_uris":{"android":"levelo://app?vid=1d50e86b-9384-4779-8eaa-d926d2402ed1","ios":"levelo://app?vid=1d50e86b-9384-4779-8eaa-d926d2402ed1"},"vehicle_type_id":"4","last_reported":1717431024,"current_range_meters":11200,"station_id":"ce4bhqp2rcd13ifvqhng","pricing_plan_id":"cebpf4jnsgd1na2vs0mg"},{"bike_id":"82958010-3661-4a4b-acb8-deaac7a6eab7","system_id":"levelo_inurba_marseille","lat":43.297007,"lon":5.378018,"is_reserved":false,"is_disabled":false,"rental_uris":{"android":"levelo://app?vid=82958010-3661-4a4b-acb8-deaac7a6eab7","ios":"levelo://app?vid=82958010-3661-4a4b-acb8-deaac7a6eab7"},"vehicle_type_id":"4","last_reported":1717431024,"current_range_meters":24800,"station_id":"","pricing_plan_id":"cebpf4jnsgd1na2vs0mg"},{"bike_id":"9f96afd7-d435-436f-a146-ca6e946fceea","system_id":"levelo_inurba_marseille","lat":43.304274,"lon":5.388873,"is_reserved":false,"is_disabled":false,"rental_uris":{"android":"levelo://app?vid=9f96afd7-d435-436f-a146-ca6e946fceea","ios":"levelo://app?vid=9f96afd7-d435-436f-a146-ca6e946fceea"},"vehicle_type_id":"4","last_reported":1717431024,"current_range_meters":1600,"station_id":"ce4bgk12rcd13ifvqbi0","pricing_plan_id":"cebpf4jnsgd1na2vs0mg"},{"bike_id":"7a109959-13c9-4a02-a47d-ebb70f791912","system_id":"levelo_inurba_marseille","lat":43.298037,"lon":5.381066,"is_reserved":false,"is_disabled":false,"rental_uris":{"android":"levelo://app?vid=7a109959-13c9-4a02-a47d-ebb70f791912","ios":"levelo://app?vid=7a109959-13c9-4a02-a47d-ebb70f791912"},"vehicle_type_id":"4","last_reported":1717431024,"current_range_meters":0,"station_id":"ce4bgip2rcd13ifvqbb0","pricing_plan_id":"cebpf4jnsgd1na2vs0mg"},{"bike_id":"6e7a7738-3844-498b-a6eb-4244b9d4382e","system_id":"levelo_inurba_marseille","lat":43.295748,"lon":5.37522,"is_reserved":false,"is_disabled":false,"rental_uris":{"android":"levelo://app?vid=6e7a7738-3844-498b-a6eb-4244b9d4382e","ios":"levelo://app?vid=6e7a7738-3844-498b-a6eb-4244b9d4382e"},"vehicle_type_id":"4","last_reported":1717431024,"current_range_meters":0,"station_id":"ce4bgh92rcd13ifvqb50","pricing_plan_id":"cebpf4jnsgd1na2vs0mg"},{"bike_id":"df723ab0-d30b-49b6-b5ab-ca4e89829352","system_id":"levelo_inurba_marseille","lat":43.295748,"lon":5.37522,"is_reserved":false,"is_disabled":false,"rental_uris":{"android":"levelo://app?vid=df723ab0-d30b-49b6-b5ab-ca4e89829352","ios":"levelo://app?vid=df723ab0-d30b-49b6-b5ab-ca4e89829352"},"vehicle_type_id":"4","last_reported":1717431024,"current_range_meters":0,"station_id":"ce4bgh92rcd13ifvqb50","pricing_plan_id":"cebpf4jnsgd1na2vs0mg"},{"bike_id":"37c4cb9d-f72e-419b-850d-787055b10da1","system_id":"levelo_inurba_marseille","lat":43.299381,"lon":5.38352,"is_reserved":false,"is_disabled":false,"rental_uris":{"android":"levelo://app?vid=37c4cb9d-f72e-419b-850d-787055b10da1","ios":"levelo://app?vid=37c4cb9d-f72e-419b-850d-787055b10da1"},"vehicle_type_id":"4","last_reported":1717431024,"current_range_meters":20000,"station_id":"","pricing_plan_id":"cebpf4jnsgd1na2vs0mg"},{"bike_id":"36f5ec52-b2d9-4a7c-a000-bb2a71d00c78","system_id":"levelo_inurba_marseille","lat":43.298037,"lon":5.381066,"is_reserved":false,"is_disabled":false,"rental_uris":{"android":"levelo://app?vid=36f5ec52-b2d9-4a7c-a000-bb2a71d00c78","ios":"levelo://app?vid=36f5ec52-b2d9-4a7c-a000-bb2a71d00c78"},"vehicle_type_id":"4","last_reported":1717431024,"current_range_meters":0,"station_id":"ce4bgip2rcd13ifvqbb0","pricing_plan_id":"cebpf4jnsgd1na2vs0mg"},{"bike_id":"4337a476-dcb3-4efa-86c4-bf0352b936a2","system_id":"levelo_inurba_marseille","lat":43.304274,"lon":5.388873,"is_reserved":false,"is_disabled":false,"rental_uris":{"android":"levelo://app?vid=4337a476-dcb3-4efa-86c4-bf0352b936a2","ios":"levelo://app?vid=4337a476-dcb3-4efa-86c4-bf0352b936a2"},"vehicle_type_id":"4","last_reported":1717431024,"current_range_meters":8800,"station_id":"ce4bgk12rcd13ifvqbi0","pricing_plan_id":"cebpf4jnsgd1na2vs0mg"},{"bike_id":"b2b17201-7fff-4386-a791-793b0e238b54","system_id":"levelo_inurba_marseille","lat":43.295748,"lon":5.37522,"is_reserved":false,"is_disabled":false,"rental_uris":{"android":"levelo://app?vid=b2b17201-7fff-4386-a791-793b0e238b54","ios":"levelo://app?vid=b2b17201-7fff-4386-a791-793b0e238b54"},"vehicle_type_id":"4","last_reported":1717431024,"current_range_meters":4800,"station_id":"ce4bgh92rcd13ifvqb50","pricing_plan_id":"cebpf4jnsgd1na2vs0mg"},{"bike_id":"a8a11de1-9e21-4805-b2a4-6ef82d0670ce","system_id":"levelo_inurba_marseille","lat":43.295748,"lon":5.37522,"is_reserved":false,"is_disabled":false,"rental_uris":{"android":"levelo://app?vid=a8a11de1-9e21-4805-b2a4-6ef82d0670ce","ios":"levelo://app?vid=a8a11de1-9e21-4805-b2a4-6ef82d0670ce"},"vehicle_type_id":"4","last_reported":1717431024,"current_range_meters":1200,"station_id":"ce4bgh92rcd13ifvqb50","pricing_plan_id":"cebpf4jnsgd1na2vs0mg"},{"bike_id":"ee25b2f1-f501-494d-a66f-28fdab569eef","system_id":"levelo_inurba_marseille","lat":43.29617,"lon":5.37721,"is_reserved":false,"is_disabled":false,"rental_uris":{"android":"levelo://app?vid=ee25b2f1-f501-494d-a66f-28fdab569eef","ios":"levelo://app?vid=ee25b2f1-f501-494d-a66f-28fdab569eef"},"vehicle_type_id":"4","last_reported":1717431024,"current_range_meters":800,"station_id":"ce4bgi92rcd13ifvqb90","pricing_plan_id":"cebpf4jnsgd1na2vs0mg"},{"bike_id":"2fdd7362-8dd3-4b0c-be04-40d059ed340b","system_id":"levelo_inurba_marseille","lat":43.29619,"lon":5.37731,"is_reserved":false,"is_disabled":false,"rental_uris":{"android":"levelo://app?vid=2fdd7362-8dd3-4b0c-be04-40d059ed340b","ios":"levelo://app?vid=2fdd7362-8dd3-4b0c-be04-40d059ed340b"},"vehicle_type_id":"4","last_reported":1717431024,"current_range_meters":0,"station_id":"ce4bgi92rcd13ifvqb90","pricing_plan_id":"cebpf4jnsgd1na2vs0mg"},{"bike_id":"8264a0ac-c074-4762-af87-f35772b529f5","system_id":"levelo_inurba_marseille","lat":43.2976,"lon":5.3811,"is_reserved":false,"is_disabled":false,"rental_uris":{"android":"levelo://app?vid=8264a0ac-c074-4762-af87-f35772b529f5","ios":"levelo://app?vid=8264a0ac-c074-4762-af87-f35772b529f5"},"vehicle_type_id":"4","last_reported":1717431024,"current_range_meters":14800,"station_id":"ce4bgip2rcd13ifvqbb0","pricing_plan_id":"cebpf4jnsgd1na2vs0mg"},{"bike_id":"e94ead1f-8f96-4228-891d-7e1084b77e4d","system_id":"levelo_inurba_marseille","lat":43.29974,"lon":5.38491,"is_reserved":false,"is_disabled":false,"rental_uris":{"android":"levelo://app?vid=e94ead1f-8f96-4228-891d-7e1084b77e4d","ios":"levelo://app?vid=e94ead1f-8f96-4228-891d-7e1084b77e4d"},"vehicle_type_id":"4","last_reported":1717431024,"current_range_meters":5600,"station_id":"","pricing_plan_id":"cebpf4jnsgd1na2vs0mg"},{"bike_id":"20d2be00-1f96-4009-a9f8-1c3c67ee9f11","system_id":"levelo_inurba_marseille","lat":43.29969,"lon":5.38491,"is_reserved":false,"is_disabled":false,"rental_uris":{"android":"levelo://app?vid=20d2be00-1f96-4009-a9f8-1c3c67ee9f11","ios":"levelo://app?vid=20d2be00-1f96-4009-a9f8-1c3c67ee9f11"},"vehicle_type_id":"4","last_reported":1717431024,"current_range_meters":0,"station_id":"","pricing_plan_id":"cebpf4jnsgd1na2vs0mg"},{"bike_id":"319e756c-43bd-4dbc-9e4a-36d20cf6163a","system_id":"levelo_inurba_marseille","lat":43.295279,"lon":5.375048,"is_reserved":false,"is_disabled":false,"rental_uris":{"android":"levelo://app?vid=319e756c-43bd-4dbc-9e4a-36d20cf6163a","ios":"levelo://app?vid=319e756c-43bd-4dbc-9e4a-36d20cf6163a"},"vehicle_type_id":"4","last_reported":1717431024,"current_range_meters":0,"station_id":"ce4bgkp2rcd13ifvqbmg","pricing_plan_id":"cebpf4jnsgd1na2vs0mg"},{"bike_id":"6c4f4680-8d17-4136-9bb6-01fd4374c8ea","system_id":"levelo_inurba_marseille","lat":43.32367,"lon":5.38883,"is_reserved":false,"is_disabled":false,"rental_uris":{"android":"levelo://app?vid=6c4f4680-8d17-4136-9bb6-01fd4374c8ea","ios":"levelo://app?vid=6c4f4680-8d17-4136-9bb6-01fd4374c8ea"},"vehicle_type_id":"4","last_reported":1717431024,"current_range_meters":16400,"station_id":"ce4bhqp2rcd13ifvqhog","pricing_plan_id":"cebpf4jnsgd1na2vs0mg"},{"bike_id":"95310373-a3bc-4266-9cf1-a267850db416","system_id":"levelo_inurba_marseille","lat":43.312,"lon":5.39359,"is_reserved":false,"is_disabled":false,"rental_uris":{"android":"levelo://app?vid=95310373-a3bc-4266-9cf1-a267850db416","ios":"levelo://app?vid=95310373-a3bc-4266-9cf1-a267850db416"},"vehicle_type_id":"4","last_reported":1717431024,"current_range_meters":6800,"station_id":"","pricing_plan_id":"cebpf4jnsgd1na2vs0mg"},{"bike_id":"617576a0-d3dc-4a2f-adb1-84c095bbb366","system_id":"levelo_inurba_marseille","lat":43.29601,"lon":5.381084,"is_reserved":false,"is_disabled":false,"rental_uris":{"android":"levelo://app?vid=617576a0-d3dc-4a2f-adb1-84c095bbb366","ios":"levelo://app?vid=617576a0-d3dc-4a2f-adb1-84c095bbb366"},"vehicle_type_id":"4","last_reported":1717431024,"current_range_meters":22000,"station_id":"ce4bgl12rcd13ifvqbo0","pricing_plan_id":"cebpf4jnsgd1na2vs0mg"},{"bike_id":"db55f8b5-9964-46ab-af7a-ca8e1d1650c1","system_id":"levelo_inurba_marseille","lat":43.29601,"lon":5.381084,"is_reserved":false,"is_disabled":false,"rental_uris":{"android":"levelo://app?vid=db55f8b5-9964-46ab-af7a-ca8e1d1650c1","ios":"levelo://app?vid=db55f8b5-9964-46ab-af7a-ca8e1d1650c1"},"vehicle_type_id":"4","last_reported":1717431024,"current_range_meters":6000,"station_id":"ce4bgl12rcd13ifvqbo0","pricing_plan_id":"cebpf4jnsgd1na2vs0mg"},{"bike_id":"6ae66cb6-3771-4232-92c0-a94eca39e2ba","system_id":"levelo_inurba_marseille","lat":43.29601,"lon":5.381084,"is_reserved":false,"is_disabled":false,"rental_uris":{"android":"levelo://app?vid=6ae66cb6-3771-4232-92c0-a94eca39e2ba","ios":"levelo://app?vid=6ae66cb6-3771-4232-92c0-a94eca39e2ba"},"vehicle_type_id":"4","last_reported":1717431024,"current_range_meters":26000,"station_id":"ce4bgl12rcd13ifvqbo0","pricing_plan_id":"cebpf4jnsgd1na2vs0mg"},{"bike_id":"8bcdee12-36a7-46c2-924c-06c22406ddae","system_id":"levelo_inurba_marseille","lat":43.29585,"lon":5.38086,"is_reserved":false,"is_disabled":false,"rental_uris":{"android":"levelo://app?vid=8bcdee12-36a7-46c2-924c-06c22406ddae","ios":"levelo://app?vid=8bcdee12-36a7-46c2-924c-06c22406ddae"},"vehicle_type_id":"4","last_reported":1717431024,"current_range_meters":5200,"station_id":"ce4bgl12rcd13ifvqbo0","pricing_plan_id":"cebpf4jnsgd1na2vs0mg"},{"bike_id":"5cc08380-ad4d-4677-92f7-c95f57cbdb65","system_id":"levelo_inurba_marseille","lat":43.29333,"lon":5.37158,"is_reserved":false,"is_disabled":false,"rental_uris":{"android":"levelo://app?vid=5cc08380-ad4d-4677-92f7-c95f57cbdb65","ios":"levelo://app?vid=5cc08380-ad4d-4677-92f7-c95f57cbdb65"},"vehicle_type_id":"4","last_reported":1717431024,"current_range_meters":0,"station_id":"ce4bgh92rcd13ifvqb40","pricing_plan_id":"cebpf4jnsgd1na2vs0mg"},{"bike_id":"06a6853c-e4c2-4603-9ed1-4a9c3e8ef55b","system_id":"levelo_inurba_marseille","lat":43.310423,"lon":5.393911,"is_reserved":false,"is_disabled":false,"rental_uris":{"android":"levelo://app?vid=06a6853c-e4c2-4603-9ed1-4a9c3e8ef55b","ios":"levelo://app?vid=06a6853c-e4c2-4603-9ed1-4a9c3e8ef55b"},"vehicle_type_id":"4","last_reported":1717431024,"current_range_meters":5200,"station_id":"","pricing_plan_id":"cebpf4jnsgd1na2vs0mg"},{"bike_id":"ac5f8d76-6e85-40dc-92ef-97293e1b03cb","system_id":"levelo_inurba_marseille","lat":43.302501,"lon":5.390351,"is_reserved":false,"is_disabled":false,"rental_uris":{"android":"levelo://app?vid=ac5f8d76-6e85-40dc-92ef-97293e1b03cb","ios":"levelo://app?vid=ac5f8d76-6e85-40dc-92ef-97293e1b03cb"},"vehicle_type_id":"4","last_reported":1717431024,"current_range_meters":0,"station_id":"","pricing_plan_id":"cebpf4jnsgd1na2vs0mg"},{"bike_id":"26deffd9-b5e6-4781-a4df-0a682b8451f0","system_id":"levelo_inurba_marseille","lat":43.292749,"lon":5.368402,"is_reserved":false,"is_disabled":false,"rental_uris":{"android":"levelo://app?vid=26deffd9-b5e6-4781-a4df-0a682b8451f0","ios":"levelo://app?vid=26deffd9-b5e6-4781-a4df-0a682b8451f0"},"vehicle_type_id":"4","last_reported":1717431024,"current_range_meters":12000,"station_id":"ce4bhbp2rcd13ifvqesg","pricing_plan_id":"cebpf4jnsgd1na2vs0mg"},{"bike_id":"256808bc-2e21-4ce8-b579-b76ba0b9ea63","system_id":"levelo_inurba_marseille","lat":43.29276,"lon":5.36847,"is_reserved":false,"is_disabled":false,"rental_uris":{"android":"levelo://app?vid=256808bc-2e21-4ce8-b579-b76ba0b9ea63","ios":"levelo://app?vid=256808bc-2e21-4ce8-b579-b76ba0b9ea63"},"vehicle_type_id":"4","last_reported":1717431024,"current_range_meters":0,"station_id":"ce4bhbp2rcd13ifvqesg","pricing_plan_id":"cebpf4jnsgd1na2vs0mg"},{"bike_id":"82d7fcc6-1736-41ba-886a-4b3a5b534200","system_id":"levelo_inurba_marseille","lat":43.292749,"lon":5.368402,"is_reserved":false,"is_disabled":false,"rental_uris":{"android":"levelo://app?vid=82d7fcc6-1736-41ba-886a-4b3a5b534200","ios":"levelo://app?vid=82d7fcc6-1736-41ba-886a-4b3a5b534200"},"vehicle_type_id":"4","last_reported":1717431024,"current_range_meters":17600,"station_id":"ce4bhbp2rcd13ifvqesg","pricing_plan_id":"cebpf4jnsgd1na2vs0mg"},{"bike_id":"226457ef-9366-4aa1-997e-c18c0f603630","system_id":"levelo_inurba_marseille","lat":43.293009,"lon":5.374584,"is_reserved":false,"is_disabled":false,"rental_uris":{"android":"levelo://app?vid=226457ef-9366-4aa1-997e-c18c0f603630","ios":"levelo://app?vid=226457ef-9366-4aa1-997e-c18c0f603630"},"vehicle_type_id":"4","last_reported":1717431024,"current_range_meters":0,"station_id":"ce4bgi12rcd13ifvqb70","pricing_plan_id":"cebpf4jnsgd1na2vs0mg"},{"bike_id":"133aafb0-e228-4308-a57a-15af438a0f04","system_id":"levelo_inurba_marseille","lat":43.293009,"lon":5.374584,"is_reserved":false,"is_disabled":false,"rental_uris":{"android":"levelo://app?vid=133aafb0-e228-4308-a57a-15af438a0f04","ios":"levelo://app?vid=133aafb0-e228-4308-a57a-15af438a0f04"},"vehicle_type_id":"4","last_reported":1717431024,"current_range_meters":2000,"station_id":"ce4bgi12rcd13ifvqb70","pricing_plan_id":"cebpf4jnsgd1na2vs0mg"},{"bike_id":"f3537a3a-870a-4dd1-961e-8b4cc644646d","system_id":"levelo_inurba_marseille","lat":43.293009,"lon":5.374584,"is_reserved":false,"is_disabled":false,"rental_uris":{"android":"levelo://app?vid=f3537a3a-870a-4dd1-961e-8b4cc644646d","ios":"levelo://app?vid=f3537a3a-870a-4dd1-961e-8b4cc644646d"},"vehicle_type_id":"4","last_reported":1717431024,"current_range_meters":12800,"station_id":"ce4bgi12rcd13ifvqb70","pricing_plan_id":"cebpf4jnsgd1na2vs0mg"},{"bike_id":"c8258733-5225-4b37-a3d7-50d5caa3ef12","system_id":"levelo_inurba_marseille","lat":43.292779,"lon":5.373544,"is_reserved":false,"is_disabled":false,"rental_uris":{"android":"levelo://app?vid=c8258733-5225-4b37-a3d7-50d5caa3ef12","ios":"levelo://app?vid=c8258733-5225-4b37-a3d7-50d5caa3ef12"},"vehicle_type_id":"4","last_reported":1717431024,"current_range_meters":800,"station_id":"ce4bhh12rcd13ifvqff0","pricing_plan_id":"cebpf4jnsgd1na2vs0mg"},{"bike_id":"a3e40d1a-081b-4349-aa75-36e360a276e1","system_id":"levelo_inurba_marseille","lat":43.2936,"lon":5.37835,"is_reserved":false,"is_disabled":false,"rental_uris":{"android":"levelo://app?vid=a3e40d1a-081b-4349-aa75-36e360a276e1","ios":"levelo://app?vid=a3e40d1a-081b-4349-aa75-36e360a276e1"},"vehicle_type_id":"4","last_reported":1717431024,"current_range_meters":0,"station_id":"ce4bgjh2rcd13ifvqbf0","pricing_plan_id":"cebpf4jnsgd1na2vs0mg"},{"bike_id":"f666304f-806c-455c-8f31-f19d63a9a635","system_id":"levelo_inurba_marseille","lat":43.29375,"lon":5.37853,"is_reserved":false,"is_disabled":false,"rental_uris":{"android":"levelo://app?vid=f666304f-806c-455c-8f31-f19d63a9a635","ios":"levelo://app?vid=f666304f-806c-455c-8f31-f19d63a9a635"},"vehicle_type_id":"4","last_reported":1717431024,"current_range_meters":26400,"station_id":"ce4bgjh2rcd13ifvqbf0","pricing_plan_id":"cebpf4jnsgd1na2vs0mg"},{"bike_id":"a09f27f9-2f78-4a0c-8795-922fb4cab46b","system_id":"levelo_inurba_marseille","lat":43.300852,"lon":5.390859,"is_reserved":false,"is_disabled":false,"rental_uris":{"android":"levelo://app?vid=a09f27f9-2f78-4a0c-8795-922fb4cab46b","ios":"levelo://app?vid=a09f27f9-2f78-4a0c-8795-922fb4cab46b"},"vehicle_type_id":"4","last_reported":1717431024,"current_range_meters":13600,"station_id":"ce4bh192rcd13ifvqdb0","pricing_plan_id":"cebpf4jnsgd1na2vs0mg"},{"bike_id":"d290f87d-8346-4256-a708-04915e2111e3","system_id":"levelo_inurba_marseille","lat":43.300852,"lon":5.390859,"is_reserved":false,"is_disabled":false,"rental_uris":{"android":"levelo://app?vid=d290f87d-8346-4256-a708-04915e2111e3","ios":"levelo://app?vid=d290f87d-8346-4256-a708-04915e2111e3"},"vehicle_type_id":"4","last_reported":1717431024,"current_range_meters":27600,"station_id":"ce4bh192rcd13ifvqdb0","pricing_plan_id":"cebpf4jnsgd1na2vs0mg"},{"bike_id":"e4448634-17bf-468a-a7f9-8bd0891a6c1a","system_id":"levelo_inurba_marseille","lat":43.300998,"lon":5.390831,"is_reserved":false,"is_disabled":false,"rental_uris":{"android":"levelo://app?vid=e4448634-17bf-468a-a7f9-8bd0891a6c1a","ios":"levelo://app?vid=e4448634-17bf-468a-a7f9-8bd0891a6c1a"},"vehicle_type_id":"4","last_reported":1717431024,"current_range_meters":22000,"station_id":"","pricing_plan_id":"cebpf4jnsgd1na2vs0mg"},{"bike_id":"02d168dd-c44b-4ba1-b0a2-9c1ed48b1e05","system_id":"levelo_inurba_marseille","lat":43.30085,"lon":5.390856,"is_reserved":false,"is_disabled":false,"rental_uris":{"android":"levelo://app?vid=02d168dd-c44b-4ba1-b0a2-9c1ed48b1e05","ios":"levelo://app?vid=02d168dd-c44b-4ba1-b0a2-9c1ed48b1e05"},"vehicle_type_id":"4","last_reported":1717431024,"current_range_meters":29200,"station_id":"ce4bh192rcd13ifvqdb0","pricing_plan_id":"cebpf4jnsgd1na2vs0mg"},{"bike_id":"25e667dd-094b-485a-840c-2f412f2666ba","system_id":"levelo_inurba_marseille","lat":43.300852,"lon":5.390859,"is_reserved":false,"is_disabled":false,"rental_uris":{"android":"levelo://app?vid=25e667dd-094b-485a-840c-2f412f2666ba","ios":"levelo://app?vid=25e667dd-094b-485a-840c-2f412f2666ba"},"vehicle_type_id":"4","last_reported":1717431024,"current_range_meters":31200,"station_id":"ce4bh192rcd13ifvqdb0","pricing_plan_id":"cebpf4jnsgd1na2vs0mg"},{"bike_id":"ba56c872-2708-4eca-90e3-14ac7027ae07","system_id":"levelo_inurba_marseille","lat":43.30085,"lon":5.390856,"is_reserved":false,"is_disabled":false,"rental_uris":{"android":"levelo://app?vid=ba56c872-2708-4eca-90e3-14ac7027ae07","ios":"levelo://app?vid=ba56c872-2708-4eca-90e3-14ac7027ae07"},"vehicle_type_id":"4","last_reported":1717431024,"current_range_meters":31600,"station_id":"ce4bh192rcd13ifvqdb0","pricing_plan_id":"cebpf4jnsgd1na2vs0mg"},{"bike_id":"8aecfbba-c525-4ce4-84b1-ac1b7c745a52","system_id":"levelo_inurba_marseille","lat":43.298993,"lon":5.389207,"is_reserved":false,"is_disabled":false,"rental_uris":{"android":"levelo://app?vid=8aecfbba-c525-4ce4-84b1-ac1b7c745a52","ios":"levelo://app?vid=8aecfbba-c525-4ce4-84b1-ac1b7c745a52"},"vehicle_type_id":"4","last_reported":1717431024,"current_range_meters":0,"station_id":"","pricing_plan_id":"cebpf4jnsgd1na2vs0mg"},{"bike_id":"3b2d258d-2a73-4589-a130-a9534ddba9b3","system_id":"levelo_inurba_marseille","lat":43.291671,"lon":5.371575,"is_reserved":false,"is_disabled":false,"rental_uris":{"android":"levelo://app?vid=3b2d258d-2a73-4589-a130-a9534ddba9b3","ios":"levelo://app?vid=3b2d258d-2a73-4589-a130-a9534ddba9b3"},"vehicle_type_id":"4","last_reported":1717431024,"current_range_meters":9600,"station_id":"ce4bha92rcd13ifvqeh0","pricing_plan_id":"cebpf4jnsgd1na2vs0mg"},{"bike_id":"e2a7dcbe-8367-4e98-bb09-c0d03145202d","system_id":"levelo_inurba_marseille","lat":43.29166,"lon":5.37165,"is_reserved":false,"is_disabled":false,"rental_uris":{"android":"levelo://app?vid=e2a7dcbe-8367-4e98-bb09-c0d03145202d","ios":"levelo://app?vid=e2a7dcbe-8367-4e98-bb09-c0d03145202d"},"vehicle_type_id":"4","last_reported":1717431024,"current_range_meters":0,"station_id":"ce4bha92rcd13ifvqeh0","pricing_plan_id":"cebpf4jnsgd1na2vs0mg"},{"bike_id":"f03c7a21-7f94-4548-9044-89112f528131","system_id":"levelo_inurba_marseille","lat":43.309038,"lon":5.396546,"is_reserved":false,"is_disabled":false,"rental_uris":{"android":"levelo://app?vid=f03c7a21-7f94-4548-9044-89112f528131","ios":"levelo://app?vid=f03c7a21-7f94-4548-9044-89112f528131"},"vehicle_type_id":"4","last_reported":1717431024,"current_range_meters":10400,"station_id":"ce4bh012rcd13ifvqcv0","pricing_plan_id":"cebpf4jnsgd1na2vs0mg"},{"bike_id":"a4368f1c-4c46-49c8-a25a-43336507e6c2","system_id":"levelo_inurba_marseille","lat":43.291994,"lon":5.357886,"is_reserved":false,"is_disabled":false,"rental_uris":{"android":"levelo://app?vid=a4368f1c-4c46-49c8-a25a-43336507e6c2","ios":"levelo://app?vid=a4368f1c-4c46-49c8-a25a-43336507e6c2"},"vehicle_type_id":"4","last_reported":1717431024,"current_range_meters":19200,"station_id":"ce4bhb12rcd13ifvqel0","pricing_plan_id":"cebpf4jnsgd1na2vs0mg"},{"bike_id":"f0019053-cb71-4df8-a619-cad4cc53fb4e","system_id":"levelo_inurba_marseille","lat":43.291994,"lon":5.357886,"is_reserved":false,"is_disabled":false,"rental_uris":{"android":"levelo://app?vid=f0019053-cb71-4df8-a619-cad4cc53fb4e","ios":"levelo://app?vid=f0019053-cb71-4df8-a619-cad4cc53fb4e"},"vehicle_type_id":"4","last_reported":1717431024,"current_range_meters":31600,"station_id":"ce4bhb12rcd13ifvqel0","pricing_plan_id":"cebpf4jnsgd1na2vs0mg"},{"bike_id":"3e52418c-e900-4d2f-b776-3c41cf44d6d0","system_id":"levelo_inurba_marseille","lat":43.292005,"lon":5.357875,"is_reserved":false,"is_disabled":false,"rental_uris":{"android":"levelo://app?vid=3e52418c-e900-4d2f-b776-3c41cf44d6d0","ios":"levelo://app?vid=3e52418c-e900-4d2f-b776-3c41cf44d6d0"},"vehicle_type_id":"4","last_reported":1717431024,"current_range_meters":14000,"station_id":"ce4bhb12rcd13ifvqel0","pricing_plan_id":"cebpf4jnsgd1na2vs0mg"},{"bike_id":"7f55b7aa-442e-4908-9e0d-a651684f788d","system_id":"levelo_inurba_marseille","lat":43.291994,"lon":5.357886,"is_reserved":false,"is_disabled":false,"rental_uris":{"android":"levelo://app?vid=7f55b7aa-442e-4908-9e0d-a651684f788d","ios":"levelo://app?vid=7f55b7aa-442e-4908-9e0d-a651684f788d"},"vehicle_type_id":"4","last_reported":1717431024,"current_range_meters":4800,"station_id":"ce4bhb12rcd13ifvqel0","pricing_plan_id":"cebpf4jnsgd1na2vs0mg"},{"bike_id":"4d3c82a3-c6c6-4d5c-a61a-301f82f9bcdc","system_id":"levelo_inurba_marseille","lat":43.313291,"lon":5.396838,"is_reserved":false,"is_disabled":false,"rental_uris":{"android":"levelo://app?vid=4d3c82a3-c6c6-4d5c-a61a-301f82f9bcdc","ios":"levelo://app?vid=4d3c82a3-c6c6-4d5c-a61a-301f82f9bcdc"},"vehicle_type_id":"4","last_reported":1717431024,"current_range_meters":28400,"station_id":"ce4bgvp2rcd13ifvqcu0","pricing_plan_id":"cebpf4jnsgd1na2vs0mg"},{"bike_id":"3254841b-8e14-40ee-813a-b0024fef54b1","system_id":"levelo_inurba_marseille","lat":43.292005,"lon":5.357875,"is_reserved":false,"is_disabled":false,"rental_uris":{"android":"levelo://app?vid=3254841b-8e14-40ee-813a-b0024fef54b1","ios":"levelo://app?vid=3254841b-8e14-40ee-813a-b0024fef54b1"},"vehicle_type_id":"4","last_reported":1717431024,"current_range_meters":28800,"station_id":"ce4bhb12rcd13ifvqel0","pricing_plan_id":"cebpf4jnsgd1na2vs0mg"},{"bike_id":"daaadadc-0dfa-4ad5-b138-dd7cd2bcfd40","system_id":"levelo_inurba_marseille","lat":43.291994,"lon":5.357886,"is_reserved":false,"is_disabled":false,"rental_uris":{"android":"levelo://app?vid=daaadadc-0dfa-4ad5-b138-dd7cd2bcfd40","ios":"levelo://app?vid=daaadadc-0dfa-4ad5-b138-dd7cd2bcfd40"},"vehicle_type_id":"4","last_reported":1717431024,"current_range_meters":400,"station_id":"ce4bhb12rcd13ifvqel0","pricing_plan_id":"cebpf4jnsgd1na2vs0mg"},{"bike_id":"28a202e4-3e79-4aca-8d84-591c94ff4a5d","system_id":"levelo_inurba_marseille","lat":43.313291,"lon":5.396838,"is_reserved":false,"is_disabled":false,"rental_uris":{"android":"levelo://app?vid=28a202e4-3e79-4aca-8d84-591c94ff4a5d","ios":"levelo://app?vid=28a202e4-3e79-4aca-8d84-591c94ff4a5d"},"vehicle_type_id":"4","last_reported":1717431024,"current_range_meters":24000,"station_id":"ce4bgvp2rcd13ifvqcu0","pricing_plan_id":"cebpf4jnsgd1na2vs0mg"},{"bike_id":"e2e9401b-bc8e-409c-84e5-8c74eec841a6","system_id":"levelo_inurba_marseille","lat":43.309047,"lon":5.396551,"is_reserved":false,"is_disabled":false,"rental_uris":{"android":"levelo://app?vid=e2e9401b-bc8e-409c-84e5-8c74eec841a6","ios":"levelo://app?vid=e2e9401b-bc8e-409c-84e5-8c74eec841a6"},"vehicle_type_id":"4","last_reported":1717431024,"current_range_meters":0,"station_id":"ce4bh012rcd13ifvqcv0","pricing_plan_id":"cebpf4jnsgd1na2vs0mg"},{"bike_id":"bb2cfa1d-f868-45e0-b46a-5053954a4d16","system_id":"levelo_inurba_marseille","lat":43.309047,"lon":5.396551,"is_reserved":false,"is_disabled":false,"rental_uris":{"android":"levelo://app?vid=bb2cfa1d-f868-45e0-b46a-5053954a4d16","ios":"levelo://app?vid=bb2cfa1d-f868-45e0-b46a-5053954a4d16"},"vehicle_type_id":"4","last_reported":1717431024,"current_range_meters":13200,"station_id":"ce4bh012rcd13ifvqcv0","pricing_plan_id":"cebpf4jnsgd1na2vs0mg"},{"bike_id":"dbc97b29-8b3e-4cf2-856b-5f2d2ad7834b","system_id":"levelo_inurba_marseille","lat":43.309047,"lon":5.396551,"is_reserved":false,"is_disabled":false,"rental_uris":{"android":"levelo://app?vid=dbc97b29-8b3e-4cf2-856b-5f2d2ad7834b","ios":"levelo://app?vid=dbc97b29-8b3e-4cf2-856b-5f2d2ad7834b"},"vehicle_type_id":"4","last_reported":1717431024,"current_range_meters":0,"station_id":"ce4bh012rcd13ifvqcv0","pricing_plan_id":"cebpf4jnsgd1na2vs0mg"},{"bike_id":"43879ebb-ec06-47cb-afa6-1d4dc8b46200","system_id":"levelo_inurba_marseille","lat":43.29529,"lon":5.385581,"is_reserved":false,"is_disabled":false,"rental_uris":{"android":"levelo://app?vid=43879ebb-ec06-47cb-afa6-1d4dc8b46200","ios":"levelo://app?vid=43879ebb-ec06-47cb-afa6-1d4dc8b46200"},"vehicle_type_id":"4","last_reported":1717431024,"current_range_meters":6400,"station_id":"ce4bgih2rcd13ifvqba0","pricing_plan_id":"cebpf4jnsgd1na2vs0mg"},{"bike_id":"98b66fe9-efb1-46e2-954b-6a69a393a140","system_id":"levelo_inurba_marseille","lat":43.29529,"lon":5.385581,"is_reserved":false,"is_disabled":false,"rental_uris":{"android":"levelo://app?vid=98b66fe9-efb1-46e2-954b-6a69a393a140","ios":"levelo://app?vid=98b66fe9-efb1-46e2-954b-6a69a393a140"},"vehicle_type_id":"4","last_reported":1717431024,"current_range_meters":19600,"station_id":"ce4bgih2rcd13ifvqba0","pricing_plan_id":"cebpf4jnsgd1na2vs0mg"},{"bike_id":"953f299e-6a60-45ae-83d7-5140b3b4eb4d","system_id":"levelo_inurba_marseille","lat":43.29529,"lon":5.385581,"is_reserved":false,"is_disabled":false,"rental_uris":{"android":"levelo://app?vid=953f299e-6a60-45ae-83d7-5140b3b4eb4d","ios":"levelo://app?vid=953f299e-6a60-45ae-83d7-5140b3b4eb4d"},"vehicle_type_id":"4","last_reported":1717431024,"current_range_meters":5600,"station_id":"ce4bgih2rcd13ifvqba0","pricing_plan_id":"cebpf4jnsgd1na2vs0mg"},{"bike_id":"dded3763-1c03-4f02-a3f7-b261d2461af2","system_id":"levelo_inurba_marseille","lat":43.29529,"lon":5.385581,"is_reserved":false,"is_disabled":false,"rental_uris":{"android":"levelo://app?vid=dded3763-1c03-4f02-a3f7-b261d2461af2","ios":"levelo://app?vid=dded3763-1c03-4f02-a3f7-b261d2461af2"},"vehicle_type_id":"4","last_reported":1717431024,"current_range_meters":31600,"station_id":"ce4bgih2rcd13ifvqba0","pricing_plan_id":"cebpf4jnsgd1na2vs0mg"},{"bike_id":"11a42ed0-b057-4209-a2eb-bff475fa8fa1","system_id":"levelo_inurba_marseille","lat":43.29529,"lon":5.385581,"is_reserved":false,"is_disabled":false,"rental_uris":{"android":"levelo://app?vid=11a42ed0-b057-4209-a2eb-bff475fa8fa1","ios":"levelo://app?vid=11a42ed0-b057-4209-a2eb-bff475fa8fa1"},"vehicle_type_id":"4","last_reported":1717431024,"current_range_meters":8000,"station_id":"ce4bgih2rcd13ifvqba0","pricing_plan_id":"cebpf4jnsgd1na2vs0mg"},{"bike_id":"59897bb1-b3ad-41c0-bb20-088911f2893f","system_id":"levelo_inurba_marseille","lat":43.29529,"lon":5.385581,"is_reserved":false,"is_disabled":false,"rental_uris":{"android":"levelo://app?vid=59897bb1-b3ad-41c0-bb20-088911f2893f","ios":"levelo://app?vid=59897bb1-b3ad-41c0-bb20-088911f2893f"},"vehicle_type_id":"4","last_reported":1717431024,"current_range_meters":24400,"station_id":"ce4bgih2rcd13ifvqba0","pricing_plan_id":"cebpf4jnsgd1na2vs0mg"},{"bike_id":"bb1a55a8-c78f-4112-9319-96da38177671","system_id":"levelo_inurba_marseille","lat":43.290624,"lon":5.359245,"is_reserved":false,"is_disabled":false,"rental_uris":{"android":"levelo://app?vid=bb1a55a8-c78f-4112-9319-96da38177671","ios":"levelo://app?vid=bb1a55a8-c78f-4112-9319-96da38177671"},"vehicle_type_id":"4","last_reported":1717431024,"current_range_meters":1200,"station_id":"ce4bha92rcd13ifvqeg0","pricing_plan_id":"cebpf4jnsgd1na2vs0mg"},{"bike_id":"c2f9cd2b-7f4c-47d0-8190-aee911f2aadb","system_id":"levelo_inurba_marseille","lat":43.294162,"lon":5.386292,"is_reserved":false,"is_disabled":false,"rental_uris":{"android":"levelo://app?vid=c2f9cd2b-7f4c-47d0-8190-aee911f2aadb","ios":"levelo://app?vid=c2f9cd2b-7f4c-47d0-8190-aee911f2aadb"},"vehicle_type_id":"4","last_reported":1717431024,"current_range_meters":29200,"station_id":"ce4bh2h2rcd13ifvqdh0","pricing_plan_id":"cebpf4jnsgd1na2vs0mg"},{"bike_id":"28527c74-1b0f-4bf2-9966-fded47f311c4","system_id":"levelo_inurba_marseille","lat":43.290624,"lon":5.359245,"is_reserved":false,"is_disabled":false,"rental_uris":{"android":"levelo://app?vid=28527c74-1b0f-4bf2-9966-fded47f311c4","ios":"levelo://app?vid=28527c74-1b0f-4bf2-9966-fded47f311c4"},"vehicle_type_id":"4","last_reported":1717431024,"current_range_meters":15200,"station_id":"ce4bha92rcd13ifvqeg0","pricing_plan_id":"cebpf4jnsgd1na2vs0mg"},{"bike_id":"692a0a6e-156f-48aa-a8dc-15ede9009f73","system_id":"levelo_inurba_marseille","lat":43.290103,"lon":5.356114,"is_reserved":false,"is_disabled":false,"rental_uris":{"android":"levelo://app?vid=692a0a6e-156f-48aa-a8dc-15ede9009f73","ios":"levelo://app?vid=692a0a6e-156f-48aa-a8dc-15ede9009f73"},"vehicle_type_id":"4","last_reported":1717431024,"current_range_meters":16800,"station_id":"ce4bhb92rcd13ifvqen0","pricing_plan_id":"cebpf4jnsgd1na2vs0mg"},{"bike_id":"12818000-b03f-4a62-88b0-b4f3f84ccb5a","system_id":"levelo_inurba_marseille","lat":43.294153,"lon":5.386305,"is_reserved":false,"is_disabled":false,"rental_uris":{"android":"levelo://app?vid=12818000-b03f-4a62-88b0-b4f3f84ccb5a","ios":"levelo://app?vid=12818000-b03f-4a62-88b0-b4f3f84ccb5a"},"vehicle_type_id":"4","last_reported":1717431024,"current_range_meters":0,"station_id":"ce4bh2h2rcd13ifvqdh0","pricing_plan_id":"cebpf4jnsgd1na2vs0mg"},{"bike_id":"31a10d78-42f6-48e4-bee3-78acc7a9b175","system_id":"levelo_inurba_marseille","lat":43.290104,"lon":5.356111,"is_reserved":false,"is_disabled":false,"rental_uris":{"android":"levelo://app?vid=31a10d78-42f6-48e4-bee3-78acc7a9b175","ios":"levelo://app?vid=31a10d78-42f6-48e4-bee3-78acc7a9b175"},"vehicle_type_id":"4","last_reported":1717431024,"current_range_meters":4000,"station_id":"ce4bhb92rcd13ifvqen0","pricing_plan_id":"cebpf4jnsgd1na2vs0mg"},{"bike_id":"04c98622-cea3-4498-87e2-d63e34cceebb","system_id":"levelo_inurba_marseille","lat":43.289406,"lon":5.366429,"is_reserved":false,"is_disabled":false,"rental_uris":{"android":"levelo://app?vid=04c98622-cea3-4498-87e2-d63e34cceebb","ios":"levelo://app?vid=04c98622-cea3-4498-87e2-d63e34cceebb"},"vehicle_type_id":"4","last_reported":1717431024,"current_range_meters":0,"station_id":"ce4bhap2rcd13ifvqek0","pricing_plan_id":"cebpf4jnsgd1na2vs0mg"},{"bike_id":"4c1c381f-d1e6-401c-8ee7-853834164520","system_id":"levelo_inurba_marseille","lat":43.289468,"lon":5.363719,"is_reserved":false,"is_disabled":false,"rental_uris":{"android":"levelo://app?vid=4c1c381f-d1e6-401c-8ee7-853834164520","ios":"levelo://app?vid=4c1c381f-d1e6-401c-8ee7-853834164520"},"vehicle_type_id":"4","last_reported":1717431024,"current_range_meters":16400,"station_id":"ce4bhc92rcd13ifvqetg","pricing_plan_id":"cebpf4jnsgd1na2vs0mg"},{"bike_id":"85d3c4b0-c902-43a4-a337-d7e5155cab33","system_id":"levelo_inurba_marseille","lat":43.289468,"lon":5.363719,"is_reserved":false,"is_disabled":false,"rental_uris":{"android":"levelo://app?vid=85d3c4b0-c902-43a4-a337-d7e5155cab33","ios":"levelo://app?vid=85d3c4b0-c902-43a4-a337-d7e5155cab33"},"vehicle_type_id":"4","last_reported":1717431024,"current_range_meters":0,"station_id":"ce4bhc92rcd13ifvqetg","pricing_plan_id":"cebpf4jnsgd1na2vs0mg"},{"bike_id":"9dc9c772-f686-4211-900f-38779e35807d","system_id":"levelo_inurba_marseille","lat":43.289468,"lon":5.363719,"is_reserved":false,"is_disabled":false,"rental_uris":{"android":"levelo://app?vid=9dc9c772-f686-4211-900f-38779e35807d","ios":"levelo://app?vid=9dc9c772-f686-4211-900f-38779e35807d"},"vehicle_type_id":"4","last_reported":1717431024,"current_range_meters":400,"station_id":"ce4bhc92rcd13ifvqetg","pricing_plan_id":"cebpf4jnsgd1na2vs0mg"},{"bike_id":"9806d02f-8563-42f6-b2a9-5a08041cdb35","system_id":"levelo_inurba_marseille","lat":43.289319,"lon":5.3664,"is_reserved":false,"is_disabled":false,"rental_uris":{"android":"levelo://app?vid=9806d02f-8563-42f6-b2a9-5a08041cdb35","ios":"levelo://app?vid=9806d02f-8563-42f6-b2a9-5a08041cdb35"},"vehicle_type_id":"4","last_reported":1717431024,"current_range_meters":0,"station_id":"ce4bhap2rcd13ifvqek0","pricing_plan_id":"cebpf4jnsgd1na2vs0mg"},{"bike_id":"150559d3-476b-4c5e-b721-d3c4698a3a8f","system_id":"levelo_inurba_marseille","lat":43.290103,"lon":5.356114,"is_reserved":false,"is_disabled":false,"rental_uris":{"android":"levelo://app?vid=150559d3-476b-4c5e-b721-d3c4698a3a8f","ios":"levelo://app?vid=150559d3-476b-4c5e-b721-d3c4698a3a8f"},"vehicle_type_id":"4","last_reported":1717431024,"current_range_meters":17600,"station_id":"ce4bhb92rcd13ifvqen0","pricing_plan_id":"cebpf4jnsgd1na2vs0mg"},{"bike_id":"14fd0c75-56a6-455e-b7df-04a4bd1d3804","system_id":"levelo_inurba_marseille","lat":43.292644,"lon":5.384257,"is_reserved":false,"is_disabled":false,"rental_uris":{"android":"levelo://app?vid=14fd0c75-56a6-455e-b7df-04a4bd1d3804","ios":"levelo://app?vid=14fd0c75-56a6-455e-b7df-04a4bd1d3804"},"vehicle_type_id":"4","last_reported":1717431024,"current_range_meters":9200,"station_id":"ce4bh692rcd13ifvqea0","pricing_plan_id":"cebpf4jnsgd1na2vs0mg"},{"bike_id":"4c00af6b-3178-41aa-b65b-6e7cbc69c117","system_id":"levelo_inurba_marseille","lat":43.292644,"lon":5.384257,"is_reserved":false,"is_disabled":false,"rental_uris":{"android":"levelo://app?vid=4c00af6b-3178-41aa-b65b-6e7cbc69c117","ios":"levelo://app?vid=4c00af6b-3178-41aa-b65b-6e7cbc69c117"},"vehicle_type_id":"4","last_reported":1717431024,"current_range_meters":2800,"station_id":"ce4bh692rcd13ifvqea0","pricing_plan_id":"cebpf4jnsgd1na2vs0mg"},{"bike_id":"bb474ea8-db86-4095-89f5-ec785384f496","system_id":"levelo_inurba_marseille","lat":43.292644,"lon":5.384257,"is_reserved":false,"is_disabled":false,"rental_uris":{"android":"levelo://app?vid=bb474ea8-db86-4095-89f5-ec785384f496","ios":"levelo://app?vid=bb474ea8-db86-4095-89f5-ec785384f496"},"vehicle_type_id":"4","last_reported":1717431024,"current_range_meters":8400,"station_id":"ce4bh692rcd13ifvqea0","pricing_plan_id":"cebpf4jnsgd1na2vs0mg"},{"bike_id":"321c8508-42b7-4fe9-9c12-e671d53adca5","system_id":"levelo_inurba_marseille","lat":43.292642,"lon":5.384254,"is_reserved":false,"is_disabled":false,"rental_uris":{"android":"levelo://app?vid=321c8508-42b7-4fe9-9c12-e671d53adca5","ios":"levelo://app?vid=321c8508-42b7-4fe9-9c12-e671d53adca5"},"vehicle_type_id":"4","last_reported":1717431024,"current_range_meters":22800,"station_id":"ce4bh692rcd13ifvqea0","pricing_plan_id":"cebpf4jnsgd1na2vs0mg"},{"bike_id":"36e244c4-bd83-47e4-9552-b5f3f0ddaaf9","system_id":"levelo_inurba_marseille","lat":43.292644,"lon":5.384257,"is_reserved":false,"is_disabled":false,"rental_uris":{"android":"levelo://app?vid=36e244c4-bd83-47e4-9552-b5f3f0ddaaf9","ios":"levelo://app?vid=36e244c4-bd83-47e4-9552-b5f3f0ddaaf9"},"vehicle_type_id":"4","last_reported":1717431024,"current_range_meters":8000,"station_id":"ce4bh692rcd13ifvqea0","pricing_plan_id":"cebpf4jnsgd1na2vs0mg"},{"bike_id":"24aa685e-6d15-4344-83a3-8e3892966eed","system_id":"levelo_inurba_marseille","lat":43.292644,"lon":5.384257,"is_reserved":false,"is_disabled":false,"rental_uris":{"android":"levelo://app?vid=24aa685e-6d15-4344-83a3-8e3892966eed","ios":"levelo://app?vid=24aa685e-6d15-4344-83a3-8e3892966eed"},"vehicle_type_id":"4","last_reported":1717431024,"current_range_meters":0,"station_id":"ce4bh692rcd13ifvqea0","pricing_plan_id":"cebpf4jnsgd1na2vs0mg"},{"bike_id":"246c8ae0-15fd-4a67-a12c-9ed923472c9d","system_id":"levelo_inurba_marseille","lat":43.291994,"lon":5.392907,"is_reserved":false,"is_disabled":false,"rental_uris":{"android":"levelo://app?vid=246c8ae0-15fd-4a67-a12c-9ed923472c9d","ios":"levelo://app?vid=246c8ae0-15fd-4a67-a12c-9ed923472c9d"},"vehicle_type_id":"4","last_reported":1717431024,"current_range_meters":0,"station_id":"ce4bh192rcd13ifvqdd0","pricing_plan_id":"cebpf4jnsgd1na2vs0mg"},{"bike_id":"2290e892-c52a-4617-a440-560335649fbe","system_id":"levelo_inurba_marseille","lat":43.292644,"lon":5.384257,"is_reserved":false,"is_disabled":false,"rental_uris":{"android":"levelo://app?vid=2290e892-c52a-4617-a440-560335649fbe","ios":"levelo://app?vid=2290e892-c52a-4617-a440-560335649fbe"},"vehicle_type_id":"4","last_reported":1717431024,"current_range_meters":0,"station_id":"ce4bh692rcd13ifvqea0","pricing_plan_id":"cebpf4jnsgd1na2vs0mg"},{"bike_id":"ce09a4e5-d633-406c-9232-477d7818dd3f","system_id":"levelo_inurba_marseille","lat":43.290103,"lon":5.356114,"is_reserved":false,"is_disabled":false,"rental_uris":{"android":"levelo://app?vid=ce09a4e5-d633-406c-9232-477d7818dd3f","ios":"levelo://app?vid=ce09a4e5-d633-406c-9232-477d7818dd3f"},"vehicle_type_id":"4","last_reported":1717431024,"current_range_meters":26000,"station_id":"ce4bhb92rcd13ifvqen0","pricing_plan_id":"cebpf4jnsgd1na2vs0mg"},{"bike_id":"bd901bb3-381b-4f40-9682-2d2642cc7f19","system_id":"levelo_inurba_marseille","lat":43.290104,"lon":5.356111,"is_reserved":false,"is_disabled":false,"rental_uris":{"android":"levelo://app?vid=bd901bb3-381b-4f40-9682-2d2642cc7f19","ios":"levelo://app?vid=bd901bb3-381b-4f40-9682-2d2642cc7f19"},"vehicle_type_id":"4","last_reported":1717431024,"current_range_meters":13600,"station_id":"ce4bhb92rcd13ifvqen0","pricing_plan_id":"cebpf4jnsgd1na2vs0mg"},{"bike_id":"a63680fb-7dde-4597-a533-82fdf3181925","system_id":"levelo_inurba_marseille","lat":43.29008,"lon":5.356134,"is_reserved":false,"is_disabled":false,"rental_uris":{"android":"levelo://app?vid=a63680fb-7dde-4597-a533-82fdf3181925","ios":"levelo://app?vid=a63680fb-7dde-4597-a533-82fdf3181925"},"vehicle_type_id":"4","last_reported":1717431024,"current_range_meters":0,"station_id":"ce4bhb92rcd13ifvqen0","pricing_plan_id":"cebpf4jnsgd1na2vs0mg"},{"bike_id":"32ac6ef3-09c5-41f0-8d95-adcd24295bde","system_id":"levelo_inurba_marseille","lat":43.290104,"lon":5.356111,"is_reserved":false,"is_disabled":false,"rental_uris":{"android":"levelo://app?vid=32ac6ef3-09c5-41f0-8d95-adcd24295bde","ios":"levelo://app?vid=32ac6ef3-09c5-41f0-8d95-adcd24295bde"},"vehicle_type_id":"4","last_reported":1717431024,"current_range_meters":21600,"station_id":"ce4bhb92rcd13ifvqen0","pricing_plan_id":"cebpf4jnsgd1na2vs0mg"},{"bike_id":"0722aab7-66e5-4189-bc1d-2d8ec98da795","system_id":"levelo_inurba_marseille","lat":43.290104,"lon":5.356111,"is_reserved":false,"is_disabled":false,"rental_uris":{"android":"levelo://app?vid=0722aab7-66e5-4189-bc1d-2d8ec98da795","ios":"levelo://app?vid=0722aab7-66e5-4189-bc1d-2d8ec98da795"},"vehicle_type_id":"4","last_reported":1717431024,"current_range_meters":4000,"station_id":"ce4bhb92rcd13ifvqen0","pricing_plan_id":"cebpf4jnsgd1na2vs0mg"},{"bike_id":"761aac31-f823-48dc-aea9-561bed8832ea","system_id":"levelo_inurba_marseille","lat":43.290103,"lon":5.356114,"is_reserved":false,"is_disabled":false,"rental_uris":{"android":"levelo://app?vid=761aac31-f823-48dc-aea9-561bed8832ea","ios":"levelo://app?vid=761aac31-f823-48dc-aea9-561bed8832ea"},"vehicle_type_id":"4","last_reported":1717431024,"current_range_meters":13200,"station_id":"ce4bhb92rcd13ifvqen0","pricing_plan_id":"cebpf4jnsgd1na2vs0mg"},{"bike_id":"93a0bcd3-0f78-4c75-b1e9-8be58ff41430","system_id":"levelo_inurba_marseille","lat":43.290104,"lon":5.356111,"is_reserved":false,"is_disabled":false,"rental_uris":{"android":"levelo://app?vid=93a0bcd3-0f78-4c75-b1e9-8be58ff41430","ios":"levelo://app?vid=93a0bcd3-0f78-4c75-b1e9-8be58ff41430"},"vehicle_type_id":"4","last_reported":1717431024,"current_range_meters":28000,"station_id":"ce4bhb92rcd13ifvqen0","pricing_plan_id":"cebpf4jnsgd1na2vs0mg"},{"bike_id":"f3fcf078-43a0-42a6-9209-ae5e08eded1f","system_id":"levelo_inurba_marseille","lat":43.290103,"lon":5.356114,"is_reserved":false,"is_disabled":false,"rental_uris":{"android":"levelo://app?vid=f3fcf078-43a0-42a6-9209-ae5e08eded1f","ios":"levelo://app?vid=f3fcf078-43a0-42a6-9209-ae5e08eded1f"},"vehicle_type_id":"4","last_reported":1717431024,"current_range_meters":5200,"station_id":"ce4bhb92rcd13ifvqen0","pricing_plan_id":"cebpf4jnsgd1na2vs0mg"},{"bike_id":"1ec07b50-a069-4075-a32d-3541b82fed42","system_id":"levelo_inurba_marseille","lat":43.28856,"lon":5.358371,"is_reserved":false,"is_disabled":false,"rental_uris":{"android":"levelo://app?vid=1ec07b50-a069-4075-a32d-3541b82fed42","ios":"levelo://app?vid=1ec07b50-a069-4075-a32d-3541b82fed42"},"vehicle_type_id":"4","last_reported":1717431024,"current_range_meters":400,"station_id":"ce4bhb12rcd13ifvqem0","pricing_plan_id":"cebpf4jnsgd1na2vs0mg"},{"bike_id":"f3136ac8-9dea-4c3f-9578-4e6451b95f5d","system_id":"levelo_inurba_marseille","lat":43.290104,"lon":5.356111,"is_reserved":false,"is_disabled":false,"rental_uris":{"android":"levelo://app?vid=f3136ac8-9dea-4c3f-9578-4e6451b95f5d","ios":"levelo://app?vid=f3136ac8-9dea-4c3f-9578-4e6451b95f5d"},"vehicle_type_id":"4","last_reported":1717431024,"current_range_meters":20400,"station_id":"ce4bhb92rcd13ifvqen0","pricing_plan_id":"cebpf4jnsgd1na2vs0mg"},{"bike_id":"f55bab3e-2114-45e6-967d-ef7b6066930d","system_id":"levelo_inurba_marseille","lat":43.289743,"lon":5.378304,"is_reserved":false,"is_disabled":false,"rental_uris":{"android":"levelo://app?vid=f55bab3e-2114-45e6-967d-ef7b6066930d","ios":"levelo://app?vid=f55bab3e-2114-45e6-967d-ef7b6066930d"},"vehicle_type_id":"4","last_reported":1717431024,"current_range_meters":0,"station_id":"ce4bh9p2rcd13ifvqed0","pricing_plan_id":"cebpf4jnsgd1na2vs0mg"},{"bike_id":"3674e3ba-c052-425f-8a40-0c07570aa79a","system_id":"levelo_inurba_marseille","lat":43.298018,"lon":5.393486,"is_reserved":false,"is_disabled":false,"rental_uris":{"android":"levelo://app?vid=3674e3ba-c052-425f-8a40-0c07570aa79a","ios":"levelo://app?vid=3674e3ba-c052-425f-8a40-0c07570aa79a"},"vehicle_type_id":"4","last_reported":1717431024,"current_range_meters":30400,"station_id":"chh1huq6cuj3fo74tm60","pricing_plan_id":"cebpf4jnsgd1na2vs0mg"},{"bike_id":"aa46cce9-f5d1-4626-93f9-b03368994470","system_id":"levelo_inurba_marseille","lat":43.29015,"lon":5.35458,"is_reserved":false,"is_disabled":false,"rental_uris":{"android":"levelo://app?vid=aa46cce9-f5d1-4626-93f9-b03368994470","ios":"levelo://app?vid=aa46cce9-f5d1-4626-93f9-b03368994470"},"vehicle_type_id":"4","last_reported":1717431024,"current_range_meters":22400,"station_id":"","pricing_plan_id":"cebpf4jnsgd1na2vs0mg"},{"bike_id":"011e37c4-beed-41cf-8932-3f1f7de1099b","system_id":"levelo_inurba_marseille","lat":43.295169,"lon":5.390426,"is_reserved":false,"is_disabled":false,"rental_uris":{"android":"levelo://app?vid=011e37c4-beed-41cf-8932-3f1f7de1099b","ios":"levelo://app?vid=011e37c4-beed-41cf-8932-3f1f7de1099b"},"vehicle_type_id":"4","last_reported":1717431024,"current_range_meters":0,"station_id":"ce4bh3p2rcd13ifvqdp0","pricing_plan_id":"cebpf4jnsgd1na2vs0mg"},{"bike_id":"ebc58b1c-46b4-47ec-ba66-153b6740c236","system_id":"levelo_inurba_marseille","lat":43.2979,"lon":5.39348,"is_reserved":false,"is_disabled":false,"rental_uris":{"android":"levelo://app?vid=ebc58b1c-46b4-47ec-ba66-153b6740c236","ios":"levelo://app?vid=ebc58b1c-46b4-47ec-ba66-153b6740c236"},"vehicle_type_id":"4","last_reported":1717431024,"current_range_meters":9600,"station_id":"chh1huq6cuj3fo74tm60","pricing_plan_id":"cebpf4jnsgd1na2vs0mg"},{"bike_id":"97d7087e-be6c-48e2-8550-629e76a3a632","system_id":"levelo_inurba_marseille","lat":43.297875,"lon":5.393459,"is_reserved":false,"is_disabled":false,"rental_uris":{"android":"levelo://app?vid=97d7087e-be6c-48e2-8550-629e76a3a632","ios":"levelo://app?vid=97d7087e-be6c-48e2-8550-629e76a3a632"},"vehicle_type_id":"4","last_reported":1717431024,"current_range_meters":2800,"station_id":"ce4bh392rcd13ifvqdl0","pricing_plan_id":"cebpf4jnsgd1na2vs0mg"},{"bike_id":"4e42b4b9-7b3a-4f3b-a52a-0a5c4f2f32db","system_id":"levelo_inurba_marseille","lat":43.29785,"lon":5.39345,"is_reserved":false,"is_disabled":false,"rental_uris":{"android":"levelo://app?vid=4e42b4b9-7b3a-4f3b-a52a-0a5c4f2f32db","ios":"levelo://app?vid=4e42b4b9-7b3a-4f3b-a52a-0a5c4f2f32db"},"vehicle_type_id":"4","last_reported":1717431024,"current_range_meters":5200,"station_id":"chh1huq6cuj3fo74tm60","pricing_plan_id":"cebpf4jnsgd1na2vs0mg"},{"bike_id":"9d9d61f9-3661-438a-8552-641742d5f3be","system_id":"levelo_inurba_marseille","lat":43.29779,"lon":5.39339,"is_reserved":false,"is_disabled":false,"rental_uris":{"android":"levelo://app?vid=9d9d61f9-3661-438a-8552-641742d5f3be","ios":"levelo://app?vid=9d9d61f9-3661-438a-8552-641742d5f3be"},"vehicle_type_id":"4","last_reported":1717431024,"current_range_meters":15600,"station_id":"chh1huq6cuj3fo74tm60","pricing_plan_id":"cebpf4jnsgd1na2vs0mg"},{"bike_id":"edd74e95-87e2-41f2-832a-68517e6fbae7","system_id":"levelo_inurba_marseille","lat":43.29777,"lon":5.39342,"is_reserved":false,"is_disabled":false,"rental_uris":{"android":"levelo://app?vid=edd74e95-87e2-41f2-832a-68517e6fbae7","ios":"levelo://app?vid=edd74e95-87e2-41f2-832a-68517e6fbae7"},"vehicle_type_id":"4","last_reported":1717431024,"current_range_meters":15600,"station_id":"chh1huq6cuj3fo74tm60","pricing_plan_id":"cebpf4jnsgd1na2vs0mg"},{"bike_id":"17ac950b-925c-438c-ac63-06c300904a4b","system_id":"levelo_inurba_marseille","lat":43.297815,"lon":5.393548,"is_reserved":false,"is_disabled":false,"rental_uris":{"android":"levelo://app?vid=17ac950b-925c-438c-ac63-06c300904a4b","ios":"levelo://app?vid=17ac950b-925c-438c-ac63-06c300904a4b"},"vehicle_type_id":"4","last_reported":1717431024,"current_range_meters":16400,"station_id":"chh1huq6cuj3fo74tm60","pricing_plan_id":"cebpf4jnsgd1na2vs0mg"},{"bike_id":"fd24389d-3700-4fa1-9034-62dec3752167","system_id":"levelo_inurba_marseille","lat":43.33022,"lon":5.39037,"is_reserved":false,"is_disabled":false,"rental_uris":{"android":"levelo://app?vid=fd24389d-3700-4fa1-9034-62dec3752167","ios":"levelo://app?vid=fd24389d-3700-4fa1-9034-62dec3752167"},"vehicle_type_id":"4","last_reported":1717431024,"current_range_meters":1600,"station_id":"ce4bhr92rcd13ifvqhrg","pricing_plan_id":"cebpf4jnsgd1na2vs0mg"},{"bike_id":"12ba67b2-f1ae-438e-8dae-096462f98cf9","system_id":"levelo_inurba_marseille","lat":43.297815,"lon":5.393548,"is_reserved":false,"is_disabled":false,"rental_uris":{"android":"levelo://app?vid=12ba67b2-f1ae-438e-8dae-096462f98cf9","ios":"levelo://app?vid=12ba67b2-f1ae-438e-8dae-096462f98cf9"},"vehicle_type_id":"4","last_reported":1717431024,"current_range_meters":10800,"station_id":"chh1huq6cuj3fo74tm60","pricing_plan_id":"cebpf4jnsgd1na2vs0mg"},{"bike_id":"59b470c1-48bf-4414-9d3c-ddf37f65343f","system_id":"levelo_inurba_marseille","lat":43.330442,"lon":5.389148,"is_reserved":false,"is_disabled":false,"rental_uris":{"android":"levelo://app?vid=59b470c1-48bf-4414-9d3c-ddf37f65343f","ios":"levelo://app?vid=59b470c1-48bf-4414-9d3c-ddf37f65343f"},"vehicle_type_id":"4","last_reported":1717431024,"current_range_meters":6800,"station_id":"ce4bhr92rcd13ifvqhrg","pricing_plan_id":"cebpf4jnsgd1na2vs0mg"},{"bike_id":"21d33385-8f07-4aa5-833d-960b9ac88217","system_id":"levelo_inurba_marseille","lat":43.330442,"lon":5.389148,"is_reserved":false,"is_disabled":false,"rental_uris":{"android":"levelo://app?vid=21d33385-8f07-4aa5-833d-960b9ac88217","ios":"levelo://app?vid=21d33385-8f07-4aa5-833d-960b9ac88217"},"vehicle_type_id":"4","last_reported":1717431024,"current_range_meters":21200,"station_id":"ce4bhr92rcd13ifvqhrg","pricing_plan_id":"cebpf4jnsgd1na2vs0mg"},{"bike_id":"44b606ec-7bca-4091-9838-d1c612e67a4e","system_id":"levelo_inurba_marseille","lat":43.33025,"lon":5.39043,"is_reserved":false,"is_disabled":false,"rental_uris":{"android":"levelo://app?vid=44b606ec-7bca-4091-9838-d1c612e67a4e","ios":"levelo://app?vid=44b606ec-7bca-4091-9838-d1c612e67a4e"},"vehicle_type_id":"4","last_reported":1717431024,"current_range_meters":0,"station_id":"ce4bhr92rcd13ifvqhrg","pricing_plan_id":"cebpf4jnsgd1na2vs0mg"},{"bike_id":"619f7cf4-8d49-426b-8111-614fc7d754a7","system_id":"levelo_inurba_marseille","lat":43.330442,"lon":5.389148,"is_reserved":false,"is_disabled":false,"rental_uris":{"android":"levelo://app?vid=619f7cf4-8d49-426b-8111-614fc7d754a7","ios":"levelo://app?vid=619f7cf4-8d49-426b-8111-614fc7d754a7"},"vehicle_type_id":"4","last_reported":1717431024,"current_range_meters":5200,"station_id":"ce4bhr92rcd13ifvqhrg","pricing_plan_id":"cebpf4jnsgd1na2vs0mg"},{"bike_id":"fcc47dbd-07d0-4d76-af15-ba8d94878e08","system_id":"levelo_inurba_marseille","lat":43.291122,"lon":5.382758,"is_reserved":false,"is_disabled":false,"rental_uris":{"android":"levelo://app?vid=fcc47dbd-07d0-4d76-af15-ba8d94878e08","ios":"levelo://app?vid=fcc47dbd-07d0-4d76-af15-ba8d94878e08"},"vehicle_type_id":"4","last_reported":1717431024,"current_range_meters":0,"station_id":"","pricing_plan_id":"cebpf4jnsgd1na2vs0mg"},{"bike_id":"8f2a5394-a697-4b3e-8825-15b2b1965ff2","system_id":"levelo_inurba_marseille","lat":43.295169,"lon":5.390426,"is_reserved":false,"is_disabled":false,"rental_uris":{"android":"levelo://app?vid=8f2a5394-a697-4b3e-8825-15b2b1965ff2","ios":"levelo://app?vid=8f2a5394-a697-4b3e-8825-15b2b1965ff2"},"vehicle_type_id":"4","last_reported":1717431024,"current_range_meters":27600,"station_id":"ce4bh3p2rcd13ifvqdp0","pricing_plan_id":"cebpf4jnsgd1na2vs0mg"},{"bike_id":"bd32ba2b-310d-4499-b3b5-d8333b92ba79","system_id":"levelo_inurba_marseille","lat":43.295169,"lon":5.390426,"is_reserved":false,"is_disabled":false,"rental_uris":{"android":"levelo://app?vid=bd32ba2b-310d-4499-b3b5-d8333b92ba79","ios":"levelo://app?vid=bd32ba2b-310d-4499-b3b5-d8333b92ba79"},"vehicle_type_id":"4","last_reported":1717431024,"current_range_meters":7200,"station_id":"ce4bh3p2rcd13ifvqdp0","pricing_plan_id":"cebpf4jnsgd1na2vs0mg"},{"bike_id":"27dc4373-bf89-4eac-b53d-79c4f5e7dcb9","system_id":"levelo_inurba_marseille","lat":43.295169,"lon":5.390426,"is_reserved":false,"is_disabled":false,"rental_uris":{"android":"levelo://app?vid=27dc4373-bf89-4eac-b53d-79c4f5e7dcb9","ios":"levelo://app?vid=27dc4373-bf89-4eac-b53d-79c4f5e7dcb9"},"vehicle_type_id":"4","last_reported":1717431024,"current_range_meters":30800,"station_id":"ce4bh3p2rcd13ifvqdp0","pricing_plan_id":"cebpf4jnsgd1na2vs0mg"},{"bike_id":"fb5ed6b3-f762-41dd-9e3f-1db383d6a1f0","system_id":"levelo_inurba_marseille","lat":43.2901,"lon":5.381269,"is_reserved":false,"is_disabled":false,"rental_uris":{"android":"levelo://app?vid=fb5ed6b3-f762-41dd-9e3f-1db383d6a1f0","ios":"levelo://app?vid=fb5ed6b3-f762-41dd-9e3f-1db383d6a1f0"},"vehicle_type_id":"4","last_reported":1717431024,"current_range_meters":3600,"station_id":"ce4bh4p2rcd13ifvqe1g","pricing_plan_id":"cebpf4jnsgd1na2vs0mg"},{"bike_id":"477eb386-13c7-4f90-9562-e2183606b0ab","system_id":"levelo_inurba_marseille","lat":43.28856,"lon":5.358371,"is_reserved":false,"is_disabled":false,"rental_uris":{"android":"levelo://app?vid=477eb386-13c7-4f90-9562-e2183606b0ab","ios":"levelo://app?vid=477eb386-13c7-4f90-9562-e2183606b0ab"},"vehicle_type_id":"4","last_reported":1717431024,"current_range_meters":0,"station_id":"ce4bhb12rcd13ifvqem0","pricing_plan_id":"cebpf4jnsgd1na2vs0mg"},{"bike_id":"9dea86db-89fd-4a99-8c85-74fed3295b0a","system_id":"levelo_inurba_marseille","lat":43.28856,"lon":5.358371,"is_reserved":false,"is_disabled":false,"rental_uris":{"android":"levelo://app?vid=9dea86db-89fd-4a99-8c85-74fed3295b0a","ios":"levelo://app?vid=9dea86db-89fd-4a99-8c85-74fed3295b0a"},"vehicle_type_id":"4","last_reported":1717431024,"current_range_meters":0,"station_id":"ce4bhb12rcd13ifvqem0","pricing_plan_id":"cebpf4jnsgd1na2vs0mg"},{"bike_id":"4533b4bf-e1dd-468c-b65e-24c9318251bc","system_id":"levelo_inurba_marseille","lat":43.28856,"lon":5.358371,"is_reserved":false,"is_disabled":false,"rental_uris":{"android":"levelo://app?vid=4533b4bf-e1dd-468c-b65e-24c9318251bc","ios":"levelo://app?vid=4533b4bf-e1dd-468c-b65e-24c9318251bc"},"vehicle_type_id":"4","last_reported":1717431024,"current_range_meters":0,"station_id":"ce4bhb12rcd13ifvqem0","pricing_plan_id":"cebpf4jnsgd1na2vs0mg"},{"bike_id":"2c35dd44-7158-4d1e-9417-444949d2f18f","system_id":"levelo_inurba_marseille","lat":43.28856,"lon":5.358371,"is_reserved":false,"is_disabled":false,"rental_uris":{"android":"levelo://app?vid=2c35dd44-7158-4d1e-9417-444949d2f18f","ios":"levelo://app?vid=2c35dd44-7158-4d1e-9417-444949d2f18f"},"vehicle_type_id":"4","last_reported":1717431024,"current_range_meters":0,"station_id":"ce4bhb12rcd13ifvqem0","pricing_plan_id":"cebpf4jnsgd1na2vs0mg"},{"bike_id":"3f8420a3-2929-4944-b72a-9b8eb52c90e5","system_id":"levelo_inurba_marseille","lat":43.31274,"lon":5.40165,"is_reserved":false,"is_disabled":false,"rental_uris":{"android":"levelo://app?vid=3f8420a3-2929-4944-b72a-9b8eb52c90e5","ios":"levelo://app?vid=3f8420a3-2929-4944-b72a-9b8eb52c90e5"},"vehicle_type_id":"4","last_reported":1717431024,"current_range_meters":0,"station_id":"ce4bh092rcd13ifvqd30","pricing_plan_id":"cebpf4jnsgd1na2vs0mg"},{"bike_id":"4d8c21f0-d181-4259-a811-7ed0721e019e","system_id":"levelo_inurba_marseille","lat":43.312609,"lon":5.401662,"is_reserved":false,"is_disabled":false,"rental_uris":{"android":"levelo://app?vid=4d8c21f0-d181-4259-a811-7ed0721e019e","ios":"levelo://app?vid=4d8c21f0-d181-4259-a811-7ed0721e019e"},"vehicle_type_id":"4","last_reported":1717431024,"current_range_meters":7600,"station_id":"ce4bh092rcd13ifvqd30","pricing_plan_id":"cebpf4jnsgd1na2vs0mg"},{"bike_id":"19fca148-6904-478d-813b-f841886ac4ab","system_id":"levelo_inurba_marseille","lat":43.309371,"lon":5.401449,"is_reserved":false,"is_disabled":false,"rental_uris":{"android":"levelo://app?vid=19fca148-6904-478d-813b-f841886ac4ab","ios":"levelo://app?vid=19fca148-6904-478d-813b-f841886ac4ab"},"vehicle_type_id":"4","last_reported":1717431024,"current_range_meters":2800,"station_id":"ce4bgvp2rcd13ifvqct0","pricing_plan_id":"cebpf4jnsgd1na2vs0mg"},{"bike_id":"b5678cff-b22a-485e-8c4b-cd07bd898da7","system_id":"levelo_inurba_marseille","lat":43.29643,"lon":5.39361,"is_reserved":false,"is_disabled":false,"rental_uris":{"android":"levelo://app?vid=b5678cff-b22a-485e-8c4b-cd07bd898da7","ios":"levelo://app?vid=b5678cff-b22a-485e-8c4b-cd07bd898da7"},"vehicle_type_id":"4","last_reported":1717431024,"current_range_meters":31200,"station_id":"chh1huq6cuj3fo74tm60","pricing_plan_id":"cebpf4jnsgd1na2vs0mg"},{"bike_id":"3c123423-5dfc-49ea-9849-e9dfaf230b2a","system_id":"levelo_inurba_marseille","lat":43.309371,"lon":5.401449,"is_reserved":false,"is_disabled":false,"rental_uris":{"android":"levelo://app?vid=3c123423-5dfc-49ea-9849-e9dfaf230b2a","ios":"levelo://app?vid=3c123423-5dfc-49ea-9849-e9dfaf230b2a"},"vehicle_type_id":"4","last_reported":1717431024,"current_range_meters":7200,"station_id":"ce4bgvp2rcd13ifvqct0","pricing_plan_id":"cebpf4jnsgd1na2vs0mg"},{"bike_id":"26e88c15-1ebf-4978-814d-f8bc280f73dc","system_id":"levelo_inurba_marseille","lat":43.337446,"lon":5.37483,"is_reserved":false,"is_disabled":false,"rental_uris":{"android":"levelo://app?vid=26e88c15-1ebf-4978-814d-f8bc280f73dc","ios":"levelo://app?vid=26e88c15-1ebf-4978-814d-f8bc280f73dc"},"vehicle_type_id":"4","last_reported":1717431024,"current_range_meters":26400,"station_id":"","pricing_plan_id":"cebpf4jnsgd1na2vs0mg"},{"bike_id":"65c725c0-9f58-44dc-9bf0-5ffe76363413","system_id":"levelo_inurba_marseille","lat":43.309371,"lon":5.401449,"is_reserved":false,"is_disabled":false,"rental_uris":{"android":"levelo://app?vid=65c725c0-9f58-44dc-9bf0-5ffe76363413","ios":"levelo://app?vid=65c725c0-9f58-44dc-9bf0-5ffe76363413"},"vehicle_type_id":"4","last_reported":1717431024,"current_range_meters":4000,"station_id":"ce4bgvp2rcd13ifvqct0","pricing_plan_id":"cebpf4jnsgd1na2vs0mg"},{"bike_id":"e34f9206-d8cf-4030-97cd-eee5575cc2a8","system_id":"levelo_inurba_marseille","lat":43.306412,"lon":5.401035,"is_reserved":false,"is_disabled":false,"rental_uris":{"android":"levelo://app?vid=e34f9206-d8cf-4030-97cd-eee5575cc2a8","ios":"levelo://app?vid=e34f9206-d8cf-4030-97cd-eee5575cc2a8"},"vehicle_type_id":"4","last_reported":1717431024,"current_range_meters":8800,"station_id":"ce4bh112rcd13ifvqda0","pricing_plan_id":"cebpf4jnsgd1na2vs0mg"},{"bike_id":"9e8bfcd9-a57d-4eba-9f42-55a38b86b993","system_id":"levelo_inurba_marseille","lat":43.301117,"lon":5.398795,"is_reserved":false,"is_disabled":false,"rental_uris":{"android":"levelo://app?vid=9e8bfcd9-a57d-4eba-9f42-55a38b86b993","ios":"levelo://app?vid=9e8bfcd9-a57d-4eba-9f42-55a38b86b993"},"vehicle_type_id":"4","last_reported":1717431024,"current_range_meters":25200,"station_id":"ce4bh0h2rcd13ifvqd40","pricing_plan_id":"cebpf4jnsgd1na2vs0mg"},{"bike_id":"a001816f-6ba5-4d2c-b61f-d3ae3fe5e709","system_id":"levelo_inurba_marseille","lat":43.301117,"lon":5.398795,"is_reserved":false,"is_disabled":false,"rental_uris":{"android":"levelo://app?vid=a001816f-6ba5-4d2c-b61f-d3ae3fe5e709","ios":"levelo://app?vid=a001816f-6ba5-4d2c-b61f-d3ae3fe5e709"},"vehicle_type_id":"4","last_reported":1717431024,"current_range_meters":0,"station_id":"ce4bh0h2rcd13ifvqd40","pricing_plan_id":"cebpf4jnsgd1na2vs0mg"},{"bike_id":"771b0b2d-d8cf-4a1a-af10-196f8913eeb9","system_id":"levelo_inurba_marseille","lat":43.286961,"lon":5.373785,"is_reserved":false,"is_disabled":false,"rental_uris":{"android":"levelo://app?vid=771b0b2d-d8cf-4a1a-af10-196f8913eeb9","ios":"levelo://app?vid=771b0b2d-d8cf-4a1a-af10-196f8913eeb9"},"vehicle_type_id":"4","last_reported":1717431024,"current_range_meters":8800,"station_id":"ce4bh3p2rcd13ifvqdq0","pricing_plan_id":"cebpf4jnsgd1na2vs0mg"},{"bike_id":"4c7ce8fb-3990-4754-be98-23ed5e914a03","system_id":"levelo_inurba_marseille","lat":43.286591,"lon":5.363346,"is_reserved":false,"is_disabled":false,"rental_uris":{"android":"levelo://app?vid=4c7ce8fb-3990-4754-be98-23ed5e914a03","ios":"levelo://app?vid=4c7ce8fb-3990-4754-be98-23ed5e914a03"},"vehicle_type_id":"4","last_reported":1717431024,"current_range_meters":26400,"station_id":"ce4bhah2rcd13ifvqej0","pricing_plan_id":"cebpf4jnsgd1na2vs0mg"},{"bike_id":"4634ca48-49de-4f9c-8786-d8abbc458ab6","system_id":"levelo_inurba_marseille","lat":43.298681,"lon":5.397225,"is_reserved":false,"is_disabled":false,"rental_uris":{"android":"levelo://app?vid=4634ca48-49de-4f9c-8786-d8abbc458ab6","ios":"levelo://app?vid=4634ca48-49de-4f9c-8786-d8abbc458ab6"},"vehicle_type_id":"4","last_reported":1717431024,"current_range_meters":20800,"station_id":"ce4bh0h2rcd13ifvqd50","pricing_plan_id":"cebpf4jnsgd1na2vs0mg"},{"bike_id":"d0643e01-6d15-4ddb-8cf9-6a982805c30c","system_id":"levelo_inurba_marseille","lat":43.28662,"lon":5.36358,"is_reserved":false,"is_disabled":false,"rental_uris":{"android":"levelo://app?vid=d0643e01-6d15-4ddb-8cf9-6a982805c30c","ios":"levelo://app?vid=d0643e01-6d15-4ddb-8cf9-6a982805c30c"},"vehicle_type_id":"4","last_reported":1717431024,"current_range_meters":0,"station_id":"ce4bhah2rcd13ifvqej0","pricing_plan_id":"cebpf4jnsgd1na2vs0mg"},{"bike_id":"457786b3-e4b2-496e-8479-71b25a41cb73","system_id":"levelo_inurba_marseille","lat":43.298681,"lon":5.397225,"is_reserved":false,"is_disabled":false,"rental_uris":{"android":"levelo://app?vid=457786b3-e4b2-496e-8479-71b25a41cb73","ios":"levelo://app?vid=457786b3-e4b2-496e-8479-71b25a41cb73"},"vehicle_type_id":"4","last_reported":1717431024,"current_range_meters":9200,"station_id":"ce4bh0h2rcd13ifvqd50","pricing_plan_id":"cebpf4jnsgd1na2vs0mg"},{"bike_id":"d165dbb9-e77f-4ad2-86f2-cf127ff4a8f8","system_id":"levelo_inurba_marseille","lat":43.298681,"lon":5.397225,"is_reserved":false,"is_disabled":false,"rental_uris":{"android":"levelo://app?vid=d165dbb9-e77f-4ad2-86f2-cf127ff4a8f8","ios":"levelo://app?vid=d165dbb9-e77f-4ad2-86f2-cf127ff4a8f8"},"vehicle_type_id":"4","last_reported":1717431024,"current_range_meters":22400,"station_id":"ce4bh0h2rcd13ifvqd50","pricing_plan_id":"cebpf4jnsgd1na2vs0mg"},{"bike_id":"a3d31ad3-d81e-4c4e-9d72-6a5586ed4653","system_id":"levelo_inurba_marseille","lat":43.29867,"lon":5.39744,"is_reserved":false,"is_disabled":false,"rental_uris":{"android":"levelo://app?vid=a3d31ad3-d81e-4c4e-9d72-6a5586ed4653","ios":"levelo://app?vid=a3d31ad3-d81e-4c4e-9d72-6a5586ed4653"},"vehicle_type_id":"4","last_reported":1717431024,"current_range_meters":0,"station_id":"ce4bh0h2rcd13ifvqd50","pricing_plan_id":"cebpf4jnsgd1na2vs0mg"},{"bike_id":"4deedb0e-db59-41d7-b024-88b9f8da2ed8","system_id":"levelo_inurba_marseille","lat":43.302759,"lon":5.400793,"is_reserved":false,"is_disabled":false,"rental_uris":{"android":"levelo://app?vid=4deedb0e-db59-41d7-b024-88b9f8da2ed8","ios":"levelo://app?vid=4deedb0e-db59-41d7-b024-88b9f8da2ed8"},"vehicle_type_id":"4","last_reported":1717431024,"current_range_meters":5200,"station_id":"ce4bgvh2rcd13ifvqcs0","pricing_plan_id":"cebpf4jnsgd1na2vs0mg"},{"bike_id":"aebd8105-d75a-40ff-8f23-d15476007fb0","system_id":"levelo_inurba_marseille","lat":43.302759,"lon":5.400793,"is_reserved":false,"is_disabled":false,"rental_uris":{"android":"levelo://app?vid=aebd8105-d75a-40ff-8f23-d15476007fb0","ios":"levelo://app?vid=aebd8105-d75a-40ff-8f23-d15476007fb0"},"vehicle_type_id":"4","last_reported":1717431024,"current_range_meters":0,"station_id":"ce4bgvh2rcd13ifvqcs0","pricing_plan_id":"cebpf4jnsgd1na2vs0mg"},{"bike_id":"8f4e1e86-f7b9-4091-92fe-ba6529643cd5","system_id":"levelo_inurba_marseille","lat":43.286039,"lon":5.370681,"is_reserved":false,"is_disabled":false,"rental_uris":{"android":"levelo://app?vid=8f4e1e86-f7b9-4091-92fe-ba6529643cd5","ios":"levelo://app?vid=8f4e1e86-f7b9-4091-92fe-ba6529643cd5"},"vehicle_type_id":"4","last_reported":1717431024,"current_range_meters":3200,"station_id":"ce4bht12rcd13ifvqi60","pricing_plan_id":"cebpf4jnsgd1na2vs0mg"},{"bike_id":"bca76cd9-f4d4-4a4c-bf47-8af56ec8f00f","system_id":"levelo_inurba_marseille","lat":43.286039,"lon":5.370681,"is_reserved":false,"is_disabled":false,"rental_uris":{"android":"levelo://app?vid=bca76cd9-f4d4-4a4c-bf47-8af56ec8f00f","ios":"levelo://app?vid=bca76cd9-f4d4-4a4c-bf47-8af56ec8f00f"},"vehicle_type_id":"4","last_reported":1717431024,"current_range_meters":0,"station_id":"ce4bht12rcd13ifvqi60","pricing_plan_id":"cebpf4jnsgd1na2vs0mg"},{"bike_id":"3bc5357f-b1f3-46bb-b4b8-319bd0e16b3e","system_id":"levelo_inurba_marseille","lat":43.286039,"lon":5.370681,"is_reserved":false,"is_disabled":false,"rental_uris":{"android":"levelo://app?vid=3bc5357f-b1f3-46bb-b4b8-319bd0e16b3e","ios":"levelo://app?vid=3bc5357f-b1f3-46bb-b4b8-319bd0e16b3e"},"vehicle_type_id":"4","last_reported":1717431024,"current_range_meters":20000,"station_id":"ce4bht12rcd13ifvqi60","pricing_plan_id":"cebpf4jnsgd1na2vs0mg"},{"bike_id":"26c35bf2-f55b-46c7-8415-fa046488770e","system_id":"levelo_inurba_marseille","lat":43.286039,"lon":5.370679,"is_reserved":false,"is_disabled":false,"rental_uris":{"android":"levelo://app?vid=26c35bf2-f55b-46c7-8415-fa046488770e","ios":"levelo://app?vid=26c35bf2-f55b-46c7-8415-fa046488770e"},"vehicle_type_id":"4","last_reported":1717431024,"current_range_meters":18000,"station_id":"ce4bht12rcd13ifvqi60","pricing_plan_id":"cebpf4jnsgd1na2vs0mg"},{"bike_id":"41420553-97d9-47c3-b634-a7646ca298b4","system_id":"levelo_inurba_marseille","lat":43.286039,"lon":5.370679,"is_reserved":false,"is_disabled":false,"rental_uris":{"android":"levelo://app?vid=41420553-97d9-47c3-b634-a7646ca298b4","ios":"levelo://app?vid=41420553-97d9-47c3-b634-a7646ca298b4"},"vehicle_type_id":"4","last_reported":1717431024,"current_range_meters":5200,"station_id":"ce4bht12rcd13ifvqi60","pricing_plan_id":"cebpf4jnsgd1na2vs0mg"},{"bike_id":"14bde10e-7f40-497b-8ee6-d57e45c9c73d","system_id":"levelo_inurba_marseille","lat":43.286039,"lon":5.370679,"is_reserved":false,"is_disabled":false,"rental_uris":{"android":"levelo://app?vid=14bde10e-7f40-497b-8ee6-d57e45c9c73d","ios":"levelo://app?vid=14bde10e-7f40-497b-8ee6-d57e45c9c73d"},"vehicle_type_id":"4","last_reported":1717431024,"current_range_meters":1200,"station_id":"ce4bht12rcd13ifvqi60","pricing_plan_id":"cebpf4jnsgd1na2vs0mg"},{"bike_id":"26c1eacb-e9df-436f-a426-fce3cfd379b9","system_id":"levelo_inurba_marseille","lat":43.286039,"lon":5.370679,"is_reserved":false,"is_disabled":false,"rental_uris":{"android":"levelo://app?vid=26c1eacb-e9df-436f-a426-fce3cfd379b9","ios":"levelo://app?vid=26c1eacb-e9df-436f-a426-fce3cfd379b9"},"vehicle_type_id":"4","last_reported":1717431024,"current_range_meters":5600,"station_id":"ce4bht12rcd13ifvqi60","pricing_plan_id":"cebpf4jnsgd1na2vs0mg"},{"bike_id":"78685770-5957-48be-b663-d028ac1e0d8b","system_id":"levelo_inurba_marseille","lat":43.28623,"lon":5.35935,"is_reserved":false,"is_disabled":false,"rental_uris":{"android":"levelo://app?vid=78685770-5957-48be-b663-d028ac1e0d8b","ios":"levelo://app?vid=78685770-5957-48be-b663-d028ac1e0d8b"},"vehicle_type_id":"4","last_reported":1717431024,"current_range_meters":24000,"station_id":"","pricing_plan_id":"cebpf4jnsgd1na2vs0mg"},{"bike_id":"879762d0-9a93-4665-a1b9-00a6cd9baa41","system_id":"levelo_inurba_marseille","lat":43.287184,"lon":5.37937,"is_reserved":false,"is_disabled":false,"rental_uris":{"android":"levelo://app?vid=879762d0-9a93-4665-a1b9-00a6cd9baa41","ios":"levelo://app?vid=879762d0-9a93-4665-a1b9-00a6cd9baa41"},"vehicle_type_id":"4","last_reported":1717431024,"current_range_meters":0,"station_id":"ce4bh9p2rcd13ifvqec0","pricing_plan_id":"cebpf4jnsgd1na2vs0mg"},{"bike_id":"fb2653c3-ed30-4f1c-88cc-0bfdd4913104","system_id":"levelo_inurba_marseille","lat":43.287185,"lon":5.379373,"is_reserved":false,"is_disabled":false,"rental_uris":{"android":"levelo://app?vid=fb2653c3-ed30-4f1c-88cc-0bfdd4913104","ios":"levelo://app?vid=fb2653c3-ed30-4f1c-88cc-0bfdd4913104"},"vehicle_type_id":"4","last_reported":1717431024,"current_range_meters":0,"station_id":"ce4bh9p2rcd13ifvqec0","pricing_plan_id":"cebpf4jnsgd1na2vs0mg"},{"bike_id":"be1bb0eb-446e-45df-a54d-cda9fea96693","system_id":"levelo_inurba_marseille","lat":43.28729,"lon":5.35218,"is_reserved":false,"is_disabled":false,"rental_uris":{"android":"levelo://app?vid=be1bb0eb-446e-45df-a54d-cda9fea96693","ios":"levelo://app?vid=be1bb0eb-446e-45df-a54d-cda9fea96693"},"vehicle_type_id":"4","last_reported":1717431024,"current_range_meters":24800,"station_id":"","pricing_plan_id":"cebpf4jnsgd1na2vs0mg"},{"bike_id":"19d0316b-210a-42e3-a7f8-347fa0aeecad","system_id":"levelo_inurba_marseille","lat":43.29557,"lon":5.397493,"is_reserved":false,"is_disabled":false,"rental_uris":{"android":"levelo://app?vid=19d0316b-210a-42e3-a7f8-347fa0aeecad","ios":"levelo://app?vid=19d0316b-210a-42e3-a7f8-347fa0aeecad"},"vehicle_type_id":"4","last_reported":1717431024,"current_range_meters":0,"station_id":"","pricing_plan_id":"cebpf4jnsgd1na2vs0mg"},{"bike_id":"8b5ba966-bea4-4b7f-a28a-c55b2b001bbf","system_id":"levelo_inurba_marseille","lat":43.291994,"lon":5.392907,"is_reserved":false,"is_disabled":false,"rental_uris":{"android":"levelo://app?vid=8b5ba966-bea4-4b7f-a28a-c55b2b001bbf","ios":"levelo://app?vid=8b5ba966-bea4-4b7f-a28a-c55b2b001bbf"},"vehicle_type_id":"4","last_reported":1717431024,"current_range_meters":800,"station_id":"ce4bh192rcd13ifvqdd0","pricing_plan_id":"cebpf4jnsgd1na2vs0mg"},{"bike_id":"e9182b30-4f4d-4c47-bc25-3e6d8c0397fa","system_id":"levelo_inurba_marseille","lat":43.291994,"lon":5.392907,"is_reserved":false,"is_disabled":false,"rental_uris":{"android":"levelo://app?vid=e9182b30-4f4d-4c47-bc25-3e6d8c0397fa","ios":"levelo://app?vid=e9182b30-4f4d-4c47-bc25-3e6d8c0397fa"},"vehicle_type_id":"4","last_reported":1717431024,"current_range_meters":7200,"station_id":"ce4bh192rcd13ifvqdd0","pricing_plan_id":"cebpf4jnsgd1na2vs0mg"},{"bike_id":"007b4d0f-8be4-4a6b-aed5-7c248d90d641","system_id":"levelo_inurba_marseille","lat":43.291994,"lon":5.392907,"is_reserved":false,"is_disabled":false,"rental_uris":{"android":"levelo://app?vid=007b4d0f-8be4-4a6b-aed5-7c248d90d641","ios":"levelo://app?vid=007b4d0f-8be4-4a6b-aed5-7c248d90d641"},"vehicle_type_id":"4","last_reported":1717431024,"current_range_meters":0,"station_id":"ce4bh192rcd13ifvqdd0","pricing_plan_id":"cebpf4jnsgd1na2vs0mg"},{"bike_id":"3f2405ca-cfa7-4020-85ae-9c74094b0e51","system_id":"levelo_inurba_marseille","lat":43.283998,"lon":5.375062,"is_reserved":false,"is_disabled":false,"rental_uris":{"android":"levelo://app?vid=3f2405ca-cfa7-4020-85ae-9c74094b0e51","ios":"levelo://app?vid=3f2405ca-cfa7-4020-85ae-9c74094b0e51"},"vehicle_type_id":"4","last_reported":1717431024,"current_range_meters":14400,"station_id":"ce4bh412rcd13ifvqds0","pricing_plan_id":"cebpf4jnsgd1na2vs0mg"},{"bike_id":"7458ab20-d609-4f3d-8d99-bc69b36f81ba","system_id":"levelo_inurba_marseille","lat":43.284672,"lon":5.358911,"is_reserved":false,"is_disabled":false,"rental_uris":{"android":"levelo://app?vid=7458ab20-d609-4f3d-8d99-bc69b36f81ba","ios":"levelo://app?vid=7458ab20-d609-4f3d-8d99-bc69b36f81ba"},"vehicle_type_id":"4","last_reported":1717431024,"current_range_meters":0,"station_id":"ce4bhah2rcd13ifvqei0","pricing_plan_id":"cebpf4jnsgd1na2vs0mg"},{"bike_id":"ca5e6eea-d6e0-484d-b828-3f7adc3a78b5","system_id":"levelo_inurba_marseille","lat":43.284538,"lon":5.358657,"is_reserved":false,"is_disabled":false,"rental_uris":{"android":"levelo://app?vid=ca5e6eea-d6e0-484d-b828-3f7adc3a78b5","ios":"levelo://app?vid=ca5e6eea-d6e0-484d-b828-3f7adc3a78b5"},"vehicle_type_id":"4","last_reported":1717431024,"current_range_meters":19200,"station_id":"ce4bhah2rcd13ifvqei0","pricing_plan_id":"cebpf4jnsgd1na2vs0mg"},{"bike_id":"b180c482-2ba8-4e90-87cd-6cd56f6b7332","system_id":"levelo_inurba_marseille","lat":43.284613,"lon":5.358937,"is_reserved":false,"is_disabled":false,"rental_uris":{"android":"levelo://app?vid=b180c482-2ba8-4e90-87cd-6cd56f6b7332","ios":"levelo://app?vid=b180c482-2ba8-4e90-87cd-6cd56f6b7332"},"vehicle_type_id":"4","last_reported":1717431024,"current_range_meters":0,"station_id":"ce4bhah2rcd13ifvqei0","pricing_plan_id":"cebpf4jnsgd1na2vs0mg"},{"bike_id":"3d01641d-80ea-4352-a465-6daf3d657c83","system_id":"levelo_inurba_marseille","lat":43.284534,"lon":5.358662,"is_reserved":false,"is_disabled":false,"rental_uris":{"android":"levelo://app?vid=3d01641d-80ea-4352-a465-6daf3d657c83","ios":"levelo://app?vid=3d01641d-80ea-4352-a465-6daf3d657c83"},"vehicle_type_id":"4","last_reported":1717431024,"current_range_meters":14000,"station_id":"ce4bhah2rcd13ifvqei0","pricing_plan_id":"cebpf4jnsgd1na2vs0mg"},{"bike_id":"ebbb3aec-99a0-4dfc-a86b-f2b091e9afa6","system_id":"levelo_inurba_marseille","lat":43.29256,"lon":5.395235,"is_reserved":false,"is_disabled":false,"rental_uris":{"android":"levelo://app?vid=ebbb3aec-99a0-4dfc-a86b-f2b091e9afa6","ios":"levelo://app?vid=ebbb3aec-99a0-4dfc-a86b-f2b091e9afa6"},"vehicle_type_id":"4","last_reported":1717431024,"current_range_meters":23200,"station_id":"","pricing_plan_id":"cebpf4jnsgd1na2vs0mg"},{"bike_id":"c9785116-0d5d-45ed-a522-419a978c7108","system_id":"levelo_inurba_marseille","lat":43.28619,"lon":5.35108,"is_reserved":false,"is_disabled":false,"rental_uris":{"android":"levelo://app?vid=c9785116-0d5d-45ed-a522-419a978c7108","ios":"levelo://app?vid=c9785116-0d5d-45ed-a522-419a978c7108"},"vehicle_type_id":"4","last_reported":1717431024,"current_range_meters":12800,"station_id":"ce4bhch2rcd13ifvqeug","pricing_plan_id":"cebpf4jnsgd1na2vs0mg"},{"bike_id":"f58113be-f931-40e5-aa7a-47d83ede4d10","system_id":"levelo_inurba_marseille","lat":43.28621,"lon":5.351,"is_reserved":false,"is_disabled":false,"rental_uris":{"android":"levelo://app?vid=f58113be-f931-40e5-aa7a-47d83ede4d10","ios":"levelo://app?vid=f58113be-f931-40e5-aa7a-47d83ede4d10"},"vehicle_type_id":"4","last_reported":1717431024,"current_range_meters":0,"station_id":"ce4bhch2rcd13ifvqeug","pricing_plan_id":"cebpf4jnsgd1na2vs0mg"},{"bike_id":"0a0fa5f3-5d29-49a0-97b1-ed53ee418a93","system_id":"levelo_inurba_marseille","lat":43.285856,"lon":5.350771,"is_reserved":false,"is_disabled":false,"rental_uris":{"android":"levelo://app?vid=0a0fa5f3-5d29-49a0-97b1-ed53ee418a93","ios":"levelo://app?vid=0a0fa5f3-5d29-49a0-97b1-ed53ee418a93"},"vehicle_type_id":"4","last_reported":1717431024,"current_range_meters":18000,"station_id":"ce4bhch2rcd13ifvqeug","pricing_plan_id":"cebpf4jnsgd1na2vs0mg"},{"bike_id":"ba0270bc-4b7e-4fc4-b063-e479b0af3582","system_id":"levelo_inurba_marseille","lat":43.28616,"lon":5.35103,"is_reserved":false,"is_disabled":false,"rental_uris":{"android":"levelo://app?vid=ba0270bc-4b7e-4fc4-b063-e479b0af3582","ios":"levelo://app?vid=ba0270bc-4b7e-4fc4-b063-e479b0af3582"},"vehicle_type_id":"4","last_reported":1717431024,"current_range_meters":16000,"station_id":"ce4bhch2rcd13ifvqeug","pricing_plan_id":"cebpf4jnsgd1na2vs0mg"},{"bike_id":"37ecaffc-d591-4a97-b12a-14e6b418135e","system_id":"levelo_inurba_marseille","lat":43.286132,"lon":5.351087,"is_reserved":false,"is_disabled":false,"rental_uris":{"android":"levelo://app?vid=37ecaffc-d591-4a97-b12a-14e6b418135e","ios":"levelo://app?vid=37ecaffc-d591-4a97-b12a-14e6b418135e"},"vehicle_type_id":"4","last_reported":1717431024,"current_range_meters":1200,"station_id":"ce4bhch2rcd13ifvqeug","pricing_plan_id":"cebpf4jnsgd1na2vs0mg"},{"bike_id":"68237a3e-29a7-43ba-80fa-c89ffe26c69c","system_id":"levelo_inurba_marseille","lat":43.285856,"lon":5.350771,"is_reserved":false,"is_disabled":false,"rental_uris":{"android":"levelo://app?vid=68237a3e-29a7-43ba-80fa-c89ffe26c69c","ios":"levelo://app?vid=68237a3e-29a7-43ba-80fa-c89ffe26c69c"},"vehicle_type_id":"4","last_reported":1717431024,"current_range_meters":27600,"station_id":"ce4bhch2rcd13ifvqeug","pricing_plan_id":"cebpf4jnsgd1na2vs0mg"},{"bike_id":"42ccfb50-afad-4ab0-8af5-f2b72a1aead0","system_id":"levelo_inurba_marseille","lat":43.285856,"lon":5.350771,"is_reserved":false,"is_disabled":false,"rental_uris":{"android":"levelo://app?vid=42ccfb50-afad-4ab0-8af5-f2b72a1aead0","ios":"levelo://app?vid=42ccfb50-afad-4ab0-8af5-f2b72a1aead0"},"vehicle_type_id":"4","last_reported":1717431024,"current_range_meters":11200,"station_id":"ce4bhch2rcd13ifvqeug","pricing_plan_id":"cebpf4jnsgd1na2vs0mg"},{"bike_id":"90c717df-a9b8-45ec-85db-192c4400958e","system_id":"levelo_inurba_marseille","lat":43.28612,"lon":5.35102,"is_reserved":false,"is_disabled":false,"rental_uris":{"android":"levelo://app?vid=90c717df-a9b8-45ec-85db-192c4400958e","ios":"levelo://app?vid=90c717df-a9b8-45ec-85db-192c4400958e"},"vehicle_type_id":"4","last_reported":1717431024,"current_range_meters":1600,"station_id":"ce4bhch2rcd13ifvqeug","pricing_plan_id":"cebpf4jnsgd1na2vs0mg"},{"bike_id":"cfe3f7a4-4496-4839-8662-44062bfe2b70","system_id":"levelo_inurba_marseille","lat":43.285856,"lon":5.350771,"is_reserved":false,"is_disabled":false,"rental_uris":{"android":"levelo://app?vid=cfe3f7a4-4496-4839-8662-44062bfe2b70","ios":"levelo://app?vid=cfe3f7a4-4496-4839-8662-44062bfe2b70"},"vehicle_type_id":"4","last_reported":1717431024,"current_range_meters":6000,"station_id":"ce4bhch2rcd13ifvqeug","pricing_plan_id":"cebpf4jnsgd1na2vs0mg"},{"bike_id":"5b89c439-5502-44b7-8b28-7736790df35a","system_id":"levelo_inurba_marseille","lat":43.284197,"lon":5.375055,"is_reserved":false,"is_disabled":false,"rental_uris":{"android":"levelo://app?vid=5b89c439-5502-44b7-8b28-7736790df35a","ios":"levelo://app?vid=5b89c439-5502-44b7-8b28-7736790df35a"},