{"last_updated":1774629706,"ttl":60,"version":"2.2","data":{"bikes":[{"bike_id":"026bbd3e-661d-4021-a8c5-649d1bcfdca0","system_id":"levelo_inurba_marseille","lat":43.29501,"lon":5.37391,"is_reserved":false,"is_disabled":false,"rental_uris":{"android":"levelo://app?vid=026bbd3e-661d-4021-a8c5-649d1bcfdca0","ios":"levelo://app?vid=026bbd3e-661d-4021-a8c5-649d1bcfdca0"},"vehicle_type_id":"4","last_reported":1774629707,"current_range_meters":2800,"station_id":"","pricing_plan_id":"cebpf4jnsgd1na2vs0mg"},{"bike_id":"66cca29d-0f57-46a2-8a48-8f702b2e6bf4","system_id":"levelo_inurba_marseille","lat":43.23189,"lon":5.39977,"is_reserved":false,"is_disabled":true,"rental_uris":{"android":"levelo://app?vid=66cca29d-0f57-46a2-8a48-8f702b2e6bf4","ios":"levelo://app?vid=66cca29d-0f57-46a2-8a48-8f702b2e6bf4"},"vehicle_type_id":"4","last_reported":1774629707,"current_range_meters":2800,"station_id":"ce4bhn12rcd13ifvqgqg","pricing_plan_id":"cebpf4jnsgd1na2vs0mg"},{"bike_id":"95062790-6cce-4e40-bd4c-3b693b1539eb","system_id":"levelo_inurba_marseille","lat":43.25666,"lon":5.41069,"is_reserved":false,"is_disabled":false,"rental_uris":{"android":"levelo://app?vid=95062790-6cce-4e40-bd4c-3b693b1539eb","ios":"levelo://app?vid=95062790-6cce-4e40-bd4c-3b693b1539eb"},"vehicle_type_id":"4","last_reported":1774629707,"current_range_meters":2800,"station_id":"","pricing_plan_id":"cebpf4jnsgd1na2vs0mg"},{"bike_id":"d896d699-3ac7-4823-b169-2267a272f07c","system_id":"levelo_inurba_marseille","lat":43.25824,"lon":5.39415,"is_reserved":false,"is_disabled":false,"rental_uris":{"android":"levelo://app?vid=d896d699-3ac7-4823-b169-2267a272f07c","ios":"levelo://app?vid=d896d699-3ac7-4823-b169-2267a272f07c"},"vehicle_type_id":"4","last_reported":1774629707,"current_range_meters":2800,"station_id":"ce4bhip2rcd13ifvqft0","pricing_plan_id":"cebpf4jnsgd1na2vs0mg"},{"bike_id":"db8e1c36-1d9c-44d2-bc2d-f91041c6fca2","system_id":"levelo_inurba_marseille","lat":43.2855,"lon":5.45973,"is_reserved":false,"is_disabled":false,"rental_uris":{"android":"levelo://app?vid=db8e1c36-1d9c-44d2-bc2d-f91041c6fca2","ios":"levelo://app?vid=db8e1c36-1d9c-44d2-bc2d-f91041c6fca2"},"vehicle_type_id":"4","last_reported":1774629707,"current_range_meters":2800,"station_id":"","pricing_plan_id":"cebpf4jnsgd1na2vs0mg"},{"bike_id":"67d5a3e5-1f43-4669-a539-993564c09aa2","system_id":"levelo_inurba_marseille","lat":43.29865,"lon":5.363,"is_reserved":false,"is_disabled":false,"rental_uris":{"android":"levelo://app?vid=67d5a3e5-1f43-4669-a539-993564c09aa2","ios":"levelo://app?vid=67d5a3e5-1f43-4669-a539-993564c09aa2"},"vehicle_type_id":"4","last_reported":1774629707,"current_range_meters":2800,"station_id":"ce4bgpp2rcd13ifvqc3g","pricing_plan_id":"cebpf4jnsgd1na2vs0mg"},{"bike_id":"6d85a515-a949-4bee-9d0a-33c5d86f49e7","system_id":"levelo_inurba_marseille","lat":43.27809,"lon":5.40715,"is_reserved":false,"is_disabled":false,"rental_uris":{"android":"levelo://app?vid=6d85a515-a949-4bee-9d0a-33c5d86f49e7","ios":"levelo://app?vid=6d85a515-a949-4bee-9d0a-33c5d86f49e7"},"vehicle_type_id":"4","last_reported":1774629707,"current_range_meters":2800,"station_id":"ce4bhnh2rcd13ifvqgtg","pricing_plan_id":"cebpf4jnsgd1na2vs0mg"},{"bike_id":"331c81b1-5655-4033-b6f5-bb9cc4308402","system_id":"levelo_inurba_marseille","lat":43.292265,"lon":5.360694,"is_reserved":false,"is_disabled":false,"rental_uris":{"android":"levelo://app?vid=331c81b1-5655-4033-b6f5-bb9cc4308402","ios":"levelo://app?vid=331c81b1-5655-4033-b6f5-bb9cc4308402"},"vehicle_type_id":"4","last_reported":1774629707,"current_range_meters":2800,"station_id":"ce4bhbh2rcd13ifvqeqg","pricing_plan_id":"cebpf4jnsgd1na2vs0mg"},{"bike_id":"8bcdb0ab-7e49-4af9-b5fa-1bb6f2fc38b8","system_id":"levelo_inurba_marseille","lat":43.31328,"lon":5.39706,"is_reserved":false,"is_disabled":false,"rental_uris":{"android":"levelo://app?vid=8bcdb0ab-7e49-4af9-b5fa-1bb6f2fc38b8","ios":"levelo://app?vid=8bcdb0ab-7e49-4af9-b5fa-1bb6f2fc38b8"},"vehicle_type_id":"4","last_reported":1774629707,"current_range_meters":3200,"station_id":"ce4bgvp2rcd13ifvqcu0","pricing_plan_id":"cebpf4jnsgd1na2vs0mg"},{"bike_id":"9a1b7562-5c14-4853-ad31-a4b1e826c8d0","system_id":"levelo_inurba_marseille","lat":43.226,"lon":5.41632,"is_reserved":false,"is_disabled":false,"rental_uris":{"android":"levelo://app?vid=9a1b7562-5c14-4853-ad31-a4b1e826c8d0","ios":"levelo://app?vid=9a1b7562-5c14-4853-ad31-a4b1e826c8d0"},"vehicle_type_id":"4","last_reported":1774629707,"current_range_meters":3200,"station_id":"st_d2o4gvlbi1j2169b742g","pricing_plan_id":"cebpf4jnsgd1na2vs0mg"},{"bike_id":"d53f00df-9217-499a-a9c1-fc7eb83b42c9","system_id":"levelo_inurba_marseille","lat":43.32367,"lon":5.38883,"is_reserved":false,"is_disabled":false,"rental_uris":{"android":"levelo://app?vid=d53f00df-9217-499a-a9c1-fc7eb83b42c9","ios":"levelo://app?vid=d53f00df-9217-499a-a9c1-fc7eb83b42c9"},"vehicle_type_id":"4","last_reported":1774629707,"current_range_meters":3200,"station_id":"ce4bhqp2rcd13ifvqhog","pricing_plan_id":"cebpf4jnsgd1na2vs0mg"},{"bike_id":"b0257da6-29b0-40f2-a5bf-6ff6c48b36b8","system_id":"levelo_inurba_marseille","lat":43.28477,"lon":5.48387,"is_reserved":false,"is_disabled":false,"rental_uris":{"android":"levelo://app?vid=b0257da6-29b0-40f2-a5bf-6ff6c48b36b8","ios":"levelo://app?vid=b0257da6-29b0-40f2-a5bf-6ff6c48b36b8"},"vehicle_type_id":"4","last_reported":1774629707,"current_range_meters":3200,"station_id":"","pricing_plan_id":"cebpf4jnsgd1na2vs0mg"},{"bike_id":"0859e376-8305-4cc6-8edf-285aa6deaa20","system_id":"levelo_inurba_marseille","lat":43.27924,"lon":5.39581,"is_reserved":false,"is_disabled":false,"rental_uris":{"android":"levelo://app?vid=0859e376-8305-4cc6-8edf-285aa6deaa20","ios":"levelo://app?vid=0859e376-8305-4cc6-8edf-285aa6deaa20"},"vehicle_type_id":"4","last_reported":1774629707,"current_range_meters":3200,"station_id":"ce4bhf92rcd13ifvqf40","pricing_plan_id":"cebpf4jnsgd1na2vs0mg"},{"bike_id":"e2fabea8-fec8-4403-91af-ad7f2d964bb9","system_id":"levelo_inurba_marseille","lat":43.29892,"lon":5.42082,"is_reserved":false,"is_disabled":false,"rental_uris":{"android":"levelo://app?vid=e2fabea8-fec8-4403-91af-ad7f2d964bb9","ios":"levelo://app?vid=e2fabea8-fec8-4403-91af-ad7f2d964bb9"},"vehicle_type_id":"4","last_reported":1774629707,"current_range_meters":3600,"station_id":"st_d6tc004otcvc738tfe70","pricing_plan_id":"cebpf4jnsgd1na2vs0mg"},{"bike_id":"a98e7b73-b30a-4f9b-96c6-ec530884d631","system_id":"levelo_inurba_marseille","lat":43.23788,"lon":5.36628,"is_reserved":false,"is_disabled":false,"rental_uris":{"android":"levelo://app?vid=a98e7b73-b30a-4f9b-96c6-ec530884d631","ios":"levelo://app?vid=a98e7b73-b30a-4f9b-96c6-ec530884d631"},"vehicle_type_id":"4","last_reported":1774629707,"current_range_meters":3600,"station_id":"st_d3nk18o9ro0c73en2l3g","pricing_plan_id":"cebpf4jnsgd1na2vs0mg"},{"bike_id":"aa929685-e4dd-4a31-a1c6-979463fa81a3","system_id":"levelo_inurba_marseille","lat":43.28491,"lon":5.48393,"is_reserved":false,"is_disabled":false,"rental_uris":{"android":"levelo://app?vid=aa929685-e4dd-4a31-a1c6-979463fa81a3","ios":"levelo://app?vid=aa929685-e4dd-4a31-a1c6-979463fa81a3"},"vehicle_type_id":"4","last_reported":1774629707,"current_range_meters":3600,"station_id":"st_d3svhcjqgbts73a3dn0g","pricing_plan_id":"cebpf4jnsgd1na2vs0mg"},{"bike_id":"4bf5ee1a-db28-4d49-a9e5-e023cbb5efa9","system_id":"levelo_inurba_marseille","lat":43.26492,"lon":5.37969,"is_reserved":false,"is_disabled":false,"rental_uris":{"android":"levelo://app?vid=4bf5ee1a-db28-4d49-a9e5-e023cbb5efa9","ios":"levelo://app?vid=4bf5ee1a-db28-4d49-a9e5-e023cbb5efa9"},"vehicle_type_id":"4","last_reported":1774629707,"current_range_meters":3600,"station_id":"","pricing_plan_id":"cebpf4jnsgd1na2vs0mg"},{"bike_id":"a206a1fc-ad71-47c7-8011-84675fafc178","system_id":"levelo_inurba_marseille","lat":43.31214,"lon":5.36861,"is_reserved":false,"is_disabled":false,"rental_uris":{"android":"levelo://app?vid=a206a1fc-ad71-47c7-8011-84675fafc178","ios":"levelo://app?vid=a206a1fc-ad71-47c7-8011-84675fafc178"},"vehicle_type_id":"4","last_reported":1774629707,"current_range_meters":3600,"station_id":"ce4bgl92rcd13ifvqbq0","pricing_plan_id":"cebpf4jnsgd1na2vs0mg"},{"bike_id":"248e7202-bf14-41af-ab35-7275ee6c4d6f","system_id":"levelo_inurba_marseille","lat":43.23379,"lon":5.41226,"is_reserved":false,"is_disabled":false,"rental_uris":{"android":"levelo://app?vid=248e7202-bf14-41af-ab35-7275ee6c4d6f","ios":"levelo://app?vid=248e7202-bf14-41af-ab35-7275ee6c4d6f"},"vehicle_type_id":"4","last_reported":1774629707,"current_range_meters":3600,"station_id":"","pricing_plan_id":"cebpf4jnsgd1na2vs0mg"},{"bike_id":"5ee79f78-c077-4e4b-853f-9dadde04ec9a","system_id":"levelo_inurba_marseille","lat":43.32494,"lon":5.38304,"is_reserved":false,"is_disabled":false,"rental_uris":{"android":"levelo://app?vid=5ee79f78-c077-4e4b-853f-9dadde04ec9a","ios":"levelo://app?vid=5ee79f78-c077-4e4b-853f-9dadde04ec9a"},"vehicle_type_id":"4","last_reported":1774629707,"current_range_meters":3600,"station_id":"st_d4asgbiv49dc73anf9m0","pricing_plan_id":"cebpf4jnsgd1na2vs0mg"},{"bike_id":"95499898-c966-4d35-ae05-c608fe124272","system_id":"levelo_inurba_marseille","lat":43.27496,"lon":5.41604,"is_reserved":false,"is_disabled":false,"rental_uris":{"android":"levelo://app?vid=95499898-c966-4d35-ae05-c608fe124272","ios":"levelo://app?vid=95499898-c966-4d35-ae05-c608fe124272"},"vehicle_type_id":"4","last_reported":1774629707,"current_range_meters":3600,"station_id":"st_d6im8g6chgec73a5pndg","pricing_plan_id":"cebpf4jnsgd1na2vs0mg"},{"bike_id":"5d50e5a1-2776-45f5-b9ff-1dc20663f1a3","system_id":"levelo_inurba_marseille","lat":43.27197,"lon":5.40981,"is_reserved":false,"is_disabled":false,"rental_uris":{"android":"levelo://app?vid=5d50e5a1-2776-45f5-b9ff-1dc20663f1a3","ios":"levelo://app?vid=5d50e5a1-2776-45f5-b9ff-1dc20663f1a3"},"vehicle_type_id":"4","last_reported":1774629707,"current_range_meters":3600,"station_id":"ce4bhl12rcd13ifvqgf0","pricing_plan_id":"cebpf4jnsgd1na2vs0mg"},{"bike_id":"0f56ada4-0139-4533-81b0-539cec19117a","system_id":"levelo_inurba_marseille","lat":43.30034,"lon":5.37676,"is_reserved":false,"is_disabled":false,"rental_uris":{"android":"levelo://app?vid=0f56ada4-0139-4533-81b0-539cec19117a","ios":"levelo://app?vid=0f56ada4-0139-4533-81b0-539cec19117a"},"vehicle_type_id":"4","last_reported":1774629707,"current_range_meters":3600,"station_id":"","pricing_plan_id":"cebpf4jnsgd1na2vs0mg"},{"bike_id":"f1366cc4-0ecd-4626-ba02-0d2f026b2229","system_id":"levelo_inurba_marseille","lat":43.29631,"lon":5.40589,"is_reserved":false,"is_disabled":false,"rental_uris":{"android":"levelo://app?vid=f1366cc4-0ecd-4626-ba02-0d2f026b2229","ios":"levelo://app?vid=f1366cc4-0ecd-4626-ba02-0d2f026b2229"},"vehicle_type_id":"4","last_reported":1774629707,"current_range_meters":4000,"station_id":"ce4bh0h2rcd13ifvqd60","pricing_plan_id":"cebpf4jnsgd1na2vs0mg"},{"bike_id":"3ab98d54-0020-4383-9198-d1ae40e931d7","system_id":"levelo_inurba_marseille","lat":43.26234,"lon":5.40457,"is_reserved":false,"is_disabled":false,"rental_uris":{"android":"levelo://app?vid=3ab98d54-0020-4383-9198-d1ae40e931d7","ios":"levelo://app?vid=3ab98d54-0020-4383-9198-d1ae40e931d7"},"vehicle_type_id":"4","last_reported":1774629707,"current_range_meters":4000,"station_id":"ce4bhmh2rcd13ifvqgmg","pricing_plan_id":"cebpf4jnsgd1na2vs0mg"},{"bike_id":"374b9ae7-ae54-48d7-95bc-6b56259d987f","system_id":"levelo_inurba_marseille","lat":43.25102,"lon":5.40327,"is_reserved":false,"is_disabled":false,"rental_uris":{"android":"levelo://app?vid=374b9ae7-ae54-48d7-95bc-6b56259d987f","ios":"levelo://app?vid=374b9ae7-ae54-48d7-95bc-6b56259d987f"},"vehicle_type_id":"4","last_reported":1774629707,"current_range_meters":4000,"station_id":"ce4bhlh2rcd13ifvqgig","pricing_plan_id":"cebpf4jnsgd1na2vs0mg"},{"bike_id":"304f09eb-d9e2-49f5-ab92-08bad78da312","system_id":"levelo_inurba_marseille","lat":43.23786,"lon":5.3663,"is_reserved":false,"is_disabled":false,"rental_uris":{"android":"levelo://app?vid=304f09eb-d9e2-49f5-ab92-08bad78da312","ios":"levelo://app?vid=304f09eb-d9e2-49f5-ab92-08bad78da312"},"vehicle_type_id":"4","last_reported":1774629707,"current_range_meters":4000,"station_id":"st_d3nk18o9ro0c73en2l3g","pricing_plan_id":"cebpf4jnsgd1na2vs0mg"},{"bike_id":"d9f1e599-9996-4001-a299-ae38459379b5","system_id":"levelo_inurba_marseille","lat":43.31932,"lon":5.36798,"is_reserved":false,"is_disabled":false,"rental_uris":{"android":"levelo://app?vid=d9f1e599-9996-4001-a299-ae38459379b5","ios":"levelo://app?vid=d9f1e599-9996-4001-a299-ae38459379b5"},"vehicle_type_id":"4","last_reported":1774629707,"current_range_meters":4000,"station_id":"","pricing_plan_id":"cebpf4jnsgd1na2vs0mg"},{"bike_id":"99fdde14-d00f-4b87-a06e-d19f16d9d69a","system_id":"levelo_inurba_marseille","lat":43.30214,"lon":5.38034,"is_reserved":false,"is_disabled":false,"rental_uris":{"android":"levelo://app?vid=99fdde14-d00f-4b87-a06e-d19f16d9d69a","ios":"levelo://app?vid=99fdde14-d00f-4b87-a06e-d19f16d9d69a"},"vehicle_type_id":"4","last_reported":1774629707,"current_range_meters":4000,"station_id":"","pricing_plan_id":"cebpf4jnsgd1na2vs0mg"},{"bike_id":"62847520-9a5a-4bf3-9ab5-d943a8e5596e","system_id":"levelo_inurba_marseille","lat":43.28483,"lon":5.3857,"is_reserved":false,"is_disabled":false,"rental_uris":{"android":"levelo://app?vid=62847520-9a5a-4bf3-9ab5-d943a8e5596e","ios":"levelo://app?vid=62847520-9a5a-4bf3-9ab5-d943a8e5596e"},"vehicle_type_id":"4","last_reported":1774629707,"current_range_meters":4000,"station_id":"ce4bh8p2rcd13ifvqeb0","pricing_plan_id":"cebpf4jnsgd1na2vs0mg"},{"bike_id":"9f83c618-0f42-4100-8185-5ad07eff5ad7","system_id":"levelo_inurba_marseille","lat":43.29256,"lon":5.40897,"is_reserved":false,"is_disabled":false,"rental_uris":{"android":"levelo://app?vid=9f83c618-0f42-4100-8185-5ad07eff5ad7","ios":"levelo://app?vid=9f83c618-0f42-4100-8185-5ad07eff5ad7"},"vehicle_type_id":"4","last_reported":1774629707,"current_range_meters":4400,"station_id":"ce4bh192rcd13ifvqdc0","pricing_plan_id":"cebpf4jnsgd1na2vs0mg"},{"bike_id":"9ac2d7e7-51d6-4c20-9245-1abdbf115c06","system_id":"levelo_inurba_marseille","lat":43.27515,"lon":5.41552,"is_reserved":false,"is_disabled":false,"rental_uris":{"android":"levelo://app?vid=9ac2d7e7-51d6-4c20-9245-1abdbf115c06","ios":"levelo://app?vid=9ac2d7e7-51d6-4c20-9245-1abdbf115c06"},"vehicle_type_id":"4","last_reported":1774629707,"current_range_meters":4400,"station_id":"st_d6im8g6chgec73a5pndg","pricing_plan_id":"cebpf4jnsgd1na2vs0mg"},{"bike_id":"efbb43d4-94d1-4f64-800a-446c6f2aed74","system_id":"levelo_inurba_marseille","lat":43.28434,"lon":5.37514,"is_reserved":false,"is_disabled":false,"rental_uris":{"android":"levelo://app?vid=efbb43d4-94d1-4f64-800a-446c6f2aed74","ios":"levelo://app?vid=efbb43d4-94d1-4f64-800a-446c6f2aed74"},"vehicle_type_id":"4","last_reported":1774629707,"current_range_meters":4400,"station_id":"ce4bh412rcd13ifvqds0","pricing_plan_id":"cebpf4jnsgd1na2vs0mg"},{"bike_id":"4e605910-a822-4f44-9f56-7649cf5ae852","system_id":"levelo_inurba_marseille","lat":43.29905,"lon":5.3816,"is_reserved":false,"is_disabled":false,"rental_uris":{"android":"levelo://app?vid=4e605910-a822-4f44-9f56-7649cf5ae852","ios":"levelo://app?vid=4e605910-a822-4f44-9f56-7649cf5ae852"},"vehicle_type_id":"4","last_reported":1774629707,"current_range_meters":4400,"station_id":"ce4bgj12rcd13ifvqbc0","pricing_plan_id":"cebpf4jnsgd1na2vs0mg"},{"bike_id":"ca875470-27d6-40a0-b64c-3512f0d37982","system_id":"levelo_inurba_marseille","lat":43.30868,"lon":5.37193,"is_reserved":false,"is_disabled":false,"rental_uris":{"android":"levelo://app?vid=ca875470-27d6-40a0-b64c-3512f0d37982","ios":"levelo://app?vid=ca875470-27d6-40a0-b64c-3512f0d37982"},"vehicle_type_id":"4","last_reported":1774629707,"current_range_meters":4400,"station_id":"ce4bguh2rcd13ifvqckg","pricing_plan_id":"cebpf4jnsgd1na2vs0mg"},{"bike_id":"11d5de94-a0c5-4d8d-8009-48eec227c006","system_id":"levelo_inurba_marseille","lat":43.22934,"lon":5.35374,"is_reserved":false,"is_disabled":false,"rental_uris":{"android":"levelo://app?vid=11d5de94-a0c5-4d8d-8009-48eec227c006","ios":"levelo://app?vid=11d5de94-a0c5-4d8d-8009-48eec227c006"},"vehicle_type_id":"4","last_reported":1774629707,"current_range_meters":4400,"station_id":"cpo3532slgdg3j2ikp40","pricing_plan_id":"cebpf4jnsgd1na2vs0mg"},{"bike_id":"52dc8b99-7d03-4366-a759-e4d6e1456db2","system_id":"levelo_inurba_marseille","lat":43.30587,"lon":5.39362,"is_reserved":false,"is_disabled":false,"rental_uris":{"android":"levelo://app?vid=52dc8b99-7d03-4366-a759-e4d6e1456db2","ios":"levelo://app?vid=52dc8b99-7d03-4366-a759-e4d6e1456db2"},"vehicle_type_id":"4","last_reported":1774629707,"current_range_meters":4400,"station_id":"ce4bh0p2rcd13ifvqd80","pricing_plan_id":"cebpf4jnsgd1na2vs0mg"},{"bike_id":"e784b168-2f78-41c4-b16a-85ea5bbd5ff6","system_id":"levelo_inurba_marseille","lat":43.28039,"lon":5.36951,"is_reserved":false,"is_disabled":false,"rental_uris":{"android":"levelo://app?vid=e784b168-2f78-41c4-b16a-85ea5bbd5ff6","ios":"levelo://app?vid=e784b168-2f78-41c4-b16a-85ea5bbd5ff6"},"vehicle_type_id":"4","last_reported":1774629707,"current_range_meters":4800,"station_id":"ce4bha12rcd13ifvqef0","pricing_plan_id":"cebpf4jnsgd1na2vs0mg"},{"bike_id":"195e0631-ed2b-43bc-b6d1-51410ce940b3","system_id":"levelo_inurba_marseille","lat":43.28475,"lon":5.48395,"is_reserved":false,"is_disabled":false,"rental_uris":{"android":"levelo://app?vid=195e0631-ed2b-43bc-b6d1-51410ce940b3","ios":"levelo://app?vid=195e0631-ed2b-43bc-b6d1-51410ce940b3"},"vehicle_type_id":"4","last_reported":1774629707,"current_range_meters":4800,"station_id":"st_d3svhcjqgbts73a3dn0g","pricing_plan_id":"cebpf4jnsgd1na2vs0mg"},{"bike_id":"f39d8b02-6dc1-4aa3-9619-221f5e63d8fe","system_id":"levelo_inurba_marseille","lat":43.27037,"lon":5.42309,"is_reserved":false,"is_disabled":false,"rental_uris":{"android":"levelo://app?vid=f39d8b02-6dc1-4aa3-9619-221f5e63d8fe","ios":"levelo://app?vid=f39d8b02-6dc1-4aa3-9619-221f5e63d8fe"},"vehicle_type_id":"4","last_reported":1774629707,"current_range_meters":4800,"station_id":"ce4bhk92rcd13ifvqgb0","pricing_plan_id":"cebpf4jnsgd1na2vs0mg"},{"bike_id":"beca5126-c985-47d5-859f-464bcda92937","system_id":"levelo_inurba_marseille","lat":43.23787,"lon":5.36633,"is_reserved":false,"is_disabled":false,"rental_uris":{"android":"levelo://app?vid=beca5126-c985-47d5-859f-464bcda92937","ios":"levelo://app?vid=beca5126-c985-47d5-859f-464bcda92937"},"vehicle_type_id":"4","last_reported":1774629707,"current_range_meters":4800,"station_id":"st_d3nk18o9ro0c73en2l3g","pricing_plan_id":"cebpf4jnsgd1na2vs0mg"},{"bike_id":"60745d19-0a4f-44d5-90ce-af1c93b483f7","system_id":"levelo_inurba_marseille","lat":43.28402,"lon":5.34989,"is_reserved":false,"is_disabled":false,"rental_uris":{"android":"levelo://app?vid=60745d19-0a4f-44d5-90ce-af1c93b483f7","ios":"levelo://app?vid=60745d19-0a4f-44d5-90ce-af1c93b483f7"},"vehicle_type_id":"4","last_reported":1774629707,"current_range_meters":4800,"station_id":"ce4bhbh2rcd13ifvqepg","pricing_plan_id":"cebpf4jnsgd1na2vs0mg"},{"bike_id":"281319e4-7e8f-4d1b-acd6-d0520ce58acc","system_id":"levelo_inurba_marseille","lat":43.26045,"lon":5.37535,"is_reserved":false,"is_disabled":false,"rental_uris":{"android":"levelo://app?vid=281319e4-7e8f-4d1b-acd6-d0520ce58acc","ios":"levelo://app?vid=281319e4-7e8f-4d1b-acd6-d0520ce58acc"},"vehicle_type_id":"4","last_reported":1774629707,"current_range_meters":4800,"station_id":"ce4bhgh2rcd13ifvqfa0","pricing_plan_id":"cebpf4jnsgd1na2vs0mg"},{"bike_id":"47b63de3-9a0d-4845-b46a-9bacff583bc0","system_id":"levelo_inurba_marseille","lat":43.25342,"lon":5.42188,"is_reserved":false,"is_disabled":false,"rental_uris":{"android":"levelo://app?vid=47b63de3-9a0d-4845-b46a-9bacff583bc0","ios":"levelo://app?vid=47b63de3-9a0d-4845-b46a-9bacff583bc0"},"vehicle_type_id":"4","last_reported":1774629707,"current_range_meters":4800,"station_id":"st_d2m65c5bi1j21697t3ng","pricing_plan_id":"cebpf4jnsgd1na2vs0mg"},{"bike_id":"6757497d-8fc5-4c34-933d-61806db8d00d","system_id":"levelo_inurba_marseille","lat":43.2842,"lon":5.34985,"is_reserved":false,"is_disabled":false,"rental_uris":{"android":"levelo://app?vid=6757497d-8fc5-4c34-933d-61806db8d00d","ios":"levelo://app?vid=6757497d-8fc5-4c34-933d-61806db8d00d"},"vehicle_type_id":"4","last_reported":1774629707,"current_range_meters":4800,"station_id":"ce4bhbh2rcd13ifvqepg","pricing_plan_id":"cebpf4jnsgd1na2vs0mg"},{"bike_id":"4248399c-ec44-4a50-8907-b64d33049f6b","system_id":"levelo_inurba_marseille","lat":43.240662,"lon":5.377636,"is_reserved":false,"is_disabled":false,"rental_uris":{"android":"levelo://app?vid=4248399c-ec44-4a50-8907-b64d33049f6b","ios":"levelo://app?vid=4248399c-ec44-4a50-8907-b64d33049f6b"},"vehicle_type_id":"4","last_reported":1774629707,"current_range_meters":4800,"station_id":"ce4bhnp2rcd13ifvqgvg","pricing_plan_id":"cebpf4jnsgd1na2vs0mg"},{"bike_id":"157a619a-97d8-4aef-b57f-26a92c6d5cef","system_id":"levelo_inurba_marseille","lat":43.29527,"lon":5.3854,"is_reserved":false,"is_disabled":false,"rental_uris":{"android":"levelo://app?vid=157a619a-97d8-4aef-b57f-26a92c6d5cef","ios":"levelo://app?vid=157a619a-97d8-4aef-b57f-26a92c6d5cef"},"vehicle_type_id":"4","last_reported":1774629707,"current_range_meters":4800,"station_id":"ce4bgih2rcd13ifvqba0","pricing_plan_id":"cebpf4jnsgd1na2vs0mg"},{"bike_id":"10fe5563-f532-4492-919a-4905f9dfe4ff","system_id":"levelo_inurba_marseille","lat":43.28486,"lon":5.48407,"is_reserved":false,"is_disabled":false,"rental_uris":{"android":"levelo://app?vid=10fe5563-f532-4492-919a-4905f9dfe4ff","ios":"levelo://app?vid=10fe5563-f532-4492-919a-4905f9dfe4ff"},"vehicle_type_id":"4","last_reported":1774629707,"current_range_meters":4800,"station_id":"","pricing_plan_id":"cebpf4jnsgd1na2vs0mg"},{"bike_id":"6a14e0d7-e036-4a7a-988c-bd4c5dc1ab7f","system_id":"levelo_inurba_marseille","lat":43.33169,"lon":5.37714,"is_reserved":false,"is_disabled":false,"rental_uris":{"android":"levelo://app?vid=6a14e0d7-e036-4a7a-988c-bd4c5dc1ab7f","ios":"levelo://app?vid=6a14e0d7-e036-4a7a-988c-bd4c5dc1ab7f"},"vehicle_type_id":"4","last_reported":1774629707,"current_range_meters":4800,"station_id":"st_d46cu089ee8s73dldbu0","pricing_plan_id":"cebpf4jnsgd1na2vs0mg"},{"bike_id":"b5114d54-1a10-4d09-9c82-f6aa7d7d3f8c","system_id":"levelo_inurba_marseille","lat":43.22567,"lon":5.41632,"is_reserved":false,"is_disabled":false,"rental_uris":{"android":"levelo://app?vid=b5114d54-1a10-4d09-9c82-f6aa7d7d3f8c","ios":"levelo://app?vid=b5114d54-1a10-4d09-9c82-f6aa7d7d3f8c"},"vehicle_type_id":"4","last_reported":1774629707,"current_range_meters":5600,"station_id":"st_d2o4gvlbi1j2169b742g","pricing_plan_id":"cebpf4jnsgd1na2vs0mg"},{"bike_id":"9c1cdab7-8171-442d-9864-8c0c68039557","system_id":"levelo_inurba_marseille","lat":43.32109,"lon":5.36774,"is_reserved":false,"is_disabled":false,"rental_uris":{"android":"levelo://app?vid=9c1cdab7-8171-442d-9864-8c0c68039557","ios":"levelo://app?vid=9c1cdab7-8171-442d-9864-8c0c68039557"},"vehicle_type_id":"4","last_reported":1774629707,"current_range_meters":5600,"station_id":"ce4bhrh2rcd13ifvqhug","pricing_plan_id":"cebpf4jnsgd1na2vs0mg"},{"bike_id":"01336c29-76f7-452a-a669-aca7c1c80632","system_id":"levelo_inurba_marseille","lat":43.28607,"lon":5.37059,"is_reserved":false,"is_disabled":false,"rental_uris":{"android":"levelo://app?vid=01336c29-76f7-452a-a669-aca7c1c80632","ios":"levelo://app?vid=01336c29-76f7-452a-a669-aca7c1c80632"},"vehicle_type_id":"4","last_reported":1774629707,"current_range_meters":5600,"station_id":"ce4bht12rcd13ifvqi60","pricing_plan_id":"cebpf4jnsgd1na2vs0mg"},{"bike_id":"efb3c8f2-5e12-401b-909e-757aeb7c9661","system_id":"levelo_inurba_marseille","lat":43.30135,"lon":5.38782,"is_reserved":false,"is_disabled":false,"rental_uris":{"android":"levelo://app?vid=efb3c8f2-5e12-401b-909e-757aeb7c9661","ios":"levelo://app?vid=efb3c8f2-5e12-401b-909e-757aeb7c9661"},"vehicle_type_id":"4","last_reported":1774629707,"current_range_meters":5600,"station_id":"ce4bghh2rcd13ifvqb60","pricing_plan_id":"cebpf4jnsgd1na2vs0mg"},{"bike_id":"1503f67a-6997-42a0-92f5-a4f3fcd86164","system_id":"levelo_inurba_marseille","lat":43.30289,"lon":5.39207,"is_reserved":false,"is_disabled":false,"rental_uris":{"android":"levelo://app?vid=1503f67a-6997-42a0-92f5-a4f3fcd86164","ios":"levelo://app?vid=1503f67a-6997-42a0-92f5-a4f3fcd86164"},"vehicle_type_id":"4","last_reported":1774629707,"current_range_meters":5600,"station_id":"ce4bgkh2rcd13ifvqbk0","pricing_plan_id":"cebpf4jnsgd1na2vs0mg"},{"bike_id":"4750aa15-fd0f-498c-91bb-04fb0043be5e","system_id":"levelo_inurba_marseille","lat":43.29785,"lon":5.39333,"is_reserved":false,"is_disabled":false,"rental_uris":{"android":"levelo://app?vid=4750aa15-fd0f-498c-91bb-04fb0043be5e","ios":"levelo://app?vid=4750aa15-fd0f-498c-91bb-04fb0043be5e"},"vehicle_type_id":"4","last_reported":1774629707,"current_range_meters":5600,"station_id":"chh1huq6cuj3fo74tm60","pricing_plan_id":"cebpf4jnsgd1na2vs0mg"},{"bike_id":"d98423cf-94ce-4749-89f6-e8a1ee474779","system_id":"levelo_inurba_marseille","lat":43.28444,"lon":5.34966,"is_reserved":false,"is_disabled":false,"rental_uris":{"android":"levelo://app?vid=d98423cf-94ce-4749-89f6-e8a1ee474779","ios":"levelo://app?vid=d98423cf-94ce-4749-89f6-e8a1ee474779"},"vehicle_type_id":"4","last_reported":1774629707,"current_range_meters":5600,"station_id":"ce4bhbh2rcd13ifvqepg","pricing_plan_id":"cebpf4jnsgd1na2vs0mg"},{"bike_id":"6e0a0e3c-2c94-47a9-ba4e-05e65437f430","system_id":"levelo_inurba_marseille","lat":43.30332,"lon":5.40426,"is_reserved":false,"is_disabled":false,"rental_uris":{"android":"levelo://app?vid=6e0a0e3c-2c94-47a9-ba4e-05e65437f430","ios":"levelo://app?vid=6e0a0e3c-2c94-47a9-ba4e-05e65437f430"},"vehicle_type_id":"4","last_reported":1774629707,"current_range_meters":6000,"station_id":"ce4bh012rcd13ifvqd10","pricing_plan_id":"cebpf4jnsgd1na2vs0mg"},{"bike_id":"4a6ad84e-6e22-459e-abd6-075453ffbbfd","system_id":"levelo_inurba_marseille","lat":43.3052,"lon":5.36528,"is_reserved":false,"is_disabled":false,"rental_uris":{"android":"levelo://app?vid=4a6ad84e-6e22-459e-abd6-075453ffbbfd","ios":"levelo://app?vid=4a6ad84e-6e22-459e-abd6-075453ffbbfd"},"vehicle_type_id":"4","last_reported":1774629707,"current_range_meters":6000,"station_id":"","pricing_plan_id":"cebpf4jnsgd1na2vs0mg"},{"bike_id":"afd03c50-565a-4fab-930b-02ac75fa7357","system_id":"levelo_inurba_marseille","lat":43.30602,"lon":5.37243,"is_reserved":false,"is_disabled":false,"rental_uris":{"android":"levelo://app?vid=afd03c50-565a-4fab-930b-02ac75fa7357","ios":"levelo://app?vid=afd03c50-565a-4fab-930b-02ac75fa7357"},"vehicle_type_id":"4","last_reported":1774629707,"current_range_meters":6000,"station_id":"ce4bgqh2rcd13ifvqc4g","pricing_plan_id":"cebpf4jnsgd1na2vs0mg"},{"bike_id":"eeae46d2-cc4e-4b7d-af7d-8ae32bf9b6b1","system_id":"levelo_inurba_marseille","lat":43.30632,"lon":5.37216,"is_reserved":false,"is_disabled":false,"rental_uris":{"android":"levelo://app?vid=eeae46d2-cc4e-4b7d-af7d-8ae32bf9b6b1","ios":"levelo://app?vid=eeae46d2-cc4e-4b7d-af7d-8ae32bf9b6b1"},"vehicle_type_id":"4","last_reported":1774629707,"current_range_meters":6000,"station_id":"ce4bgqh2rcd13ifvqc4g","pricing_plan_id":"cebpf4jnsgd1na2vs0mg"},{"bike_id":"2457fc1b-679d-4a71-90e9-ad408ab6ed9d","system_id":"levelo_inurba_marseille","lat":43.33372,"lon":5.38001,"is_reserved":false,"is_disabled":false,"rental_uris":{"android":"levelo://app?vid=2457fc1b-679d-4a71-90e9-ad408ab6ed9d","ios":"levelo://app?vid=2457fc1b-679d-4a71-90e9-ad408ab6ed9d"},"vehicle_type_id":"4","last_reported":1774629707,"current_range_meters":6000,"station_id":"","pricing_plan_id":"cebpf4jnsgd1na2vs0mg"},{"bike_id":"36a53367-52a8-4ab3-8c69-2f3920bae689","system_id":"levelo_inurba_marseille","lat":43.24812,"lon":5.37458,"is_reserved":false,"is_disabled":false,"rental_uris":{"android":"levelo://app?vid=36a53367-52a8-4ab3-8c69-2f3920bae689","ios":"levelo://app?vid=36a53367-52a8-4ab3-8c69-2f3920bae689"},"vehicle_type_id":"4","last_reported":1774629707,"current_range_meters":6000,"station_id":"ce4bhgh2rcd13ifvqfb0","pricing_plan_id":"cebpf4jnsgd1na2vs0mg"},{"bike_id":"bfd7cb66-3073-4920-8151-129c410ea860","system_id":"levelo_inurba_marseille","lat":43.33533,"lon":5.37467,"is_reserved":false,"is_disabled":false,"rental_uris":{"android":"levelo://app?vid=bfd7cb66-3073-4920-8151-129c410ea860","ios":"levelo://app?vid=bfd7cb66-3073-4920-8151-129c410ea860"},"vehicle_type_id":"4","last_reported":1774629707,"current_range_meters":6000,"station_id":"st_d46tts09ee8s73dlu43g","pricing_plan_id":"cebpf4jnsgd1na2vs0mg"},{"bike_id":"0f33ac79-22d8-4e5a-8ae5-6e6032618f5e","system_id":"levelo_inurba_marseille","lat":43.25509,"lon":5.37649,"is_reserved":false,"is_disabled":false,"rental_uris":{"android":"levelo://app?vid=0f33ac79-22d8-4e5a-8ae5-6e6032618f5e","ios":"levelo://app?vid=0f33ac79-22d8-4e5a-8ae5-6e6032618f5e"},"vehicle_type_id":"4","last_reported":1774629707,"current_range_meters":6000,"station_id":"ce4bhh12rcd13ifvqff0","pricing_plan_id":"cebpf4jnsgd1na2vs0mg"},{"bike_id":"2ad9a8f4-d664-4d7f-9011-841a23e11546","system_id":"levelo_inurba_marseille","lat":43.28673,"lon":5.3867,"is_reserved":false,"is_disabled":false,"rental_uris":{"android":"levelo://app?vid=2ad9a8f4-d664-4d7f-9011-841a23e11546","ios":"levelo://app?vid=2ad9a8f4-d664-4d7f-9011-841a23e11546"},"vehicle_type_id":"4","last_reported":1774629707,"current_range_meters":6000,"station_id":"ce4bh492rcd13ifvqdug","pricing_plan_id":"cebpf4jnsgd1na2vs0mg"},{"bike_id":"19488896-6834-47f6-be9b-c7e289cb4f1c","system_id":"levelo_inurba_marseille","lat":43.33539,"lon":5.374731,"is_reserved":false,"is_disabled":false,"rental_uris":{"android":"levelo://app?vid=19488896-6834-47f6-be9b-c7e289cb4f1c","ios":"levelo://app?vid=19488896-6834-47f6-be9b-c7e289cb4f1c"},"vehicle_type_id":"4","last_reported":1774629707,"current_range_meters":6000,"station_id":"st_d46tts09ee8s73dlu43g","pricing_plan_id":"cebpf4jnsgd1na2vs0mg"},{"bike_id":"0a77b6e1-05db-46f0-a0db-225ba15242da","system_id":"levelo_inurba_marseille","lat":43.246689,"lon":5.381627,"is_reserved":false,"is_disabled":false,"rental_uris":{"android":"levelo://app?vid=0a77b6e1-05db-46f0-a0db-225ba15242da","ios":"levelo://app?vid=0a77b6e1-05db-46f0-a0db-225ba15242da"},"vehicle_type_id":"4","last_reported":1774629707,"current_range_meters":6000,"station_id":"ce4bhih2rcd13ifvqfr0","pricing_plan_id":"cebpf4jnsgd1na2vs0mg"},{"bike_id":"b492596c-1f93-4731-9219-481c3eebf72b","system_id":"levelo_inurba_marseille","lat":43.26372,"lon":5.41092,"is_reserved":false,"is_disabled":false,"rental_uris":{"android":"levelo://app?vid=b492596c-1f93-4731-9219-481c3eebf72b","ios":"levelo://app?vid=b492596c-1f93-4731-9219-481c3eebf72b"},"vehicle_type_id":"4","last_reported":1774629707,"current_range_meters":6000,"station_id":"st_d4e5ca6na9uc73bfl5fg","pricing_plan_id":"cebpf4jnsgd1na2vs0mg"},{"bike_id":"b38373c4-334e-43c0-8346-e67621fa9685","system_id":"levelo_inurba_marseille","lat":43.21192,"lon":5.35072,"is_reserved":false,"is_disabled":false,"rental_uris":{"android":"levelo://app?vid=b38373c4-334e-43c0-8346-e67621fa9685","ios":"levelo://app?vid=b38373c4-334e-43c0-8346-e67621fa9685"},"vehicle_type_id":"4","last_reported":1774629707,"current_range_meters":6000,"station_id":"st_cvj6sg6p6f1abm77japg","pricing_plan_id":"cebpf4jnsgd1na2vs0mg"},{"bike_id":"7534e2d4-d311-41e7-b92f-16aaffeeb042","system_id":"levelo_inurba_marseille","lat":43.28264,"lon":5.35077,"is_reserved":false,"is_disabled":false,"rental_uris":{"android":"levelo://app?vid=7534e2d4-d311-41e7-b92f-16aaffeeb042","ios":"levelo://app?vid=7534e2d4-d311-41e7-b92f-16aaffeeb042"},"vehicle_type_id":"4","last_reported":1774629707,"current_range_meters":6000,"station_id":"ce4bhbp2rcd13ifvqerg","pricing_plan_id":"cebpf4jnsgd1na2vs0mg"},{"bike_id":"b53c235b-a6b0-459b-9371-ac9e90d76163","system_id":"levelo_inurba_marseille","lat":43.30532,"lon":5.36709,"is_reserved":false,"is_disabled":false,"rental_uris":{"android":"levelo://app?vid=b53c235b-a6b0-459b-9371-ac9e90d76163","ios":"levelo://app?vid=b53c235b-a6b0-459b-9371-ac9e90d76163"},"vehicle_type_id":"4","last_reported":1774629707,"current_range_meters":6000,"station_id":"ce4bgrp2rcd13ifvqc9g","pricing_plan_id":"cebpf4jnsgd1na2vs0mg"},{"bike_id":"27c547a4-33e7-4ac4-b96a-1b0bee3eb424","system_id":"levelo_inurba_marseille","lat":43.2693,"lon":5.38942,"is_reserved":false,"is_disabled":false,"rental_uris":{"android":"levelo://app?vid=27c547a4-33e7-4ac4-b96a-1b0bee3eb424","ios":"levelo://app?vid=27c547a4-33e7-4ac4-b96a-1b0bee3eb424"},"vehicle_type_id":"4","last_reported":1774629707,"current_range_meters":6400,"station_id":"ce4bhhh2rcd13ifvqfl0","pricing_plan_id":"cebpf4jnsgd1na2vs0mg"},{"bike_id":"6566eb2b-8bda-4fdd-9f22-95330b5402f2","system_id":"levelo_inurba_marseille","lat":43.267881,"lon":5.394142,"is_reserved":false,"is_disabled":false,"rental_uris":{"android":"levelo://app?vid=6566eb2b-8bda-4fdd-9f22-95330b5402f2","ios":"levelo://app?vid=6566eb2b-8bda-4fdd-9f22-95330b5402f2"},"vehicle_type_id":"4","last_reported":1774629707,"current_range_meters":6400,"station_id":"ce4bhh12rcd13ifvqfg0","pricing_plan_id":"cebpf4jnsgd1na2vs0mg"},{"bike_id":"2555a893-6a3e-4c23-8e6c-9c60bcd40259","system_id":"levelo_inurba_marseille","lat":43.29854,"lon":5.36269,"is_reserved":false,"is_disabled":false,"rental_uris":{"android":"levelo://app?vid=2555a893-6a3e-4c23-8e6c-9c60bcd40259","ios":"levelo://app?vid=2555a893-6a3e-4c23-8e6c-9c60bcd40259"},"vehicle_type_id":"4","last_reported":1774629707,"current_range_meters":6400,"station_id":"ce4bgpp2rcd13ifvqc3g","pricing_plan_id":"cebpf4jnsgd1na2vs0mg"},{"bike_id":"b6e8f2fa-fae4-4140-af91-d0651531ab91","system_id":"levelo_inurba_marseille","lat":43.22566,"lon":5.41623,"is_reserved":false,"is_disabled":false,"rental_uris":{"android":"levelo://app?vid=b6e8f2fa-fae4-4140-af91-d0651531ab91","ios":"levelo://app?vid=b6e8f2fa-fae4-4140-af91-d0651531ab91"},"vehicle_type_id":"4","last_reported":1774629707,"current_range_meters":6400,"station_id":"st_d2o4gvlbi1j2169b742g","pricing_plan_id":"cebpf4jnsgd1na2vs0mg"},{"bike_id":"161d527a-87a7-498b-9e3a-2aeaa2612f42","system_id":"levelo_inurba_marseille","lat":43.24395,"lon":5.37054,"is_reserved":false,"is_disabled":false,"rental_uris":{"android":"levelo://app?vid=161d527a-87a7-498b-9e3a-2aeaa2612f42","ios":"levelo://app?vid=161d527a-87a7-498b-9e3a-2aeaa2612f42"},"vehicle_type_id":"4","last_reported":1774629707,"current_range_meters":6400,"station_id":"ce4bhhh2rcd13ifvqfk0","pricing_plan_id":"cebpf4jnsgd1na2vs0mg"},{"bike_id":"0e158215-1434-44e6-b740-9d456d67dba0","system_id":"levelo_inurba_marseille","lat":43.23144,"lon":5.43711,"is_reserved":false,"is_disabled":false,"rental_uris":{"android":"levelo://app?vid=0e158215-1434-44e6-b740-9d456d67dba0","ios":"levelo://app?vid=0e158215-1434-44e6-b740-9d456d67dba0"},"vehicle_type_id":"4","last_reported":1774629707,"current_range_meters":6400,"station_id":"ce4bhmp2rcd13ifvqgog","pricing_plan_id":"cebpf4jnsgd1na2vs0mg"},{"bike_id":"95703f73-318a-4221-85d6-f6e4a0508670","system_id":"levelo_inurba_marseille","lat":43.2971,"lon":5.37693,"is_reserved":false,"is_disabled":false,"rental_uris":{"android":"levelo://app?vid=95703f73-318a-4221-85d6-f6e4a0508670","ios":"levelo://app?vid=95703f73-318a-4221-85d6-f6e4a0508670"},"vehicle_type_id":"4","last_reported":1774629707,"current_range_meters":6400,"station_id":"ce4bgkh2rcd13ifvqbl0","pricing_plan_id":"cebpf4jnsgd1na2vs0mg"},{"bike_id":"5d4074f7-be9f-44d7-b283-987566d29577","system_id":"levelo_inurba_marseille","lat":43.29889,"lon":5.38136,"is_reserved":false,"is_disabled":false,"rental_uris":{"android":"levelo://app?vid=5d4074f7-be9f-44d7-b283-987566d29577","ios":"levelo://app?vid=5d4074f7-be9f-44d7-b283-987566d29577"},"vehicle_type_id":"4","last_reported":1774629707,"current_range_meters":6400,"station_id":"ce4bgj12rcd13ifvqbc0","pricing_plan_id":"cebpf4jnsgd1na2vs0mg"},{"bike_id":"ed9b8903-fd7a-4bcd-a2f1-b692211d5c75","system_id":"levelo_inurba_marseille","lat":43.29819,"lon":5.4407,"is_reserved":false,"is_disabled":false,"rental_uris":{"android":"levelo://app?vid=ed9b8903-fd7a-4bcd-a2f1-b692211d5c75","ios":"levelo://app?vid=ed9b8903-fd7a-4bcd-a2f1-b692211d5c75"},"vehicle_type_id":"4","last_reported":1774629707,"current_range_meters":6400,"station_id":"st_d3jp68qikq2c7381ktn0","pricing_plan_id":"cebpf4jnsgd1na2vs0mg"},{"bike_id":"4a7328ed-6643-44e5-92e7-0444192cbcd6","system_id":"levelo_inurba_marseille","lat":43.337444,"lon":5.374475,"is_reserved":false,"is_disabled":false,"rental_uris":{"android":"levelo://app?vid=4a7328ed-6643-44e5-92e7-0444192cbcd6","ios":"levelo://app?vid=4a7328ed-6643-44e5-92e7-0444192cbcd6"},"vehicle_type_id":"4","last_reported":1774629707,"current_range_meters":6400,"station_id":"","pricing_plan_id":"cebpf4jnsgd1na2vs0mg"},{"bike_id":"d012c15c-addf-4f8b-8303-63e95013eb44","system_id":"levelo_inurba_marseille","lat":43.29539,"lon":5.38544,"is_reserved":false,"is_disabled":false,"rental_uris":{"android":"levelo://app?vid=d012c15c-addf-4f8b-8303-63e95013eb44","ios":"levelo://app?vid=d012c15c-addf-4f8b-8303-63e95013eb44"},"vehicle_type_id":"4","last_reported":1774629707,"current_range_meters":6800,"station_id":"ce4bgih2rcd13ifvqba0","pricing_plan_id":"cebpf4jnsgd1na2vs0mg"},{"bike_id":"b2043439-106a-4d35-9ae1-96a7753cf20a","system_id":"levelo_inurba_marseille","lat":43.2926,"lon":5.409,"is_reserved":false,"is_disabled":false,"rental_uris":{"android":"levelo://app?vid=b2043439-106a-4d35-9ae1-96a7753cf20a","ios":"levelo://app?vid=b2043439-106a-4d35-9ae1-96a7753cf20a"},"vehicle_type_id":"4","last_reported":1774629707,"current_range_meters":6800,"station_id":"ce4bh192rcd13ifvqdc0","pricing_plan_id":"cebpf4jnsgd1na2vs0mg"},{"bike_id":"91bd31f2-be9b-436a-b78a-8cf5541031ec","system_id":"levelo_inurba_marseille","lat":43.33758,"lon":5.3748,"is_reserved":false,"is_disabled":false,"rental_uris":{"android":"levelo://app?vid=91bd31f2-be9b-436a-b78a-8cf5541031ec","ios":"levelo://app?vid=91bd31f2-be9b-436a-b78a-8cf5541031ec"},"vehicle_type_id":"4","last_reported":1774629707,"current_range_meters":6800,"station_id":"","pricing_plan_id":"cebpf4jnsgd1na2vs0mg"},{"bike_id":"a2dc3a3f-4e0d-496d-b246-5d2073e3cd10","system_id":"levelo_inurba_marseille","lat":43.23781,"lon":5.36628,"is_reserved":false,"is_disabled":false,"rental_uris":{"android":"levelo://app?vid=a2dc3a3f-4e0d-496d-b246-5d2073e3cd10","ios":"levelo://app?vid=a2dc3a3f-4e0d-496d-b246-5d2073e3cd10"},"vehicle_type_id":"4","last_reported":1774629707,"current_range_meters":6800,"station_id":"st_d3nk18o9ro0c73en2l3g","pricing_plan_id":"cebpf4jnsgd1na2vs0mg"},{"bike_id":"2168fd10-874c-476f-97d1-11a52fc14733","system_id":"levelo_inurba_marseille","lat":43.27909,"lon":5.38011,"is_reserved":false,"is_disabled":false,"rental_uris":{"android":"levelo://app?vid=2168fd10-874c-476f-97d1-11a52fc14733","ios":"levelo://app?vid=2168fd10-874c-476f-97d1-11a52fc14733"},"vehicle_type_id":"4","last_reported":1774629707,"current_range_meters":6800,"station_id":"ce4bhf92rcd13ifvqf50","pricing_plan_id":"cebpf4jnsgd1na2vs0mg"},{"bike_id":"ac130e88-9e2f-4bea-b0d7-97afed67ab83","system_id":"levelo_inurba_marseille","lat":43.32379,"lon":5.36789,"is_reserved":false,"is_disabled":false,"rental_uris":{"android":"levelo://app?vid=ac130e88-9e2f-4bea-b0d7-97afed67ab83","ios":"levelo://app?vid=ac130e88-9e2f-4bea-b0d7-97afed67ab83"},"vehicle_type_id":"4","last_reported":1774629707,"current_range_meters":6800,"station_id":"ce4bhsh2rcd13ifvqi2g","pricing_plan_id":"cebpf4jnsgd1na2vs0mg"},{"bike_id":"e9dc9846-a1fb-4f3a-a8d5-dbd68cc5808d","system_id":"levelo_inurba_marseille","lat":43.30816,"lon":5.39977,"is_reserved":false,"is_disabled":false,"rental_uris":{"android":"levelo://app?vid=e9dc9846-a1fb-4f3a-a8d5-dbd68cc5808d","ios":"levelo://app?vid=e9dc9846-a1fb-4f3a-a8d5-dbd68cc5808d"},"vehicle_type_id":"4","last_reported":1774629707,"current_range_meters":6800,"station_id":"","pricing_plan_id":"cebpf4jnsgd1na2vs0mg"},{"bike_id":"d4c807a0-5c59-4d90-96e9-d2b1d7e9948c","system_id":"levelo_inurba_marseille","lat":43.28091,"lon":5.39654,"is_reserved":false,"is_disabled":false,"rental_uris":{"android":"levelo://app?vid=d4c807a0-5c59-4d90-96e9-d2b1d7e9948c","ios":"levelo://app?vid=d4c807a0-5c59-4d90-96e9-d2b1d7e9948c"},"vehicle_type_id":"4","last_reported":1774629707,"current_range_meters":6800,"station_id":"ce4bho12rcd13ifvqh2g","pricing_plan_id":"cebpf4jnsgd1na2vs0mg"},{"bike_id":"51b59c1d-49af-47a0-8f2d-cc54cb10be1a","system_id":"levelo_inurba_marseille","lat":43.28515,"lon":5.44059,"is_reserved":false,"is_disabled":false,"rental_uris":{"android":"levelo://app?vid=51b59c1d-49af-47a0-8f2d-cc54cb10be1a","ios":"levelo://app?vid=51b59c1d-49af-47a0-8f2d-cc54cb10be1a"},"vehicle_type_id":"4","last_reported":1774629707,"current_range_meters":6800,"station_id":"st_d3j3df2ikq2c7380ej80","pricing_plan_id":"cebpf4jnsgd1na2vs0mg"},{"bike_id":"ae758492-79f2-476f-b0b6-5b6613e02dd5","system_id":"levelo_inurba_marseille","lat":43.21198,"lon":5.35063,"is_reserved":false,"is_disabled":false,"rental_uris":{"android":"levelo://app?vid=ae758492-79f2-476f-b0b6-5b6613e02dd5","ios":"levelo://app?vid=ae758492-79f2-476f-b0b6-5b6613e02dd5"},"vehicle_type_id":"4","last_reported":1774629707,"current_range_meters":6800,"station_id":"st_cvj6sg6p6f1abm77japg","pricing_plan_id":"cebpf4jnsgd1na2vs0mg"},{"bike_id":"5765d917-35c4-4d43-b8a8-822f1c0ebcac","system_id":"levelo_inurba_marseille","lat":43.309531,"lon":5.390287,"is_reserved":false,"is_disabled":false,"rental_uris":{"android":"levelo://app?vid=5765d917-35c4-4d43-b8a8-822f1c0ebcac","ios":"levelo://app?vid=5765d917-35c4-4d43-b8a8-822f1c0ebcac"},"vehicle_type_id":"4","last_reported":1774629707,"current_range_meters":6800,"station_id":"","pricing_plan_id":"cebpf4jnsgd1na2vs0mg"},{"bike_id":"41215aec-5f35-41c4-8875-01313ebb4475","system_id":"levelo_inurba_marseille","lat":43.28884,"lon":5.43769,"is_reserved":false,"is_disabled":false,"rental_uris":{"android":"levelo://app?vid=41215aec-5f35-41c4-8875-01313ebb4475","ios":"levelo://app?vid=41215aec-5f35-41c4-8875-01313ebb4475"},"vehicle_type_id":"4","last_reported":1774629707,"current_range_meters":6800,"station_id":"","pricing_plan_id":"cebpf4jnsgd1na2vs0mg"},{"bike_id":"33c4c740-db80-485d-9c0e-f3083e547def","system_id":"levelo_inurba_marseille","lat":43.22561,"lon":5.41619,"is_reserved":false,"is_disabled":false,"rental_uris":{"android":"levelo://app?vid=33c4c740-db80-485d-9c0e-f3083e547def","ios":"levelo://app?vid=33c4c740-db80-485d-9c0e-f3083e547def"},"vehicle_type_id":"4","last_reported":1774629707,"current_range_meters":6800,"station_id":"st_d2o4gvlbi1j2169b742g","pricing_plan_id":"cebpf4jnsgd1na2vs0mg"},{"bike_id":"20ba71e0-3d55-4d07-b402-43fab81f2269","system_id":"levelo_inurba_marseille","lat":43.30733,"lon":5.36802,"is_reserved":false,"is_disabled":false,"rental_uris":{"android":"levelo://app?vid=20ba71e0-3d55-4d07-b402-43fab81f2269","ios":"levelo://app?vid=20ba71e0-3d55-4d07-b402-43fab81f2269"},"vehicle_type_id":"4","last_reported":1774629707,"current_range_meters":6800,"station_id":"ce4bgn92rcd13ifvqbvg","pricing_plan_id":"cebpf4jnsgd1na2vs0mg"},{"bike_id":"1bba4e49-cb59-4586-ae0a-d3d42e6eab45","system_id":"levelo_inurba_marseille","lat":43.26617,"lon":5.39089,"is_reserved":false,"is_disabled":false,"rental_uris":{"android":"levelo://app?vid=1bba4e49-cb59-4586-ae0a-d3d42e6eab45","ios":"levelo://app?vid=1bba4e49-cb59-4586-ae0a-d3d42e6eab45"},"vehicle_type_id":"4","last_reported":1774629707,"current_range_meters":6800,"station_id":"","pricing_plan_id":"cebpf4jnsgd1na2vs0mg"},{"bike_id":"bde8d03e-1c8a-46e4-bcd5-1efe543f90e5","system_id":"levelo_inurba_marseille","lat":43.24664,"lon":5.38158,"is_reserved":false,"is_disabled":true,"rental_uris":{"android":"levelo://app?vid=bde8d03e-1c8a-46e4-bcd5-1efe543f90e5","ios":"levelo://app?vid=bde8d03e-1c8a-46e4-bcd5-1efe543f90e5"},"vehicle_type_id":"4","last_reported":1774629707,"current_range_meters":6800,"station_id":"ce4bhih2rcd13ifvqfr0","pricing_plan_id":"cebpf4jnsgd1na2vs0mg"},{"bike_id":"80db360c-7472-4e5e-a72d-ff0ab9900c5d","system_id":"levelo_inurba_marseille","lat":43.29201,"lon":5.42611,"is_reserved":false,"is_disabled":false,"rental_uris":{"android":"levelo://app?vid=80db360c-7472-4e5e-a72d-ff0ab9900c5d","ios":"levelo://app?vid=80db360c-7472-4e5e-a72d-ff0ab9900c5d"},"vehicle_type_id":"4","last_reported":1774629707,"current_range_meters":6800,"station_id":"","pricing_plan_id":"cebpf4jnsgd1na2vs0mg"},{"bike_id":"4397ae44-635b-43b0-a1ea-4e1a061d0889","system_id":"levelo_inurba_marseille","lat":43.24172,"lon":5.36383,"is_reserved":false,"is_disabled":false,"rental_uris":{"android":"levelo://app?vid=4397ae44-635b-43b0-a1ea-4e1a061d0889","ios":"levelo://app?vid=4397ae44-635b-43b0-a1ea-4e1a061d0889"},"vehicle_type_id":"4","last_reported":1774629707,"current_range_meters":6800,"station_id":"cpo36qri1sfpv3e86is0","pricing_plan_id":"cebpf4jnsgd1na2vs0mg"},{"bike_id":"4a3fafa3-97dd-4e01-b9cb-9d4de29423f4","system_id":"levelo_inurba_marseille","lat":43.24803,"lon":5.37485,"is_reserved":false,"is_disabled":false,"rental_uris":{"android":"levelo://app?vid=4a3fafa3-97dd-4e01-b9cb-9d4de29423f4","ios":"levelo://app?vid=4a3fafa3-97dd-4e01-b9cb-9d4de29423f4"},"vehicle_type_id":"4","last_reported":1774629707,"current_range_meters":6800,"station_id":"ce4bhgh2rcd13ifvqfb0","pricing_plan_id":"cebpf4jnsgd1na2vs0mg"},{"bike_id":"d6d88029-64b8-4411-919c-483ad9a8dd34","system_id":"levelo_inurba_marseille","lat":43.21202,"lon":5.35067,"is_reserved":false,"is_disabled":false,"rental_uris":{"android":"levelo://app?vid=d6d88029-64b8-4411-919c-483ad9a8dd34","ios":"levelo://app?vid=d6d88029-64b8-4411-919c-483ad9a8dd34"},"vehicle_type_id":"4","last_reported":1774629707,"current_range_meters":7200,"station_id":"st_cvj6sg6p6f1abm77japg","pricing_plan_id":"cebpf4jnsgd1na2vs0mg"},{"bike_id":"d20f3a4d-a975-420c-96c4-f04fb8d7192f","system_id":"levelo_inurba_marseille","lat":43.29873,"lon":5.39728,"is_reserved":false,"is_disabled":false,"rental_uris":{"android":"levelo://app?vid=d20f3a4d-a975-420c-96c4-f04fb8d7192f","ios":"levelo://app?vid=d20f3a4d-a975-420c-96c4-f04fb8d7192f"},"vehicle_type_id":"4","last_reported":1774629707,"current_range_meters":7200,"station_id":"ce4bh0h2rcd13ifvqd50","pricing_plan_id":"cebpf4jnsgd1na2vs0mg"},{"bike_id":"27cb1f5c-6d75-499a-92df-91dc1c6a35d8","system_id":"levelo_inurba_marseille","lat":43.26793,"lon":5.39424,"is_reserved":false,"is_disabled":false,"rental_uris":{"android":"levelo://app?vid=27cb1f5c-6d75-499a-92df-91dc1c6a35d8","ios":"levelo://app?vid=27cb1f5c-6d75-499a-92df-91dc1c6a35d8"},"vehicle_type_id":"4","last_reported":1774629707,"current_range_meters":7200,"station_id":"ce4bhh12rcd13ifvqfg0","pricing_plan_id":"cebpf4jnsgd1na2vs0mg"},{"bike_id":"cd9d9b00-0f0e-4b81-98a5-32faab1cebb6","system_id":"levelo_inurba_marseille","lat":43.2847,"lon":5.34894,"is_reserved":false,"is_disabled":false,"rental_uris":{"android":"levelo://app?vid=cd9d9b00-0f0e-4b81-98a5-32faab1cebb6","ios":"levelo://app?vid=cd9d9b00-0f0e-4b81-98a5-32faab1cebb6"},"vehicle_type_id":"4","last_reported":1774629707,"current_range_meters":7200,"station_id":"","pricing_plan_id":"cebpf4jnsgd1na2vs0mg"},{"bike_id":"ace30790-d9f4-4362-b049-53b5308efc6b","system_id":"levelo_inurba_marseille","lat":43.31999,"lon":5.38147,"is_reserved":false,"is_disabled":false,"rental_uris":{"android":"levelo://app?vid=ace30790-d9f4-4362-b049-53b5308efc6b","ios":"levelo://app?vid=ace30790-d9f4-4362-b049-53b5308efc6b"},"vehicle_type_id":"4","last_reported":1774629707,"current_range_meters":7200,"station_id":"ce4bhr12rcd13ifvqhpg","pricing_plan_id":"cebpf4jnsgd1na2vs0mg"},{"bike_id":"a91a1de4-5dfa-4c76-b9e6-a0ce7f6f26a8","system_id":"levelo_inurba_marseille","lat":43.28493,"lon":5.38567,"is_reserved":false,"is_disabled":false,"rental_uris":{"android":"levelo://app?vid=a91a1de4-5dfa-4c76-b9e6-a0ce7f6f26a8","ios":"levelo://app?vid=a91a1de4-5dfa-4c76-b9e6-a0ce7f6f26a8"},"vehicle_type_id":"4","last_reported":1774629707,"current_range_meters":7200,"station_id":"ce4bh8p2rcd13ifvqeb0","pricing_plan_id":"cebpf4jnsgd1na2vs0mg"},{"bike_id":"c92dda4b-e2a2-4cde-97cd-39f73b9fda99","system_id":"levelo_inurba_marseille","lat":43.30781,"lon":5.37645,"is_reserved":false,"is_disabled":false,"rental_uris":{"android":"levelo://app?vid=c92dda4b-e2a2-4cde-97cd-39f73b9fda99","ios":"levelo://app?vid=c92dda4b-e2a2-4cde-97cd-39f73b9fda99"},"vehicle_type_id":"4","last_reported":1774629707,"current_range_meters":7200,"station_id":"ce4bgv92rcd13ifvqcq0","pricing_plan_id":"cebpf4jnsgd1na2vs0mg"},{"bike_id":"ab7fd825-ef8d-408d-822b-c49a4b49450f","system_id":"levelo_inurba_marseille","lat":43.29526,"lon":5.38532,"is_reserved":false,"is_disabled":false,"rental_uris":{"android":"levelo://app?vid=ab7fd825-ef8d-408d-822b-c49a4b49450f","ios":"levelo://app?vid=ab7fd825-ef8d-408d-822b-c49a4b49450f"},"vehicle_type_id":"4","last_reported":1774629707,"current_range_meters":7200,"station_id":"ce4bgih2rcd13ifvqba0","pricing_plan_id":"cebpf4jnsgd1na2vs0mg"},{"bike_id":"e0630bd5-d252-45e8-8d79-6b11a3c25514","system_id":"levelo_inurba_marseille","lat":43.26559,"lon":5.37289,"is_reserved":false,"is_disabled":false,"rental_uris":{"android":"levelo://app?vid=e0630bd5-d252-45e8-8d79-6b11a3c25514","ios":"levelo://app?vid=e0630bd5-d252-45e8-8d79-6b11a3c25514"},"vehicle_type_id":"4","last_reported":1774629707,"current_range_meters":7200,"station_id":"ce4bhg12rcd13ifvqf70","pricing_plan_id":"cebpf4jnsgd1na2vs0mg"},{"bike_id":"3ce66bd8-d863-49c9-ab9a-31f303881080","system_id":"levelo_inurba_marseille","lat":43.23786,"lon":5.36627,"is_reserved":false,"is_disabled":false,"rental_uris":{"android":"levelo://app?vid=3ce66bd8-d863-49c9-ab9a-31f303881080","ios":"levelo://app?vid=3ce66bd8-d863-49c9-ab9a-31f303881080"},"vehicle_type_id":"4","last_reported":1774629707,"current_range_meters":7200,"station_id":"st_d3nk18o9ro0c73en2l3g","pricing_plan_id":"cebpf4jnsgd1na2vs0mg"},{"bike_id":"458e1c48-7d3d-4d80-92bd-ab71f6e61068","system_id":"levelo_inurba_marseille","lat":43.2668,"lon":5.38253,"is_reserved":false,"is_disabled":false,"rental_uris":{"android":"levelo://app?vid=458e1c48-7d3d-4d80-92bd-ab71f6e61068","ios":"levelo://app?vid=458e1c48-7d3d-4d80-92bd-ab71f6e61068"},"vehicle_type_id":"4","last_reported":1774629707,"current_range_meters":7200,"station_id":"ce4bhg92rcd13ifvqf90","pricing_plan_id":"cebpf4jnsgd1na2vs0mg"},{"bike_id":"0291cdaa-5df4-4c06-a64e-8a33d79939fd","system_id":"levelo_inurba_marseille","lat":43.24637,"lon":5.43143,"is_reserved":false,"is_disabled":false,"rental_uris":{"android":"levelo://app?vid=0291cdaa-5df4-4c06-a64e-8a33d79939fd","ios":"levelo://app?vid=0291cdaa-5df4-4c06-a64e-8a33d79939fd"},"vehicle_type_id":"4","last_reported":1774629707,"current_range_meters":7200,"station_id":"","pricing_plan_id":"cebpf4jnsgd1na2vs0mg"},{"bike_id":"40c89b7c-0234-4b01-8e1b-acc7bcb5fd68","system_id":"levelo_inurba_marseille","lat":43.2901,"lon":5.35607,"is_reserved":false,"is_disabled":false,"rental_uris":{"android":"levelo://app?vid=40c89b7c-0234-4b01-8e1b-acc7bcb5fd68","ios":"levelo://app?vid=40c89b7c-0234-4b01-8e1b-acc7bcb5fd68"},"vehicle_type_id":"4","last_reported":1774629707,"current_range_meters":7200,"station_id":"ce4bhb92rcd13ifvqen0","pricing_plan_id":"cebpf4jnsgd1na2vs0mg"},{"bike_id":"361bff30-6f65-4179-8930-4ff3d21333ec","system_id":"levelo_inurba_marseille","lat":43.27207,"lon":5.41,"is_reserved":false,"is_disabled":false,"rental_uris":{"android":"levelo://app?vid=361bff30-6f65-4179-8930-4ff3d21333ec","ios":"levelo://app?vid=361bff30-6f65-4179-8930-4ff3d21333ec"},"vehicle_type_id":"4","last_reported":1774629707,"current_range_meters":8000,"station_id":"ce4bhl12rcd13ifvqgf0","pricing_plan_id":"cebpf4jnsgd1na2vs0mg"},{"bike_id":"18a91529-06e5-4b51-b178-940cb96e7217","system_id":"levelo_inurba_marseille","lat":43.23785,"lon":5.36633,"is_reserved":false,"is_disabled":false,"rental_uris":{"android":"levelo://app?vid=18a91529-06e5-4b51-b178-940cb96e7217","ios":"levelo://app?vid=18a91529-06e5-4b51-b178-940cb96e7217"},"vehicle_type_id":"4","last_reported":1774629707,"current_range_meters":8000,"station_id":"st_d3nk18o9ro0c73en2l3g","pricing_plan_id":"cebpf4jnsgd1na2vs0mg"},{"bike_id":"ee67d274-4fbd-4321-906c-22d4e8f3bac5","system_id":"levelo_inurba_marseille","lat":43.32467,"lon":5.3658,"is_reserved":false,"is_disabled":false,"rental_uris":{"android":"levelo://app?vid=ee67d274-4fbd-4321-906c-22d4e8f3bac5","ios":"levelo://app?vid=ee67d274-4fbd-4321-906c-22d4e8f3bac5"},"vehicle_type_id":"4","last_reported":1774629707,"current_range_meters":8000,"station_id":"ce4bhs12rcd13ifvqhvg","pricing_plan_id":"cebpf4jnsgd1na2vs0mg"},{"bike_id":"e4b97950-5826-475e-8558-d2e5bcc219f8","system_id":"levelo_inurba_marseille","lat":43.29795,"lon":5.36507,"is_reserved":false,"is_disabled":false,"rental_uris":{"android":"levelo://app?vid=e4b97950-5826-475e-8558-d2e5bcc219f8","ios":"levelo://app?vid=e4b97950-5826-475e-8558-d2e5bcc219f8"},"vehicle_type_id":"4","last_reported":1774629707,"current_range_meters":8000,"station_id":"","pricing_plan_id":"cebpf4jnsgd1na2vs0mg"},{"bike_id":"e369da6f-cf9a-43c1-bdbc-66801ef116da","system_id":"levelo_inurba_marseille","lat":43.28605,"lon":5.35155,"is_reserved":false,"is_disabled":false,"rental_uris":{"android":"levelo://app?vid=e369da6f-cf9a-43c1-bdbc-66801ef116da","ios":"levelo://app?vid=e369da6f-cf9a-43c1-bdbc-66801ef116da"},"vehicle_type_id":"4","last_reported":1774629707,"current_range_meters":8000,"station_id":"ce4bhch2rcd13ifvqeug","pricing_plan_id":"cebpf4jnsgd1na2vs0mg"},{"bike_id":"fbab2f2d-05f5-4078-ae6c-ccf2c29b1e07","system_id":"levelo_inurba_marseille","lat":43.28267,"lon":5.35079,"is_reserved":false,"is_disabled":false,"rental_uris":{"android":"levelo://app?vid=fbab2f2d-05f5-4078-ae6c-ccf2c29b1e07","ios":"levelo://app?vid=fbab2f2d-05f5-4078-ae6c-ccf2c29b1e07"},"vehicle_type_id":"4","last_reported":1774629707,"current_range_meters":8000,"station_id":"ce4bhbp2rcd13ifvqerg","pricing_plan_id":"cebpf4jnsgd1na2vs0mg"},{"bike_id":"27f65587-f91a-41b1-aacf-8da5e702b79e","system_id":"levelo_inurba_marseille","lat":43.29753,"lon":5.42771,"is_reserved":false,"is_disabled":false,"rental_uris":{"android":"levelo://app?vid=27f65587-f91a-41b1-aacf-8da5e702b79e","ios":"levelo://app?vid=27f65587-f91a-41b1-aacf-8da5e702b79e"},"vehicle_type_id":"4","last_reported":1774629707,"current_range_meters":8000,"station_id":"st_d3md5207bmas73dh9klg","pricing_plan_id":"cebpf4jnsgd1na2vs0mg"},{"bike_id":"845b6cfa-5f37-43ff-bdc8-8b703e2f2ae6","system_id":"levelo_inurba_marseille","lat":43.29622,"lon":5.37713,"is_reserved":false,"is_disabled":false,"rental_uris":{"android":"levelo://app?vid=845b6cfa-5f37-43ff-bdc8-8b703e2f2ae6","ios":"levelo://app?vid=845b6cfa-5f37-43ff-bdc8-8b703e2f2ae6"},"vehicle_type_id":"4","last_reported":1774629707,"current_range_meters":8000,"station_id":"ce4bgi92rcd13ifvqb90","pricing_plan_id":"cebpf4jnsgd1na2vs0mg"},{"bike_id":"54c62f68-ba4a-4391-8278-c8003c20edca","system_id":"levelo_inurba_marseille","lat":43.31244,"lon":5.36828,"is_reserved":false,"is_disabled":false,"rental_uris":{"android":"levelo://app?vid=54c62f68-ba4a-4391-8278-c8003c20edca","ios":"levelo://app?vid=54c62f68-ba4a-4391-8278-c8003c20edca"},"vehicle_type_id":"4","last_reported":1774629707,"current_range_meters":8000,"station_id":"ce4bgl92rcd13ifvqbq0","pricing_plan_id":"cebpf4jnsgd1na2vs0mg"},{"bike_id":"d86ec90c-79ce-4f6f-b1fb-e703c529626b","system_id":"levelo_inurba_marseille","lat":43.26222,"lon":5.40451,"is_reserved":false,"is_disabled":false,"rental_uris":{"android":"levelo://app?vid=d86ec90c-79ce-4f6f-b1fb-e703c529626b","ios":"levelo://app?vid=d86ec90c-79ce-4f6f-b1fb-e703c529626b"},"vehicle_type_id":"4","last_reported":1774629707,"current_range_meters":8000,"station_id":"ce4bhmh2rcd13ifvqgmg","pricing_plan_id":"cebpf4jnsgd1na2vs0mg"},{"bike_id":"29b8f791-7789-4e9b-8e39-c750aefccf04","system_id":"levelo_inurba_marseille","lat":43.23771,"lon":5.36636,"is_reserved":false,"is_disabled":false,"rental_uris":{"android":"levelo://app?vid=29b8f791-7789-4e9b-8e39-c750aefccf04","ios":"levelo://app?vid=29b8f791-7789-4e9b-8e39-c750aefccf04"},"vehicle_type_id":"4","last_reported":1774629707,"current_range_meters":8000,"station_id":"st_d3nk18o9ro0c73en2l3g","pricing_plan_id":"cebpf4jnsgd1na2vs0mg"},{"bike_id":"dda26fe6-226c-4701-bb77-0b26c40ac4a2","system_id":"levelo_inurba_marseille","lat":43.2828,"lon":5.35086,"is_reserved":false,"is_disabled":false,"rental_uris":{"android":"levelo://app?vid=dda26fe6-226c-4701-bb77-0b26c40ac4a2","ios":"levelo://app?vid=dda26fe6-226c-4701-bb77-0b26c40ac4a2"},"vehicle_type_id":"4","last_reported":1774629707,"current_range_meters":8000,"station_id":"ce4bhbp2rcd13ifvqerg","pricing_plan_id":"cebpf4jnsgd1na2vs0mg"},{"bike_id":"a858ea89-34aa-421e-b0a5-1ea8bb4dbce1","system_id":"levelo_inurba_marseille","lat":43.29281,"lon":5.36843,"is_reserved":false,"is_disabled":false,"rental_uris":{"android":"levelo://app?vid=a858ea89-34aa-421e-b0a5-1ea8bb4dbce1","ios":"levelo://app?vid=a858ea89-34aa-421e-b0a5-1ea8bb4dbce1"},"vehicle_type_id":"4","last_reported":1774629707,"current_range_meters":8000,"station_id":"ce4bhbp2rcd13ifvqesg","pricing_plan_id":"cebpf4jnsgd1na2vs0mg"},{"bike_id":"6a73b5ce-8037-4f6e-8d1a-9311852b5f34","system_id":"levelo_inurba_marseille","lat":43.28072,"lon":5.39644,"is_reserved":false,"is_disabled":false,"rental_uris":{"android":"levelo://app?vid=6a73b5ce-8037-4f6e-8d1a-9311852b5f34","ios":"levelo://app?vid=6a73b5ce-8037-4f6e-8d1a-9311852b5f34"},"vehicle_type_id":"4","last_reported":1774629707,"current_range_meters":8000,"station_id":"ce4bho12rcd13ifvqh2g","pricing_plan_id":"cebpf4jnsgd1na2vs0mg"},{"bike_id":"17c528ca-813a-4d7a-83d4-5287f78f3c6b","system_id":"levelo_inurba_marseille","lat":43.29704,"lon":5.37705,"is_reserved":false,"is_disabled":false,"rental_uris":{"android":"levelo://app?vid=17c528ca-813a-4d7a-83d4-5287f78f3c6b","ios":"levelo://app?vid=17c528ca-813a-4d7a-83d4-5287f78f3c6b"},"vehicle_type_id":"4","last_reported":1774629707,"current_range_meters":8000,"station_id":"ce4bgkh2rcd13ifvqbl0","pricing_plan_id":"cebpf4jnsgd1na2vs0mg"},{"bike_id":"4c0af6d2-3da0-4f8b-8909-c3dabf7be31d","system_id":"levelo_inurba_marseille","lat":43.29536,"lon":5.38523,"is_reserved":false,"is_disabled":false,"rental_uris":{"android":"levelo://app?vid=4c0af6d2-3da0-4f8b-8909-c3dabf7be31d","ios":"levelo://app?vid=4c0af6d2-3da0-4f8b-8909-c3dabf7be31d"},"vehicle_type_id":"4","last_reported":1774629707,"current_range_meters":8000,"station_id":"ce4bgih2rcd13ifvqba0","pricing_plan_id":"cebpf4jnsgd1na2vs0mg"},{"bike_id":"f8c795ac-536b-4df8-970f-0dfae1b65e58","system_id":"levelo_inurba_marseille","lat":43.286,"lon":5.37064,"is_reserved":false,"is_disabled":false,"rental_uris":{"android":"levelo://app?vid=f8c795ac-536b-4df8-970f-0dfae1b65e58","ios":"levelo://app?vid=f8c795ac-536b-4df8-970f-0dfae1b65e58"},"vehicle_type_id":"4","last_reported":1774629707,"current_range_meters":8000,"station_id":"ce4bht12rcd13ifvqi60","pricing_plan_id":"cebpf4jnsgd1na2vs0mg"},{"bike_id":"5c23e0f0-3718-460a-acbf-0792e1920dc6","system_id":"levelo_inurba_marseille","lat":43.28405,"lon":5.34982,"is_reserved":false,"is_disabled":false,"rental_uris":{"android":"levelo://app?vid=5c23e0f0-3718-460a-acbf-0792e1920dc6","ios":"levelo://app?vid=5c23e0f0-3718-460a-acbf-0792e1920dc6"},"vehicle_type_id":"4","last_reported":1774629707,"current_range_meters":8000,"station_id":"ce4bhbh2rcd13ifvqepg","pricing_plan_id":"cebpf4jnsgd1na2vs0mg"},{"bike_id":"37ff992f-cc9b-4a01-8a69-f6fce5ead315","system_id":"levelo_inurba_marseille","lat":43.24167,"lon":5.36389,"is_reserved":false,"is_disabled":false,"rental_uris":{"android":"levelo://app?vid=37ff992f-cc9b-4a01-8a69-f6fce5ead315","ios":"levelo://app?vid=37ff992f-cc9b-4a01-8a69-f6fce5ead315"},"vehicle_type_id":"4","last_reported":1774629707,"current_range_meters":8000,"station_id":"cpo36qri1sfpv3e86is0","pricing_plan_id":"cebpf4jnsgd1na2vs0mg"},{"bike_id":"6671c61a-045c-4d83-b5a9-69cb797098b8","system_id":"levelo_inurba_marseille","lat":43.34396,"lon":5.35976,"is_reserved":false,"is_disabled":false,"rental_uris":{"android":"levelo://app?vid=6671c61a-045c-4d83-b5a9-69cb797098b8","ios":"levelo://app?vid=6671c61a-045c-4d83-b5a9-69cb797098b8"},"vehicle_type_id":"4","last_reported":1774629707,"current_range_meters":8000,"station_id":"","pricing_plan_id":"cebpf4jnsgd1na2vs0mg"},{"bike_id":"e6e0832c-ba80-40ad-a254-4cab56deb706","system_id":"levelo_inurba_marseille","lat":43.25834,"lon":5.39449,"is_reserved":false,"is_disabled":false,"rental_uris":{"android":"levelo://app?vid=e6e0832c-ba80-40ad-a254-4cab56deb706","ios":"levelo://app?vid=e6e0832c-ba80-40ad-a254-4cab56deb706"},"vehicle_type_id":"4","last_reported":1774629707,"current_range_meters":8400,"station_id":"ce4bhip2rcd13ifvqft0","pricing_plan_id":"cebpf4jnsgd1na2vs0mg"},{"bike_id":"2079b28e-e67c-46f2-b341-0eb57b27bb0e","system_id":"levelo_inurba_marseille","lat":43.31259,"lon":5.36804,"is_reserved":false,"is_disabled":false,"rental_uris":{"android":"levelo://app?vid=2079b28e-e67c-46f2-b341-0eb57b27bb0e","ios":"levelo://app?vid=2079b28e-e67c-46f2-b341-0eb57b27bb0e"},"vehicle_type_id":"4","last_reported":1774629707,"current_range_meters":8400,"station_id":"","pricing_plan_id":"cebpf4jnsgd1na2vs0mg"},{"bike_id":"1112f90c-9875-469b-b7a4-9ce4501838dc","system_id":"levelo_inurba_marseille","lat":43.25468,"lon":5.38199,"is_reserved":false,"is_disabled":false,"rental_uris":{"android":"levelo://app?vid=1112f90c-9875-469b-b7a4-9ce4501838dc","ios":"levelo://app?vid=1112f90c-9875-469b-b7a4-9ce4501838dc"},"vehicle_type_id":"4","last_reported":1774629707,"current_range_meters":8400,"station_id":"","pricing_plan_id":"cebpf4jnsgd1na2vs0mg"},{"bike_id":"dd2a3ad0-b827-45a8-96f0-84d2ff7e5f50","system_id":"levelo_inurba_marseille","lat":43.27661,"lon":5.38885,"is_reserved":false,"is_disabled":false,"rental_uris":{"android":"levelo://app?vid=dd2a3ad0-b827-45a8-96f0-84d2ff7e5f50","ios":"levelo://app?vid=dd2a3ad0-b827-45a8-96f0-84d2ff7e5f50"},"vehicle_type_id":"4","last_reported":1774629707,"current_range_meters":8400,"station_id":"ce4bhi12rcd13ifvqfo0","pricing_plan_id":"cebpf4jnsgd1na2vs0mg"},{"bike_id":"14c52e92-a064-4cb0-8ea6-97671dd13594","system_id":"levelo_inurba_marseille","lat":43.26197,"lon":5.3746,"is_reserved":false,"is_disabled":false,"rental_uris":{"android":"levelo://app?vid=14c52e92-a064-4cb0-8ea6-97671dd13594","ios":"levelo://app?vid=14c52e92-a064-4cb0-8ea6-97671dd13594"},"vehicle_type_id":"4","last_reported":1774629707,"current_range_meters":8400,"station_id":"ce4bhgp2rcd13ifvqfc0","pricing_plan_id":"cebpf4jnsgd1na2vs0mg"},{"bike_id":"673aa935-b85f-42d6-ad6c-7332732226d2","system_id":"levelo_inurba_marseille","lat":43.29288,"lon":5.36854,"is_reserved":false,"is_disabled":false,"rental_uris":{"android":"levelo://app?vid=673aa935-b85f-42d6-ad6c-7332732226d2","ios":"levelo://app?vid=673aa935-b85f-42d6-ad6c-7332732226d2"},"vehicle_type_id":"4","last_reported":1774629707,"current_range_meters":8400,"station_id":"ce4bhbp2rcd13ifvqesg","pricing_plan_id":"cebpf4jnsgd1na2vs0mg"},{"bike_id":"915ccf51-81c4-4a81-94b6-b9522edf5a8e","system_id":"levelo_inurba_marseille","lat":43.3269,"lon":5.4089,"is_reserved":false,"is_disabled":false,"rental_uris":{"android":"levelo://app?vid=915ccf51-81c4-4a81-94b6-b9522edf5a8e","ios":"levelo://app?vid=915ccf51-81c4-4a81-94b6-b9522edf5a8e"},"vehicle_type_id":"4","last_reported":1774629707,"current_range_meters":8400,"station_id":"","pricing_plan_id":"cebpf4jnsgd1na2vs0mg"},{"bike_id":"86723fb3-7a32-4a1d-b53a-b3b04e07fae1","system_id":"levelo_inurba_marseille","lat":43.31047,"lon":5.37144,"is_reserved":false,"is_disabled":false,"rental_uris":{"android":"levelo://app?vid=86723fb3-7a32-4a1d-b53a-b3b04e07fae1","ios":"levelo://app?vid=86723fb3-7a32-4a1d-b53a-b3b04e07fae1"},"vehicle_type_id":"4","last_reported":1774629707,"current_range_meters":8400,"station_id":"st_d4kl2rp97mjs73e7tdfg","pricing_plan_id":"cebpf4jnsgd1na2vs0mg"},{"bike_id":"073caac0-7818-4f5c-8d2f-2564c47cf9e2","system_id":"levelo_inurba_marseille","lat":43.26697,"lon":5.38257,"is_reserved":false,"is_disabled":false,"rental_uris":{"android":"levelo://app?vid=073caac0-7818-4f5c-8d2f-2564c47cf9e2","ios":"levelo://app?vid=073caac0-7818-4f5c-8d2f-2564c47cf9e2"},"vehicle_type_id":"4","last_reported":1774629707,"current_range_meters":8400,"station_id":"ce4bhg92rcd13ifvqf90","pricing_plan_id":"cebpf4jnsgd1na2vs0mg"},{"bike_id":"67632386-e7a9-4292-b475-dd81eb226bf6","system_id":"levelo_inurba_marseille","lat":43.29789,"lon":5.39341,"is_reserved":false,"is_disabled":false,"rental_uris":{"android":"levelo://app?vid=67632386-e7a9-4292-b475-dd81eb226bf6","ios":"levelo://app?vid=67632386-e7a9-4292-b475-dd81eb226bf6"},"vehicle_type_id":"4","last_reported":1774629707,"current_range_meters":8400,"station_id":"chh1huq6cuj3fo74tm60","pricing_plan_id":"cebpf4jnsgd1na2vs0mg"},{"bike_id":"b51d43d0-b538-4b30-b0d5-e5c1be881443","system_id":"levelo_inurba_marseille","lat":43.28703,"lon":5.46676,"is_reserved":false,"is_disabled":false,"rental_uris":{"android":"levelo://app?vid=b51d43d0-b538-4b30-b0d5-e5c1be881443","ios":"levelo://app?vid=b51d43d0-b538-4b30-b0d5-e5c1be881443"},"vehicle_type_id":"4","last_reported":1774629707,"current_range_meters":8400,"station_id":"st_d6tc3vkotcvc738tfjhg","pricing_plan_id":"cebpf4jnsgd1na2vs0mg"},{"bike_id":"aa6eb777-c9be-4964-beb1-ce00e8883a0c","system_id":"levelo_inurba_marseille","lat":43.30889,"lon":5.39637,"is_reserved":false,"is_disabled":true,"rental_uris":{"android":"levelo://app?vid=aa6eb777-c9be-4964-beb1-ce00e8883a0c","ios":"levelo://app?vid=aa6eb777-c9be-4964-beb1-ce00e8883a0c"},"vehicle_type_id":"4","last_reported":1774629707,"current_range_meters":8800,"station_id":"ce4bh012rcd13ifvqcv0","pricing_plan_id":"cebpf4jnsgd1na2vs0mg"},{"bike_id":"3137e3ea-7797-4cae-a237-2a996dd9ad4a","system_id":"levelo_inurba_marseille","lat":43.28472,"lon":5.48382,"is_reserved":false,"is_disabled":false,"rental_uris":{"android":"levelo://app?vid=3137e3ea-7797-4cae-a237-2a996dd9ad4a","ios":"levelo://app?vid=3137e3ea-7797-4cae-a237-2a996dd9ad4a"},"vehicle_type_id":"4","last_reported":1774629707,"current_range_meters":8800,"station_id":"","pricing_plan_id":"cebpf4jnsgd1na2vs0mg"},{"bike_id":"2873a201-01ad-44f0-a3f4-1c2939d32934","system_id":"levelo_inurba_marseille","lat":43.31544,"lon":5.38011,"is_reserved":false,"is_disabled":false,"rental_uris":{"android":"levelo://app?vid=2873a201-01ad-44f0-a3f4-1c2939d32934","ios":"levelo://app?vid=2873a201-01ad-44f0-a3f4-1c2939d32934"},"vehicle_type_id":"4","last_reported":1774629707,"current_range_meters":8800,"station_id":"ce4bhsp2rcd13ifvqi50","pricing_plan_id":"cebpf4jnsgd1na2vs0mg"},{"bike_id":"d32cdaf4-dccc-4757-9100-320132e3534c","system_id":"levelo_inurba_marseille","lat":43.286643,"lon":5.386699,"is_reserved":false,"is_disabled":false,"rental_uris":{"android":"levelo://app?vid=d32cdaf4-dccc-4757-9100-320132e3534c","ios":"levelo://app?vid=d32cdaf4-dccc-4757-9100-320132e3534c"},"vehicle_type_id":"4","last_reported":1774629707,"current_range_meters":8800,"station_id":"ce4bh492rcd13ifvqdug","pricing_plan_id":"cebpf4jnsgd1na2vs0mg"},{"bike_id":"8b44b9ba-553c-4a19-bbbe-b5eddb2ee588","system_id":"levelo_inurba_marseille","lat":43.30092,"lon":5.37659,"is_reserved":false,"is_disabled":false,"rental_uris":{"android":"levelo://app?vid=8b44b9ba-553c-4a19-bbbe-b5eddb2ee588","ios":"levelo://app?vid=8b44b9ba-553c-4a19-bbbe-b5eddb2ee588"},"vehicle_type_id":"4","last_reported":1774629707,"current_range_meters":8800,"station_id":"","pricing_plan_id":"cebpf4jnsgd1na2vs0mg"},{"bike_id":"017cc899-a510-41b6-b2c0-841cd8ab0838","system_id":"levelo_inurba_marseille","lat":43.31198,"lon":5.36928,"is_reserved":false,"is_disabled":false,"rental_uris":{"android":"levelo://app?vid=017cc899-a510-41b6-b2c0-841cd8ab0838","ios":"levelo://app?vid=017cc899-a510-41b6-b2c0-841cd8ab0838"},"vehicle_type_id":"4","last_reported":1774629707,"current_range_meters":8800,"station_id":"","pricing_plan_id":"cebpf4jnsgd1na2vs0mg"},{"bike_id":"1d10ae31-41d3-4f56-832d-25dcc23d68d4","system_id":"levelo_inurba_marseille","lat":43.29534,"lon":5.39407,"is_reserved":false,"is_disabled":false,"rental_uris":{"android":"levelo://app?vid=1d10ae31-41d3-4f56-832d-25dcc23d68d4","ios":"levelo://app?vid=1d10ae31-41d3-4f56-832d-25dcc23d68d4"},"vehicle_type_id":"4","last_reported":1774629707,"current_range_meters":8800,"station_id":"ce4bh292rcd13ifvqdf0","pricing_plan_id":"cebpf4jnsgd1na2vs0mg"},{"bike_id":"e9011982-58e3-4839-a122-3544648d155b","system_id":"levelo_inurba_marseille","lat":43.30423,"lon":5.39748,"is_reserved":false,"is_disabled":false,"rental_uris":{"android":"levelo://app?vid=e9011982-58e3-4839-a122-3544648d155b","ios":"levelo://app?vid=e9011982-58e3-4839-a122-3544648d155b"},"vehicle_type_id":"4","last_reported":1774629707,"current_range_meters":8800,"station_id":"ce4bh092rcd13ifvqd20","pricing_plan_id":"cebpf4jnsgd1na2vs0mg"},{"bike_id":"6d1dd35d-1ce3-4297-9706-721b82716928","system_id":"levelo_inurba_marseille","lat":43.23789,"lon":5.36628,"is_reserved":false,"is_disabled":false,"rental_uris":{"android":"levelo://app?vid=6d1dd35d-1ce3-4297-9706-721b82716928","ios":"levelo://app?vid=6d1dd35d-1ce3-4297-9706-721b82716928"},"vehicle_type_id":"4","last_reported":1774629707,"current_range_meters":8800,"station_id":"st_d3nk18o9ro0c73en2l3g","pricing_plan_id":"cebpf4jnsgd1na2vs0mg"},{"bike_id":"d6acb52f-be73-46f9-b093-effcccb373b6","system_id":"levelo_inurba_marseille","lat":43.26546,"lon":5.37297,"is_reserved":false,"is_disabled":false,"rental_uris":{"android":"levelo://app?vid=d6acb52f-be73-46f9-b093-effcccb373b6","ios":"levelo://app?vid=d6acb52f-be73-46f9-b093-effcccb373b6"},"vehicle_type_id":"4","last_reported":1774629707,"current_range_meters":8800,"station_id":"ce4bhg12rcd13ifvqf70","pricing_plan_id":"cebpf4jnsgd1na2vs0mg"},{"bike_id":"dd21cd2f-ab57-4cd4-a438-b1fa2bdb0a92","system_id":"levelo_inurba_marseille","lat":43.3124,"lon":5.36851,"is_reserved":false,"is_disabled":false,"rental_uris":{"android":"levelo://app?vid=dd21cd2f-ab57-4cd4-a438-b1fa2bdb0a92","ios":"levelo://app?vid=dd21cd2f-ab57-4cd4-a438-b1fa2bdb0a92"},"vehicle_type_id":"4","last_reported":1774629707,"current_range_meters":8800,"station_id":"ce4bgl92rcd13ifvqbq0","pricing_plan_id":"cebpf4jnsgd1na2vs0mg"},{"bike_id":"8fe4b1f4-9080-46b9-85a2-ce71bc022ee8","system_id":"levelo_inurba_marseille","lat":43.25106,"lon":5.40333,"is_reserved":false,"is_disabled":false,"rental_uris":{"android":"levelo://app?vid=8fe4b1f4-9080-46b9-85a2-ce71bc022ee8","ios":"levelo://app?vid=8fe4b1f4-9080-46b9-85a2-ce71bc022ee8"},"vehicle_type_id":"4","last_reported":1774629707,"current_range_meters":8800,"station_id":"ce4bhlh2rcd13ifvqgig","pricing_plan_id":"cebpf4jnsgd1na2vs0mg"},{"bike_id":"30e88e0e-470b-46c9-8ebc-1994865cdbf4","system_id":"levelo_inurba_marseille","lat":43.26225,"lon":5.40462,"is_reserved":false,"is_disabled":false,"rental_uris":{"android":"levelo://app?vid=30e88e0e-470b-46c9-8ebc-1994865cdbf4","ios":"levelo://app?vid=30e88e0e-470b-46c9-8ebc-1994865cdbf4"},"vehicle_type_id":"4","last_reported":1774629707,"current_range_meters":8800,"station_id":"ce4bhmh2rcd13ifvqgmg","pricing_plan_id":"cebpf4jnsgd1na2vs0mg"},{"bike_id":"7f5f4a35-fda4-4a33-b7ae-332aa08e4387","system_id":"levelo_inurba_marseille","lat":43.29755,"lon":5.42787,"is_reserved":false,"is_disabled":false,"rental_uris":{"android":"levelo://app?vid=7f5f4a35-fda4-4a33-b7ae-332aa08e4387","ios":"levelo://app?vid=7f5f4a35-fda4-4a33-b7ae-332aa08e4387"},"vehicle_type_id":"4","last_reported":1774629707,"current_range_meters":8800,"station_id":"st_d3md5207bmas73dh9klg","pricing_plan_id":"cebpf4jnsgd1na2vs0mg"},{"bike_id":"aafcee39-2aef-4ad2-a7ed-48ca03369385","system_id":"levelo_inurba_marseille","lat":43.24394,"lon":5.37048,"is_reserved":false,"is_disabled":false,"rental_uris":{"android":"levelo://app?vid=aafcee39-2aef-4ad2-a7ed-48ca03369385","ios":"levelo://app?vid=aafcee39-2aef-4ad2-a7ed-48ca03369385"},"vehicle_type_id":"4","last_reported":1774629707,"current_range_meters":8800,"station_id":"ce4bhhh2rcd13ifvqfk0","pricing_plan_id":"cebpf4jnsgd1na2vs0mg"},{"bike_id":"9c448445-1c60-4520-a1cb-98a7a7992b90","system_id":"levelo_inurba_marseille","lat":43.28477,"lon":5.48405,"is_reserved":false,"is_disabled":false,"rental_uris":{"android":"levelo://app?vid=9c448445-1c60-4520-a1cb-98a7a7992b90","ios":"levelo://app?vid=9c448445-1c60-4520-a1cb-98a7a7992b90"},"vehicle_type_id":"4","last_reported":1774629707,"current_range_meters":8800,"station_id":"","pricing_plan_id":"cebpf4jnsgd1na2vs0mg"},{"bike_id":"2d095ec1-44b8-4164-a185-0a73881873fc","system_id":"levelo_inurba_marseille","lat":43.31214,"lon":5.36856,"is_reserved":false,"is_disabled":false,"rental_uris":{"android":"levelo://app?vid=2d095ec1-44b8-4164-a185-0a73881873fc","ios":"levelo://app?vid=2d095ec1-44b8-4164-a185-0a73881873fc"},"vehicle_type_id":"4","last_reported":1774629707,"current_range_meters":8800,"station_id":"ce4bgl92rcd13ifvqbq0","pricing_plan_id":"cebpf4jnsgd1na2vs0mg"},{"bike_id":"4c89b9ce-52ed-4fac-8617-1a28e06018e5","system_id":"levelo_inurba_marseille","lat":43.24798,"lon":5.37446,"is_reserved":false,"is_disabled":false,"rental_uris":{"android":"levelo://app?vid=4c89b9ce-52ed-4fac-8617-1a28e06018e5","ios":"levelo://app?vid=4c89b9ce-52ed-4fac-8617-1a28e06018e5"},"vehicle_type_id":"4","last_reported":1774629707,"current_range_meters":8800,"station_id":"ce4bhgh2rcd13ifvqfb0","pricing_plan_id":"cebpf4jnsgd1na2vs0mg"},{"bike_id":"56c9867f-19cb-4a74-abcd-02a14f65f0aa","system_id":"levelo_inurba_marseille","lat":43.26521,"lon":5.39557,"is_reserved":false,"is_disabled":false,"rental_uris":{"android":"levelo://app?vid=56c9867f-19cb-4a74-abcd-02a14f65f0aa","ios":"levelo://app?vid=56c9867f-19cb-4a74-abcd-02a14f65f0aa"},"vehicle_type_id":"4","last_reported":1774629707,"current_range_meters":9200,"station_id":"ce4bhi12rcd13ifvqfq0","pricing_plan_id":"cebpf4jnsgd1na2vs0mg"},{"bike_id":"13758e40-3343-4461-81bb-b6a3001d9426","system_id":"levelo_inurba_marseille","lat":43.32472,"lon":5.36551,"is_reserved":false,"is_disabled":false,"rental_uris":{"android":"levelo://app?vid=13758e40-3343-4461-81bb-b6a3001d9426","ios":"levelo://app?vid=13758e40-3343-4461-81bb-b6a3001d9426"},"vehicle_type_id":"4","last_reported":1774629707,"current_range_meters":9200,"station_id":"ce4bhs12rcd13ifvqhvg","pricing_plan_id":"cebpf4jnsgd1na2vs0mg"},{"bike_id":"3629b600-0973-43f7-911e-b3eb2f49b025","system_id":"levelo_inurba_marseille","lat":43.33541,"lon":5.37469,"is_reserved":false,"is_disabled":false,"rental_uris":{"android":"levelo://app?vid=3629b600-0973-43f7-911e-b3eb2f49b025","ios":"levelo://app?vid=3629b600-0973-43f7-911e-b3eb2f49b025"},"vehicle_type_id":"4","last_reported":1774629707,"current_range_meters":9200,"station_id":"st_d46tts09ee8s73dlu43g","pricing_plan_id":"cebpf4jnsgd1na2vs0mg"},{"bike_id":"c5412bb6-bec7-4456-bdb3-6b87df0ff39f","system_id":"levelo_inurba_marseille","lat":43.31211,"lon":5.36815,"is_reserved":false,"is_disabled":false,"rental_uris":{"android":"levelo://app?vid=c5412bb6-bec7-4456-bdb3-6b87df0ff39f","ios":"levelo://app?vid=c5412bb6-bec7-4456-bdb3-6b87df0ff39f"},"vehicle_type_id":"4","last_reported":1774629707,"current_range_meters":9200,"station_id":"ce4bgl92rcd13ifvqbq0","pricing_plan_id":"cebpf4jnsgd1na2vs0mg"},{"bike_id":"23c9dcfe-7dab-4c87-96ea-1494e0f9cf49","system_id":"levelo_inurba_marseille","lat":43.29627,"lon":5.37167,"is_reserved":false,"is_disabled":false,"rental_uris":{"android":"levelo://app?vid=23c9dcfe-7dab-4c87-96ea-1494e0f9cf49","ios":"levelo://app?vid=23c9dcfe-7dab-4c87-96ea-1494e0f9cf49"},"vehicle_type_id":"4","last_reported":1774629707,"current_range_meters":9200,"station_id":"ce4bgnh2rcd13ifvqc0g","pricing_plan_id":"cebpf4jnsgd1na2vs0mg"},{"bike_id":"7d38c45a-0011-4d05-9bbf-54b7323ff394","system_id":"levelo_inurba_marseille","lat":43.26366,"lon":5.41079,"is_reserved":false,"is_disabled":false,"rental_uris":{"android":"levelo://app?vid=7d38c45a-0011-4d05-9bbf-54b7323ff394","ios":"levelo://app?vid=7d38c45a-0011-4d05-9bbf-54b7323ff394"},"vehicle_type_id":"4","last_reported":1774629707,"current_range_meters":9200,"station_id":"st_d4e5ca6na9uc73bfl5fg","pricing_plan_id":"cebpf4jnsgd1na2vs0mg"},{"bike_id":"a36b32fe-3c3c-4e8e-bdc5-ac9d34714bd2","system_id":"levelo_inurba_marseille","lat":43.29883,"lon":5.42098,"is_reserved":false,"is_disabled":false,"rental_uris":{"android":"levelo://app?vid=a36b32fe-3c3c-4e8e-bdc5-ac9d34714bd2","ios":"levelo://app?vid=a36b32fe-3c3c-4e8e-bdc5-ac9d34714bd2"},"vehicle_type_id":"4","last_reported":1774629707,"current_range_meters":9200,"station_id":"st_d6tc004otcvc738tfe70","pricing_plan_id":"cebpf4jnsgd1na2vs0mg"},{"bike_id":"e4b8931c-03ca-41c7-bb73-d8e8fdaf8d69","system_id":"levelo_inurba_marseille","lat":43.25578,"lon":5.38248,"is_reserved":false,"is_disabled":false,"rental_uris":{"android":"levelo://app?vid=e4b8931c-03ca-41c7-bb73-d8e8fdaf8d69","ios":"levelo://app?vid=e4b8931c-03ca-41c7-bb73-d8e8fdaf8d69"},"vehicle_type_id":"4","last_reported":1774629707,"current_range_meters":9200,"station_id":"ce4bhih2rcd13ifvqfs0","pricing_plan_id":"cebpf4jnsgd1na2vs0mg"},{"bike_id":"30802dd7-0245-43a0-a603-ba7db55d0a05","system_id":"levelo_inurba_marseille","lat":43.29545,"lon":5.42245,"is_reserved":false,"is_disabled":false,"rental_uris":{"android":"levelo://app?vid=30802dd7-0245-43a0-a603-ba7db55d0a05","ios":"levelo://app?vid=30802dd7-0245-43a0-a603-ba7db55d0a05"},"vehicle_type_id":"4","last_reported":1774629707,"current_range_meters":9200,"station_id":"ce4bhph2rcd13ifvqhdg","pricing_plan_id":"cebpf4jnsgd1na2vs0mg"},{"bike_id":"6d106594-19d4-410a-8438-74af7bf89a11","system_id":"levelo_inurba_marseille","lat":43.28401,"lon":5.34992,"is_reserved":false,"is_disabled":false,"rental_uris":{"android":"levelo://app?vid=6d106594-19d4-410a-8438-74af7bf89a11","ios":"levelo://app?vid=6d106594-19d4-410a-8438-74af7bf89a11"},"vehicle_type_id":"4","last_reported":1774629707,"current_range_meters":9200,"station_id":"ce4bhbh2rcd13ifvqepg","pricing_plan_id":"cebpf4jnsgd1na2vs0mg"},{"bike_id":"93882759-032c-4711-99f8-9cac080b3dd4","system_id":"levelo_inurba_marseille","lat":43.23794,"lon":5.36639,"is_reserved":false,"is_disabled":false,"rental_uris":{"android":"levelo://app?vid=93882759-032c-4711-99f8-9cac080b3dd4","ios":"levelo://app?vid=93882759-032c-4711-99f8-9cac080b3dd4"},"vehicle_type_id":"4","last_reported":1774629707,"current_range_meters":9200,"station_id":"st_d3nk18o9ro0c73en2l3g","pricing_plan_id":"cebpf4jnsgd1na2vs0mg"},{"bike_id":"2d5262be-582c-4d87-a7a2-b4c3f4ed4d38","system_id":"levelo_inurba_marseille","lat":43.22564,"lon":5.4162,"is_reserved":false,"is_disabled":false,"rental_uris":{"android":"levelo://app?vid=2d5262be-582c-4d87-a7a2-b4c3f4ed4d38","ios":"levelo://app?vid=2d5262be-582c-4d87-a7a2-b4c3f4ed4d38"},"vehicle_type_id":"4","last_reported":1774629707,"current_range_meters":9200,"station_id":"st_d2o4gvlbi1j2169b742g","pricing_plan_id":"cebpf4jnsgd1na2vs0mg"},{"bike_id":"e217aae5-66aa-4c70-ac1b-23c8c339d49f","system_id":"levelo_inurba_marseille","lat":43.29963,"lon":5.38495,"is_reserved":false,"is_disabled":false,"rental_uris":{"android":"levelo://app?vid=e217aae5-66aa-4c70-ac1b-23c8c339d49f","ios":"levelo://app?vid=e217aae5-66aa-4c70-ac1b-23c8c339d49f"},"vehicle_type_id":"4","last_reported":1774629707,"current_range_meters":9200,"station_id":"ce4bgj92rcd13ifvqbd0","pricing_plan_id":"cebpf4jnsgd1na2vs0mg"},{"bike_id":"3889ba79-5854-4767-b748-26fbc1c0cdae","system_id":"levelo_inurba_marseille","lat":43.27423,"lon":5.39417,"is_reserved":false,"is_disabled":false,"rental_uris":{"android":"levelo://app?vid=3889ba79-5854-4767-b748-26fbc1c0cdae","ios":"levelo://app?vid=3889ba79-5854-4767-b748-26fbc1c0cdae"},"vehicle_type_id":"4","last_reported":1774629707,"current_range_meters":9200,"station_id":"ce4bhdp2rcd13ifvqf20","pricing_plan_id":"cebpf4jnsgd1na2vs0mg"},{"bike_id":"6afe5c93-1e0e-40e8-b920-5368471ec0c5","system_id":"levelo_inurba_marseille","lat":43.26676,"lon":5.38265,"is_reserved":false,"is_disabled":false,"rental_uris":{"android":"levelo://app?vid=6afe5c93-1e0e-40e8-b920-5368471ec0c5","ios":"levelo://app?vid=6afe5c93-1e0e-40e8-b920-5368471ec0c5"},"vehicle_type_id":"4","last_reported":1774629707,"current_range_meters":9200,"station_id":"ce4bhg92rcd13ifvqf90","pricing_plan_id":"cebpf4jnsgd1na2vs0mg"},{"bike_id":"7eae52f0-6298-41bb-b15d-6a62ccfa51ec","system_id":"levelo_inurba_marseille","lat":43.2648,"lon":5.39549,"is_reserved":false,"is_disabled":false,"rental_uris":{"android":"levelo://app?vid=7eae52f0-6298-41bb-b15d-6a62ccfa51ec","ios":"levelo://app?vid=7eae52f0-6298-41bb-b15d-6a62ccfa51ec"},"vehicle_type_id":"4","last_reported":1774629707,"current_range_meters":9200,"station_id":"ce4bhi12rcd13ifvqfq0","pricing_plan_id":"cebpf4jnsgd1na2vs0mg"},{"bike_id":"f1f52da2-2a90-4056-a614-e4abc5daae5c","system_id":"levelo_inurba_marseille","lat":43.26374,"lon":5.41093,"is_reserved":false,"is_disabled":false,"rental_uris":{"android":"levelo://app?vid=f1f52da2-2a90-4056-a614-e4abc5daae5c","ios":"levelo://app?vid=f1f52da2-2a90-4056-a614-e4abc5daae5c"},"vehicle_type_id":"4","last_reported":1774629707,"current_range_meters":9200,"station_id":"st_d4e5ca6na9uc73bfl5fg","pricing_plan_id":"cebpf4jnsgd1na2vs0mg"},{"bike_id":"19ee7a8e-c2bd-4cbe-a754-980250837634","system_id":"levelo_inurba_marseille","lat":43.29525,"lon":5.39037,"is_reserved":false,"is_disabled":false,"rental_uris":{"android":"levelo://app?vid=19ee7a8e-c2bd-4cbe-a754-980250837634","ios":"levelo://app?vid=19ee7a8e-c2bd-4cbe-a754-980250837634"},"vehicle_type_id":"4","last_reported":1774629707,"current_range_meters":9200,"station_id":"ce4bh3p2rcd13ifvqdp0","pricing_plan_id":"cebpf4jnsgd1na2vs0mg"},{"bike_id":"5b64cbde-85f9-45ea-a550-7936d60a07b1","system_id":"levelo_inurba_marseille","lat":43.28406,"lon":5.37506,"is_reserved":false,"is_disabled":false,"rental_uris":{"android":"levelo://app?vid=5b64cbde-85f9-45ea-a550-7936d60a07b1","ios":"levelo://app?vid=5b64cbde-85f9-45ea-a550-7936d60a07b1"},"vehicle_type_id":"4","last_reported":1774629707,"current_range_meters":9200,"station_id":"ce4bh412rcd13ifvqds0","pricing_plan_id":"cebpf4jnsgd1na2vs0mg"},{"bike_id":"d8339f53-02e8-49f5-a76c-ff6aecad45e0","system_id":"levelo_inurba_marseille","lat":43.29267,"lon":5.38427,"is_reserved":false,"is_disabled":false,"rental_uris":{"android":"levelo://app?vid=d8339f53-02e8-49f5-a76c-ff6aecad45e0","ios":"levelo://app?vid=d8339f53-02e8-49f5-a76c-ff6aecad45e0"},"vehicle_type_id":"4","last_reported":1774629707,"current_range_meters":9200,"station_id":"ce4bh692rcd13ifvqea0","pricing_plan_id":"cebpf4jnsgd1na2vs0mg"},{"bike_id":"988fa466-b526-471d-8030-15aae034cebe","system_id":"levelo_inurba_marseille","lat":43.28083,"lon":5.39642,"is_reserved":false,"is_disabled":false,"rental_uris":{"android":"levelo://app?vid=988fa466-b526-471d-8030-15aae034cebe","ios":"levelo://app?vid=988fa466-b526-471d-8030-15aae034cebe"},"vehicle_type_id":"4","last_reported":1774629707,"current_range_meters":9200,"station_id":"ce4bho12rcd13ifvqh2g","pricing_plan_id":"cebpf4jnsgd1na2vs0mg"},{"bike_id":"a0e1fe6f-1b0c-4b69-b699-3f3295a2fce0","system_id":"levelo_inurba_marseille","lat":43.28406,"lon":5.34977,"is_reserved":false,"is_disabled":false,"rental_uris":{"android":"levelo://app?vid=a0e1fe6f-1b0c-4b69-b699-3f3295a2fce0","ios":"levelo://app?vid=a0e1fe6f-1b0c-4b69-b699-3f3295a2fce0"},"vehicle_type_id":"4","last_reported":1774629707,"current_range_meters":9600,"station_id":"ce4bhbh2rcd13ifvqepg","pricing_plan_id":"cebpf4jnsgd1na2vs0mg"},{"bike_id":"ac1a9d6c-17a0-4e01-9607-d886e691e83d","system_id":"levelo_inurba_marseille","lat":43.24387,"lon":5.37136,"is_reserved":false,"is_disabled":false,"rental_uris":{"android":"levelo://app?vid=ac1a9d6c-17a0-4e01-9607-d886e691e83d","ios":"levelo://app?vid=ac1a9d6c-17a0-4e01-9607-d886e691e83d"},"vehicle_type_id":"4","last_reported":1774629707,"current_range_meters":9600,"station_id":"ce4bhhh2rcd13ifvqfk0","pricing_plan_id":"cebpf4jnsgd1na2vs0mg"},{"bike_id":"edac6523-df16-47dc-adeb-975cdf805ce1","system_id":"levelo_inurba_marseille","lat":43.26576,"lon":5.39037,"is_reserved":false,"is_disabled":false,"rental_uris":{"android":"levelo://app?vid=edac6523-df16-47dc-adeb-975cdf805ce1","ios":"levelo://app?vid=edac6523-df16-47dc-adeb-975cdf805ce1"},"vehicle_type_id":"4","last_reported":1774629707,"current_range_meters":9600,"station_id":"ce4bhe12rcd13ifvqf30","pricing_plan_id":"cebpf4jnsgd1na2vs0mg"},{"bike_id":"b4f7f0b9-7d56-42ad-a631-1e0eab6073dc","system_id":"levelo_inurba_marseille","lat":43.30506,"lon":5.3659,"is_reserved":false,"is_disabled":false,"rental_uris":{"android":"levelo://app?vid=b4f7f0b9-7d56-42ad-a631-1e0eab6073dc","ios":"levelo://app?vid=b4f7f0b9-7d56-42ad-a631-1e0eab6073dc"},"vehicle_type_id":"4","last_reported":1774629707,"current_range_meters":9600,"station_id":"ce4bgs12rcd13ifvqcag","pricing_plan_id":"cebpf4jnsgd1na2vs0mg"},{"bike_id":"d08864b9-9954-4d2f-bff9-61a648507e6c","system_id":"levelo_inurba_marseille","lat":43.29253,"lon":5.37621,"is_reserved":false,"is_disabled":false,"rental_uris":{"android":"levelo://app?vid=d08864b9-9954-4d2f-bff9-61a648507e6c","ios":"levelo://app?vid=d08864b9-9954-4d2f-bff9-61a648507e6c"},"vehicle_type_id":"4","last_reported":1774629707,"current_range_meters":9600,"station_id":"ce4bgi12rcd13ifvqb80","pricing_plan_id":"cebpf4jnsgd1na2vs0mg"},{"bike_id":"ccae95a5-965a-472f-8138-32ecadf6ef35","system_id":"levelo_inurba_marseille","lat":43.25344,"lon":5.4218,"is_reserved":false,"is_disabled":false,"rental_uris":{"android":"levelo://app?vid=ccae95a5-965a-472f-8138-32ecadf6ef35","ios":"levelo://app?vid=ccae95a5-965a-472f-8138-32ecadf6ef35"},"vehicle_type_id":"4","last_reported":1774629707,"current_range_meters":9600,"station_id":"st_d2m65c5bi1j21697t3ng","pricing_plan_id":"cebpf4jnsgd1na2vs0mg"},{"bike_id":"b74978cb-5b51-4041-8c1c-97c8f4ca71d2","system_id":"levelo_inurba_marseille","lat":43.3118,"lon":5.4063,"is_reserved":false,"is_disabled":false,"rental_uris":{"android":"levelo://app?vid=b74978cb-5b51-4041-8c1c-97c8f4ca71d2","ios":"levelo://app?vid=b74978cb-5b51-4041-8c1c-97c8f4ca71d2"},"vehicle_type_id":"4","last_reported":1774629707,"current_range_meters":9600,"station_id":"","pricing_plan_id":"cebpf4jnsgd1na2vs0mg"},{"bike_id":"ce1bdeaa-56b6-4545-9156-0dd186faf928","system_id":"levelo_inurba_marseille","lat":43.29212,"lon":5.36082,"is_reserved":false,"is_disabled":false,"rental_uris":{"android":"levelo://app?vid=ce1bdeaa-56b6-4545-9156-0dd186faf928","ios":"levelo://app?vid=ce1bdeaa-56b6-4545-9156-0dd186faf928"},"vehicle_type_id":"4","last_reported":1774629707,"current_range_meters":9600,"station_id":"ce4bhbh2rcd13ifvqeqg","pricing_plan_id":"cebpf4jnsgd1na2vs0mg"},{"bike_id":"28483bf5-dea0-476c-af06-fd95f4e48f8f","system_id":"levelo_inurba_marseille","lat":43.33475,"lon":5.36369,"is_reserved":false,"is_disabled":false,"rental_uris":{"android":"levelo://app?vid=28483bf5-dea0-476c-af06-fd95f4e48f8f","ios":"levelo://app?vid=28483bf5-dea0-476c-af06-fd95f4e48f8f"},"vehicle_type_id":"4","last_reported":1774629707,"current_range_meters":9600,"station_id":"","pricing_plan_id":"cebpf4jnsgd1na2vs0mg"},{"bike_id":"5afc8403-6d30-4cf0-9969-def159c6d031","system_id":"levelo_inurba_marseille","lat":43.24382,"lon":5.37055,"is_reserved":false,"is_disabled":false,"rental_uris":{"android":"levelo://app?vid=5afc8403-6d30-4cf0-9969-def159c6d031","ios":"levelo://app?vid=5afc8403-6d30-4cf0-9969-def159c6d031"},"vehicle_type_id":"4","last_reported":1774629707,"current_range_meters":9600,"station_id":"ce4bhhh2rcd13ifvqfk0","pricing_plan_id":"cebpf4jnsgd1na2vs0mg"},{"bike_id":"3dacdbba-8b09-48e9-891d-3121ba2b3092","system_id":"levelo_inurba_marseille","lat":43.29769,"lon":5.38111,"is_reserved":false,"is_disabled":false,"rental_uris":{"android":"levelo://app?vid=3dacdbba-8b09-48e9-891d-3121ba2b3092","ios":"levelo://app?vid=3dacdbba-8b09-48e9-891d-3121ba2b3092"},"vehicle_type_id":"4","last_reported":1774629707,"current_range_meters":9600,"station_id":"ce4bgip2rcd13ifvqbb0","pricing_plan_id":"cebpf4jnsgd1na2vs0mg"},{"bike_id":"a40d72b2-2bcf-493e-95a3-5d51f9f17551","system_id":"levelo_inurba_marseille","lat":43.26202,"lon":5.37451,"is_reserved":false,"is_disabled":false,"rental_uris":{"android":"levelo://app?vid=a40d72b2-2bcf-493e-95a3-5d51f9f17551","ios":"levelo://app?vid=a40d72b2-2bcf-493e-95a3-5d51f9f17551"},"vehicle_type_id":"4","last_reported":1774629707,"current_range_meters":9600,"station_id":"ce4bhgp2rcd13ifvqfc0","pricing_plan_id":"cebpf4jnsgd1na2vs0mg"},{"bike_id":"a99f2801-8db6-4cdf-9a7d-d69aad21d240","system_id":"levelo_inurba_marseille","lat":43.25109,"lon":5.39533,"is_reserved":false,"is_disabled":false,"rental_uris":{"android":"levelo://app?vid=a99f2801-8db6-4cdf-9a7d-d69aad21d240","ios":"levelo://app?vid=a99f2801-8db6-4cdf-9a7d-d69aad21d240"},"vehicle_type_id":"4","last_reported":1774629707,"current_range_meters":9600,"station_id":"ce4bhm12rcd13ifvqgkg","pricing_plan_id":"cebpf4jnsgd1na2vs0mg"},{"bike_id":"83b91f71-8b6a-4561-b7ca-e4f10bb86d6f","system_id":"levelo_inurba_marseille","lat":43.26223,"lon":5.40438,"is_reserved":false,"is_disabled":false,"rental_uris":{"android":"levelo://app?vid=83b91f71-8b6a-4561-b7ca-e4f10bb86d6f","ios":"levelo://app?vid=83b91f71-8b6a-4561-b7ca-e4f10bb86d6f"},"vehicle_type_id":"4","last_reported":1774629707,"current_range_meters":9600,"station_id":"ce4bhmh2rcd13ifvqgmg","pricing_plan_id":"cebpf4jnsgd1na2vs0mg"},{"bike_id":"c7af05b3-4ddb-499c-ae8b-c6fd8683ba94","system_id":"levelo_inurba_marseille","lat":43.29558,"lon":5.38353,"is_reserved":false,"is_disabled":false,"rental_uris":{"android":"levelo://app?vid=c7af05b3-4ddb-499c-ae8b-c6fd8683ba94","ios":"levelo://app?vid=c7af05b3-4ddb-499c-ae8b-c6fd8683ba94"},"vehicle_type_id":"4","last_reported":1774629707,"current_range_meters":9600,"station_id":"","pricing_plan_id":"cebpf4jnsgd1na2vs0mg"},{"bike_id":"fa1cf32b-219e-482f-8f48-62ab358ef348","system_id":"levelo_inurba_marseille","lat":43.284,"lon":5.3498,"is_reserved":false,"is_disabled":false,"rental_uris":{"android":"levelo://app?vid=fa1cf32b-219e-482f-8f48-62ab358ef348","ios":"levelo://app?vid=fa1cf32b-219e-482f-8f48-62ab358ef348"},"vehicle_type_id":"4","last_reported":1774629707,"current_range_meters":9600,"station_id":"ce4bhbh2rcd13ifvqepg","pricing_plan_id":"cebpf4jnsgd1na2vs0mg"},{"bike_id":"8226a0cc-4997-42c2-a99d-916a1ce77e0d","system_id":"levelo_inurba_marseille","lat":43.28274,"lon":5.35071,"is_reserved":false,"is_disabled":false,"rental_uris":{"android":"levelo://app?vid=8226a0cc-4997-42c2-a99d-916a1ce77e0d","ios":"levelo://app?vid=8226a0cc-4997-42c2-a99d-916a1ce77e0d"},"vehicle_type_id":"4","last_reported":1774629707,"current_range_meters":9600,"station_id":"ce4bhbp2rcd13ifvqerg","pricing_plan_id":"cebpf4jnsgd1na2vs0mg"},{"bike_id":"2f019591-3087-43f0-affb-e2eede13213e","system_id":"levelo_inurba_marseille","lat":43.24211,"lon":5.36636,"is_reserved":false,"is_disabled":false,"rental_uris":{"android":"levelo://app?vid=2f019591-3087-43f0-affb-e2eede13213e","ios":"levelo://app?vid=2f019591-3087-43f0-affb-e2eede13213e"},"vehicle_type_id":"4","last_reported":1774629707,"current_range_meters":10000,"station_id":"","pricing_plan_id":"cebpf4jnsgd1na2vs0mg"},{"bike_id":"899c9f36-9b83-4ce9-bd7d-0f95dd541b6a","system_id":"levelo_inurba_marseille","lat":43.32348,"lon":5.36732,"is_reserved":false,"is_disabled":false,"rental_uris":{"android":"levelo://app?vid=899c9f36-9b83-4ce9-bd7d-0f95dd541b6a","ios":"levelo://app?vid=899c9f36-9b83-4ce9-bd7d-0f95dd541b6a"},"vehicle_type_id":"4","last_reported":1774629707,"current_range_meters":10000,"station_id":"ce4bhsh2rcd13ifvqi2g","pricing_plan_id":"cebpf4jnsgd1na2vs0mg"},{"bike_id":"caa40ff2-b246-4ba6-9175-eb87c7febebb","system_id":"levelo_inurba_marseille","lat":43.24805,"lon":5.37457,"is_reserved":false,"is_disabled":false,"rental_uris":{"android":"levelo://app?vid=caa40ff2-b246-4ba6-9175-eb87c7febebb","ios":"levelo://app?vid=caa40ff2-b246-4ba6-9175-eb87c7febebb"},"vehicle_type_id":"4","last_reported":1774629707,"current_range_meters":10000,"station_id":"ce4bhgh2rcd13ifvqfb0","pricing_plan_id":"cebpf4jnsgd1na2vs0mg"},{"bike_id":"5fe74f15-0537-42bd-9096-9be1af18d63e","system_id":"levelo_inurba_marseille","lat":43.29008,"lon":5.35604,"is_reserved":false,"is_disabled":false,"rental_uris":{"android":"levelo://app?vid=5fe74f15-0537-42bd-9096-9be1af18d63e","ios":"levelo://app?vid=5fe74f15-0537-42bd-9096-9be1af18d63e"},"vehicle_type_id":"4","last_reported":1774629707,"current_range_meters":10000,"station_id":"ce4bhb92rcd13ifvqen0","pricing_plan_id":"cebpf4jnsgd1na2vs0mg"},{"bike_id":"b763695a-1f10-4560-8ac2-61dccf3a0596","system_id":"levelo_inurba_marseille","lat":43.29529,"lon":5.38546,"is_reserved":false,"is_disabled":false,"rental_uris":{"android":"levelo://app?vid=b763695a-1f10-4560-8ac2-61dccf3a0596","ios":"levelo://app?vid=b763695a-1f10-4560-8ac2-61dccf3a0596"},"vehicle_type_id":"4","last_reported":1774629707,"current_range_meters":10000,"station_id":"ce4bgih2rcd13ifvqba0","pricing_plan_id":"cebpf4jnsgd1na2vs0mg"},{"bike_id":"d3870d66-4498-4a51-aad7-38665e2fec09","system_id":"levelo_inurba_marseille","lat":43.313232,"lon":5.396964,"is_reserved":false,"is_disabled":false,"rental_uris":{"android":"levelo://app?vid=d3870d66-4498-4a51-aad7-38665e2fec09","ios":"levelo://app?vid=d3870d66-4498-4a51-aad7-38665e2fec09"},"vehicle_type_id":"4","last_reported":1774629707,"current_range_meters":10000,"station_id":"ce4bgvp2rcd13ifvqcu0","pricing_plan_id":"cebpf4jnsgd1na2vs0mg"},{"bike_id":"e8df83cf-6381-4e7e-9379-074a8e881801","system_id":"levelo_inurba_marseille","lat":43.31913,"lon":5.36902,"is_reserved":false,"is_disabled":false,"rental_uris":{"android":"levelo://app?vid=e8df83cf-6381-4e7e-9379-074a8e881801","ios":"levelo://app?vid=e8df83cf-6381-4e7e-9379-074a8e881801"},"vehicle_type_id":"4","last_reported":1774629707,"current_range_meters":10000,"station_id":"","pricing_plan_id":"cebpf4jnsgd1na2vs0mg"},{"bike_id":"ef3d2908-5f04-46b3-8950-985b7bd33bee","system_id":"levelo_inurba_marseille","lat":43.28624,"lon":5.35131,"is_reserved":false,"is_disabled":false,"rental_uris":{"android":"levelo://app?vid=ef3d2908-5f04-46b3-8950-985b7bd33bee","ios":"levelo://app?vid=ef3d2908-5f04-46b3-8950-985b7bd33bee"},"vehicle_type_id":"4","last_reported":1774629707,"current_range_meters":10000,"station_id":"ce4bhch2rcd13ifvqeug","pricing_plan_id":"cebpf4jnsgd1na2vs0mg"},{"bike_id":"4133fd77-18d5-42cb-8033-a723f9fbfba6","system_id":"levelo_inurba_marseille","lat":43.31342,"lon":5.3974,"is_reserved":false,"is_disabled":false,"rental_uris":{"android":"levelo://app?vid=4133fd77-18d5-42cb-8033-a723f9fbfba6","ios":"levelo://app?vid=4133fd77-18d5-42cb-8033-a723f9fbfba6"},"vehicle_type_id":"4","last_reported":1774629707,"current_range_meters":10000,"station_id":"ce4bgvp2rcd13ifvqcu0","pricing_plan_id":"cebpf4jnsgd1na2vs0mg"},{"bike_id":"67c1c6e6-4211-4250-be02-a52880e1c23a","system_id":"levelo_inurba_marseille","lat":43.26543,"lon":5.40709,"is_reserved":false,"is_disabled":false,"rental_uris":{"android":"levelo://app?vid=67c1c6e6-4211-4250-be02-a52880e1c23a","ios":"levelo://app?vid=67c1c6e6-4211-4250-be02-a52880e1c23a"},"vehicle_type_id":"4","last_reported":1774629707,"current_range_meters":10000,"station_id":"","pricing_plan_id":"cebpf4jnsgd1na2vs0mg"},{"bike_id":"4f5cf7ef-ddb5-4d25-9c0b-bec33f5f4447","system_id":"levelo_inurba_marseille","lat":43.30953,"lon":5.3685,"is_reserved":false,"is_disabled":false,"rental_uris":{"android":"levelo://app?vid=4f5cf7ef-ddb5-4d25-9c0b-bec33f5f4447","ios":"levelo://app?vid=4f5cf7ef-ddb5-4d25-9c0b-bec33f5f4447"},"vehicle_type_id":"4","last_reported":1774629707,"current_range_meters":10000,"station_id":"","pricing_plan_id":"cebpf4jnsgd1na2vs0mg"},{"bike_id":"c5ffcb6e-94c8-46bc-bcbe-82a7f99bb502","system_id":"levelo_inurba_marseille","lat":43.27828,"lon":5.39198,"is_reserved":false,"is_disabled":true,"rental_uris":{"android":"levelo://app?vid=c5ffcb6e-94c8-46bc-bcbe-82a7f99bb502","ios":"levelo://app?vid=c5ffcb6e-94c8-46bc-bcbe-82a7f99bb502"},"vehicle_type_id":"4","last_reported":1774629707,"current_range_meters":10800,"station_id":"ce4bhjp2rcd13ifvqga0","pricing_plan_id":"cebpf4jnsgd1na2vs0mg"},{"bike_id":"2104d2d0-b4e4-4503-bdb0-f6ff85f57843","system_id":"levelo_inurba_marseille","lat":43.26486,"lon":5.39558,"is_reserved":false,"is_disabled":false,"rental_uris":{"android":"levelo://app?vid=2104d2d0-b4e4-4503-bdb0-f6ff85f57843","ios":"levelo://app?vid=2104d2d0-b4e4-4503-bdb0-f6ff85f57843"},"vehicle_type_id":"4","last_reported":1774629707,"current_range_meters":10800,"station_id":"ce4bhi12rcd13ifvqfq0","pricing_plan_id":"cebpf4jnsgd1na2vs0mg"},{"bike_id":"92cb4986-12bc-44d4-ad49-496427bf2b45","system_id":"levelo_inurba_marseille","lat":43.28551,"lon":5.4411,"is_reserved":false,"is_disabled":false,"rental_uris":{"android":"levelo://app?vid=92cb4986-12bc-44d4-ad49-496427bf2b45","ios":"levelo://app?vid=92cb4986-12bc-44d4-ad49-496427bf2b45"},"vehicle_type_id":"4","last_reported":1774629707,"current_range_meters":10800,"station_id":"st_d3j3df2ikq2c7380ej80","pricing_plan_id":"cebpf4jnsgd1na2vs0mg"},{"bike_id":"1fce7f1d-4e59-45d5-ad05-440b881821b7","system_id":"levelo_inurba_marseille","lat":43.23781,"lon":5.36634,"is_reserved":false,"is_disabled":false,"rental_uris":{"android":"levelo://app?vid=1fce7f1d-4e59-45d5-ad05-440b881821b7","ios":"levelo://app?vid=1fce7f1d-4e59-45d5-ad05-440b881821b7"},"vehicle_type_id":"4","last_reported":1774629707,"current_range_meters":10800,"station_id":"st_d3nk18o9ro0c73en2l3g","pricing_plan_id":"cebpf4jnsgd1na2vs0mg"},{"bike_id":"729a6da4-6f27-4d44-8d7d-deea038f283e","system_id":"levelo_inurba_marseille","lat":43.3354,"lon":5.37466,"is_reserved":false,"is_disabled":false,"rental_uris":{"android":"levelo://app?vid=729a6da4-6f27-4d44-8d7d-deea038f283e","ios":"levelo://app?vid=729a6da4-6f27-4d44-8d7d-deea038f283e"},"vehicle_type_id":"4","last_reported":1774629707,"current_range_meters":10800,"station_id":"st_d46tts09ee8s73dlu43g","pricing_plan_id":"cebpf4jnsgd1na2vs0mg"},{"bike_id":"7694298c-2292-44dc-9958-896e83a49e9b","system_id":"levelo_inurba_marseille","lat":43.2416,"lon":5.39044,"is_reserved":false,"is_disabled":false,"rental_uris":{"android":"levelo://app?vid=7694298c-2292-44dc-9958-896e83a49e9b","ios":"levelo://app?vid=7694298c-2292-44dc-9958-896e83a49e9b"},"vehicle_type_id":"4","last_reported":1774629707,"current_range_meters":10800,"station_id":"","pricing_plan_id":"cebpf4jnsgd1na2vs0mg"},{"bike_id":"8221bf63-795d-4188-8725-0d3b358bd53f","system_id":"levelo_inurba_marseille","lat":43.24387,"lon":5.3708,"is_reserved":false,"is_disabled":false,"rental_uris":{"android":"levelo://app?vid=8221bf63-795d-4188-8725-0d3b358bd53f","ios":"levelo://app?vid=8221bf63-795d-4188-8725-0d3b358bd53f"},"vehicle_type_id":"4","last_reported":1774629707,"current_range_meters":10800,"station_id":"ce4bhhh2rcd13ifvqfk0","pricing_plan_id":"cebpf4jnsgd1na2vs0mg"},{"bike_id":"92392f29-1cef-4bf0-a04f-2eed921d9232","system_id":"levelo_inurba_marseille","lat":43.30461,"lon":5.37905,"is_reserved":false,"is_disabled":false,"rental_uris":{"android":"levelo://app?vid=92392f29-1cef-4bf0-a04f-2eed921d9232","ios":"levelo://app?vid=92392f29-1cef-4bf0-a04f-2eed921d9232"},"vehicle_type_id":"4","last_reported":1774629707,"current_range_meters":10800,"station_id":"ce4bgup2rcd13ifvqcn0","pricing_plan_id":"cebpf4jnsgd1na2vs0mg"},{"bike_id":"36141db5-b3a5-4009-8266-2dd4f38320ae","system_id":"levelo_inurba_marseille","lat":43.23783,"lon":5.36631,"is_reserved":false,"is_disabled":false,"rental_uris":{"android":"levelo://app?vid=36141db5-b3a5-4009-8266-2dd4f38320ae","ios":"levelo://app?vid=36141db5-b3a5-4009-8266-2dd4f38320ae"},"vehicle_type_id":"4","last_reported":1774629707,"current_range_meters":11200,"station_id":"st_d3nk18o9ro0c73en2l3g","pricing_plan_id":"cebpf4jnsgd1na2vs0mg"},