{"last_updated":1734300527,"ttl":60,"version":"2.2","data":{"bikes":[{"bike_id":"6cb06d5b-b9ac-4325-ba0a-17357eb9ec74","system_id":"levelo_inurba_marseille","lat":43.28272,"lon":5.35071,"is_reserved":false,"is_disabled":true,"rental_uris":{"android":"levelo://app?vid=6cb06d5b-b9ac-4325-ba0a-17357eb9ec74","ios":"levelo://app?vid=6cb06d5b-b9ac-4325-ba0a-17357eb9ec74"},"vehicle_type_id":"4","last_reported":1734300527,"current_range_meters":0,"station_id":"ce4bhbp2rcd13ifvqerg","pricing_plan_id":"cebpf4jnsgd1na2vs0mg"},{"bike_id":"61d772b3-e172-4f5d-8778-5fb43be913c2","system_id":"levelo_inurba_marseille","lat":43.27067,"lon":5.42281,"is_reserved":false,"is_disabled":false,"rental_uris":{"android":"levelo://app?vid=61d772b3-e172-4f5d-8778-5fb43be913c2","ios":"levelo://app?vid=61d772b3-e172-4f5d-8778-5fb43be913c2"},"vehicle_type_id":"4","last_reported":1734300527,"current_range_meters":38800,"station_id":"ce4bhk92rcd13ifvqgb0","pricing_plan_id":"cebpf4jnsgd1na2vs0mg"},{"bike_id":"e971b34b-1b5c-4405-a29b-60f5646f3d6f","system_id":"levelo_inurba_marseille","lat":43.29892,"lon":5.3974,"is_reserved":false,"is_disabled":false,"rental_uris":{"android":"levelo://app?vid=e971b34b-1b5c-4405-a29b-60f5646f3d6f","ios":"levelo://app?vid=e971b34b-1b5c-4405-a29b-60f5646f3d6f"},"vehicle_type_id":"4","last_reported":1734300527,"current_range_meters":38400,"station_id":"ce4bh0h2rcd13ifvqd50","pricing_plan_id":"cebpf4jnsgd1na2vs0mg"},{"bike_id":"19e78f5b-7964-43f5-b0f9-0adc69f477ff","system_id":"levelo_inurba_marseille","lat":43.30787,"lon":5.37641,"is_reserved":false,"is_disabled":false,"rental_uris":{"android":"levelo://app?vid=19e78f5b-7964-43f5-b0f9-0adc69f477ff","ios":"levelo://app?vid=19e78f5b-7964-43f5-b0f9-0adc69f477ff"},"vehicle_type_id":"4","last_reported":1734300527,"current_range_meters":17200,"station_id":"ce4bgv92rcd13ifvqcq0","pricing_plan_id":"cebpf4jnsgd1na2vs0mg"},{"bike_id":"25044c6a-ea35-47ff-a5e6-b229774301e0","system_id":"levelo_inurba_marseille","lat":43.25121,"lon":5.40314,"is_reserved":false,"is_disabled":false,"rental_uris":{"android":"levelo://app?vid=25044c6a-ea35-47ff-a5e6-b229774301e0","ios":"levelo://app?vid=25044c6a-ea35-47ff-a5e6-b229774301e0"},"vehicle_type_id":"4","last_reported":1734300527,"current_range_meters":16800,"station_id":"ce4bhlh2rcd13ifvqgig","pricing_plan_id":"cebpf4jnsgd1na2vs0mg"},{"bike_id":"49735576-98af-4537-b127-26ad7906beaf","system_id":"levelo_inurba_marseille","lat":43.26061,"lon":5.39393,"is_reserved":false,"is_disabled":false,"rental_uris":{"android":"levelo://app?vid=49735576-98af-4537-b127-26ad7906beaf","ios":"levelo://app?vid=49735576-98af-4537-b127-26ad7906beaf"},"vehicle_type_id":"4","last_reported":1734300527,"current_range_meters":28400,"station_id":"ce4bhh92rcd13ifvqfj0","pricing_plan_id":"cebpf4jnsgd1na2vs0mg"},{"bike_id":"ed9edba7-d3f1-4e95-8555-1252dbf70dce","system_id":"levelo_inurba_marseille","lat":43.27561,"lon":5.38407,"is_reserved":false,"is_disabled":true,"rental_uris":{"android":"levelo://app?vid=ed9edba7-d3f1-4e95-8555-1252dbf70dce","ios":"levelo://app?vid=ed9edba7-d3f1-4e95-8555-1252dbf70dce"},"vehicle_type_id":"4","last_reported":1734300527,"current_range_meters":34000,"station_id":"ce4bhh92rcd13ifvqfi0","pricing_plan_id":"cebpf4jnsgd1na2vs0mg"},{"bike_id":"09590482-ee53-4c82-9a6c-5f587e82ad8b","system_id":"levelo_inurba_marseille","lat":43.25501,"lon":5.37639,"is_reserved":false,"is_disabled":false,"rental_uris":{"android":"levelo://app?vid=09590482-ee53-4c82-9a6c-5f587e82ad8b","ios":"levelo://app?vid=09590482-ee53-4c82-9a6c-5f587e82ad8b"},"vehicle_type_id":"4","last_reported":1734300527,"current_range_meters":38800,"station_id":"ce4bhh12rcd13ifvqff0","pricing_plan_id":"cebpf4jnsgd1na2vs0mg"},{"bike_id":"9d39d1d0-89a5-496f-bcb8-12d4f37d43e9","system_id":"levelo_inurba_marseille","lat":43.28259,"lon":5.35064,"is_reserved":false,"is_disabled":false,"rental_uris":{"android":"levelo://app?vid=9d39d1d0-89a5-496f-bcb8-12d4f37d43e9","ios":"levelo://app?vid=9d39d1d0-89a5-496f-bcb8-12d4f37d43e9"},"vehicle_type_id":"4","last_reported":1734300527,"current_range_meters":12400,"station_id":"ce4bhbp2rcd13ifvqerg","pricing_plan_id":"cebpf4jnsgd1na2vs0mg"},{"bike_id":"b9909b1b-7dc0-43e0-9eac-af3c1c280ed0","system_id":"levelo_inurba_marseille","lat":43.28937,"lon":5.38393,"is_reserved":false,"is_disabled":false,"rental_uris":{"android":"levelo://app?vid=b9909b1b-7dc0-43e0-9eac-af3c1c280ed0","ios":"levelo://app?vid=b9909b1b-7dc0-43e0-9eac-af3c1c280ed0"},"vehicle_type_id":"4","last_reported":1734300527,"current_range_meters":38800,"station_id":"ce4bh612rcd13ifvqe6g","pricing_plan_id":"cebpf4jnsgd1na2vs0mg"},{"bike_id":"150fd2fd-95d3-4983-9181-1684015da68c","system_id":"levelo_inurba_marseille","lat":43.29085,"lon":5.38133,"is_reserved":false,"is_disabled":false,"rental_uris":{"android":"levelo://app?vid=150fd2fd-95d3-4983-9181-1684015da68c","ios":"levelo://app?vid=150fd2fd-95d3-4983-9181-1684015da68c"},"vehicle_type_id":"4","last_reported":1734300527,"current_range_meters":38800,"station_id":"ce4bh512rcd13ifvqe2g","pricing_plan_id":"cebpf4jnsgd1na2vs0mg"},{"bike_id":"df89a3cb-003f-4017-997e-dcb4e4ec18e7","system_id":"levelo_inurba_marseille","lat":43.25113,"lon":5.40323,"is_reserved":false,"is_disabled":false,"rental_uris":{"android":"levelo://app?vid=df89a3cb-003f-4017-997e-dcb4e4ec18e7","ios":"levelo://app?vid=df89a3cb-003f-4017-997e-dcb4e4ec18e7"},"vehicle_type_id":"4","last_reported":1734300527,"current_range_meters":32800,"station_id":"ce4bhlh2rcd13ifvqgig","pricing_plan_id":"cebpf4jnsgd1na2vs0mg"},{"bike_id":"68318da2-404d-4277-bcad-71c1cc0f38c8","system_id":"levelo_inurba_marseille","lat":43.27205,"lon":5.39196,"is_reserved":false,"is_disabled":true,"rental_uris":{"android":"levelo://app?vid=68318da2-404d-4277-bcad-71c1cc0f38c8","ios":"levelo://app?vid=68318da2-404d-4277-bcad-71c1cc0f38c8"},"vehicle_type_id":"4","last_reported":1734300527,"current_range_meters":19600,"station_id":"ce4bhhp2rcd13ifvqfm0","pricing_plan_id":"cebpf4jnsgd1na2vs0mg"},{"bike_id":"fd6e159f-aa7f-46c8-8503-b3d8166dbf7b","system_id":"levelo_inurba_marseille","lat":43.28154,"lon":5.42643,"is_reserved":false,"is_disabled":false,"rental_uris":{"android":"levelo://app?vid=fd6e159f-aa7f-46c8-8503-b3d8166dbf7b","ios":"levelo://app?vid=fd6e159f-aa7f-46c8-8503-b3d8166dbf7b"},"vehicle_type_id":"4","last_reported":1734300527,"current_range_meters":27200,"station_id":"ce4bhnh2rcd13ifvqgug","pricing_plan_id":"cebpf4jnsgd1na2vs0mg"},{"bike_id":"2aabb9e3-ae45-4b17-b10d-af50e235d80a","system_id":"levelo_inurba_marseille","lat":43.26786,"lon":5.39923,"is_reserved":false,"is_disabled":true,"rental_uris":{"android":"levelo://app?vid=2aabb9e3-ae45-4b17-b10d-af50e235d80a","ios":"levelo://app?vid=2aabb9e3-ae45-4b17-b10d-af50e235d80a"},"vehicle_type_id":"4","last_reported":1734300527,"current_range_meters":0,"station_id":"","pricing_plan_id":"cebpf4jnsgd1na2vs0mg"},{"bike_id":"90c3bccf-b4f1-4000-8cca-f7163a76cd76","system_id":"levelo_inurba_marseille","lat":43.25698,"lon":5.41086,"is_reserved":false,"is_disabled":false,"rental_uris":{"android":"levelo://app?vid=90c3bccf-b4f1-4000-8cca-f7163a76cd76","ios":"levelo://app?vid=90c3bccf-b4f1-4000-8cca-f7163a76cd76"},"vehicle_type_id":"4","last_reported":1734300527,"current_range_meters":35600,"station_id":"ce4bhkp2rcd13ifvqgd0","pricing_plan_id":"cebpf4jnsgd1na2vs0mg"},{"bike_id":"3595e955-9243-4ebf-a4ff-5df2907e8d74","system_id":"levelo_inurba_marseille","lat":43.3229,"lon":5.38271,"is_reserved":false,"is_disabled":false,"rental_uris":{"android":"levelo://app?vid=3595e955-9243-4ebf-a4ff-5df2907e8d74","ios":"levelo://app?vid=3595e955-9243-4ebf-a4ff-5df2907e8d74"},"vehicle_type_id":"4","last_reported":1734300527,"current_range_meters":38800,"station_id":"ce4bhr12rcd13ifvqhqg","pricing_plan_id":"cebpf4jnsgd1na2vs0mg"},{"bike_id":"7b84d937-fadc-47de-9c3d-d895c45c7b6d","system_id":"levelo_inurba_marseille","lat":43.25001,"lon":5.38925,"is_reserved":false,"is_disabled":false,"rental_uris":{"android":"levelo://app?vid=7b84d937-fadc-47de-9c3d-d895c45c7b6d","ios":"levelo://app?vid=7b84d937-fadc-47de-9c3d-d895c45c7b6d"},"vehicle_type_id":"4","last_reported":1734300527,"current_range_meters":35600,"station_id":"ce4bhgp2rcd13ifvqfd0","pricing_plan_id":"cebpf4jnsgd1na2vs0mg"},{"bike_id":"1bf1b817-a78b-4c20-80ae-bc821313124f","system_id":"levelo_inurba_marseille","lat":43.30303,"lon":5.36879,"is_reserved":false,"is_disabled":false,"rental_uris":{"android":"levelo://app?vid=1bf1b817-a78b-4c20-80ae-bc821313124f","ios":"levelo://app?vid=1bf1b817-a78b-4c20-80ae-bc821313124f"},"vehicle_type_id":"4","last_reported":1734300527,"current_range_meters":30800,"station_id":"ce4bgqh2rcd13ifvqc5g","pricing_plan_id":"cebpf4jnsgd1na2vs0mg"},{"bike_id":"7a40c7c1-8a20-4e16-b3cc-eed59d07be05","system_id":"levelo_inurba_marseille","lat":43.29904,"lon":5.38131,"is_reserved":false,"is_disabled":true,"rental_uris":{"android":"levelo://app?vid=7a40c7c1-8a20-4e16-b3cc-eed59d07be05","ios":"levelo://app?vid=7a40c7c1-8a20-4e16-b3cc-eed59d07be05"},"vehicle_type_id":"4","last_reported":1734300527,"current_range_meters":8800,"station_id":"ce4bgj12rcd13ifvqbc0","pricing_plan_id":"cebpf4jnsgd1na2vs0mg"},{"bike_id":"52fca07e-b937-4f38-90f2-bc9a9e89a392","system_id":"levelo_inurba_marseille","lat":43.29012,"lon":5.35615,"is_reserved":false,"is_disabled":false,"rental_uris":{"android":"levelo://app?vid=52fca07e-b937-4f38-90f2-bc9a9e89a392","ios":"levelo://app?vid=52fca07e-b937-4f38-90f2-bc9a9e89a392"},"vehicle_type_id":"4","last_reported":1734300527,"current_range_meters":39200,"station_id":"ce4bhb92rcd13ifvqen0","pricing_plan_id":"cebpf4jnsgd1na2vs0mg"},{"bike_id":"55e98356-0b05-47d0-bfff-3300eedaa455","system_id":"levelo_inurba_marseille","lat":43.280003,"lon":5.400083,"is_reserved":false,"is_disabled":true,"rental_uris":{"android":"levelo://app?vid=55e98356-0b05-47d0-bfff-3300eedaa455","ios":"levelo://app?vid=55e98356-0b05-47d0-bfff-3300eedaa455"},"vehicle_type_id":"4","last_reported":1734300527,"current_range_meters":5600,"station_id":"ce4bho92rcd13ifvqh4g","pricing_plan_id":"cebpf4jnsgd1na2vs0mg"},{"bike_id":"cad7719d-6bdb-48ae-8920-e62428891cbb","system_id":"levelo_inurba_marseille","lat":43.28015,"lon":5.44114,"is_reserved":false,"is_disabled":true,"rental_uris":{"android":"levelo://app?vid=cad7719d-6bdb-48ae-8920-e62428891cbb","ios":"levelo://app?vid=cad7719d-6bdb-48ae-8920-e62428891cbb"},"vehicle_type_id":"4","last_reported":1734300527,"current_range_meters":400,"station_id":"","pricing_plan_id":"cebpf4jnsgd1na2vs0mg"},{"bike_id":"72a71e6c-0bb6-4c5e-b8a0-566eef096324","system_id":"levelo_inurba_marseille","lat":43.28679,"lon":5.38663,"is_reserved":false,"is_disabled":false,"rental_uris":{"android":"levelo://app?vid=72a71e6c-0bb6-4c5e-b8a0-566eef096324","ios":"levelo://app?vid=72a71e6c-0bb6-4c5e-b8a0-566eef096324"},"vehicle_type_id":"4","last_reported":1734300527,"current_range_meters":37600,"station_id":"ce4bh492rcd13ifvqdug","pricing_plan_id":"cebpf4jnsgd1na2vs0mg"},{"bike_id":"756759df-30bb-4fc0-b7b8-d22004f554c8","system_id":"levelo_inurba_marseille","lat":43.32392,"lon":5.40658,"is_reserved":false,"is_disabled":false,"rental_uris":{"android":"levelo://app?vid=756759df-30bb-4fc0-b7b8-d22004f554c8","ios":"levelo://app?vid=756759df-30bb-4fc0-b7b8-d22004f554c8"},"vehicle_type_id":"4","last_reported":1734300527,"current_range_meters":37600,"station_id":"","pricing_plan_id":"cebpf4jnsgd1na2vs0mg"},{"bike_id":"39578123-bd30-4c2c-aa85-718d4f8cb27d","system_id":"levelo_inurba_marseille","lat":43.308035,"lon":5.435316,"is_reserved":false,"is_disabled":false,"rental_uris":{"android":"levelo://app?vid=39578123-bd30-4c2c-aa85-718d4f8cb27d","ios":"levelo://app?vid=39578123-bd30-4c2c-aa85-718d4f8cb27d"},"vehicle_type_id":"4","last_reported":1734300527,"current_range_meters":38800,"station_id":"ce4bhph2rcd13ifvqheg","pricing_plan_id":"cebpf4jnsgd1na2vs0mg"},{"bike_id":"0cad1e55-df50-4042-8d99-03e92db54e72","system_id":"levelo_inurba_marseille","lat":43.26951,"lon":5.38643,"is_reserved":false,"is_disabled":true,"rental_uris":{"android":"levelo://app?vid=0cad1e55-df50-4042-8d99-03e92db54e72","ios":"levelo://app?vid=0cad1e55-df50-4042-8d99-03e92db54e72"},"vehicle_type_id":"4","last_reported":1734300527,"current_range_meters":22400,"station_id":"ce4bhh92rcd13ifvqfh0","pricing_plan_id":"cebpf4jnsgd1na2vs0mg"},{"bike_id":"4deb15ef-079e-44d5-9289-1d9084b509a7","system_id":"levelo_inurba_marseille","lat":43.313036,"lon":5.369449,"is_reserved":false,"is_disabled":false,"rental_uris":{"android":"levelo://app?vid=4deb15ef-079e-44d5-9289-1d9084b509a7","ios":"levelo://app?vid=4deb15ef-079e-44d5-9289-1d9084b509a7"},"vehicle_type_id":"4","last_reported":1734300527,"current_range_meters":38800,"station_id":"","pricing_plan_id":"cebpf4jnsgd1na2vs0mg"},{"bike_id":"d5c89c1f-3bad-4af2-9449-e04c277a4696","system_id":"levelo_inurba_marseille","lat":43.29972,"lon":5.41325,"is_reserved":false,"is_disabled":true,"rental_uris":{"android":"levelo://app?vid=d5c89c1f-3bad-4af2-9449-e04c277a4696","ios":"levelo://app?vid=d5c89c1f-3bad-4af2-9449-e04c277a4696"},"vehicle_type_id":"4","last_reported":1734300527,"current_range_meters":36800,"station_id":"ce4bhp12rcd13ifvqh9g","pricing_plan_id":"cebpf4jnsgd1na2vs0mg"},{"bike_id":"ac254c0b-ee1a-4a73-b911-e91a9bd8c914","system_id":"levelo_inurba_marseille","lat":43.287,"lon":5.3998,"is_reserved":false,"is_disabled":false,"rental_uris":{"android":"levelo://app?vid=ac254c0b-ee1a-4a73-b911-e91a9bd8c914","ios":"levelo://app?vid=ac254c0b-ee1a-4a73-b911-e91a9bd8c914"},"vehicle_type_id":"4","last_reported":1734300527,"current_range_meters":25200,"station_id":"ce4bho92rcd13ifvqh3g","pricing_plan_id":"cebpf4jnsgd1na2vs0mg"},{"bike_id":"96e85abf-87ef-4ab7-8ed8-87d70165fd76","system_id":"levelo_inurba_marseille","lat":43.30425,"lon":5.39756,"is_reserved":false,"is_disabled":false,"rental_uris":{"android":"levelo://app?vid=96e85abf-87ef-4ab7-8ed8-87d70165fd76","ios":"levelo://app?vid=96e85abf-87ef-4ab7-8ed8-87d70165fd76"},"vehicle_type_id":"4","last_reported":1734300527,"current_range_meters":37600,"station_id":"ce4bh092rcd13ifvqd20","pricing_plan_id":"cebpf4jnsgd1na2vs0mg"},{"bike_id":"00470025-0594-4fc8-bb13-03b023b393ad","system_id":"levelo_inurba_marseille","lat":43.23063,"lon":5.35498,"is_reserved":false,"is_disabled":false,"rental_uris":{"android":"levelo://app?vid=00470025-0594-4fc8-bb13-03b023b393ad","ios":"levelo://app?vid=00470025-0594-4fc8-bb13-03b023b393ad"},"vehicle_type_id":"4","last_reported":1734300527,"current_range_meters":30400,"station_id":"cpo3342slgdg3j2ifvpg","pricing_plan_id":"cebpf4jnsgd1na2vs0mg"},{"bike_id":"7a8505a0-d510-44d6-a82d-97c25e261e1f","system_id":"levelo_inurba_marseille","lat":43.28161,"lon":5.42612,"is_reserved":false,"is_disabled":false,"rental_uris":{"android":"levelo://app?vid=7a8505a0-d510-44d6-a82d-97c25e261e1f","ios":"levelo://app?vid=7a8505a0-d510-44d6-a82d-97c25e261e1f"},"vehicle_type_id":"4","last_reported":1734300527,"current_range_meters":22400,"station_id":"ce4bhnh2rcd13ifvqgug","pricing_plan_id":"cebpf4jnsgd1na2vs0mg"},{"bike_id":"89b571e9-01bc-474e-8675-185e0ba905ba","system_id":"levelo_inurba_marseille","lat":43.24177,"lon":5.39721,"is_reserved":false,"is_disabled":false,"rental_uris":{"android":"levelo://app?vid=89b571e9-01bc-474e-8675-185e0ba905ba","ios":"levelo://app?vid=89b571e9-01bc-474e-8675-185e0ba905ba"},"vehicle_type_id":"4","last_reported":1734300527,"current_range_meters":21600,"station_id":"ce4bhn12rcd13ifvqgpg","pricing_plan_id":"cebpf4jnsgd1na2vs0mg"},{"bike_id":"e209b4cc-b597-4646-9ecd-9f5a1bd9a464","system_id":"levelo_inurba_marseille","lat":43.33822,"lon":5.42167,"is_reserved":false,"is_disabled":false,"rental_uris":{"android":"levelo://app?vid=e209b4cc-b597-4646-9ecd-9f5a1bd9a464","ios":"levelo://app?vid=e209b4cc-b597-4646-9ecd-9f5a1bd9a464"},"vehicle_type_id":"4","last_reported":1734300527,"current_range_meters":4800,"station_id":"","pricing_plan_id":"cebpf4jnsgd1na2vs0mg"},{"bike_id":"be15b9e1-574c-45f1-b914-fc0b9a33b109","system_id":"levelo_inurba_marseille","lat":43.25049,"lon":5.41681,"is_reserved":false,"is_disabled":false,"rental_uris":{"android":"levelo://app?vid=be15b9e1-574c-45f1-b914-fc0b9a33b109","ios":"levelo://app?vid=be15b9e1-574c-45f1-b914-fc0b9a33b109"},"vehicle_type_id":"4","last_reported":1734300527,"current_range_meters":10000,"station_id":"","pricing_plan_id":"cebpf4jnsgd1na2vs0mg"},{"bike_id":"faeeed3d-e1ea-42b2-8154-c03c65ca9361","system_id":"levelo_inurba_marseille","lat":43.26221,"lon":5.37222,"is_reserved":false,"is_disabled":true,"rental_uris":{"android":"levelo://app?vid=faeeed3d-e1ea-42b2-8154-c03c65ca9361","ios":"levelo://app?vid=faeeed3d-e1ea-42b2-8154-c03c65ca9361"},"vehicle_type_id":"4","last_reported":1734300527,"current_range_meters":0,"station_id":"","pricing_plan_id":"cebpf4jnsgd1na2vs0mg"},{"bike_id":"7853ea5c-384b-4f44-a49f-57dc288b74ed","system_id":"levelo_inurba_marseille","lat":43.25121,"lon":5.40318,"is_reserved":false,"is_disabled":false,"rental_uris":{"android":"levelo://app?vid=7853ea5c-384b-4f44-a49f-57dc288b74ed","ios":"levelo://app?vid=7853ea5c-384b-4f44-a49f-57dc288b74ed"},"vehicle_type_id":"4","last_reported":1734300527,"current_range_meters":10800,"station_id":"ce4bhlh2rcd13ifvqgig","pricing_plan_id":"cebpf4jnsgd1na2vs0mg"},{"bike_id":"18734168-a386-4b34-8748-824f01780ef3","system_id":"levelo_inurba_marseille","lat":43.25086,"lon":5.39508,"is_reserved":false,"is_disabled":false,"rental_uris":{"android":"levelo://app?vid=18734168-a386-4b34-8748-824f01780ef3","ios":"levelo://app?vid=18734168-a386-4b34-8748-824f01780ef3"},"vehicle_type_id":"4","last_reported":1734300527,"current_range_meters":38000,"station_id":"ce4bhm12rcd13ifvqgkg","pricing_plan_id":"cebpf4jnsgd1na2vs0mg"},{"bike_id":"6d5b3284-e98d-49e9-8d13-b4de924073e0","system_id":"levelo_inurba_marseille","lat":43.24812,"lon":5.37454,"is_reserved":false,"is_disabled":false,"rental_uris":{"android":"levelo://app?vid=6d5b3284-e98d-49e9-8d13-b4de924073e0","ios":"levelo://app?vid=6d5b3284-e98d-49e9-8d13-b4de924073e0"},"vehicle_type_id":"4","last_reported":1734300527,"current_range_meters":38800,"station_id":"ce4bhgh2rcd13ifvqfb0","pricing_plan_id":"cebpf4jnsgd1na2vs0mg"},{"bike_id":"108d2dcc-a9ed-40c6-8c55-2d06395b9698","system_id":"levelo_inurba_marseille","lat":43.29797,"lon":5.4041,"is_reserved":false,"is_disabled":false,"rental_uris":{"android":"levelo://app?vid=108d2dcc-a9ed-40c6-8c55-2d06395b9698","ios":"levelo://app?vid=108d2dcc-a9ed-40c6-8c55-2d06395b9698"},"vehicle_type_id":"4","last_reported":1734300527,"current_range_meters":38800,"station_id":"ce4bh112rcd13ifvqd90","pricing_plan_id":"cebpf4jnsgd1na2vs0mg"},{"bike_id":"5744c5bb-5613-4b1d-86cf-ebce1248867b","system_id":"levelo_inurba_marseille","lat":43.25126,"lon":5.4031,"is_reserved":false,"is_disabled":false,"rental_uris":{"android":"levelo://app?vid=5744c5bb-5613-4b1d-86cf-ebce1248867b","ios":"levelo://app?vid=5744c5bb-5613-4b1d-86cf-ebce1248867b"},"vehicle_type_id":"4","last_reported":1734300527,"current_range_meters":37600,"station_id":"ce4bhlh2rcd13ifvqgig","pricing_plan_id":"cebpf4jnsgd1na2vs0mg"},{"bike_id":"9245ce43-0933-4699-984b-ad2358d17a60","system_id":"levelo_inurba_marseille","lat":43.29265,"lon":5.40896,"is_reserved":false,"is_disabled":false,"rental_uris":{"android":"levelo://app?vid=9245ce43-0933-4699-984b-ad2358d17a60","ios":"levelo://app?vid=9245ce43-0933-4699-984b-ad2358d17a60"},"vehicle_type_id":"4","last_reported":1734300527,"current_range_meters":38800,"station_id":"ce4bh192rcd13ifvqdc0","pricing_plan_id":"cebpf4jnsgd1na2vs0mg"},{"bike_id":"e3ce1f04-3f88-431a-ab9f-947d6e2f270c","system_id":"levelo_inurba_marseille","lat":43.33722,"lon":5.39184,"is_reserved":false,"is_disabled":false,"rental_uris":{"android":"levelo://app?vid=e3ce1f04-3f88-431a-ab9f-947d6e2f270c","ios":"levelo://app?vid=e3ce1f04-3f88-431a-ab9f-947d6e2f270c"},"vehicle_type_id":"4","last_reported":1734300527,"current_range_meters":39200,"station_id":"ce4bhr92rcd13ifvqhsg","pricing_plan_id":"cebpf4jnsgd1na2vs0mg"},{"bike_id":"d6a19e7d-5ce7-42bd-8925-b63bd17e64b5","system_id":"levelo_inurba_marseille","lat":43.31995,"lon":5.38151,"is_reserved":false,"is_disabled":false,"rental_uris":{"android":"levelo://app?vid=d6a19e7d-5ce7-42bd-8925-b63bd17e64b5","ios":"levelo://app?vid=d6a19e7d-5ce7-42bd-8925-b63bd17e64b5"},"vehicle_type_id":"4","last_reported":1734300527,"current_range_meters":33600,"station_id":"ce4bhr12rcd13ifvqhpg","pricing_plan_id":"cebpf4jnsgd1na2vs0mg"},{"bike_id":"2c97c900-0154-49e7-9d09-2687418b9a3a","system_id":"levelo_inurba_marseille","lat":43.2951,"lon":5.39409,"is_reserved":false,"is_disabled":false,"rental_uris":{"android":"levelo://app?vid=2c97c900-0154-49e7-9d09-2687418b9a3a","ios":"levelo://app?vid=2c97c900-0154-49e7-9d09-2687418b9a3a"},"vehicle_type_id":"4","last_reported":1734300527,"current_range_meters":24400,"station_id":"ce4bh292rcd13ifvqdf0","pricing_plan_id":"cebpf4jnsgd1na2vs0mg"},{"bike_id":"42a1ab09-627b-41db-99fd-6707569b2cc7","system_id":"levelo_inurba_marseille","lat":43.30957,"lon":5.37195,"is_reserved":false,"is_disabled":false,"rental_uris":{"android":"levelo://app?vid=42a1ab09-627b-41db-99fd-6707569b2cc7","ios":"levelo://app?vid=42a1ab09-627b-41db-99fd-6707569b2cc7"},"vehicle_type_id":"4","last_reported":1734300527,"current_range_meters":35200,"station_id":"","pricing_plan_id":"cebpf4jnsgd1na2vs0mg"},{"bike_id":"e1f14668-b3cd-4486-857f-047dd0525de8","system_id":"levelo_inurba_marseille","lat":43.28934,"lon":5.3662,"is_reserved":false,"is_disabled":true,"rental_uris":{"android":"levelo://app?vid=e1f14668-b3cd-4486-857f-047dd0525de8","ios":"levelo://app?vid=e1f14668-b3cd-4486-857f-047dd0525de8"},"vehicle_type_id":"4","last_reported":1734300527,"current_range_meters":24400,"station_id":"ce4bhap2rcd13ifvqek0","pricing_plan_id":"cebpf4jnsgd1na2vs0mg"},{"bike_id":"2256d0c9-fd6c-49ff-b42c-53026216c040","system_id":"levelo_inurba_marseille","lat":43.29861,"lon":5.38386,"is_reserved":false,"is_disabled":true,"rental_uris":{"android":"levelo://app?vid=2256d0c9-fd6c-49ff-b42c-53026216c040","ios":"levelo://app?vid=2256d0c9-fd6c-49ff-b42c-53026216c040"},"vehicle_type_id":"4","last_reported":1734300527,"current_range_meters":24400,"station_id":"","pricing_plan_id":"cebpf4jnsgd1na2vs0mg"},{"bike_id":"edaea664-24e0-4d6c-aa7a-497f5c5f88f6","system_id":"levelo_inurba_marseille","lat":43.27017,"lon":5.39142,"is_reserved":false,"is_disabled":true,"rental_uris":{"android":"levelo://app?vid=edaea664-24e0-4d6c-aa7a-497f5c5f88f6","ios":"levelo://app?vid=edaea664-24e0-4d6c-aa7a-497f5c5f88f6"},"vehicle_type_id":"4","last_reported":1734300527,"current_range_meters":0,"station_id":"","pricing_plan_id":"cebpf4jnsgd1na2vs0mg"},{"bike_id":"9f52696d-600b-40ab-b947-0c5325fde06a","system_id":"levelo_inurba_marseille","lat":43.28345,"lon":5.38108,"is_reserved":false,"is_disabled":false,"rental_uris":{"android":"levelo://app?vid=9f52696d-600b-40ab-b947-0c5325fde06a","ios":"levelo://app?vid=9f52696d-600b-40ab-b947-0c5325fde06a"},"vehicle_type_id":"4","last_reported":1734300527,"current_range_meters":35200,"station_id":"ce4bh412rcd13ifvqdr0","pricing_plan_id":"cebpf4jnsgd1na2vs0mg"},{"bike_id":"71b49d2b-6576-454b-abe7-cf945c8b1bcc","system_id":"levelo_inurba_marseille","lat":43.29781,"lon":5.39337,"is_reserved":false,"is_disabled":false,"rental_uris":{"android":"levelo://app?vid=71b49d2b-6576-454b-abe7-cf945c8b1bcc","ios":"levelo://app?vid=71b49d2b-6576-454b-abe7-cf945c8b1bcc"},"vehicle_type_id":"4","last_reported":1734300527,"current_range_meters":28400,"station_id":"chh1huq6cuj3fo74tm60","pricing_plan_id":"cebpf4jnsgd1na2vs0mg"},{"bike_id":"f43b6496-4452-46ac-b24c-881509735e85","system_id":"levelo_inurba_marseille","lat":43.24804,"lon":5.37452,"is_reserved":false,"is_disabled":false,"rental_uris":{"android":"levelo://app?vid=f43b6496-4452-46ac-b24c-881509735e85","ios":"levelo://app?vid=f43b6496-4452-46ac-b24c-881509735e85"},"vehicle_type_id":"4","last_reported":1734300527,"current_range_meters":20000,"station_id":"ce4bhgh2rcd13ifvqfb0","pricing_plan_id":"cebpf4jnsgd1na2vs0mg"},{"bike_id":"3acc0fc7-93b3-4104-8d2f-df9eb3c708d3","system_id":"levelo_inurba_marseille","lat":43.30205,"lon":5.39479,"is_reserved":false,"is_disabled":false,"rental_uris":{"android":"levelo://app?vid=3acc0fc7-93b3-4104-8d2f-df9eb3c708d3","ios":"levelo://app?vid=3acc0fc7-93b3-4104-8d2f-df9eb3c708d3"},"vehicle_type_id":"4","last_reported":1734300527,"current_range_meters":32400,"station_id":"ce4bh0p2rcd13ifvqd70","pricing_plan_id":"cebpf4jnsgd1na2vs0mg"},{"bike_id":"12abee80-e944-4ddb-bff1-41076cb410ca","system_id":"levelo_inurba_marseille","lat":43.29886,"lon":5.38892,"is_reserved":false,"is_disabled":false,"rental_uris":{"android":"levelo://app?vid=12abee80-e944-4ddb-bff1-41076cb410ca","ios":"levelo://app?vid=12abee80-e944-4ddb-bff1-41076cb410ca"},"vehicle_type_id":"4","last_reported":1734300527,"current_range_meters":38800,"station_id":"ce4bh392rcd13ifvqdl0","pricing_plan_id":"cebpf4jnsgd1na2vs0mg"},{"bike_id":"699ad19d-1780-4c00-9754-eb0737b27b7c","system_id":"levelo_inurba_marseille","lat":43.29557,"lon":5.42277,"is_reserved":false,"is_disabled":false,"rental_uris":{"android":"levelo://app?vid=699ad19d-1780-4c00-9754-eb0737b27b7c","ios":"levelo://app?vid=699ad19d-1780-4c00-9754-eb0737b27b7c"},"vehicle_type_id":"4","last_reported":1734300527,"current_range_meters":34800,"station_id":"ce4bhph2rcd13ifvqhdg","pricing_plan_id":"cebpf4jnsgd1na2vs0mg"},{"bike_id":"28c23e1f-db50-4c59-8d6b-8ce2f0755fec","system_id":"levelo_inurba_marseille","lat":43.26513,"lon":5.39526,"is_reserved":false,"is_disabled":false,"rental_uris":{"android":"levelo://app?vid=28c23e1f-db50-4c59-8d6b-8ce2f0755fec","ios":"levelo://app?vid=28c23e1f-db50-4c59-8d6b-8ce2f0755fec"},"vehicle_type_id":"4","last_reported":1734300527,"current_range_meters":30000,"station_id":"ce4bhi12rcd13ifvqfq0","pricing_plan_id":"cebpf4jnsgd1na2vs0mg"},{"bike_id":"c64af2fa-0e79-4fdf-a709-a544bc748893","system_id":"levelo_inurba_marseille","lat":43.287,"lon":5.39958,"is_reserved":false,"is_disabled":false,"rental_uris":{"android":"levelo://app?vid=c64af2fa-0e79-4fdf-a709-a544bc748893","ios":"levelo://app?vid=c64af2fa-0e79-4fdf-a709-a544bc748893"},"vehicle_type_id":"4","last_reported":1734300527,"current_range_meters":33600,"station_id":"ce4bho92rcd13ifvqh3g","pricing_plan_id":"cebpf4jnsgd1na2vs0mg"},{"bike_id":"2482e94c-6a4d-4f8f-850c-45bee6d60fd7","system_id":"levelo_inurba_marseille","lat":43.310844,"lon":5.424257,"is_reserved":false,"is_disabled":false,"rental_uris":{"android":"levelo://app?vid=2482e94c-6a4d-4f8f-850c-45bee6d60fd7","ios":"levelo://app?vid=2482e94c-6a4d-4f8f-850c-45bee6d60fd7"},"vehicle_type_id":"4","last_reported":1734300527,"current_range_meters":38000,"station_id":"ce4bhp92rcd13ifvqhag","pricing_plan_id":"cebpf4jnsgd1na2vs0mg"},{"bike_id":"5be78cc2-d386-42ea-a601-8ec47460ad21","system_id":"levelo_inurba_marseille","lat":43.24082,"lon":5.37736,"is_reserved":false,"is_disabled":false,"rental_uris":{"android":"levelo://app?vid=5be78cc2-d386-42ea-a601-8ec47460ad21","ios":"levelo://app?vid=5be78cc2-d386-42ea-a601-8ec47460ad21"},"vehicle_type_id":"4","last_reported":1734300527,"current_range_meters":36000,"station_id":"ce4bhnp2rcd13ifvqgvg","pricing_plan_id":"cebpf4jnsgd1na2vs0mg"},{"bike_id":"8872e771-87f7-4daf-9c2b-2bfd7197e847","system_id":"levelo_inurba_marseille","lat":43.27068,"lon":5.42271,"is_reserved":false,"is_disabled":false,"rental_uris":{"android":"levelo://app?vid=8872e771-87f7-4daf-9c2b-2bfd7197e847","ios":"levelo://app?vid=8872e771-87f7-4daf-9c2b-2bfd7197e847"},"vehicle_type_id":"4","last_reported":1734300527,"current_range_meters":22400,"station_id":"ce4bhk92rcd13ifvqgb0","pricing_plan_id":"cebpf4jnsgd1na2vs0mg"},{"bike_id":"f7d3cf43-3188-47ac-b1ba-784f299208b7","system_id":"levelo_inurba_marseille","lat":43.29072,"lon":5.3718,"is_reserved":false,"is_disabled":false,"rental_uris":{"android":"levelo://app?vid=f7d3cf43-3188-47ac-b1ba-784f299208b7","ios":"levelo://app?vid=f7d3cf43-3188-47ac-b1ba-784f299208b7"},"vehicle_type_id":"4","last_reported":1734300527,"current_range_meters":33600,"station_id":"ce4bh5p2rcd13ifvqe4g","pricing_plan_id":"cebpf4jnsgd1na2vs0mg"},{"bike_id":"acbcde12-a713-467d-b7cd-6fb02320f61f","system_id":"levelo_inurba_marseille","lat":43.284882,"lon":5.384315,"is_reserved":false,"is_disabled":true,"rental_uris":{"android":"levelo://app?vid=acbcde12-a713-467d-b7cd-6fb02320f61f","ios":"levelo://app?vid=acbcde12-a713-467d-b7cd-6fb02320f61f"},"vehicle_type_id":"4","last_reported":1734300527,"current_range_meters":38400,"station_id":"ce4bh512rcd13ifvqe3g","pricing_plan_id":"cebpf4jnsgd1na2vs0mg"},{"bike_id":"0f9b79b0-fae8-4177-8c60-abe1ffb44c83","system_id":"levelo_inurba_marseille","lat":43.25827,"lon":5.39428,"is_reserved":false,"is_disabled":false,"rental_uris":{"android":"levelo://app?vid=0f9b79b0-fae8-4177-8c60-abe1ffb44c83","ios":"levelo://app?vid=0f9b79b0-fae8-4177-8c60-abe1ffb44c83"},"vehicle_type_id":"4","last_reported":1734300527,"current_range_meters":38800,"station_id":"ce4bhip2rcd13ifvqft0","pricing_plan_id":"cebpf4jnsgd1na2vs0mg"},{"bike_id":"fde4b007-1d19-419c-8594-15481ba26c74","system_id":"levelo_inurba_marseille","lat":43.25101,"lon":5.4032,"is_reserved":false,"is_disabled":false,"rental_uris":{"android":"levelo://app?vid=fde4b007-1d19-419c-8594-15481ba26c74","ios":"levelo://app?vid=fde4b007-1d19-419c-8594-15481ba26c74"},"vehicle_type_id":"4","last_reported":1734300527,"current_range_meters":38800,"station_id":"ce4bhlh2rcd13ifvqgig","pricing_plan_id":"cebpf4jnsgd1na2vs0mg"},{"bike_id":"7482f887-7952-4f02-a5dc-546e954acfc6","system_id":"levelo_inurba_marseille","lat":43.29417,"lon":5.38638,"is_reserved":false,"is_disabled":true,"rental_uris":{"android":"levelo://app?vid=7482f887-7952-4f02-a5dc-546e954acfc6","ios":"levelo://app?vid=7482f887-7952-4f02-a5dc-546e954acfc6"},"vehicle_type_id":"4","last_reported":1734300527,"current_range_meters":2800,"station_id":"ce4bh2h2rcd13ifvqdh0","pricing_plan_id":"cebpf4jnsgd1na2vs0mg"},{"bike_id":"cd7529f1-c959-4736-b346-afaedf819644","system_id":"levelo_inurba_marseille","lat":43.30903,"lon":5.3684,"is_reserved":false,"is_disabled":false,"rental_uris":{"android":"levelo://app?vid=cd7529f1-c959-4736-b346-afaedf819644","ios":"levelo://app?vid=cd7529f1-c959-4736-b346-afaedf819644"},"vehicle_type_id":"4","last_reported":1734300527,"current_range_meters":39200,"station_id":"ce4bgn92rcd13ifvqbvg","pricing_plan_id":"cebpf4jnsgd1na2vs0mg"},{"bike_id":"e819ae6a-d2ca-4fed-a607-5b91827a0819","system_id":"levelo_inurba_marseille","lat":43.23205,"lon":5.35541,"is_reserved":false,"is_disabled":false,"rental_uris":{"android":"levelo://app?vid=e819ae6a-d2ca-4fed-a607-5b91827a0819","ios":"levelo://app?vid=e819ae6a-d2ca-4fed-a607-5b91827a0819"},"vehicle_type_id":"4","last_reported":1734300527,"current_range_meters":29600,"station_id":"ce4bhu92rcd13ifvqi70","pricing_plan_id":"cebpf4jnsgd1na2vs0mg"},{"bike_id":"83563778-57a6-42aa-8551-5a60974aeefb","system_id":"levelo_inurba_marseille","lat":43.24655,"lon":5.38895,"is_reserved":false,"is_disabled":false,"rental_uris":{"android":"levelo://app?vid=83563778-57a6-42aa-8551-5a60974aeefb","ios":"levelo://app?vid=83563778-57a6-42aa-8551-5a60974aeefb"},"vehicle_type_id":"4","last_reported":1734300527,"current_range_meters":38800,"station_id":"ce4bhg12rcd13ifvqf60","pricing_plan_id":"cebpf4jnsgd1na2vs0mg"},{"bike_id":"c3bfecdf-9615-4d7f-833b-6813e072b57c","system_id":"levelo_inurba_marseille","lat":43.26203,"lon":5.37932,"is_reserved":false,"is_disabled":false,"rental_uris":{"android":"levelo://app?vid=c3bfecdf-9615-4d7f-833b-6813e072b57c","ios":"levelo://app?vid=c3bfecdf-9615-4d7f-833b-6813e072b57c"},"vehicle_type_id":"4","last_reported":1734300527,"current_range_meters":25600,"station_id":"ce4bhjp2rcd13ifvqg90","pricing_plan_id":"cebpf4jnsgd1na2vs0mg"},{"bike_id":"81fc7ef2-09fd-414c-a467-687759091c37","system_id":"levelo_inurba_marseille","lat":43.312681,"lon":5.401654,"is_reserved":false,"is_disabled":false,"rental_uris":{"android":"levelo://app?vid=81fc7ef2-09fd-414c-a467-687759091c37","ios":"levelo://app?vid=81fc7ef2-09fd-414c-a467-687759091c37"},"vehicle_type_id":"4","last_reported":1734300527,"current_range_meters":38800,"station_id":"ce4bh092rcd13ifvqd30","pricing_plan_id":"cebpf4jnsgd1na2vs0mg"},{"bike_id":"9f2df41e-ff3f-43e8-a2d7-014b68a85aca","system_id":"levelo_inurba_marseille","lat":43.24071,"lon":5.37766,"is_reserved":false,"is_disabled":false,"rental_uris":{"android":"levelo://app?vid=9f2df41e-ff3f-43e8-a2d7-014b68a85aca","ios":"levelo://app?vid=9f2df41e-ff3f-43e8-a2d7-014b68a85aca"},"vehicle_type_id":"4","last_reported":1734300527,"current_range_meters":33200,"station_id":"ce4bhnp2rcd13ifvqgvg","pricing_plan_id":"cebpf4jnsgd1na2vs0mg"},{"bike_id":"2651977e-e08b-4393-9ecb-25eb0a75a8f7","system_id":"levelo_inurba_marseille","lat":43.29261,"lon":5.40899,"is_reserved":false,"is_disabled":false,"rental_uris":{"android":"levelo://app?vid=2651977e-e08b-4393-9ecb-25eb0a75a8f7","ios":"levelo://app?vid=2651977e-e08b-4393-9ecb-25eb0a75a8f7"},"vehicle_type_id":"4","last_reported":1734300527,"current_range_meters":32400,"station_id":"ce4bh192rcd13ifvqdc0","pricing_plan_id":"cebpf4jnsgd1na2vs0mg"},{"bike_id":"1955e33f-0a22-4e9a-8bf8-c165e90c65f9","system_id":"levelo_inurba_marseille","lat":43.292557,"lon":5.409163,"is_reserved":false,"is_disabled":false,"rental_uris":{"android":"levelo://app?vid=1955e33f-0a22-4e9a-8bf8-c165e90c65f9","ios":"levelo://app?vid=1955e33f-0a22-4e9a-8bf8-c165e90c65f9"},"vehicle_type_id":"4","last_reported":1734300527,"current_range_meters":39200,"station_id":"ce4bh192rcd13ifvqdc0","pricing_plan_id":"cebpf4jnsgd1na2vs0mg"},{"bike_id":"cde27e79-a3c2-48cf-b767-cd5c7722bbcb","system_id":"levelo_inurba_marseille","lat":43.2926,"lon":5.40903,"is_reserved":false,"is_disabled":false,"rental_uris":{"android":"levelo://app?vid=cde27e79-a3c2-48cf-b767-cd5c7722bbcb","ios":"levelo://app?vid=cde27e79-a3c2-48cf-b767-cd5c7722bbcb"},"vehicle_type_id":"4","last_reported":1734300527,"current_range_meters":38000,"station_id":"ce4bh192rcd13ifvqdc0","pricing_plan_id":"cebpf4jnsgd1na2vs0mg"},{"bike_id":"994bbbdd-28a3-4783-933e-04628d6b9262","system_id":"levelo_inurba_marseille","lat":43.28855,"lon":5.39325,"is_reserved":false,"is_disabled":true,"rental_uris":{"android":"levelo://app?vid=994bbbdd-28a3-4783-933e-04628d6b9262","ios":"levelo://app?vid=994bbbdd-28a3-4783-933e-04628d6b9262"},"vehicle_type_id":"4","last_reported":1734300527,"current_range_meters":31200,"station_id":"ce4bh2p2rcd13ifvqdi0","pricing_plan_id":"cebpf4jnsgd1na2vs0mg"},{"bike_id":"ae0bdd7b-187c-409c-b2b3-37aac32d4db3","system_id":"levelo_inurba_marseille","lat":43.32362,"lon":5.36757,"is_reserved":false,"is_disabled":false,"rental_uris":{"android":"levelo://app?vid=ae0bdd7b-187c-409c-b2b3-37aac32d4db3","ios":"levelo://app?vid=ae0bdd7b-187c-409c-b2b3-37aac32d4db3"},"vehicle_type_id":"4","last_reported":1734300527,"current_range_meters":34000,"station_id":"ce4bhsh2rcd13ifvqi2g","pricing_plan_id":"cebpf4jnsgd1na2vs0mg"},{"bike_id":"00ac27ae-3b9a-47df-b55c-71ec54636cda","system_id":"levelo_inurba_marseille","lat":43.29528,"lon":5.39447,"is_reserved":false,"is_disabled":false,"rental_uris":{"android":"levelo://app?vid=00ac27ae-3b9a-47df-b55c-71ec54636cda","ios":"levelo://app?vid=00ac27ae-3b9a-47df-b55c-71ec54636cda"},"vehicle_type_id":"4","last_reported":1734300527,"current_range_meters":38800,"station_id":"ce4bh292rcd13ifvqdf0","pricing_plan_id":"cebpf4jnsgd1na2vs0mg"},{"bike_id":"db819ac5-a44f-439e-90cd-8dd1f2937bdc","system_id":"levelo_inurba_marseille","lat":43.3094,"lon":5.40158,"is_reserved":false,"is_disabled":false,"rental_uris":{"android":"levelo://app?vid=db819ac5-a44f-439e-90cd-8dd1f2937bdc","ios":"levelo://app?vid=db819ac5-a44f-439e-90cd-8dd1f2937bdc"},"vehicle_type_id":"4","last_reported":1734300527,"current_range_meters":39200,"station_id":"ce4bgvp2rcd13ifvqct0","pricing_plan_id":"cebpf4jnsgd1na2vs0mg"},{"bike_id":"9ad311dd-c450-4f09-933a-ef53d4559dc3","system_id":"levelo_inurba_marseille","lat":43.26983,"lon":5.39875,"is_reserved":false,"is_disabled":false,"rental_uris":{"android":"levelo://app?vid=9ad311dd-c450-4f09-933a-ef53d4559dc3","ios":"levelo://app?vid=9ad311dd-c450-4f09-933a-ef53d4559dc3"},"vehicle_type_id":"4","last_reported":1734300527,"current_range_meters":20400,"station_id":"","pricing_plan_id":"cebpf4jnsgd1na2vs0mg"},{"bike_id":"3b25d107-763f-452c-bff7-9c41a7a92142","system_id":"levelo_inurba_marseille","lat":43.29897,"lon":5.43679,"is_reserved":false,"is_disabled":false,"rental_uris":{"android":"levelo://app?vid=3b25d107-763f-452c-bff7-9c41a7a92142","ios":"levelo://app?vid=3b25d107-763f-452c-bff7-9c41a7a92142"},"vehicle_type_id":"4","last_reported":1734300527,"current_range_meters":12400,"station_id":"ce4bhpp2rcd13ifvqhfg","pricing_plan_id":"cebpf4jnsgd1na2vs0mg"},{"bike_id":"727e202f-5114-4f49-83fe-5d7037b1cdbf","system_id":"levelo_inurba_marseille","lat":43.30328,"lon":5.40434,"is_reserved":false,"is_disabled":false,"rental_uris":{"android":"levelo://app?vid=727e202f-5114-4f49-83fe-5d7037b1cdbf","ios":"levelo://app?vid=727e202f-5114-4f49-83fe-5d7037b1cdbf"},"vehicle_type_id":"4","last_reported":1734300527,"current_range_meters":39200,"station_id":"ce4bh012rcd13ifvqd10","pricing_plan_id":"cebpf4jnsgd1na2vs0mg"},{"bike_id":"f4a66019-3e71-482c-8be6-500ac4e98590","system_id":"levelo_inurba_marseille","lat":43.25583,"lon":5.38229,"is_reserved":false,"is_disabled":false,"rental_uris":{"android":"levelo://app?vid=f4a66019-3e71-482c-8be6-500ac4e98590","ios":"levelo://app?vid=f4a66019-3e71-482c-8be6-500ac4e98590"},"vehicle_type_id":"4","last_reported":1734300527,"current_range_meters":38800,"station_id":"ce4bhih2rcd13ifvqfs0","pricing_plan_id":"cebpf4jnsgd1na2vs0mg"},{"bike_id":"af67ac53-ba21-4ff0-8334-95679e9ff2cc","system_id":"levelo_inurba_marseille","lat":43.278805,"lon":5.388003,"is_reserved":false,"is_disabled":true,"rental_uris":{"android":"levelo://app?vid=af67ac53-ba21-4ff0-8334-95679e9ff2cc","ios":"levelo://app?vid=af67ac53-ba21-4ff0-8334-95679e9ff2cc"},"vehicle_type_id":"4","last_reported":1734300527,"current_range_meters":0,"station_id":"","pricing_plan_id":"cebpf4jnsgd1na2vs0mg"},{"bike_id":"b06ba60e-8ae5-4afa-9596-3b4b008791ef","system_id":"levelo_inurba_marseille","lat":43.26501,"lon":5.39543,"is_reserved":false,"is_disabled":false,"rental_uris":{"android":"levelo://app?vid=b06ba60e-8ae5-4afa-9596-3b4b008791ef","ios":"levelo://app?vid=b06ba60e-8ae5-4afa-9596-3b4b008791ef"},"vehicle_type_id":"4","last_reported":1734300527,"current_range_meters":38800,"station_id":"ce4bhi12rcd13ifvqfq0","pricing_plan_id":"cebpf4jnsgd1na2vs0mg"},{"bike_id":"6684acfa-e9cc-4c0a-9a12-73b71e50c42c","system_id":"levelo_inurba_marseille","lat":43.29445,"lon":5.39744,"is_reserved":false,"is_disabled":false,"rental_uris":{"android":"levelo://app?vid=6684acfa-e9cc-4c0a-9a12-73b71e50c42c","ios":"levelo://app?vid=6684acfa-e9cc-4c0a-9a12-73b71e50c42c"},"vehicle_type_id":"4","last_reported":1734300527,"current_range_meters":15200,"station_id":"ce4bh3h2rcd13ifvqdo0","pricing_plan_id":"cebpf4jnsgd1na2vs0mg"},{"bike_id":"2ee47aba-edd0-4d53-a17e-e6f65b10c35f","system_id":"levelo_inurba_marseille","lat":43.30081,"lon":5.3908,"is_reserved":false,"is_disabled":true,"rental_uris":{"android":"levelo://app?vid=2ee47aba-edd0-4d53-a17e-e6f65b10c35f","ios":"levelo://app?vid=2ee47aba-edd0-4d53-a17e-e6f65b10c35f"},"vehicle_type_id":"4","last_reported":1734300527,"current_range_meters":16800,"station_id":"ce4bh192rcd13ifvqdb0","pricing_plan_id":"cebpf4jnsgd1na2vs0mg"},{"bike_id":"90707e65-1beb-4c9d-9db4-7182cdbc2477","system_id":"levelo_inurba_marseille","lat":43.30792,"lon":5.38157,"is_reserved":false,"is_disabled":false,"rental_uris":{"android":"levelo://app?vid=90707e65-1beb-4c9d-9db4-7182cdbc2477","ios":"levelo://app?vid=90707e65-1beb-4c9d-9db4-7182cdbc2477"},"vehicle_type_id":"4","last_reported":1734300527,"current_range_meters":18000,"station_id":"ce4bgt12rcd13ifvqce0","pricing_plan_id":"cebpf4jnsgd1na2vs0mg"},{"bike_id":"46ec3781-b5bd-44b6-a6ce-e7beba07df01","system_id":"levelo_inurba_marseille","lat":43.27925,"lon":5.39585,"is_reserved":false,"is_disabled":false,"rental_uris":{"android":"levelo://app?vid=46ec3781-b5bd-44b6-a6ce-e7beba07df01","ios":"levelo://app?vid=46ec3781-b5bd-44b6-a6ce-e7beba07df01"},"vehicle_type_id":"4","last_reported":1734300527,"current_range_meters":36400,"station_id":"ce4bhf92rcd13ifvqf40","pricing_plan_id":"cebpf4jnsgd1na2vs0mg"},{"bike_id":"d6116bff-8a2c-49d7-a777-dadf8af52d81","system_id":"levelo_inurba_marseille","lat":43.23974,"lon":5.3662,"is_reserved":false,"is_disabled":false,"rental_uris":{"android":"levelo://app?vid=d6116bff-8a2c-49d7-a777-dadf8af52d81","ios":"levelo://app?vid=d6116bff-8a2c-49d7-a777-dadf8af52d81"},"vehicle_type_id":"4","last_reported":1734300527,"current_range_meters":37600,"station_id":"ce4bhi12rcd13ifvqfp0","pricing_plan_id":"cebpf4jnsgd1na2vs0mg"},{"bike_id":"b9b3604f-8c05-4f36-b45c-ad47a9085f1f","system_id":"levelo_inurba_marseille","lat":43.27071,"lon":5.42276,"is_reserved":false,"is_disabled":false,"rental_uris":{"android":"levelo://app?vid=b9b3604f-8c05-4f36-b45c-ad47a9085f1f","ios":"levelo://app?vid=b9b3604f-8c05-4f36-b45c-ad47a9085f1f"},"vehicle_type_id":"4","last_reported":1734300527,"current_range_meters":32000,"station_id":"ce4bhk92rcd13ifvqgb0","pricing_plan_id":"cebpf4jnsgd1na2vs0mg"},{"bike_id":"ad9e0e56-b232-4761-8766-3140462fc53b","system_id":"levelo_inurba_marseille","lat":43.265514,"lon":5.372965,"is_reserved":false,"is_disabled":true,"rental_uris":{"android":"levelo://app?vid=ad9e0e56-b232-4761-8766-3140462fc53b","ios":"levelo://app?vid=ad9e0e56-b232-4761-8766-3140462fc53b"},"vehicle_type_id":"4","last_reported":1734300527,"current_range_meters":25600,"station_id":"ce4bhg12rcd13ifvqf70","pricing_plan_id":"cebpf4jnsgd1na2vs0mg"},{"bike_id":"656d8740-9b85-4a93-86ce-9d32a0e761f7","system_id":"levelo_inurba_marseille","lat":43.31079,"lon":5.38342,"is_reserved":false,"is_disabled":true,"rental_uris":{"android":"levelo://app?vid=656d8740-9b85-4a93-86ce-9d32a0e761f7","ios":"levelo://app?vid=656d8740-9b85-4a93-86ce-9d32a0e761f7"},"vehicle_type_id":"4","last_reported":1734300527,"current_range_meters":800,"station_id":"ce4bgv92rcd13ifvqcr0","pricing_plan_id":"cebpf4jnsgd1na2vs0mg"},{"bike_id":"30b09c14-5db6-4bdd-8ec0-8d8fd355bef3","system_id":"levelo_inurba_marseille","lat":43.29891,"lon":5.397426,"is_reserved":false,"is_disabled":true,"rental_uris":{"android":"levelo://app?vid=30b09c14-5db6-4bdd-8ec0-8d8fd355bef3","ios":"levelo://app?vid=30b09c14-5db6-4bdd-8ec0-8d8fd355bef3"},"vehicle_type_id":"4","last_reported":1734300527,"current_range_meters":38800,"station_id":"ce4bh0h2rcd13ifvqd50","pricing_plan_id":"cebpf4jnsgd1na2vs0mg"},{"bike_id":"f08c808c-af08-40b8-81c3-97739c995b77","system_id":"levelo_inurba_marseille","lat":43.3013,"lon":5.39881,"is_reserved":false,"is_disabled":true,"rental_uris":{"android":"levelo://app?vid=f08c808c-af08-40b8-81c3-97739c995b77","ios":"levelo://app?vid=f08c808c-af08-40b8-81c3-97739c995b77"},"vehicle_type_id":"4","last_reported":1734300527,"current_range_meters":8400,"station_id":"ce4bh0h2rcd13ifvqd40","pricing_plan_id":"cebpf4jnsgd1na2vs0mg"},{"bike_id":"86970bbe-b814-43c9-89a2-85f507f309fa","system_id":"levelo_inurba_marseille","lat":43.30548,"lon":5.38417,"is_reserved":false,"is_disabled":true,"rental_uris":{"android":"levelo://app?vid=86970bbe-b814-43c9-89a2-85f507f309fa","ios":"levelo://app?vid=86970bbe-b814-43c9-89a2-85f507f309fa"},"vehicle_type_id":"4","last_reported":1734300527,"current_range_meters":2000,"station_id":"ce4bgg92rcd13ifvqb30","pricing_plan_id":"cebpf4jnsgd1na2vs0mg"},{"bike_id":"d65cdb8e-ba87-4f3b-97d2-118d16c9779c","system_id":"levelo_inurba_marseille","lat":43.29444,"lon":5.39747,"is_reserved":false,"is_disabled":false,"rental_uris":{"android":"levelo://app?vid=d65cdb8e-ba87-4f3b-97d2-118d16c9779c","ios":"levelo://app?vid=d65cdb8e-ba87-4f3b-97d2-118d16c9779c"},"vehicle_type_id":"4","last_reported":1734300527,"current_range_meters":38800,"station_id":"ce4bh3h2rcd13ifvqdo0","pricing_plan_id":"cebpf4jnsgd1na2vs0mg"},{"bike_id":"96969163-05be-4d1c-a728-67794615bdfc","system_id":"levelo_inurba_marseille","lat":43.29004,"lon":5.39,"is_reserved":false,"is_disabled":false,"rental_uris":{"android":"levelo://app?vid=96969163-05be-4d1c-a728-67794615bdfc","ios":"levelo://app?vid=96969163-05be-4d1c-a728-67794615bdfc"},"vehicle_type_id":"4","last_reported":1734300527,"current_range_meters":14400,"station_id":"","pricing_plan_id":"cebpf4jnsgd1na2vs0mg"},{"bike_id":"64203de9-e72b-4d66-9a84-7a315c7ed37f","system_id":"levelo_inurba_marseille","lat":43.2944,"lon":5.37478,"is_reserved":false,"is_disabled":true,"rental_uris":{"android":"levelo://app?vid=64203de9-e72b-4d66-9a84-7a315c7ed37f","ios":"levelo://app?vid=64203de9-e72b-4d66-9a84-7a315c7ed37f"},"vehicle_type_id":"4","last_reported":1734300527,"current_range_meters":0,"station_id":"","pricing_plan_id":"cebpf4jnsgd1na2vs0mg"},{"bike_id":"43a2fa1d-314c-4a4d-b7c9-aa2f198eb73b","system_id":"levelo_inurba_marseille","lat":43.30131,"lon":5.38778,"is_reserved":false,"is_disabled":true,"rental_uris":{"android":"levelo://app?vid=43a2fa1d-314c-4a4d-b7c9-aa2f198eb73b","ios":"levelo://app?vid=43a2fa1d-314c-4a4d-b7c9-aa2f198eb73b"},"vehicle_type_id":"4","last_reported":1734300527,"current_range_meters":28800,"station_id":"ce4bghh2rcd13ifvqb60","pricing_plan_id":"cebpf4jnsgd1na2vs0mg"},{"bike_id":"515c04cd-8708-4283-8c15-7d6f7e4a4290","system_id":"levelo_inurba_marseille","lat":43.28674,"lon":5.38656,"is_reserved":false,"is_disabled":true,"rental_uris":{"android":"levelo://app?vid=515c04cd-8708-4283-8c15-7d6f7e4a4290","ios":"levelo://app?vid=515c04cd-8708-4283-8c15-7d6f7e4a4290"},"vehicle_type_id":"4","last_reported":1734300527,"current_range_meters":36400,"station_id":"ce4bh492rcd13ifvqdug","pricing_plan_id":"cebpf4jnsgd1na2vs0mg"},{"bike_id":"1023cf7c-d31c-4524-a3b9-3866612c9e20","system_id":"levelo_inurba_marseille","lat":43.28725,"lon":5.36099,"is_reserved":false,"is_disabled":false,"rental_uris":{"android":"levelo://app?vid=1023cf7c-d31c-4524-a3b9-3866612c9e20","ios":"levelo://app?vid=1023cf7c-d31c-4524-a3b9-3866612c9e20"},"vehicle_type_id":"4","last_reported":1734300527,"current_range_meters":33200,"station_id":"cki0cbj6b192h4jlfktg","pricing_plan_id":"cebpf4jnsgd1na2vs0mg"},{"bike_id":"3f51e8af-777a-4299-8def-012b1589cd93","system_id":"levelo_inurba_marseille","lat":43.308,"lon":5.38167,"is_reserved":false,"is_disabled":false,"rental_uris":{"android":"levelo://app?vid=3f51e8af-777a-4299-8def-012b1589cd93","ios":"levelo://app?vid=3f51e8af-777a-4299-8def-012b1589cd93"},"vehicle_type_id":"4","last_reported":1734300527,"current_range_meters":30400,"station_id":"ce4bgt12rcd13ifvqce0","pricing_plan_id":"cebpf4jnsgd1na2vs0mg"},{"bike_id":"d87ed566-b815-42ef-afb2-b4761a8b419d","system_id":"levelo_inurba_marseille","lat":43.28571,"lon":5.39492,"is_reserved":false,"is_disabled":true,"rental_uris":{"android":"levelo://app?vid=d87ed566-b815-42ef-afb2-b4761a8b419d","ios":"levelo://app?vid=d87ed566-b815-42ef-afb2-b4761a8b419d"},"vehicle_type_id":"4","last_reported":1734300527,"current_range_meters":38800,"station_id":"ce4bh292rcd13ifvqdg0","pricing_plan_id":"cebpf4jnsgd1na2vs0mg"},{"bike_id":"309e2e8a-2921-428b-82e9-4f1d56fd99c8","system_id":"levelo_inurba_marseille","lat":43.29969,"lon":5.38499,"is_reserved":false,"is_disabled":false,"rental_uris":{"android":"levelo://app?vid=309e2e8a-2921-428b-82e9-4f1d56fd99c8","ios":"levelo://app?vid=309e2e8a-2921-428b-82e9-4f1d56fd99c8"},"vehicle_type_id":"4","last_reported":1734300527,"current_range_meters":36800,"station_id":"ce4bgj92rcd13ifvqbd0","pricing_plan_id":"cebpf4jnsgd1na2vs0mg"},{"bike_id":"25a486e2-f500-4edf-829e-a35c78321575","system_id":"levelo_inurba_marseille","lat":43.2885,"lon":5.35839,"is_reserved":false,"is_disabled":false,"rental_uris":{"android":"levelo://app?vid=25a486e2-f500-4edf-829e-a35c78321575","ios":"levelo://app?vid=25a486e2-f500-4edf-829e-a35c78321575"},"vehicle_type_id":"4","last_reported":1734300527,"current_range_meters":12000,"station_id":"ce4bhb12rcd13ifvqem0","pricing_plan_id":"cebpf4jnsgd1na2vs0mg"},{"bike_id":"70c673d5-6066-4faf-b215-c0e7165e8d28","system_id":"levelo_inurba_marseille","lat":43.260586,"lon":5.393893,"is_reserved":false,"is_disabled":false,"rental_uris":{"android":"levelo://app?vid=70c673d5-6066-4faf-b215-c0e7165e8d28","ios":"levelo://app?vid=70c673d5-6066-4faf-b215-c0e7165e8d28"},"vehicle_type_id":"4","last_reported":1734300527,"current_range_meters":38400,"station_id":"ce4bhh92rcd13ifvqfj0","pricing_plan_id":"cebpf4jnsgd1na2vs0mg"},{"bike_id":"d6902179-7ba3-4568-9c3d-4b1f4d2634f7","system_id":"levelo_inurba_marseille","lat":43.29685,"lon":5.37281,"is_reserved":false,"is_disabled":false,"rental_uris":{"android":"levelo://app?vid=d6902179-7ba3-4568-9c3d-4b1f4d2634f7","ios":"levelo://app?vid=d6902179-7ba3-4568-9c3d-4b1f4d2634f7"},"vehicle_type_id":"4","last_reported":1734300527,"current_range_meters":30400,"station_id":"ce4bgk12rcd13ifvqbj0","pricing_plan_id":"cebpf4jnsgd1na2vs0mg"},{"bike_id":"0810675e-0ec1-421a-b95a-82de5ccce9b2","system_id":"levelo_inurba_marseille","lat":43.24177,"lon":5.39715,"is_reserved":false,"is_disabled":true,"rental_uris":{"android":"levelo://app?vid=0810675e-0ec1-421a-b95a-82de5ccce9b2","ios":"levelo://app?vid=0810675e-0ec1-421a-b95a-82de5ccce9b2"},"vehicle_type_id":"4","last_reported":1734300527,"current_range_meters":22000,"station_id":"ce4bhn12rcd13ifvqgpg","pricing_plan_id":"cebpf4jnsgd1na2vs0mg"},{"bike_id":"658b701e-1546-4ee7-a5a3-c849cfed5179","system_id":"levelo_inurba_marseille","lat":43.29612,"lon":5.37709,"is_reserved":false,"is_disabled":true,"rental_uris":{"android":"levelo://app?vid=658b701e-1546-4ee7-a5a3-c849cfed5179","ios":"levelo://app?vid=658b701e-1546-4ee7-a5a3-c849cfed5179"},"vehicle_type_id":"4","last_reported":1734300527,"current_range_meters":0,"station_id":"ce4bgi92rcd13ifvqb90","pricing_plan_id":"cebpf4jnsgd1na2vs0mg"},{"bike_id":"a77d9257-7e09-4eb7-b115-2a9383cc6471","system_id":"levelo_inurba_marseille","lat":43.31126,"lon":5.37775,"is_reserved":false,"is_disabled":false,"rental_uris":{"android":"levelo://app?vid=a77d9257-7e09-4eb7-b115-2a9383cc6471","ios":"levelo://app?vid=a77d9257-7e09-4eb7-b115-2a9383cc6471"},"vehicle_type_id":"4","last_reported":1734300527,"current_range_meters":36800,"station_id":"ce4bgt92rcd13ifvqcg0","pricing_plan_id":"cebpf4jnsgd1na2vs0mg"},{"bike_id":"4aa202eb-5e31-468f-bcb4-0b4f32e5ca71","system_id":"levelo_inurba_marseille","lat":43.32357,"lon":5.3886,"is_reserved":false,"is_disabled":false,"rental_uris":{"android":"levelo://app?vid=4aa202eb-5e31-468f-bcb4-0b4f32e5ca71","ios":"levelo://app?vid=4aa202eb-5e31-468f-bcb4-0b4f32e5ca71"},"vehicle_type_id":"4","last_reported":1734300527,"current_range_meters":16000,"station_id":"ce4bhqp2rcd13ifvqhog","pricing_plan_id":"cebpf4jnsgd1na2vs0mg"},{"bike_id":"a2554ed6-8b42-4938-a58c-2f7a6998af04","system_id":"levelo_inurba_marseille","lat":43.25772,"lon":5.37121,"is_reserved":false,"is_disabled":false,"rental_uris":{"android":"levelo://app?vid=a2554ed6-8b42-4938-a58c-2f7a6998af04","ios":"levelo://app?vid=a2554ed6-8b42-4938-a58c-2f7a6998af04"},"vehicle_type_id":"4","last_reported":1734300527,"current_range_meters":39200,"station_id":"ce4bhih2rcd13ifvqfs0","pricing_plan_id":"cebpf4jnsgd1na2vs0mg"},{"bike_id":"c9169d90-4952-4442-b216-225cffd88fbb","system_id":"levelo_inurba_marseille","lat":43.28715,"lon":5.39994,"is_reserved":false,"is_disabled":true,"rental_uris":{"android":"levelo://app?vid=c9169d90-4952-4442-b216-225cffd88fbb","ios":"levelo://app?vid=c9169d90-4952-4442-b216-225cffd88fbb"},"vehicle_type_id":"4","last_reported":1734300527,"current_range_meters":0,"station_id":"ce4bho92rcd13ifvqh3g","pricing_plan_id":"cebpf4jnsgd1na2vs0mg"},{"bike_id":"dfc48967-0e75-46cb-b088-e686423d10bf","system_id":"levelo_inurba_marseille","lat":43.28384,"lon":5.37516,"is_reserved":false,"is_disabled":false,"rental_uris":{"android":"levelo://app?vid=dfc48967-0e75-46cb-b088-e686423d10bf","ios":"levelo://app?vid=dfc48967-0e75-46cb-b088-e686423d10bf"},"vehicle_type_id":"4","last_reported":1734300527,"current_range_meters":38800,"station_id":"ce4bh412rcd13ifvqds0","pricing_plan_id":"cebpf4jnsgd1na2vs0mg"},{"bike_id":"02f133f3-8d7e-4335-91d4-58629ff49800","system_id":"levelo_inurba_marseille","lat":43.28462,"lon":5.35887,"is_reserved":false,"is_disabled":false,"rental_uris":{"android":"levelo://app?vid=02f133f3-8d7e-4335-91d4-58629ff49800","ios":"levelo://app?vid=02f133f3-8d7e-4335-91d4-58629ff49800"},"vehicle_type_id":"4","last_reported":1734300527,"current_range_meters":33200,"station_id":"ce4bhah2rcd13ifvqei0","pricing_plan_id":"cebpf4jnsgd1na2vs0mg"},{"bike_id":"fe00d4ec-a8cf-4830-8f32-0472a2a00c00","system_id":"levelo_inurba_marseille","lat":43.31887,"lon":5.40729,"is_reserved":false,"is_disabled":false,"rental_uris":{"android":"levelo://app?vid=fe00d4ec-a8cf-4830-8f32-0472a2a00c00","ios":"levelo://app?vid=fe00d4ec-a8cf-4830-8f32-0472a2a00c00"},"vehicle_type_id":"4","last_reported":1734300527,"current_range_meters":38400,"station_id":"ce4bhq12rcd13ifvqhig","pricing_plan_id":"cebpf4jnsgd1na2vs0mg"},{"bike_id":"37b36342-e045-4f12-a155-b73a9fc23ece","system_id":"levelo_inurba_marseille","lat":43.28428,"lon":5.37511,"is_reserved":false,"is_disabled":false,"rental_uris":{"android":"levelo://app?vid=37b36342-e045-4f12-a155-b73a9fc23ece","ios":"levelo://app?vid=37b36342-e045-4f12-a155-b73a9fc23ece"},"vehicle_type_id":"4","last_reported":1734300527,"current_range_meters":38000,"station_id":"ce4bh412rcd13ifvqds0","pricing_plan_id":"cebpf4jnsgd1na2vs0mg"},{"bike_id":"42d80248-c72f-4eeb-9ea0-969813445791","system_id":"levelo_inurba_marseille","lat":43.25084,"lon":5.39516,"is_reserved":false,"is_disabled":false,"rental_uris":{"android":"levelo://app?vid=42d80248-c72f-4eeb-9ea0-969813445791","ios":"levelo://app?vid=42d80248-c72f-4eeb-9ea0-969813445791"},"vehicle_type_id":"4","last_reported":1734300527,"current_range_meters":33600,"station_id":"ce4bhm12rcd13ifvqgkg","pricing_plan_id":"cebpf4jnsgd1na2vs0mg"},{"bike_id":"22b68899-8b56-4d5b-a525-250826f94187","system_id":"levelo_inurba_marseille","lat":43.30539,"lon":5.36691,"is_reserved":false,"is_disabled":true,"rental_uris":{"android":"levelo://app?vid=22b68899-8b56-4d5b-a525-250826f94187","ios":"levelo://app?vid=22b68899-8b56-4d5b-a525-250826f94187"},"vehicle_type_id":"4","last_reported":1734300527,"current_range_meters":38400,"station_id":"ce4bgrp2rcd13ifvqc9g","pricing_plan_id":"cebpf4jnsgd1na2vs0mg"},{"bike_id":"67c1c6cd-c912-4b7f-84ea-55625e0b14f6","system_id":"levelo_inurba_marseille","lat":43.25713,"lon":5.41108,"is_reserved":false,"is_disabled":false,"rental_uris":{"android":"levelo://app?vid=67c1c6cd-c912-4b7f-84ea-55625e0b14f6","ios":"levelo://app?vid=67c1c6cd-c912-4b7f-84ea-55625e0b14f6"},"vehicle_type_id":"4","last_reported":1734300527,"current_range_meters":38800,"station_id":"ce4bhkp2rcd13ifvqgd0","pricing_plan_id":"cebpf4jnsgd1na2vs0mg"},{"bike_id":"83e5b1f9-e512-4755-8dfd-f85222a054ac","system_id":"levelo_inurba_marseille","lat":43.26833,"lon":5.39636,"is_reserved":false,"is_disabled":false,"rental_uris":{"android":"levelo://app?vid=83e5b1f9-e512-4755-8dfd-f85222a054ac","ios":"levelo://app?vid=83e5b1f9-e512-4755-8dfd-f85222a054ac"},"vehicle_type_id":"4","last_reported":1734300527,"current_range_meters":16000,"station_id":"","pricing_plan_id":"cebpf4jnsgd1na2vs0mg"},{"bike_id":"483537f0-0a97-4bc9-b6b9-3700316f5817","system_id":"levelo_inurba_marseille","lat":43.29541,"lon":5.38545,"is_reserved":false,"is_disabled":true,"rental_uris":{"android":"levelo://app?vid=483537f0-0a97-4bc9-b6b9-3700316f5817","ios":"levelo://app?vid=483537f0-0a97-4bc9-b6b9-3700316f5817"},"vehicle_type_id":"4","last_reported":1734300527,"current_range_meters":6000,"station_id":"ce4bgih2rcd13ifvqba0","pricing_plan_id":"cebpf4jnsgd1na2vs0mg"},{"bike_id":"e1ce7f56-26ba-470d-9187-70d49a39a2d2","system_id":"levelo_inurba_marseille","lat":43.27828,"lon":5.39177,"is_reserved":false,"is_disabled":true,"rental_uris":{"android":"levelo://app?vid=e1ce7f56-26ba-470d-9187-70d49a39a2d2","ios":"levelo://app?vid=e1ce7f56-26ba-470d-9187-70d49a39a2d2"},"vehicle_type_id":"4","last_reported":1734300527,"current_range_meters":36400,"station_id":"ce4bhjp2rcd13ifvqga0","pricing_plan_id":"cebpf4jnsgd1na2vs0mg"},{"bike_id":"1f9f2344-774c-4681-a39f-5ccd15c769b1","system_id":"levelo_inurba_marseille","lat":43.28613,"lon":5.351,"is_reserved":false,"is_disabled":true,"rental_uris":{"android":"levelo://app?vid=1f9f2344-774c-4681-a39f-5ccd15c769b1","ios":"levelo://app?vid=1f9f2344-774c-4681-a39f-5ccd15c769b1"},"vehicle_type_id":"4","last_reported":1734300527,"current_range_meters":28800,"station_id":"ce4bhch2rcd13ifvqeug","pricing_plan_id":"cebpf4jnsgd1na2vs0mg"},{"bike_id":"a1e87f39-a169-437c-996c-14d84743b37e","system_id":"levelo_inurba_marseille","lat":43.23065,"lon":5.35484,"is_reserved":false,"is_disabled":false,"rental_uris":{"android":"levelo://app?vid=a1e87f39-a169-437c-996c-14d84743b37e","ios":"levelo://app?vid=a1e87f39-a169-437c-996c-14d84743b37e"},"vehicle_type_id":"4","last_reported":1734300527,"current_range_meters":38800,"station_id":"cpo3342slgdg3j2ifvpg","pricing_plan_id":"cebpf4jnsgd1na2vs0mg"},{"bike_id":"4564a6dd-7ac0-4433-9ee8-e416600dbd76","system_id":"levelo_inurba_marseille","lat":43.33729,"lon":5.39181,"is_reserved":false,"is_disabled":false,"rental_uris":{"android":"levelo://app?vid=4564a6dd-7ac0-4433-9ee8-e416600dbd76","ios":"levelo://app?vid=4564a6dd-7ac0-4433-9ee8-e416600dbd76"},"vehicle_type_id":"4","last_reported":1734300527,"current_range_meters":31200,"station_id":"ce4bhr92rcd13ifvqhsg","pricing_plan_id":"cebpf4jnsgd1na2vs0mg"},{"bike_id":"961cc290-4e97-401d-88be-28fbb20f2f17","system_id":"levelo_inurba_marseille","lat":43.28698,"lon":5.3739,"is_reserved":false,"is_disabled":false,"rental_uris":{"android":"levelo://app?vid=961cc290-4e97-401d-88be-28fbb20f2f17","ios":"levelo://app?vid=961cc290-4e97-401d-88be-28fbb20f2f17"},"vehicle_type_id":"4","last_reported":1734300527,"current_range_meters":38400,"station_id":"ce4bh3p2rcd13ifvqdq0","pricing_plan_id":"cebpf4jnsgd1na2vs0mg"},{"bike_id":"c976cc60-0ee0-42e8-9f75-425d602f30ed","system_id":"levelo_inurba_marseille","lat":43.29735,"lon":5.39374,"is_reserved":false,"is_disabled":false,"rental_uris":{"android":"levelo://app?vid=c976cc60-0ee0-42e8-9f75-425d602f30ed","ios":"levelo://app?vid=c976cc60-0ee0-42e8-9f75-425d602f30ed"},"vehicle_type_id":"4","last_reported":1734300527,"current_range_meters":30800,"station_id":"","pricing_plan_id":"cebpf4jnsgd1na2vs0mg"},{"bike_id":"a34223f5-c6be-48ba-acdb-c689c88a699e","system_id":"levelo_inurba_marseille","lat":43.26191,"lon":5.37449,"is_reserved":false,"is_disabled":true,"rental_uris":{"android":"levelo://app?vid=a34223f5-c6be-48ba-acdb-c689c88a699e","ios":"levelo://app?vid=a34223f5-c6be-48ba-acdb-c689c88a699e"},"vehicle_type_id":"4","last_reported":1734300527,"current_range_meters":11600,"station_id":"ce4bhgp2rcd13ifvqfc0","pricing_plan_id":"cebpf4jnsgd1na2vs0mg"},{"bike_id":"ed06153f-1d53-4545-a8a1-9b6a8dfde60c","system_id":"levelo_inurba_marseille","lat":43.28039,"lon":5.36951,"is_reserved":false,"is_disabled":false,"rental_uris":{"android":"levelo://app?vid=ed06153f-1d53-4545-a8a1-9b6a8dfde60c","ios":"levelo://app?vid=ed06153f-1d53-4545-a8a1-9b6a8dfde60c"},"vehicle_type_id":"4","last_reported":1734300527,"current_range_meters":37600,"station_id":"ce4bha12rcd13ifvqef0","pricing_plan_id":"cebpf4jnsgd1na2vs0mg"},{"bike_id":"fb75c4ba-469f-42b4-9241-bb8348b4b4dd","system_id":"levelo_inurba_marseille","lat":43.26204,"lon":5.37924,"is_reserved":false,"is_disabled":false,"rental_uris":{"android":"levelo://app?vid=fb75c4ba-469f-42b4-9241-bb8348b4b4dd","ios":"levelo://app?vid=fb75c4ba-469f-42b4-9241-bb8348b4b4dd"},"vehicle_type_id":"4","last_reported":1734300527,"current_range_meters":14400,"station_id":"ce4bhjp2rcd13ifvqg90","pricing_plan_id":"cebpf4jnsgd1na2vs0mg"},{"bike_id":"418176fc-9612-4956-8ca9-9916bd2da767","system_id":"levelo_inurba_marseille","lat":43.33025,"lon":5.39035,"is_reserved":false,"is_disabled":false,"rental_uris":{"android":"levelo://app?vid=418176fc-9612-4956-8ca9-9916bd2da767","ios":"levelo://app?vid=418176fc-9612-4956-8ca9-9916bd2da767"},"vehicle_type_id":"4","last_reported":1734300527,"current_range_meters":18000,"station_id":"ce4bhr92rcd13ifvqhrg","pricing_plan_id":"cebpf4jnsgd1na2vs0mg"},{"bike_id":"0836638b-17f2-4e13-863b-efa1e2579ea1","system_id":"levelo_inurba_marseille","lat":43.30451,"lon":5.39737,"is_reserved":false,"is_disabled":false,"rental_uris":{"android":"levelo://app?vid=0836638b-17f2-4e13-863b-efa1e2579ea1","ios":"levelo://app?vid=0836638b-17f2-4e13-863b-efa1e2579ea1"},"vehicle_type_id":"4","last_reported":1734300527,"current_range_meters":8000,"station_id":"ce4bh092rcd13ifvqd20","pricing_plan_id":"cebpf4jnsgd1na2vs0mg"},{"bike_id":"fbbba54f-c894-4c4f-a34c-17fa354571c1","system_id":"levelo_inurba_marseille","lat":43.26592,"lon":5.39025,"is_reserved":false,"is_disabled":false,"rental_uris":{"android":"levelo://app?vid=fbbba54f-c894-4c4f-a34c-17fa354571c1","ios":"levelo://app?vid=fbbba54f-c894-4c4f-a34c-17fa354571c1"},"vehicle_type_id":"4","last_reported":1734300527,"current_range_meters":35600,"station_id":"ce4bhe12rcd13ifvqf30","pricing_plan_id":"cebpf4jnsgd1na2vs0mg"},{"bike_id":"d4e5d77a-27d1-4c8d-8280-dbf389e80711","system_id":"levelo_inurba_marseille","lat":43.30314,"lon":5.36882,"is_reserved":false,"is_disabled":false,"rental_uris":{"android":"levelo://app?vid=d4e5d77a-27d1-4c8d-8280-dbf389e80711","ios":"levelo://app?vid=d4e5d77a-27d1-4c8d-8280-dbf389e80711"},"vehicle_type_id":"4","last_reported":1734300527,"current_range_meters":39200,"station_id":"ce4bgqh2rcd13ifvqc5g","pricing_plan_id":"cebpf4jnsgd1na2vs0mg"},{"bike_id":"e76f2873-e6fb-47c1-a122-e676819dd4bf","system_id":"levelo_inurba_marseille","lat":43.24179,"lon":5.39732,"is_reserved":false,"is_disabled":true,"rental_uris":{"android":"levelo://app?vid=e76f2873-e6fb-47c1-a122-e676819dd4bf","ios":"levelo://app?vid=e76f2873-e6fb-47c1-a122-e676819dd4bf"},"vehicle_type_id":"4","last_reported":1734300527,"current_range_meters":0,"station_id":"ce4bhn12rcd13ifvqgpg","pricing_plan_id":"cebpf4jnsgd1na2vs0mg"},{"bike_id":"3ceb8620-8a84-4dff-8047-301dc3087867","system_id":"levelo_inurba_marseille","lat":43.27682,"lon":5.389,"is_reserved":false,"is_disabled":true,"rental_uris":{"android":"levelo://app?vid=3ceb8620-8a84-4dff-8047-301dc3087867","ios":"levelo://app?vid=3ceb8620-8a84-4dff-8047-301dc3087867"},"vehicle_type_id":"4","last_reported":1734300527,"current_range_meters":37600,"station_id":"ce4bhi12rcd13ifvqfo0","pricing_plan_id":"cebpf4jnsgd1na2vs0mg"},{"bike_id":"69dd01d6-7009-4d0d-a6b7-d582b618281f","system_id":"levelo_inurba_marseille","lat":43.30085,"lon":5.39081,"is_reserved":false,"is_disabled":false,"rental_uris":{"android":"levelo://app?vid=69dd01d6-7009-4d0d-a6b7-d582b618281f","ios":"levelo://app?vid=69dd01d6-7009-4d0d-a6b7-d582b618281f"},"vehicle_type_id":"4","last_reported":1734300527,"current_range_meters":6000,"station_id":"ce4bh192rcd13ifvqdb0","pricing_plan_id":"cebpf4jnsgd1na2vs0mg"},{"bike_id":"4e3eebec-f009-4887-809b-5f30495d5092","system_id":"levelo_inurba_marseille","lat":43.287,"lon":5.37407,"is_reserved":false,"is_disabled":true,"rental_uris":{"android":"levelo://app?vid=4e3eebec-f009-4887-809b-5f30495d5092","ios":"levelo://app?vid=4e3eebec-f009-4887-809b-5f30495d5092"},"vehicle_type_id":"4","last_reported":1734300527,"current_range_meters":16800,"station_id":"ce4bh3p2rcd13ifvqdq0","pricing_plan_id":"cebpf4jnsgd1na2vs0mg"},{"bike_id":"eb1496f4-67ed-47fd-8660-60023378367f","system_id":"levelo_inurba_marseille","lat":43.294212,"lon":5.374322,"is_reserved":false,"is_disabled":true,"rental_uris":{"android":"levelo://app?vid=eb1496f4-67ed-47fd-8660-60023378367f","ios":"levelo://app?vid=eb1496f4-67ed-47fd-8660-60023378367f"},"vehicle_type_id":"4","last_reported":1734300527,"current_range_meters":0,"station_id":"","pricing_plan_id":"cebpf4jnsgd1na2vs0mg"},{"bike_id":"71adf873-8534-4b4c-88ad-a35b28cb9554","system_id":"levelo_inurba_marseille","lat":43.24742,"lon":5.41183,"is_reserved":false,"is_disabled":false,"rental_uris":{"android":"levelo://app?vid=71adf873-8534-4b4c-88ad-a35b28cb9554","ios":"levelo://app?vid=71adf873-8534-4b4c-88ad-a35b28cb9554"},"vehicle_type_id":"4","last_reported":1734300527,"current_range_meters":20000,"station_id":"","pricing_plan_id":"cebpf4jnsgd1na2vs0mg"},{"bike_id":"c0c3fc51-3be3-4932-a397-78224f09cbb8","system_id":"levelo_inurba_marseille","lat":43.31434,"lon":5.37575,"is_reserved":false,"is_disabled":false,"rental_uris":{"android":"levelo://app?vid=c0c3fc51-3be3-4932-a397-78224f09cbb8","ios":"levelo://app?vid=c0c3fc51-3be3-4932-a397-78224f09cbb8"},"vehicle_type_id":"4","last_reported":1734300527,"current_range_meters":19600,"station_id":"","pricing_plan_id":"cebpf4jnsgd1na2vs0mg"},{"bike_id":"24e24687-5325-42b7-be98-639e88678add","system_id":"levelo_inurba_marseille","lat":43.29061,"lon":5.37164,"is_reserved":false,"is_disabled":false,"rental_uris":{"android":"levelo://app?vid=24e24687-5325-42b7-be98-639e88678add","ios":"levelo://app?vid=24e24687-5325-42b7-be98-639e88678add"},"vehicle_type_id":"4","last_reported":1734300527,"current_range_meters":38000,"station_id":"ce4bh5p2rcd13ifvqe4g","pricing_plan_id":"cebpf4jnsgd1na2vs0mg"},{"bike_id":"38d28dbc-a7e6-47f9-b13f-6d5624f96b16","system_id":"levelo_inurba_marseille","lat":43.330261,"lon":5.390406,"is_reserved":false,"is_disabled":false,"rental_uris":{"android":"levelo://app?vid=38d28dbc-a7e6-47f9-b13f-6d5624f96b16","ios":"levelo://app?vid=38d28dbc-a7e6-47f9-b13f-6d5624f96b16"},"vehicle_type_id":"4","last_reported":1734300527,"current_range_meters":38800,"station_id":"ce4bhr92rcd13ifvqhrg","pricing_plan_id":"cebpf4jnsgd1na2vs0mg"},{"bike_id":"930810fc-705b-48f4-878d-61455430efc6","system_id":"levelo_inurba_marseille","lat":43.25582,"lon":5.3822,"is_reserved":false,"is_disabled":false,"rental_uris":{"android":"levelo://app?vid=930810fc-705b-48f4-878d-61455430efc6","ios":"levelo://app?vid=930810fc-705b-48f4-878d-61455430efc6"},"vehicle_type_id":"4","last_reported":1734300527,"current_range_meters":17600,"station_id":"ce4bhih2rcd13ifvqfs0","pricing_plan_id":"cebpf4jnsgd1na2vs0mg"},{"bike_id":"e417af0d-29ea-459e-9bdd-15daa8ff17e0","system_id":"levelo_inurba_marseille","lat":43.29535,"lon":5.38538,"is_reserved":false,"is_disabled":true,"rental_uris":{"android":"levelo://app?vid=e417af0d-29ea-459e-9bdd-15daa8ff17e0","ios":"levelo://app?vid=e417af0d-29ea-459e-9bdd-15daa8ff17e0"},"vehicle_type_id":"4","last_reported":1734300527,"current_range_meters":36400,"station_id":"ce4bgih2rcd13ifvqba0","pricing_plan_id":"cebpf4jnsgd1na2vs0mg"},{"bike_id":"60e686f6-cac0-45e2-be21-108f7ad078d8","system_id":"levelo_inurba_marseille","lat":43.27068,"lon":5.42278,"is_reserved":false,"is_disabled":false,"rental_uris":{"android":"levelo://app?vid=60e686f6-cac0-45e2-be21-108f7ad078d8","ios":"levelo://app?vid=60e686f6-cac0-45e2-be21-108f7ad078d8"},"vehicle_type_id":"4","last_reported":1734300527,"current_range_meters":38800,"station_id":"ce4bhk92rcd13ifvqgb0","pricing_plan_id":"cebpf4jnsgd1na2vs0mg"},{"bike_id":"0df249be-7d40-48ad-8915-752593b717dd","system_id":"levelo_inurba_marseille","lat":43.23204,"lon":5.35554,"is_reserved":false,"is_disabled":false,"rental_uris":{"android":"levelo://app?vid=0df249be-7d40-48ad-8915-752593b717dd","ios":"levelo://app?vid=0df249be-7d40-48ad-8915-752593b717dd"},"vehicle_type_id":"4","last_reported":1734300527,"current_range_meters":28000,"station_id":"ce4bhu92rcd13ifvqi70","pricing_plan_id":"cebpf4jnsgd1na2vs0mg"},{"bike_id":"009cda00-634d-4a78-b435-5aeb9fb20831","system_id":"levelo_inurba_marseille","lat":43.27814,"lon":5.40724,"is_reserved":false,"is_disabled":false,"rental_uris":{"android":"levelo://app?vid=009cda00-634d-4a78-b435-5aeb9fb20831","ios":"levelo://app?vid=009cda00-634d-4a78-b435-5aeb9fb20831"},"vehicle_type_id":"4","last_reported":1734300527,"current_range_meters":17200,"station_id":"ce4bhnh2rcd13ifvqgtg","pricing_plan_id":"cebpf4jnsgd1na2vs0mg"},{"bike_id":"abdf81ec-e98d-4dee-9e25-ca8f28442f23","system_id":"levelo_inurba_marseille","lat":43.29726,"lon":5.40711,"is_reserved":false,"is_disabled":true,"rental_uris":{"android":"levelo://app?vid=abdf81ec-e98d-4dee-9e25-ca8f28442f23","ios":"levelo://app?vid=abdf81ec-e98d-4dee-9e25-ca8f28442f23"},"vehicle_type_id":"4","last_reported":1734300527,"current_range_meters":0,"station_id":"","pricing_plan_id":"cebpf4jnsgd1na2vs0mg"},{"bike_id":"5bc016ea-281d-4814-9be5-3e7979d2010d","system_id":"levelo_inurba_marseille","lat":43.2795,"lon":5.41022,"is_reserved":false,"is_disabled":false,"rental_uris":{"android":"levelo://app?vid=5bc016ea-281d-4814-9be5-3e7979d2010d","ios":"levelo://app?vid=5bc016ea-281d-4814-9be5-3e7979d2010d"},"vehicle_type_id":"4","last_reported":1734300527,"current_range_meters":32400,"station_id":"ce4bhnp2rcd13ifvqh0g","pricing_plan_id":"cebpf4jnsgd1na2vs0mg"},{"bike_id":"4a1bc0db-6a2c-4623-8864-d2d18510681f","system_id":"levelo_inurba_marseille","lat":43.23187,"lon":5.35545,"is_reserved":false,"is_disabled":false,"rental_uris":{"android":"levelo://app?vid=4a1bc0db-6a2c-4623-8864-d2d18510681f","ios":"levelo://app?vid=4a1bc0db-6a2c-4623-8864-d2d18510681f"},"vehicle_type_id":"4","last_reported":1734300527,"current_range_meters":14400,"station_id":"ce4bhu92rcd13ifvqi70","pricing_plan_id":"cebpf4jnsgd1na2vs0mg"},{"bike_id":"b5fddb80-bae7-4a57-84aa-2a2cb33635e1","system_id":"levelo_inurba_marseille","lat":43.28934,"lon":5.36621,"is_reserved":false,"is_disabled":false,"rental_uris":{"android":"levelo://app?vid=b5fddb80-bae7-4a57-84aa-2a2cb33635e1","ios":"levelo://app?vid=b5fddb80-bae7-4a57-84aa-2a2cb33635e1"},"vehicle_type_id":"4","last_reported":1734300527,"current_range_meters":38800,"station_id":"ce4bhap2rcd13ifvqek0","pricing_plan_id":"cebpf4jnsgd1na2vs0mg"},{"bike_id":"e10adb71-039c-44e9-a2fc-a197b756d210","system_id":"levelo_inurba_marseille","lat":43.25132,"lon":5.40327,"is_reserved":false,"is_disabled":false,"rental_uris":{"android":"levelo://app?vid=e10adb71-039c-44e9-a2fc-a197b756d210","ios":"levelo://app?vid=e10adb71-039c-44e9-a2fc-a197b756d210"},"vehicle_type_id":"4","last_reported":1734300527,"current_range_meters":23200,"station_id":"ce4bhlh2rcd13ifvqgig","pricing_plan_id":"cebpf4jnsgd1na2vs0mg"},{"bike_id":"230e9a8a-c8f7-40a1-b317-d4afa1935b21","system_id":"levelo_inurba_marseille","lat":43.31695,"lon":5.40461,"is_reserved":false,"is_disabled":true,"rental_uris":{"android":"levelo://app?vid=230e9a8a-c8f7-40a1-b317-d4afa1935b21","ios":"levelo://app?vid=230e9a8a-c8f7-40a1-b317-d4afa1935b21"},"vehicle_type_id":"4","last_reported":1734300527,"current_range_meters":38800,"station_id":"ce4bh012rcd13ifvqd00","pricing_plan_id":"cebpf4jnsgd1na2vs0mg"},{"bike_id":"d5aa8a58-895d-4def-a851-fb2507c88163","system_id":"levelo_inurba_marseille","lat":43.29709,"lon":5.37292,"is_reserved":false,"is_disabled":false,"rental_uris":{"android":"levelo://app?vid=d5aa8a58-895d-4def-a851-fb2507c88163","ios":"levelo://app?vid=d5aa8a58-895d-4def-a851-fb2507c88163"},"vehicle_type_id":"4","last_reported":1734300527,"current_range_meters":38800,"station_id":"ce4bgk12rcd13ifvqbj0","pricing_plan_id":"cebpf4jnsgd1na2vs0mg"},{"bike_id":"ecbfcd56-e2e9-411a-916b-327a5fa7e43b","system_id":"levelo_inurba_marseille","lat":43.29996,"lon":5.37346,"is_reserved":false,"is_disabled":false,"rental_uris":{"android":"levelo://app?vid=ecbfcd56-e2e9-411a-916b-327a5fa7e43b","ios":"levelo://app?vid=ecbfcd56-e2e9-411a-916b-327a5fa7e43b"},"vehicle_type_id":"4","last_reported":1734300527,"current_range_meters":23200,"station_id":"","pricing_plan_id":"cebpf4jnsgd1na2vs0mg"},{"bike_id":"f3ae1961-3e79-473f-8663-0abb8e2498f1","system_id":"levelo_inurba_marseille","lat":43.27189,"lon":5.40981,"is_reserved":false,"is_disabled":false,"rental_uris":{"android":"levelo://app?vid=f3ae1961-3e79-473f-8663-0abb8e2498f1","ios":"levelo://app?vid=f3ae1961-3e79-473f-8663-0abb8e2498f1"},"vehicle_type_id":"4","last_reported":1734300527,"current_range_meters":38800,"station_id":"ce4bhl12rcd13ifvqgf0","pricing_plan_id":"cebpf4jnsgd1na2vs0mg"},{"bike_id":"d03a546b-9f6a-471a-a906-6006be7ffa2b","system_id":"levelo_inurba_marseille","lat":43.2954,"lon":5.39394,"is_reserved":false,"is_disabled":false,"rental_uris":{"android":"levelo://app?vid=d03a546b-9f6a-471a-a906-6006be7ffa2b","ios":"levelo://app?vid=d03a546b-9f6a-471a-a906-6006be7ffa2b"},"vehicle_type_id":"4","last_reported":1734300527,"current_range_meters":36800,"station_id":"ce4bh292rcd13ifvqdf0","pricing_plan_id":"cebpf4jnsgd1na2vs0mg"},{"bike_id":"a170ba40-17b7-4bf6-90f8-c07a5cf55709","system_id":"levelo_inurba_marseille","lat":43.24653,"lon":5.38887,"is_reserved":false,"is_disabled":true,"rental_uris":{"android":"levelo://app?vid=a170ba40-17b7-4bf6-90f8-c07a5cf55709","ios":"levelo://app?vid=a170ba40-17b7-4bf6-90f8-c07a5cf55709"},"vehicle_type_id":"4","last_reported":1734300527,"current_range_meters":36800,"station_id":"ce4bhg12rcd13ifvqf60","pricing_plan_id":"cebpf4jnsgd1na2vs0mg"},{"bike_id":"27b317b7-ef3e-4fab-a731-0cb4771be0aa","system_id":"levelo_inurba_marseille","lat":43.23194,"lon":5.35537,"is_reserved":false,"is_disabled":false,"rental_uris":{"android":"levelo://app?vid=27b317b7-ef3e-4fab-a731-0cb4771be0aa","ios":"levelo://app?vid=27b317b7-ef3e-4fab-a731-0cb4771be0aa"},"vehicle_type_id":"4","last_reported":1734300527,"current_range_meters":27600,"station_id":"ce4bhu92rcd13ifvqi70","pricing_plan_id":"cebpf4jnsgd1na2vs0mg"},{"bike_id":"d9977418-8393-49f5-a40b-c871898e58ed","system_id":"levelo_inurba_marseille","lat":43.32484,"lon":5.36563,"is_reserved":false,"is_disabled":false,"rental_uris":{"android":"levelo://app?vid=d9977418-8393-49f5-a40b-c871898e58ed","ios":"levelo://app?vid=d9977418-8393-49f5-a40b-c871898e58ed"},"vehicle_type_id":"4","last_reported":1734300527,"current_range_meters":24000,"station_id":"ce4bhs12rcd13ifvqhvg","pricing_plan_id":"cebpf4jnsgd1na2vs0mg"},{"bike_id":"1160c9b6-c207-4aee-b715-53a968ecbd5d","system_id":"levelo_inurba_marseille","lat":43.28417,"lon":5.34991,"is_reserved":false,"is_disabled":false,"rental_uris":{"android":"levelo://app?vid=1160c9b6-c207-4aee-b715-53a968ecbd5d","ios":"levelo://app?vid=1160c9b6-c207-4aee-b715-53a968ecbd5d"},"vehicle_type_id":"4","last_reported":1734300527,"current_range_meters":20800,"station_id":"ce4bhbh2rcd13ifvqepg","pricing_plan_id":"cebpf4jnsgd1na2vs0mg"},{"bike_id":"aea35cb5-36a3-48f8-a7ed-6dd686133651","system_id":"levelo_inurba_marseille","lat":43.24803,"lon":5.37451,"is_reserved":false,"is_disabled":false,"rental_uris":{"android":"levelo://app?vid=aea35cb5-36a3-48f8-a7ed-6dd686133651","ios":"levelo://app?vid=aea35cb5-36a3-48f8-a7ed-6dd686133651"},"vehicle_type_id":"4","last_reported":1734300527,"current_range_meters":35200,"station_id":"ce4bhgh2rcd13ifvqfb0","pricing_plan_id":"cebpf4jnsgd1na2vs0mg"},{"bike_id":"de334b05-31f9-4a73-9b24-31c51d007c85","system_id":"levelo_inurba_marseille","lat":43.30433,"lon":5.39751,"is_reserved":false,"is_disabled":false,"rental_uris":{"android":"levelo://app?vid=de334b05-31f9-4a73-9b24-31c51d007c85","ios":"levelo://app?vid=de334b05-31f9-4a73-9b24-31c51d007c85"},"vehicle_type_id":"4","last_reported":1734300527,"current_range_meters":38800,"station_id":"ce4bh092rcd13ifvqd20","pricing_plan_id":"cebpf4jnsgd1na2vs0mg"},{"bike_id":"cbf3fa96-3d20-4add-824b-b9dd4f19c7f3","system_id":"levelo_inurba_marseille","lat":43.28913,"lon":5.38404,"is_reserved":false,"is_disabled":false,"rental_uris":{"android":"levelo://app?vid=cbf3fa96-3d20-4add-824b-b9dd4f19c7f3","ios":"levelo://app?vid=cbf3fa96-3d20-4add-824b-b9dd4f19c7f3"},"vehicle_type_id":"4","last_reported":1734300527,"current_range_meters":38800,"station_id":"ce4bh612rcd13ifvqe6g","pricing_plan_id":"cebpf4jnsgd1na2vs0mg"},{"bike_id":"2f772da8-cdad-41ec-ba95-dc03b0367bed","system_id":"levelo_inurba_marseille","lat":43.30514,"lon":5.36709,"is_reserved":false,"is_disabled":false,"rental_uris":{"android":"levelo://app?vid=2f772da8-cdad-41ec-ba95-dc03b0367bed","ios":"levelo://app?vid=2f772da8-cdad-41ec-ba95-dc03b0367bed"},"vehicle_type_id":"4","last_reported":1734300527,"current_range_meters":9600,"station_id":"ce4bgrp2rcd13ifvqc9g","pricing_plan_id":"cebpf4jnsgd1na2vs0mg"},{"bike_id":"dfac3074-0f88-413c-a849-e409d9cf59b0","system_id":"levelo_inurba_marseille","lat":43.26067,"lon":5.39396,"is_reserved":false,"is_disabled":false,"rental_uris":{"android":"levelo://app?vid=dfac3074-0f88-413c-a849-e409d9cf59b0","ios":"levelo://app?vid=dfac3074-0f88-413c-a849-e409d9cf59b0"},"vehicle_type_id":"4","last_reported":1734300527,"current_range_meters":38800,"station_id":"ce4bhh92rcd13ifvqfj0","pricing_plan_id":"cebpf4jnsgd1na2vs0mg"},{"bike_id":"2add9805-6fe1-496b-95ec-c3450a7c4a57","system_id":"levelo_inurba_marseille","lat":43.30046,"lon":5.37415,"is_reserved":false,"is_disabled":true,"rental_uris":{"android":"levelo://app?vid=2add9805-6fe1-496b-95ec-c3450a7c4a57","ios":"levelo://app?vid=2add9805-6fe1-496b-95ec-c3450a7c4a57"},"vehicle_type_id":"4","last_reported":1734300527,"current_range_meters":0,"station_id":"","pricing_plan_id":"cebpf4jnsgd1na2vs0mg"},{"bike_id":"c8baf73b-28e0-4b98-9cea-179934d5e407","system_id":"levelo_inurba_marseille","lat":43.3118,"lon":5.38712,"is_reserved":false,"is_disabled":false,"rental_uris":{"android":"levelo://app?vid=c8baf73b-28e0-4b98-9cea-179934d5e407","ios":"levelo://app?vid=c8baf73b-28e0-4b98-9cea-179934d5e407"},"vehicle_type_id":"4","last_reported":1734300527,"current_range_meters":34000,"station_id":"ce4bgv12rcd13ifvqcp0","pricing_plan_id":"cebpf4jnsgd1na2vs0mg"},{"bike_id":"c58821f9-7843-4f2b-8e11-dffb0b46d8fe","system_id":"levelo_inurba_marseille","lat":43.29751,"lon":5.37094,"is_reserved":false,"is_disabled":false,"rental_uris":{"android":"levelo://app?vid=c58821f9-7843-4f2b-8e11-dffb0b46d8fe","ios":"levelo://app?vid=c58821f9-7843-4f2b-8e11-dffb0b46d8fe"},"vehicle_type_id":"4","last_reported":1734300527,"current_range_meters":30400,"station_id":"ce4bgop2rcd13ifvqc1g","pricing_plan_id":"cebpf4jnsgd1na2vs0mg"},{"bike_id":"b7c0a3c4-ef2f-4743-bc4b-b54047600733","system_id":"levelo_inurba_marseille","lat":43.30608,"lon":5.37221,"is_reserved":false,"is_disabled":false,"rental_uris":{"android":"levelo://app?vid=b7c0a3c4-ef2f-4743-bc4b-b54047600733","ios":"levelo://app?vid=b7c0a3c4-ef2f-4743-bc4b-b54047600733"},"vehicle_type_id":"4","last_reported":1734300527,"current_range_meters":38000,"station_id":"ce4bgqh2rcd13ifvqc4g","pricing_plan_id":"cebpf4jnsgd1na2vs0mg"},{"bike_id":"86b3c8f6-4210-41b4-b2a8-c7e5e78c6846","system_id":"levelo_inurba_marseille","lat":43.29041,"lon":5.38688,"is_reserved":false,"is_disabled":false,"rental_uris":{"android":"levelo://app?vid=86b3c8f6-4210-41b4-b2a8-c7e5e78c6846","ios":"levelo://app?vid=86b3c8f6-4210-41b4-b2a8-c7e5e78c6846"},"vehicle_type_id":"4","last_reported":1734300527,"current_range_meters":32400,"station_id":"ce4bh3p2rcd13ifvqdq0","pricing_plan_id":"cebpf4jnsgd1na2vs0mg"},{"bike_id":"77d31764-2f28-4685-a40a-ff128b8ef1b2","system_id":"levelo_inurba_marseille","lat":43.24068,"lon":5.37762,"is_reserved":false,"is_disabled":false,"rental_uris":{"android":"levelo://app?vid=77d31764-2f28-4685-a40a-ff128b8ef1b2","ios":"levelo://app?vid=77d31764-2f28-4685-a40a-ff128b8ef1b2"},"vehicle_type_id":"4","last_reported":1734300527,"current_range_meters":36000,"station_id":"ce4bhnp2rcd13ifvqgvg","pricing_plan_id":"cebpf4jnsgd1na2vs0mg"},{"bike_id":"2f50f8bb-803b-4202-b8c4-8232595be63d","system_id":"levelo_inurba_marseille","lat":43.32109,"lon":5.36764,"is_reserved":false,"is_disabled":false,"rental_uris":{"android":"levelo://app?vid=2f50f8bb-803b-4202-b8c4-8232595be63d","ios":"levelo://app?vid=2f50f8bb-803b-4202-b8c4-8232595be63d"},"vehicle_type_id":"4","last_reported":1734300527,"current_range_meters":24000,"station_id":"ce4bhrh2rcd13ifvqhug","pricing_plan_id":"cebpf4jnsgd1na2vs0mg"},{"bike_id":"fe09b4f2-e69c-4010-8f4d-948ab8176526","system_id":"levelo_inurba_marseille","lat":43.28332,"lon":5.38099,"is_reserved":false,"is_disabled":false,"rental_uris":{"android":"levelo://app?vid=fe09b4f2-e69c-4010-8f4d-948ab8176526","ios":"levelo://app?vid=fe09b4f2-e69c-4010-8f4d-948ab8176526"},"vehicle_type_id":"4","last_reported":1734300527,"current_range_meters":38800,"station_id":"ce4bh412rcd13ifvqdr0","pricing_plan_id":"cebpf4jnsgd1na2vs0mg"},{"bike_id":"92dd8d3d-cfd2-4397-b62a-2aba546f4a8a","system_id":"levelo_inurba_marseille","lat":43.31558,"lon":5.3881,"is_reserved":false,"is_disabled":false,"rental_uris":{"android":"levelo://app?vid=92dd8d3d-cfd2-4397-b62a-2aba546f4a8a","ios":"levelo://app?vid=92dd8d3d-cfd2-4397-b62a-2aba546f4a8a"},"vehicle_type_id":"4","last_reported":1734300527,"current_range_meters":38000,"station_id":"","pricing_plan_id":"cebpf4jnsgd1na2vs0mg"},{"bike_id":"63eaffe0-9361-4ff6-ab19-8007100ee7ae","system_id":"levelo_inurba_marseille","lat":43.24174,"lon":5.39711,"is_reserved":false,"is_disabled":false,"rental_uris":{"android":"levelo://app?vid=63eaffe0-9361-4ff6-ab19-8007100ee7ae","ios":"levelo://app?vid=63eaffe0-9361-4ff6-ab19-8007100ee7ae"},"vehicle_type_id":"4","last_reported":1734300527,"current_range_meters":36400,"station_id":"ce4bhn12rcd13ifvqgpg","pricing_plan_id":"cebpf4jnsgd1na2vs0mg"},{"bike_id":"604f4c53-7126-4c38-a496-1deeabae457e","system_id":"levelo_inurba_marseille","lat":43.24032,"lon":5.37743,"is_reserved":false,"is_disabled":false,"rental_uris":{"android":"levelo://app?vid=604f4c53-7126-4c38-a496-1deeabae457e","ios":"levelo://app?vid=604f4c53-7126-4c38-a496-1deeabae457e"},"vehicle_type_id":"4","last_reported":1734300527,"current_range_meters":36400,"station_id":"ce4bhnp2rcd13ifvqgvg","pricing_plan_id":"cebpf4jnsgd1na2vs0mg"},{"bike_id":"9134430e-f002-4d84-96cb-0e93ff2cf3ee","system_id":"levelo_inurba_marseille","lat":43.27554,"lon":5.38389,"is_reserved":false,"is_disabled":false,"rental_uris":{"android":"levelo://app?vid=9134430e-f002-4d84-96cb-0e93ff2cf3ee","ios":"levelo://app?vid=9134430e-f002-4d84-96cb-0e93ff2cf3ee"},"vehicle_type_id":"4","last_reported":1734300527,"current_range_meters":33600,"station_id":"ce4bhh92rcd13ifvqfi0","pricing_plan_id":"cebpf4jnsgd1na2vs0mg"},{"bike_id":"0d823a4b-f010-478c-95ef-611ad2a854e4","system_id":"levelo_inurba_marseille","lat":43.29272,"lon":5.40906,"is_reserved":false,"is_disabled":false,"rental_uris":{"android":"levelo://app?vid=0d823a4b-f010-478c-95ef-611ad2a854e4","ios":"levelo://app?vid=0d823a4b-f010-478c-95ef-611ad2a854e4"},"vehicle_type_id":"4","last_reported":1734300527,"current_range_meters":30000,"station_id":"ce4bh192rcd13ifvqdc0","pricing_plan_id":"cebpf4jnsgd1na2vs0mg"},{"bike_id":"cc2cff43-f23c-44ff-ac37-930e020227b1","system_id":"levelo_inurba_marseille","lat":43.28933,"lon":5.38406,"is_reserved":false,"is_disabled":false,"rental_uris":{"android":"levelo://app?vid=cc2cff43-f23c-44ff-ac37-930e020227b1","ios":"levelo://app?vid=cc2cff43-f23c-44ff-ac37-930e020227b1"},"vehicle_type_id":"4","last_reported":1734300527,"current_range_meters":39200,"station_id":"ce4bh612rcd13ifvqe6g","pricing_plan_id":"cebpf4jnsgd1na2vs0mg"},{"bike_id":"af5005fc-d058-4152-a2f0-a599ec2fe143","system_id":"levelo_inurba_marseille","lat":43.32289,"lon":5.38278,"is_reserved":false,"is_disabled":false,"rental_uris":{"android":"levelo://app?vid=af5005fc-d058-4152-a2f0-a599ec2fe143","ios":"levelo://app?vid=af5005fc-d058-4152-a2f0-a599ec2fe143"},"vehicle_type_id":"4","last_reported":1734300527,"current_range_meters":38800,"station_id":"ce4bhr12rcd13ifvqhqg","pricing_plan_id":"cebpf4jnsgd1na2vs0mg"},{"bike_id":"3650d84c-d2fd-4728-abeb-b9accdfa7210","system_id":"levelo_inurba_marseille","lat":43.30244,"lon":5.40064,"is_reserved":false,"is_disabled":true,"rental_uris":{"android":"levelo://app?vid=3650d84c-d2fd-4728-abeb-b9accdfa7210","ios":"levelo://app?vid=3650d84c-d2fd-4728-abeb-b9accdfa7210"},"vehicle_type_id":"4","last_reported":1734300527,"current_range_meters":19200,"station_id":"ce4bgvh2rcd13ifvqcs0","pricing_plan_id":"cebpf4jnsgd1na2vs0mg"},{"bike_id":"e36622c7-8c1a-4c30-b76d-7f5854e8da6d","system_id":"levelo_inurba_marseille","lat":43.31166,"lon":5.38717,"is_reserved":false,"is_disabled":false,"rental_uris":{"android":"levelo://app?vid=e36622c7-8c1a-4c30-b76d-7f5854e8da6d","ios":"levelo://app?vid=e36622c7-8c1a-4c30-b76d-7f5854e8da6d"},"vehicle_type_id":"4","last_reported":1734300527,"current_range_meters":38000,"station_id":"ce4bgv12rcd13ifvqcp0","pricing_plan_id":"cebpf4jnsgd1na2vs0mg"},{"bike_id":"b78abdd0-5f07-43ee-acb2-0dd6a958058f","system_id":"levelo_inurba_marseille","lat":43.30014,"lon":5.37151,"is_reserved":false,"is_disabled":true,"rental_uris":{"android":"levelo://app?vid=b78abdd0-5f07-43ee-acb2-0dd6a958058f","ios":"levelo://app?vid=b78abdd0-5f07-43ee-acb2-0dd6a958058f"},"vehicle_type_id":"4","last_reported":1734300527,"current_range_meters":19600,"station_id":"","pricing_plan_id":"cebpf4jnsgd1na2vs0mg"},{"bike_id":"0a941950-f8c5-43d2-a84e-e293f08c1694","system_id":"levelo_inurba_marseille","lat":43.30656,"lon":5.40073,"is_reserved":false,"is_disabled":false,"rental_uris":{"android":"levelo://app?vid=0a941950-f8c5-43d2-a84e-e293f08c1694","ios":"levelo://app?vid=0a941950-f8c5-43d2-a84e-e293f08c1694"},"vehicle_type_id":"4","last_reported":1734300527,"current_range_meters":30400,"station_id":"ce4bh112rcd13ifvqda0","pricing_plan_id":"cebpf4jnsgd1na2vs0mg"},{"bike_id":"a4226c82-b5d7-4427-ad3f-ae4266437df8","system_id":"levelo_inurba_marseille","lat":43.31363,"lon":5.38501,"is_reserved":false,"is_disabled":false,"rental_uris":{"android":"levelo://app?vid=a4226c82-b5d7-4427-ad3f-ae4266437df8","ios":"levelo://app?vid=a4226c82-b5d7-4427-ad3f-ae4266437df8"},"vehicle_type_id":"4","last_reported":1734300527,"current_range_meters":16400,"station_id":"ce4bgt92rcd13ifvqcf0","pricing_plan_id":"cebpf4jnsgd1na2vs0mg"},{"bike_id":"ab807b58-8eba-4cf8-8618-af0ee86e6831","system_id":"levelo_inurba_marseille","lat":43.26061,"lon":5.39406,"is_reserved":false,"is_disabled":false,"rental_uris":{"android":"levelo://app?vid=ab807b58-8eba-4cf8-8618-af0ee86e6831","ios":"levelo://app?vid=ab807b58-8eba-4cf8-8618-af0ee86e6831"},"vehicle_type_id":"4","last_reported":1734300527,"current_range_meters":32000,"station_id":"ce4bhh92rcd13ifvqfj0","pricing_plan_id":"cebpf4jnsgd1na2vs0mg"},{"bike_id":"76805181-b86b-42c5-9eb1-0613fe81a89e","system_id":"levelo_inurba_marseille","lat":43.23197,"lon":5.35554,"is_reserved":false,"is_disabled":false,"rental_uris":{"android":"levelo://app?vid=76805181-b86b-42c5-9eb1-0613fe81a89e","ios":"levelo://app?vid=76805181-b86b-42c5-9eb1-0613fe81a89e"},"vehicle_type_id":"4","last_reported":1734300527,"current_range_meters":38800,"station_id":"ce4bhu92rcd13ifvqi70","pricing_plan_id":"cebpf4jnsgd1na2vs0mg"},{"bike_id":"ca4ec221-fe7b-4202-aae9-ab0d0e7f3c05","system_id":"levelo_inurba_marseille","lat":43.26489,"lon":5.39557,"is_reserved":false,"is_disabled":false,"rental_uris":{"android":"levelo://app?vid=ca4ec221-fe7b-4202-aae9-ab0d0e7f3c05","ios":"levelo://app?vid=ca4ec221-fe7b-4202-aae9-ab0d0e7f3c05"},"vehicle_type_id":"4","last_reported":1734300527,"current_range_meters":36800,"station_id":"ce4bhi12rcd13ifvqfq0","pricing_plan_id":"cebpf4jnsgd1na2vs0mg"},{"bike_id":"0fca9ae1-8fdb-4e99-b40e-4e08b29cfd87","system_id":"levelo_inurba_marseille","lat":43.30801,"lon":5.3816,"is_reserved":false,"is_disabled":false,"rental_uris":{"android":"levelo://app?vid=0fca9ae1-8fdb-4e99-b40e-4e08b29cfd87","ios":"levelo://app?vid=0fca9ae1-8fdb-4e99-b40e-4e08b29cfd87"},"vehicle_type_id":"4","last_reported":1734300527,"current_range_meters":17200,"station_id":"ce4bgt12rcd13ifvqce0","pricing_plan_id":"cebpf4jnsgd1na2vs0mg"},{"bike_id":"5e60823c-bf16-4feb-9e16-a57dfc48fba5","system_id":"levelo_inurba_marseille","lat":43.28935,"lon":5.3663,"is_reserved":false,"is_disabled":false,"rental_uris":{"android":"levelo://app?vid=5e60823c-bf16-4feb-9e16-a57dfc48fba5","ios":"levelo://app?vid=5e60823c-bf16-4feb-9e16-a57dfc48fba5"},"vehicle_type_id":"4","last_reported":1734300527,"current_range_meters":32400,"station_id":"ce4bhap2rcd13ifvqek0","pricing_plan_id":"cebpf4jnsgd1na2vs0mg"},{"bike_id":"2055e66d-9e07-42eb-a643-e7f7c5adc259","system_id":"levelo_inurba_marseille","lat":43.27953,"lon":5.41023,"is_reserved":false,"is_disabled":false,"rental_uris":{"android":"levelo://app?vid=2055e66d-9e07-42eb-a643-e7f7c5adc259","ios":"levelo://app?vid=2055e66d-9e07-42eb-a643-e7f7c5adc259"},"vehicle_type_id":"4","last_reported":1734300527,"current_range_meters":30000,"station_id":"ce4bhnp2rcd13ifvqh0g","pricing_plan_id":"cebpf4jnsgd1na2vs0mg"},{"bike_id":"6cb5f94f-eade-4b7c-b995-84c805be74f9","system_id":"levelo_inurba_marseille","lat":43.33779,"lon":5.37414,"is_reserved":false,"is_disabled":false,"rental_uris":{"android":"levelo://app?vid=6cb5f94f-eade-4b7c-b995-84c805be74f9","ios":"levelo://app?vid=6cb5f94f-eade-4b7c-b995-84c805be74f9"},"vehicle_type_id":"4","last_reported":1734300527,"current_range_meters":33200,"station_id":"","pricing_plan_id":"cebpf4jnsgd1na2vs0mg"},{"bike_id":"5cded315-570b-4c0b-b015-bac53bb71581","system_id":"levelo_inurba_marseille","lat":43.28529,"lon":5.38977,"is_reserved":false,"is_disabled":true,"rental_uris":{"android":"levelo://app?vid=5cded315-570b-4c0b-b015-bac53bb71581","ios":"levelo://app?vid=5cded315-570b-4c0b-b015-bac53bb71581"},"vehicle_type_id":"4","last_reported":1734300527,"current_range_meters":0,"station_id":"","pricing_plan_id":"cebpf4jnsgd1na2vs0mg"},{"bike_id":"c21a5a53-a433-4bb5-8ec6-5269f62fa0a0","system_id":"levelo_inurba_marseille","lat":43.28692,"lon":5.37396,"is_reserved":false,"is_disabled":false,"rental_uris":{"android":"levelo://app?vid=c21a5a53-a433-4bb5-8ec6-5269f62fa0a0","ios":"levelo://app?vid=c21a5a53-a433-4bb5-8ec6-5269f62fa0a0"},"vehicle_type_id":"4","last_reported":1734300527,"current_range_meters":33600,"station_id":"ce4bh3p2rcd13ifvqdq0","pricing_plan_id":"cebpf4jnsgd1na2vs0mg"},{"bike_id":"4a699e76-a616-4bff-b099-c5b629cc0796","system_id":"levelo_inurba_marseille","lat":43.2669,"lon":5.38258,"is_reserved":false,"is_disabled":false,"rental_uris":{"android":"levelo://app?vid=4a699e76-a616-4bff-b099-c5b629cc0796","ios":"levelo://app?vid=4a699e76-a616-4bff-b099-c5b629cc0796"},"vehicle_type_id":"4","last_reported":1734300527,"current_range_meters":37600,"station_id":"ce4bhg92rcd13ifvqf90","pricing_plan_id":"cebpf4jnsgd1na2vs0mg"},{"bike_id":"a72ebfd9-0cf6-452a-80fd-f3a90f8e3456","system_id":"levelo_inurba_marseille","lat":43.27828,"lon":5.39192,"is_reserved":false,"is_disabled":false,"rental_uris":{"android":"levelo://app?vid=a72ebfd9-0cf6-452a-80fd-f3a90f8e3456","ios":"levelo://app?vid=a72ebfd9-0cf6-452a-80fd-f3a90f8e3456"},"vehicle_type_id":"4","last_reported":1734300527,"current_range_meters":37600,"station_id":"ce4bhjp2rcd13ifvqga0","pricing_plan_id":"cebpf4jnsgd1na2vs0mg"},{"bike_id":"61059a51-39d7-4f0a-a098-bfd36e6d1bf2","system_id":"levelo_inurba_marseille","lat":43.31745,"lon":5.39004,"is_reserved":false,"is_disabled":false,"rental_uris":{"android":"levelo://app?vid=61059a51-39d7-4f0a-a098-bfd36e6d1bf2","ios":"levelo://app?vid=61059a51-39d7-4f0a-a098-bfd36e6d1bf2"},"vehicle_type_id":"4","last_reported":1734300527,"current_range_meters":35600,"station_id":"ce4bhqp2rcd13ifvqhng","pricing_plan_id":"cebpf4jnsgd1na2vs0mg"},{"bike_id":"e508d9a0-a558-4738-94ea-bd1fdc4a7adf","system_id":"levelo_inurba_marseille","lat":43.27536,"lon":5.38422,"is_reserved":false,"is_disabled":false,"rental_uris":{"android":"levelo://app?vid=e508d9a0-a558-4738-94ea-bd1fdc4a7adf","ios":"levelo://app?vid=e508d9a0-a558-4738-94ea-bd1fdc4a7adf"},"vehicle_type_id":"4","last_reported":1734300527,"current_range_meters":10800,"station_id":"ce4bhh92rcd13ifvqfi0","pricing_plan_id":"cebpf4jnsgd1na2vs0mg"},{"bike_id":"e20f0cb9-a50f-4a2f-9a91-0c3e04262095","system_id":"levelo_inurba_marseille","lat":43.2989,"lon":5.39736,"is_reserved":false,"is_disabled":false,"rental_uris":{"android":"levelo://app?vid=e20f0cb9-a50f-4a2f-9a91-0c3e04262095","ios":"levelo://app?vid=e20f0cb9-a50f-4a2f-9a91-0c3e04262095"},"vehicle_type_id":"4","last_reported":1734300527,"current_range_meters":39200,"station_id":"ce4bh0h2rcd13ifvqd50","pricing_plan_id":"cebpf4jnsgd1na2vs0mg"},{"bike_id":"f8bf9f7e-8f6d-4668-87a0-8837a683fa6d","system_id":"levelo_inurba_marseille","lat":43.29373,"lon":5.37823,"is_reserved":false,"is_disabled":false,"rental_uris":{"android":"levelo://app?vid=f8bf9f7e-8f6d-4668-87a0-8837a683fa6d","ios":"levelo://app?vid=f8bf9f7e-8f6d-4668-87a0-8837a683fa6d"},"vehicle_type_id":"4","last_reported":1734300527,"current_range_meters":36400,"station_id":"ce4bgjh2rcd13ifvqbf0","pricing_plan_id":"cebpf4jnsgd1na2vs0mg"},{"bike_id":"ca59d865-1951-4846-a717-a349b9e50e7c","system_id":"levelo_inurba_marseille","lat":43.2762,"lon":5.3609,"is_reserved":false,"is_disabled":true,"rental_uris":{"android":"levelo://app?vid=ca59d865-1951-4846-a717-a349b9e50e7c","ios":"levelo://app?vid=ca59d865-1951-4846-a717-a349b9e50e7c"},"vehicle_type_id":"4","last_reported":1734300527,"current_range_meters":30000,"station_id":"ce4bgj92rcd13ifvqbe0","pricing_plan_id":"cebpf4jnsgd1na2vs0mg"},{"bike_id":"b9fd1ec1-c8e7-4f0e-affb-f503d2a58475","system_id":"levelo_inurba_marseille","lat":43.27377,"lon":5.36254,"is_reserved":false,"is_disabled":false,"rental_uris":{"android":"levelo://app?vid=b9fd1ec1-c8e7-4f0e-affb-f503d2a58475","ios":"levelo://app?vid=b9fd1ec1-c8e7-4f0e-affb-f503d2a58475"},"vehicle_type_id":"4","last_reported":1734300527,"current_range_meters":38800,"station_id":"ce4bhbh2rcd13ifvqeo0","pricing_plan_id":"cebpf4jnsgd1na2vs0mg"},{"bike_id":"eac0cb5d-fb42-4586-b6d8-76d413a7c664","system_id":"levelo_inurba_marseille","lat":43.30793,"lon":5.38144,"is_reserved":false,"is_disabled":false,"rental_uris":{"android":"levelo://app?vid=eac0cb5d-fb42-4586-b6d8-76d413a7c664","ios":"levelo://app?vid=eac0cb5d-fb42-4586-b6d8-76d413a7c664"},"vehicle_type_id":"4","last_reported":1734300527,"current_range_meters":38800,"station_id":"ce4bgt12rcd13ifvqce0","pricing_plan_id":"cebpf4jnsgd1na2vs0mg"},{"bike_id":"283ec910-2b59-4ffd-bbff-9867d116f826","system_id":"levelo_inurba_marseille","lat":43.337444,"lon":5.374475,"is_reserved":false,"is_disabled":true,"rental_uris":{"android":"levelo://app?vid=283ec910-2b59-4ffd-bbff-9867d116f826","ios":"levelo://app?vid=283ec910-2b59-4ffd-bbff-9867d116f826"},"vehicle_type_id":"4","last_reported":1734300527,"current_range_meters":0,"station_id":"","pricing_plan_id":"cebpf4jnsgd1na2vs0mg"},{"bike_id":"44bb1ee1-6608-426b-ad9e-5efdc1a7eac0","system_id":"levelo_inurba_marseille","lat":43.3382,"lon":5.37418,"is_reserved":false,"is_disabled":false,"rental_uris":{"android":"levelo://app?vid=44bb1ee1-6608-426b-ad9e-5efdc1a7eac0","ios":"levelo://app?vid=44bb1ee1-6608-426b-ad9e-5efdc1a7eac0"},"vehicle_type_id":"4","last_reported":1734300527,"current_range_meters":19600,"station_id":"","pricing_plan_id":"cebpf4jnsgd1na2vs0mg"},{"bike_id":"19ee206d-0a60-44d6-b3b5-610ff9f47bf0","system_id":"levelo_inurba_marseille","lat":43.30136,"lon":5.39867,"is_reserved":false,"is_disabled":false,"rental_uris":{"android":"levelo://app?vid=19ee206d-0a60-44d6-b3b5-610ff9f47bf0","ios":"levelo://app?vid=19ee206d-0a60-44d6-b3b5-610ff9f47bf0"},"vehicle_type_id":"4","last_reported":1734300527,"current_range_meters":30400,"station_id":"ce4bh0h2rcd13ifvqd40","pricing_plan_id":"cebpf4jnsgd1na2vs0mg"},{"bike_id":"927f5be4-1071-49a4-8f24-e806d436043e","system_id":"levelo_inurba_marseille","lat":43.30302,"lon":5.36843,"is_reserved":false,"is_disabled":false,"rental_uris":{"android":"levelo://app?vid=927f5be4-1071-49a4-8f24-e806d436043e","ios":"levelo://app?vid=927f5be4-1071-49a4-8f24-e806d436043e"},"vehicle_type_id":"4","last_reported":1734300527,"current_range_meters":22000,"station_id":"ce4bgjh2rcd13ifvqbg0","pricing_plan_id":"cebpf4jnsgd1na2vs0mg"},{"bike_id":"bbffd889-750b-4762-ae94-78458d50ea91","system_id":"levelo_inurba_marseille","lat":43.33727,"lon":5.39183,"is_reserved":false,"is_disabled":false,"rental_uris":{"android":"levelo://app?vid=bbffd889-750b-4762-ae94-78458d50ea91","ios":"levelo://app?vid=bbffd889-750b-4762-ae94-78458d50ea91"},"vehicle_type_id":"4","last_reported":1734300527,"current_range_meters":39200,"station_id":"ce4bhr92rcd13ifvqhsg","pricing_plan_id":"cebpf4jnsgd1na2vs0mg"},{"bike_id":"a57235e9-c3a7-4e56-94aa-f2ec8fb47dd5","system_id":"levelo_inurba_marseille","lat":43.28464,"lon":5.35884,"is_reserved":false,"is_disabled":false,"rental_uris":{"android":"levelo://app?vid=a57235e9-c3a7-4e56-94aa-f2ec8fb47dd5","ios":"levelo://app?vid=a57235e9-c3a7-4e56-94aa-f2ec8fb47dd5"},"vehicle_type_id":"4","last_reported":1734300527,"current_range_meters":34000,"station_id":"ce4bhah2rcd13ifvqei0","pricing_plan_id":"cebpf4jnsgd1na2vs0mg"},{"bike_id":"6af93c5c-2369-4249-9874-540f27f0edd3","system_id":"levelo_inurba_marseille","lat":43.33726,"lon":5.3918,"is_reserved":false,"is_disabled":false,"rental_uris":{"android":"levelo://app?vid=6af93c5c-2369-4249-9874-540f27f0edd3","ios":"levelo://app?vid=6af93c5c-2369-4249-9874-540f27f0edd3"},"vehicle_type_id":"4","last_reported":1734300527,"current_range_meters":38800,"station_id":"ce4bhr92rcd13ifvqhsg","pricing_plan_id":"cebpf4jnsgd1na2vs0mg"},{"bike_id":"4e99bf0b-18b5-4848-80f1-0b0419a2900d","system_id":"levelo_inurba_marseille","lat":43.24155,"lon":5.39716,"is_reserved":false,"is_disabled":false,"rental_uris":{"android":"levelo://app?vid=4e99bf0b-18b5-4848-80f1-0b0419a2900d","ios":"levelo://app?vid=4e99bf0b-18b5-4848-80f1-0b0419a2900d"},"vehicle_type_id":"4","last_reported":1734300527,"current_range_meters":18800,"station_id":"ce4bhn12rcd13ifvqgpg","pricing_plan_id":"cebpf4jnsgd1na2vs0mg"},{"bike_id":"6e6a004b-462d-4b03-aeaa-2611256f0d89","system_id":"levelo_inurba_marseille","lat":43.28123,"lon":5.38934,"is_reserved":false,"is_disabled":true,"rental_uris":{"android":"levelo://app?vid=6e6a004b-462d-4b03-aeaa-2611256f0d89","ios":"levelo://app?vid=6e6a004b-462d-4b03-aeaa-2611256f0d89"},"vehicle_type_id":"4","last_reported":1734300527,"current_range_meters":0,"station_id":"","pricing_plan_id":"cebpf4jnsgd1na2vs0mg"},{"bike_id":"7213f72e-c7cd-48f2-80d6-cfd2cf9871b6","system_id":"levelo_inurba_marseille","lat":43.33019,"lon":5.39039,"is_reserved":false,"is_disabled":false,"rental_uris":{"android":"levelo://app?vid=7213f72e-c7cd-48f2-80d6-cfd2cf9871b6","ios":"levelo://app?vid=7213f72e-c7cd-48f2-80d6-cfd2cf9871b6"},"vehicle_type_id":"4","last_reported":1734300527,"current_range_meters":36400,"station_id":"ce4bhr92rcd13ifvqhrg","pricing_plan_id":"cebpf4jnsgd1na2vs0mg"},{"bike_id":"188d243c-71fc-4dde-99f6-e63166352cef","system_id":"levelo_inurba_marseille","lat":43.2587,"lon":5.39895,"is_reserved":false,"is_disabled":true,"rental_uris":{"android":"levelo://app?vid=188d243c-71fc-4dde-99f6-e63166352cef","ios":"levelo://app?vid=188d243c-71fc-4dde-99f6-e63166352cef"},"vehicle_type_id":"4","last_reported":1734300527,"current_range_meters":0,"station_id":"ce4bhl92rcd13ifvqghg","pricing_plan_id":"cebpf4jnsgd1na2vs0mg"},{"bike_id":"678b399b-f2ef-45fb-98f9-5d16e03867db","system_id":"levelo_inurba_marseille","lat":43.30805,"lon":5.38143,"is_reserved":false,"is_disabled":false,"rental_uris":{"android":"levelo://app?vid=678b399b-f2ef-45fb-98f9-5d16e03867db","ios":"levelo://app?vid=678b399b-f2ef-45fb-98f9-5d16e03867db"},"vehicle_type_id":"4","last_reported":1734300527,"current_range_meters":29600,"station_id":"ce4bgt12rcd13ifvqce0","pricing_plan_id":"cebpf4jnsgd1na2vs0mg"},{"bike_id":"65d75ee6-15b8-48b7-bd8e-d7a3b305d0ab","system_id":"levelo_inurba_marseille","lat":43.28712,"lon":5.37392,"is_reserved":false,"is_disabled":false,"rental_uris":{"android":"levelo://app?vid=65d75ee6-15b8-48b7-bd8e-d7a3b305d0ab","ios":"levelo://app?vid=65d75ee6-15b8-48b7-bd8e-d7a3b305d0ab"},"vehicle_type_id":"4","last_reported":1734300527,"current_range_meters":38800,"station_id":"ce4bh3p2rcd13ifvqdq0","pricing_plan_id":"cebpf4jnsgd1na2vs0mg"},