{"last_updated":1765883414,"ttl":60,"version":"2.2","data":{"bikes":[{"bike_id":"8c2d6516-454e-40cd-ab7a-2758dd03e1ba","system_id":"levelo_inurba_marseille","lat":43.27832,"lon":5.39204,"is_reserved":false,"is_disabled":false,"rental_uris":{"android":"levelo://app?vid=8c2d6516-454e-40cd-ab7a-2758dd03e1ba","ios":"levelo://app?vid=8c2d6516-454e-40cd-ab7a-2758dd03e1ba"},"vehicle_type_id":"4","last_reported":1765883414,"current_range_meters":2800,"station_id":"ce4bhjp2rcd13ifvqga0","pricing_plan_id":"cebpf4jnsgd1na2vs0mg"},{"bike_id":"83646d9a-9cde-468f-9814-72bc5bfdeed7","system_id":"levelo_inurba_marseille","lat":43.29111,"lon":5.38141,"is_reserved":false,"is_disabled":false,"rental_uris":{"android":"levelo://app?vid=83646d9a-9cde-468f-9814-72bc5bfdeed7","ios":"levelo://app?vid=83646d9a-9cde-468f-9814-72bc5bfdeed7"},"vehicle_type_id":"4","last_reported":1765883414,"current_range_meters":2800,"station_id":"ce4bh512rcd13ifvqe2g","pricing_plan_id":"cebpf4jnsgd1na2vs0mg"},{"bike_id":"73160024-4145-431e-be14-6dc8342eb90d","system_id":"levelo_inurba_marseille","lat":43.27996,"lon":5.40027,"is_reserved":false,"is_disabled":false,"rental_uris":{"android":"levelo://app?vid=73160024-4145-431e-be14-6dc8342eb90d","ios":"levelo://app?vid=73160024-4145-431e-be14-6dc8342eb90d"},"vehicle_type_id":"4","last_reported":1765883414,"current_range_meters":2800,"station_id":"ce4bho92rcd13ifvqh4g","pricing_plan_id":"cebpf4jnsgd1na2vs0mg"},{"bike_id":"16ea38db-e503-47ab-8d6e-deebbf7e7b84","system_id":"levelo_inurba_marseille","lat":43.26561,"lon":5.39027,"is_reserved":false,"is_disabled":false,"rental_uris":{"android":"levelo://app?vid=16ea38db-e503-47ab-8d6e-deebbf7e7b84","ios":"levelo://app?vid=16ea38db-e503-47ab-8d6e-deebbf7e7b84"},"vehicle_type_id":"4","last_reported":1765883414,"current_range_meters":2800,"station_id":"ce4bhe12rcd13ifvqf30","pricing_plan_id":"cebpf4jnsgd1na2vs0mg"},{"bike_id":"84cc83e8-40c9-4b8e-8e4d-d3cbfe8e2e50","system_id":"levelo_inurba_marseille","lat":43.314923,"lon":5.373036,"is_reserved":false,"is_disabled":false,"rental_uris":{"android":"levelo://app?vid=84cc83e8-40c9-4b8e-8e4d-d3cbfe8e2e50","ios":"levelo://app?vid=84cc83e8-40c9-4b8e-8e4d-d3cbfe8e2e50"},"vehicle_type_id":"4","last_reported":1765883414,"current_range_meters":3200,"station_id":"ce4bgt12rcd13ifvqcd0","pricing_plan_id":"cebpf4jnsgd1na2vs0mg"},{"bike_id":"f5f25559-d746-4be8-afc4-49941e97fed4","system_id":"levelo_inurba_marseille","lat":43.255034,"lon":5.376485,"is_reserved":false,"is_disabled":false,"rental_uris":{"android":"levelo://app?vid=f5f25559-d746-4be8-afc4-49941e97fed4","ios":"levelo://app?vid=f5f25559-d746-4be8-afc4-49941e97fed4"},"vehicle_type_id":"4","last_reported":1765883414,"current_range_meters":3600,"station_id":"ce4bhh12rcd13ifvqff0","pricing_plan_id":"cebpf4jnsgd1na2vs0mg"},{"bike_id":"badd8d20-9209-4436-9c1f-a017c0e70e8a","system_id":"levelo_inurba_marseille","lat":43.3256,"lon":5.39321,"is_reserved":false,"is_disabled":false,"rental_uris":{"android":"levelo://app?vid=badd8d20-9209-4436-9c1f-a017c0e70e8a","ios":"levelo://app?vid=badd8d20-9209-4436-9c1f-a017c0e70e8a"},"vehicle_type_id":"4","last_reported":1765883414,"current_range_meters":3600,"station_id":"","pricing_plan_id":"cebpf4jnsgd1na2vs0mg"},{"bike_id":"16d036ab-e2cc-4e83-a4c2-e6d82bbdb610","system_id":"levelo_inurba_marseille","lat":43.29279,"lon":5.37421,"is_reserved":false,"is_disabled":false,"rental_uris":{"android":"levelo://app?vid=16d036ab-e2cc-4e83-a4c2-e6d82bbdb610","ios":"levelo://app?vid=16d036ab-e2cc-4e83-a4c2-e6d82bbdb610"},"vehicle_type_id":"4","last_reported":1765883414,"current_range_meters":4400,"station_id":"ce4bgi12rcd13ifvqb70","pricing_plan_id":"cebpf4jnsgd1na2vs0mg"},{"bike_id":"e39cb333-a02b-4d9e-86a7-17e2fb0858ce","system_id":"levelo_inurba_marseille","lat":43.28412,"lon":5.34986,"is_reserved":false,"is_disabled":false,"rental_uris":{"android":"levelo://app?vid=e39cb333-a02b-4d9e-86a7-17e2fb0858ce","ios":"levelo://app?vid=e39cb333-a02b-4d9e-86a7-17e2fb0858ce"},"vehicle_type_id":"4","last_reported":1765883414,"current_range_meters":4800,"station_id":"ce4bhbh2rcd13ifvqepg","pricing_plan_id":"cebpf4jnsgd1na2vs0mg"},{"bike_id":"12d2ec56-d374-450e-a6f0-cedb1ca68d71","system_id":"levelo_inurba_marseille","lat":43.28411,"lon":5.37519,"is_reserved":false,"is_disabled":false,"rental_uris":{"android":"levelo://app?vid=12d2ec56-d374-450e-a6f0-cedb1ca68d71","ios":"levelo://app?vid=12d2ec56-d374-450e-a6f0-cedb1ca68d71"},"vehicle_type_id":"4","last_reported":1765883414,"current_range_meters":4800,"station_id":"ce4bh412rcd13ifvqds0","pricing_plan_id":"cebpf4jnsgd1na2vs0mg"},{"bike_id":"bac3d324-b869-40d2-b44e-9065f6ccce99","system_id":"levelo_inurba_marseille","lat":43.29575,"lon":5.37522,"is_reserved":false,"is_disabled":false,"rental_uris":{"android":"levelo://app?vid=bac3d324-b869-40d2-b44e-9065f6ccce99","ios":"levelo://app?vid=bac3d324-b869-40d2-b44e-9065f6ccce99"},"vehicle_type_id":"4","last_reported":1765883414,"current_range_meters":4800,"station_id":"ce4bgh92rcd13ifvqb50","pricing_plan_id":"cebpf4jnsgd1na2vs0mg"},{"bike_id":"a6bfd9b2-7f15-426c-b73b-e405e8711977","system_id":"levelo_inurba_marseille","lat":43.31009,"lon":5.37461,"is_reserved":false,"is_disabled":false,"rental_uris":{"android":"levelo://app?vid=a6bfd9b2-7f15-426c-b73b-e405e8711977","ios":"levelo://app?vid=a6bfd9b2-7f15-426c-b73b-e405e8711977"},"vehicle_type_id":"4","last_reported":1765883414,"current_range_meters":5600,"station_id":"","pricing_plan_id":"cebpf4jnsgd1na2vs0mg"},{"bike_id":"756663fb-3ebb-4a2a-922a-7ae5b6752058","system_id":"levelo_inurba_marseille","lat":43.29987,"lon":5.385,"is_reserved":false,"is_disabled":false,"rental_uris":{"android":"levelo://app?vid=756663fb-3ebb-4a2a-922a-7ae5b6752058","ios":"levelo://app?vid=756663fb-3ebb-4a2a-922a-7ae5b6752058"},"vehicle_type_id":"4","last_reported":1765883414,"current_range_meters":5600,"station_id":"ce4bgj92rcd13ifvqbd0","pricing_plan_id":"cebpf4jnsgd1na2vs0mg"},{"bike_id":"e1d21307-54eb-499c-a7b9-649fa2c13f80","system_id":"levelo_inurba_marseille","lat":43.251096,"lon":5.403247,"is_reserved":false,"is_disabled":false,"rental_uris":{"android":"levelo://app?vid=e1d21307-54eb-499c-a7b9-649fa2c13f80","ios":"levelo://app?vid=e1d21307-54eb-499c-a7b9-649fa2c13f80"},"vehicle_type_id":"4","last_reported":1765883414,"current_range_meters":6000,"station_id":"ce4bhlh2rcd13ifvqgig","pricing_plan_id":"cebpf4jnsgd1na2vs0mg"},{"bike_id":"8d0b6ec5-635c-4ff0-8345-a83a9d6593c1","system_id":"levelo_inurba_marseille","lat":43.27061,"lon":5.42288,"is_reserved":false,"is_disabled":false,"rental_uris":{"android":"levelo://app?vid=8d0b6ec5-635c-4ff0-8345-a83a9d6593c1","ios":"levelo://app?vid=8d0b6ec5-635c-4ff0-8345-a83a9d6593c1"},"vehicle_type_id":"4","last_reported":1765883414,"current_range_meters":6000,"station_id":"ce4bhk92rcd13ifvqgb0","pricing_plan_id":"cebpf4jnsgd1na2vs0mg"},{"bike_id":"af60ad45-1773-4b17-8cbf-b5714f9a120e","system_id":"levelo_inurba_marseille","lat":43.337684,"lon":5.374361,"is_reserved":false,"is_disabled":false,"rental_uris":{"android":"levelo://app?vid=af60ad45-1773-4b17-8cbf-b5714f9a120e","ios":"levelo://app?vid=af60ad45-1773-4b17-8cbf-b5714f9a120e"},"vehicle_type_id":"4","last_reported":1765883414,"current_range_meters":6400,"station_id":"","pricing_plan_id":"cebpf4jnsgd1na2vs0mg"},{"bike_id":"ec4bccd2-854f-4924-98af-c66765cda4c2","system_id":"levelo_inurba_marseille","lat":43.28929,"lon":5.38393,"is_reserved":false,"is_disabled":false,"rental_uris":{"android":"levelo://app?vid=ec4bccd2-854f-4924-98af-c66765cda4c2","ios":"levelo://app?vid=ec4bccd2-854f-4924-98af-c66765cda4c2"},"vehicle_type_id":"4","last_reported":1765883414,"current_range_meters":6400,"station_id":"ce4bh612rcd13ifvqe6g","pricing_plan_id":"cebpf4jnsgd1na2vs0mg"},{"bike_id":"6fe3060f-17ee-4243-91a2-653d74d75a11","system_id":"levelo_inurba_marseille","lat":43.22544,"lon":5.34814,"is_reserved":false,"is_disabled":false,"rental_uris":{"android":"levelo://app?vid=6fe3060f-17ee-4243-91a2-653d74d75a11","ios":"levelo://app?vid=6fe3060f-17ee-4243-91a2-653d74d75a11"},"vehicle_type_id":"4","last_reported":1765883414,"current_range_meters":6400,"station_id":"","pricing_plan_id":"cebpf4jnsgd1na2vs0mg"},{"bike_id":"4a0d3cd1-7adf-484f-a589-90c80406ab4e","system_id":"levelo_inurba_marseille","lat":43.237769,"lon":5.435792,"is_reserved":false,"is_disabled":false,"rental_uris":{"android":"levelo://app?vid=4a0d3cd1-7adf-484f-a589-90c80406ab4e","ios":"levelo://app?vid=4a0d3cd1-7adf-484f-a589-90c80406ab4e"},"vehicle_type_id":"4","last_reported":1765883414,"current_range_meters":6400,"station_id":"","pricing_plan_id":"cebpf4jnsgd1na2vs0mg"},{"bike_id":"5cfcac19-e885-4209-96ab-a70a0192b25a","system_id":"levelo_inurba_marseille","lat":43.3376,"lon":5.3745,"is_reserved":false,"is_disabled":false,"rental_uris":{"android":"levelo://app?vid=5cfcac19-e885-4209-96ab-a70a0192b25a","ios":"levelo://app?vid=5cfcac19-e885-4209-96ab-a70a0192b25a"},"vehicle_type_id":"4","last_reported":1765883414,"current_range_meters":6400,"station_id":"","pricing_plan_id":"cebpf4jnsgd1na2vs0mg"},{"bike_id":"66e10194-8e2d-4634-89ad-d66d649b5e60","system_id":"levelo_inurba_marseille","lat":43.28463,"lon":5.48327,"is_reserved":false,"is_disabled":false,"rental_uris":{"android":"levelo://app?vid=66e10194-8e2d-4634-89ad-d66d649b5e60","ios":"levelo://app?vid=66e10194-8e2d-4634-89ad-d66d649b5e60"},"vehicle_type_id":"4","last_reported":1765883414,"current_range_meters":6400,"station_id":"","pricing_plan_id":"cebpf4jnsgd1na2vs0mg"},{"bike_id":"e28c64da-3779-4876-9765-52afcddbb52c","system_id":"levelo_inurba_marseille","lat":43.31163,"lon":5.38255,"is_reserved":false,"is_disabled":true,"rental_uris":{"android":"levelo://app?vid=e28c64da-3779-4876-9765-52afcddbb52c","ios":"levelo://app?vid=e28c64da-3779-4876-9765-52afcddbb52c"},"vehicle_type_id":"4","last_reported":1765883414,"current_range_meters":6800,"station_id":"","pricing_plan_id":"cebpf4jnsgd1na2vs0mg"},{"bike_id":"2b8f9618-454a-4629-9df1-c5f059323b14","system_id":"levelo_inurba_marseille","lat":43.30431,"lon":5.39743,"is_reserved":false,"is_disabled":false,"rental_uris":{"android":"levelo://app?vid=2b8f9618-454a-4629-9df1-c5f059323b14","ios":"levelo://app?vid=2b8f9618-454a-4629-9df1-c5f059323b14"},"vehicle_type_id":"4","last_reported":1765883414,"current_range_meters":6800,"station_id":"ce4bh092rcd13ifvqd20","pricing_plan_id":"cebpf4jnsgd1na2vs0mg"},{"bike_id":"3ef6bce6-591f-4632-a62b-3b08b9b2829b","system_id":"levelo_inurba_marseille","lat":43.33022,"lon":5.39044,"is_reserved":false,"is_disabled":false,"rental_uris":{"android":"levelo://app?vid=3ef6bce6-591f-4632-a62b-3b08b9b2829b","ios":"levelo://app?vid=3ef6bce6-591f-4632-a62b-3b08b9b2829b"},"vehicle_type_id":"4","last_reported":1765883414,"current_range_meters":6800,"station_id":"ce4bhr92rcd13ifvqhrg","pricing_plan_id":"cebpf4jnsgd1na2vs0mg"},{"bike_id":"aac3a556-eab0-4156-bc9c-29564664e6f5","system_id":"levelo_inurba_marseille","lat":43.337725,"lon":5.374316,"is_reserved":false,"is_disabled":false,"rental_uris":{"android":"levelo://app?vid=aac3a556-eab0-4156-bc9c-29564664e6f5","ios":"levelo://app?vid=aac3a556-eab0-4156-bc9c-29564664e6f5"},"vehicle_type_id":"4","last_reported":1765883414,"current_range_meters":6800,"station_id":"","pricing_plan_id":"cebpf4jnsgd1na2vs0mg"},{"bike_id":"b5d63cab-7292-4c85-8075-cef67fadeb9d","system_id":"levelo_inurba_marseille","lat":43.28473,"lon":5.48394,"is_reserved":false,"is_disabled":false,"rental_uris":{"android":"levelo://app?vid=b5d63cab-7292-4c85-8075-cef67fadeb9d","ios":"levelo://app?vid=b5d63cab-7292-4c85-8075-cef67fadeb9d"},"vehicle_type_id":"4","last_reported":1765883414,"current_range_meters":6800,"station_id":"st_d3svhcjqgbts73a3dn0g","pricing_plan_id":"cebpf4jnsgd1na2vs0mg"},{"bike_id":"4f192edb-65e6-4046-832a-407fc2e8b140","system_id":"levelo_inurba_marseille","lat":43.29627,"lon":5.37724,"is_reserved":false,"is_disabled":false,"rental_uris":{"android":"levelo://app?vid=4f192edb-65e6-4046-832a-407fc2e8b140","ios":"levelo://app?vid=4f192edb-65e6-4046-832a-407fc2e8b140"},"vehicle_type_id":"4","last_reported":1765883414,"current_range_meters":6800,"station_id":"ce4bgi92rcd13ifvqb90","pricing_plan_id":"cebpf4jnsgd1na2vs0mg"},{"bike_id":"a2a92d14-94e9-476b-b4d5-95b24b3973b7","system_id":"levelo_inurba_marseille","lat":43.25322,"lon":5.42175,"is_reserved":false,"is_disabled":false,"rental_uris":{"android":"levelo://app?vid=a2a92d14-94e9-476b-b4d5-95b24b3973b7","ios":"levelo://app?vid=a2a92d14-94e9-476b-b4d5-95b24b3973b7"},"vehicle_type_id":"4","last_reported":1765883414,"current_range_meters":6800,"station_id":"st_d2m65c5bi1j21697t3ng","pricing_plan_id":"cebpf4jnsgd1na2vs0mg"},{"bike_id":"00504226-847c-49a0-9c79-6b614bc8e830","system_id":"levelo_inurba_marseille","lat":43.241805,"lon":5.397289,"is_reserved":false,"is_disabled":false,"rental_uris":{"android":"levelo://app?vid=00504226-847c-49a0-9c79-6b614bc8e830","ios":"levelo://app?vid=00504226-847c-49a0-9c79-6b614bc8e830"},"vehicle_type_id":"4","last_reported":1765883414,"current_range_meters":7200,"station_id":"ce4bhh92rcd13ifvqfj0","pricing_plan_id":"cebpf4jnsgd1na2vs0mg"},{"bike_id":"0300703c-eb70-486d-8dcb-3ab8dd70d6cc","system_id":"levelo_inurba_marseille","lat":43.28536,"lon":5.44104,"is_reserved":false,"is_disabled":false,"rental_uris":{"android":"levelo://app?vid=0300703c-eb70-486d-8dcb-3ab8dd70d6cc","ios":"levelo://app?vid=0300703c-eb70-486d-8dcb-3ab8dd70d6cc"},"vehicle_type_id":"4","last_reported":1765883414,"current_range_meters":7200,"station_id":"st_d3j3df2ikq2c7380ej80","pricing_plan_id":"cebpf4jnsgd1na2vs0mg"},{"bike_id":"4d8c8447-aa5f-489a-808b-8d8ff57c378e","system_id":"levelo_inurba_marseille","lat":43.25502,"lon":5.37649,"is_reserved":false,"is_disabled":true,"rental_uris":{"android":"levelo://app?vid=4d8c8447-aa5f-489a-808b-8d8ff57c378e","ios":"levelo://app?vid=4d8c8447-aa5f-489a-808b-8d8ff57c378e"},"vehicle_type_id":"4","last_reported":1765883414,"current_range_meters":7200,"station_id":"ce4bhh12rcd13ifvqff0","pricing_plan_id":"cebpf4jnsgd1na2vs0mg"},{"bike_id":"dfb8a60a-d43f-4cf8-8d3e-47ce7eede152","system_id":"levelo_inurba_marseille","lat":43.337444,"lon":5.374475,"is_reserved":false,"is_disabled":true,"rental_uris":{"android":"levelo://app?vid=dfb8a60a-d43f-4cf8-8d3e-47ce7eede152","ios":"levelo://app?vid=dfb8a60a-d43f-4cf8-8d3e-47ce7eede152"},"vehicle_type_id":"4","last_reported":1765883414,"current_range_meters":7200,"station_id":"","pricing_plan_id":"cebpf4jnsgd1na2vs0mg"},{"bike_id":"e5967918-583b-4714-bec6-e89ae6b5ee60","system_id":"levelo_inurba_marseille","lat":43.266796,"lon":5.382669,"is_reserved":false,"is_disabled":false,"rental_uris":{"android":"levelo://app?vid=e5967918-583b-4714-bec6-e89ae6b5ee60","ios":"levelo://app?vid=e5967918-583b-4714-bec6-e89ae6b5ee60"},"vehicle_type_id":"4","last_reported":1765883414,"current_range_meters":7200,"station_id":"ce4bhg92rcd13ifvqf90","pricing_plan_id":"cebpf4jnsgd1na2vs0mg"},{"bike_id":"eaa5fb4d-00fb-4623-aee1-de3b9947b49e","system_id":"levelo_inurba_marseille","lat":43.336042,"lon":5.410296,"is_reserved":false,"is_disabled":false,"rental_uris":{"android":"levelo://app?vid=eaa5fb4d-00fb-4623-aee1-de3b9947b49e","ios":"levelo://app?vid=eaa5fb4d-00fb-4623-aee1-de3b9947b49e"},"vehicle_type_id":"4","last_reported":1765883414,"current_range_meters":7200,"station_id":"ce4bhqh2rcd13ifvqhmg","pricing_plan_id":"cebpf4jnsgd1na2vs0mg"},{"bike_id":"0224f08a-bd8a-4dcc-9ae0-e6df47d6d7f2","system_id":"levelo_inurba_marseille","lat":43.337444,"lon":5.374475,"is_reserved":false,"is_disabled":false,"rental_uris":{"android":"levelo://app?vid=0224f08a-bd8a-4dcc-9ae0-e6df47d6d7f2","ios":"levelo://app?vid=0224f08a-bd8a-4dcc-9ae0-e6df47d6d7f2"},"vehicle_type_id":"4","last_reported":1765883414,"current_range_meters":7200,"station_id":"","pricing_plan_id":"cebpf4jnsgd1na2vs0mg"},{"bike_id":"63332f30-5bf6-403c-9156-3e59b8502d98","system_id":"levelo_inurba_marseille","lat":43.250887,"lon":5.39527,"is_reserved":false,"is_disabled":true,"rental_uris":{"android":"levelo://app?vid=63332f30-5bf6-403c-9156-3e59b8502d98","ios":"levelo://app?vid=63332f30-5bf6-403c-9156-3e59b8502d98"},"vehicle_type_id":"4","last_reported":1765883414,"current_range_meters":8000,"station_id":"ce4bhm12rcd13ifvqgkg","pricing_plan_id":"cebpf4jnsgd1na2vs0mg"},{"bike_id":"d3c83fe0-d981-40bd-809a-723ce3ba3f18","system_id":"levelo_inurba_marseille","lat":43.31564,"lon":5.3667,"is_reserved":false,"is_disabled":false,"rental_uris":{"android":"levelo://app?vid=d3c83fe0-d981-40bd-809a-723ce3ba3f18","ios":"levelo://app?vid=d3c83fe0-d981-40bd-809a-723ce3ba3f18"},"vehicle_type_id":"4","last_reported":1765883414,"current_range_meters":8000,"station_id":"","pricing_plan_id":"cebpf4jnsgd1na2vs0mg"},{"bike_id":"5e7e082d-c949-4efd-b442-be6d0cf3943e","system_id":"levelo_inurba_marseille","lat":43.24549,"lon":5.40011,"is_reserved":false,"is_disabled":false,"rental_uris":{"android":"levelo://app?vid=5e7e082d-c949-4efd-b442-be6d0cf3943e","ios":"levelo://app?vid=5e7e082d-c949-4efd-b442-be6d0cf3943e"},"vehicle_type_id":"4","last_reported":1765883414,"current_range_meters":8000,"station_id":"","pricing_plan_id":"cebpf4jnsgd1na2vs0mg"},{"bike_id":"9916aee8-38ee-4718-8ab5-188be146fb87","system_id":"levelo_inurba_marseille","lat":43.3012,"lon":5.36517,"is_reserved":false,"is_disabled":false,"rental_uris":{"android":"levelo://app?vid=9916aee8-38ee-4718-8ab5-188be146fb87","ios":"levelo://app?vid=9916aee8-38ee-4718-8ab5-188be146fb87"},"vehicle_type_id":"4","last_reported":1765883414,"current_range_meters":8000,"station_id":"","pricing_plan_id":"cebpf4jnsgd1na2vs0mg"},{"bike_id":"0e49c737-64fa-42df-b477-b17639740d5d","system_id":"levelo_inurba_marseille","lat":43.21176,"lon":5.35083,"is_reserved":false,"is_disabled":false,"rental_uris":{"android":"levelo://app?vid=0e49c737-64fa-42df-b477-b17639740d5d","ios":"levelo://app?vid=0e49c737-64fa-42df-b477-b17639740d5d"},"vehicle_type_id":"4","last_reported":1765883414,"current_range_meters":8000,"station_id":"","pricing_plan_id":"cebpf4jnsgd1na2vs0mg"},{"bike_id":"5b6fbb6f-c5af-4fa8-9d8c-aae239db99c1","system_id":"levelo_inurba_marseille","lat":43.27208,"lon":5.39182,"is_reserved":false,"is_disabled":false,"rental_uris":{"android":"levelo://app?vid=5b6fbb6f-c5af-4fa8-9d8c-aae239db99c1","ios":"levelo://app?vid=5b6fbb6f-c5af-4fa8-9d8c-aae239db99c1"},"vehicle_type_id":"4","last_reported":1765883414,"current_range_meters":8000,"station_id":"ce4bhhp2rcd13ifvqfm0","pricing_plan_id":"cebpf4jnsgd1na2vs0mg"},{"bike_id":"62f902a1-819b-4880-9bdf-26af4451d16b","system_id":"levelo_inurba_marseille","lat":43.30645,"lon":5.40101,"is_reserved":false,"is_disabled":false,"rental_uris":{"android":"levelo://app?vid=62f902a1-819b-4880-9bdf-26af4451d16b","ios":"levelo://app?vid=62f902a1-819b-4880-9bdf-26af4451d16b"},"vehicle_type_id":"4","last_reported":1765883414,"current_range_meters":8000,"station_id":"ce4bh112rcd13ifvqda0","pricing_plan_id":"cebpf4jnsgd1na2vs0mg"},{"bike_id":"2a8bada9-5768-40be-8c1a-c6eea934d5f7","system_id":"levelo_inurba_marseille","lat":43.279617,"lon":5.387071,"is_reserved":false,"is_disabled":false,"rental_uris":{"android":"levelo://app?vid=2a8bada9-5768-40be-8c1a-c6eea934d5f7","ios":"levelo://app?vid=2a8bada9-5768-40be-8c1a-c6eea934d5f7"},"vehicle_type_id":"4","last_reported":1765883414,"current_range_meters":8400,"station_id":"ce4bhg12rcd13ifvqf80","pricing_plan_id":"cebpf4jnsgd1na2vs0mg"},{"bike_id":"6dd545aa-11f3-4a5e-ac17-a46f64ca1a99","system_id":"levelo_inurba_marseille","lat":43.3046,"lon":5.37912,"is_reserved":false,"is_disabled":false,"rental_uris":{"android":"levelo://app?vid=6dd545aa-11f3-4a5e-ac17-a46f64ca1a99","ios":"levelo://app?vid=6dd545aa-11f3-4a5e-ac17-a46f64ca1a99"},"vehicle_type_id":"4","last_reported":1765883414,"current_range_meters":8400,"station_id":"ce4bgup2rcd13ifvqcn0","pricing_plan_id":"cebpf4jnsgd1na2vs0mg"},{"bike_id":"7ca0e605-b45f-4d99-b2d3-33833399c457","system_id":"levelo_inurba_marseille","lat":43.26931,"lon":5.38698,"is_reserved":false,"is_disabled":false,"rental_uris":{"android":"levelo://app?vid=7ca0e605-b45f-4d99-b2d3-33833399c457","ios":"levelo://app?vid=7ca0e605-b45f-4d99-b2d3-33833399c457"},"vehicle_type_id":"4","last_reported":1765883414,"current_range_meters":8400,"station_id":"ce4bhh92rcd13ifvqfh0","pricing_plan_id":"cebpf4jnsgd1na2vs0mg"},{"bike_id":"f0980ad5-5c97-4fa9-add7-61f4566ba587","system_id":"levelo_inurba_marseille","lat":43.27561,"lon":5.3843,"is_reserved":false,"is_disabled":false,"rental_uris":{"android":"levelo://app?vid=f0980ad5-5c97-4fa9-add7-61f4566ba587","ios":"levelo://app?vid=f0980ad5-5c97-4fa9-add7-61f4566ba587"},"vehicle_type_id":"4","last_reported":1765883414,"current_range_meters":8400,"station_id":"ce4bhh92rcd13ifvqfi0","pricing_plan_id":"cebpf4jnsgd1na2vs0mg"},{"bike_id":"f5b3137f-a040-4e6b-af75-3dcf521dd85d","system_id":"levelo_inurba_marseille","lat":43.26674,"lon":5.38278,"is_reserved":false,"is_disabled":false,"rental_uris":{"android":"levelo://app?vid=f5b3137f-a040-4e6b-af75-3dcf521dd85d","ios":"levelo://app?vid=f5b3137f-a040-4e6b-af75-3dcf521dd85d"},"vehicle_type_id":"4","last_reported":1765883414,"current_range_meters":8800,"station_id":"ce4bhg92rcd13ifvqf90","pricing_plan_id":"cebpf4jnsgd1na2vs0mg"},{"bike_id":"e080d691-4951-43e9-9ffd-9277319373bb","system_id":"levelo_inurba_marseille","lat":43.316035,"lon":5.379218,"is_reserved":false,"is_disabled":false,"rental_uris":{"android":"levelo://app?vid=e080d691-4951-43e9-9ffd-9277319373bb","ios":"levelo://app?vid=e080d691-4951-43e9-9ffd-9277319373bb"},"vehicle_type_id":"4","last_reported":1765883414,"current_range_meters":8800,"station_id":"","pricing_plan_id":"cebpf4jnsgd1na2vs0mg"},{"bike_id":"b3017178-55b4-4238-8f58-051c7a4b328b","system_id":"levelo_inurba_marseille","lat":43.28534,"lon":5.44103,"is_reserved":false,"is_disabled":false,"rental_uris":{"android":"levelo://app?vid=b3017178-55b4-4238-8f58-051c7a4b328b","ios":"levelo://app?vid=b3017178-55b4-4238-8f58-051c7a4b328b"},"vehicle_type_id":"4","last_reported":1765883414,"current_range_meters":8800,"station_id":"st_d3j3df2ikq2c7380ej80","pricing_plan_id":"cebpf4jnsgd1na2vs0mg"},{"bike_id":"7c36070f-bddc-40ed-a333-875a2d58c60c","system_id":"levelo_inurba_marseille","lat":43.26523,"lon":5.39488,"is_reserved":false,"is_disabled":false,"rental_uris":{"android":"levelo://app?vid=7c36070f-bddc-40ed-a333-875a2d58c60c","ios":"levelo://app?vid=7c36070f-bddc-40ed-a333-875a2d58c60c"},"vehicle_type_id":"4","last_reported":1765883414,"current_range_meters":8800,"station_id":"","pricing_plan_id":"cebpf4jnsgd1na2vs0mg"},{"bike_id":"71c374e3-46db-4c02-bb99-654d45f755db","system_id":"levelo_inurba_marseille","lat":43.301384,"lon":5.374319,"is_reserved":false,"is_disabled":false,"rental_uris":{"android":"levelo://app?vid=71c374e3-46db-4c02-bb99-654d45f755db","ios":"levelo://app?vid=71c374e3-46db-4c02-bb99-654d45f755db"},"vehicle_type_id":"4","last_reported":1765883414,"current_range_meters":8800,"station_id":"ce4bgs92rcd13ifvqcc0","pricing_plan_id":"cebpf4jnsgd1na2vs0mg"},{"bike_id":"3cba2ea0-2276-44ee-a40b-00b218ca099d","system_id":"levelo_inurba_marseille","lat":43.27951,"lon":5.38751,"is_reserved":false,"is_disabled":false,"rental_uris":{"android":"levelo://app?vid=3cba2ea0-2276-44ee-a40b-00b218ca099d","ios":"levelo://app?vid=3cba2ea0-2276-44ee-a40b-00b218ca099d"},"vehicle_type_id":"4","last_reported":1765883414,"current_range_meters":8800,"station_id":"ce4bhg12rcd13ifvqf80","pricing_plan_id":"cebpf4jnsgd1na2vs0mg"},{"bike_id":"6356d692-513f-43d8-acc6-06940ee30f78","system_id":"levelo_inurba_marseille","lat":43.29089,"lon":5.38121,"is_reserved":false,"is_disabled":false,"rental_uris":{"android":"levelo://app?vid=6356d692-513f-43d8-acc6-06940ee30f78","ios":"levelo://app?vid=6356d692-513f-43d8-acc6-06940ee30f78"},"vehicle_type_id":"4","last_reported":1765883414,"current_range_meters":9200,"station_id":"","pricing_plan_id":"cebpf4jnsgd1na2vs0mg"},{"bike_id":"ec1d195a-bb3b-4d9e-b117-956760699971","system_id":"levelo_inurba_marseille","lat":43.265598,"lon":5.372963,"is_reserved":false,"is_disabled":false,"rental_uris":{"android":"levelo://app?vid=ec1d195a-bb3b-4d9e-b117-956760699971","ios":"levelo://app?vid=ec1d195a-bb3b-4d9e-b117-956760699971"},"vehicle_type_id":"4","last_reported":1765883414,"current_range_meters":9200,"station_id":"ce4bhg12rcd13ifvqf70","pricing_plan_id":"cebpf4jnsgd1na2vs0mg"},{"bike_id":"918662bc-71ee-44af-9292-92dbeafca27f","system_id":"levelo_inurba_marseille","lat":43.26578,"lon":5.39043,"is_reserved":false,"is_disabled":false,"rental_uris":{"android":"levelo://app?vid=918662bc-71ee-44af-9292-92dbeafca27f","ios":"levelo://app?vid=918662bc-71ee-44af-9292-92dbeafca27f"},"vehicle_type_id":"4","last_reported":1765883414,"current_range_meters":9200,"station_id":"ce4bhe12rcd13ifvqf30","pricing_plan_id":"cebpf4jnsgd1na2vs0mg"},{"bike_id":"ae7030ab-2ef4-43fe-969b-2771e6ce928f","system_id":"levelo_inurba_marseille","lat":43.27993,"lon":5.41669,"is_reserved":false,"is_disabled":false,"rental_uris":{"android":"levelo://app?vid=ae7030ab-2ef4-43fe-969b-2771e6ce928f","ios":"levelo://app?vid=ae7030ab-2ef4-43fe-969b-2771e6ce928f"},"vehicle_type_id":"4","last_reported":1765883414,"current_range_meters":9200,"station_id":"ce4bho12rcd13ifvqh1g","pricing_plan_id":"cebpf4jnsgd1na2vs0mg"},{"bike_id":"d0c0ef1a-0cc3-4dac-b7e8-9af1d11cd42e","system_id":"levelo_inurba_marseille","lat":43.24959,"lon":5.40502,"is_reserved":false,"is_disabled":false,"rental_uris":{"android":"levelo://app?vid=d0c0ef1a-0cc3-4dac-b7e8-9af1d11cd42e","ios":"levelo://app?vid=d0c0ef1a-0cc3-4dac-b7e8-9af1d11cd42e"},"vehicle_type_id":"4","last_reported":1765883414,"current_range_meters":9200,"station_id":"st_d2ngiaodas8pm72gd1h0","pricing_plan_id":"cebpf4jnsgd1na2vs0mg"},{"bike_id":"593a172c-4b80-4e03-a5ab-4eddc889b3cb","system_id":"levelo_inurba_marseille","lat":43.2902,"lon":5.38135,"is_reserved":false,"is_disabled":false,"rental_uris":{"android":"levelo://app?vid=593a172c-4b80-4e03-a5ab-4eddc889b3cb","ios":"levelo://app?vid=593a172c-4b80-4e03-a5ab-4eddc889b3cb"},"vehicle_type_id":"4","last_reported":1765883414,"current_range_meters":9200,"station_id":"ce4bh4p2rcd13ifvqe1g","pricing_plan_id":"cebpf4jnsgd1na2vs0mg"},{"bike_id":"20f8b7d0-8719-4bd3-a820-542760417103","system_id":"levelo_inurba_marseille","lat":43.301503,"lon":5.380879,"is_reserved":false,"is_disabled":false,"rental_uris":{"android":"levelo://app?vid=20f8b7d0-8719-4bd3-a820-542760417103","ios":"levelo://app?vid=20f8b7d0-8719-4bd3-a820-542760417103"},"vehicle_type_id":"4","last_reported":1765883414,"current_range_meters":9200,"station_id":"ce4bgjp2rcd13ifvqbh0","pricing_plan_id":"cebpf4jnsgd1na2vs0mg"},{"bike_id":"7ddcdfdb-2eb3-41b7-b6f1-734d1df83cb1","system_id":"levelo_inurba_marseille","lat":43.245459,"lon":5.39523,"is_reserved":false,"is_disabled":false,"rental_uris":{"android":"levelo://app?vid=7ddcdfdb-2eb3-41b7-b6f1-734d1df83cb1","ios":"levelo://app?vid=7ddcdfdb-2eb3-41b7-b6f1-734d1df83cb1"},"vehicle_type_id":"4","last_reported":1765883414,"current_range_meters":9200,"station_id":"ce4bhlp2rcd13ifvqgjg","pricing_plan_id":"cebpf4jnsgd1na2vs0mg"},{"bike_id":"0c568546-06ce-4e93-82ac-4a6559e2151c","system_id":"levelo_inurba_marseille","lat":43.29846,"lon":5.36272,"is_reserved":false,"is_disabled":false,"rental_uris":{"android":"levelo://app?vid=0c568546-06ce-4e93-82ac-4a6559e2151c","ios":"levelo://app?vid=0c568546-06ce-4e93-82ac-4a6559e2151c"},"vehicle_type_id":"4","last_reported":1765883414,"current_range_meters":9600,"station_id":"ce4bgpp2rcd13ifvqc3g","pricing_plan_id":"cebpf4jnsgd1na2vs0mg"},{"bike_id":"a020c583-8b7d-4089-8aa3-075e60a6bf1d","system_id":"levelo_inurba_marseille","lat":43.29314,"lon":5.37168,"is_reserved":false,"is_disabled":false,"rental_uris":{"android":"levelo://app?vid=a020c583-8b7d-4089-8aa3-075e60a6bf1d","ios":"levelo://app?vid=a020c583-8b7d-4089-8aa3-075e60a6bf1d"},"vehicle_type_id":"4","last_reported":1765883414,"current_range_meters":9600,"station_id":"ce4bgh92rcd13ifvqb40","pricing_plan_id":"cebpf4jnsgd1na2vs0mg"},{"bike_id":"c12a537f-314a-40f0-92d0-107922a246c3","system_id":"levelo_inurba_marseille","lat":43.30546,"lon":5.36689,"is_reserved":false,"is_disabled":false,"rental_uris":{"android":"levelo://app?vid=c12a537f-314a-40f0-92d0-107922a246c3","ios":"levelo://app?vid=c12a537f-314a-40f0-92d0-107922a246c3"},"vehicle_type_id":"4","last_reported":1765883414,"current_range_meters":9600,"station_id":"ce4bgrp2rcd13ifvqc9g","pricing_plan_id":"cebpf4jnsgd1na2vs0mg"},{"bike_id":"a0250cd9-047b-4dcb-96a7-b1959783fdaf","system_id":"levelo_inurba_marseille","lat":43.337674,"lon":5.374379,"is_reserved":false,"is_disabled":false,"rental_uris":{"android":"levelo://app?vid=a0250cd9-047b-4dcb-96a7-b1959783fdaf","ios":"levelo://app?vid=a0250cd9-047b-4dcb-96a7-b1959783fdaf"},"vehicle_type_id":"4","last_reported":1765883414,"current_range_meters":9600,"station_id":"","pricing_plan_id":"cebpf4jnsgd1na2vs0mg"},{"bike_id":"71c6674f-8a51-476d-bbe5-276ee5eae537","system_id":"levelo_inurba_marseille","lat":43.27062,"lon":5.42268,"is_reserved":false,"is_disabled":false,"rental_uris":{"android":"levelo://app?vid=71c6674f-8a51-476d-bbe5-276ee5eae537","ios":"levelo://app?vid=71c6674f-8a51-476d-bbe5-276ee5eae537"},"vehicle_type_id":"4","last_reported":1765883414,"current_range_meters":9600,"station_id":"ce4bhk92rcd13ifvqgb0","pricing_plan_id":"cebpf4jnsgd1na2vs0mg"},{"bike_id":"3c636660-a4c9-44f9-a3c8-7904d76de699","system_id":"levelo_inurba_marseille","lat":43.26214,"lon":5.37439,"is_reserved":false,"is_disabled":false,"rental_uris":{"android":"levelo://app?vid=3c636660-a4c9-44f9-a3c8-7904d76de699","ios":"levelo://app?vid=3c636660-a4c9-44f9-a3c8-7904d76de699"},"vehicle_type_id":"4","last_reported":1765883414,"current_range_meters":9600,"station_id":"ce4bhgp2rcd13ifvqfc0","pricing_plan_id":"cebpf4jnsgd1na2vs0mg"},{"bike_id":"7a3e6838-9d3e-4c76-bcee-bdbba33b8ca3","system_id":"levelo_inurba_marseille","lat":43.284749,"lon":5.483974,"is_reserved":false,"is_disabled":false,"rental_uris":{"android":"levelo://app?vid=7a3e6838-9d3e-4c76-bcee-bdbba33b8ca3","ios":"levelo://app?vid=7a3e6838-9d3e-4c76-bcee-bdbba33b8ca3"},"vehicle_type_id":"4","last_reported":1765883414,"current_range_meters":9600,"station_id":"st_d3svhcjqgbts73a3dn0g","pricing_plan_id":"cebpf4jnsgd1na2vs0mg"},{"bike_id":"5009bae7-4038-4bd4-a382-48be6e7178e6","system_id":"levelo_inurba_marseille","lat":43.27953,"lon":5.38692,"is_reserved":false,"is_disabled":false,"rental_uris":{"android":"levelo://app?vid=5009bae7-4038-4bd4-a382-48be6e7178e6","ios":"levelo://app?vid=5009bae7-4038-4bd4-a382-48be6e7178e6"},"vehicle_type_id":"4","last_reported":1765883414,"current_range_meters":9600,"station_id":"ce4bhg12rcd13ifvqf80","pricing_plan_id":"cebpf4jnsgd1na2vs0mg"},{"bike_id":"bd024060-3d01-4686-b2d5-3489b843570e","system_id":"levelo_inurba_marseille","lat":43.26957,"lon":5.38632,"is_reserved":false,"is_disabled":false,"rental_uris":{"android":"levelo://app?vid=bd024060-3d01-4686-b2d5-3489b843570e","ios":"levelo://app?vid=bd024060-3d01-4686-b2d5-3489b843570e"},"vehicle_type_id":"4","last_reported":1765883414,"current_range_meters":9600,"station_id":"ce4bhh92rcd13ifvqfh0","pricing_plan_id":"cebpf4jnsgd1na2vs0mg"},{"bike_id":"afd3d79a-38ed-483b-aee2-60df3f080419","system_id":"levelo_inurba_marseille","lat":43.31525,"lon":5.38034,"is_reserved":false,"is_disabled":false,"rental_uris":{"android":"levelo://app?vid=afd3d79a-38ed-483b-aee2-60df3f080419","ios":"levelo://app?vid=afd3d79a-38ed-483b-aee2-60df3f080419"},"vehicle_type_id":"4","last_reported":1765883414,"current_range_meters":10000,"station_id":"ce4bhsp2rcd13ifvqi50","pricing_plan_id":"cebpf4jnsgd1na2vs0mg"},{"bike_id":"ef1e1dc5-0962-45c1-8729-677fcf0a776d","system_id":"levelo_inurba_marseille","lat":43.26919,"lon":5.40242,"is_reserved":false,"is_disabled":false,"rental_uris":{"android":"levelo://app?vid=ef1e1dc5-0962-45c1-8729-677fcf0a776d","ios":"levelo://app?vid=ef1e1dc5-0962-45c1-8729-677fcf0a776d"},"vehicle_type_id":"4","last_reported":1765883414,"current_range_meters":10000,"station_id":"cjm6bp8fraef2m0cb0m0","pricing_plan_id":"cebpf4jnsgd1na2vs0mg"},{"bike_id":"8a3b2715-e8ca-4e45-af07-09c3831119c1","system_id":"levelo_inurba_marseille","lat":43.262,"lon":5.37462,"is_reserved":false,"is_disabled":false,"rental_uris":{"android":"levelo://app?vid=8a3b2715-e8ca-4e45-af07-09c3831119c1","ios":"levelo://app?vid=8a3b2715-e8ca-4e45-af07-09c3831119c1"},"vehicle_type_id":"4","last_reported":1765883414,"current_range_meters":10000,"station_id":"ce4bhgp2rcd13ifvqfc0","pricing_plan_id":"cebpf4jnsgd1na2vs0mg"},{"bike_id":"e8d439a3-0143-4d42-b269-3ef4edeb1b6e","system_id":"levelo_inurba_marseille","lat":43.29578,"lon":5.36756,"is_reserved":false,"is_disabled":false,"rental_uris":{"android":"levelo://app?vid=e8d439a3-0143-4d42-b269-3ef4edeb1b6e","ios":"levelo://app?vid=e8d439a3-0143-4d42-b269-3ef4edeb1b6e"},"vehicle_type_id":"4","last_reported":1765883414,"current_range_meters":10000,"station_id":"ce4bgph2rcd13ifvqc2g","pricing_plan_id":"cebpf4jnsgd1na2vs0mg"},{"bike_id":"de703928-a818-43ad-b2be-d85e3a5f72c8","system_id":"levelo_inurba_marseille","lat":43.28472,"lon":5.48394,"is_reserved":false,"is_disabled":false,"rental_uris":{"android":"levelo://app?vid=de703928-a818-43ad-b2be-d85e3a5f72c8","ios":"levelo://app?vid=de703928-a818-43ad-b2be-d85e3a5f72c8"},"vehicle_type_id":"4","last_reported":1765883414,"current_range_meters":10000,"station_id":"st_d3svhcjqgbts73a3dn0g","pricing_plan_id":"cebpf4jnsgd1na2vs0mg"},{"bike_id":"6548654c-e9fc-4bba-bd8e-ce04115acc7a","system_id":"levelo_inurba_marseille","lat":43.314338,"lon":5.374252,"is_reserved":false,"is_disabled":false,"rental_uris":{"android":"levelo://app?vid=6548654c-e9fc-4bba-bd8e-ce04115acc7a","ios":"levelo://app?vid=6548654c-e9fc-4bba-bd8e-ce04115acc7a"},"vehicle_type_id":"4","last_reported":1765883414,"current_range_meters":10800,"station_id":"","pricing_plan_id":"cebpf4jnsgd1na2vs0mg"},{"bike_id":"bdedb51b-c0c7-4e81-8046-2d1b2001a496","system_id":"levelo_inurba_marseille","lat":43.29533,"lon":5.385493,"is_reserved":false,"is_disabled":true,"rental_uris":{"android":"levelo://app?vid=bdedb51b-c0c7-4e81-8046-2d1b2001a496","ios":"levelo://app?vid=bdedb51b-c0c7-4e81-8046-2d1b2001a496"},"vehicle_type_id":"4","last_reported":1765883414,"current_range_meters":10800,"station_id":"ce4bgih2rcd13ifvqba0","pricing_plan_id":"cebpf4jnsgd1na2vs0mg"},{"bike_id":"9b173e86-3ede-4973-b8cb-b42ea2c91907","system_id":"levelo_inurba_marseille","lat":43.310213,"lon":5.393437,"is_reserved":false,"is_disabled":false,"rental_uris":{"android":"levelo://app?vid=9b173e86-3ede-4973-b8cb-b42ea2c91907","ios":"levelo://app?vid=9b173e86-3ede-4973-b8cb-b42ea2c91907"},"vehicle_type_id":"4","last_reported":1765883414,"current_range_meters":10800,"station_id":"","pricing_plan_id":"cebpf4jnsgd1na2vs0mg"},{"bike_id":"5e603672-e71d-4331-843b-bdd06d5b58ba","system_id":"levelo_inurba_marseille","lat":43.298685,"lon":5.397319,"is_reserved":false,"is_disabled":false,"rental_uris":{"android":"levelo://app?vid=5e603672-e71d-4331-843b-bdd06d5b58ba","ios":"levelo://app?vid=5e603672-e71d-4331-843b-bdd06d5b58ba"},"vehicle_type_id":"4","last_reported":1765883414,"current_range_meters":10800,"station_id":"ce4bh0h2rcd13ifvqd50","pricing_plan_id":"cebpf4jnsgd1na2vs0mg"},{"bike_id":"9f0f320a-9e34-4af8-8f6f-7a4152825910","system_id":"levelo_inurba_marseille","lat":43.30116,"lon":5.43114,"is_reserved":false,"is_disabled":false,"rental_uris":{"android":"levelo://app?vid=9f0f320a-9e34-4af8-8f6f-7a4152825910","ios":"levelo://app?vid=9f0f320a-9e34-4af8-8f6f-7a4152825910"},"vehicle_type_id":"4","last_reported":1765883414,"current_range_meters":11200,"station_id":"st_d3js3co5814s73ftftug","pricing_plan_id":"cebpf4jnsgd1na2vs0mg"},{"bike_id":"46b9da8e-600f-4b77-a964-111e9eafd3fa","system_id":"levelo_inurba_marseille","lat":43.2646,"lon":5.37367,"is_reserved":false,"is_disabled":false,"rental_uris":{"android":"levelo://app?vid=46b9da8e-600f-4b77-a964-111e9eafd3fa","ios":"levelo://app?vid=46b9da8e-600f-4b77-a964-111e9eafd3fa"},"vehicle_type_id":"4","last_reported":1765883414,"current_range_meters":11200,"station_id":"","pricing_plan_id":"cebpf4jnsgd1na2vs0mg"},{"bike_id":"2197a049-5e76-46f6-8fca-aa212e0ab139","system_id":"levelo_inurba_marseille","lat":43.28462,"lon":5.38446,"is_reserved":false,"is_disabled":false,"rental_uris":{"android":"levelo://app?vid=2197a049-5e76-46f6-8fca-aa212e0ab139","ios":"levelo://app?vid=2197a049-5e76-46f6-8fca-aa212e0ab139"},"vehicle_type_id":"4","last_reported":1765883414,"current_range_meters":11200,"station_id":"ce4bh512rcd13ifvqe3g","pricing_plan_id":"cebpf4jnsgd1na2vs0mg"},{"bike_id":"17152809-bb92-4ee5-93b6-7345def4721d","system_id":"levelo_inurba_marseille","lat":43.292633,"lon":5.376302,"is_reserved":false,"is_disabled":false,"rental_uris":{"android":"levelo://app?vid=17152809-bb92-4ee5-93b6-7345def4721d","ios":"levelo://app?vid=17152809-bb92-4ee5-93b6-7345def4721d"},"vehicle_type_id":"4","last_reported":1765883414,"current_range_meters":11200,"station_id":"ce4bgi12rcd13ifvqb80","pricing_plan_id":"cebpf4jnsgd1na2vs0mg"},{"bike_id":"5af242e8-7e04-4d52-adb3-be60671fad57","system_id":"levelo_inurba_marseille","lat":43.3012,"lon":5.43127,"is_reserved":false,"is_disabled":false,"rental_uris":{"android":"levelo://app?vid=5af242e8-7e04-4d52-adb3-be60671fad57","ios":"levelo://app?vid=5af242e8-7e04-4d52-adb3-be60671fad57"},"vehicle_type_id":"4","last_reported":1765883414,"current_range_meters":11200,"station_id":"st_d3js3co5814s73ftftug","pricing_plan_id":"cebpf4jnsgd1na2vs0mg"},{"bike_id":"08e06d6d-9496-4403-b8a2-10349ecf84a3","system_id":"levelo_inurba_marseille","lat":43.30125,"lon":5.43129,"is_reserved":false,"is_disabled":false,"rental_uris":{"android":"levelo://app?vid=08e06d6d-9496-4403-b8a2-10349ecf84a3","ios":"levelo://app?vid=08e06d6d-9496-4403-b8a2-10349ecf84a3"},"vehicle_type_id":"4","last_reported":1765883414,"current_range_meters":11600,"station_id":"st_d3js3co5814s73ftftug","pricing_plan_id":"cebpf4jnsgd1na2vs0mg"},{"bike_id":"44f392bf-fa3a-4853-bae6-404b3fa563ab","system_id":"levelo_inurba_marseille","lat":43.24066,"lon":5.37786,"is_reserved":false,"is_disabled":false,"rental_uris":{"android":"levelo://app?vid=44f392bf-fa3a-4853-bae6-404b3fa563ab","ios":"levelo://app?vid=44f392bf-fa3a-4853-bae6-404b3fa563ab"},"vehicle_type_id":"4","last_reported":1765883414,"current_range_meters":11600,"station_id":"","pricing_plan_id":"cebpf4jnsgd1na2vs0mg"},{"bike_id":"6df4c56c-c6f5-4fb1-84fc-9f50cb5ef178","system_id":"levelo_inurba_marseille","lat":43.23197,"lon":5.35542,"is_reserved":false,"is_disabled":true,"rental_uris":{"android":"levelo://app?vid=6df4c56c-c6f5-4fb1-84fc-9f50cb5ef178","ios":"levelo://app?vid=6df4c56c-c6f5-4fb1-84fc-9f50cb5ef178"},"vehicle_type_id":"4","last_reported":1765883414,"current_range_meters":11600,"station_id":"ce4bhu92rcd13ifvqi70","pricing_plan_id":"cebpf4jnsgd1na2vs0mg"},{"bike_id":"cac87912-c676-4b2a-bd7b-433323e0f09c","system_id":"levelo_inurba_marseille","lat":43.28539,"lon":5.44116,"is_reserved":false,"is_disabled":false,"rental_uris":{"android":"levelo://app?vid=cac87912-c676-4b2a-bd7b-433323e0f09c","ios":"levelo://app?vid=cac87912-c676-4b2a-bd7b-433323e0f09c"},"vehicle_type_id":"4","last_reported":1765883414,"current_range_meters":11600,"station_id":"st_d3j3df2ikq2c7380ej80","pricing_plan_id":"cebpf4jnsgd1na2vs0mg"},{"bike_id":"f0607238-9fab-432e-a6c6-c5acd6257feb","system_id":"levelo_inurba_marseille","lat":43.30353,"lon":5.39294,"is_reserved":false,"is_disabled":true,"rental_uris":{"android":"levelo://app?vid=f0607238-9fab-432e-a6c6-c5acd6257feb","ios":"levelo://app?vid=f0607238-9fab-432e-a6c6-c5acd6257feb"},"vehicle_type_id":"4","last_reported":1765883414,"current_range_meters":11600,"station_id":"","pricing_plan_id":"cebpf4jnsgd1na2vs0mg"},{"bike_id":"c2dbecdc-0ef9-48e5-a6d6-1106c2dfe04a","system_id":"levelo_inurba_marseille","lat":43.274902,"lon":5.424391,"is_reserved":false,"is_disabled":false,"rental_uris":{"android":"levelo://app?vid=c2dbecdc-0ef9-48e5-a6d6-1106c2dfe04a","ios":"levelo://app?vid=c2dbecdc-0ef9-48e5-a6d6-1106c2dfe04a"},"vehicle_type_id":"4","last_reported":1765883414,"current_range_meters":11600,"station_id":"ce4bhn92rcd13ifvqgrg","pricing_plan_id":"cebpf4jnsgd1na2vs0mg"},{"bike_id":"1dbaa383-1aa6-47ef-8b06-6969a979b35e","system_id":"levelo_inurba_marseille","lat":43.29936,"lon":5.36557,"is_reserved":false,"is_disabled":false,"rental_uris":{"android":"levelo://app?vid=1dbaa383-1aa6-47ef-8b06-6969a979b35e","ios":"levelo://app?vid=1dbaa383-1aa6-47ef-8b06-6969a979b35e"},"vehicle_type_id":"4","last_reported":1765883414,"current_range_meters":11600,"station_id":"ce4bgm92rcd13ifvqbr0","pricing_plan_id":"cebpf4jnsgd1na2vs0mg"},{"bike_id":"fd7fe341-e9e1-43e0-9282-b94a778a6675","system_id":"levelo_inurba_marseille","lat":43.337444,"lon":5.374475,"is_reserved":false,"is_disabled":false,"rental_uris":{"android":"levelo://app?vid=fd7fe341-e9e1-43e0-9282-b94a778a6675","ios":"levelo://app?vid=fd7fe341-e9e1-43e0-9282-b94a778a6675"},"vehicle_type_id":"4","last_reported":1765883414,"current_range_meters":12000,"station_id":"","pricing_plan_id":"cebpf4jnsgd1na2vs0mg"},{"bike_id":"dbd4ee99-e250-413d-bdce-471d46749382","system_id":"levelo_inurba_marseille","lat":43.30554,"lon":5.36713,"is_reserved":false,"is_disabled":false,"rental_uris":{"android":"levelo://app?vid=dbd4ee99-e250-413d-bdce-471d46749382","ios":"levelo://app?vid=dbd4ee99-e250-413d-bdce-471d46749382"},"vehicle_type_id":"4","last_reported":1765883414,"current_range_meters":12000,"station_id":"ce4bgrp2rcd13ifvqc9g","pricing_plan_id":"cebpf4jnsgd1na2vs0mg"},{"bike_id":"f5d9a9b3-558f-4d87-a4a3-2e93dcd5a3b9","system_id":"levelo_inurba_marseille","lat":43.28481,"lon":5.48409,"is_reserved":false,"is_disabled":false,"rental_uris":{"android":"levelo://app?vid=f5d9a9b3-558f-4d87-a4a3-2e93dcd5a3b9","ios":"levelo://app?vid=f5d9a9b3-558f-4d87-a4a3-2e93dcd5a3b9"},"vehicle_type_id":"4","last_reported":1765883414,"current_range_meters":12000,"station_id":"st_d3svhcjqgbts73a3dn0g","pricing_plan_id":"cebpf4jnsgd1na2vs0mg"},{"bike_id":"b959cc19-b00a-4f78-bf9b-f737abeb0c3b","system_id":"levelo_inurba_marseille","lat":43.29476,"lon":5.38289,"is_reserved":false,"is_disabled":false,"rental_uris":{"android":"levelo://app?vid=b959cc19-b00a-4f78-bf9b-f737abeb0c3b","ios":"levelo://app?vid=b959cc19-b00a-4f78-bf9b-f737abeb0c3b"},"vehicle_type_id":"4","last_reported":1765883414,"current_range_meters":12000,"station_id":"","pricing_plan_id":"cebpf4jnsgd1na2vs0mg"},{"bike_id":"985e76d9-f377-42e6-8fe2-ca92cc88db73","system_id":"levelo_inurba_marseille","lat":43.31355,"lon":5.3674,"is_reserved":false,"is_disabled":false,"rental_uris":{"android":"levelo://app?vid=985e76d9-f377-42e6-8fe2-ca92cc88db73","ios":"levelo://app?vid=985e76d9-f377-42e6-8fe2-ca92cc88db73"},"vehicle_type_id":"4","last_reported":1765883414,"current_range_meters":12400,"station_id":"ce4bgr92rcd13ifvqc6g","pricing_plan_id":"cebpf4jnsgd1na2vs0mg"},{"bike_id":"dcf86aea-2e35-4fc9-b06f-cfd052d91d73","system_id":"levelo_inurba_marseille","lat":43.21188,"lon":5.35077,"is_reserved":false,"is_disabled":false,"rental_uris":{"android":"levelo://app?vid=dcf86aea-2e35-4fc9-b06f-cfd052d91d73","ios":"levelo://app?vid=dcf86aea-2e35-4fc9-b06f-cfd052d91d73"},"vehicle_type_id":"4","last_reported":1765883414,"current_range_meters":12400,"station_id":"st_cvj6sg6p6f1abm77japg","pricing_plan_id":"cebpf4jnsgd1na2vs0mg"},{"bike_id":"bc74ef6c-60c8-4f6c-abb8-03b7a515cf09","system_id":"levelo_inurba_marseille","lat":43.31585,"lon":5.37305,"is_reserved":false,"is_disabled":false,"rental_uris":{"android":"levelo://app?vid=bc74ef6c-60c8-4f6c-abb8-03b7a515cf09","ios":"levelo://app?vid=bc74ef6c-60c8-4f6c-abb8-03b7a515cf09"},"vehicle_type_id":"4","last_reported":1765883414,"current_range_meters":12400,"station_id":"","pricing_plan_id":"cebpf4jnsgd1na2vs0mg"},{"bike_id":"4c1c7053-1690-46ae-b248-e8260967b03f","system_id":"levelo_inurba_marseille","lat":43.316791,"lon":5.375612,"is_reserved":false,"is_disabled":false,"rental_uris":{"android":"levelo://app?vid=4c1c7053-1690-46ae-b248-e8260967b03f","ios":"levelo://app?vid=4c1c7053-1690-46ae-b248-e8260967b03f"},"vehicle_type_id":"4","last_reported":1765883414,"current_range_meters":12800,"station_id":"","pricing_plan_id":"cebpf4jnsgd1na2vs0mg"},{"bike_id":"d3a2e4e7-6aac-4366-981a-52d89642477a","system_id":"levelo_inurba_marseille","lat":43.30301,"lon":5.3778,"is_reserved":false,"is_disabled":true,"rental_uris":{"android":"levelo://app?vid=d3a2e4e7-6aac-4366-981a-52d89642477a","ios":"levelo://app?vid=d3a2e4e7-6aac-4366-981a-52d89642477a"},"vehicle_type_id":"4","last_reported":1765883414,"current_range_meters":12800,"station_id":"","pricing_plan_id":"cebpf4jnsgd1na2vs0mg"},{"bike_id":"2ef24484-8e4e-49c0-a3a9-f83b77f53191","system_id":"levelo_inurba_marseille","lat":43.27128,"lon":5.42259,"is_reserved":false,"is_disabled":true,"rental_uris":{"android":"levelo://app?vid=2ef24484-8e4e-49c0-a3a9-f83b77f53191","ios":"levelo://app?vid=2ef24484-8e4e-49c0-a3a9-f83b77f53191"},"vehicle_type_id":"4","last_reported":1765883414,"current_range_meters":12800,"station_id":"ce4bhk92rcd13ifvqgb0","pricing_plan_id":"cebpf4jnsgd1na2vs0mg"},{"bike_id":"2833047e-5d18-4b3c-9479-5d7320904cd9","system_id":"levelo_inurba_marseille","lat":43.28545,"lon":5.44113,"is_reserved":false,"is_disabled":false,"rental_uris":{"android":"levelo://app?vid=2833047e-5d18-4b3c-9479-5d7320904cd9","ios":"levelo://app?vid=2833047e-5d18-4b3c-9479-5d7320904cd9"},"vehicle_type_id":"4","last_reported":1765883414,"current_range_meters":12800,"station_id":"st_d3j3df2ikq2c7380ej80","pricing_plan_id":"cebpf4jnsgd1na2vs0mg"},{"bike_id":"58141032-fd77-495b-9998-c231fa461851","system_id":"levelo_inurba_marseille","lat":43.31238,"lon":5.36846,"is_reserved":false,"is_disabled":false,"rental_uris":{"android":"levelo://app?vid=58141032-fd77-495b-9998-c231fa461851","ios":"levelo://app?vid=58141032-fd77-495b-9998-c231fa461851"},"vehicle_type_id":"4","last_reported":1765883414,"current_range_meters":12800,"station_id":"ce4bgl92rcd13ifvqbq0","pricing_plan_id":"cebpf4jnsgd1na2vs0mg"},{"bike_id":"d6f90051-adc4-44d1-a726-3c1a90bf2e04","system_id":"levelo_inurba_marseille","lat":43.28229,"lon":5.34907,"is_reserved":false,"is_disabled":false,"rental_uris":{"android":"levelo://app?vid=d6f90051-adc4-44d1-a726-3c1a90bf2e04","ios":"levelo://app?vid=d6f90051-adc4-44d1-a726-3c1a90bf2e04"},"vehicle_type_id":"4","last_reported":1765883414,"current_range_meters":13600,"station_id":"","pricing_plan_id":"cebpf4jnsgd1na2vs0mg"},{"bike_id":"b5ae6e46-55cd-43d2-a3d0-34a885858b7a","system_id":"levelo_inurba_marseille","lat":43.27916,"lon":5.395781,"is_reserved":false,"is_disabled":false,"rental_uris":{"android":"levelo://app?vid=b5ae6e46-55cd-43d2-a3d0-34a885858b7a","ios":"levelo://app?vid=b5ae6e46-55cd-43d2-a3d0-34a885858b7a"},"vehicle_type_id":"4","last_reported":1765883414,"current_range_meters":13600,"station_id":"ce4bhf92rcd13ifvqf40","pricing_plan_id":"cebpf4jnsgd1na2vs0mg"},{"bike_id":"9ce4e5c2-05ca-48f6-adad-e6b0809492f3","system_id":"levelo_inurba_marseille","lat":43.31263,"lon":5.40151,"is_reserved":false,"is_disabled":false,"rental_uris":{"android":"levelo://app?vid=9ce4e5c2-05ca-48f6-adad-e6b0809492f3","ios":"levelo://app?vid=9ce4e5c2-05ca-48f6-adad-e6b0809492f3"},"vehicle_type_id":"4","last_reported":1765883414,"current_range_meters":13600,"station_id":"ce4bh092rcd13ifvqd30","pricing_plan_id":"cebpf4jnsgd1na2vs0mg"},{"bike_id":"3bd1a1ef-b33f-4b38-86d8-3d27f7d6cb61","system_id":"levelo_inurba_marseille","lat":43.26054,"lon":5.39396,"is_reserved":false,"is_disabled":false,"rental_uris":{"android":"levelo://app?vid=3bd1a1ef-b33f-4b38-86d8-3d27f7d6cb61","ios":"levelo://app?vid=3bd1a1ef-b33f-4b38-86d8-3d27f7d6cb61"},"vehicle_type_id":"4","last_reported":1765883414,"current_range_meters":13600,"station_id":"ce4bhh92rcd13ifvqfj0","pricing_plan_id":"cebpf4jnsgd1na2vs0mg"},{"bike_id":"2332708a-9552-46a7-8b85-5b4c874f7546","system_id":"levelo_inurba_marseille","lat":43.284882,"lon":5.384157,"is_reserved":false,"is_disabled":false,"rental_uris":{"android":"levelo://app?vid=2332708a-9552-46a7-8b85-5b4c874f7546","ios":"levelo://app?vid=2332708a-9552-46a7-8b85-5b4c874f7546"},"vehicle_type_id":"4","last_reported":1765883414,"current_range_meters":13600,"station_id":"ce4bh512rcd13ifvqe3g","pricing_plan_id":"cebpf4jnsgd1na2vs0mg"},{"bike_id":"eb479364-649c-4e59-b035-b23aa12faf5a","system_id":"levelo_inurba_marseille","lat":43.24932,"lon":5.40511,"is_reserved":false,"is_disabled":false,"rental_uris":{"android":"levelo://app?vid=eb479364-649c-4e59-b035-b23aa12faf5a","ios":"levelo://app?vid=eb479364-649c-4e59-b035-b23aa12faf5a"},"vehicle_type_id":"4","last_reported":1765883414,"current_range_meters":13600,"station_id":"st_d2ngiaodas8pm72gd1h0","pricing_plan_id":"cebpf4jnsgd1na2vs0mg"},{"bike_id":"9ebcaad2-2e19-4608-9c02-cecea313b5ae","system_id":"levelo_inurba_marseille","lat":43.24629,"lon":5.43134,"is_reserved":false,"is_disabled":false,"rental_uris":{"android":"levelo://app?vid=9ebcaad2-2e19-4608-9c02-cecea313b5ae","ios":"levelo://app?vid=9ebcaad2-2e19-4608-9c02-cecea313b5ae"},"vehicle_type_id":"4","last_reported":1765883414,"current_range_meters":14000,"station_id":"st_d2m6c4gdas8pm72e190g","pricing_plan_id":"cebpf4jnsgd1na2vs0mg"},{"bike_id":"e2cbb5e6-3f9d-4a3d-a899-57d885f29ddd","system_id":"levelo_inurba_marseille","lat":43.337444,"lon":5.374475,"is_reserved":false,"is_disabled":false,"rental_uris":{"android":"levelo://app?vid=e2cbb5e6-3f9d-4a3d-a899-57d885f29ddd","ios":"levelo://app?vid=e2cbb5e6-3f9d-4a3d-a899-57d885f29ddd"},"vehicle_type_id":"4","last_reported":1765883414,"current_range_meters":14400,"station_id":"","pricing_plan_id":"cebpf4jnsgd1na2vs0mg"},{"bike_id":"094e6f42-8188-456e-b536-25ce771d7e44","system_id":"levelo_inurba_marseille","lat":43.241664,"lon":5.363884,"is_reserved":false,"is_disabled":false,"rental_uris":{"android":"levelo://app?vid=094e6f42-8188-456e-b536-25ce771d7e44","ios":"levelo://app?vid=094e6f42-8188-456e-b536-25ce771d7e44"},"vehicle_type_id":"4","last_reported":1765883414,"current_range_meters":14400,"station_id":"cpo36qri1sfpv3e86is0","pricing_plan_id":"cebpf4jnsgd1na2vs0mg"},{"bike_id":"ec025ddd-e46a-46ed-b97d-7c73102604e0","system_id":"levelo_inurba_marseille","lat":43.273206,"lon":5.390881,"is_reserved":false,"is_disabled":false,"rental_uris":{"android":"levelo://app?vid=ec025ddd-e46a-46ed-b97d-7c73102604e0","ios":"levelo://app?vid=ec025ddd-e46a-46ed-b97d-7c73102604e0"},"vehicle_type_id":"4","last_reported":1765883414,"current_range_meters":14400,"station_id":"ce4bhgp2rcd13ifvqfe0","pricing_plan_id":"cebpf4jnsgd1na2vs0mg"},{"bike_id":"73285856-b79b-41d6-b237-a655cabab032","system_id":"levelo_inurba_marseille","lat":43.26569,"lon":5.390125,"is_reserved":false,"is_disabled":false,"rental_uris":{"android":"levelo://app?vid=73285856-b79b-41d6-b237-a655cabab032","ios":"levelo://app?vid=73285856-b79b-41d6-b237-a655cabab032"},"vehicle_type_id":"4","last_reported":1765883414,"current_range_meters":14400,"station_id":"ce4bhe12rcd13ifvqf30","pricing_plan_id":"cebpf4jnsgd1na2vs0mg"},{"bike_id":"37c64312-bacf-418e-938c-ab682523f7de","system_id":"levelo_inurba_marseille","lat":43.28536,"lon":5.44128,"is_reserved":false,"is_disabled":false,"rental_uris":{"android":"levelo://app?vid=37c64312-bacf-418e-938c-ab682523f7de","ios":"levelo://app?vid=37c64312-bacf-418e-938c-ab682523f7de"},"vehicle_type_id":"4","last_reported":1765883414,"current_range_meters":14400,"station_id":"st_d3j3df2ikq2c7380ej80","pricing_plan_id":"cebpf4jnsgd1na2vs0mg"},{"bike_id":"50a626dc-651a-44d9-94b7-3e49cde01ea1","system_id":"levelo_inurba_marseille","lat":43.27381,"lon":5.3626,"is_reserved":false,"is_disabled":false,"rental_uris":{"android":"levelo://app?vid=50a626dc-651a-44d9-94b7-3e49cde01ea1","ios":"levelo://app?vid=50a626dc-651a-44d9-94b7-3e49cde01ea1"},"vehicle_type_id":"4","last_reported":1765883414,"current_range_meters":14800,"station_id":"ce4bhbh2rcd13ifvqeo0","pricing_plan_id":"cebpf4jnsgd1na2vs0mg"},{"bike_id":"21131018-3fc5-49b4-9c86-831df9d92167","system_id":"levelo_inurba_marseille","lat":43.265602,"lon":5.372853,"is_reserved":false,"is_disabled":false,"rental_uris":{"android":"levelo://app?vid=21131018-3fc5-49b4-9c86-831df9d92167","ios":"levelo://app?vid=21131018-3fc5-49b4-9c86-831df9d92167"},"vehicle_type_id":"4","last_reported":1765883414,"current_range_meters":14800,"station_id":"ce4bhg12rcd13ifvqf70","pricing_plan_id":"cebpf4jnsgd1na2vs0mg"},{"bike_id":"22ba5e64-4d4e-4757-b0b6-9a833ad02d51","system_id":"levelo_inurba_marseille","lat":43.24648,"lon":5.38185,"is_reserved":false,"is_disabled":false,"rental_uris":{"android":"levelo://app?vid=22ba5e64-4d4e-4757-b0b6-9a833ad02d51","ios":"levelo://app?vid=22ba5e64-4d4e-4757-b0b6-9a833ad02d51"},"vehicle_type_id":"4","last_reported":1765883414,"current_range_meters":14800,"station_id":"ce4bhih2rcd13ifvqfr0","pricing_plan_id":"cebpf4jnsgd1na2vs0mg"},{"bike_id":"b32e4917-4651-4915-accd-6ad72ebf913f","system_id":"levelo_inurba_marseille","lat":43.29227,"lon":5.3606,"is_reserved":false,"is_disabled":true,"rental_uris":{"android":"levelo://app?vid=b32e4917-4651-4915-accd-6ad72ebf913f","ios":"levelo://app?vid=b32e4917-4651-4915-accd-6ad72ebf913f"},"vehicle_type_id":"4","last_reported":1765883414,"current_range_meters":14800,"station_id":"ce4bhbh2rcd13ifvqeqg","pricing_plan_id":"cebpf4jnsgd1na2vs0mg"},{"bike_id":"32d3acb4-6b86-4d00-b354-6a4f97c20ef3","system_id":"levelo_inurba_marseille","lat":43.30141,"lon":5.38765,"is_reserved":false,"is_disabled":false,"rental_uris":{"android":"levelo://app?vid=32d3acb4-6b86-4d00-b354-6a4f97c20ef3","ios":"levelo://app?vid=32d3acb4-6b86-4d00-b354-6a4f97c20ef3"},"vehicle_type_id":"4","last_reported":1765883414,"current_range_meters":14800,"station_id":"ce4bghh2rcd13ifvqb60","pricing_plan_id":"cebpf4jnsgd1na2vs0mg"},{"bike_id":"8377e891-0775-4522-a52c-48ab9aeb4664","system_id":"levelo_inurba_marseille","lat":43.30377,"lon":5.42482,"is_reserved":false,"is_disabled":false,"rental_uris":{"android":"levelo://app?vid=8377e891-0775-4522-a52c-48ab9aeb4664","ios":"levelo://app?vid=8377e891-0775-4522-a52c-48ab9aeb4664"},"vehicle_type_id":"4","last_reported":1765883414,"current_range_meters":14800,"station_id":"ce4bhoh2rcd13ifvqh6g","pricing_plan_id":"cebpf4jnsgd1na2vs0mg"},{"bike_id":"3a429daf-3c6d-4f46-8247-9917789c3347","system_id":"levelo_inurba_marseille","lat":43.28613,"lon":5.35105,"is_reserved":false,"is_disabled":false,"rental_uris":{"android":"levelo://app?vid=3a429daf-3c6d-4f46-8247-9917789c3347","ios":"levelo://app?vid=3a429daf-3c6d-4f46-8247-9917789c3347"},"vehicle_type_id":"4","last_reported":1765883414,"current_range_meters":14800,"station_id":"ce4bhch2rcd13ifvqeug","pricing_plan_id":"cebpf4jnsgd1na2vs0mg"},{"bike_id":"6d8d2bf5-dee2-42f6-b61d-cfa0b370a798","system_id":"levelo_inurba_marseille","lat":43.27172,"lon":5.409948,"is_reserved":false,"is_disabled":false,"rental_uris":{"android":"levelo://app?vid=6d8d2bf5-dee2-42f6-b61d-cfa0b370a798","ios":"levelo://app?vid=6d8d2bf5-dee2-42f6-b61d-cfa0b370a798"},"vehicle_type_id":"4","last_reported":1765883414,"current_range_meters":14800,"station_id":"ce4bhl12rcd13ifvqgf0","pricing_plan_id":"cebpf4jnsgd1na2vs0mg"},{"bike_id":"2803c5e7-d75f-4d2d-a222-baf2bf014e86","system_id":"levelo_inurba_marseille","lat":43.255649,"lon":5.382579,"is_reserved":false,"is_disabled":false,"rental_uris":{"android":"levelo://app?vid=2803c5e7-d75f-4d2d-a222-baf2bf014e86","ios":"levelo://app?vid=2803c5e7-d75f-4d2d-a222-baf2bf014e86"},"vehicle_type_id":"4","last_reported":1765883414,"current_range_meters":15200,"station_id":"ce4bhih2rcd13ifvqfs0","pricing_plan_id":"cebpf4jnsgd1na2vs0mg"},{"bike_id":"15cd70f6-9342-4a44-b90b-47c044d5e34b","system_id":"levelo_inurba_marseille","lat":43.30466,"lon":5.37899,"is_reserved":false,"is_disabled":false,"rental_uris":{"android":"levelo://app?vid=15cd70f6-9342-4a44-b90b-47c044d5e34b","ios":"levelo://app?vid=15cd70f6-9342-4a44-b90b-47c044d5e34b"},"vehicle_type_id":"4","last_reported":1765883414,"current_range_meters":15200,"station_id":"ce4bgup2rcd13ifvqcn0","pricing_plan_id":"cebpf4jnsgd1na2vs0mg"},{"bike_id":"488d4d16-63d1-48b4-9d36-d1d5cff9fcdc","system_id":"levelo_inurba_marseille","lat":43.26209,"lon":5.37442,"is_reserved":false,"is_disabled":false,"rental_uris":{"android":"levelo://app?vid=488d4d16-63d1-48b4-9d36-d1d5cff9fcdc","ios":"levelo://app?vid=488d4d16-63d1-48b4-9d36-d1d5cff9fcdc"},"vehicle_type_id":"4","last_reported":1765883414,"current_range_meters":15200,"station_id":"ce4bhgp2rcd13ifvqfc0","pricing_plan_id":"cebpf4jnsgd1na2vs0mg"},{"bike_id":"5b9b0249-af26-48bc-a6fd-72f489db67a9","system_id":"levelo_inurba_marseille","lat":43.323853,"lon":5.367356,"is_reserved":false,"is_disabled":false,"rental_uris":{"android":"levelo://app?vid=5b9b0249-af26-48bc-a6fd-72f489db67a9","ios":"levelo://app?vid=5b9b0249-af26-48bc-a6fd-72f489db67a9"},"vehicle_type_id":"4","last_reported":1765883414,"current_range_meters":15200,"station_id":"ce4bhsh2rcd13ifvqi2g","pricing_plan_id":"cebpf4jnsgd1na2vs0mg"},{"bike_id":"33583a3e-eb6f-4736-a38d-d228e9cd63c0","system_id":"levelo_inurba_marseille","lat":43.29814,"lon":5.44069,"is_reserved":false,"is_disabled":false,"rental_uris":{"android":"levelo://app?vid=33583a3e-eb6f-4736-a38d-d228e9cd63c0","ios":"levelo://app?vid=33583a3e-eb6f-4736-a38d-d228e9cd63c0"},"vehicle_type_id":"4","last_reported":1765883414,"current_range_meters":15200,"station_id":"","pricing_plan_id":"cebpf4jnsgd1na2vs0mg"},{"bike_id":"73622435-c5fd-4005-8594-c94cc5b0c5e3","system_id":"levelo_inurba_marseille","lat":43.29526,"lon":5.3901,"is_reserved":false,"is_disabled":true,"rental_uris":{"android":"levelo://app?vid=73622435-c5fd-4005-8594-c94cc5b0c5e3","ios":"levelo://app?vid=73622435-c5fd-4005-8594-c94cc5b0c5e3"},"vehicle_type_id":"4","last_reported":1765883414,"current_range_meters":15200,"station_id":"ce4bh3p2rcd13ifvqdp0","pricing_plan_id":"cebpf4jnsgd1na2vs0mg"},{"bike_id":"dd210942-c83b-4dbd-84e7-85147746db50","system_id":"levelo_inurba_marseille","lat":43.29917,"lon":5.38153,"is_reserved":false,"is_disabled":false,"rental_uris":{"android":"levelo://app?vid=dd210942-c83b-4dbd-84e7-85147746db50","ios":"levelo://app?vid=dd210942-c83b-4dbd-84e7-85147746db50"},"vehicle_type_id":"4","last_reported":1765883414,"current_range_meters":15200,"station_id":"ce4bgj12rcd13ifvqbc0","pricing_plan_id":"cebpf4jnsgd1na2vs0mg"},{"bike_id":"19b66638-3211-46a9-8beb-4f12406d7672","system_id":"levelo_inurba_marseille","lat":43.27283,"lon":5.41078,"is_reserved":false,"is_disabled":false,"rental_uris":{"android":"levelo://app?vid=19b66638-3211-46a9-8beb-4f12406d7672","ios":"levelo://app?vid=19b66638-3211-46a9-8beb-4f12406d7672"},"vehicle_type_id":"4","last_reported":1765883414,"current_range_meters":15200,"station_id":"","pricing_plan_id":"cebpf4jnsgd1na2vs0mg"},{"bike_id":"2ab2710b-733d-44fe-a9f8-fe4cbf8606c7","system_id":"levelo_inurba_marseille","lat":43.33543,"lon":5.37474,"is_reserved":false,"is_disabled":false,"rental_uris":{"android":"levelo://app?vid=2ab2710b-733d-44fe-a9f8-fe4cbf8606c7","ios":"levelo://app?vid=2ab2710b-733d-44fe-a9f8-fe4cbf8606c7"},"vehicle_type_id":"4","last_reported":1765883414,"current_range_meters":15200,"station_id":"st_d46tts09ee8s73dlu43g","pricing_plan_id":"cebpf4jnsgd1na2vs0mg"},{"bike_id":"8c2c2ce3-73da-4ebf-ba92-d3797395fcb1","system_id":"levelo_inurba_marseille","lat":43.2461,"lon":5.43161,"is_reserved":false,"is_disabled":true,"rental_uris":{"android":"levelo://app?vid=8c2c2ce3-73da-4ebf-ba92-d3797395fcb1","ios":"levelo://app?vid=8c2c2ce3-73da-4ebf-ba92-d3797395fcb1"},"vehicle_type_id":"4","last_reported":1765883414,"current_range_meters":16000,"station_id":"st_d2m6c4gdas8pm72e190g","pricing_plan_id":"cebpf4jnsgd1na2vs0mg"},{"bike_id":"b972c994-16b3-47fe-974f-b887645957a5","system_id":"levelo_inurba_marseille","lat":43.265576,"lon":5.372854,"is_reserved":false,"is_disabled":false,"rental_uris":{"android":"levelo://app?vid=b972c994-16b3-47fe-974f-b887645957a5","ios":"levelo://app?vid=b972c994-16b3-47fe-974f-b887645957a5"},"vehicle_type_id":"4","last_reported":1765883414,"current_range_meters":16000,"station_id":"ce4bhih2rcd13ifvqfr0","pricing_plan_id":"cebpf4jnsgd1na2vs0mg"},{"bike_id":"219c769a-c505-4a4c-9a36-f77ef6ff9278","system_id":"levelo_inurba_marseille","lat":43.31106,"lon":5.37757,"is_reserved":false,"is_disabled":false,"rental_uris":{"android":"levelo://app?vid=219c769a-c505-4a4c-9a36-f77ef6ff9278","ios":"levelo://app?vid=219c769a-c505-4a4c-9a36-f77ef6ff9278"},"vehicle_type_id":"4","last_reported":1765883414,"current_range_meters":16000,"station_id":"ce4bgt92rcd13ifvqcg0","pricing_plan_id":"cebpf4jnsgd1na2vs0mg"},{"bike_id":"f96d197e-d68e-4b9e-b261-84222baa54d9","system_id":"levelo_inurba_marseille","lat":43.23778,"lon":5.3664,"is_reserved":false,"is_disabled":false,"rental_uris":{"android":"levelo://app?vid=f96d197e-d68e-4b9e-b261-84222baa54d9","ios":"levelo://app?vid=f96d197e-d68e-4b9e-b261-84222baa54d9"},"vehicle_type_id":"4","last_reported":1765883414,"current_range_meters":16000,"station_id":"st_d3nk18o9ro0c73en2l3g","pricing_plan_id":"cebpf4jnsgd1na2vs0mg"},{"bike_id":"651b29d3-4f51-4bd5-bf59-d7b9bcb7f108","system_id":"levelo_inurba_marseille","lat":43.25353,"lon":5.42164,"is_reserved":false,"is_disabled":true,"rental_uris":{"android":"levelo://app?vid=651b29d3-4f51-4bd5-bf59-d7b9bcb7f108","ios":"levelo://app?vid=651b29d3-4f51-4bd5-bf59-d7b9bcb7f108"},"vehicle_type_id":"4","last_reported":1765883414,"current_range_meters":16000,"station_id":"st_d2m65c5bi1j21697t3ng","pricing_plan_id":"cebpf4jnsgd1na2vs0mg"},{"bike_id":"ebc38db1-ab1f-4476-ac0e-503f69e50c69","system_id":"levelo_inurba_marseille","lat":43.303298,"lon":5.376452,"is_reserved":false,"is_disabled":false,"rental_uris":{"android":"levelo://app?vid=ebc38db1-ab1f-4476-ac0e-503f69e50c69","ios":"levelo://app?vid=ebc38db1-ab1f-4476-ac0e-503f69e50c69"},"vehicle_type_id":"4","last_reported":1765883414,"current_range_meters":16000,"station_id":"ce4bguh2rcd13ifvqcj0","pricing_plan_id":"cebpf4jnsgd1na2vs0mg"},{"bike_id":"5d02573e-2aa7-4684-8622-d29060b07fc5","system_id":"levelo_inurba_marseille","lat":43.298442,"lon":5.362769,"is_reserved":false,"is_disabled":false,"rental_uris":{"android":"levelo://app?vid=5d02573e-2aa7-4684-8622-d29060b07fc5","ios":"levelo://app?vid=5d02573e-2aa7-4684-8622-d29060b07fc5"},"vehicle_type_id":"4","last_reported":1765883414,"current_range_meters":16000,"station_id":"ce4bhm92rcd13ifvqglg","pricing_plan_id":"cebpf4jnsgd1na2vs0mg"},{"bike_id":"92f44d46-acda-4b9e-a4ea-fc730fbeb2c7","system_id":"levelo_inurba_marseille","lat":43.29709,"lon":5.3772,"is_reserved":false,"is_disabled":false,"rental_uris":{"android":"levelo://app?vid=92f44d46-acda-4b9e-a4ea-fc730fbeb2c7","ios":"levelo://app?vid=92f44d46-acda-4b9e-a4ea-fc730fbeb2c7"},"vehicle_type_id":"4","last_reported":1765883414,"current_range_meters":16000,"station_id":"ce4bgkh2rcd13ifvqbl0","pricing_plan_id":"cebpf4jnsgd1na2vs0mg"},{"bike_id":"d5c521b5-e46a-4dc7-9620-7162de33ed0f","system_id":"levelo_inurba_marseille","lat":43.29765,"lon":5.42789,"is_reserved":false,"is_disabled":false,"rental_uris":{"android":"levelo://app?vid=d5c521b5-e46a-4dc7-9620-7162de33ed0f","ios":"levelo://app?vid=d5c521b5-e46a-4dc7-9620-7162de33ed0f"},"vehicle_type_id":"4","last_reported":1765883414,"current_range_meters":16000,"station_id":"st_d3md5207bmas73dh9klg","pricing_plan_id":"cebpf4jnsgd1na2vs0mg"},{"bike_id":"9f2dca18-3508-4a29-b83d-4e2afd34ac4d","system_id":"levelo_inurba_marseille","lat":43.26225,"lon":5.40464,"is_reserved":false,"is_disabled":false,"rental_uris":{"android":"levelo://app?vid=9f2dca18-3508-4a29-b83d-4e2afd34ac4d","ios":"levelo://app?vid=9f2dca18-3508-4a29-b83d-4e2afd34ac4d"},"vehicle_type_id":"4","last_reported":1765883414,"current_range_meters":16400,"station_id":"ce4bhmh2rcd13ifvqgmg","pricing_plan_id":"cebpf4jnsgd1na2vs0mg"},{"bike_id":"6d2b7267-ae67-41db-9a3b-cc6a7577f2f0","system_id":"levelo_inurba_marseille","lat":43.2887,"lon":5.42511,"is_reserved":false,"is_disabled":false,"rental_uris":{"android":"levelo://app?vid=6d2b7267-ae67-41db-9a3b-cc6a7577f2f0","ios":"levelo://app?vid=6d2b7267-ae67-41db-9a3b-cc6a7577f2f0"},"vehicle_type_id":"4","last_reported":1765883414,"current_range_meters":16400,"station_id":"st_d3b462108ojc7389ooeg","pricing_plan_id":"cebpf4jnsgd1na2vs0mg"},{"bike_id":"ddb7d15d-3f99-4d7a-aae0-1a9d45669c33","system_id":"levelo_inurba_marseille","lat":43.23147,"lon":5.43702,"is_reserved":false,"is_disabled":true,"rental_uris":{"android":"levelo://app?vid=ddb7d15d-3f99-4d7a-aae0-1a9d45669c33","ios":"levelo://app?vid=ddb7d15d-3f99-4d7a-aae0-1a9d45669c33"},"vehicle_type_id":"4","last_reported":1765883414,"current_range_meters":16400,"station_id":"ce4bhmp2rcd13ifvqgog","pricing_plan_id":"cebpf4jnsgd1na2vs0mg"},{"bike_id":"5eabb89b-be95-4b4f-a683-fccb6531d8cd","system_id":"levelo_inurba_marseille","lat":43.30972,"lon":5.39217,"is_reserved":false,"is_disabled":false,"rental_uris":{"android":"levelo://app?vid=5eabb89b-be95-4b4f-a683-fccb6531d8cd","ios":"levelo://app?vid=5eabb89b-be95-4b4f-a683-fccb6531d8cd"},"vehicle_type_id":"4","last_reported":1765883414,"current_range_meters":16400,"station_id":"","pricing_plan_id":"cebpf4jnsgd1na2vs0mg"},{"bike_id":"4fa41bf2-a255-4eea-86fc-52affbe7875d","system_id":"levelo_inurba_marseille","lat":43.261936,"lon":5.374508,"is_reserved":false,"is_disabled":false,"rental_uris":{"android":"levelo://app?vid=4fa41bf2-a255-4eea-86fc-52affbe7875d","ios":"levelo://app?vid=4fa41bf2-a255-4eea-86fc-52affbe7875d"},"vehicle_type_id":"4","last_reported":1765883414,"current_range_meters":16400,"station_id":"ce4bhgp2rcd13ifvqfc0","pricing_plan_id":"cebpf4jnsgd1na2vs0mg"},{"bike_id":"b87f237b-bed1-4605-8614-65c124626701","system_id":"levelo_inurba_marseille","lat":43.3136,"lon":5.36728,"is_reserved":false,"is_disabled":false,"rental_uris":{"android":"levelo://app?vid=b87f237b-bed1-4605-8614-65c124626701","ios":"levelo://app?vid=b87f237b-bed1-4605-8614-65c124626701"},"vehicle_type_id":"4","last_reported":1765883414,"current_range_meters":16400,"station_id":"ce4bgr92rcd13ifvqc6g","pricing_plan_id":"cebpf4jnsgd1na2vs0mg"},{"bike_id":"9abdc025-1d8a-472a-a65f-d855a10aed7c","system_id":"levelo_inurba_marseille","lat":43.2979,"lon":5.38107,"is_reserved":false,"is_disabled":false,"rental_uris":{"android":"levelo://app?vid=9abdc025-1d8a-472a-a65f-d855a10aed7c","ios":"levelo://app?vid=9abdc025-1d8a-472a-a65f-d855a10aed7c"},"vehicle_type_id":"4","last_reported":1765883414,"current_range_meters":16400,"station_id":"ce4bgip2rcd13ifvqbb0","pricing_plan_id":"cebpf4jnsgd1na2vs0mg"},{"bike_id":"a46445b0-0e05-4854-90e8-7e9116d714dc","system_id":"levelo_inurba_marseille","lat":43.337634,"lon":5.37441,"is_reserved":false,"is_disabled":false,"rental_uris":{"android":"levelo://app?vid=a46445b0-0e05-4854-90e8-7e9116d714dc","ios":"levelo://app?vid=a46445b0-0e05-4854-90e8-7e9116d714dc"},"vehicle_type_id":"4","last_reported":1765883414,"current_range_meters":16400,"station_id":"","pricing_plan_id":"cebpf4jnsgd1na2vs0mg"},{"bike_id":"d2e5b3a0-c3df-47b2-89a3-604f4485f33c","system_id":"levelo_inurba_marseille","lat":43.337444,"lon":5.374475,"is_reserved":false,"is_disabled":true,"rental_uris":{"android":"levelo://app?vid=d2e5b3a0-c3df-47b2-89a3-604f4485f33c","ios":"levelo://app?vid=d2e5b3a0-c3df-47b2-89a3-604f4485f33c"},"vehicle_type_id":"4","last_reported":1765883414,"current_range_meters":16400,"station_id":"","pricing_plan_id":"cebpf4jnsgd1na2vs0mg"},{"bike_id":"1985a16d-974e-4764-a075-1c51a005d839","system_id":"levelo_inurba_marseille","lat":43.29819,"lon":5.44058,"is_reserved":false,"is_disabled":false,"rental_uris":{"android":"levelo://app?vid=1985a16d-974e-4764-a075-1c51a005d839","ios":"levelo://app?vid=1985a16d-974e-4764-a075-1c51a005d839"},"vehicle_type_id":"4","last_reported":1765883414,"current_range_meters":16400,"station_id":"st_d3jp68qikq2c7381ktn0","pricing_plan_id":"cebpf4jnsgd1na2vs0mg"},{"bike_id":"5a015a9a-fc6a-4412-961e-8b275c5ed707","system_id":"levelo_inurba_marseille","lat":43.27317,"lon":5.39081,"is_reserved":false,"is_disabled":false,"rental_uris":{"android":"levelo://app?vid=5a015a9a-fc6a-4412-961e-8b275c5ed707","ios":"levelo://app?vid=5a015a9a-fc6a-4412-961e-8b275c5ed707"},"vehicle_type_id":"4","last_reported":1765883414,"current_range_meters":16400,"station_id":"ce4bhgp2rcd13ifvqfe0","pricing_plan_id":"cebpf4jnsgd1na2vs0mg"},{"bike_id":"88009fd1-4964-4861-9d79-7f8e3fc220eb","system_id":"levelo_inurba_marseille","lat":43.33582,"lon":5.41029,"is_reserved":false,"is_disabled":false,"rental_uris":{"android":"levelo://app?vid=88009fd1-4964-4861-9d79-7f8e3fc220eb","ios":"levelo://app?vid=88009fd1-4964-4861-9d79-7f8e3fc220eb"},"vehicle_type_id":"4","last_reported":1765883414,"current_range_meters":16400,"station_id":"ce4bhqh2rcd13ifvqhmg","pricing_plan_id":"cebpf4jnsgd1na2vs0mg"},{"bike_id":"d94ce39c-b82d-454b-83d8-d59ba353504c","system_id":"levelo_inurba_marseille","lat":43.28609,"lon":5.39867,"is_reserved":false,"is_disabled":false,"rental_uris":{"android":"levelo://app?vid=d94ce39c-b82d-454b-83d8-d59ba353504c","ios":"levelo://app?vid=d94ce39c-b82d-454b-83d8-d59ba353504c"},"vehicle_type_id":"4","last_reported":1765883414,"current_range_meters":16400,"station_id":"st_d4a7ka997mjs738ck50g","pricing_plan_id":"cebpf4jnsgd1na2vs0mg"},{"bike_id":"1761dee6-2fc9-43ea-a081-e6bc83df43e8","system_id":"levelo_inurba_marseille","lat":43.31726,"lon":5.37621,"is_reserved":false,"is_disabled":false,"rental_uris":{"android":"levelo://app?vid=1761dee6-2fc9-43ea-a081-e6bc83df43e8","ios":"levelo://app?vid=1761dee6-2fc9-43ea-a081-e6bc83df43e8"},"vehicle_type_id":"4","last_reported":1765883414,"current_range_meters":16800,"station_id":"","pricing_plan_id":"cebpf4jnsgd1na2vs0mg"},{"bike_id":"2e2d5abd-a5ef-410b-b72e-d38d80e78f52","system_id":"levelo_inurba_marseille","lat":43.30104,"lon":5.43136,"is_reserved":false,"is_disabled":false,"rental_uris":{"android":"levelo://app?vid=2e2d5abd-a5ef-410b-b72e-d38d80e78f52","ios":"levelo://app?vid=2e2d5abd-a5ef-410b-b72e-d38d80e78f52"},"vehicle_type_id":"4","last_reported":1765883414,"current_range_meters":16800,"station_id":"st_d3js3co5814s73ftftug","pricing_plan_id":"cebpf4jnsgd1na2vs0mg"},{"bike_id":"4824a2bb-7351-4049-8fb9-1f8b55445bbe","system_id":"levelo_inurba_marseille","lat":43.24167,"lon":5.36395,"is_reserved":false,"is_disabled":false,"rental_uris":{"android":"levelo://app?vid=4824a2bb-7351-4049-8fb9-1f8b55445bbe","ios":"levelo://app?vid=4824a2bb-7351-4049-8fb9-1f8b55445bbe"},"vehicle_type_id":"4","last_reported":1765883414,"current_range_meters":16800,"station_id":"cpo36qri1sfpv3e86is0","pricing_plan_id":"cebpf4jnsgd1na2vs0mg"},{"bike_id":"d437c4d0-ca9c-44ac-a680-83b3285369c2","system_id":"levelo_inurba_marseille","lat":43.295723,"lon":5.399727,"is_reserved":false,"is_disabled":false,"rental_uris":{"android":"levelo://app?vid=d437c4d0-ca9c-44ac-a680-83b3285369c2","ios":"levelo://app?vid=d437c4d0-ca9c-44ac-a680-83b3285369c2"},"vehicle_type_id":"4","last_reported":1765883414,"current_range_meters":16800,"station_id":"","pricing_plan_id":"cebpf4jnsgd1na2vs0mg"},{"bike_id":"0c482786-093c-4a57-9449-b74d6629df43","system_id":"levelo_inurba_marseille","lat":43.2408,"lon":5.37757,"is_reserved":false,"is_disabled":false,"rental_uris":{"android":"levelo://app?vid=0c482786-093c-4a57-9449-b74d6629df43","ios":"levelo://app?vid=0c482786-093c-4a57-9449-b74d6629df43"},"vehicle_type_id":"4","last_reported":1765883414,"current_range_meters":16800,"station_id":"ce4bhnp2rcd13ifvqgvg","pricing_plan_id":"cebpf4jnsgd1na2vs0mg"},{"bike_id":"ba3970ea-1713-489a-b609-5f3326dccc78","system_id":"levelo_inurba_marseille","lat":43.337444,"lon":5.374475,"is_reserved":false,"is_disabled":true,"rental_uris":{"android":"levelo://app?vid=ba3970ea-1713-489a-b609-5f3326dccc78","ios":"levelo://app?vid=ba3970ea-1713-489a-b609-5f3326dccc78"},"vehicle_type_id":"4","last_reported":1765883414,"current_range_meters":16800,"station_id":"","pricing_plan_id":"cebpf4jnsgd1na2vs0mg"},{"bike_id":"2d9be9df-3d9b-45f9-8822-775a0a71b6a1","system_id":"levelo_inurba_marseille","lat":43.28114,"lon":5.42635,"is_reserved":false,"is_disabled":false,"rental_uris":{"android":"levelo://app?vid=2d9be9df-3d9b-45f9-8822-775a0a71b6a1","ios":"levelo://app?vid=2d9be9df-3d9b-45f9-8822-775a0a71b6a1"},"vehicle_type_id":"4","last_reported":1765883414,"current_range_meters":16800,"station_id":"ce4bhnh2rcd13ifvqgug","pricing_plan_id":"cebpf4jnsgd1na2vs0mg"},{"bike_id":"499a34fc-f1a1-464a-8193-2260d7c5c51c","system_id":"levelo_inurba_marseille","lat":43.30698,"lon":5.42454,"is_reserved":false,"is_disabled":false,"rental_uris":{"android":"levelo://app?vid=499a34fc-f1a1-464a-8193-2260d7c5c51c","ios":"levelo://app?vid=499a34fc-f1a1-464a-8193-2260d7c5c51c"},"vehicle_type_id":"4","last_reported":1765883414,"current_range_meters":16800,"station_id":"st_cvj6ca6bvosntc0bfgr0","pricing_plan_id":"cebpf4jnsgd1na2vs0mg"},{"bike_id":"64b6d9da-99fb-4f89-b300-f9a85c2b82c0","system_id":"levelo_inurba_marseille","lat":43.30124,"lon":5.3742,"is_reserved":false,"is_disabled":false,"rental_uris":{"android":"levelo://app?vid=64b6d9da-99fb-4f89-b300-f9a85c2b82c0","ios":"levelo://app?vid=64b6d9da-99fb-4f89-b300-f9a85c2b82c0"},"vehicle_type_id":"4","last_reported":1765883414,"current_range_meters":16800,"station_id":"ce4bgs92rcd13ifvqcc0","pricing_plan_id":"cebpf4jnsgd1na2vs0mg"},{"bike_id":"c5d8207b-63ca-48b6-977e-f227e1ae94db","system_id":"levelo_inurba_marseille","lat":43.29275,"lon":5.38446,"is_reserved":false,"is_disabled":false,"rental_uris":{"android":"levelo://app?vid=c5d8207b-63ca-48b6-977e-f227e1ae94db","ios":"levelo://app?vid=c5d8207b-63ca-48b6-977e-f227e1ae94db"},"vehicle_type_id":"4","last_reported":1765883414,"current_range_meters":16800,"station_id":"ce4bh692rcd13ifvqea0","pricing_plan_id":"cebpf4jnsgd1na2vs0mg"},{"bike_id":"a3cf6e32-8a5b-405a-8e1a-e62fc2a41c92","system_id":"levelo_inurba_marseille","lat":43.2802,"lon":5.42134,"is_reserved":false,"is_disabled":false,"rental_uris":{"android":"levelo://app?vid=a3cf6e32-8a5b-405a-8e1a-e62fc2a41c92","ios":"levelo://app?vid=a3cf6e32-8a5b-405a-8e1a-e62fc2a41c92"},"vehicle_type_id":"4","last_reported":1765883414,"current_range_meters":17200,"station_id":"","pricing_plan_id":"cebpf4jnsgd1na2vs0mg"},{"bike_id":"fbc8ea1a-b567-4ee6-a86b-bc4fe5ba24ca","system_id":"levelo_inurba_marseille","lat":43.27072,"lon":5.42288,"is_reserved":false,"is_disabled":false,"rental_uris":{"android":"levelo://app?vid=fbc8ea1a-b567-4ee6-a86b-bc4fe5ba24ca","ios":"levelo://app?vid=fbc8ea1a-b567-4ee6-a86b-bc4fe5ba24ca"},"vehicle_type_id":"4","last_reported":1765883414,"current_range_meters":17200,"station_id":"ce4bhk92rcd13ifvqgb0","pricing_plan_id":"cebpf4jnsgd1na2vs0mg"},{"bike_id":"03e74853-621e-4e59-8103-de48b526324d","system_id":"levelo_inurba_marseille","lat":43.25923,"lon":5.40902,"is_reserved":false,"is_disabled":false,"rental_uris":{"android":"levelo://app?vid=03e74853-621e-4e59-8103-de48b526324d","ios":"levelo://app?vid=03e74853-621e-4e59-8103-de48b526324d"},"vehicle_type_id":"4","last_reported":1765883414,"current_range_meters":17200,"station_id":"ce4bhm92rcd13ifvqglg","pricing_plan_id":"cebpf4jnsgd1na2vs0mg"},{"bike_id":"8e42f5bd-0a55-4d3c-9096-d82a20a55cfc","system_id":"levelo_inurba_marseille","lat":43.286,"lon":5.38356,"is_reserved":false,"is_disabled":false,"rental_uris":{"android":"levelo://app?vid=8e42f5bd-0a55-4d3c-9096-d82a20a55cfc","ios":"levelo://app?vid=8e42f5bd-0a55-4d3c-9096-d82a20a55cfc"},"vehicle_type_id":"4","last_reported":1765883414,"current_range_meters":17200,"station_id":"","pricing_plan_id":"cebpf4jnsgd1na2vs0mg"},{"bike_id":"6c7631b2-9bb1-45d3-abcd-6fdb69c6f423","system_id":"levelo_inurba_marseille","lat":43.32476,"lon":5.36569,"is_reserved":false,"is_disabled":false,"rental_uris":{"android":"levelo://app?vid=6c7631b2-9bb1-45d3-abcd-6fdb69c6f423","ios":"levelo://app?vid=6c7631b2-9bb1-45d3-abcd-6fdb69c6f423"},"vehicle_type_id":"4","last_reported":1765883414,"current_range_meters":17200,"station_id":"ce4bhs12rcd13ifvqhvg","pricing_plan_id":"cebpf4jnsgd1na2vs0mg"},{"bike_id":"2e0b2ced-fae8-4af2-8b1b-8f9d48ce48f8","system_id":"levelo_inurba_marseille","lat":43.27927,"lon":5.39607,"is_reserved":false,"is_disabled":true,"rental_uris":{"android":"levelo://app?vid=2e0b2ced-fae8-4af2-8b1b-8f9d48ce48f8","ios":"levelo://app?vid=2e0b2ced-fae8-4af2-8b1b-8f9d48ce48f8"},"vehicle_type_id":"4","last_reported":1765883414,"current_range_meters":17200,"station_id":"","pricing_plan_id":"cebpf4jnsgd1na2vs0mg"},{"bike_id":"5193af94-cd08-4645-ab66-06055fe41ecc","system_id":"levelo_inurba_marseille","lat":43.26455,"lon":5.39324,"is_reserved":false,"is_disabled":false,"rental_uris":{"android":"levelo://app?vid=5193af94-cd08-4645-ab66-06055fe41ecc","ios":"levelo://app?vid=5193af94-cd08-4645-ab66-06055fe41ecc"},"vehicle_type_id":"4","last_reported":1765883414,"current_range_meters":17200,"station_id":"","pricing_plan_id":"cebpf4jnsgd1na2vs0mg"},{"bike_id":"f440c006-670c-463c-912b-dc361cd923a7","system_id":"levelo_inurba_marseille","lat":43.27492,"lon":5.42626,"is_reserved":false,"is_disabled":false,"rental_uris":{"android":"levelo://app?vid=f440c006-670c-463c-912b-dc361cd923a7","ios":"levelo://app?vid=f440c006-670c-463c-912b-dc361cd923a7"},"vehicle_type_id":"4","last_reported":1765883414,"current_range_meters":17200,"station_id":"","pricing_plan_id":"cebpf4jnsgd1na2vs0mg"},{"bike_id":"3810678c-d231-4afa-9600-04bee263798d","system_id":"levelo_inurba_marseille","lat":43.26209,"lon":5.41545,"is_reserved":false,"is_disabled":false,"rental_uris":{"android":"levelo://app?vid=3810678c-d231-4afa-9600-04bee263798d","ios":"levelo://app?vid=3810678c-d231-4afa-9600-04bee263798d"},"vehicle_type_id":"4","last_reported":1765883414,"current_range_meters":17200,"station_id":"","pricing_plan_id":"cebpf4jnsgd1na2vs0mg"},{"bike_id":"64241879-576c-4442-8e9a-9d904cc084a1","system_id":"levelo_inurba_marseille","lat":43.25,"lon":5.38933,"is_reserved":false,"is_disabled":false,"rental_uris":{"android":"levelo://app?vid=64241879-576c-4442-8e9a-9d904cc084a1","ios":"levelo://app?vid=64241879-576c-4442-8e9a-9d904cc084a1"},"vehicle_type_id":"4","last_reported":1765883414,"current_range_meters":17200,"station_id":"ce4bhgp2rcd13ifvqfd0","pricing_plan_id":"cebpf4jnsgd1na2vs0mg"},{"bike_id":"325f0ac2-d292-4c5b-acba-55502e937e17","system_id":"levelo_inurba_marseille","lat":43.29798,"lon":5.43974,"is_reserved":false,"is_disabled":false,"rental_uris":{"android":"levelo://app?vid=325f0ac2-d292-4c5b-acba-55502e937e17","ios":"levelo://app?vid=325f0ac2-d292-4c5b-acba-55502e937e17"},"vehicle_type_id":"4","last_reported":1765883414,"current_range_meters":17600,"station_id":"","pricing_plan_id":"cebpf4jnsgd1na2vs0mg"},{"bike_id":"ee49364c-3ad7-437b-9b29-c52035c6d428","system_id":"levelo_inurba_marseille","lat":43.313686,"lon":5.367283,"is_reserved":false,"is_disabled":false,"rental_uris":{"android":"levelo://app?vid=ee49364c-3ad7-437b-9b29-c52035c6d428","ios":"levelo://app?vid=ee49364c-3ad7-437b-9b29-c52035c6d428"},"vehicle_type_id":"4","last_reported":1765883414,"current_range_meters":17600,"station_id":"ce4bgr92rcd13ifvqc6g","pricing_plan_id":"cebpf4jnsgd1na2vs0mg"},{"bike_id":"47dfb24b-2015-467f-9a07-8a937be3a95d","system_id":"levelo_inurba_marseille","lat":43.29938,"lon":5.36565,"is_reserved":false,"is_disabled":false,"rental_uris":{"android":"levelo://app?vid=47dfb24b-2015-467f-9a07-8a937be3a95d","ios":"levelo://app?vid=47dfb24b-2015-467f-9a07-8a937be3a95d"},"vehicle_type_id":"4","last_reported":1765883414,"current_range_meters":17600,"station_id":"ce4bgm92rcd13ifvqbr0","pricing_plan_id":"cebpf4jnsgd1na2vs0mg"},{"bike_id":"f7a7c48a-9529-4a62-870c-83c6bb5fc874","system_id":"levelo_inurba_marseille","lat":43.31273,"lon":5.36663,"is_reserved":false,"is_disabled":false,"rental_uris":{"android":"levelo://app?vid=f7a7c48a-9529-4a62-870c-83c6bb5fc874","ios":"levelo://app?vid=f7a7c48a-9529-4a62-870c-83c6bb5fc874"},"vehicle_type_id":"4","last_reported":1765883414,"current_range_meters":17600,"station_id":"","pricing_plan_id":"cebpf4jnsgd1na2vs0mg"},{"bike_id":"67c7e79a-224b-4b44-989d-014bf008ff29","system_id":"levelo_inurba_marseille","lat":43.33727,"lon":5.3918,"is_reserved":false,"is_disabled":false,"rental_uris":{"android":"levelo://app?vid=67c7e79a-224b-4b44-989d-014bf008ff29","ios":"levelo://app?vid=67c7e79a-224b-4b44-989d-014bf008ff29"},"vehicle_type_id":"4","last_reported":1765883414,"current_range_meters":17600,"station_id":"ce4bhr92rcd13ifvqhsg","pricing_plan_id":"cebpf4jnsgd1na2vs0mg"},{"bike_id":"70494437-fd71-43b2-88e9-de834b77641d","system_id":"levelo_inurba_marseille","lat":43.32471,"lon":5.36573,"is_reserved":false,"is_disabled":false,"rental_uris":{"android":"levelo://app?vid=70494437-fd71-43b2-88e9-de834b77641d","ios":"levelo://app?vid=70494437-fd71-43b2-88e9-de834b77641d"},"vehicle_type_id":"4","last_reported":1765883414,"current_range_meters":17600,"station_id":"ce4bhs12rcd13ifvqhvg","pricing_plan_id":"cebpf4jnsgd1na2vs0mg"},{"bike_id":"50a5b016-cf9a-497e-8e9c-2f2d39e2c6a3","system_id":"levelo_inurba_marseille","lat":43.32109,"lon":5.36808,"is_reserved":false,"is_disabled":false,"rental_uris":{"android":"levelo://app?vid=50a5b016-cf9a-497e-8e9c-2f2d39e2c6a3","ios":"levelo://app?vid=50a5b016-cf9a-497e-8e9c-2f2d39e2c6a3"},"vehicle_type_id":"4","last_reported":1765883414,"current_range_meters":17600,"station_id":"ce4bhrh2rcd13ifvqhug","pricing_plan_id":"cebpf4jnsgd1na2vs0mg"},{"bike_id":"20fe6be0-dda4-4581-9ce9-d6b30a0492b3","system_id":"levelo_inurba_marseille","lat":43.288652,"lon":5.425182,"is_reserved":false,"is_disabled":false,"rental_uris":{"android":"levelo://app?vid=20fe6be0-dda4-4581-9ce9-d6b30a0492b3","ios":"levelo://app?vid=20fe6be0-dda4-4581-9ce9-d6b30a0492b3"},"vehicle_type_id":"4","last_reported":1765883414,"current_range_meters":17600,"station_id":"st_d3b462108ojc7389ooeg","pricing_plan_id":"cebpf4jnsgd1na2vs0mg"},{"bike_id":"47386b70-d1a6-403d-bcde-2b22b9b9b4a4","system_id":"levelo_inurba_marseille","lat":43.29223,"lon":5.39352,"is_reserved":false,"is_disabled":true,"rental_uris":{"android":"levelo://app?vid=47386b70-d1a6-403d-bcde-2b22b9b9b4a4","ios":"levelo://app?vid=47386b70-d1a6-403d-bcde-2b22b9b9b4a4"},"vehicle_type_id":"4","last_reported":1765883414,"current_range_meters":17600,"station_id":"ce4bh192rcd13ifvqdd0","pricing_plan_id":"cebpf4jnsgd1na2vs0mg"},{"bike_id":"7ff35f83-1e74-47b1-b306-a75e8d53470a","system_id":"levelo_inurba_marseille","lat":43.30136,"lon":5.43168,"is_reserved":false,"is_disabled":false,"rental_uris":{"android":"levelo://app?vid=7ff35f83-1e74-47b1-b306-a75e8d53470a","ios":"levelo://app?vid=7ff35f83-1e74-47b1-b306-a75e8d53470a"},"vehicle_type_id":"4","last_reported":1765883414,"current_range_meters":17600,"station_id":"st_d3js3co5814s73ftftug","pricing_plan_id":"cebpf4jnsgd1na2vs0mg"},{"bike_id":"3559ec2a-d4fa-4a99-8ad6-95237c097e66","system_id":"levelo_inurba_marseille","lat":43.31218,"lon":5.36849,"is_reserved":false,"is_disabled":false,"rental_uris":{"android":"levelo://app?vid=3559ec2a-d4fa-4a99-8ad6-95237c097e66","ios":"levelo://app?vid=3559ec2a-d4fa-4a99-8ad6-95237c097e66"},"vehicle_type_id":"4","last_reported":1765883414,"current_range_meters":17600,"station_id":"ce4bgl92rcd13ifvqbq0","pricing_plan_id":"cebpf4jnsgd1na2vs0mg"},{"bike_id":"414ebf68-c065-4fec-adcd-7e99c6ba3da0","system_id":"levelo_inurba_marseille","lat":43.25936,"lon":5.40907,"is_reserved":false,"is_disabled":false,"rental_uris":{"android":"levelo://app?vid=414ebf68-c065-4fec-adcd-7e99c6ba3da0","ios":"levelo://app?vid=414ebf68-c065-4fec-adcd-7e99c6ba3da0"},"vehicle_type_id":"4","last_reported":1765883414,"current_range_meters":17600,"station_id":"ce4bhm92rcd13ifvqglg","pricing_plan_id":"cebpf4jnsgd1na2vs0mg"},{"bike_id":"89d9cc2b-33c3-4b10-bdbd-e5d27455f084","system_id":"levelo_inurba_marseille","lat":43.25946,"lon":5.40901,"is_reserved":false,"is_disabled":false,"rental_uris":{"android":"levelo://app?vid=89d9cc2b-33c3-4b10-bdbd-e5d27455f084","ios":"levelo://app?vid=89d9cc2b-33c3-4b10-bdbd-e5d27455f084"},"vehicle_type_id":"4","last_reported":1765883414,"current_range_meters":17600,"station_id":"ce4bhm92rcd13ifvqglg","pricing_plan_id":"cebpf4jnsgd1na2vs0mg"},{"bike_id":"7be03f56-6227-479c-9dd8-c9baecc4ad19","system_id":"levelo_inurba_marseille","lat":43.30254,"lon":5.39723,"is_reserved":false,"is_disabled":false,"rental_uris":{"android":"levelo://app?vid=7be03f56-6227-479c-9dd8-c9baecc4ad19","ios":"levelo://app?vid=7be03f56-6227-479c-9dd8-c9baecc4ad19"},"vehicle_type_id":"4","last_reported":1765883414,"current_range_meters":17600,"station_id":"","pricing_plan_id":"cebpf4jnsgd1na2vs0mg"},{"bike_id":"5b64e687-2ab5-4a68-8b3d-7fc8bb0478bf","system_id":"levelo_inurba_marseille","lat":43.23132,"lon":5.43721,"is_reserved":false,"is_disabled":false,"rental_uris":{"android":"levelo://app?vid=5b64e687-2ab5-4a68-8b3d-7fc8bb0478bf","ios":"levelo://app?vid=5b64e687-2ab5-4a68-8b3d-7fc8bb0478bf"},"vehicle_type_id":"4","last_reported":1765883414,"current_range_meters":18000,"station_id":"ce4bhmp2rcd13ifvqgog","pricing_plan_id":"cebpf4jnsgd1na2vs0mg"},{"bike_id":"d5f47dab-732d-4f2f-9c2e-2d1173dc7601","system_id":"levelo_inurba_marseille","lat":43.26221,"lon":5.40436,"is_reserved":false,"is_disabled":false,"rental_uris":{"android":"levelo://app?vid=d5f47dab-732d-4f2f-9c2e-2d1173dc7601","ios":"levelo://app?vid=d5f47dab-732d-4f2f-9c2e-2d1173dc7601"},"vehicle_type_id":"4","last_reported":1765883414,"current_range_meters":18000,"station_id":"ce4bhmh2rcd13ifvqgmg","pricing_plan_id":"cebpf4jnsgd1na2vs0mg"},{"bike_id":"aae25742-9eeb-49ec-a8e5-f2b92e66260e","system_id":"levelo_inurba_marseille","lat":43.28474,"lon":5.48427,"is_reserved":false,"is_disabled":false,"rental_uris":{"android":"levelo://app?vid=aae25742-9eeb-49ec-a8e5-f2b92e66260e","ios":"levelo://app?vid=aae25742-9eeb-49ec-a8e5-f2b92e66260e"},"vehicle_type_id":"4","last_reported":1765883414,"current_range_meters":18000,"station_id":"st_d3svhcjqgbts73a3dn0g","pricing_plan_id":"cebpf4jnsgd1na2vs0mg"},{"bike_id":"3017431f-16f5-45b4-aab8-7b86dd107ffd","system_id":"levelo_inurba_marseille","lat":43.26501,"lon":5.39534,"is_reserved":false,"is_disabled":false,"rental_uris":{"android":"levelo://app?vid=3017431f-16f5-45b4-aab8-7b86dd107ffd","ios":"levelo://app?vid=3017431f-16f5-45b4-aab8-7b86dd107ffd"},"vehicle_type_id":"4","last_reported":1765883414,"current_range_meters":18000,"station_id":"ce4bhi12rcd13ifvqfq0","pricing_plan_id":"cebpf4jnsgd1na2vs0mg"},{"bike_id":"68162ada-3616-4a3e-99e2-46c98004851e","system_id":"levelo_inurba_marseille","lat":43.30365,"lon":5.4251,"is_reserved":false,"is_disabled":false,"rental_uris":{"android":"levelo://app?vid=68162ada-3616-4a3e-99e2-46c98004851e","ios":"levelo://app?vid=68162ada-3616-4a3e-99e2-46c98004851e"},"vehicle_type_id":"4","last_reported":1765883414,"current_range_meters":18000,"station_id":"ce4bhoh2rcd13ifvqh6g","pricing_plan_id":"cebpf4jnsgd1na2vs0mg"},{"bike_id":"4515132a-3268-4b1c-81eb-02cb63ec18dc","system_id":"levelo_inurba_marseille","lat":43.33151,"lon":5.377,"is_reserved":false,"is_disabled":false,"rental_uris":{"android":"levelo://app?vid=4515132a-3268-4b1c-81eb-02cb63ec18dc","ios":"levelo://app?vid=4515132a-3268-4b1c-81eb-02cb63ec18dc"},"vehicle_type_id":"4","last_reported":1765883414,"current_range_meters":18000,"station_id":"st_d46cu089ee8s73dldbu0","pricing_plan_id":"cebpf4jnsgd1na2vs0mg"},{"bike_id":"e21f959b-b32b-4121-9b18-45968d8c64ce","system_id":"levelo_inurba_marseille","lat":43.33723,"lon":5.3748,"is_reserved":false,"is_disabled":false,"rental_uris":{"android":"levelo://app?vid=e21f959b-b32b-4121-9b18-45968d8c64ce","ios":"levelo://app?vid=e21f959b-b32b-4121-9b18-45968d8c64ce"},"vehicle_type_id":"4","last_reported":1765883414,"current_range_meters":18000,"station_id":"","pricing_plan_id":"cebpf4jnsgd1na2vs0mg"},{"bike_id":"a5f85ed1-5432-4565-9d3f-00675e2bbf99","system_id":"levelo_inurba_marseille","lat":43.301462,"lon":5.380899,"is_reserved":false,"is_disabled":true,"rental_uris":{"android":"levelo://app?vid=a5f85ed1-5432-4565-9d3f-00675e2bbf99","ios":"levelo://app?vid=a5f85ed1-5432-4565-9d3f-00675e2bbf99"},"vehicle_type_id":"4","last_reported":1765883414,"current_range_meters":18000,"station_id":"","pricing_plan_id":"cebpf4jnsgd1na2vs0mg"},{"bike_id":"a312a6b1-e36b-49c7-9fd3-225e9010b004","system_id":"levelo_inurba_marseille","lat":43.25326,"lon":5.42177,"is_reserved":false,"is_disabled":false,"rental_uris":{"android":"levelo://app?vid=a312a6b1-e36b-49c7-9fd3-225e9010b004","ios":"levelo://app?vid=a312a6b1-e36b-49c7-9fd3-225e9010b004"},"vehicle_type_id":"4","last_reported":1765883414,"current_range_meters":18000,"station_id":"st_d2m65c5bi1j21697t3ng","pricing_plan_id":"cebpf4jnsgd1na2vs0mg"},{"bike_id":"333a6506-6fc2-4aa8-90d7-4823d52ddbe5","system_id":"levelo_inurba_marseille","lat":43.28536,"lon":5.44099,"is_reserved":false,"is_disabled":false,"rental_uris":{"android":"levelo://app?vid=333a6506-6fc2-4aa8-90d7-4823d52ddbe5","ios":"levelo://app?vid=333a6506-6fc2-4aa8-90d7-4823d52ddbe5"},"vehicle_type_id":"4","last_reported":1765883414,"current_range_meters":18000,"station_id":"st_d3j3df2ikq2c7380ej80","pricing_plan_id":"cebpf4jnsgd1na2vs0mg"},{"bike_id":"d4b9c1ae-6691-48e3-9c57-5f21ac0bd3f2","system_id":"levelo_inurba_marseille","lat":43.29972,"lon":5.37175,"is_reserved":false,"is_disabled":false,"rental_uris":{"android":"levelo://app?vid=d4b9c1ae-6691-48e3-9c57-5f21ac0bd3f2","ios":"levelo://app?vid=d4b9c1ae-6691-48e3-9c57-5f21ac0bd3f2"},"vehicle_type_id":"4","last_reported":1765883414,"current_range_meters":18000,"station_id":"ce4bgr92rcd13ifvqc7g","pricing_plan_id":"cebpf4jnsgd1na2vs0mg"},{"bike_id":"9c3488c7-6e5c-46cf-be2b-5f72ae32de03","system_id":"levelo_inurba_marseille","lat":43.29274,"lon":5.37645,"is_reserved":false,"is_disabled":false,"rental_uris":{"android":"levelo://app?vid=9c3488c7-6e5c-46cf-be2b-5f72ae32de03","ios":"levelo://app?vid=9c3488c7-6e5c-46cf-be2b-5f72ae32de03"},"vehicle_type_id":"4","last_reported":1765883414,"current_range_meters":18000,"station_id":"ce4bgi12rcd13ifvqb80","pricing_plan_id":"cebpf4jnsgd1na2vs0mg"},{"bike_id":"7ee3c49a-b0d6-4ace-9ebc-d7fb564066cf","system_id":"levelo_inurba_marseille","lat":43.26547,"lon":5.37304,"is_reserved":false,"is_disabled":false,"rental_uris":{"android":"levelo://app?vid=7ee3c49a-b0d6-4ace-9ebc-d7fb564066cf","ios":"levelo://app?vid=7ee3c49a-b0d6-4ace-9ebc-d7fb564066cf"},"vehicle_type_id":"4","last_reported":1765883414,"current_range_meters":18000,"station_id":"ce4bhg12rcd13ifvqf70","pricing_plan_id":"cebpf4jnsgd1na2vs0mg"},{"bike_id":"ff97be5b-ccf3-45a0-acce-fa67ef6b054e","system_id":"levelo_inurba_marseille","lat":43.31211,"lon":5.37082,"is_reserved":false,"is_disabled":false,"rental_uris":{"android":"levelo://app?vid=ff97be5b-ccf3-45a0-acce-fa67ef6b054e","ios":"levelo://app?vid=ff97be5b-ccf3-45a0-acce-fa67ef6b054e"},"vehicle_type_id":"4","last_reported":1765883414,"current_range_meters":18800,"station_id":"","pricing_plan_id":"cebpf4jnsgd1na2vs0mg"},{"bike_id":"d0e47d82-46b1-4391-9c6a-cf32785e1c0d","system_id":"levelo_inurba_marseille","lat":43.28472,"lon":5.38443,"is_reserved":false,"is_disabled":true,"rental_uris":{"android":"levelo://app?vid=d0e47d82-46b1-4391-9c6a-cf32785e1c0d","ios":"levelo://app?vid=d0e47d82-46b1-4391-9c6a-cf32785e1c0d"},"vehicle_type_id":"4","last_reported":1765883414,"current_range_meters":18800,"station_id":"ce4bh512rcd13ifvqe3g","pricing_plan_id":"cebpf4jnsgd1na2vs0mg"},{"bike_id":"bc5f4a46-7827-4324-b7cd-2670c89265d5","system_id":"levelo_inurba_marseille","lat":43.31552,"lon":5.38803,"is_reserved":false,"is_disabled":false,"rental_uris":{"android":"levelo://app?vid=bc5f4a46-7827-4324-b7cd-2670c89265d5","ios":"levelo://app?vid=bc5f4a46-7827-4324-b7cd-2670c89265d5"},"vehicle_type_id":"4","last_reported":1765883414,"current_range_meters":18800,"station_id":"","pricing_plan_id":"cebpf4jnsgd1na2vs0mg"},{"bike_id":"ea7c978d-fdee-4c1f-a611-e02237b8b917","system_id":"levelo_inurba_marseille","lat":43.270692,"lon":5.422745,"is_reserved":false,"is_disabled":false,"rental_uris":{"android":"levelo://app?vid=ea7c978d-fdee-4c1f-a611-e02237b8b917","ios":"levelo://app?vid=ea7c978d-fdee-4c1f-a611-e02237b8b917"},"vehicle_type_id":"4","last_reported":1765883414,"current_range_meters":18800,"station_id":"ce4bhk92rcd13ifvqgb0","pricing_plan_id":"cebpf4jnsgd1na2vs0mg"},{"bike_id":"60da6a89-4fe2-462a-9418-6cbf9bb44011","system_id":"levelo_inurba_marseille","lat":43.265402,"lon":5.37291,"is_reserved":false,"is_disabled":false,"rental_uris":{"android":"levelo://app?vid=60da6a89-4fe2-462a-9418-6cbf9bb44011","ios":"levelo://app?vid=60da6a89-4fe2-462a-9418-6cbf9bb44011"},"vehicle_type_id":"4","last_reported":1765883414,"current_range_meters":18800,"station_id":"ce4bhg12rcd13ifvqf70","pricing_plan_id":"cebpf4jnsgd1na2vs0mg"},{"bike_id":"cc1e1eca-5e88-4fd5-8976-35f8fb25b2bb","system_id":"levelo_inurba_marseille","lat":43.29005,"lon":5.3815,"is_reserved":false,"is_disabled":false,"rental_uris":{"android":"levelo://app?vid=cc1e1eca-5e88-4fd5-8976-35f8fb25b2bb","ios":"levelo://app?vid=cc1e1eca-5e88-4fd5-8976-35f8fb25b2bb"},"vehicle_type_id":"4","last_reported":1765883414,"current_range_meters":18800,"station_id":"ce4bh4p2rcd13ifvqe1g","pricing_plan_id":"cebpf4jnsgd1na2vs0mg"},{"bike_id":"93c5c6e2-89d5-4e99-ae34-867749c7226f","system_id":"levelo_inurba_marseille","lat":43.30143,"lon":5.37423,"is_reserved":false,"is_disabled":false,"rental_uris":{"android":"levelo://app?vid=93c5c6e2-89d5-4e99-ae34-867749c7226f","ios":"levelo://app?vid=93c5c6e2-89d5-4e99-ae34-867749c7226f"},"vehicle_type_id":"4","last_reported":1765883414,"current_range_meters":18800,"station_id":"ce4bgs92rcd13ifvqcc0","pricing_plan_id":"cebpf4jnsgd1na2vs0mg"},{"bike_id":"b7413f18-ad37-4cae-ab33-cbe5f8f88274","system_id":"levelo_inurba_marseille","lat":43.28473,"lon":5.37643,"is_reserved":false,"is_disabled":false,"rental_uris":{"android":"levelo://app?vid=b7413f18-ad37-4cae-ab33-cbe5f8f88274","ios":"levelo://app?vid=b7413f18-ad37-4cae-ab33-cbe5f8f88274"},"vehicle_type_id":"4","last_reported":1765883414,"current_range_meters":19200,"station_id":"","pricing_plan_id":"cebpf4jnsgd1na2vs0mg"},{"bike_id":"30728fe0-93dc-49a4-adc2-35392431a70e","system_id":"levelo_inurba_marseille","lat":43.26949,"lon":5.38638,"is_reserved":false,"is_disabled":false,"rental_uris":{"android":"levelo://app?vid=30728fe0-93dc-49a4-adc2-35392431a70e","ios":"levelo://app?vid=30728fe0-93dc-49a4-adc2-35392431a70e"},"vehicle_type_id":"4","last_reported":1765883414,"current_range_meters":19200,"station_id":"ce4bhh92rcd13ifvqfh0","pricing_plan_id":"cebpf4jnsgd1na2vs0mg"},{"bike_id":"8a787bef-24f9-475a-93a9-e8153354d917","system_id":"levelo_inurba_marseille","lat":43.26952,"lon":5.38655,"is_reserved":false,"is_disabled":false,"rental_uris":{"android":"levelo://app?vid=8a787bef-24f9-475a-93a9-e8153354d917","ios":"levelo://app?vid=8a787bef-24f9-475a-93a9-e8153354d917"},"vehicle_type_id":"4","last_reported":1765883414,"current_range_meters":19200,"station_id":"ce4bhh92rcd13ifvqfh0","pricing_plan_id":"cebpf4jnsgd1na2vs0mg"},{"bike_id":"145f214c-2bc4-40d6-9764-0220a70a6a93","system_id":"levelo_inurba_marseille","lat":43.31327,"lon":5.39698,"is_reserved":false,"is_disabled":false,"rental_uris":{"android":"levelo://app?vid=145f214c-2bc4-40d6-9764-0220a70a6a93","ios":"levelo://app?vid=145f214c-2bc4-40d6-9764-0220a70a6a93"},"vehicle_type_id":"4","last_reported":1765883414,"current_range_meters":19200,"station_id":"ce4bgvp2rcd13ifvqcu0","pricing_plan_id":"cebpf4jnsgd1na2vs0mg"},{"bike_id":"9511f591-aa95-4ed8-9c28-9ed5860153f3","system_id":"levelo_inurba_marseille","lat":43.29992,"lon":5.37169,"is_reserved":false,"is_disabled":true,"rental_uris":{"android":"levelo://app?vid=9511f591-aa95-4ed8-9c28-9ed5860153f3","ios":"levelo://app?vid=9511f591-aa95-4ed8-9c28-9ed5860153f3"},"vehicle_type_id":"4","last_reported":1765883414,"current_range_meters":19200,"station_id":"ce4bgr92rcd13ifvqc7g","pricing_plan_id":"cebpf4jnsgd1na2vs0mg"},{"bike_id":"5a7671bf-c533-47af-b124-0feaa2ab9e7c","system_id":"levelo_inurba_marseille","lat":43.31333,"lon":5.36755,"is_reserved":false,"is_disabled":false,"rental_uris":{"android":"levelo://app?vid=5a7671bf-c533-47af-b124-0feaa2ab9e7c","ios":"levelo://app?vid=5a7671bf-c533-47af-b124-0feaa2ab9e7c"},"vehicle_type_id":"4","last_reported":1765883414,"current_range_meters":19200,"station_id":"ce4bgr92rcd13ifvqc6g","pricing_plan_id":"cebpf4jnsgd1na2vs0mg"},{"bike_id":"39499d74-eb6f-4fa0-9998-d5974978d4ab","system_id":"levelo_inurba_marseille","lat":43.27493,"lon":5.42457,"is_reserved":false,"is_disabled":false,"rental_uris":{"android":"levelo://app?vid=39499d74-eb6f-4fa0-9998-d5974978d4ab","ios":"levelo://app?vid=39499d74-eb6f-4fa0-9998-d5974978d4ab"},"vehicle_type_id":"4","last_reported":1765883414,"current_range_meters":19200,"station_id":"ce4bhn92rcd13ifvqgrg","pricing_plan_id":"cebpf4jnsgd1na2vs0mg"},{"bike_id":"a8c19996-f300-462d-a9f6-261332e8e963","system_id":"levelo_inurba_marseille","lat":43.23149,"lon":5.43703,"is_reserved":false,"is_disabled":true,"rental_uris":{"android":"levelo://app?vid=a8c19996-f300-462d-a9f6-261332e8e963","ios":"levelo://app?vid=a8c19996-f300-462d-a9f6-261332e8e963"},"vehicle_type_id":"4","last_reported":1765883414,"current_range_meters":19200,"station_id":"ce4bhmp2rcd13ifvqgog","pricing_plan_id":"cebpf4jnsgd1na2vs0mg"},{"bike_id":"cb19c46a-9c99-46ca-ae90-dced0257df91","system_id":"levelo_inurba_marseille","lat":43.301061,"lon":5.368607,"is_reserved":false,"is_disabled":false,"rental_uris":{"android":"levelo://app?vid=cb19c46a-9c99-46ca-ae90-dced0257df91","ios":"levelo://app?vid=cb19c46a-9c99-46ca-ae90-dced0257df91"},"vehicle_type_id":"4","last_reported":1765883414,"current_range_meters":19200,"station_id":"","pricing_plan_id":"cebpf4jnsgd1na2vs0mg"},{"bike_id":"f3fe0670-efcf-407c-892d-89429cb296fa","system_id":"levelo_inurba_marseille","lat":43.26952,"lon":5.38625,"is_reserved":false,"is_disabled":false,"rental_uris":{"android":"levelo://app?vid=f3fe0670-efcf-407c-892d-89429cb296fa","ios":"levelo://app?vid=f3fe0670-efcf-407c-892d-89429cb296fa"},"vehicle_type_id":"4","last_reported":1765883414,"current_range_meters":19200,"station_id":"ce4bhh92rcd13ifvqfh0","pricing_plan_id":"cebpf4jnsgd1na2vs0mg"},{"bike_id":"6dd5b542-725b-469d-afe4-36183c3867e0","system_id":"levelo_inurba_marseille","lat":43.22566,"lon":5.41648,"is_reserved":false,"is_disabled":false,"rental_uris":{"android":"levelo://app?vid=6dd5b542-725b-469d-afe4-36183c3867e0","ios":"levelo://app?vid=6dd5b542-725b-469d-afe4-36183c3867e0"},"vehicle_type_id":"4","last_reported":1765883414,"current_range_meters":19200,"station_id":"st_d2o4gvlbi1j2169b742g","pricing_plan_id":"cebpf4jnsgd1na2vs0mg"},{"bike_id":"d37444e6-4695-4e98-b6f9-bbcb1600d416","system_id":"levelo_inurba_marseille","lat":43.314594,"lon":5.453816,"is_reserved":false,"is_disabled":false,"rental_uris":{"android":"levelo://app?vid=d37444e6-4695-4e98-b6f9-bbcb1600d416","ios":"levelo://app?vid=d37444e6-4695-4e98-b6f9-bbcb1600d416"},"vehicle_type_id":"4","last_reported":1765883414,"current_range_meters":19200,"station_id":"","pricing_plan_id":"cebpf4jnsgd1na2vs0mg"},{"bike_id":"62d7bf44-19d0-45da-b289-9d7b7270b0d2","system_id":"levelo_inurba_marseille","lat":43.29052,"lon":5.37955,"is_reserved":false,"is_disabled":false,"rental_uris":{"android":"levelo://app?vid=62d7bf44-19d0-45da-b289-9d7b7270b0d2","ios":"levelo://app?vid=62d7bf44-19d0-45da-b289-9d7b7270b0d2"},"vehicle_type_id":"4","last_reported":1765883414,"current_range_meters":19600,"station_id":"","pricing_plan_id":"cebpf4jnsgd1na2vs0mg"},{"bike_id":"34a990b1-1748-404e-8530-a238d6bbd104","system_id":"levelo_inurba_marseille","lat":43.303132,"lon":5.369045,"is_reserved":false,"is_disabled":true,"rental_uris":{"android":"levelo://app?vid=34a990b1-1748-404e-8530-a238d6bbd104","ios":"levelo://app?vid=34a990b1-1748-404e-8530-a238d6bbd104"},