{"last_updated":1746047382,"ttl":60,"version":"2.2","data":{"bikes":[{"bike_id":"0a3606ff-8824-404b-8466-2a183ec784b3","system_id":"levelo_inurba_marseille","lat":43.26552,"lon":5.37282,"is_reserved":false,"is_disabled":false,"rental_uris":{"android":"levelo://app?vid=0a3606ff-8824-404b-8466-2a183ec784b3","ios":"levelo://app?vid=0a3606ff-8824-404b-8466-2a183ec784b3"},"vehicle_type_id":"4","last_reported":1746047383,"current_range_meters":2800,"station_id":"ce4bhg12rcd13ifvqf70","pricing_plan_id":"cebpf4jnsgd1na2vs0mg"},{"bike_id":"76f7d7ea-192f-454e-88aa-3657943e7159","system_id":"levelo_inurba_marseille","lat":43.2987,"lon":5.39734,"is_reserved":false,"is_disabled":false,"rental_uris":{"android":"levelo://app?vid=76f7d7ea-192f-454e-88aa-3657943e7159","ios":"levelo://app?vid=76f7d7ea-192f-454e-88aa-3657943e7159"},"vehicle_type_id":"4","last_reported":1746047383,"current_range_meters":2800,"station_id":"ce4bh0h2rcd13ifvqd50","pricing_plan_id":"cebpf4jnsgd1na2vs0mg"},{"bike_id":"22286c02-65f1-44f8-9b48-9ce28fa0cd7b","system_id":"levelo_inurba_marseille","lat":43.29193,"lon":5.39322,"is_reserved":false,"is_disabled":false,"rental_uris":{"android":"levelo://app?vid=22286c02-65f1-44f8-9b48-9ce28fa0cd7b","ios":"levelo://app?vid=22286c02-65f1-44f8-9b48-9ce28fa0cd7b"},"vehicle_type_id":"4","last_reported":1746047383,"current_range_meters":2000,"station_id":"ce4bh192rcd13ifvqdd0","pricing_plan_id":"cebpf4jnsgd1na2vs0mg"},{"bike_id":"ff5e65f6-5df8-4506-ad88-2ad7ed26bbc2","system_id":"levelo_inurba_marseille","lat":43.27498,"lon":5.42462,"is_reserved":false,"is_disabled":false,"rental_uris":{"android":"levelo://app?vid=ff5e65f6-5df8-4506-ad88-2ad7ed26bbc2","ios":"levelo://app?vid=ff5e65f6-5df8-4506-ad88-2ad7ed26bbc2"},"vehicle_type_id":"4","last_reported":1746047383,"current_range_meters":2800,"station_id":"ce4bhn92rcd13ifvqgrg","pricing_plan_id":"cebpf4jnsgd1na2vs0mg"},{"bike_id":"1d77b79c-f3ee-4ef3-af1a-37e2fab4b4f6","system_id":"levelo_inurba_marseille","lat":43.26941,"lon":5.40247,"is_reserved":false,"is_disabled":false,"rental_uris":{"android":"levelo://app?vid=1d77b79c-f3ee-4ef3-af1a-37e2fab4b4f6","ios":"levelo://app?vid=1d77b79c-f3ee-4ef3-af1a-37e2fab4b4f6"},"vehicle_type_id":"4","last_reported":1746047383,"current_range_meters":2800,"station_id":"cjm6bp8fraef2m0cb0m0","pricing_plan_id":"cebpf4jnsgd1na2vs0mg"},{"bike_id":"5d2283dd-c772-463d-824b-974bd5fb4a18","system_id":"levelo_inurba_marseille","lat":43.29276,"lon":5.40109,"is_reserved":false,"is_disabled":false,"rental_uris":{"android":"levelo://app?vid=5d2283dd-c772-463d-824b-974bd5fb4a18","ios":"levelo://app?vid=5d2283dd-c772-463d-824b-974bd5fb4a18"},"vehicle_type_id":"4","last_reported":1746047383,"current_range_meters":2800,"station_id":"ce4bh312rcd13ifvqdk0","pricing_plan_id":"cebpf4jnsgd1na2vs0mg"},{"bike_id":"374190d1-d850-4c35-8d50-b1c55d67773b","system_id":"levelo_inurba_marseille","lat":43.30258,"lon":5.4007,"is_reserved":false,"is_disabled":false,"rental_uris":{"android":"levelo://app?vid=374190d1-d850-4c35-8d50-b1c55d67773b","ios":"levelo://app?vid=374190d1-d850-4c35-8d50-b1c55d67773b"},"vehicle_type_id":"4","last_reported":1746047383,"current_range_meters":1200,"station_id":"ce4bgvh2rcd13ifvqcs0","pricing_plan_id":"cebpf4jnsgd1na2vs0mg"},{"bike_id":"42bd37e6-de0b-4834-8dcc-d8af218c6edd","system_id":"levelo_inurba_marseille","lat":43.273732,"lon":5.362613,"is_reserved":false,"is_disabled":false,"rental_uris":{"android":"levelo://app?vid=42bd37e6-de0b-4834-8dcc-d8af218c6edd","ios":"levelo://app?vid=42bd37e6-de0b-4834-8dcc-d8af218c6edd"},"vehicle_type_id":"4","last_reported":1746047383,"current_range_meters":3200,"station_id":"ce4bhbh2rcd13ifvqeo0","pricing_plan_id":"cebpf4jnsgd1na2vs0mg"},{"bike_id":"02783f7f-2c1d-4034-beb1-3e59cdee1bf5","system_id":"levelo_inurba_marseille","lat":43.28001,"lon":5.4001,"is_reserved":false,"is_disabled":false,"rental_uris":{"android":"levelo://app?vid=02783f7f-2c1d-4034-beb1-3e59cdee1bf5","ios":"levelo://app?vid=02783f7f-2c1d-4034-beb1-3e59cdee1bf5"},"vehicle_type_id":"4","last_reported":1746047383,"current_range_meters":3200,"station_id":"ce4bho92rcd13ifvqh4g","pricing_plan_id":"cebpf4jnsgd1na2vs0mg"},{"bike_id":"bbd2c16f-e9d7-4104-a3ca-04e45cffbb51","system_id":"levelo_inurba_marseille","lat":43.29765,"lon":5.38087,"is_reserved":false,"is_disabled":false,"rental_uris":{"android":"levelo://app?vid=bbd2c16f-e9d7-4104-a3ca-04e45cffbb51","ios":"levelo://app?vid=bbd2c16f-e9d7-4104-a3ca-04e45cffbb51"},"vehicle_type_id":"4","last_reported":1746047383,"current_range_meters":3600,"station_id":"ce4bgip2rcd13ifvqbb0","pricing_plan_id":"cebpf4jnsgd1na2vs0mg"},{"bike_id":"395272bc-cf4c-4e52-8bb3-35894e2df238","system_id":"levelo_inurba_marseille","lat":43.28658,"lon":5.38669,"is_reserved":false,"is_disabled":false,"rental_uris":{"android":"levelo://app?vid=395272bc-cf4c-4e52-8bb3-35894e2df238","ios":"levelo://app?vid=395272bc-cf4c-4e52-8bb3-35894e2df238"},"vehicle_type_id":"4","last_reported":1746047383,"current_range_meters":3200,"station_id":"","pricing_plan_id":"cebpf4jnsgd1na2vs0mg"},{"bike_id":"d8834ec9-5a9c-4825-8f0d-cdf93fa7aaf0","system_id":"levelo_inurba_marseille","lat":43.29627,"lon":5.37305,"is_reserved":false,"is_disabled":false,"rental_uris":{"android":"levelo://app?vid=d8834ec9-5a9c-4825-8f0d-cdf93fa7aaf0","ios":"levelo://app?vid=d8834ec9-5a9c-4825-8f0d-cdf93fa7aaf0"},"vehicle_type_id":"4","last_reported":1746047383,"current_range_meters":3600,"station_id":"","pricing_plan_id":"cebpf4jnsgd1na2vs0mg"},{"bike_id":"16ad080c-2a27-4832-ad35-fe5be02af25b","system_id":"levelo_inurba_marseille","lat":43.3043,"lon":5.39744,"is_reserved":false,"is_disabled":false,"rental_uris":{"android":"levelo://app?vid=16ad080c-2a27-4832-ad35-fe5be02af25b","ios":"levelo://app?vid=16ad080c-2a27-4832-ad35-fe5be02af25b"},"vehicle_type_id":"4","last_reported":1746047383,"current_range_meters":3600,"station_id":"ce4bh092rcd13ifvqd20","pricing_plan_id":"cebpf4jnsgd1na2vs0mg"},{"bike_id":"d5b74762-40e9-46f4-8e27-c516360c5c22","system_id":"levelo_inurba_marseille","lat":43.25861,"lon":5.39905,"is_reserved":false,"is_disabled":false,"rental_uris":{"android":"levelo://app?vid=d5b74762-40e9-46f4-8e27-c516360c5c22","ios":"levelo://app?vid=d5b74762-40e9-46f4-8e27-c516360c5c22"},"vehicle_type_id":"4","last_reported":1746047383,"current_range_meters":4000,"station_id":"ce4bhl92rcd13ifvqghg","pricing_plan_id":"cebpf4jnsgd1na2vs0mg"},{"bike_id":"dfd685e2-5571-4ab9-8dba-04a38b46622f","system_id":"levelo_inurba_marseille","lat":43.28449,"lon":5.39203,"is_reserved":false,"is_disabled":false,"rental_uris":{"android":"levelo://app?vid=dfd685e2-5571-4ab9-8dba-04a38b46622f","ios":"levelo://app?vid=dfd685e2-5571-4ab9-8dba-04a38b46622f"},"vehicle_type_id":"4","last_reported":1746047383,"current_range_meters":4000,"station_id":"ce4bhoh2rcd13ifvqh5g","pricing_plan_id":"cebpf4jnsgd1na2vs0mg"},{"bike_id":"06bb3fbc-1701-4a06-9cc8-e6b4858e3eeb","system_id":"levelo_inurba_marseille","lat":43.29555,"lon":5.36513,"is_reserved":false,"is_disabled":false,"rental_uris":{"android":"levelo://app?vid=06bb3fbc-1701-4a06-9cc8-e6b4858e3eeb","ios":"levelo://app?vid=06bb3fbc-1701-4a06-9cc8-e6b4858e3eeb"},"vehicle_type_id":"4","last_reported":1746047383,"current_range_meters":4000,"station_id":"","pricing_plan_id":"cebpf4jnsgd1na2vs0mg"},{"bike_id":"8c65d659-82f5-4b05-9a34-49981cf339b2","system_id":"levelo_inurba_marseille","lat":43.27993,"lon":5.38708,"is_reserved":false,"is_disabled":false,"rental_uris":{"android":"levelo://app?vid=8c65d659-82f5-4b05-9a34-49981cf339b2","ios":"levelo://app?vid=8c65d659-82f5-4b05-9a34-49981cf339b2"},"vehicle_type_id":"4","last_reported":1746047383,"current_range_meters":4000,"station_id":"ce4bhg12rcd13ifvqf80","pricing_plan_id":"cebpf4jnsgd1na2vs0mg"},{"bike_id":"7ede9144-1596-432f-9975-e76c42fb07f8","system_id":"levelo_inurba_marseille","lat":43.31271,"lon":5.40165,"is_reserved":false,"is_disabled":false,"rental_uris":{"android":"levelo://app?vid=7ede9144-1596-432f-9975-e76c42fb07f8","ios":"levelo://app?vid=7ede9144-1596-432f-9975-e76c42fb07f8"},"vehicle_type_id":"4","last_reported":1746047383,"current_range_meters":4000,"station_id":"ce4bh092rcd13ifvqd30","pricing_plan_id":"cebpf4jnsgd1na2vs0mg"},{"bike_id":"2b79b958-aac2-458f-9724-6c88152c15e4","system_id":"levelo_inurba_marseille","lat":43.27813,"lon":5.40711,"is_reserved":false,"is_disabled":false,"rental_uris":{"android":"levelo://app?vid=2b79b958-aac2-458f-9724-6c88152c15e4","ios":"levelo://app?vid=2b79b958-aac2-458f-9724-6c88152c15e4"},"vehicle_type_id":"4","last_reported":1746047383,"current_range_meters":4400,"station_id":"ce4bhnh2rcd13ifvqgtg","pricing_plan_id":"cebpf4jnsgd1na2vs0mg"},{"bike_id":"96f87c5d-eb45-4488-b35b-a54fc05fc47f","system_id":"levelo_inurba_marseille","lat":43.31756,"lon":5.39011,"is_reserved":false,"is_disabled":false,"rental_uris":{"android":"levelo://app?vid=96f87c5d-eb45-4488-b35b-a54fc05fc47f","ios":"levelo://app?vid=96f87c5d-eb45-4488-b35b-a54fc05fc47f"},"vehicle_type_id":"4","last_reported":1746047383,"current_range_meters":4400,"station_id":"ce4bhqp2rcd13ifvqhng","pricing_plan_id":"cebpf4jnsgd1na2vs0mg"},{"bike_id":"547f5086-5fb0-419a-ae49-937fffb96b04","system_id":"levelo_inurba_marseille","lat":43.28152,"lon":5.42645,"is_reserved":false,"is_disabled":false,"rental_uris":{"android":"levelo://app?vid=547f5086-5fb0-419a-ae49-937fffb96b04","ios":"levelo://app?vid=547f5086-5fb0-419a-ae49-937fffb96b04"},"vehicle_type_id":"4","last_reported":1746047383,"current_range_meters":4400,"station_id":"ce4bhnh2rcd13ifvqgug","pricing_plan_id":"cebpf4jnsgd1na2vs0mg"},{"bike_id":"b4413f63-aefa-44a5-a1a7-ae903596471d","system_id":"levelo_inurba_marseille","lat":43.28344,"lon":5.38106,"is_reserved":false,"is_disabled":false,"rental_uris":{"android":"levelo://app?vid=b4413f63-aefa-44a5-a1a7-ae903596471d","ios":"levelo://app?vid=b4413f63-aefa-44a5-a1a7-ae903596471d"},"vehicle_type_id":"4","last_reported":1746047383,"current_range_meters":4400,"station_id":"ce4bh412rcd13ifvqdr0","pricing_plan_id":"cebpf4jnsgd1na2vs0mg"},{"bike_id":"a91967f6-93f8-48d0-a914-0841caa27cb9","system_id":"levelo_inurba_marseille","lat":43.30594,"lon":5.3936,"is_reserved":false,"is_disabled":false,"rental_uris":{"android":"levelo://app?vid=a91967f6-93f8-48d0-a914-0841caa27cb9","ios":"levelo://app?vid=a91967f6-93f8-48d0-a914-0841caa27cb9"},"vehicle_type_id":"4","last_reported":1746047383,"current_range_meters":4400,"station_id":"ce4bh0p2rcd13ifvqd80","pricing_plan_id":"cebpf4jnsgd1na2vs0mg"},{"bike_id":"b54499c4-23c6-4daf-b341-1f375f963ef4","system_id":"levelo_inurba_marseille","lat":43.28721,"lon":5.36081,"is_reserved":false,"is_disabled":false,"rental_uris":{"android":"levelo://app?vid=b54499c4-23c6-4daf-b341-1f375f963ef4","ios":"levelo://app?vid=b54499c4-23c6-4daf-b341-1f375f963ef4"},"vehicle_type_id":"4","last_reported":1746047383,"current_range_meters":4400,"station_id":"cki0cbj6b192h4jlfktg","pricing_plan_id":"cebpf4jnsgd1na2vs0mg"},{"bike_id":"3ffc4fc0-8c34-4c9a-a2b6-827b363a6640","system_id":"levelo_inurba_marseille","lat":43.29869,"lon":5.3973,"is_reserved":false,"is_disabled":false,"rental_uris":{"android":"levelo://app?vid=3ffc4fc0-8c34-4c9a-a2b6-827b363a6640","ios":"levelo://app?vid=3ffc4fc0-8c34-4c9a-a2b6-827b363a6640"},"vehicle_type_id":"4","last_reported":1746047383,"current_range_meters":4800,"station_id":"ce4bh0h2rcd13ifvqd50","pricing_plan_id":"cebpf4jnsgd1na2vs0mg"},{"bike_id":"80ee9b0b-51e9-43f3-9307-981b569deabf","system_id":"levelo_inurba_marseille","lat":43.304292,"lon":5.397487,"is_reserved":false,"is_disabled":false,"rental_uris":{"android":"levelo://app?vid=80ee9b0b-51e9-43f3-9307-981b569deabf","ios":"levelo://app?vid=80ee9b0b-51e9-43f3-9307-981b569deabf"},"vehicle_type_id":"4","last_reported":1746047383,"current_range_meters":6000,"station_id":"ce4bh092rcd13ifvqd20","pricing_plan_id":"cebpf4jnsgd1na2vs0mg"},{"bike_id":"59e8fce7-d9df-4caf-bb0c-7ca5f7cb796a","system_id":"levelo_inurba_marseille","lat":43.31895,"lon":5.40707,"is_reserved":false,"is_disabled":false,"rental_uris":{"android":"levelo://app?vid=59e8fce7-d9df-4caf-bb0c-7ca5f7cb796a","ios":"levelo://app?vid=59e8fce7-d9df-4caf-bb0c-7ca5f7cb796a"},"vehicle_type_id":"4","last_reported":1746047383,"current_range_meters":5600,"station_id":"ce4bhq12rcd13ifvqhig","pricing_plan_id":"cebpf4jnsgd1na2vs0mg"},{"bike_id":"b3a9f7db-2dfb-4c40-a2ca-2493b3d53e3a","system_id":"levelo_inurba_marseille","lat":43.29276,"lon":5.36839,"is_reserved":false,"is_disabled":false,"rental_uris":{"android":"levelo://app?vid=b3a9f7db-2dfb-4c40-a2ca-2493b3d53e3a","ios":"levelo://app?vid=b3a9f7db-2dfb-4c40-a2ca-2493b3d53e3a"},"vehicle_type_id":"4","last_reported":1746047383,"current_range_meters":5600,"station_id":"ce4bhbp2rcd13ifvqesg","pricing_plan_id":"cebpf4jnsgd1na2vs0mg"},{"bike_id":"4d9b99b8-8919-4234-aff8-26f0b2000407","system_id":"levelo_inurba_marseille","lat":43.26788,"lon":5.39412,"is_reserved":false,"is_disabled":false,"rental_uris":{"android":"levelo://app?vid=4d9b99b8-8919-4234-aff8-26f0b2000407","ios":"levelo://app?vid=4d9b99b8-8919-4234-aff8-26f0b2000407"},"vehicle_type_id":"4","last_reported":1746047383,"current_range_meters":5600,"station_id":"ce4bhh12rcd13ifvqfg0","pricing_plan_id":"cebpf4jnsgd1na2vs0mg"},{"bike_id":"27e90ead-ad5a-4931-b50f-5cbb0563ce1c","system_id":"levelo_inurba_marseille","lat":43.306,"lon":5.37227,"is_reserved":false,"is_disabled":false,"rental_uris":{"android":"levelo://app?vid=27e90ead-ad5a-4931-b50f-5cbb0563ce1c","ios":"levelo://app?vid=27e90ead-ad5a-4931-b50f-5cbb0563ce1c"},"vehicle_type_id":"4","last_reported":1746047383,"current_range_meters":6000,"station_id":"ce4bgqh2rcd13ifvqc4g","pricing_plan_id":"cebpf4jnsgd1na2vs0mg"},{"bike_id":"44fdd3df-8bd4-49c4-8184-662840da5053","system_id":"levelo_inurba_marseille","lat":43.29242,"lon":5.38451,"is_reserved":false,"is_disabled":false,"rental_uris":{"android":"levelo://app?vid=44fdd3df-8bd4-49c4-8184-662840da5053","ios":"levelo://app?vid=44fdd3df-8bd4-49c4-8184-662840da5053"},"vehicle_type_id":"4","last_reported":1746047383,"current_range_meters":6000,"station_id":"ce4bh692rcd13ifvqea0","pricing_plan_id":"cebpf4jnsgd1na2vs0mg"},{"bike_id":"a6931487-c98f-40ce-935e-3769b78ccfc4","system_id":"levelo_inurba_marseille","lat":43.287164,"lon":5.380231,"is_reserved":false,"is_disabled":false,"rental_uris":{"android":"levelo://app?vid=a6931487-c98f-40ce-935e-3769b78ccfc4","ios":"levelo://app?vid=a6931487-c98f-40ce-935e-3769b78ccfc4"},"vehicle_type_id":"4","last_reported":1746047383,"current_range_meters":6000,"station_id":"ce4bh9p2rcd13ifvqec0","pricing_plan_id":"cebpf4jnsgd1na2vs0mg"},{"bike_id":"34d14631-1875-493b-9629-38f94698b325","system_id":"levelo_inurba_marseille","lat":43.31262,"lon":5.40177,"is_reserved":false,"is_disabled":false,"rental_uris":{"android":"levelo://app?vid=34d14631-1875-493b-9629-38f94698b325","ios":"levelo://app?vid=34d14631-1875-493b-9629-38f94698b325"},"vehicle_type_id":"4","last_reported":1746047383,"current_range_meters":6400,"station_id":"ce4bh092rcd13ifvqd30","pricing_plan_id":"cebpf4jnsgd1na2vs0mg"},{"bike_id":"673a0c3f-8ece-48df-a2aa-4780ac191d8f","system_id":"levelo_inurba_marseille","lat":43.32028,"lon":5.41584,"is_reserved":false,"is_disabled":false,"rental_uris":{"android":"levelo://app?vid=673a0c3f-8ece-48df-a2aa-4780ac191d8f","ios":"levelo://app?vid=673a0c3f-8ece-48df-a2aa-4780ac191d8f"},"vehicle_type_id":"4","last_reported":1746047383,"current_range_meters":6400,"station_id":"ce4bhq92rcd13ifvqhkg","pricing_plan_id":"cebpf4jnsgd1na2vs0mg"},{"bike_id":"e2728d57-e0e3-4be2-b48e-f88747244612","system_id":"levelo_inurba_marseille","lat":43.29417,"lon":5.38621,"is_reserved":false,"is_disabled":false,"rental_uris":{"android":"levelo://app?vid=e2728d57-e0e3-4be2-b48e-f88747244612","ios":"levelo://app?vid=e2728d57-e0e3-4be2-b48e-f88747244612"},"vehicle_type_id":"4","last_reported":1746047383,"current_range_meters":6400,"station_id":"ce4bh2h2rcd13ifvqdh0","pricing_plan_id":"cebpf4jnsgd1na2vs0mg"},{"bike_id":"f189079d-a3bc-45ed-9555-e393c17ee936","system_id":"levelo_inurba_marseille","lat":43.29418,"lon":5.3863,"is_reserved":false,"is_disabled":false,"rental_uris":{"android":"levelo://app?vid=f189079d-a3bc-45ed-9555-e393c17ee936","ios":"levelo://app?vid=f189079d-a3bc-45ed-9555-e393c17ee936"},"vehicle_type_id":"4","last_reported":1746047383,"current_range_meters":6400,"station_id":"ce4bh2h2rcd13ifvqdh0","pricing_plan_id":"cebpf4jnsgd1na2vs0mg"},{"bike_id":"5f433ba2-a232-4da8-8380-32ed365b7b00","system_id":"levelo_inurba_marseille","lat":43.25129,"lon":5.40316,"is_reserved":false,"is_disabled":false,"rental_uris":{"android":"levelo://app?vid=5f433ba2-a232-4da8-8380-32ed365b7b00","ios":"levelo://app?vid=5f433ba2-a232-4da8-8380-32ed365b7b00"},"vehicle_type_id":"4","last_reported":1746047383,"current_range_meters":6400,"station_id":"ce4bhlh2rcd13ifvqgig","pricing_plan_id":"cebpf4jnsgd1na2vs0mg"},{"bike_id":"8fe0cc0b-a043-4280-a5e4-0783063c5830","system_id":"levelo_inurba_marseille","lat":43.3176,"lon":5.39011,"is_reserved":false,"is_disabled":false,"rental_uris":{"android":"levelo://app?vid=8fe0cc0b-a043-4280-a5e4-0783063c5830","ios":"levelo://app?vid=8fe0cc0b-a043-4280-a5e4-0783063c5830"},"vehicle_type_id":"4","last_reported":1746047383,"current_range_meters":6400,"station_id":"ce4bhqp2rcd13ifvqhng","pricing_plan_id":"cebpf4jnsgd1na2vs0mg"},{"bike_id":"0c7ffd1f-c667-4503-90f8-d62a95c7cfdc","system_id":"levelo_inurba_marseille","lat":43.3014,"lon":5.38778,"is_reserved":false,"is_disabled":false,"rental_uris":{"android":"levelo://app?vid=0c7ffd1f-c667-4503-90f8-d62a95c7cfdc","ios":"levelo://app?vid=0c7ffd1f-c667-4503-90f8-d62a95c7cfdc"},"vehicle_type_id":"4","last_reported":1746047383,"current_range_meters":6400,"station_id":"ce4bghh2rcd13ifvqb60","pricing_plan_id":"cebpf4jnsgd1na2vs0mg"},{"bike_id":"2d0fea3e-041c-4d20-aeb7-63739e3d5c27","system_id":"levelo_inurba_marseille","lat":43.30637,"lon":5.36597,"is_reserved":false,"is_disabled":false,"rental_uris":{"android":"levelo://app?vid=2d0fea3e-041c-4d20-aeb7-63739e3d5c27","ios":"levelo://app?vid=2d0fea3e-041c-4d20-aeb7-63739e3d5c27"},"vehicle_type_id":"4","last_reported":1746047383,"current_range_meters":6800,"station_id":"","pricing_plan_id":"cebpf4jnsgd1na2vs0mg"},{"bike_id":"e06e3ad6-0e5a-49f2-98bb-d0b7ffaaf745","system_id":"levelo_inurba_marseille","lat":43.2339,"lon":5.36111,"is_reserved":false,"is_disabled":false,"rental_uris":{"android":"levelo://app?vid=e06e3ad6-0e5a-49f2-98bb-d0b7ffaaf745","ios":"levelo://app?vid=e06e3ad6-0e5a-49f2-98bb-d0b7ffaaf745"},"vehicle_type_id":"4","last_reported":1746047383,"current_range_meters":6800,"station_id":"","pricing_plan_id":"cebpf4jnsgd1na2vs0mg"},{"bike_id":"387bc5ea-7c2b-41e1-a1e6-3b4cc71c9638","system_id":"levelo_inurba_marseille","lat":43.24175,"lon":5.39732,"is_reserved":false,"is_disabled":false,"rental_uris":{"android":"levelo://app?vid=387bc5ea-7c2b-41e1-a1e6-3b4cc71c9638","ios":"levelo://app?vid=387bc5ea-7c2b-41e1-a1e6-3b4cc71c9638"},"vehicle_type_id":"4","last_reported":1746047383,"current_range_meters":6800,"station_id":"ce4bhn12rcd13ifvqgpg","pricing_plan_id":"cebpf4jnsgd1na2vs0mg"},{"bike_id":"fdd498b4-7e2d-44e6-af5a-287682f76db2","system_id":"levelo_inurba_marseille","lat":43.31361,"lon":5.3848,"is_reserved":false,"is_disabled":false,"rental_uris":{"android":"levelo://app?vid=fdd498b4-7e2d-44e6-af5a-287682f76db2","ios":"levelo://app?vid=fdd498b4-7e2d-44e6-af5a-287682f76db2"},"vehicle_type_id":"4","last_reported":1746047383,"current_range_meters":6800,"station_id":"ce4bgt92rcd13ifvqcf0","pricing_plan_id":"cebpf4jnsgd1na2vs0mg"},{"bike_id":"1a368997-08a1-4688-a071-6000f7b3df8a","system_id":"levelo_inurba_marseille","lat":43.29975,"lon":5.38498,"is_reserved":false,"is_disabled":false,"rental_uris":{"android":"levelo://app?vid=1a368997-08a1-4688-a071-6000f7b3df8a","ios":"levelo://app?vid=1a368997-08a1-4688-a071-6000f7b3df8a"},"vehicle_type_id":"4","last_reported":1746047383,"current_range_meters":6800,"station_id":"ce4bgj92rcd13ifvqbd0","pricing_plan_id":"cebpf4jnsgd1na2vs0mg"},{"bike_id":"bc1d975a-af42-46ea-a9c7-0b3364dd6004","system_id":"levelo_inurba_marseille","lat":43.28414,"lon":5.37514,"is_reserved":false,"is_disabled":false,"rental_uris":{"android":"levelo://app?vid=bc1d975a-af42-46ea-a9c7-0b3364dd6004","ios":"levelo://app?vid=bc1d975a-af42-46ea-a9c7-0b3364dd6004"},"vehicle_type_id":"4","last_reported":1746047383,"current_range_meters":7200,"station_id":"ce4bh412rcd13ifvqds0","pricing_plan_id":"cebpf4jnsgd1na2vs0mg"},{"bike_id":"305aaecf-eb32-42bd-917c-af78bc9b312f","system_id":"levelo_inurba_marseille","lat":43.30679,"lon":5.40076,"is_reserved":false,"is_disabled":false,"rental_uris":{"android":"levelo://app?vid=305aaecf-eb32-42bd-917c-af78bc9b312f","ios":"levelo://app?vid=305aaecf-eb32-42bd-917c-af78bc9b312f"},"vehicle_type_id":"4","last_reported":1746047383,"current_range_meters":7200,"station_id":"ce4bh112rcd13ifvqda0","pricing_plan_id":"cebpf4jnsgd1na2vs0mg"},{"bike_id":"3e9b0243-8de5-45da-ae4e-d5fa09458f91","system_id":"levelo_inurba_marseille","lat":43.3042,"lon":5.41279,"is_reserved":false,"is_disabled":false,"rental_uris":{"android":"levelo://app?vid=3e9b0243-8de5-45da-ae4e-d5fa09458f91","ios":"levelo://app?vid=3e9b0243-8de5-45da-ae4e-d5fa09458f91"},"vehicle_type_id":"4","last_reported":1746047383,"current_range_meters":7200,"station_id":"ce4bhop2rcd13ifvqh8g","pricing_plan_id":"cebpf4jnsgd1na2vs0mg"},{"bike_id":"1ec08578-bd7b-492b-8abb-8d73d722fcda","system_id":"levelo_inurba_marseille","lat":43.28451,"lon":5.39201,"is_reserved":false,"is_disabled":false,"rental_uris":{"android":"levelo://app?vid=1ec08578-bd7b-492b-8abb-8d73d722fcda","ios":"levelo://app?vid=1ec08578-bd7b-492b-8abb-8d73d722fcda"},"vehicle_type_id":"4","last_reported":1746047383,"current_range_meters":6800,"station_id":"ce4bhoh2rcd13ifvqh5g","pricing_plan_id":"cebpf4jnsgd1na2vs0mg"},{"bike_id":"6e27a2f6-d955-46ff-b0b7-eaab3ea6d441","system_id":"levelo_inurba_marseille","lat":43.28464,"lon":5.3589,"is_reserved":false,"is_disabled":false,"rental_uris":{"android":"levelo://app?vid=6e27a2f6-d955-46ff-b0b7-eaab3ea6d441","ios":"levelo://app?vid=6e27a2f6-d955-46ff-b0b7-eaab3ea6d441"},"vehicle_type_id":"4","last_reported":1746047383,"current_range_meters":7200,"station_id":"ce4bhah2rcd13ifvqei0","pricing_plan_id":"cebpf4jnsgd1na2vs0mg"},{"bike_id":"44580baf-26d2-4871-aaa3-3d31bfa3f001","system_id":"levelo_inurba_marseille","lat":43.29532,"lon":5.38537,"is_reserved":false,"is_disabled":false,"rental_uris":{"android":"levelo://app?vid=44580baf-26d2-4871-aaa3-3d31bfa3f001","ios":"levelo://app?vid=44580baf-26d2-4871-aaa3-3d31bfa3f001"},"vehicle_type_id":"4","last_reported":1746047383,"current_range_meters":7200,"station_id":"ce4bgih2rcd13ifvqba0","pricing_plan_id":"cebpf4jnsgd1na2vs0mg"},{"bike_id":"6cedb3d0-ed3a-43eb-89a4-42600d72a820","system_id":"levelo_inurba_marseille","lat":43.31124,"lon":5.37765,"is_reserved":false,"is_disabled":false,"rental_uris":{"android":"levelo://app?vid=6cedb3d0-ed3a-43eb-89a4-42600d72a820","ios":"levelo://app?vid=6cedb3d0-ed3a-43eb-89a4-42600d72a820"},"vehicle_type_id":"4","last_reported":1746047383,"current_range_meters":8000,"station_id":"ce4bgt92rcd13ifvqcg0","pricing_plan_id":"cebpf4jnsgd1na2vs0mg"},{"bike_id":"59b7d06d-7759-4bc9-82b0-25b44c52d62d","system_id":"levelo_inurba_marseille","lat":43.24332,"lon":5.38526,"is_reserved":false,"is_disabled":false,"rental_uris":{"android":"levelo://app?vid=59b7d06d-7759-4bc9-82b0-25b44c52d62d","ios":"levelo://app?vid=59b7d06d-7759-4bc9-82b0-25b44c52d62d"},"vehicle_type_id":"4","last_reported":1746047383,"current_range_meters":8000,"station_id":"","pricing_plan_id":"cebpf4jnsgd1na2vs0mg"},{"bike_id":"27a24c35-2061-4fe5-a57c-ea1cace335b8","system_id":"levelo_inurba_marseille","lat":43.27912,"lon":5.39589,"is_reserved":false,"is_disabled":false,"rental_uris":{"android":"levelo://app?vid=27a24c35-2061-4fe5-a57c-ea1cace335b8","ios":"levelo://app?vid=27a24c35-2061-4fe5-a57c-ea1cace335b8"},"vehicle_type_id":"4","last_reported":1746047383,"current_range_meters":8000,"station_id":"ce4bhf92rcd13ifvqf40","pricing_plan_id":"cebpf4jnsgd1na2vs0mg"},{"bike_id":"e3c1eb7c-4d00-4665-a433-bd557a4a2b40","system_id":"levelo_inurba_marseille","lat":43.29888,"lon":5.38893,"is_reserved":false,"is_disabled":false,"rental_uris":{"android":"levelo://app?vid=e3c1eb7c-4d00-4665-a433-bd557a4a2b40","ios":"levelo://app?vid=e3c1eb7c-4d00-4665-a433-bd557a4a2b40"},"vehicle_type_id":"4","last_reported":1746047383,"current_range_meters":8000,"station_id":"ce4bh392rcd13ifvqdl0","pricing_plan_id":"cebpf4jnsgd1na2vs0mg"},{"bike_id":"2806b558-e7ec-472b-9609-45e5c29e99f3","system_id":"levelo_inurba_marseille","lat":43.28767,"lon":5.37696,"is_reserved":false,"is_disabled":false,"rental_uris":{"android":"levelo://app?vid=2806b558-e7ec-472b-9609-45e5c29e99f3","ios":"levelo://app?vid=2806b558-e7ec-472b-9609-45e5c29e99f3"},"vehicle_type_id":"4","last_reported":1746047383,"current_range_meters":8000,"station_id":"","pricing_plan_id":"cebpf4jnsgd1na2vs0mg"},{"bike_id":"af45928f-99f5-4c10-8488-a1690bf972d2","system_id":"levelo_inurba_marseille","lat":43.29446,"lon":5.39754,"is_reserved":false,"is_disabled":true,"rental_uris":{"android":"levelo://app?vid=af45928f-99f5-4c10-8488-a1690bf972d2","ios":"levelo://app?vid=af45928f-99f5-4c10-8488-a1690bf972d2"},"vehicle_type_id":"4","last_reported":1746047383,"current_range_meters":8000,"station_id":"ce4bh3h2rcd13ifvqdo0","pricing_plan_id":"cebpf4jnsgd1na2vs0mg"},{"bike_id":"00d6f668-ccb9-47ae-b8ce-c39b1f313b6e","system_id":"levelo_inurba_marseille","lat":43.29335,"lon":5.37167,"is_reserved":false,"is_disabled":true,"rental_uris":{"android":"levelo://app?vid=00d6f668-ccb9-47ae-b8ce-c39b1f313b6e","ios":"levelo://app?vid=00d6f668-ccb9-47ae-b8ce-c39b1f313b6e"},"vehicle_type_id":"4","last_reported":1746047383,"current_range_meters":8000,"station_id":"ce4bgh92rcd13ifvqb40","pricing_plan_id":"cebpf4jnsgd1na2vs0mg"},{"bike_id":"76a9cd10-fdd4-4a05-acce-121be760d6db","system_id":"levelo_inurba_marseille","lat":43.27325,"lon":5.39097,"is_reserved":false,"is_disabled":true,"rental_uris":{"android":"levelo://app?vid=76a9cd10-fdd4-4a05-acce-121be760d6db","ios":"levelo://app?vid=76a9cd10-fdd4-4a05-acce-121be760d6db"},"vehicle_type_id":"4","last_reported":1746047383,"current_range_meters":8000,"station_id":"ce4bhgp2rcd13ifvqfe0","pricing_plan_id":"cebpf4jnsgd1na2vs0mg"},{"bike_id":"28c478a7-0b7e-4b24-88a2-e28466cd2e5e","system_id":"levelo_inurba_marseille","lat":43.28352,"lon":5.38106,"is_reserved":false,"is_disabled":false,"rental_uris":{"android":"levelo://app?vid=28c478a7-0b7e-4b24-88a2-e28466cd2e5e","ios":"levelo://app?vid=28c478a7-0b7e-4b24-88a2-e28466cd2e5e"},"vehicle_type_id":"4","last_reported":1746047383,"current_range_meters":8400,"station_id":"ce4bh412rcd13ifvqdr0","pricing_plan_id":"cebpf4jnsgd1na2vs0mg"},{"bike_id":"38888685-ecee-457f-b7f2-6a456f769de8","system_id":"levelo_inurba_marseille","lat":43.32375,"lon":5.38866,"is_reserved":false,"is_disabled":false,"rental_uris":{"android":"levelo://app?vid=38888685-ecee-457f-b7f2-6a456f769de8","ios":"levelo://app?vid=38888685-ecee-457f-b7f2-6a456f769de8"},"vehicle_type_id":"4","last_reported":1746047383,"current_range_meters":8400,"station_id":"ce4bhqp2rcd13ifvqhog","pricing_plan_id":"cebpf4jnsgd1na2vs0mg"},{"bike_id":"489415b8-9254-45c1-b00c-e7554d56755c","system_id":"levelo_inurba_marseille","lat":43.245252,"lon":5.412174,"is_reserved":false,"is_disabled":false,"rental_uris":{"android":"levelo://app?vid=489415b8-9254-45c1-b00c-e7554d56755c","ios":"levelo://app?vid=489415b8-9254-45c1-b00c-e7554d56755c"},"vehicle_type_id":"4","last_reported":1746047383,"current_range_meters":8400,"station_id":"","pricing_plan_id":"cebpf4jnsgd1na2vs0mg"},{"bike_id":"77b63959-a919-4908-8c00-999814a5ee1c","system_id":"levelo_inurba_marseille","lat":43.27555,"lon":5.38437,"is_reserved":false,"is_disabled":false,"rental_uris":{"android":"levelo://app?vid=77b63959-a919-4908-8c00-999814a5ee1c","ios":"levelo://app?vid=77b63959-a919-4908-8c00-999814a5ee1c"},"vehicle_type_id":"4","last_reported":1746047383,"current_range_meters":8400,"station_id":"ce4bhh92rcd13ifvqfi0","pricing_plan_id":"cebpf4jnsgd1na2vs0mg"},{"bike_id":"f13c9ccc-dbf3-4628-9893-0b7c85a486ed","system_id":"levelo_inurba_marseille","lat":43.2466,"lon":5.38161,"is_reserved":false,"is_disabled":false,"rental_uris":{"android":"levelo://app?vid=f13c9ccc-dbf3-4628-9893-0b7c85a486ed","ios":"levelo://app?vid=f13c9ccc-dbf3-4628-9893-0b7c85a486ed"},"vehicle_type_id":"4","last_reported":1746047383,"current_range_meters":8400,"station_id":"ce4bhih2rcd13ifvqfr0","pricing_plan_id":"cebpf4jnsgd1na2vs0mg"},{"bike_id":"07edfd45-c3fa-4b57-b865-cf1bf9963264","system_id":"levelo_inurba_marseille","lat":43.23401,"lon":5.36433,"is_reserved":false,"is_disabled":false,"rental_uris":{"android":"levelo://app?vid=07edfd45-c3fa-4b57-b865-cf1bf9963264","ios":"levelo://app?vid=07edfd45-c3fa-4b57-b865-cf1bf9963264"},"vehicle_type_id":"4","last_reported":1746047383,"current_range_meters":8400,"station_id":"","pricing_plan_id":"cebpf4jnsgd1na2vs0mg"},{"bike_id":"9965e496-e128-48a0-9487-d7af7b498698","system_id":"levelo_inurba_marseille","lat":43.29202,"lon":5.39304,"is_reserved":false,"is_disabled":true,"rental_uris":{"android":"levelo://app?vid=9965e496-e128-48a0-9487-d7af7b498698","ios":"levelo://app?vid=9965e496-e128-48a0-9487-d7af7b498698"},"vehicle_type_id":"4","last_reported":1746047383,"current_range_meters":8400,"station_id":"ce4bh192rcd13ifvqdd0","pricing_plan_id":"cebpf4jnsgd1na2vs0mg"},{"bike_id":"337d3a40-70a2-48ed-8a96-39de20b6c373","system_id":"levelo_inurba_marseille","lat":43.28101,"lon":5.37841,"is_reserved":false,"is_disabled":false,"rental_uris":{"android":"levelo://app?vid=337d3a40-70a2-48ed-8a96-39de20b6c373","ios":"levelo://app?vid=337d3a40-70a2-48ed-8a96-39de20b6c373"},"vehicle_type_id":"4","last_reported":1746047383,"current_range_meters":8000,"station_id":"ce4bha12rcd13ifvqee0","pricing_plan_id":"cebpf4jnsgd1na2vs0mg"},{"bike_id":"20df1fe5-c27c-49ef-8033-51e466c1946b","system_id":"levelo_inurba_marseille","lat":43.28854,"lon":5.39304,"is_reserved":false,"is_disabled":false,"rental_uris":{"android":"levelo://app?vid=20df1fe5-c27c-49ef-8033-51e466c1946b","ios":"levelo://app?vid=20df1fe5-c27c-49ef-8033-51e466c1946b"},"vehicle_type_id":"4","last_reported":1746047383,"current_range_meters":8400,"station_id":"ce4bh2p2rcd13ifvqdi0","pricing_plan_id":"cebpf4jnsgd1na2vs0mg"},{"bike_id":"37c269fe-9e7e-4451-93df-2eb7a327f810","system_id":"levelo_inurba_marseille","lat":43.28688,"lon":5.37395,"is_reserved":false,"is_disabled":false,"rental_uris":{"android":"levelo://app?vid=37c269fe-9e7e-4451-93df-2eb7a327f810","ios":"levelo://app?vid=37c269fe-9e7e-4451-93df-2eb7a327f810"},"vehicle_type_id":"4","last_reported":1746047383,"current_range_meters":8800,"station_id":"ce4bh3p2rcd13ifvqdq0","pricing_plan_id":"cebpf4jnsgd1na2vs0mg"},{"bike_id":"b4dda834-6215-4bd7-a7ba-a91e605fb079","system_id":"levelo_inurba_marseille","lat":43.29417,"lon":5.38627,"is_reserved":false,"is_disabled":false,"rental_uris":{"android":"levelo://app?vid=b4dda834-6215-4bd7-a7ba-a91e605fb079","ios":"levelo://app?vid=b4dda834-6215-4bd7-a7ba-a91e605fb079"},"vehicle_type_id":"4","last_reported":1746047383,"current_range_meters":8800,"station_id":"ce4bh2h2rcd13ifvqdh0","pricing_plan_id":"cebpf4jnsgd1na2vs0mg"},{"bike_id":"605a12db-4145-42a5-877a-b4a375a7cf38","system_id":"levelo_inurba_marseille","lat":43.316869,"lon":5.404671,"is_reserved":false,"is_disabled":false,"rental_uris":{"android":"levelo://app?vid=605a12db-4145-42a5-877a-b4a375a7cf38","ios":"levelo://app?vid=605a12db-4145-42a5-877a-b4a375a7cf38"},"vehicle_type_id":"4","last_reported":1746047383,"current_range_meters":8800,"station_id":"ce4bh012rcd13ifvqd00","pricing_plan_id":"cebpf4jnsgd1na2vs0mg"},{"bike_id":"cba4753c-c020-4971-b359-4a310e00d2ea","system_id":"levelo_inurba_marseille","lat":43.248048,"lon":5.37458,"is_reserved":false,"is_disabled":false,"rental_uris":{"android":"levelo://app?vid=cba4753c-c020-4971-b359-4a310e00d2ea","ios":"levelo://app?vid=cba4753c-c020-4971-b359-4a310e00d2ea"},"vehicle_type_id":"4","last_reported":1746047383,"current_range_meters":8400,"station_id":"ce4bhgh2rcd13ifvqfb0","pricing_plan_id":"cebpf4jnsgd1na2vs0mg"},{"bike_id":"d21b76fc-7a0c-4dfc-8986-843f661f0352","system_id":"levelo_inurba_marseille","lat":43.24797,"lon":5.37452,"is_reserved":false,"is_disabled":false,"rental_uris":{"android":"levelo://app?vid=d21b76fc-7a0c-4dfc-8986-843f661f0352","ios":"levelo://app?vid=d21b76fc-7a0c-4dfc-8986-843f661f0352"},"vehicle_type_id":"4","last_reported":1746047383,"current_range_meters":8800,"station_id":"ce4bhgh2rcd13ifvqfb0","pricing_plan_id":"cebpf4jnsgd1na2vs0mg"},{"bike_id":"be1a1a9b-33ba-4754-90dd-d70b990faf72","system_id":"levelo_inurba_marseille","lat":43.27378,"lon":5.36254,"is_reserved":false,"is_disabled":false,"rental_uris":{"android":"levelo://app?vid=be1a1a9b-33ba-4754-90dd-d70b990faf72","ios":"levelo://app?vid=be1a1a9b-33ba-4754-90dd-d70b990faf72"},"vehicle_type_id":"4","last_reported":1746047383,"current_range_meters":8800,"station_id":"ce4bhbh2rcd13ifvqeo0","pricing_plan_id":"cebpf4jnsgd1na2vs0mg"},{"bike_id":"dcb0b990-89f9-495c-a9c1-10b17ae39667","system_id":"levelo_inurba_marseille","lat":43.23486,"lon":5.38043,"is_reserved":false,"is_disabled":false,"rental_uris":{"android":"levelo://app?vid=dcb0b990-89f9-495c-a9c1-10b17ae39667","ios":"levelo://app?vid=dcb0b990-89f9-495c-a9c1-10b17ae39667"},"vehicle_type_id":"4","last_reported":1746047383,"current_range_meters":9200,"station_id":"","pricing_plan_id":"cebpf4jnsgd1na2vs0mg"},{"bike_id":"06d2d3c8-9fc9-4d69-a070-0ce5daa9cb28","system_id":"levelo_inurba_marseille","lat":43.26938,"lon":5.40268,"is_reserved":false,"is_disabled":true,"rental_uris":{"android":"levelo://app?vid=06d2d3c8-9fc9-4d69-a070-0ce5daa9cb28","ios":"levelo://app?vid=06d2d3c8-9fc9-4d69-a070-0ce5daa9cb28"},"vehicle_type_id":"4","last_reported":1746047383,"current_range_meters":9200,"station_id":"cjm6bp8fraef2m0cb0m0","pricing_plan_id":"cebpf4jnsgd1na2vs0mg"},{"bike_id":"01944aa0-1394-492d-80c8-3251aca0431a","system_id":"levelo_inurba_marseille","lat":43.30461,"lon":5.37903,"is_reserved":false,"is_disabled":false,"rental_uris":{"android":"levelo://app?vid=01944aa0-1394-492d-80c8-3251aca0431a","ios":"levelo://app?vid=01944aa0-1394-492d-80c8-3251aca0431a"},"vehicle_type_id":"4","last_reported":1746047383,"current_range_meters":9200,"station_id":"ce4bgup2rcd13ifvqcn0","pricing_plan_id":"cebpf4jnsgd1na2vs0mg"},{"bike_id":"9c7c4297-4232-41eb-9394-2e1c9d56e0af","system_id":"levelo_inurba_marseille","lat":43.29263,"lon":5.37626,"is_reserved":false,"is_disabled":false,"rental_uris":{"android":"levelo://app?vid=9c7c4297-4232-41eb-9394-2e1c9d56e0af","ios":"levelo://app?vid=9c7c4297-4232-41eb-9394-2e1c9d56e0af"},"vehicle_type_id":"4","last_reported":1746047383,"current_range_meters":10000,"station_id":"ce4bgi12rcd13ifvqb80","pricing_plan_id":"cebpf4jnsgd1na2vs0mg"},{"bike_id":"c180c342-a07a-4a3a-8695-696028d1345b","system_id":"levelo_inurba_marseille","lat":43.27421,"lon":5.39416,"is_reserved":false,"is_disabled":false,"rental_uris":{"android":"levelo://app?vid=c180c342-a07a-4a3a-8695-696028d1345b","ios":"levelo://app?vid=c180c342-a07a-4a3a-8695-696028d1345b"},"vehicle_type_id":"4","last_reported":1746047383,"current_range_meters":9200,"station_id":"ce4bhdp2rcd13ifvqf20","pricing_plan_id":"cebpf4jnsgd1na2vs0mg"},{"bike_id":"c3c0f113-91ae-4e6f-8f00-55857c9a43a2","system_id":"levelo_inurba_marseille","lat":43.31326,"lon":5.39693,"is_reserved":false,"is_disabled":false,"rental_uris":{"android":"levelo://app?vid=c3c0f113-91ae-4e6f-8f00-55857c9a43a2","ios":"levelo://app?vid=c3c0f113-91ae-4e6f-8f00-55857c9a43a2"},"vehicle_type_id":"4","last_reported":1746047383,"current_range_meters":9200,"station_id":"ce4bgvp2rcd13ifvqcu0","pricing_plan_id":"cebpf4jnsgd1na2vs0mg"},{"bike_id":"7f770ba9-2e48-47c9-8bb4-942855273bad","system_id":"levelo_inurba_marseille","lat":43.25391,"lon":5.42489,"is_reserved":false,"is_disabled":false,"rental_uris":{"android":"levelo://app?vid=7f770ba9-2e48-47c9-8bb4-942855273bad","ios":"levelo://app?vid=7f770ba9-2e48-47c9-8bb4-942855273bad"},"vehicle_type_id":"4","last_reported":1746047383,"current_range_meters":9600,"station_id":"","pricing_plan_id":"cebpf4jnsgd1na2vs0mg"},{"bike_id":"77b25cec-2632-406f-b5cc-f6778e648562","system_id":"levelo_inurba_marseille","lat":43.29538,"lon":5.38545,"is_reserved":false,"is_disabled":false,"rental_uris":{"android":"levelo://app?vid=77b25cec-2632-406f-b5cc-f6778e648562","ios":"levelo://app?vid=77b25cec-2632-406f-b5cc-f6778e648562"},"vehicle_type_id":"4","last_reported":1746047383,"current_range_meters":10000,"station_id":"ce4bgih2rcd13ifvqba0","pricing_plan_id":"cebpf4jnsgd1na2vs0mg"},{"bike_id":"5c08e57e-2e67-4959-80d3-06e0d4920c9b","system_id":"levelo_inurba_marseille","lat":43.284503,"lon":5.358887,"is_reserved":false,"is_disabled":false,"rental_uris":{"android":"levelo://app?vid=5c08e57e-2e67-4959-80d3-06e0d4920c9b","ios":"levelo://app?vid=5c08e57e-2e67-4959-80d3-06e0d4920c9b"},"vehicle_type_id":"4","last_reported":1746047383,"current_range_meters":10000,"station_id":"ce4bhah2rcd13ifvqei0","pricing_plan_id":"cebpf4jnsgd1na2vs0mg"},{"bike_id":"367fdc0d-6ae3-4e68-a05e-496770277cf1","system_id":"levelo_inurba_marseille","lat":43.29875,"lon":5.38907,"is_reserved":false,"is_disabled":false,"rental_uris":{"android":"levelo://app?vid=367fdc0d-6ae3-4e68-a05e-496770277cf1","ios":"levelo://app?vid=367fdc0d-6ae3-4e68-a05e-496770277cf1"},"vehicle_type_id":"4","last_reported":1746047383,"current_range_meters":9600,"station_id":"ce4bh392rcd13ifvqdl0","pricing_plan_id":"cebpf4jnsgd1na2vs0mg"},{"bike_id":"50e0af77-56f2-4d0b-9a68-561c6bbec08c","system_id":"levelo_inurba_marseille","lat":43.28727,"lon":5.37936,"is_reserved":false,"is_disabled":false,"rental_uris":{"android":"levelo://app?vid=50e0af77-56f2-4d0b-9a68-561c6bbec08c","ios":"levelo://app?vid=50e0af77-56f2-4d0b-9a68-561c6bbec08c"},"vehicle_type_id":"4","last_reported":1746047383,"current_range_meters":10000,"station_id":"ce4bh9p2rcd13ifvqec0","pricing_plan_id":"cebpf4jnsgd1na2vs0mg"},{"bike_id":"5b5ca162-8855-41ca-a895-6ef6f5e6e239","system_id":"levelo_inurba_marseille","lat":43.30137,"lon":5.3878,"is_reserved":false,"is_disabled":false,"rental_uris":{"android":"levelo://app?vid=5b5ca162-8855-41ca-a895-6ef6f5e6e239","ios":"levelo://app?vid=5b5ca162-8855-41ca-a895-6ef6f5e6e239"},"vehicle_type_id":"4","last_reported":1746047383,"current_range_meters":10000,"station_id":"ce4bghh2rcd13ifvqb60","pricing_plan_id":"cebpf4jnsgd1na2vs0mg"},{"bike_id":"7ca0726a-89e1-4459-97d6-adda42667fff","system_id":"levelo_inurba_marseille","lat":43.295344,"lon":5.385408,"is_reserved":false,"is_disabled":false,"rental_uris":{"android":"levelo://app?vid=7ca0726a-89e1-4459-97d6-adda42667fff","ios":"levelo://app?vid=7ca0726a-89e1-4459-97d6-adda42667fff"},"vehicle_type_id":"4","last_reported":1746047383,"current_range_meters":10000,"station_id":"ce4bgih2rcd13ifvqba0","pricing_plan_id":"cebpf4jnsgd1na2vs0mg"},{"bike_id":"58e61467-50db-4ef1-a23a-155c99fb9f5b","system_id":"levelo_inurba_marseille","lat":43.31481,"lon":5.37309,"is_reserved":false,"is_disabled":false,"rental_uris":{"android":"levelo://app?vid=58e61467-50db-4ef1-a23a-155c99fb9f5b","ios":"levelo://app?vid=58e61467-50db-4ef1-a23a-155c99fb9f5b"},"vehicle_type_id":"4","last_reported":1746047383,"current_range_meters":10800,"station_id":"ce4bgt12rcd13ifvqcd0","pricing_plan_id":"cebpf4jnsgd1na2vs0mg"},{"bike_id":"b6f35bf0-60f5-416d-83da-243505282065","system_id":"levelo_inurba_marseille","lat":43.33329,"lon":5.39606,"is_reserved":false,"is_disabled":false,"rental_uris":{"android":"levelo://app?vid=b6f35bf0-60f5-416d-83da-243505282065","ios":"levelo://app?vid=b6f35bf0-60f5-416d-83da-243505282065"},"vehicle_type_id":"4","last_reported":1746047383,"current_range_meters":10800,"station_id":"","pricing_plan_id":"cebpf4jnsgd1na2vs0mg"},{"bike_id":"7924b638-6bb2-4d04-8752-d92a7a4ba43a","system_id":"levelo_inurba_marseille","lat":43.24178,"lon":5.39734,"is_reserved":false,"is_disabled":false,"rental_uris":{"android":"levelo://app?vid=7924b638-6bb2-4d04-8752-d92a7a4ba43a","ios":"levelo://app?vid=7924b638-6bb2-4d04-8752-d92a7a4ba43a"},"vehicle_type_id":"4","last_reported":1746047383,"current_range_meters":10800,"station_id":"ce4bhn12rcd13ifvqgpg","pricing_plan_id":"cebpf4jnsgd1na2vs0mg"},{"bike_id":"e5e92a64-e709-4b1a-a9b1-cbffe85789ca","system_id":"levelo_inurba_marseille","lat":43.255453,"lon":5.381348,"is_reserved":false,"is_disabled":false,"rental_uris":{"android":"levelo://app?vid=e5e92a64-e709-4b1a-a9b1-cbffe85789ca","ios":"levelo://app?vid=e5e92a64-e709-4b1a-a9b1-cbffe85789ca"},"vehicle_type_id":"4","last_reported":1746047383,"current_range_meters":10800,"station_id":"","pricing_plan_id":"cebpf4jnsgd1na2vs0mg"},{"bike_id":"6a8a1fbc-036f-4d52-83f6-304f0d1e5e7e","system_id":"levelo_inurba_marseille","lat":43.286879,"lon":5.373868,"is_reserved":false,"is_disabled":false,"rental_uris":{"android":"levelo://app?vid=6a8a1fbc-036f-4d52-83f6-304f0d1e5e7e","ios":"levelo://app?vid=6a8a1fbc-036f-4d52-83f6-304f0d1e5e7e"},"vehicle_type_id":"4","last_reported":1746047383,"current_range_meters":10800,"station_id":"ce4bh3p2rcd13ifvqdq0","pricing_plan_id":"cebpf4jnsgd1na2vs0mg"},{"bike_id":"9f7dcf3b-5de8-4203-b8f3-1867275b9acd","system_id":"levelo_inurba_marseille","lat":43.31687,"lon":5.40464,"is_reserved":false,"is_disabled":false,"rental_uris":{"android":"levelo://app?vid=9f7dcf3b-5de8-4203-b8f3-1867275b9acd","ios":"levelo://app?vid=9f7dcf3b-5de8-4203-b8f3-1867275b9acd"},"vehicle_type_id":"4","last_reported":1746047383,"current_range_meters":10800,"station_id":"ce4bh012rcd13ifvqd00","pricing_plan_id":"cebpf4jnsgd1na2vs0mg"},{"bike_id":"8261973d-7fd9-4c15-8fb8-294a251b0456","system_id":"levelo_inurba_marseille","lat":43.29216,"lon":5.38598,"is_reserved":false,"is_disabled":false,"rental_uris":{"android":"levelo://app?vid=8261973d-7fd9-4c15-8fb8-294a251b0456","ios":"levelo://app?vid=8261973d-7fd9-4c15-8fb8-294a251b0456"},"vehicle_type_id":"4","last_reported":1746047383,"current_range_meters":10800,"station_id":"","pricing_plan_id":"cebpf4jnsgd1na2vs0mg"},{"bike_id":"6cbb6e0f-ebf2-4fea-933b-4dc331dc9057","system_id":"levelo_inurba_marseille","lat":43.29895,"lon":5.38535,"is_reserved":false,"is_disabled":false,"rental_uris":{"android":"levelo://app?vid=6cbb6e0f-ebf2-4fea-933b-4dc331dc9057","ios":"levelo://app?vid=6cbb6e0f-ebf2-4fea-933b-4dc331dc9057"},"vehicle_type_id":"4","last_reported":1746047383,"current_range_meters":11200,"station_id":"","pricing_plan_id":"cebpf4jnsgd1na2vs0mg"},{"bike_id":"4d2f825d-ede9-4f41-ad72-a0070aa47471","system_id":"levelo_inurba_marseille","lat":43.29409,"lon":5.38629,"is_reserved":false,"is_disabled":false,"rental_uris":{"android":"levelo://app?vid=4d2f825d-ede9-4f41-ad72-a0070aa47471","ios":"levelo://app?vid=4d2f825d-ede9-4f41-ad72-a0070aa47471"},"vehicle_type_id":"4","last_reported":1746047383,"current_range_meters":11200,"station_id":"ce4bh2h2rcd13ifvqdh0","pricing_plan_id":"cebpf4jnsgd1na2vs0mg"},{"bike_id":"a732b3d6-472a-46b2-b5fc-7d86a14ed2fc","system_id":"levelo_inurba_marseille","lat":43.330331,"lon":5.390502,"is_reserved":false,"is_disabled":false,"rental_uris":{"android":"levelo://app?vid=a732b3d6-472a-46b2-b5fc-7d86a14ed2fc","ios":"levelo://app?vid=a732b3d6-472a-46b2-b5fc-7d86a14ed2fc"},"vehicle_type_id":"4","last_reported":1746047383,"current_range_meters":11200,"station_id":"ce4bhr92rcd13ifvqhrg","pricing_plan_id":"cebpf4jnsgd1na2vs0mg"},{"bike_id":"f78e9a3d-61ca-4e15-9b97-806eac42b424","system_id":"levelo_inurba_marseille","lat":43.28857,"lon":5.35834,"is_reserved":false,"is_disabled":false,"rental_uris":{"android":"levelo://app?vid=f78e9a3d-61ca-4e15-9b97-806eac42b424","ios":"levelo://app?vid=f78e9a3d-61ca-4e15-9b97-806eac42b424"},"vehicle_type_id":"4","last_reported":1746047383,"current_range_meters":11200,"station_id":"ce4bhb12rcd13ifvqem0","pricing_plan_id":"cebpf4jnsgd1na2vs0mg"},{"bike_id":"576794a6-5865-4f6e-ab7f-21f03e5c128d","system_id":"levelo_inurba_marseille","lat":43.27907,"lon":5.39586,"is_reserved":false,"is_disabled":false,"rental_uris":{"android":"levelo://app?vid=576794a6-5865-4f6e-ab7f-21f03e5c128d","ios":"levelo://app?vid=576794a6-5865-4f6e-ab7f-21f03e5c128d"},"vehicle_type_id":"4","last_reported":1746047383,"current_range_meters":11200,"station_id":"ce4bhf92rcd13ifvqf40","pricing_plan_id":"cebpf4jnsgd1na2vs0mg"},{"bike_id":"e024f39b-a3bc-4f1f-8d48-86cb1ff31afc","system_id":"levelo_inurba_marseille","lat":43.28722,"lon":5.36083,"is_reserved":false,"is_disabled":false,"rental_uris":{"android":"levelo://app?vid=e024f39b-a3bc-4f1f-8d48-86cb1ff31afc","ios":"levelo://app?vid=e024f39b-a3bc-4f1f-8d48-86cb1ff31afc"},"vehicle_type_id":"4","last_reported":1746047383,"current_range_meters":11200,"station_id":"cki0cbj6b192h4jlfktg","pricing_plan_id":"cebpf4jnsgd1na2vs0mg"},{"bike_id":"b1f72191-fd43-4719-9933-387d36d4d4f1","system_id":"levelo_inurba_marseille","lat":43.28719,"lon":5.37946,"is_reserved":false,"is_disabled":false,"rental_uris":{"android":"levelo://app?vid=b1f72191-fd43-4719-9933-387d36d4d4f1","ios":"levelo://app?vid=b1f72191-fd43-4719-9933-387d36d4d4f1"},"vehicle_type_id":"4","last_reported":1746047383,"current_range_meters":11200,"station_id":"ce4bh9p2rcd13ifvqec0","pricing_plan_id":"cebpf4jnsgd1na2vs0mg"},{"bike_id":"bc859335-0d0f-4be2-a38c-1f16424b9cb4","system_id":"levelo_inurba_marseille","lat":43.28077,"lon":5.3965,"is_reserved":false,"is_disabled":false,"rental_uris":{"android":"levelo://app?vid=bc859335-0d0f-4be2-a38c-1f16424b9cb4","ios":"levelo://app?vid=bc859335-0d0f-4be2-a38c-1f16424b9cb4"},"vehicle_type_id":"4","last_reported":1746047383,"current_range_meters":11200,"station_id":"ce4bho12rcd13ifvqh2g","pricing_plan_id":"cebpf4jnsgd1na2vs0mg"},{"bike_id":"fca9dc8b-9c20-4eab-83ff-17d0ce9a6922","system_id":"levelo_inurba_marseille","lat":43.26043,"lon":5.41732,"is_reserved":false,"is_disabled":false,"rental_uris":{"android":"levelo://app?vid=fca9dc8b-9c20-4eab-83ff-17d0ce9a6922","ios":"levelo://app?vid=fca9dc8b-9c20-4eab-83ff-17d0ce9a6922"},"vehicle_type_id":"4","last_reported":1746047383,"current_range_meters":11600,"station_id":"","pricing_plan_id":"cebpf4jnsgd1na2vs0mg"},{"bike_id":"032564e3-7c6f-4dae-8fee-5f63b3bd85c6","system_id":"levelo_inurba_marseille","lat":43.26941,"lon":5.40265,"is_reserved":false,"is_disabled":false,"rental_uris":{"android":"levelo://app?vid=032564e3-7c6f-4dae-8fee-5f63b3bd85c6","ios":"levelo://app?vid=032564e3-7c6f-4dae-8fee-5f63b3bd85c6"},"vehicle_type_id":"4","last_reported":1746047383,"current_range_meters":11200,"station_id":"cjm6bp8fraef2m0cb0m0","pricing_plan_id":"cebpf4jnsgd1na2vs0mg"},{"bike_id":"1cf83fed-f86a-4fed-b850-3314c1d8759a","system_id":"levelo_inurba_marseille","lat":43.30886,"lon":5.396448,"is_reserved":false,"is_disabled":false,"rental_uris":{"android":"levelo://app?vid=1cf83fed-f86a-4fed-b850-3314c1d8759a","ios":"levelo://app?vid=1cf83fed-f86a-4fed-b850-3314c1d8759a"},"vehicle_type_id":"4","last_reported":1746047383,"current_range_meters":11600,"station_id":"ce4bh012rcd13ifvqcv0","pricing_plan_id":"cebpf4jnsgd1na2vs0mg"},{"bike_id":"35545040-f075-4a43-8c8e-1a0047409e01","system_id":"levelo_inurba_marseille","lat":43.28935,"lon":5.38388,"is_reserved":false,"is_disabled":false,"rental_uris":{"android":"levelo://app?vid=35545040-f075-4a43-8c8e-1a0047409e01","ios":"levelo://app?vid=35545040-f075-4a43-8c8e-1a0047409e01"},"vehicle_type_id":"4","last_reported":1746047383,"current_range_meters":11600,"station_id":"ce4bh612rcd13ifvqe6g","pricing_plan_id":"cebpf4jnsgd1na2vs0mg"},{"bike_id":"c1cbc237-cfab-474a-aa26-81a87506105a","system_id":"levelo_inurba_marseille","lat":43.21737,"lon":5.346,"is_reserved":false,"is_disabled":false,"rental_uris":{"android":"levelo://app?vid=c1cbc237-cfab-474a-aa26-81a87506105a","ios":"levelo://app?vid=c1cbc237-cfab-474a-aa26-81a87506105a"},"vehicle_type_id":"4","last_reported":1746047383,"current_range_meters":11600,"station_id":"st_cvj6r9ubvosntc0bgbag","pricing_plan_id":"cebpf4jnsgd1na2vs0mg"},{"bike_id":"c9982624-7c54-4562-9cbe-12d3e49a027c","system_id":"levelo_inurba_marseille","lat":43.30965,"lon":5.39029,"is_reserved":false,"is_disabled":false,"rental_uris":{"android":"levelo://app?vid=c9982624-7c54-4562-9cbe-12d3e49a027c","ios":"levelo://app?vid=c9982624-7c54-4562-9cbe-12d3e49a027c"},"vehicle_type_id":"4","last_reported":1746047383,"current_range_meters":11600,"station_id":"ce4bgup2rcd13ifvqco0","pricing_plan_id":"cebpf4jnsgd1na2vs0mg"},{"bike_id":"1bbad378-6db5-4569-9d9b-4e3d7b07563f","system_id":"levelo_inurba_marseille","lat":43.29988,"lon":5.38497,"is_reserved":false,"is_disabled":false,"rental_uris":{"android":"levelo://app?vid=1bbad378-6db5-4569-9d9b-4e3d7b07563f","ios":"levelo://app?vid=1bbad378-6db5-4569-9d9b-4e3d7b07563f"},"vehicle_type_id":"4","last_reported":1746047383,"current_range_meters":11600,"station_id":"ce4bgj92rcd13ifvqbd0","pricing_plan_id":"cebpf4jnsgd1na2vs0mg"},{"bike_id":"eda153d1-4cc2-4eee-b353-82fb9a12209e","system_id":"levelo_inurba_marseille","lat":43.28725,"lon":5.36086,"is_reserved":false,"is_disabled":false,"rental_uris":{"android":"levelo://app?vid=eda153d1-4cc2-4eee-b353-82fb9a12209e","ios":"levelo://app?vid=eda153d1-4cc2-4eee-b353-82fb9a12209e"},"vehicle_type_id":"4","last_reported":1746047383,"current_range_meters":11600,"station_id":"cki0cbj6b192h4jlfktg","pricing_plan_id":"cebpf4jnsgd1na2vs0mg"},{"bike_id":"51b244b9-4cdb-4399-a081-047f0023daac","system_id":"levelo_inurba_marseille","lat":43.25726,"lon":5.41105,"is_reserved":false,"is_disabled":false,"rental_uris":{"android":"levelo://app?vid=51b244b9-4cdb-4399-a081-047f0023daac","ios":"levelo://app?vid=51b244b9-4cdb-4399-a081-047f0023daac"},"vehicle_type_id":"4","last_reported":1746047383,"current_range_meters":11600,"station_id":"ce4bhkp2rcd13ifvqgd0","pricing_plan_id":"cebpf4jnsgd1na2vs0mg"},{"bike_id":"e1bbd3c1-dfe9-4f78-98b3-181a3097d313","system_id":"levelo_inurba_marseille","lat":43.29273,"lon":5.38423,"is_reserved":false,"is_disabled":false,"rental_uris":{"android":"levelo://app?vid=e1bbd3c1-dfe9-4f78-98b3-181a3097d313","ios":"levelo://app?vid=e1bbd3c1-dfe9-4f78-98b3-181a3097d313"},"vehicle_type_id":"4","last_reported":1746047383,"current_range_meters":12000,"station_id":"ce4bh692rcd13ifvqea0","pricing_plan_id":"cebpf4jnsgd1na2vs0mg"},{"bike_id":"2d6f32a2-7cd3-4ab7-a0d7-fc8ffcc45cb2","system_id":"levelo_inurba_marseille","lat":43.27823,"lon":5.39215,"is_reserved":false,"is_disabled":false,"rental_uris":{"android":"levelo://app?vid=2d6f32a2-7cd3-4ab7-a0d7-fc8ffcc45cb2","ios":"levelo://app?vid=2d6f32a2-7cd3-4ab7-a0d7-fc8ffcc45cb2"},"vehicle_type_id":"4","last_reported":1746047383,"current_range_meters":12000,"station_id":"ce4bhjp2rcd13ifvqga0","pricing_plan_id":"cebpf4jnsgd1na2vs0mg"},{"bike_id":"77942475-b9df-43a6-af61-b22087b935d2","system_id":"levelo_inurba_marseille","lat":43.29267,"lon":5.38437,"is_reserved":false,"is_disabled":true,"rental_uris":{"android":"levelo://app?vid=77942475-b9df-43a6-af61-b22087b935d2","ios":"levelo://app?vid=77942475-b9df-43a6-af61-b22087b935d2"},"vehicle_type_id":"4","last_reported":1746047383,"current_range_meters":12000,"station_id":"ce4bh692rcd13ifvqea0","pricing_plan_id":"cebpf4jnsgd1na2vs0mg"},{"bike_id":"379b8933-bc6e-4164-9d36-daaf2941e50f","system_id":"levelo_inurba_marseille","lat":43.30779,"lon":5.3747,"is_reserved":false,"is_disabled":false,"rental_uris":{"android":"levelo://app?vid=379b8933-bc6e-4164-9d36-daaf2941e50f","ios":"levelo://app?vid=379b8933-bc6e-4164-9d36-daaf2941e50f"},"vehicle_type_id":"4","last_reported":1746047383,"current_range_meters":12000,"station_id":"","pricing_plan_id":"cebpf4jnsgd1na2vs0mg"},{"bike_id":"afec0e75-fb5d-4374-a391-7ee3361b2067","system_id":"levelo_inurba_marseille","lat":43.2784,"lon":5.39214,"is_reserved":false,"is_disabled":false,"rental_uris":{"android":"levelo://app?vid=afec0e75-fb5d-4374-a391-7ee3361b2067","ios":"levelo://app?vid=afec0e75-fb5d-4374-a391-7ee3361b2067"},"vehicle_type_id":"4","last_reported":1746047383,"current_range_meters":11600,"station_id":"ce4bhjp2rcd13ifvqga0","pricing_plan_id":"cebpf4jnsgd1na2vs0mg"},{"bike_id":"3ce5a6a0-7c75-4b93-962c-2dd6ababc3c9","system_id":"levelo_inurba_marseille","lat":43.225026,"lon":5.347814,"is_reserved":false,"is_disabled":false,"rental_uris":{"android":"levelo://app?vid=3ce5a6a0-7c75-4b93-962c-2dd6ababc3c9","ios":"levelo://app?vid=3ce5a6a0-7c75-4b93-962c-2dd6ababc3c9"},"vehicle_type_id":"4","last_reported":1746047383,"current_range_meters":12000,"station_id":"st_cvj5dfep6f1abm77gieg","pricing_plan_id":"cebpf4jnsgd1na2vs0mg"},{"bike_id":"d08fe425-042c-4938-b862-c3dc2ac034aa","system_id":"levelo_inurba_marseille","lat":43.3236,"lon":5.38882,"is_reserved":false,"is_disabled":false,"rental_uris":{"android":"levelo://app?vid=d08fe425-042c-4938-b862-c3dc2ac034aa","ios":"levelo://app?vid=d08fe425-042c-4938-b862-c3dc2ac034aa"},"vehicle_type_id":"4","last_reported":1746047383,"current_range_meters":12000,"station_id":"ce4bhqp2rcd13ifvqhog","pricing_plan_id":"cebpf4jnsgd1na2vs0mg"},{"bike_id":"e8da093b-fcb4-4724-ab4d-60d2a2237513","system_id":"levelo_inurba_marseille","lat":43.29074,"lon":5.37173,"is_reserved":false,"is_disabled":false,"rental_uris":{"android":"levelo://app?vid=e8da093b-fcb4-4724-ab4d-60d2a2237513","ios":"levelo://app?vid=e8da093b-fcb4-4724-ab4d-60d2a2237513"},"vehicle_type_id":"4","last_reported":1746047383,"current_range_meters":12000,"station_id":"ce4bh5p2rcd13ifvqe4g","pricing_plan_id":"cebpf4jnsgd1na2vs0mg"},{"bike_id":"79379bf3-28b9-47b5-82be-2020d9b89615","system_id":"levelo_inurba_marseille","lat":43.28717,"lon":5.37936,"is_reserved":false,"is_disabled":false,"rental_uris":{"android":"levelo://app?vid=79379bf3-28b9-47b5-82be-2020d9b89615","ios":"levelo://app?vid=79379bf3-28b9-47b5-82be-2020d9b89615"},"vehicle_type_id":"4","last_reported":1746047383,"current_range_meters":12000,"station_id":"ce4bh9p2rcd13ifvqec0","pricing_plan_id":"cebpf4jnsgd1na2vs0mg"},{"bike_id":"4970e8aa-2872-4dd4-b59b-7b86341e08a2","system_id":"levelo_inurba_marseille","lat":43.30141,"lon":5.38782,"is_reserved":false,"is_disabled":false,"rental_uris":{"android":"levelo://app?vid=4970e8aa-2872-4dd4-b59b-7b86341e08a2","ios":"levelo://app?vid=4970e8aa-2872-4dd4-b59b-7b86341e08a2"},"vehicle_type_id":"4","last_reported":1746047383,"current_range_meters":12400,"station_id":"ce4bghh2rcd13ifvqb60","pricing_plan_id":"cebpf4jnsgd1na2vs0mg"},{"bike_id":"a3845519-3b82-4050-bd6d-25f12fe73512","system_id":"levelo_inurba_marseille","lat":43.29408,"lon":5.38619,"is_reserved":false,"is_disabled":false,"rental_uris":{"android":"levelo://app?vid=a3845519-3b82-4050-bd6d-25f12fe73512","ios":"levelo://app?vid=a3845519-3b82-4050-bd6d-25f12fe73512"},"vehicle_type_id":"4","last_reported":1746047383,"current_range_meters":12400,"station_id":"ce4bh2h2rcd13ifvqdh0","pricing_plan_id":"cebpf4jnsgd1na2vs0mg"},{"bike_id":"8ab8f219-1642-4a0d-af2a-eaa8ea6c816f","system_id":"levelo_inurba_marseille","lat":43.31767,"lon":5.39009,"is_reserved":false,"is_disabled":false,"rental_uris":{"android":"levelo://app?vid=8ab8f219-1642-4a0d-af2a-eaa8ea6c816f","ios":"levelo://app?vid=8ab8f219-1642-4a0d-af2a-eaa8ea6c816f"},"vehicle_type_id":"4","last_reported":1746047383,"current_range_meters":12400,"station_id":"ce4bhqp2rcd13ifvqhng","pricing_plan_id":"cebpf4jnsgd1na2vs0mg"},{"bike_id":"93c3535d-3cb4-4d5e-8674-4af1ca712961","system_id":"levelo_inurba_marseille","lat":43.322885,"lon":5.38267,"is_reserved":false,"is_disabled":false,"rental_uris":{"android":"levelo://app?vid=93c3535d-3cb4-4d5e-8674-4af1ca712961","ios":"levelo://app?vid=93c3535d-3cb4-4d5e-8674-4af1ca712961"},"vehicle_type_id":"4","last_reported":1746047383,"current_range_meters":12400,"station_id":"ce4bhr12rcd13ifvqhqg","pricing_plan_id":"cebpf4jnsgd1na2vs0mg"},{"bike_id":"31f9b6f2-6350-43e6-af3a-bd46591c9ba5","system_id":"levelo_inurba_marseille","lat":43.29023,"lon":5.35641,"is_reserved":false,"is_disabled":true,"rental_uris":{"android":"levelo://app?vid=31f9b6f2-6350-43e6-af3a-bd46591c9ba5","ios":"levelo://app?vid=31f9b6f2-6350-43e6-af3a-bd46591c9ba5"},"vehicle_type_id":"4","last_reported":1746047383,"current_range_meters":12400,"station_id":"ce4bhb92rcd13ifvqen0","pricing_plan_id":"cebpf4jnsgd1na2vs0mg"},{"bike_id":"923d6a61-1396-471c-ab9e-77894b2b3496","system_id":"levelo_inurba_marseille","lat":43.29238,"lon":5.38437,"is_reserved":false,"is_disabled":false,"rental_uris":{"android":"levelo://app?vid=923d6a61-1396-471c-ab9e-77894b2b3496","ios":"levelo://app?vid=923d6a61-1396-471c-ab9e-77894b2b3496"},"vehicle_type_id":"4","last_reported":1746047383,"current_range_meters":12400,"station_id":"ce4bh692rcd13ifvqea0","pricing_plan_id":"cebpf4jnsgd1na2vs0mg"},{"bike_id":"6bd030a4-6608-42a4-87e6-6fc2dd858cd8","system_id":"levelo_inurba_marseille","lat":43.29413,"lon":5.38615,"is_reserved":false,"is_disabled":false,"rental_uris":{"android":"levelo://app?vid=6bd030a4-6608-42a4-87e6-6fc2dd858cd8","ios":"levelo://app?vid=6bd030a4-6608-42a4-87e6-6fc2dd858cd8"},"vehicle_type_id":"4","last_reported":1746047383,"current_range_meters":12400,"station_id":"ce4bh2h2rcd13ifvqdh0","pricing_plan_id":"cebpf4jnsgd1na2vs0mg"},{"bike_id":"607c2c4a-518c-4a6b-998b-f67c9a85ee64","system_id":"levelo_inurba_marseille","lat":43.28705,"lon":5.37391,"is_reserved":false,"is_disabled":false,"rental_uris":{"android":"levelo://app?vid=607c2c4a-518c-4a6b-998b-f67c9a85ee64","ios":"levelo://app?vid=607c2c4a-518c-4a6b-998b-f67c9a85ee64"},"vehicle_type_id":"4","last_reported":1746047383,"current_range_meters":12400,"station_id":"ce4bh3p2rcd13ifvqdq0","pricing_plan_id":"cebpf4jnsgd1na2vs0mg"},{"bike_id":"d31798c5-fee8-4da1-b0f0-459796265741","system_id":"levelo_inurba_marseille","lat":43.31484,"lon":5.37292,"is_reserved":false,"is_disabled":false,"rental_uris":{"android":"levelo://app?vid=d31798c5-fee8-4da1-b0f0-459796265741","ios":"levelo://app?vid=d31798c5-fee8-4da1-b0f0-459796265741"},"vehicle_type_id":"4","last_reported":1746047383,"current_range_meters":12400,"station_id":"ce4bgt12rcd13ifvqcd0","pricing_plan_id":"cebpf4jnsgd1na2vs0mg"},{"bike_id":"85ea9e1f-37a8-4bd5-a8e6-66e47a3d13bb","system_id":"levelo_inurba_marseille","lat":43.33029,"lon":5.39067,"is_reserved":false,"is_disabled":false,"rental_uris":{"android":"levelo://app?vid=85ea9e1f-37a8-4bd5-a8e6-66e47a3d13bb","ios":"levelo://app?vid=85ea9e1f-37a8-4bd5-a8e6-66e47a3d13bb"},"vehicle_type_id":"4","last_reported":1746047383,"current_range_meters":12800,"station_id":"ce4bhr92rcd13ifvqhrg","pricing_plan_id":"cebpf4jnsgd1na2vs0mg"},{"bike_id":"0b6a57c0-fd55-480a-91aa-144a3446d6b0","system_id":"levelo_inurba_marseille","lat":43.295139,"lon":5.390352,"is_reserved":false,"is_disabled":false,"rental_uris":{"android":"levelo://app?vid=0b6a57c0-fd55-480a-91aa-144a3446d6b0","ios":"levelo://app?vid=0b6a57c0-fd55-480a-91aa-144a3446d6b0"},"vehicle_type_id":"4","last_reported":1746047383,"current_range_meters":12800,"station_id":"ce4bh3p2rcd13ifvqdp0","pricing_plan_id":"cebpf4jnsgd1na2vs0mg"},{"bike_id":"6555eae8-ee89-4931-9d34-307f8c436ad9","system_id":"levelo_inurba_marseille","lat":43.3249,"lon":5.36567,"is_reserved":false,"is_disabled":false,"rental_uris":{"android":"levelo://app?vid=6555eae8-ee89-4931-9d34-307f8c436ad9","ios":"levelo://app?vid=6555eae8-ee89-4931-9d34-307f8c436ad9"},"vehicle_type_id":"4","last_reported":1746047383,"current_range_meters":12800,"station_id":"ce4bhs12rcd13ifvqhvg","pricing_plan_id":"cebpf4jnsgd1na2vs0mg"},{"bike_id":"7cb6e414-7b7a-4272-8a7c-967c5ffe9fe1","system_id":"levelo_inurba_marseille","lat":43.31694,"lon":5.40466,"is_reserved":false,"is_disabled":false,"rental_uris":{"android":"levelo://app?vid=7cb6e414-7b7a-4272-8a7c-967c5ffe9fe1","ios":"levelo://app?vid=7cb6e414-7b7a-4272-8a7c-967c5ffe9fe1"},"vehicle_type_id":"4","last_reported":1746047383,"current_range_meters":12800,"station_id":"ce4bh012rcd13ifvqd00","pricing_plan_id":"cebpf4jnsgd1na2vs0mg"},{"bike_id":"9f87d872-9836-4a68-a4bb-b0ab837e0461","system_id":"levelo_inurba_marseille","lat":43.3056,"lon":5.3669,"is_reserved":false,"is_disabled":true,"rental_uris":{"android":"levelo://app?vid=9f87d872-9836-4a68-a4bb-b0ab837e0461","ios":"levelo://app?vid=9f87d872-9836-4a68-a4bb-b0ab837e0461"},"vehicle_type_id":"4","last_reported":1746047383,"current_range_meters":12800,"station_id":"ce4bgrp2rcd13ifvqc9g","pricing_plan_id":"cebpf4jnsgd1na2vs0mg"},{"bike_id":"a6c04694-6378-40af-9022-6087ee3f1f71","system_id":"levelo_inurba_marseille","lat":43.27976,"lon":5.38745,"is_reserved":false,"is_disabled":false,"rental_uris":{"android":"levelo://app?vid=a6c04694-6378-40af-9022-6087ee3f1f71","ios":"levelo://app?vid=a6c04694-6378-40af-9022-6087ee3f1f71"},"vehicle_type_id":"4","last_reported":1746047383,"current_range_meters":12800,"station_id":"ce4bhg12rcd13ifvqf80","pricing_plan_id":"cebpf4jnsgd1na2vs0mg"},{"bike_id":"ce8ff7fa-1429-4e58-b4c8-d8f8a915a0e9","system_id":"levelo_inurba_marseille","lat":43.29533,"lon":5.38539,"is_reserved":false,"is_disabled":false,"rental_uris":{"android":"levelo://app?vid=ce8ff7fa-1429-4e58-b4c8-d8f8a915a0e9","ios":"levelo://app?vid=ce8ff7fa-1429-4e58-b4c8-d8f8a915a0e9"},"vehicle_type_id":"4","last_reported":1746047383,"current_range_meters":12800,"station_id":"ce4bgih2rcd13ifvqba0","pricing_plan_id":"cebpf4jnsgd1na2vs0mg"},{"bike_id":"d89b09c5-c053-4ce8-9b45-d3c856e9b29c","system_id":"levelo_inurba_marseille","lat":43.26557,"lon":5.3728,"is_reserved":false,"is_disabled":false,"rental_uris":{"android":"levelo://app?vid=d89b09c5-c053-4ce8-9b45-d3c856e9b29c","ios":"levelo://app?vid=d89b09c5-c053-4ce8-9b45-d3c856e9b29c"},"vehicle_type_id":"4","last_reported":1746047383,"current_range_meters":13600,"station_id":"ce4bhg12rcd13ifvqf70","pricing_plan_id":"cebpf4jnsgd1na2vs0mg"},{"bike_id":"79043064-a559-4cbb-a6f9-6eaba86f993c","system_id":"levelo_inurba_marseille","lat":43.31167,"lon":5.38718,"is_reserved":false,"is_disabled":false,"rental_uris":{"android":"levelo://app?vid=79043064-a559-4cbb-a6f9-6eaba86f993c","ios":"levelo://app?vid=79043064-a559-4cbb-a6f9-6eaba86f993c"},"vehicle_type_id":"4","last_reported":1746047383,"current_range_meters":13600,"station_id":"ce4bgv12rcd13ifvqcp0","pricing_plan_id":"cebpf4jnsgd1na2vs0mg"},{"bike_id":"5adc88df-5cea-44d3-baf7-86fe8cc04150","system_id":"levelo_inurba_marseille","lat":43.28566,"lon":5.39493,"is_reserved":false,"is_disabled":false,"rental_uris":{"android":"levelo://app?vid=5adc88df-5cea-44d3-baf7-86fe8cc04150","ios":"levelo://app?vid=5adc88df-5cea-44d3-baf7-86fe8cc04150"},"vehicle_type_id":"4","last_reported":1746047383,"current_range_meters":12800,"station_id":"ce4bh292rcd13ifvqdg0","pricing_plan_id":"cebpf4jnsgd1na2vs0mg"},{"bike_id":"09f972fb-d50f-4051-b9b0-6ce0071f8172","system_id":"levelo_inurba_marseille","lat":43.310194,"lon":5.383174,"is_reserved":false,"is_disabled":false,"rental_uris":{"android":"levelo://app?vid=09f972fb-d50f-4051-b9b0-6ce0071f8172","ios":"levelo://app?vid=09f972fb-d50f-4051-b9b0-6ce0071f8172"},"vehicle_type_id":"4","last_reported":1746047383,"current_range_meters":13600,"station_id":"ce4bh392rcd13ifvqdl0","pricing_plan_id":"cebpf4jnsgd1na2vs0mg"},{"bike_id":"bc78c447-203e-480e-aaae-deef00849b1c","system_id":"levelo_inurba_marseille","lat":43.295317,"lon":5.385343,"is_reserved":false,"is_disabled":false,"rental_uris":{"android":"levelo://app?vid=bc78c447-203e-480e-aaae-deef00849b1c","ios":"levelo://app?vid=bc78c447-203e-480e-aaae-deef00849b1c"},"vehicle_type_id":"4","last_reported":1746047383,"current_range_meters":14000,"station_id":"ce4bgih2rcd13ifvqba0","pricing_plan_id":"cebpf4jnsgd1na2vs0mg"},{"bike_id":"0fafaf6c-cf89-4e4d-820e-c74e5f7b6062","system_id":"levelo_inurba_marseille","lat":43.25824,"lon":5.39433,"is_reserved":false,"is_disabled":false,"rental_uris":{"android":"levelo://app?vid=0fafaf6c-cf89-4e4d-820e-c74e5f7b6062","ios":"levelo://app?vid=0fafaf6c-cf89-4e4d-820e-c74e5f7b6062"},"vehicle_type_id":"4","last_reported":1746047383,"current_range_meters":14000,"station_id":"ce4bhip2rcd13ifvqft0","pricing_plan_id":"cebpf4jnsgd1na2vs0mg"},{"bike_id":"87303f7c-b756-4a06-9a36-f79c5d6e9c63","system_id":"levelo_inurba_marseille","lat":43.29278,"lon":5.40111,"is_reserved":false,"is_disabled":false,"rental_uris":{"android":"levelo://app?vid=87303f7c-b756-4a06-9a36-f79c5d6e9c63","ios":"levelo://app?vid=87303f7c-b756-4a06-9a36-f79c5d6e9c63"},"vehicle_type_id":"4","last_reported":1746047383,"current_range_meters":14000,"station_id":"ce4bh312rcd13ifvqdk0","pricing_plan_id":"cebpf4jnsgd1na2vs0mg"},{"bike_id":"8ace81f6-8ca7-456c-b76a-7cfc58af2c42","system_id":"levelo_inurba_marseille","lat":43.26598,"lon":5.39021,"is_reserved":false,"is_disabled":false,"rental_uris":{"android":"levelo://app?vid=8ace81f6-8ca7-456c-b76a-7cfc58af2c42","ios":"levelo://app?vid=8ace81f6-8ca7-456c-b76a-7cfc58af2c42"},"vehicle_type_id":"4","last_reported":1746047383,"current_range_meters":14400,"station_id":"ce4bhe12rcd13ifvqf30","pricing_plan_id":"cebpf4jnsgd1na2vs0mg"},{"bike_id":"fd427e05-8ad1-4dac-ba3a-e42fe8245eb3","system_id":"levelo_inurba_marseille","lat":43.28454,"lon":5.34997,"is_reserved":false,"is_disabled":true,"rental_uris":{"android":"levelo://app?vid=fd427e05-8ad1-4dac-ba3a-e42fe8245eb3","ios":"levelo://app?vid=fd427e05-8ad1-4dac-ba3a-e42fe8245eb3"},"vehicle_type_id":"4","last_reported":1746047383,"current_range_meters":14400,"station_id":"ce4bhbh2rcd13ifvqepg","pricing_plan_id":"cebpf4jnsgd1na2vs0mg"},{"bike_id":"86c2979e-8cf6-48ed-bdb1-835ff11e3adc","system_id":"levelo_inurba_marseille","lat":43.25391,"lon":5.4184,"is_reserved":false,"is_disabled":false,"rental_uris":{"android":"levelo://app?vid=86c2979e-8cf6-48ed-bdb1-835ff11e3adc","ios":"levelo://app?vid=86c2979e-8cf6-48ed-bdb1-835ff11e3adc"},"vehicle_type_id":"4","last_reported":1746047383,"current_range_meters":14400,"station_id":"","pricing_plan_id":"cebpf4jnsgd1na2vs0mg"},{"bike_id":"86c0e34d-4cb2-49df-93b3-5de1804ce74a","system_id":"levelo_inurba_marseille","lat":43.30432,"lon":5.38881,"is_reserved":false,"is_disabled":false,"rental_uris":{"android":"levelo://app?vid=86c0e34d-4cb2-49df-93b3-5de1804ce74a","ios":"levelo://app?vid=86c0e34d-4cb2-49df-93b3-5de1804ce74a"},"vehicle_type_id":"4","last_reported":1746047383,"current_range_meters":14000,"station_id":"ce4bgk12rcd13ifvqbi0","pricing_plan_id":"cebpf4jnsgd1na2vs0mg"},{"bike_id":"94b747f6-d093-4a98-b447-1ca7985f966e","system_id":"levelo_inurba_marseille","lat":43.28693,"lon":5.39965,"is_reserved":false,"is_disabled":false,"rental_uris":{"android":"levelo://app?vid=94b747f6-d093-4a98-b447-1ca7985f966e","ios":"levelo://app?vid=94b747f6-d093-4a98-b447-1ca7985f966e"},"vehicle_type_id":"4","last_reported":1746047383,"current_range_meters":14400,"station_id":"ce4bho92rcd13ifvqh3g","pricing_plan_id":"cebpf4jnsgd1na2vs0mg"},{"bike_id":"da557341-b4a1-447e-9606-415e0f9c6127","system_id":"levelo_inurba_marseille","lat":43.30468,"lon":5.37891,"is_reserved":false,"is_disabled":true,"rental_uris":{"android":"levelo://app?vid=da557341-b4a1-447e-9606-415e0f9c6127","ios":"levelo://app?vid=da557341-b4a1-447e-9606-415e0f9c6127"},"vehicle_type_id":"4","last_reported":1746047383,"current_range_meters":14400,"station_id":"ce4bgup2rcd13ifvqcn0","pricing_plan_id":"cebpf4jnsgd1na2vs0mg"},{"bike_id":"e3a1c994-1f30-41a6-a629-0dd6daa39b3f","system_id":"levelo_inurba_marseille","lat":43.30277,"lon":5.37711,"is_reserved":false,"is_disabled":false,"rental_uris":{"android":"levelo://app?vid=e3a1c994-1f30-41a6-a629-0dd6daa39b3f","ios":"levelo://app?vid=e3a1c994-1f30-41a6-a629-0dd6daa39b3f"},"vehicle_type_id":"4","last_reported":1746047383,"current_range_meters":14400,"station_id":"ce4bguh2rcd13ifvqcj0","pricing_plan_id":"cebpf4jnsgd1na2vs0mg"},{"bike_id":"bded5638-5663-46d5-b164-b8214836c3ea","system_id":"levelo_inurba_marseille","lat":43.27307,"lon":5.39198,"is_reserved":false,"is_disabled":false,"rental_uris":{"android":"levelo://app?vid=bded5638-5663-46d5-b164-b8214836c3ea","ios":"levelo://app?vid=bded5638-5663-46d5-b164-b8214836c3ea"},"vehicle_type_id":"4","last_reported":1746047383,"current_range_meters":14800,"station_id":"","pricing_plan_id":"cebpf4jnsgd1na2vs0mg"},{"bike_id":"859fcba1-5f81-4c98-b556-190a2da25dc1","system_id":"levelo_inurba_marseille","lat":43.25119,"lon":5.40314,"is_reserved":false,"is_disabled":false,"rental_uris":{"android":"levelo://app?vid=859fcba1-5f81-4c98-b556-190a2da25dc1","ios":"levelo://app?vid=859fcba1-5f81-4c98-b556-190a2da25dc1"},"vehicle_type_id":"4","last_reported":1746047383,"current_range_meters":14800,"station_id":"ce4bhlh2rcd13ifvqgig","pricing_plan_id":"cebpf4jnsgd1na2vs0mg"},{"bike_id":"48acfd55-1237-483e-a6b0-c17c67a9dd17","system_id":"levelo_inurba_marseille","lat":43.28484,"lon":5.38413,"is_reserved":false,"is_disabled":false,"rental_uris":{"android":"levelo://app?vid=48acfd55-1237-483e-a6b0-c17c67a9dd17","ios":"levelo://app?vid=48acfd55-1237-483e-a6b0-c17c67a9dd17"},"vehicle_type_id":"4","last_reported":1746047383,"current_range_meters":14800,"station_id":"ce4bh512rcd13ifvqe3g","pricing_plan_id":"cebpf4jnsgd1na2vs0mg"},{"bike_id":"39e2acef-bd88-436d-a023-ef5731bf74e0","system_id":"levelo_inurba_marseille","lat":43.31531,"lon":5.38021,"is_reserved":false,"is_disabled":false,"rental_uris":{"android":"levelo://app?vid=39e2acef-bd88-436d-a023-ef5731bf74e0","ios":"levelo://app?vid=39e2acef-bd88-436d-a023-ef5731bf74e0"},"vehicle_type_id":"4","last_reported":1746047383,"current_range_meters":14400,"station_id":"ce4bhsp2rcd13ifvqi50","pricing_plan_id":"cebpf4jnsgd1na2vs0mg"},{"bike_id":"52435546-be12-4a03-97ae-1341db5d8d3a","system_id":"levelo_inurba_marseille","lat":43.30193,"lon":5.36628,"is_reserved":false,"is_disabled":false,"rental_uris":{"android":"levelo://app?vid=52435546-be12-4a03-97ae-1341db5d8d3a","ios":"levelo://app?vid=52435546-be12-4a03-97ae-1341db5d8d3a"},"vehicle_type_id":"4","last_reported":1746047383,"current_range_meters":14800,"station_id":"ce4bgrh2rcd13ifvqc8g","pricing_plan_id":"cebpf4jnsgd1na2vs0mg"},{"bike_id":"c67e24c1-58f6-4ef0-b2a9-0a20f6209747","system_id":"levelo_inurba_marseille","lat":43.31067,"lon":5.3837,"is_reserved":false,"is_disabled":false,"rental_uris":{"android":"levelo://app?vid=c67e24c1-58f6-4ef0-b2a9-0a20f6209747","ios":"levelo://app?vid=c67e24c1-58f6-4ef0-b2a9-0a20f6209747"},"vehicle_type_id":"4","last_reported":1746047383,"current_range_meters":14800,"station_id":"ce4bgv92rcd13ifvqcr0","pricing_plan_id":"cebpf4jnsgd1na2vs0mg"},{"bike_id":"3176fa51-2630-4c8f-82c7-15208575ea7c","system_id":"levelo_inurba_marseille","lat":43.2803,"lon":5.36943,"is_reserved":false,"is_disabled":false,"rental_uris":{"android":"levelo://app?vid=3176fa51-2630-4c8f-82c7-15208575ea7c","ios":"levelo://app?vid=3176fa51-2630-4c8f-82c7-15208575ea7c"},"vehicle_type_id":"4","last_reported":1746047383,"current_range_meters":15200,"station_id":"ce4bha12rcd13ifvqef0","pricing_plan_id":"cebpf4jnsgd1na2vs0mg"},{"bike_id":"a688b131-ae29-4f11-8812-f85f61aa6706","system_id":"levelo_inurba_marseille","lat":43.292101,"lon":5.393194,"is_reserved":false,"is_disabled":true,"rental_uris":{"android":"levelo://app?vid=a688b131-ae29-4f11-8812-f85f61aa6706","ios":"levelo://app?vid=a688b131-ae29-4f11-8812-f85f61aa6706"},"vehicle_type_id":"4","last_reported":1746047383,"current_range_meters":15200,"station_id":"ce4bhbh2rcd13ifvqeo0","pricing_plan_id":"cebpf4jnsgd1na2vs0mg"},{"bike_id":"083163f5-e2fd-40d2-9e4f-7b3d2d85df31","system_id":"levelo_inurba_marseille","lat":43.27004,"lon":5.38742,"is_reserved":false,"is_disabled":true,"rental_uris":{"android":"levelo://app?vid=083163f5-e2fd-40d2-9e4f-7b3d2d85df31","ios":"levelo://app?vid=083163f5-e2fd-40d2-9e4f-7b3d2d85df31"},"vehicle_type_id":"4","last_reported":1746047383,"current_range_meters":15200,"station_id":"","pricing_plan_id":"cebpf4jnsgd1na2vs0mg"},{"bike_id":"7940bc1b-eaa7-4f49-a435-46dc9391f6a1","system_id":"levelo_inurba_marseille","lat":43.21195,"lon":5.35069,"is_reserved":false,"is_disabled":false,"rental_uris":{"android":"levelo://app?vid=7940bc1b-eaa7-4f49-a435-46dc9391f6a1","ios":"levelo://app?vid=7940bc1b-eaa7-4f49-a435-46dc9391f6a1"},"vehicle_type_id":"4","last_reported":1746047383,"current_range_meters":15200,"station_id":"st_cvj6sg6p6f1abm77japg","pricing_plan_id":"cebpf4jnsgd1na2vs0mg"},{"bike_id":"34b484ab-c0f1-4e55-b51a-e2bafdafb63e","system_id":"levelo_inurba_marseille","lat":43.230548,"lon":5.354969,"is_reserved":false,"is_disabled":false,"rental_uris":{"android":"levelo://app?vid=34b484ab-c0f1-4e55-b51a-e2bafdafb63e","ios":"levelo://app?vid=34b484ab-c0f1-4e55-b51a-e2bafdafb63e"},"vehicle_type_id":"4","last_reported":1746047383,"current_range_meters":15200,"station_id":"cpo3342slgdg3j2ifvpg","pricing_plan_id":"cebpf4jnsgd1na2vs0mg"},{"bike_id":"7fefc331-af80-4473-9a97-63ffd6368b75","system_id":"levelo_inurba_marseille","lat":43.29421,"lon":5.38609,"is_reserved":false,"is_disabled":false,"rental_uris":{"android":"levelo://app?vid=7fefc331-af80-4473-9a97-63ffd6368b75","ios":"levelo://app?vid=7fefc331-af80-4473-9a97-63ffd6368b75"},"vehicle_type_id":"4","last_reported":1746047383,"current_range_meters":15200,"station_id":"ce4bh2h2rcd13ifvqdh0","pricing_plan_id":"cebpf4jnsgd1na2vs0mg"},{"bike_id":"5ad88e72-b1ff-4195-96b8-aa387d597c4d","system_id":"levelo_inurba_marseille","lat":43.30879,"lon":5.372,"is_reserved":false,"is_disabled":false,"rental_uris":{"android":"levelo://app?vid=5ad88e72-b1ff-4195-96b8-aa387d597c4d","ios":"levelo://app?vid=5ad88e72-b1ff-4195-96b8-aa387d597c4d"},"vehicle_type_id":"4","last_reported":1746047383,"current_range_meters":14800,"station_id":"ce4bguh2rcd13ifvqckg","pricing_plan_id":"cebpf4jnsgd1na2vs0mg"},{"bike_id":"50fb8657-a41f-4d46-900e-f0581fec590f","system_id":"levelo_inurba_marseille","lat":43.2792,"lon":5.39576,"is_reserved":false,"is_disabled":false,"rental_uris":{"android":"levelo://app?vid=50fb8657-a41f-4d46-900e-f0581fec590f","ios":"levelo://app?vid=50fb8657-a41f-4d46-900e-f0581fec590f"},"vehicle_type_id":"4","last_reported":1746047383,"current_range_meters":16000,"station_id":"ce4bhf92rcd13ifvqf40","pricing_plan_id":"cebpf4jnsgd1na2vs0mg"},{"bike_id":"3ca9954e-b989-4ca7-93c5-394d47cadd3f","system_id":"levelo_inurba_marseille","lat":43.29419,"lon":5.38623,"is_reserved":false,"is_disabled":false,"rental_uris":{"android":"levelo://app?vid=3ca9954e-b989-4ca7-93c5-394d47cadd3f","ios":"levelo://app?vid=3ca9954e-b989-4ca7-93c5-394d47cadd3f"},"vehicle_type_id":"4","last_reported":1746047383,"current_range_meters":16000,"station_id":"ce4bh2h2rcd13ifvqdh0","pricing_plan_id":"cebpf4jnsgd1na2vs0mg"},{"bike_id":"fd7875a1-1cd0-47f8-880b-6ef58a6b7e2e","system_id":"levelo_inurba_marseille","lat":43.22934,"lon":5.353746,"is_reserved":false,"is_disabled":false,"rental_uris":{"android":"levelo://app?vid=fd7875a1-1cd0-47f8-880b-6ef58a6b7e2e","ios":"levelo://app?vid=fd7875a1-1cd0-47f8-880b-6ef58a6b7e2e"},"vehicle_type_id":"4","last_reported":1746047383,"current_range_meters":16000,"station_id":"cpo3532slgdg3j2ikp40","pricing_plan_id":"cebpf4jnsgd1na2vs0mg"},{"bike_id":"66cf9de5-17de-4e38-9ee0-8d2cef3b4ab3","system_id":"levelo_inurba_marseille","lat":43.30659,"lon":5.40104,"is_reserved":false,"is_disabled":true,"rental_uris":{"android":"levelo://app?vid=66cf9de5-17de-4e38-9ee0-8d2cef3b4ab3","ios":"levelo://app?vid=66cf9de5-17de-4e38-9ee0-8d2cef3b4ab3"},"vehicle_type_id":"4","last_reported":1746047383,"current_range_meters":16000,"station_id":"ce4bh112rcd13ifvqda0","pricing_plan_id":"cebpf4jnsgd1na2vs0mg"},{"bike_id":"3098cac7-e464-414a-ab74-6d2177d3f806","system_id":"levelo_inurba_marseille","lat":43.29296,"lon":5.38427,"is_reserved":false,"is_disabled":false,"rental_uris":{"android":"levelo://app?vid=3098cac7-e464-414a-ab74-6d2177d3f806","ios":"levelo://app?vid=3098cac7-e464-414a-ab74-6d2177d3f806"},"vehicle_type_id":"4","last_reported":1746047383,"current_range_meters":16000,"station_id":"ce4bh692rcd13ifvqea0","pricing_plan_id":"cebpf4jnsgd1na2vs0mg"},{"bike_id":"a7965e3b-af76-4093-905a-3fd15fe10ffd","system_id":"levelo_inurba_marseille","lat":43.30254,"lon":5.40065,"is_reserved":false,"is_disabled":false,"rental_uris":{"android":"levelo://app?vid=a7965e3b-af76-4093-905a-3fd15fe10ffd","ios":"levelo://app?vid=a7965e3b-af76-4093-905a-3fd15fe10ffd"},"vehicle_type_id":"4","last_reported":1746047383,"current_range_meters":16000,"station_id":"ce4bgvh2rcd13ifvqcs0","pricing_plan_id":"cebpf4jnsgd1na2vs0mg"},{"bike_id":"eba926d0-a22e-4eec-9de3-d8b6db8c0601","system_id":"levelo_inurba_marseille","lat":43.29879,"lon":5.39731,"is_reserved":false,"is_disabled":false,"rental_uris":{"android":"levelo://app?vid=eba926d0-a22e-4eec-9de3-d8b6db8c0601","ios":"levelo://app?vid=eba926d0-a22e-4eec-9de3-d8b6db8c0601"},"vehicle_type_id":"4","last_reported":1746047383,"current_range_meters":16400,"station_id":"ce4bh0h2rcd13ifvqd50","pricing_plan_id":"cebpf4jnsgd1na2vs0mg"},{"bike_id":"fd474a4c-e4f0-45e4-bb5e-22aea07fb998","system_id":"levelo_inurba_marseille","lat":43.29426,"lon":5.38607,"is_reserved":false,"is_disabled":false,"rental_uris":{"android":"levelo://app?vid=fd474a4c-e4f0-45e4-bb5e-22aea07fb998","ios":"levelo://app?vid=fd474a4c-e4f0-45e4-bb5e-22aea07fb998"},"vehicle_type_id":"4","last_reported":1746047383,"current_range_meters":16400,"station_id":"ce4bh2h2rcd13ifvqdh0","pricing_plan_id":"cebpf4jnsgd1na2vs0mg"},{"bike_id":"da62e04f-aabf-4f2b-9e7f-761fdf6d967b","system_id":"levelo_inurba_marseille","lat":43.28404,"lon":5.37482,"is_reserved":false,"is_disabled":false,"rental_uris":{"android":"levelo://app?vid=da62e04f-aabf-4f2b-9e7f-761fdf6d967b","ios":"levelo://app?vid=da62e04f-aabf-4f2b-9e7f-761fdf6d967b"},"vehicle_type_id":"4","last_reported":1746047383,"current_range_meters":16400,"station_id":"ce4bh412rcd13ifvqds0","pricing_plan_id":"cebpf4jnsgd1na2vs0mg"},{"bike_id":"0ad2c942-0be1-4f61-b4bb-39b79780a914","system_id":"levelo_inurba_marseille","lat":43.29271,"lon":5.38433,"is_reserved":false,"is_disabled":false,"rental_uris":{"android":"levelo://app?vid=0ad2c942-0be1-4f61-b4bb-39b79780a914","ios":"levelo://app?vid=0ad2c942-0be1-4f61-b4bb-39b79780a914"},"vehicle_type_id":"4","last_reported":1746047383,"current_range_meters":16400,"station_id":"ce4bh692rcd13ifvqea0","pricing_plan_id":"cebpf4jnsgd1na2vs0mg"},{"bike_id":"3d13519f-8c59-4500-915b-0e3325a7d2e1","system_id":"levelo_inurba_marseille","lat":43.29887,"lon":5.3835,"is_reserved":false,"is_disabled":false,"rental_uris":{"android":"levelo://app?vid=3d13519f-8c59-4500-915b-0e3325a7d2e1","ios":"levelo://app?vid=3d13519f-8c59-4500-915b-0e3325a7d2e1"},"vehicle_type_id":"4","last_reported":1746047383,"current_range_meters":16400,"station_id":"","pricing_plan_id":"cebpf4jnsgd1na2vs0mg"},{"bike_id":"e5ea0ca3-1c23-4f50-a030-499803ae882a","system_id":"levelo_inurba_marseille","lat":43.31168,"lon":5.38701,"is_reserved":false,"is_disabled":false,"rental_uris":{"android":"levelo://app?vid=e5ea0ca3-1c23-4f50-a030-499803ae882a","ios":"levelo://app?vid=e5ea0ca3-1c23-4f50-a030-499803ae882a"},"vehicle_type_id":"4","last_reported":1746047383,"current_range_meters":16400,"station_id":"ce4bgv12rcd13ifvqcp0","pricing_plan_id":"cebpf4jnsgd1na2vs0mg"},{"bike_id":"3bc11860-9cf2-4996-a396-f474e6e57400","system_id":"levelo_inurba_marseille","lat":43.27173,"lon":5.40992,"is_reserved":false,"is_disabled":false,"rental_uris":{"android":"levelo://app?vid=3bc11860-9cf2-4996-a396-f474e6e57400","ios":"levelo://app?vid=3bc11860-9cf2-4996-a396-f474e6e57400"},"vehicle_type_id":"4","last_reported":1746047383,"current_range_meters":16000,"station_id":"ce4bhl12rcd13ifvqgf0","pricing_plan_id":"cebpf4jnsgd1na2vs0mg"},{"bike_id":"e1e058e6-cb12-4f73-b251-fb9b7627fb05","system_id":"levelo_inurba_marseille","lat":43.28662,"lon":5.36363,"is_reserved":false,"is_disabled":false,"rental_uris":{"android":"levelo://app?vid=e1e058e6-cb12-4f73-b251-fb9b7627fb05","ios":"levelo://app?vid=e1e058e6-cb12-4f73-b251-fb9b7627fb05"},"vehicle_type_id":"4","last_reported":1746047383,"current_range_meters":16400,"station_id":"ce4bhah2rcd13ifvqej0","pricing_plan_id":"cebpf4jnsgd1na2vs0mg"},{"bike_id":"aa1220d4-7fa1-4ad4-8aa5-3dbf237cf05a","system_id":"levelo_inurba_marseille","lat":43.284332,"lon":5.380657,"is_reserved":false,"is_disabled":false,"rental_uris":{"android":"levelo://app?vid=aa1220d4-7fa1-4ad4-8aa5-3dbf237cf05a","ios":"levelo://app?vid=aa1220d4-7fa1-4ad4-8aa5-3dbf237cf05a"},"vehicle_type_id":"4","last_reported":1746047383,"current_range_meters":16400,"station_id":"ce4bh412rcd13ifvqdr0","pricing_plan_id":"cebpf4jnsgd1na2vs0mg"},{"bike_id":"0ab54b88-535d-45ef-8fa1-fc2ee720860a","system_id":"levelo_inurba_marseille","lat":43.29423,"lon":5.38619,"is_reserved":false,"is_disabled":false,"rental_uris":{"android":"levelo://app?vid=0ab54b88-535d-45ef-8fa1-fc2ee720860a","ios":"levelo://app?vid=0ab54b88-535d-45ef-8fa1-fc2ee720860a"},"vehicle_type_id":"4","last_reported":1746047383,"current_range_meters":16400,"station_id":"ce4bh2h2rcd13ifvqdh0","pricing_plan_id":"cebpf4jnsgd1na2vs0mg"},{"bike_id":"1276ff5c-0e07-4a84-8274-86c8fab8119b","system_id":"levelo_inurba_marseille","lat":43.2903,"lon":5.386438,"is_reserved":false,"is_disabled":true,"rental_uris":{"android":"levelo://app?vid=1276ff5c-0e07-4a84-8274-86c8fab8119b","ios":"levelo://app?vid=1276ff5c-0e07-4a84-8274-86c8fab8119b"},"vehicle_type_id":"4","last_reported":1746047383,"current_range_meters":16400,"station_id":"ce4bh4p2rcd13ifvqe0g","pricing_plan_id":"cebpf4jnsgd1na2vs0mg"},{"bike_id":"68387bcf-91b9-4d94-9345-8087e5f6d466","system_id":"levelo_inurba_marseille","lat":43.31333,"lon":5.36771,"is_reserved":false,"is_disabled":true,"rental_uris":{"android":"levelo://app?vid=68387bcf-91b9-4d94-9345-8087e5f6d466","ios":"levelo://app?vid=68387bcf-91b9-4d94-9345-8087e5f6d466"},"vehicle_type_id":"4","last_reported":1746047383,"current_range_meters":16800,"station_id":"","pricing_plan_id":"cebpf4jnsgd1na2vs0mg"},{"bike_id":"a80efe56-7ec7-41b2-959d-a20ff548881b","system_id":"levelo_inurba_marseille","lat":43.323646,"lon":5.388822,"is_reserved":false,"is_disabled":false,"rental_uris":{"android":"levelo://app?vid=a80efe56-7ec7-41b2-959d-a20ff548881b","ios":"levelo://app?vid=a80efe56-7ec7-41b2-959d-a20ff548881b"},"vehicle_type_id":"4","last_reported":1746047383,"current_range_meters":16800,"station_id":"ce4bhqp2rcd13ifvqhog","pricing_plan_id":"cebpf4jnsgd1na2vs0mg"},{"bike_id":"bbb55d8b-e7ab-4e6e-aa44-b802b7e56894","system_id":"levelo_inurba_marseille","lat":43.29421,"lon":5.38633,"is_reserved":false,"is_disabled":false,"rental_uris":{"android":"levelo://app?vid=bbb55d8b-e7ab-4e6e-aa44-b802b7e56894","ios":"levelo://app?vid=bbb55d8b-e7ab-4e6e-aa44-b802b7e56894"},"vehicle_type_id":"4","last_reported":1746047383,"current_range_meters":16800,"station_id":"ce4bh2h2rcd13ifvqdh0","pricing_plan_id":"cebpf4jnsgd1na2vs0mg"},{"bike_id":"4dca3eb4-b823-41a9-821c-cb5a0d742dcb","system_id":"levelo_inurba_marseille","lat":43.28943,"lon":5.36641,"is_reserved":false,"is_disabled":false,"rental_uris":{"android":"levelo://app?vid=4dca3eb4-b823-41a9-821c-cb5a0d742dcb","ios":"levelo://app?vid=4dca3eb4-b823-41a9-821c-cb5a0d742dcb"},"vehicle_type_id":"4","last_reported":1746047383,"current_range_meters":16400,"station_id":"ce4bhap2rcd13ifvqek0","pricing_plan_id":"cebpf4jnsgd1na2vs0mg"},{"bike_id":"d40ff685-bbf1-4e39-99e9-156007dd5d0a","system_id":"levelo_inurba_marseille","lat":43.2928,"lon":5.38442,"is_reserved":false,"is_disabled":false,"rental_uris":{"android":"levelo://app?vid=d40ff685-bbf1-4e39-99e9-156007dd5d0a","ios":"levelo://app?vid=d40ff685-bbf1-4e39-99e9-156007dd5d0a"},"vehicle_type_id":"4","last_reported":1746047383,"current_range_meters":16800,"station_id":"ce4bh692rcd13ifvqea0","pricing_plan_id":"cebpf4jnsgd1na2vs0mg"},{"bike_id":"3dface62-a694-436c-aff8-0f4ae1ce3b56","system_id":"levelo_inurba_marseille","lat":43.29423,"lon":5.3862,"is_reserved":false,"is_disabled":false,"rental_uris":{"android":"levelo://app?vid=3dface62-a694-436c-aff8-0f4ae1ce3b56","ios":"levelo://app?vid=3dface62-a694-436c-aff8-0f4ae1ce3b56"},"vehicle_type_id":"4","last_reported":1746047383,"current_range_meters":16800,"station_id":"ce4bh2h2rcd13ifvqdh0","pricing_plan_id":"cebpf4jnsgd1na2vs0mg"},{"bike_id":"e6f71778-26cd-4490-ad52-44804fbfd189","system_id":"levelo_inurba_marseille","lat":43.31266,"lon":5.40164,"is_reserved":false,"is_disabled":false,"rental_uris":{"android":"levelo://app?vid=e6f71778-26cd-4490-ad52-44804fbfd189","ios":"levelo://app?vid=e6f71778-26cd-4490-ad52-44804fbfd189"},"vehicle_type_id":"4","last_reported":1746047383,"current_range_meters":16800,"station_id":"ce4bh092rcd13ifvqd30","pricing_plan_id":"cebpf4jnsgd1na2vs0mg"},{"bike_id":"dc2dfdc7-73a2-4f18-837a-0677b3a23fbe","system_id":"levelo_inurba_marseille","lat":43.33582,"lon":5.40984,"is_reserved":false,"is_disabled":false,"rental_uris":{"android":"levelo://app?vid=dc2dfdc7-73a2-4f18-837a-0677b3a23fbe","ios":"levelo://app?vid=dc2dfdc7-73a2-4f18-837a-0677b3a23fbe"},"vehicle_type_id":"4","last_reported":1746047383,"current_range_meters":16800,"station_id":"ce4bhqh2rcd13ifvqhmg","pricing_plan_id":"cebpf4jnsgd1na2vs0mg"},{"bike_id":"f02ae64c-9233-4a17-8305-23ebd345c78b","system_id":"levelo_inurba_marseille","lat":43.23184,"lon":5.3999,"is_reserved":false,"is_disabled":false,"rental_uris":{"android":"levelo://app?vid=f02ae64c-9233-4a17-8305-23ebd345c78b","ios":"levelo://app?vid=f02ae64c-9233-4a17-8305-23ebd345c78b"},"vehicle_type_id":"4","last_reported":1746047383,"current_range_meters":16800,"station_id":"ce4bhn12rcd13ifvqgqg","pricing_plan_id":"cebpf4jnsgd1na2vs0mg"},{"bike_id":"2bdfce85-fba4-41dd-be40-5aeeffd31337","system_id":"levelo_inurba_marseille","lat":43.3089,"lon":5.39652,"is_reserved":false,"is_disabled":false,"rental_uris":{"android":"levelo://app?vid=2bdfce85-fba4-41dd-be40-5aeeffd31337","ios":"levelo://app?vid=2bdfce85-fba4-41dd-be40-5aeeffd31337"},"vehicle_type_id":"4","last_reported":1746047383,"current_range_meters":17200,"station_id":"ce4bh012rcd13ifvqcv0","pricing_plan_id":"cebpf4jnsgd1na2vs0mg"},{"bike_id":"d3afd9d2-5378-47a2-a6af-fb0628d9adb5","system_id":"levelo_inurba_marseille","lat":43.287186,"lon":5.379418,"is_reserved":false,"is_disabled":false,"rental_uris":{"android":"levelo://app?vid=d3afd9d2-5378-47a2-a6af-fb0628d9adb5","ios":"levelo://app?vid=d3afd9d2-5378-47a2-a6af-fb0628d9adb5"},"vehicle_type_id":"4","last_reported":1746047383,"current_range_meters":17200,"station_id":"ce4bh9p2rcd13ifvqec0","pricing_plan_id":"cebpf4jnsgd1na2vs0mg"},{"bike_id":"b58385b2-d1b2-4ecc-af75-eb7cf4772905","system_id":"levelo_inurba_marseille","lat":43.23052,"lon":5.355,"is_reserved":false,"is_disabled":false,"rental_uris":{"android":"levelo://app?vid=b58385b2-d1b2-4ecc-af75-eb7cf4772905","ios":"levelo://app?vid=b58385b2-d1b2-4ecc-af75-eb7cf4772905"},"vehicle_type_id":"4","last_reported":1746047383,"current_range_meters":17200,"station_id":"cpo3342slgdg3j2ifvpg","pricing_plan_id":"cebpf4jnsgd1na2vs0mg"},{"bike_id":"9f73fe15-7e21-4cf5-87a8-8172a83fced2","system_id":"levelo_inurba_marseille","lat":43.29414,"lon":5.38629,"is_reserved":false,"is_disabled":false,"rental_uris":{"android":"levelo://app?vid=9f73fe15-7e21-4cf5-87a8-8172a83fced2","ios":"levelo://app?vid=9f73fe15-7e21-4cf5-87a8-8172a83fced2"},"vehicle_type_id":"4","last_reported":1746047383,"current_range_meters":17200,"station_id":"ce4bh2h2rcd13ifvqdh0","pricing_plan_id":"cebpf4jnsgd1na2vs0mg"},{"bike_id":"f66e6f27-7b7b-4acc-851f-9282d5fc4614","system_id":"levelo_inurba_marseille","lat":43.24181,"lon":5.39732,"is_reserved":false,"is_disabled":false,"rental_uris":{"android":"levelo://app?vid=f66e6f27-7b7b-4acc-851f-9282d5fc4614","ios":"levelo://app?vid=f66e6f27-7b7b-4acc-851f-9282d5fc4614"},"vehicle_type_id":"4","last_reported":1746047383,"current_range_meters":17200,"station_id":"ce4bhn12rcd13ifvqgpg","pricing_plan_id":"cebpf4jnsgd1na2vs0mg"},{"bike_id":"3ded7a41-ced1-4ad5-adb2-c2df2e3cd232","system_id":"levelo_inurba_marseille","lat":43.29454,"lon":5.38596,"is_reserved":false,"is_disabled":false,"rental_uris":{"android":"levelo://app?vid=3ded7a41-ced1-4ad5-adb2-c2df2e3cd232","ios":"levelo://app?vid=3ded7a41-ced1-4ad5-adb2-c2df2e3cd232"},"vehicle_type_id":"4","last_reported":1746047383,"current_range_meters":17200,"station_id":"","pricing_plan_id":"cebpf4jnsgd1na2vs0mg"},{"bike_id":"f28d7bc7-727d-46d3-9fec-f44ca6657df2","system_id":"levelo_inurba_marseille","lat":43.305987,"lon":5.37224,"is_reserved":false,"is_disabled":false,"rental_uris":{"android":"levelo://app?vid=f28d7bc7-727d-46d3-9fec-f44ca6657df2","ios":"levelo://app?vid=f28d7bc7-727d-46d3-9fec-f44ca6657df2"},"vehicle_type_id":"4","last_reported":1746047383,"current_range_meters":17600,"station_id":"ce4bgqh2rcd13ifvqc4g","pricing_plan_id":"cebpf4jnsgd1na2vs0mg"},{"bike_id":"f31cf561-fb27-4851-9675-924b8050004c","system_id":"levelo_inurba_marseille","lat":43.3107,"lon":5.38355,"is_reserved":false,"is_disabled":false,"rental_uris":{"android":"levelo://app?vid=f31cf561-fb27-4851-9675-924b8050004c","ios":"levelo://app?vid=f31cf561-fb27-4851-9675-924b8050004c"},"vehicle_type_id":"4","last_reported":1746047383,"current_range_meters":17600,"station_id":"ce4bgv92rcd13ifvqcr0","pricing_plan_id":"cebpf4jnsgd1na2vs0mg"},{"bike_id":"413f39c6-7ca3-45d5-be5d-70f39cfcc323","system_id":"levelo_inurba_marseille","lat":43.292557,"lon":5.40109,"is_reserved":false,"is_disabled":false,"rental_uris":{"android":"levelo://app?vid=413f39c6-7ca3-45d5-be5d-70f39cfcc323","ios":"levelo://app?vid=413f39c6-7ca3-45d5-be5d-70f39cfcc323"},"vehicle_type_id":"4","last_reported":1746047383,"current_range_meters":17600,"station_id":"ce4bh312rcd13ifvqdk0","pricing_plan_id":"cebpf4jnsgd1na2vs0mg"},{"bike_id":"e14f59a5-0222-4844-97b7-07de15de0abb","system_id":"levelo_inurba_marseille","lat":43.30608,"lon":5.3722,"is_reserved":false,"is_disabled":false,"rental_uris":{"android":"levelo://app?vid=e14f59a5-0222-4844-97b7-07de15de0abb","ios":"levelo://app?vid=e14f59a5-0222-4844-97b7-07de15de0abb"},"vehicle_type_id":"4","last_reported":1746047383,"current_range_meters":17600,"station_id":"ce4bgqh2rcd13ifvqc4g","pricing_plan_id":"cebpf4jnsgd1na2vs0mg"},{"bike_id":"51fab5ef-a00d-4e32-90af-91019d86dee9","system_id":"levelo_inurba_marseille","lat":43.31991,"lon":5.38142,"is_reserved":false,"is_disabled":true,"rental_uris":{"android":"levelo://app?vid=51fab5ef-a00d-4e32-90af-91019d86dee9","ios":"levelo://app?vid=51fab5ef-a00d-4e32-90af-91019d86dee9"},"vehicle_type_id":"4","last_reported":1746047383,"current_range_meters":17600,"station_id":"ce4bhr12rcd13ifvqhpg","pricing_plan_id":"cebpf4jnsgd1na2vs0mg"},{"bike_id":"786166d0-aac0-4d6b-b2f4-0f6ac31d8e55","system_id":"levelo_inurba_marseille","lat":43.29417,"lon":5.38608,"is_reserved":false,"is_disabled":false,"rental_uris":{"android":"levelo://app?vid=786166d0-aac0-4d6b-b2f4-0f6ac31d8e55","ios":"levelo://app?vid=786166d0-aac0-4d6b-b2f4-0f6ac31d8e55"},"vehicle_type_id":"4","last_reported":1746047383,"current_range_meters":17600,"station_id":"ce4bh2h2rcd13ifvqdh0","pricing_plan_id":"cebpf4jnsgd1na2vs0mg"},{"bike_id":"8f4970de-79c2-437f-90ce-14ac9bd46e5c","system_id":"levelo_inurba_marseille","lat":43.31066,"lon":5.38351,"is_reserved":false,"is_disabled":false,"rental_uris":{"android":"levelo://app?vid=8f4970de-79c2-437f-90ce-14ac9bd46e5c","ios":"levelo://app?vid=8f4970de-79c2-437f-90ce-14ac9bd46e5c"},"vehicle_type_id":"4","last_reported":1746047383,"current_range_meters":17600,"station_id":"ce4bgv92rcd13ifvqcr0","pricing_plan_id":"cebpf4jnsgd1na2vs0mg"},{"bike_id":"49b7fc22-ecd2-470a-8566-04a7acca8396","system_id":"levelo_inurba_marseille","lat":43.29544,"lon":5.3852,"is_reserved":false,"is_disabled":false,"rental_uris":{"android":"levelo://app?vid=49b7fc22-ecd2-470a-8566-04a7acca8396","ios":"levelo://app?vid=49b7fc22-ecd2-470a-8566-04a7acca8396"},"vehicle_type_id":"4","last_reported":1746047383,"current_range_meters":17600,"station_id":"ce4bgih2rcd13ifvqba0","pricing_plan_id":"cebpf4jnsgd1na2vs0mg"},{"bike_id":"2e1ce04f-74c7-4d68-a96b-b9dc1d6897ee","system_id":"levelo_inurba_marseille","lat":43.32291,"lon":5.382732,"is_reserved":false,"is_disabled":false,"rental_uris":{"android":"levelo://app?vid=2e1ce04f-74c7-4d68-a96b-b9dc1d6897ee","ios":"levelo://app?vid=2e1ce04f-74c7-4d68-a96b-b9dc1d6897ee"},"vehicle_type_id":"4","last_reported":1746047383,"current_range_meters":17600,"station_id":"ce4bhr12rcd13ifvqhqg","pricing_plan_id":"cebpf4jnsgd1na2vs0mg"},{"bike_id":"4001bfaf-11c2-4941-9d0e-f5fadebe777e","system_id":"levelo_inurba_marseille","lat":43.29517,"lon":5.39044,"is_reserved":false,"is_disabled":false,"rental_uris":{"android":"levelo://app?vid=4001bfaf-11c2-4941-9d0e-f5fadebe777e","ios":"levelo://app?vid=4001bfaf-11c2-4941-9d0e-f5fadebe777e"},"vehicle_type_id":"4","last_reported":1746047383,"current_range_meters":17600,"station_id":"ce4bh3p2rcd13ifvqdp0","pricing_plan_id":"cebpf4jnsgd1na2vs0mg"},{"bike_id":"230b2ca3-9fc9-472f-8ec8-acf2c0a33de4","system_id":"levelo_inurba_marseille","lat":43.25728,"lon":5.41104,"is_reserved":false,"is_disabled":false,"rental_uris":{"android":"levelo://app?vid=230b2ca3-9fc9-472f-8ec8-acf2c0a33de4","ios":"levelo://app?vid=230b2ca3-9fc9-472f-8ec8-acf2c0a33de4"},"vehicle_type_id":"4","last_reported":1746047383,"current_range_meters":17600,"station_id":"ce4bhkp2rcd13ifvqgd0","pricing_plan_id":"cebpf4jnsgd1na2vs0mg"},{"bike_id":"705b35ad-199c-47d6-b72f-97a6591df218","system_id":"levelo_inurba_marseille","lat":43.3133,"lon":5.39696,"is_reserved":false,"is_disabled":false,"rental_uris":{"android":"levelo://app?vid=705b35ad-199c-47d6-b72f-97a6591df218","ios":"levelo://app?vid=705b35ad-199c-47d6-b72f-97a6591df218"},"vehicle_type_id":"4","last_reported":1746047383,"current_range_meters":17200,"station_id":"ce4bgvp2rcd13ifvqcu0","pricing_plan_id":"cebpf4jnsgd1na2vs0mg"},{"bike_id":"d59ee74e-724b-40fe-b387-5a20ee1e48d1","system_id":"levelo_inurba_marseille","lat":43.29248,"lon":5.40902,"is_reserved":false,"is_disabled":false,"rental_uris":{"android":"levelo://app?vid=d59ee74e-724b-40fe-b387-5a20ee1e48d1","ios":"levelo://app?vid=d59ee74e-724b-40fe-b387-5a20ee1e48d1"},"vehicle_type_id":"4","last_reported":1746047383,"current_range_meters":17600,"station_id":"ce4bh192rcd13ifvqdc0","pricing_plan_id":"cebpf4jnsgd1na2vs0mg"},{"bike_id":"41743f24-8e4e-45ce-9d01-3ee92166f200","system_id":"levelo_inurba_marseille","lat":43.30766,"lon":5.37655,"is_reserved":false,"is_disabled":false,"rental_uris":{"android":"levelo://app?vid=41743f24-8e4e-45ce-9d01-3ee92166f200","ios":"levelo://app?vid=41743f24-8e4e-45ce-9d01-3ee92166f200"},"vehicle_type_id":"4","last_reported":1746047383,"current_range_meters":18000,"station_id":"ce4bgv92rcd13ifvqcq0","pricing_plan_id":"cebpf4jnsgd1na2vs0mg"},{"bike_id":"e04d8849-6803-4a6a-8b19-f0f319b80140","system_id":"levelo_inurba_marseille","lat":43.29545,"lon":5.38524,"is_reserved":false,"is_disabled":false,"rental_uris":{"android":"levelo://app?vid=e04d8849-6803-4a6a-8b19-f0f319b80140","ios":"levelo://app?vid=e04d8849-6803-4a6a-8b19-f0f319b80140"},"vehicle_type_id":"4","last_reported":1746047383,"current_range_meters":18000,"station_id":"ce4bgih2rcd13ifvqba0","pricing_plan_id":"cebpf4jnsgd1na2vs0mg"},{"bike_id":"b1b4d74f-092b-476b-abae-f60870c92748","system_id":"levelo_inurba_marseille","lat":43.25105,"lon":5.39527,"is_reserved":false,"is_disabled":false,"rental_uris":{"android":"levelo://app?vid=b1b4d74f-092b-476b-abae-f60870c92748","ios":"levelo://app?vid=b1b4d74f-092b-476b-abae-f60870c92748"},"vehicle_type_id":"4","last_reported":1746047383,"current_range_meters":18000,"station_id":"ce4bhm12rcd13ifvqgkg","pricing_plan_id":"cebpf4jnsgd1na2vs0mg"},{"bike_id":"486e3137-cb9e-4085-8e47-f0813ef8f535","system_id":"levelo_inurba_marseille","lat":43.29415,"lon":5.3862,"is_reserved":false,"is_disabled":false,"rental_uris":{"android":"levelo://app?vid=486e3137-cb9e-4085-8e47-f0813ef8f535","ios":"levelo://app?vid=486e3137-cb9e-4085-8e47-f0813ef8f535"},"vehicle_type_id":"4","last_reported":1746047383,"current_range_meters":18000,"station_id":"ce4bh2h2rcd13ifvqdh0","pricing_plan_id":"cebpf4jnsgd1na2vs0mg"},{"bike_id":"e490e781-4e5c-4d62-81cb-ee817f47c33d","system_id":"levelo_inurba_marseille","lat":43.292547,"lon":5.38441,"is_reserved":false,"is_disabled":false,"rental_uris":{"android":"levelo://app?vid=e490e781-4e5c-4d62-81cb-ee817f47c33d","ios":"levelo://app?vid=e490e781-4e5c-4d62-81cb-ee817f47c33d"},"vehicle_type_id":"4","last_reported":1746047383,"current_range_meters":18000,"station_id":"ce4bh692rcd13ifvqea0","pricing_plan_id":"cebpf4jnsgd1na2vs0mg"},{"bike_id":"c8581763-0ce2-4bab-ab9e-b4108eaa2ed7","system_id":"levelo_inurba_marseille","lat":43.3236,"lon":5.38876,"is_reserved":false,"is_disabled":false,"rental_uris":{"android":"levelo://app?vid=c8581763-0ce2-4bab-ab9e-b4108eaa2ed7","ios":"levelo://app?vid=c8581763-0ce2-4bab-ab9e-b4108eaa2ed7"},"vehicle_type_id":"4","last_reported":1746047383,"current_range_meters":18000,"station_id":"ce4bhqp2rcd13ifvqhog","pricing_plan_id":"cebpf4jnsgd1na2vs0mg"},{"bike_id":"e7ffe102-def9-44df-ab08-bcf2bfb76907","system_id":"levelo_inurba_marseille","lat":43.29602,"lon":5.37699,"is_reserved":false,"is_disabled":true,"rental_uris":{"android":"levelo://app?vid=e7ffe102-def9-44df-ab08-bcf2bfb76907","ios":"levelo://app?vid=e7ffe102-def9-44df-ab08-bcf2bfb76907"},"vehicle_type_id":"4","last_reported":1746047383,"current_range_meters":18000,"station_id":"ce4bgi92rcd13ifvqb90","pricing_plan_id":"cebpf4jnsgd1na2vs0mg"},{"bike_id":"d7ba89d0-fc18-4530-aa32-d16c667a0ab7","system_id":"levelo_inurba_marseille","lat":43.26785,"lon":5.3942,"is_reserved":false,"is_disabled":false,"rental_uris":{"android":"levelo://app?vid=d7ba89d0-fc18-4530-aa32-d16c667a0ab7","ios":"levelo://app?vid=d7ba89d0-fc18-4530-aa32-d16c667a0ab7"},"vehicle_type_id":"4","last_reported":1746047383,"current_range_meters":18000,"station_id":"ce4bhh12rcd13ifvqfg0","pricing_plan_id":"cebpf4jnsgd1na2vs0mg"},{"bike_id":"95c3dd5c-cef1-41dc-b629-55456e3b174a","system_id":"levelo_inurba_marseille","lat":43.29521,"lon":5.39037,"is_reserved":false,"is_disabled":false,"rental_uris":{"android":"levelo://app?vid=95c3dd5c-cef1-41dc-b629-55456e3b174a","ios":"levelo://app?vid=95c3dd5c-cef1-41dc-b629-55456e3b174a"},"vehicle_type_id":"4","last_reported":1746047383,"current_range_meters":18800,"station_id":"ce4bh3p2rcd13ifvqdp0","pricing_plan_id":"cebpf4jnsgd1na2vs0mg"},{"bike_id":"d3332ce4-7f7d-49b5-927d-e2384d57aaba","system_id":"levelo_inurba_marseille","lat":43.2942,"lon":5.38609,"is_reserved":false,"is_disabled":false,"rental_uris":{"android":"levelo://app?vid=d3332ce4-7f7d-49b5-927d-e2384d57aaba","ios":"levelo://app?vid=d3332ce4-7f7d-49b5-927d-e2384d57aaba"},"vehicle_type_id":"4","last_reported":1746047383,"current_range_meters":18800,"station_id":"ce4bh2h2rcd13ifvqdh0","pricing_plan_id":"cebpf4jnsgd1na2vs0mg"},{"bike_id":"720a7497-7d47-4937-b692-3ff985eea001","system_id":"levelo_inurba_marseille","lat":43.30923,"lon":5.40145,"is_reserved":false,"is_disabled":false,"rental_uris":{"android":"levelo://app?vid=720a7497-7d47-4937-b692-3ff985eea001","ios":"levelo://app?vid=720a7497-7d47-4937-b692-3ff985eea001"},"vehicle_type_id":"4","last_reported":1746047383,"current_range_meters":18000,"station_id":"ce4bgvp2rcd13ifvqct0","pricing_plan_id":"cebpf4jnsgd1na2vs0mg"},{"bike_id":"43867603-928e-41b2-8231-f77358aea63d","system_id":"levelo_inurba_marseille","lat":43.27814,"lon":5.4071,"is_reserved":false,"is_disabled":false,"rental_uris":{"android":"levelo://app?vid=43867603-928e-41b2-8231-f77358aea63d","ios":"levelo://app?vid=43867603-928e-41b2-8231-f77358aea63d"},"vehicle_type_id":"4","last_reported":1746047383,"current_range_meters":18800,"station_id":"ce4bhnh2rcd13ifvqgtg","pricing_plan_id":"cebpf4jnsgd1na2vs0mg"},{"bike_id":"afcfc311-5904-4981-aa11-cdbf8a3ed35c","system_id":"levelo_inurba_marseille","lat":43.31756,"lon":5.39026,"is_reserved":false,"is_disabled":false,"rental_uris":{"android":"levelo://app?vid=afcfc311-5904-4981-aa11-cdbf8a3ed35c","ios":"levelo://app?vid=afcfc311-5904-4981-aa11-cdbf8a3ed35c"},