{"last_updated":1752304238,"ttl":60,"version":"2.2","data":{"bikes":[{"bike_id":"bc0ba58e-06a3-432d-8c35-ebe9130c41f9","system_id":"levelo_inurba_marseille","lat":43.337444,"lon":5.374475,"is_reserved":false,"is_disabled":true,"rental_uris":{"android":"levelo://app?vid=bc0ba58e-06a3-432d-8c35-ebe9130c41f9","ios":"levelo://app?vid=bc0ba58e-06a3-432d-8c35-ebe9130c41f9"},"vehicle_type_id":"4","last_reported":1752304238,"current_range_meters":2800,"station_id":"","pricing_plan_id":"cebpf4jnsgd1na2vs0mg"},{"bike_id":"b757ffbb-2b71-4330-9f60-5f8a9d46d16e","system_id":"levelo_inurba_marseille","lat":43.29625,"lon":5.37106,"is_reserved":false,"is_disabled":false,"rental_uris":{"android":"levelo://app?vid=b757ffbb-2b71-4330-9f60-5f8a9d46d16e","ios":"levelo://app?vid=b757ffbb-2b71-4330-9f60-5f8a9d46d16e"},"vehicle_type_id":"4","last_reported":1752304238,"current_range_meters":3600,"station_id":"ce4bgnh2rcd13ifvqc0g","pricing_plan_id":"cebpf4jnsgd1na2vs0mg"},{"bike_id":"e50ea421-fc12-4a84-81b4-03ef6594894d","system_id":"levelo_inurba_marseille","lat":43.304661,"lon":5.379045,"is_reserved":false,"is_disabled":false,"rental_uris":{"android":"levelo://app?vid=e50ea421-fc12-4a84-81b4-03ef6594894d","ios":"levelo://app?vid=e50ea421-fc12-4a84-81b4-03ef6594894d"},"vehicle_type_id":"4","last_reported":1752304238,"current_range_meters":4800,"station_id":"","pricing_plan_id":"cebpf4jnsgd1na2vs0mg"},{"bike_id":"a2fed8e4-ebd8-41a1-a958-a75f7d637256","system_id":"levelo_inurba_marseille","lat":43.2649,"lon":5.3954,"is_reserved":false,"is_disabled":false,"rental_uris":{"android":"levelo://app?vid=a2fed8e4-ebd8-41a1-a958-a75f7d637256","ios":"levelo://app?vid=a2fed8e4-ebd8-41a1-a958-a75f7d637256"},"vehicle_type_id":"4","last_reported":1752304238,"current_range_meters":6000,"station_id":"ce4bhi12rcd13ifvqfq0","pricing_plan_id":"cebpf4jnsgd1na2vs0mg"},{"bike_id":"d8f33195-93cb-4919-8fab-bd796498b905","system_id":"levelo_inurba_marseille","lat":43.265664,"lon":5.390058,"is_reserved":false,"is_disabled":true,"rental_uris":{"android":"levelo://app?vid=d8f33195-93cb-4919-8fab-bd796498b905","ios":"levelo://app?vid=d8f33195-93cb-4919-8fab-bd796498b905"},"vehicle_type_id":"4","last_reported":1752304238,"current_range_meters":6400,"station_id":"ce4bhe12rcd13ifvqf30","pricing_plan_id":"cebpf4jnsgd1na2vs0mg"},{"bike_id":"a311d1f6-bdbd-49ee-8899-89dae70d160d","system_id":"levelo_inurba_marseille","lat":43.29228,"lon":5.36055,"is_reserved":false,"is_disabled":false,"rental_uris":{"android":"levelo://app?vid=a311d1f6-bdbd-49ee-8899-89dae70d160d","ios":"levelo://app?vid=a311d1f6-bdbd-49ee-8899-89dae70d160d"},"vehicle_type_id":"4","last_reported":1752304238,"current_range_meters":6400,"station_id":"ce4bhbh2rcd13ifvqeqg","pricing_plan_id":"cebpf4jnsgd1na2vs0mg"},{"bike_id":"80572c0e-dd76-4996-8857-92f8eabf8fca","system_id":"levelo_inurba_marseille","lat":43.310807,"lon":5.38345,"is_reserved":false,"is_disabled":false,"rental_uris":{"android":"levelo://app?vid=80572c0e-dd76-4996-8857-92f8eabf8fca","ios":"levelo://app?vid=80572c0e-dd76-4996-8857-92f8eabf8fca"},"vehicle_type_id":"4","last_reported":1752304238,"current_range_meters":6400,"station_id":"ce4bgv92rcd13ifvqcr0","pricing_plan_id":"cebpf4jnsgd1na2vs0mg"},{"bike_id":"8a8548c8-5024-4ee6-ba3e-a02d35e313f5","system_id":"levelo_inurba_marseille","lat":43.28598,"lon":5.37053,"is_reserved":false,"is_disabled":false,"rental_uris":{"android":"levelo://app?vid=8a8548c8-5024-4ee6-ba3e-a02d35e313f5","ios":"levelo://app?vid=8a8548c8-5024-4ee6-ba3e-a02d35e313f5"},"vehicle_type_id":"4","last_reported":1752304238,"current_range_meters":6800,"station_id":"ce4bht12rcd13ifvqi60","pricing_plan_id":"cebpf4jnsgd1na2vs0mg"},{"bike_id":"d0b2f91f-f932-4108-bb92-cbc66a1919aa","system_id":"levelo_inurba_marseille","lat":43.29299,"lon":5.37407,"is_reserved":false,"is_disabled":false,"rental_uris":{"android":"levelo://app?vid=d0b2f91f-f932-4108-bb92-cbc66a1919aa","ios":"levelo://app?vid=d0b2f91f-f932-4108-bb92-cbc66a1919aa"},"vehicle_type_id":"4","last_reported":1752304238,"current_range_meters":6800,"station_id":"ce4bgi12rcd13ifvqb70","pricing_plan_id":"cebpf4jnsgd1na2vs0mg"},{"bike_id":"4edff1c0-26ae-4c39-9bc5-1e6f32f2d248","system_id":"levelo_inurba_marseille","lat":43.27971,"lon":5.3873,"is_reserved":false,"is_disabled":false,"rental_uris":{"android":"levelo://app?vid=4edff1c0-26ae-4c39-9bc5-1e6f32f2d248","ios":"levelo://app?vid=4edff1c0-26ae-4c39-9bc5-1e6f32f2d248"},"vehicle_type_id":"4","last_reported":1752304238,"current_range_meters":6800,"station_id":"ce4bhg12rcd13ifvqf80","pricing_plan_id":"cebpf4jnsgd1na2vs0mg"},{"bike_id":"2711e2df-4467-499e-8fe3-b15ecca6968c","system_id":"levelo_inurba_marseille","lat":43.30691,"lon":5.40064,"is_reserved":false,"is_disabled":true,"rental_uris":{"android":"levelo://app?vid=2711e2df-4467-499e-8fe3-b15ecca6968c","ios":"levelo://app?vid=2711e2df-4467-499e-8fe3-b15ecca6968c"},"vehicle_type_id":"4","last_reported":1752304238,"current_range_meters":6800,"station_id":"","pricing_plan_id":"cebpf4jnsgd1na2vs0mg"},{"bike_id":"b4544312-64e4-4dd2-bd6d-e1d3f6243b40","system_id":"levelo_inurba_marseille","lat":43.28872,"lon":5.38444,"is_reserved":false,"is_disabled":false,"rental_uris":{"android":"levelo://app?vid=b4544312-64e4-4dd2-bd6d-e1d3f6243b40","ios":"levelo://app?vid=b4544312-64e4-4dd2-bd6d-e1d3f6243b40"},"vehicle_type_id":"4","last_reported":1752304238,"current_range_meters":7200,"station_id":"","pricing_plan_id":"cebpf4jnsgd1na2vs0mg"},{"bike_id":"eea44b83-c165-49dd-a23a-29cb59d8d866","system_id":"levelo_inurba_marseille","lat":43.308282,"lon":5.374133,"is_reserved":false,"is_disabled":false,"rental_uris":{"android":"levelo://app?vid=eea44b83-c165-49dd-a23a-29cb59d8d866","ios":"levelo://app?vid=eea44b83-c165-49dd-a23a-29cb59d8d866"},"vehicle_type_id":"4","last_reported":1752304238,"current_range_meters":8000,"station_id":"","pricing_plan_id":"cebpf4jnsgd1na2vs0mg"},{"bike_id":"770f6277-795c-462e-bace-52e3417d22c8","system_id":"levelo_inurba_marseille","lat":43.29599,"lon":5.36706,"is_reserved":false,"is_disabled":false,"rental_uris":{"android":"levelo://app?vid=770f6277-795c-462e-bace-52e3417d22c8","ios":"levelo://app?vid=770f6277-795c-462e-bace-52e3417d22c8"},"vehicle_type_id":"4","last_reported":1752304238,"current_range_meters":8000,"station_id":"","pricing_plan_id":"cebpf4jnsgd1na2vs0mg"},{"bike_id":"ac6fa144-a58e-4c9c-88eb-747201fb9c31","system_id":"levelo_inurba_marseille","lat":43.30771,"lon":5.39306,"is_reserved":false,"is_disabled":false,"rental_uris":{"android":"levelo://app?vid=ac6fa144-a58e-4c9c-88eb-747201fb9c31","ios":"levelo://app?vid=ac6fa144-a58e-4c9c-88eb-747201fb9c31"},"vehicle_type_id":"4","last_reported":1752304238,"current_range_meters":8000,"station_id":"","pricing_plan_id":"cebpf4jnsgd1na2vs0mg"},{"bike_id":"4e209b0c-855f-4b51-8120-2faef8673853","system_id":"levelo_inurba_marseille","lat":43.30595,"lon":5.36893,"is_reserved":false,"is_disabled":false,"rental_uris":{"android":"levelo://app?vid=4e209b0c-855f-4b51-8120-2faef8673853","ios":"levelo://app?vid=4e209b0c-855f-4b51-8120-2faef8673853"},"vehicle_type_id":"4","last_reported":1752304238,"current_range_meters":8000,"station_id":"","pricing_plan_id":"cebpf4jnsgd1na2vs0mg"},{"bike_id":"5a7b57ef-a00d-4d19-853c-d49c119db95f","system_id":"levelo_inurba_marseille","lat":43.24566,"lon":5.3734,"is_reserved":false,"is_disabled":true,"rental_uris":{"android":"levelo://app?vid=5a7b57ef-a00d-4d19-853c-d49c119db95f","ios":"levelo://app?vid=5a7b57ef-a00d-4d19-853c-d49c119db95f"},"vehicle_type_id":"4","last_reported":1752304238,"current_range_meters":8400,"station_id":"","pricing_plan_id":"cebpf4jnsgd1na2vs0mg"},{"bike_id":"e3e456c4-b90b-4273-a549-897888733807","system_id":"levelo_inurba_marseille","lat":43.33018,"lon":5.39024,"is_reserved":false,"is_disabled":true,"rental_uris":{"android":"levelo://app?vid=e3e456c4-b90b-4273-a549-897888733807","ios":"levelo://app?vid=e3e456c4-b90b-4273-a549-897888733807"},"vehicle_type_id":"4","last_reported":1752304238,"current_range_meters":8400,"station_id":"ce4bhr92rcd13ifvqhrg","pricing_plan_id":"cebpf4jnsgd1na2vs0mg"},{"bike_id":"534ed68d-5ceb-43a8-968b-be30f01dfa74","system_id":"levelo_inurba_marseille","lat":43.282137,"lon":5.390277,"is_reserved":false,"is_disabled":false,"rental_uris":{"android":"levelo://app?vid=534ed68d-5ceb-43a8-968b-be30f01dfa74","ios":"levelo://app?vid=534ed68d-5ceb-43a8-968b-be30f01dfa74"},"vehicle_type_id":"4","last_reported":1752304238,"current_range_meters":8800,"station_id":"","pricing_plan_id":"cebpf4jnsgd1na2vs0mg"},{"bike_id":"278daf13-0941-4d34-8ed3-c9b7e44b03aa","system_id":"levelo_inurba_marseille","lat":43.28717,"lon":5.399755,"is_reserved":false,"is_disabled":false,"rental_uris":{"android":"levelo://app?vid=278daf13-0941-4d34-8ed3-c9b7e44b03aa","ios":"levelo://app?vid=278daf13-0941-4d34-8ed3-c9b7e44b03aa"},"vehicle_type_id":"4","last_reported":1752304238,"current_range_meters":8800,"station_id":"ce4bho92rcd13ifvqh3g","pricing_plan_id":"cebpf4jnsgd1na2vs0mg"},{"bike_id":"f6379f47-d054-43a8-bf41-72c2d3a2fa59","system_id":"levelo_inurba_marseille","lat":43.23968,"lon":5.36625,"is_reserved":false,"is_disabled":false,"rental_uris":{"android":"levelo://app?vid=f6379f47-d054-43a8-bf41-72c2d3a2fa59","ios":"levelo://app?vid=f6379f47-d054-43a8-bf41-72c2d3a2fa59"},"vehicle_type_id":"4","last_reported":1752304238,"current_range_meters":8800,"station_id":"ce4bhi12rcd13ifvqfp0","pricing_plan_id":"cebpf4jnsgd1na2vs0mg"},{"bike_id":"e83614b7-1234-4bc3-b14a-b5635492649e","system_id":"levelo_inurba_marseille","lat":43.28599,"lon":5.38537,"is_reserved":false,"is_disabled":false,"rental_uris":{"android":"levelo://app?vid=e83614b7-1234-4bc3-b14a-b5635492649e","ios":"levelo://app?vid=e83614b7-1234-4bc3-b14a-b5635492649e"},"vehicle_type_id":"4","last_reported":1752304238,"current_range_meters":8800,"station_id":"","pricing_plan_id":"cebpf4jnsgd1na2vs0mg"},{"bike_id":"12962c22-c999-46c4-b70d-26925ea9fc72","system_id":"levelo_inurba_marseille","lat":43.297393,"lon":5.383682,"is_reserved":false,"is_disabled":false,"rental_uris":{"android":"levelo://app?vid=12962c22-c999-46c4-b70d-26925ea9fc72","ios":"levelo://app?vid=12962c22-c999-46c4-b70d-26925ea9fc72"},"vehicle_type_id":"4","last_reported":1752304238,"current_range_meters":9200,"station_id":"","pricing_plan_id":"cebpf4jnsgd1na2vs0mg"},{"bike_id":"d849a247-c2c0-4619-bac8-f5a6994e0014","system_id":"levelo_inurba_marseille","lat":43.320434,"lon":5.415615,"is_reserved":false,"is_disabled":true,"rental_uris":{"android":"levelo://app?vid=d849a247-c2c0-4619-bac8-f5a6994e0014","ios":"levelo://app?vid=d849a247-c2c0-4619-bac8-f5a6994e0014"},"vehicle_type_id":"4","last_reported":1752304238,"current_range_meters":9600,"station_id":"ce4bhq92rcd13ifvqhkg","pricing_plan_id":"cebpf4jnsgd1na2vs0mg"},{"bike_id":"e5696315-21db-49f9-a755-4e3b5ae3ba6f","system_id":"levelo_inurba_marseille","lat":43.23209,"lon":5.39931,"is_reserved":false,"is_disabled":false,"rental_uris":{"android":"levelo://app?vid=e5696315-21db-49f9-a755-4e3b5ae3ba6f","ios":"levelo://app?vid=e5696315-21db-49f9-a755-4e3b5ae3ba6f"},"vehicle_type_id":"4","last_reported":1752304238,"current_range_meters":9600,"station_id":"ce4bhn12rcd13ifvqgqg","pricing_plan_id":"cebpf4jnsgd1na2vs0mg"},{"bike_id":"5d70b047-14f1-4779-a5ba-fbe84c8ac9c7","system_id":"levelo_inurba_marseille","lat":43.29524,"lon":5.37504,"is_reserved":false,"is_disabled":false,"rental_uris":{"android":"levelo://app?vid=5d70b047-14f1-4779-a5ba-fbe84c8ac9c7","ios":"levelo://app?vid=5d70b047-14f1-4779-a5ba-fbe84c8ac9c7"},"vehicle_type_id":"4","last_reported":1752304238,"current_range_meters":9600,"station_id":"ce4bgkp2rcd13ifvqbmg","pricing_plan_id":"cebpf4jnsgd1na2vs0mg"},{"bike_id":"e87ebf92-9f2a-47b1-a4d2-d4688fefaa87","system_id":"levelo_inurba_marseille","lat":43.3033,"lon":5.40426,"is_reserved":false,"is_disabled":false,"rental_uris":{"android":"levelo://app?vid=e87ebf92-9f2a-47b1-a4d2-d4688fefaa87","ios":"levelo://app?vid=e87ebf92-9f2a-47b1-a4d2-d4688fefaa87"},"vehicle_type_id":"4","last_reported":1752304238,"current_range_meters":10000,"station_id":"ce4bh012rcd13ifvqd10","pricing_plan_id":"cebpf4jnsgd1na2vs0mg"},{"bike_id":"24408ebf-8612-4df2-b491-b3f77a991042","system_id":"levelo_inurba_marseille","lat":43.31764,"lon":5.39014,"is_reserved":false,"is_disabled":false,"rental_uris":{"android":"levelo://app?vid=24408ebf-8612-4df2-b491-b3f77a991042","ios":"levelo://app?vid=24408ebf-8612-4df2-b491-b3f77a991042"},"vehicle_type_id":"4","last_reported":1752304238,"current_range_meters":10000,"station_id":"ce4bhqp2rcd13ifvqhng","pricing_plan_id":"cebpf4jnsgd1na2vs0mg"},{"bike_id":"6e44525d-ed45-445a-a877-081b94eb5813","system_id":"levelo_inurba_marseille","lat":43.30359,"lon":5.418819,"is_reserved":false,"is_disabled":true,"rental_uris":{"android":"levelo://app?vid=6e44525d-ed45-445a-a877-081b94eb5813","ios":"levelo://app?vid=6e44525d-ed45-445a-a877-081b94eb5813"},"vehicle_type_id":"4","last_reported":1752304238,"current_range_meters":10000,"station_id":"ce4bhop2rcd13ifvqh7g","pricing_plan_id":"cebpf4jnsgd1na2vs0mg"},{"bike_id":"163ff198-10fe-42e9-b633-a66267195e68","system_id":"levelo_inurba_marseille","lat":43.23189,"lon":5.39963,"is_reserved":false,"is_disabled":false,"rental_uris":{"android":"levelo://app?vid=163ff198-10fe-42e9-b633-a66267195e68","ios":"levelo://app?vid=163ff198-10fe-42e9-b633-a66267195e68"},"vehicle_type_id":"4","last_reported":1752304238,"current_range_meters":10000,"station_id":"ce4bhn12rcd13ifvqgqg","pricing_plan_id":"cebpf4jnsgd1na2vs0mg"},{"bike_id":"6145e0d4-1b01-4570-bfd0-4fe34ecb56a5","system_id":"levelo_inurba_marseille","lat":43.28436,"lon":5.39197,"is_reserved":false,"is_disabled":false,"rental_uris":{"android":"levelo://app?vid=6145e0d4-1b01-4570-bfd0-4fe34ecb56a5","ios":"levelo://app?vid=6145e0d4-1b01-4570-bfd0-4fe34ecb56a5"},"vehicle_type_id":"4","last_reported":1752304238,"current_range_meters":10000,"station_id":"ce4bhoh2rcd13ifvqh5g","pricing_plan_id":"cebpf4jnsgd1na2vs0mg"},{"bike_id":"e80e9a57-5e81-4b14-8bfd-dc924ee16f86","system_id":"levelo_inurba_marseille","lat":43.33593,"lon":5.41008,"is_reserved":false,"is_disabled":false,"rental_uris":{"android":"levelo://app?vid=e80e9a57-5e81-4b14-8bfd-dc924ee16f86","ios":"levelo://app?vid=e80e9a57-5e81-4b14-8bfd-dc924ee16f86"},"vehicle_type_id":"4","last_reported":1752304238,"current_range_meters":10000,"station_id":"ce4bhqh2rcd13ifvqhmg","pricing_plan_id":"cebpf4jnsgd1na2vs0mg"},{"bike_id":"46398dfb-c483-4a99-82e0-09eb86052d5b","system_id":"levelo_inurba_marseille","lat":43.284803,"lon":5.385871,"is_reserved":false,"is_disabled":false,"rental_uris":{"android":"levelo://app?vid=46398dfb-c483-4a99-82e0-09eb86052d5b","ios":"levelo://app?vid=46398dfb-c483-4a99-82e0-09eb86052d5b"},"vehicle_type_id":"4","last_reported":1752304238,"current_range_meters":10000,"station_id":"ce4bh8p2rcd13ifvqeb0","pricing_plan_id":"cebpf4jnsgd1na2vs0mg"},{"bike_id":"7392143f-a48d-4d17-918a-2d49b0cf2786","system_id":"levelo_inurba_marseille","lat":43.31705,"lon":5.40456,"is_reserved":false,"is_disabled":false,"rental_uris":{"android":"levelo://app?vid=7392143f-a48d-4d17-918a-2d49b0cf2786","ios":"levelo://app?vid=7392143f-a48d-4d17-918a-2d49b0cf2786"},"vehicle_type_id":"4","last_reported":1752304238,"current_range_meters":10000,"station_id":"ce4bh012rcd13ifvqd00","pricing_plan_id":"cebpf4jnsgd1na2vs0mg"},{"bike_id":"0347c305-338a-4b18-8ba1-13cff46275b3","system_id":"levelo_inurba_marseille","lat":43.27618,"lon":5.39298,"is_reserved":false,"is_disabled":true,"rental_uris":{"android":"levelo://app?vid=0347c305-338a-4b18-8ba1-13cff46275b3","ios":"levelo://app?vid=0347c305-338a-4b18-8ba1-13cff46275b3"},"vehicle_type_id":"4","last_reported":1752304238,"current_range_meters":10800,"station_id":"","pricing_plan_id":"cebpf4jnsgd1na2vs0mg"},{"bike_id":"395cc0f2-d8ba-4b1e-996e-4ac92fbd7b6d","system_id":"levelo_inurba_marseille","lat":43.29517,"lon":5.39041,"is_reserved":false,"is_disabled":false,"rental_uris":{"android":"levelo://app?vid=395cc0f2-d8ba-4b1e-996e-4ac92fbd7b6d","ios":"levelo://app?vid=395cc0f2-d8ba-4b1e-996e-4ac92fbd7b6d"},"vehicle_type_id":"4","last_reported":1752304238,"current_range_meters":10800,"station_id":"ce4bh3p2rcd13ifvqdp0","pricing_plan_id":"cebpf4jnsgd1na2vs0mg"},{"bike_id":"89cd6e1d-3397-4fa0-92b5-6e21be6f78ca","system_id":"levelo_inurba_marseille","lat":43.337444,"lon":5.374475,"is_reserved":false,"is_disabled":true,"rental_uris":{"android":"levelo://app?vid=89cd6e1d-3397-4fa0-92b5-6e21be6f78ca","ios":"levelo://app?vid=89cd6e1d-3397-4fa0-92b5-6e21be6f78ca"},"vehicle_type_id":"4","last_reported":1752304238,"current_range_meters":11200,"station_id":"","pricing_plan_id":"cebpf4jnsgd1na2vs0mg"},{"bike_id":"080f57f3-a8d5-4466-97ef-f4f40d547d09","system_id":"levelo_inurba_marseille","lat":43.31384,"lon":5.38508,"is_reserved":false,"is_disabled":false,"rental_uris":{"android":"levelo://app?vid=080f57f3-a8d5-4466-97ef-f4f40d547d09","ios":"levelo://app?vid=080f57f3-a8d5-4466-97ef-f4f40d547d09"},"vehicle_type_id":"4","last_reported":1752304238,"current_range_meters":11200,"station_id":"ce4bgt92rcd13ifvqcf0","pricing_plan_id":"cebpf4jnsgd1na2vs0mg"},{"bike_id":"fd9f5c27-5d58-42e5-badc-a12a0344229e","system_id":"levelo_inurba_marseille","lat":43.289114,"lon":5.360609,"is_reserved":false,"is_disabled":false,"rental_uris":{"android":"levelo://app?vid=fd9f5c27-5d58-42e5-badc-a12a0344229e","ios":"levelo://app?vid=fd9f5c27-5d58-42e5-badc-a12a0344229e"},"vehicle_type_id":"4","last_reported":1752304238,"current_range_meters":11200,"station_id":"","pricing_plan_id":"cebpf4jnsgd1na2vs0mg"},{"bike_id":"4d4b9e28-a4f6-4d45-ac6b-64a63a768bd8","system_id":"levelo_inurba_marseille","lat":43.315176,"lon":5.374175,"is_reserved":false,"is_disabled":false,"rental_uris":{"android":"levelo://app?vid=4d4b9e28-a4f6-4d45-ac6b-64a63a768bd8","ios":"levelo://app?vid=4d4b9e28-a4f6-4d45-ac6b-64a63a768bd8"},"vehicle_type_id":"4","last_reported":1752304238,"current_range_meters":11200,"station_id":"","pricing_plan_id":"cebpf4jnsgd1na2vs0mg"},{"bike_id":"595e9351-a7ce-45de-8995-771f7d9fe86e","system_id":"levelo_inurba_marseille","lat":43.309243,"lon":5.378088,"is_reserved":false,"is_disabled":false,"rental_uris":{"android":"levelo://app?vid=595e9351-a7ce-45de-8995-771f7d9fe86e","ios":"levelo://app?vid=595e9351-a7ce-45de-8995-771f7d9fe86e"},"vehicle_type_id":"4","last_reported":1752304238,"current_range_meters":11200,"station_id":"","pricing_plan_id":"cebpf4jnsgd1na2vs0mg"},{"bike_id":"647a1903-1834-4730-b34e-6397917620f0","system_id":"levelo_inurba_marseille","lat":43.316793,"lon":5.37024,"is_reserved":false,"is_disabled":true,"rental_uris":{"android":"levelo://app?vid=647a1903-1834-4730-b34e-6397917620f0","ios":"levelo://app?vid=647a1903-1834-4730-b34e-6397917620f0"},"vehicle_type_id":"4","last_reported":1752304238,"current_range_meters":11200,"station_id":"","pricing_plan_id":"cebpf4jnsgd1na2vs0mg"},{"bike_id":"292bc54f-50f3-45bc-8d2b-5b8ae70f99ce","system_id":"levelo_inurba_marseille","lat":43.275642,"lon":5.386525,"is_reserved":false,"is_disabled":false,"rental_uris":{"android":"levelo://app?vid=292bc54f-50f3-45bc-8d2b-5b8ae70f99ce","ios":"levelo://app?vid=292bc54f-50f3-45bc-8d2b-5b8ae70f99ce"},"vehicle_type_id":"4","last_reported":1752304238,"current_range_meters":11200,"station_id":"ce4bh4p2rcd13ifvqe1g","pricing_plan_id":"cebpf4jnsgd1na2vs0mg"},{"bike_id":"e3a75ee9-c614-467b-8cc2-f813bcef2ab1","system_id":"levelo_inurba_marseille","lat":43.33743,"lon":5.3919,"is_reserved":false,"is_disabled":false,"rental_uris":{"android":"levelo://app?vid=e3a75ee9-c614-467b-8cc2-f813bcef2ab1","ios":"levelo://app?vid=e3a75ee9-c614-467b-8cc2-f813bcef2ab1"},"vehicle_type_id":"4","last_reported":1752304238,"current_range_meters":11200,"station_id":"ce4bhr92rcd13ifvqhsg","pricing_plan_id":"cebpf4jnsgd1na2vs0mg"},{"bike_id":"eda0ea69-6404-43e6-9ede-2655d170d444","system_id":"levelo_inurba_marseille","lat":43.28808,"lon":5.35795,"is_reserved":false,"is_disabled":true,"rental_uris":{"android":"levelo://app?vid=eda0ea69-6404-43e6-9ede-2655d170d444","ios":"levelo://app?vid=eda0ea69-6404-43e6-9ede-2655d170d444"},"vehicle_type_id":"4","last_reported":1752304238,"current_range_meters":11200,"station_id":"ce4bhb12rcd13ifvqem0","pricing_plan_id":"cebpf4jnsgd1na2vs0mg"},{"bike_id":"ef698040-cffd-4a0c-9a91-bf557274de35","system_id":"levelo_inurba_marseille","lat":43.317094,"lon":5.377673,"is_reserved":false,"is_disabled":false,"rental_uris":{"android":"levelo://app?vid=ef698040-cffd-4a0c-9a91-bf557274de35","ios":"levelo://app?vid=ef698040-cffd-4a0c-9a91-bf557274de35"},"vehicle_type_id":"4","last_reported":1752304238,"current_range_meters":11600,"station_id":"ce4bgth2rcd13ifvqch0","pricing_plan_id":"cebpf4jnsgd1na2vs0mg"},{"bike_id":"7b5cd6ce-df57-4328-854d-cb2d1407ab18","system_id":"levelo_inurba_marseille","lat":43.330359,"lon":5.390474,"is_reserved":false,"is_disabled":false,"rental_uris":{"android":"levelo://app?vid=7b5cd6ce-df57-4328-854d-cb2d1407ab18","ios":"levelo://app?vid=7b5cd6ce-df57-4328-854d-cb2d1407ab18"},"vehicle_type_id":"4","last_reported":1752304238,"current_range_meters":11600,"station_id":"ce4bhr92rcd13ifvqhrg","pricing_plan_id":"cebpf4jnsgd1na2vs0mg"},{"bike_id":"ceb8bcf8-9e11-4102-bd78-9a687c0c96d2","system_id":"levelo_inurba_marseille","lat":43.289303,"lon":5.384053,"is_reserved":false,"is_disabled":false,"rental_uris":{"android":"levelo://app?vid=ceb8bcf8-9e11-4102-bd78-9a687c0c96d2","ios":"levelo://app?vid=ceb8bcf8-9e11-4102-bd78-9a687c0c96d2"},"vehicle_type_id":"4","last_reported":1752304238,"current_range_meters":12000,"station_id":"ce4bh612rcd13ifvqe6g","pricing_plan_id":"cebpf4jnsgd1na2vs0mg"},{"bike_id":"8929c1bf-fd4d-44e4-aa66-b3eb6538c998","system_id":"levelo_inurba_marseille","lat":43.28579,"lon":5.4296,"is_reserved":false,"is_disabled":false,"rental_uris":{"android":"levelo://app?vid=8929c1bf-fd4d-44e4-aa66-b3eb6538c998","ios":"levelo://app?vid=8929c1bf-fd4d-44e4-aa66-b3eb6538c998"},"vehicle_type_id":"4","last_reported":1752304238,"current_range_meters":12000,"station_id":"","pricing_plan_id":"cebpf4jnsgd1na2vs0mg"},{"bike_id":"d70f3e21-e354-48ae-88ce-ac52cf88884e","system_id":"levelo_inurba_marseille","lat":43.28675,"lon":5.36327,"is_reserved":false,"is_disabled":false,"rental_uris":{"android":"levelo://app?vid=d70f3e21-e354-48ae-88ce-ac52cf88884e","ios":"levelo://app?vid=d70f3e21-e354-48ae-88ce-ac52cf88884e"},"vehicle_type_id":"4","last_reported":1752304238,"current_range_meters":12000,"station_id":"ce4bhah2rcd13ifvqej0","pricing_plan_id":"cebpf4jnsgd1na2vs0mg"},{"bike_id":"97d4bafb-1703-482a-9af9-9c0328bf232e","system_id":"levelo_inurba_marseille","lat":43.29531,"lon":5.37508,"is_reserved":false,"is_disabled":false,"rental_uris":{"android":"levelo://app?vid=97d4bafb-1703-482a-9af9-9c0328bf232e","ios":"levelo://app?vid=97d4bafb-1703-482a-9af9-9c0328bf232e"},"vehicle_type_id":"4","last_reported":1752304238,"current_range_meters":12000,"station_id":"ce4bgkp2rcd13ifvqbmg","pricing_plan_id":"cebpf4jnsgd1na2vs0mg"},{"bike_id":"abb0acc4-71df-4998-bb59-1e7e60195447","system_id":"levelo_inurba_marseille","lat":43.294155,"lon":5.38607,"is_reserved":false,"is_disabled":false,"rental_uris":{"android":"levelo://app?vid=abb0acc4-71df-4998-bb59-1e7e60195447","ios":"levelo://app?vid=abb0acc4-71df-4998-bb59-1e7e60195447"},"vehicle_type_id":"4","last_reported":1752304238,"current_range_meters":12000,"station_id":"ce4bh2h2rcd13ifvqdh0","pricing_plan_id":"cebpf4jnsgd1na2vs0mg"},{"bike_id":"dafa5a87-b26d-4379-9a6b-1f02133b78a6","system_id":"levelo_inurba_marseille","lat":43.211979,"lon":5.350583,"is_reserved":false,"is_disabled":false,"rental_uris":{"android":"levelo://app?vid=dafa5a87-b26d-4379-9a6b-1f02133b78a6","ios":"levelo://app?vid=dafa5a87-b26d-4379-9a6b-1f02133b78a6"},"vehicle_type_id":"4","last_reported":1752304238,"current_range_meters":12000,"station_id":"","pricing_plan_id":"cebpf4jnsgd1na2vs0mg"},{"bike_id":"c113b6ca-3c24-4b48-97e0-49e6db25d076","system_id":"levelo_inurba_marseille","lat":43.241804,"lon":5.397122,"is_reserved":false,"is_disabled":false,"rental_uris":{"android":"levelo://app?vid=c113b6ca-3c24-4b48-97e0-49e6db25d076","ios":"levelo://app?vid=c113b6ca-3c24-4b48-97e0-49e6db25d076"},"vehicle_type_id":"4","last_reported":1752304238,"current_range_meters":12000,"station_id":"ce4bhn12rcd13ifvqgpg","pricing_plan_id":"cebpf4jnsgd1na2vs0mg"},{"bike_id":"4a92b34b-1d43-4830-8a92-a24d5fc4e5ca","system_id":"levelo_inurba_marseille","lat":43.29569,"lon":5.37503,"is_reserved":false,"is_disabled":true,"rental_uris":{"android":"levelo://app?vid=4a92b34b-1d43-4830-8a92-a24d5fc4e5ca","ios":"levelo://app?vid=4a92b34b-1d43-4830-8a92-a24d5fc4e5ca"},"vehicle_type_id":"4","last_reported":1752304238,"current_range_meters":12400,"station_id":"ce4bgh92rcd13ifvqb50","pricing_plan_id":"cebpf4jnsgd1na2vs0mg"},{"bike_id":"43b90c82-97e0-4fa7-8b67-2448f07d529e","system_id":"levelo_inurba_marseille","lat":43.21193,"lon":5.35072,"is_reserved":false,"is_disabled":false,"rental_uris":{"android":"levelo://app?vid=43b90c82-97e0-4fa7-8b67-2448f07d529e","ios":"levelo://app?vid=43b90c82-97e0-4fa7-8b67-2448f07d529e"},"vehicle_type_id":"4","last_reported":1752304238,"current_range_meters":12400,"station_id":"","pricing_plan_id":"cebpf4jnsgd1na2vs0mg"},{"bike_id":"b0bb345c-e5ad-401b-9254-292aca5cfe7d","system_id":"levelo_inurba_marseille","lat":43.273793,"lon":5.362466,"is_reserved":false,"is_disabled":false,"rental_uris":{"android":"levelo://app?vid=b0bb345c-e5ad-401b-9254-292aca5cfe7d","ios":"levelo://app?vid=b0bb345c-e5ad-401b-9254-292aca5cfe7d"},"vehicle_type_id":"4","last_reported":1752304238,"current_range_meters":12000,"station_id":"ce4bhbh2rcd13ifvqeo0","pricing_plan_id":"cebpf4jnsgd1na2vs0mg"},{"bike_id":"268003ee-cd1a-4936-8ec6-74ec3b1dda1d","system_id":"levelo_inurba_marseille","lat":43.24182,"lon":5.39732,"is_reserved":false,"is_disabled":false,"rental_uris":{"android":"levelo://app?vid=268003ee-cd1a-4936-8ec6-74ec3b1dda1d","ios":"levelo://app?vid=268003ee-cd1a-4936-8ec6-74ec3b1dda1d"},"vehicle_type_id":"4","last_reported":1752304238,"current_range_meters":12800,"station_id":"ce4bhn12rcd13ifvqgpg","pricing_plan_id":"cebpf4jnsgd1na2vs0mg"},{"bike_id":"8fccf46e-4269-459a-bd9a-cdd93f6b32bc","system_id":"levelo_inurba_marseille","lat":43.303576,"lon":5.41882,"is_reserved":false,"is_disabled":true,"rental_uris":{"android":"levelo://app?vid=8fccf46e-4269-459a-bd9a-cdd93f6b32bc","ios":"levelo://app?vid=8fccf46e-4269-459a-bd9a-cdd93f6b32bc"},"vehicle_type_id":"4","last_reported":1752304238,"current_range_meters":12800,"station_id":"ce4bhop2rcd13ifvqh7g","pricing_plan_id":"cebpf4jnsgd1na2vs0mg"},{"bike_id":"e9fd0cf8-573b-4177-88a6-f1faf33e8aca","system_id":"levelo_inurba_marseille","lat":43.28983,"lon":5.35595,"is_reserved":false,"is_disabled":false,"rental_uris":{"android":"levelo://app?vid=e9fd0cf8-573b-4177-88a6-f1faf33e8aca","ios":"levelo://app?vid=e9fd0cf8-573b-4177-88a6-f1faf33e8aca"},"vehicle_type_id":"4","last_reported":1752304238,"current_range_meters":12800,"station_id":"ce4bhb92rcd13ifvqen0","pricing_plan_id":"cebpf4jnsgd1na2vs0mg"},{"bike_id":"0385f41f-5fc3-4cc8-a0e3-3512cd2cfdfd","system_id":"levelo_inurba_marseille","lat":43.2418,"lon":5.39723,"is_reserved":false,"is_disabled":true,"rental_uris":{"android":"levelo://app?vid=0385f41f-5fc3-4cc8-a0e3-3512cd2cfdfd","ios":"levelo://app?vid=0385f41f-5fc3-4cc8-a0e3-3512cd2cfdfd"},"vehicle_type_id":"4","last_reported":1752304238,"current_range_meters":12800,"station_id":"ce4bhn12rcd13ifvqgpg","pricing_plan_id":"cebpf4jnsgd1na2vs0mg"},{"bike_id":"5cd74eda-833d-42c9-9173-69f518999a0c","system_id":"levelo_inurba_marseille","lat":43.341369,"lon":5.409028,"is_reserved":false,"is_disabled":false,"rental_uris":{"android":"levelo://app?vid=5cd74eda-833d-42c9-9173-69f518999a0c","ios":"levelo://app?vid=5cd74eda-833d-42c9-9173-69f518999a0c"},"vehicle_type_id":"4","last_reported":1752304238,"current_range_meters":13600,"station_id":"ce4bhqh2rcd13ifvqhlg","pricing_plan_id":"cebpf4jnsgd1na2vs0mg"},{"bike_id":"c1b25357-5d0b-4895-b90e-dff6a6d44ad5","system_id":"levelo_inurba_marseille","lat":43.312852,"lon":5.401536,"is_reserved":false,"is_disabled":false,"rental_uris":{"android":"levelo://app?vid=c1b25357-5d0b-4895-b90e-dff6a6d44ad5","ios":"levelo://app?vid=c1b25357-5d0b-4895-b90e-dff6a6d44ad5"},"vehicle_type_id":"4","last_reported":1752304238,"current_range_meters":13600,"station_id":"ce4bh092rcd13ifvqd30","pricing_plan_id":"cebpf4jnsgd1na2vs0mg"},{"bike_id":"61198919-e72c-4fce-bc96-126627987dc0","system_id":"levelo_inurba_marseille","lat":43.29577,"lon":5.37866,"is_reserved":false,"is_disabled":false,"rental_uris":{"android":"levelo://app?vid=61198919-e72c-4fce-bc96-126627987dc0","ios":"levelo://app?vid=61198919-e72c-4fce-bc96-126627987dc0"},"vehicle_type_id":"4","last_reported":1752304238,"current_range_meters":13600,"station_id":"","pricing_plan_id":"cebpf4jnsgd1na2vs0mg"},{"bike_id":"7f064164-3173-43bd-aad9-1c0cd37d4c96","system_id":"levelo_inurba_marseille","lat":43.292761,"lon":5.401275,"is_reserved":false,"is_disabled":false,"rental_uris":{"android":"levelo://app?vid=7f064164-3173-43bd-aad9-1c0cd37d4c96","ios":"levelo://app?vid=7f064164-3173-43bd-aad9-1c0cd37d4c96"},"vehicle_type_id":"4","last_reported":1752304238,"current_range_meters":13600,"station_id":"ce4bh312rcd13ifvqdk0","pricing_plan_id":"cebpf4jnsgd1na2vs0mg"},{"bike_id":"37b84a38-055a-4a6e-a56a-8ff3d0c1b2ec","system_id":"levelo_inurba_marseille","lat":43.21195,"lon":5.35063,"is_reserved":false,"is_disabled":false,"rental_uris":{"android":"levelo://app?vid=37b84a38-055a-4a6e-a56a-8ff3d0c1b2ec","ios":"levelo://app?vid=37b84a38-055a-4a6e-a56a-8ff3d0c1b2ec"},"vehicle_type_id":"4","last_reported":1752304238,"current_range_meters":13600,"station_id":"st_cvj6sg6p6f1abm77japg","pricing_plan_id":"cebpf4jnsgd1na2vs0mg"},{"bike_id":"dbba3321-20c7-4989-a7b5-ea9ab2c4b3e8","system_id":"levelo_inurba_marseille","lat":43.261935,"lon":5.374477,"is_reserved":false,"is_disabled":false,"rental_uris":{"android":"levelo://app?vid=dbba3321-20c7-4989-a7b5-ea9ab2c4b3e8","ios":"levelo://app?vid=dbba3321-20c7-4989-a7b5-ea9ab2c4b3e8"},"vehicle_type_id":"4","last_reported":1752304238,"current_range_meters":13600,"station_id":"ce4bhgp2rcd13ifvqfc0","pricing_plan_id":"cebpf4jnsgd1na2vs0mg"},{"bike_id":"e86ba8c9-208d-482c-a826-4c100938472a","system_id":"levelo_inurba_marseille","lat":43.211941,"lon":5.350723,"is_reserved":false,"is_disabled":false,"rental_uris":{"android":"levelo://app?vid=e86ba8c9-208d-482c-a826-4c100938472a","ios":"levelo://app?vid=e86ba8c9-208d-482c-a826-4c100938472a"},"vehicle_type_id":"4","last_reported":1752304238,"current_range_meters":13600,"station_id":"st_cvj6sg6p6f1abm77japg","pricing_plan_id":"cebpf4jnsgd1na2vs0mg"},{"bike_id":"c453155a-5220-48fc-922b-600ca54f8ab5","system_id":"levelo_inurba_marseille","lat":43.286589,"lon":5.363505,"is_reserved":false,"is_disabled":true,"rental_uris":{"android":"levelo://app?vid=c453155a-5220-48fc-922b-600ca54f8ab5","ios":"levelo://app?vid=c453155a-5220-48fc-922b-600ca54f8ab5"},"vehicle_type_id":"4","last_reported":1752304238,"current_range_meters":13600,"station_id":"ce4bhah2rcd13ifvqej0","pricing_plan_id":"cebpf4jnsgd1na2vs0mg"},{"bike_id":"709c9beb-13f1-45e2-bbd1-0f71d60cf8b2","system_id":"levelo_inurba_marseille","lat":43.30933,"lon":5.40137,"is_reserved":false,"is_disabled":false,"rental_uris":{"android":"levelo://app?vid=709c9beb-13f1-45e2-bbd1-0f71d60cf8b2","ios":"levelo://app?vid=709c9beb-13f1-45e2-bbd1-0f71d60cf8b2"},"vehicle_type_id":"4","last_reported":1752304238,"current_range_meters":14000,"station_id":"ce4bgvp2rcd13ifvqct0","pricing_plan_id":"cebpf4jnsgd1na2vs0mg"},{"bike_id":"9ebca4be-7c13-46b2-85ed-fd57a4cd9c32","system_id":"levelo_inurba_marseille","lat":43.30891,"lon":5.39624,"is_reserved":false,"is_disabled":false,"rental_uris":{"android":"levelo://app?vid=9ebca4be-7c13-46b2-85ed-fd57a4cd9c32","ios":"levelo://app?vid=9ebca4be-7c13-46b2-85ed-fd57a4cd9c32"},"vehicle_type_id":"4","last_reported":1752304238,"current_range_meters":14000,"station_id":"ce4bh012rcd13ifvqcv0","pricing_plan_id":"cebpf4jnsgd1na2vs0mg"},{"bike_id":"457edc42-0c4d-4fba-b5c5-1b7fcd3034da","system_id":"levelo_inurba_marseille","lat":43.25094,"lon":5.39527,"is_reserved":false,"is_disabled":true,"rental_uris":{"android":"levelo://app?vid=457edc42-0c4d-4fba-b5c5-1b7fcd3034da","ios":"levelo://app?vid=457edc42-0c4d-4fba-b5c5-1b7fcd3034da"},"vehicle_type_id":"4","last_reported":1752304238,"current_range_meters":14000,"station_id":"ce4bhm12rcd13ifvqgkg","pricing_plan_id":"cebpf4jnsgd1na2vs0mg"},{"bike_id":"452e8211-4f44-45d0-814a-3e9e25b8c44e","system_id":"levelo_inurba_marseille","lat":43.211932,"lon":5.35073,"is_reserved":false,"is_disabled":false,"rental_uris":{"android":"levelo://app?vid=452e8211-4f44-45d0-814a-3e9e25b8c44e","ios":"levelo://app?vid=452e8211-4f44-45d0-814a-3e9e25b8c44e"},"vehicle_type_id":"4","last_reported":1752304238,"current_range_meters":14000,"station_id":"st_cvj6sg6p6f1abm77japg","pricing_plan_id":"cebpf4jnsgd1na2vs0mg"},{"bike_id":"042461e1-66c6-43d1-9f02-79b7d6b213c2","system_id":"levelo_inurba_marseille","lat":43.313733,"lon":5.385002,"is_reserved":false,"is_disabled":false,"rental_uris":{"android":"levelo://app?vid=042461e1-66c6-43d1-9f02-79b7d6b213c2","ios":"levelo://app?vid=042461e1-66c6-43d1-9f02-79b7d6b213c2"},"vehicle_type_id":"4","last_reported":1752304238,"current_range_meters":14400,"station_id":"ce4bgt92rcd13ifvqcf0","pricing_plan_id":"cebpf4jnsgd1na2vs0mg"},{"bike_id":"a581eef9-f0fb-4e5d-8be0-84b96bfd2d41","system_id":"levelo_inurba_marseille","lat":43.29371,"lon":5.37849,"is_reserved":false,"is_disabled":false,"rental_uris":{"android":"levelo://app?vid=a581eef9-f0fb-4e5d-8be0-84b96bfd2d41","ios":"levelo://app?vid=a581eef9-f0fb-4e5d-8be0-84b96bfd2d41"},"vehicle_type_id":"4","last_reported":1752304238,"current_range_meters":14400,"station_id":"ce4bgjh2rcd13ifvqbf0","pricing_plan_id":"cebpf4jnsgd1na2vs0mg"},{"bike_id":"a100566b-d122-47f7-b059-1aae620ff9b3","system_id":"levelo_inurba_marseille","lat":43.24063,"lon":5.37761,"is_reserved":false,"is_disabled":false,"rental_uris":{"android":"levelo://app?vid=a100566b-d122-47f7-b059-1aae620ff9b3","ios":"levelo://app?vid=a100566b-d122-47f7-b059-1aae620ff9b3"},"vehicle_type_id":"4","last_reported":1752304238,"current_range_meters":14400,"station_id":"ce4bhnp2rcd13ifvqgvg","pricing_plan_id":"cebpf4jnsgd1na2vs0mg"},{"bike_id":"8c0e280a-1eea-42fb-babf-6620c3845514","system_id":"levelo_inurba_marseille","lat":43.30135,"lon":5.38782,"is_reserved":false,"is_disabled":false,"rental_uris":{"android":"levelo://app?vid=8c0e280a-1eea-42fb-babf-6620c3845514","ios":"levelo://app?vid=8c0e280a-1eea-42fb-babf-6620c3845514"},"vehicle_type_id":"4","last_reported":1752304238,"current_range_meters":14800,"station_id":"ce4bghh2rcd13ifvqb60","pricing_plan_id":"cebpf4jnsgd1na2vs0mg"},{"bike_id":"25e5f971-a9c9-4b07-bb3b-bff8f5b484ea","system_id":"levelo_inurba_marseille","lat":43.3095,"lon":5.4015,"is_reserved":false,"is_disabled":false,"rental_uris":{"android":"levelo://app?vid=25e5f971-a9c9-4b07-bb3b-bff8f5b484ea","ios":"levelo://app?vid=25e5f971-a9c9-4b07-bb3b-bff8f5b484ea"},"vehicle_type_id":"4","last_reported":1752304238,"current_range_meters":14800,"station_id":"ce4bgvp2rcd13ifvqct0","pricing_plan_id":"cebpf4jnsgd1na2vs0mg"},{"bike_id":"f05b8bfe-6934-41c1-8e7b-6912b26dbed6","system_id":"levelo_inurba_marseille","lat":43.26565,"lon":5.39039,"is_reserved":false,"is_disabled":false,"rental_uris":{"android":"levelo://app?vid=f05b8bfe-6934-41c1-8e7b-6912b26dbed6","ios":"levelo://app?vid=f05b8bfe-6934-41c1-8e7b-6912b26dbed6"},"vehicle_type_id":"4","last_reported":1752304238,"current_range_meters":15200,"station_id":"ce4bhe12rcd13ifvqf30","pricing_plan_id":"cebpf4jnsgd1na2vs0mg"},{"bike_id":"58c86ff8-b444-4637-8b8c-414b4195493a","system_id":"levelo_inurba_marseille","lat":43.280863,"lon":5.396651,"is_reserved":false,"is_disabled":false,"rental_uris":{"android":"levelo://app?vid=58c86ff8-b444-4637-8b8c-414b4195493a","ios":"levelo://app?vid=58c86ff8-b444-4637-8b8c-414b4195493a"},"vehicle_type_id":"4","last_reported":1752304238,"current_range_meters":15200,"station_id":"ce4bho12rcd13ifvqh2g","pricing_plan_id":"cebpf4jnsgd1na2vs0mg"},{"bike_id":"aaa3b10e-8c10-48cf-933e-220b9a468a85","system_id":"levelo_inurba_marseille","lat":43.21739,"lon":5.34603,"is_reserved":false,"is_disabled":false,"rental_uris":{"android":"levelo://app?vid=aaa3b10e-8c10-48cf-933e-220b9a468a85","ios":"levelo://app?vid=aaa3b10e-8c10-48cf-933e-220b9a468a85"},"vehicle_type_id":"4","last_reported":1752304238,"current_range_meters":15200,"station_id":"","pricing_plan_id":"cebpf4jnsgd1na2vs0mg"},{"bike_id":"ad3a92a9-aac6-4694-a2f3-20c935fef2b6","system_id":"levelo_inurba_marseille","lat":43.292986,"lon":5.374656,"is_reserved":false,"is_disabled":false,"rental_uris":{"android":"levelo://app?vid=ad3a92a9-aac6-4694-a2f3-20c935fef2b6","ios":"levelo://app?vid=ad3a92a9-aac6-4694-a2f3-20c935fef2b6"},"vehicle_type_id":"4","last_reported":1752304238,"current_range_meters":15200,"station_id":"","pricing_plan_id":"cebpf4jnsgd1na2vs0mg"},{"bike_id":"de66b8a7-0531-49db-91a9-781cfbdccc21","system_id":"levelo_inurba_marseille","lat":43.288372,"lon":5.358589,"is_reserved":false,"is_disabled":false,"rental_uris":{"android":"levelo://app?vid=de66b8a7-0531-49db-91a9-781cfbdccc21","ios":"levelo://app?vid=de66b8a7-0531-49db-91a9-781cfbdccc21"},"vehicle_type_id":"4","last_reported":1752304238,"current_range_meters":15200,"station_id":"ce4bhb12rcd13ifvqem0","pricing_plan_id":"cebpf4jnsgd1na2vs0mg"},{"bike_id":"ba7e3217-8069-471e-8907-7c5152d45243","system_id":"levelo_inurba_marseille","lat":43.26221,"lon":5.404581,"is_reserved":false,"is_disabled":false,"rental_uris":{"android":"levelo://app?vid=ba7e3217-8069-471e-8907-7c5152d45243","ios":"levelo://app?vid=ba7e3217-8069-471e-8907-7c5152d45243"},"vehicle_type_id":"4","last_reported":1752304238,"current_range_meters":16000,"station_id":"ce4bhmh2rcd13ifvqgmg","pricing_plan_id":"cebpf4jnsgd1na2vs0mg"},{"bike_id":"4362e87f-c830-433a-8419-b0e3aaf5178e","system_id":"levelo_inurba_marseille","lat":43.320401,"lon":5.415532,"is_reserved":false,"is_disabled":false,"rental_uris":{"android":"levelo://app?vid=4362e87f-c830-433a-8419-b0e3aaf5178e","ios":"levelo://app?vid=4362e87f-c830-433a-8419-b0e3aaf5178e"},"vehicle_type_id":"4","last_reported":1752304238,"current_range_meters":16000,"station_id":"ce4bhq92rcd13ifvqhkg","pricing_plan_id":"cebpf4jnsgd1na2vs0mg"},{"bike_id":"7ae3c05b-b3f8-4752-80d6-117d478c59d0","system_id":"levelo_inurba_marseille","lat":43.308864,"lon":5.396306,"is_reserved":false,"is_disabled":false,"rental_uris":{"android":"levelo://app?vid=7ae3c05b-b3f8-4752-80d6-117d478c59d0","ios":"levelo://app?vid=7ae3c05b-b3f8-4752-80d6-117d478c59d0"},"vehicle_type_id":"4","last_reported":1752304238,"current_range_meters":16000,"station_id":"ce4bh012rcd13ifvqcv0","pricing_plan_id":"cebpf4jnsgd1na2vs0mg"},{"bike_id":"ad023729-3d33-44a6-99ca-a047715b7f88","system_id":"levelo_inurba_marseille","lat":43.211991,"lon":5.350709,"is_reserved":false,"is_disabled":false,"rental_uris":{"android":"levelo://app?vid=ad023729-3d33-44a6-99ca-a047715b7f88","ios":"levelo://app?vid=ad023729-3d33-44a6-99ca-a047715b7f88"},"vehicle_type_id":"4","last_reported":1752304238,"current_range_meters":16000,"station_id":"st_cvj6sg6p6f1abm77japg","pricing_plan_id":"cebpf4jnsgd1na2vs0mg"},{"bike_id":"85758837-e8e8-429b-9b62-411361adebf1","system_id":"levelo_inurba_marseille","lat":43.3174,"lon":5.39039,"is_reserved":false,"is_disabled":false,"rental_uris":{"android":"levelo://app?vid=85758837-e8e8-429b-9b62-411361adebf1","ios":"levelo://app?vid=85758837-e8e8-429b-9b62-411361adebf1"},"vehicle_type_id":"4","last_reported":1752304238,"current_range_meters":16000,"station_id":"ce4bhqp2rcd13ifvqhng","pricing_plan_id":"cebpf4jnsgd1na2vs0mg"},{"bike_id":"37efeb5c-06ef-458e-a6fc-e2e8b4e1669f","system_id":"levelo_inurba_marseille","lat":43.24388,"lon":5.37058,"is_reserved":false,"is_disabled":false,"rental_uris":{"android":"levelo://app?vid=37efeb5c-06ef-458e-a6fc-e2e8b4e1669f","ios":"levelo://app?vid=37efeb5c-06ef-458e-a6fc-e2e8b4e1669f"},"vehicle_type_id":"4","last_reported":1752304238,"current_range_meters":16000,"station_id":"ce4bhhh2rcd13ifvqfk0","pricing_plan_id":"cebpf4jnsgd1na2vs0mg"},{"bike_id":"470d1e9d-8c05-40b8-a6b2-039f183b9f6a","system_id":"levelo_inurba_marseille","lat":43.231874,"lon":5.355569,"is_reserved":false,"is_disabled":true,"rental_uris":{"android":"levelo://app?vid=470d1e9d-8c05-40b8-a6b2-039f183b9f6a","ios":"levelo://app?vid=470d1e9d-8c05-40b8-a6b2-039f183b9f6a"},"vehicle_type_id":"4","last_reported":1752304238,"current_range_meters":16000,"station_id":"ce4bhu92rcd13ifvqi70","pricing_plan_id":"cebpf4jnsgd1na2vs0mg"},{"bike_id":"dfb324bb-b3fa-42ac-af97-fcb3ac59c854","system_id":"levelo_inurba_marseille","lat":43.297646,"lon":5.371132,"is_reserved":false,"is_disabled":false,"rental_uris":{"android":"levelo://app?vid=dfb324bb-b3fa-42ac-af97-fcb3ac59c854","ios":"levelo://app?vid=dfb324bb-b3fa-42ac-af97-fcb3ac59c854"},"vehicle_type_id":"4","last_reported":1752304238,"current_range_meters":16400,"station_id":"ce4bgop2rcd13ifvqc1g","pricing_plan_id":"cebpf4jnsgd1na2vs0mg"},{"bike_id":"888bd7d8-4ec5-4282-97cb-63503f2485c0","system_id":"levelo_inurba_marseille","lat":43.30816,"lon":5.38122,"is_reserved":false,"is_disabled":false,"rental_uris":{"android":"levelo://app?vid=888bd7d8-4ec5-4282-97cb-63503f2485c0","ios":"levelo://app?vid=888bd7d8-4ec5-4282-97cb-63503f2485c0"},"vehicle_type_id":"4","last_reported":1752304238,"current_range_meters":16400,"station_id":"ce4bgt12rcd13ifvqce0","pricing_plan_id":"cebpf4jnsgd1na2vs0mg"},{"bike_id":"412afb4e-4f76-4025-a6ca-7f64bda83e72","system_id":"levelo_inurba_marseille","lat":43.245495,"lon":5.395316,"is_reserved":false,"is_disabled":false,"rental_uris":{"android":"levelo://app?vid=412afb4e-4f76-4025-a6ca-7f64bda83e72","ios":"levelo://app?vid=412afb4e-4f76-4025-a6ca-7f64bda83e72"},"vehicle_type_id":"4","last_reported":1752304238,"current_range_meters":16400,"station_id":"ce4bhlp2rcd13ifvqgjg","pricing_plan_id":"cebpf4jnsgd1na2vs0mg"},{"bike_id":"44cb55d7-0a6b-4498-9996-58505fae2254","system_id":"levelo_inurba_marseille","lat":43.30649,"lon":5.40068,"is_reserved":false,"is_disabled":false,"rental_uris":{"android":"levelo://app?vid=44cb55d7-0a6b-4498-9996-58505fae2254","ios":"levelo://app?vid=44cb55d7-0a6b-4498-9996-58505fae2254"},"vehicle_type_id":"4","last_reported":1752304238,"current_range_meters":16400,"station_id":"ce4bh112rcd13ifvqda0","pricing_plan_id":"cebpf4jnsgd1na2vs0mg"},{"bike_id":"f20dc79a-7198-418a-9671-1d3f28b0b615","system_id":"levelo_inurba_marseille","lat":43.25112,"lon":5.40324,"is_reserved":false,"is_disabled":false,"rental_uris":{"android":"levelo://app?vid=f20dc79a-7198-418a-9671-1d3f28b0b615","ios":"levelo://app?vid=f20dc79a-7198-418a-9671-1d3f28b0b615"},"vehicle_type_id":"4","last_reported":1752304238,"current_range_meters":16400,"station_id":"ce4bhlh2rcd13ifvqgig","pricing_plan_id":"cebpf4jnsgd1na2vs0mg"},{"bike_id":"cfee0657-6493-4e9d-b55a-affdef745be3","system_id":"levelo_inurba_marseille","lat":43.29826,"lon":5.37644,"is_reserved":false,"is_disabled":false,"rental_uris":{"android":"levelo://app?vid=cfee0657-6493-4e9d-b55a-affdef745be3","ios":"levelo://app?vid=cfee0657-6493-4e9d-b55a-affdef745be3"},"vehicle_type_id":"4","last_reported":1752304238,"current_range_meters":16400,"station_id":"","pricing_plan_id":"cebpf4jnsgd1na2vs0mg"},{"bike_id":"f062f3f8-6747-4d90-b0fe-3c9e94933ab7","system_id":"levelo_inurba_marseille","lat":43.270674,"lon":5.422855,"is_reserved":false,"is_disabled":false,"rental_uris":{"android":"levelo://app?vid=f062f3f8-6747-4d90-b0fe-3c9e94933ab7","ios":"levelo://app?vid=f062f3f8-6747-4d90-b0fe-3c9e94933ab7"},"vehicle_type_id":"4","last_reported":1752304238,"current_range_meters":16400,"station_id":"ce4bhk92rcd13ifvqgb0","pricing_plan_id":"cebpf4jnsgd1na2vs0mg"},{"bike_id":"919e600e-ebda-4ca0-9126-38ed65a36143","system_id":"levelo_inurba_marseille","lat":43.2121,"lon":5.35051,"is_reserved":false,"is_disabled":false,"rental_uris":{"android":"levelo://app?vid=919e600e-ebda-4ca0-9126-38ed65a36143","ios":"levelo://app?vid=919e600e-ebda-4ca0-9126-38ed65a36143"},"vehicle_type_id":"4","last_reported":1752304238,"current_range_meters":16400,"station_id":"st_cvj6sg6p6f1abm77japg","pricing_plan_id":"cebpf4jnsgd1na2vs0mg"},{"bike_id":"407b1e77-51dc-4983-95cf-04f962d77eac","system_id":"levelo_inurba_marseille","lat":43.27961,"lon":5.38717,"is_reserved":false,"is_disabled":false,"rental_uris":{"android":"levelo://app?vid=407b1e77-51dc-4983-95cf-04f962d77eac","ios":"levelo://app?vid=407b1e77-51dc-4983-95cf-04f962d77eac"},"vehicle_type_id":"4","last_reported":1752304238,"current_range_meters":16800,"station_id":"ce4bhg12rcd13ifvqf80","pricing_plan_id":"cebpf4jnsgd1na2vs0mg"},{"bike_id":"c6f7dabd-b092-4554-a710-07eb4af96a4c","system_id":"levelo_inurba_marseille","lat":43.211906,"lon":5.3507,"is_reserved":false,"is_disabled":false,"rental_uris":{"android":"levelo://app?vid=c6f7dabd-b092-4554-a710-07eb4af96a4c","ios":"levelo://app?vid=c6f7dabd-b092-4554-a710-07eb4af96a4c"},"vehicle_type_id":"4","last_reported":1752304238,"current_range_meters":16800,"station_id":"st_cvj6sg6p6f1abm77japg","pricing_plan_id":"cebpf4jnsgd1na2vs0mg"},{"bike_id":"0d44c8a2-9cbb-48bb-9591-b7dbfdebcfc7","system_id":"levelo_inurba_marseille","lat":43.27309,"lon":5.39069,"is_reserved":false,"is_disabled":false,"rental_uris":{"android":"levelo://app?vid=0d44c8a2-9cbb-48bb-9591-b7dbfdebcfc7","ios":"levelo://app?vid=0d44c8a2-9cbb-48bb-9591-b7dbfdebcfc7"},"vehicle_type_id":"4","last_reported":1752304238,"current_range_meters":16800,"station_id":"ce4bhgp2rcd13ifvqfe0","pricing_plan_id":"cebpf4jnsgd1na2vs0mg"},{"bike_id":"a88ad0f9-4dc9-4f3f-841b-ae01ad57516a","system_id":"levelo_inurba_marseille","lat":43.266893,"lon":5.3827,"is_reserved":false,"is_disabled":false,"rental_uris":{"android":"levelo://app?vid=a88ad0f9-4dc9-4f3f-841b-ae01ad57516a","ios":"levelo://app?vid=a88ad0f9-4dc9-4f3f-841b-ae01ad57516a"},"vehicle_type_id":"4","last_reported":1752304238,"current_range_meters":17200,"station_id":"ce4bhg92rcd13ifvqf90","pricing_plan_id":"cebpf4jnsgd1na2vs0mg"},{"bike_id":"00bc0b3b-e317-4a17-a011-a3a9a29d816a","system_id":"levelo_inurba_marseille","lat":43.211906,"lon":5.35069,"is_reserved":false,"is_disabled":false,"rental_uris":{"android":"levelo://app?vid=00bc0b3b-e317-4a17-a011-a3a9a29d816a","ios":"levelo://app?vid=00bc0b3b-e317-4a17-a011-a3a9a29d816a"},"vehicle_type_id":"4","last_reported":1752304238,"current_range_meters":17200,"station_id":"st_cvj6sg6p6f1abm77japg","pricing_plan_id":"cebpf4jnsgd1na2vs0mg"},{"bike_id":"607eff80-7879-4cd4-802a-27da59b17290","system_id":"levelo_inurba_marseille","lat":43.308789,"lon":5.39641,"is_reserved":false,"is_disabled":false,"rental_uris":{"android":"levelo://app?vid=607eff80-7879-4cd4-802a-27da59b17290","ios":"levelo://app?vid=607eff80-7879-4cd4-802a-27da59b17290"},"vehicle_type_id":"4","last_reported":1752304238,"current_range_meters":17200,"station_id":"ce4bh012rcd13ifvqcv0","pricing_plan_id":"cebpf4jnsgd1na2vs0mg"},{"bike_id":"226191c1-cfbe-42bd-a70b-6559a96a1751","system_id":"levelo_inurba_marseille","lat":43.23193,"lon":5.35555,"is_reserved":false,"is_disabled":false,"rental_uris":{"android":"levelo://app?vid=226191c1-cfbe-42bd-a70b-6559a96a1751","ios":"levelo://app?vid=226191c1-cfbe-42bd-a70b-6559a96a1751"},"vehicle_type_id":"4","last_reported":1752304238,"current_range_meters":17200,"station_id":"ce4bhu92rcd13ifvqi70","pricing_plan_id":"cebpf4jnsgd1na2vs0mg"},{"bike_id":"b19e4fa3-3382-434e-9489-64bd5f12534e","system_id":"levelo_inurba_marseille","lat":43.24165,"lon":5.36392,"is_reserved":false,"is_disabled":false,"rental_uris":{"android":"levelo://app?vid=b19e4fa3-3382-434e-9489-64bd5f12534e","ios":"levelo://app?vid=b19e4fa3-3382-434e-9489-64bd5f12534e"},"vehicle_type_id":"4","last_reported":1752304238,"current_range_meters":17200,"station_id":"cpo36qri1sfpv3e86is0","pricing_plan_id":"cebpf4jnsgd1na2vs0mg"},{"bike_id":"fe9d49e1-a07a-4343-a1f5-cbcd31489875","system_id":"levelo_inurba_marseille","lat":43.251294,"lon":5.403336,"is_reserved":false,"is_disabled":false,"rental_uris":{"android":"levelo://app?vid=fe9d49e1-a07a-4343-a1f5-cbcd31489875","ios":"levelo://app?vid=fe9d49e1-a07a-4343-a1f5-cbcd31489875"},"vehicle_type_id":"4","last_reported":1752304238,"current_range_meters":17200,"station_id":"ce4bhlh2rcd13ifvqgig","pricing_plan_id":"cebpf4jnsgd1na2vs0mg"},{"bike_id":"53b2e3fb-77f4-44bd-9b1f-4c6e207a18dc","system_id":"levelo_inurba_marseille","lat":43.26499,"lon":5.39552,"is_reserved":false,"is_disabled":false,"rental_uris":{"android":"levelo://app?vid=53b2e3fb-77f4-44bd-9b1f-4c6e207a18dc","ios":"levelo://app?vid=53b2e3fb-77f4-44bd-9b1f-4c6e207a18dc"},"vehicle_type_id":"4","last_reported":1752304238,"current_range_meters":17200,"station_id":"ce4bhi12rcd13ifvqfq0","pricing_plan_id":"cebpf4jnsgd1na2vs0mg"},{"bike_id":"a862a812-a4e3-41db-bffe-dc440146afeb","system_id":"levelo_inurba_marseille","lat":43.27049,"lon":5.4026,"is_reserved":false,"is_disabled":false,"rental_uris":{"android":"levelo://app?vid=a862a812-a4e3-41db-bffe-dc440146afeb","ios":"levelo://app?vid=a862a812-a4e3-41db-bffe-dc440146afeb"},"vehicle_type_id":"4","last_reported":1752304238,"current_range_meters":17200,"station_id":"ce4bhk92rcd13ifvqgc0","pricing_plan_id":"cebpf4jnsgd1na2vs0mg"},{"bike_id":"51890362-46b0-4ee7-9f02-afbf036d064e","system_id":"levelo_inurba_marseille","lat":43.211994,"lon":5.350719,"is_reserved":false,"is_disabled":false,"rental_uris":{"android":"levelo://app?vid=51890362-46b0-4ee7-9f02-afbf036d064e","ios":"levelo://app?vid=51890362-46b0-4ee7-9f02-afbf036d064e"},"vehicle_type_id":"4","last_reported":1752304238,"current_range_meters":17200,"station_id":"st_cvj6sg6p6f1abm77japg","pricing_plan_id":"cebpf4jnsgd1na2vs0mg"},{"bike_id":"486ee436-dc2c-4cbf-b133-565f554ddb1e","system_id":"levelo_inurba_marseille","lat":43.251219,"lon":5.403286,"is_reserved":false,"is_disabled":false,"rental_uris":{"android":"levelo://app?vid=486ee436-dc2c-4cbf-b133-565f554ddb1e","ios":"levelo://app?vid=486ee436-dc2c-4cbf-b133-565f554ddb1e"},"vehicle_type_id":"4","last_reported":1752304238,"current_range_meters":17200,"station_id":"ce4bhlh2rcd13ifvqgig","pricing_plan_id":"cebpf4jnsgd1na2vs0mg"},{"bike_id":"8e96cc1c-7c1c-42f1-8e93-5f09751459d9","system_id":"levelo_inurba_marseille","lat":43.29305,"lon":5.37455,"is_reserved":false,"is_disabled":true,"rental_uris":{"android":"levelo://app?vid=8e96cc1c-7c1c-42f1-8e93-5f09751459d9","ios":"levelo://app?vid=8e96cc1c-7c1c-42f1-8e93-5f09751459d9"},"vehicle_type_id":"4","last_reported":1752304238,"current_range_meters":17200,"station_id":"ce4bgi12rcd13ifvqb70","pricing_plan_id":"cebpf4jnsgd1na2vs0mg"},{"bike_id":"f502b94c-6f18-4b70-9d93-d69a08f64883","system_id":"levelo_inurba_marseille","lat":43.29703,"lon":5.36597,"is_reserved":false,"is_disabled":false,"rental_uris":{"android":"levelo://app?vid=f502b94c-6f18-4b70-9d93-d69a08f64883","ios":"levelo://app?vid=f502b94c-6f18-4b70-9d93-d69a08f64883"},"vehicle_type_id":"4","last_reported":1752304238,"current_range_meters":17200,"station_id":"ce4bgn12rcd13ifvqbt0","pricing_plan_id":"cebpf4jnsgd1na2vs0mg"},{"bike_id":"a0137104-c9f4-434a-a5e3-80725cd5a2b4","system_id":"levelo_inurba_marseille","lat":43.211921,"lon":5.350748,"is_reserved":false,"is_disabled":false,"rental_uris":{"android":"levelo://app?vid=a0137104-c9f4-434a-a5e3-80725cd5a2b4","ios":"levelo://app?vid=a0137104-c9f4-434a-a5e3-80725cd5a2b4"},"vehicle_type_id":"4","last_reported":1752304238,"current_range_meters":17200,"station_id":"st_cvj6sg6p6f1abm77japg","pricing_plan_id":"cebpf4jnsgd1na2vs0mg"},{"bike_id":"ded1613d-37f4-4636-b9a1-5b3ab463f128","system_id":"levelo_inurba_marseille","lat":43.301368,"lon":5.398756,"is_reserved":false,"is_disabled":false,"rental_uris":{"android":"levelo://app?vid=ded1613d-37f4-4636-b9a1-5b3ab463f128","ios":"levelo://app?vid=ded1613d-37f4-4636-b9a1-5b3ab463f128"},"vehicle_type_id":"4","last_reported":1752304238,"current_range_meters":17200,"station_id":"ce4bh0h2rcd13ifvqd40","pricing_plan_id":"cebpf4jnsgd1na2vs0mg"},{"bike_id":"2a66106d-d0c2-4fdb-a0d3-33bcad5edb0d","system_id":"levelo_inurba_marseille","lat":43.32102,"lon":5.36786,"is_reserved":false,"is_disabled":false,"rental_uris":{"android":"levelo://app?vid=2a66106d-d0c2-4fdb-a0d3-33bcad5edb0d","ios":"levelo://app?vid=2a66106d-d0c2-4fdb-a0d3-33bcad5edb0d"},"vehicle_type_id":"4","last_reported":1752304238,"current_range_meters":17200,"station_id":"ce4bhrh2rcd13ifvqhug","pricing_plan_id":"cebpf4jnsgd1na2vs0mg"},{"bike_id":"ee5338dd-18a1-4b48-a5b0-f8c72f7b1319","system_id":"levelo_inurba_marseille","lat":43.318,"lon":5.36859,"is_reserved":false,"is_disabled":false,"rental_uris":{"android":"levelo://app?vid=ee5338dd-18a1-4b48-a5b0-f8c72f7b1319","ios":"levelo://app?vid=ee5338dd-18a1-4b48-a5b0-f8c72f7b1319"},"vehicle_type_id":"4","last_reported":1752304238,"current_range_meters":17600,"station_id":"","pricing_plan_id":"cebpf4jnsgd1na2vs0mg"},{"bike_id":"3e01e98e-784c-40cc-9a58-943021295c96","system_id":"levelo_inurba_marseille","lat":43.264903,"lon":5.395463,"is_reserved":false,"is_disabled":false,"rental_uris":{"android":"levelo://app?vid=3e01e98e-784c-40cc-9a58-943021295c96","ios":"levelo://app?vid=3e01e98e-784c-40cc-9a58-943021295c96"},"vehicle_type_id":"4","last_reported":1752304238,"current_range_meters":17600,"station_id":"ce4bhi12rcd13ifvqfq0","pricing_plan_id":"cebpf4jnsgd1na2vs0mg"},{"bike_id":"d9d1fd9b-ea93-4b1d-b937-5a9fe33714df","system_id":"levelo_inurba_marseille","lat":43.23965,"lon":5.36624,"is_reserved":false,"is_disabled":false,"rental_uris":{"android":"levelo://app?vid=d9d1fd9b-ea93-4b1d-b937-5a9fe33714df","ios":"levelo://app?vid=d9d1fd9b-ea93-4b1d-b937-5a9fe33714df"},"vehicle_type_id":"4","last_reported":1752304238,"current_range_meters":17600,"station_id":"ce4bhi12rcd13ifvqfp0","pricing_plan_id":"cebpf4jnsgd1na2vs0mg"},{"bike_id":"c57590a2-6ef2-485d-8c9d-dd1a5f9bbcf9","system_id":"levelo_inurba_marseille","lat":43.29845,"lon":5.36261,"is_reserved":false,"is_disabled":false,"rental_uris":{"android":"levelo://app?vid=c57590a2-6ef2-485d-8c9d-dd1a5f9bbcf9","ios":"levelo://app?vid=c57590a2-6ef2-485d-8c9d-dd1a5f9bbcf9"},"vehicle_type_id":"4","last_reported":1752304238,"current_range_meters":17600,"station_id":"ce4bgpp2rcd13ifvqc3g","pricing_plan_id":"cebpf4jnsgd1na2vs0mg"},{"bike_id":"7a4026a7-dbd6-4c73-bbaf-12ebf042b777","system_id":"levelo_inurba_marseille","lat":43.29519,"lon":5.39395,"is_reserved":false,"is_disabled":false,"rental_uris":{"android":"levelo://app?vid=7a4026a7-dbd6-4c73-bbaf-12ebf042b777","ios":"levelo://app?vid=7a4026a7-dbd6-4c73-bbaf-12ebf042b777"},"vehicle_type_id":"4","last_reported":1752304238,"current_range_meters":18000,"station_id":"ce4bh292rcd13ifvqdf0","pricing_plan_id":"cebpf4jnsgd1na2vs0mg"},{"bike_id":"38e70852-2f7a-4b34-a55f-7175aa6a06f9","system_id":"levelo_inurba_marseille","lat":43.27907,"lon":5.37969,"is_reserved":false,"is_disabled":false,"rental_uris":{"android":"levelo://app?vid=38e70852-2f7a-4b34-a55f-7175aa6a06f9","ios":"levelo://app?vid=38e70852-2f7a-4b34-a55f-7175aa6a06f9"},"vehicle_type_id":"4","last_reported":1752304238,"current_range_meters":18000,"station_id":"ce4bhf92rcd13ifvqf50","pricing_plan_id":"cebpf4jnsgd1na2vs0mg"},{"bike_id":"df87bdcd-46a7-4b0e-8da7-fe811f9445f8","system_id":"levelo_inurba_marseille","lat":43.27051,"lon":5.40273,"is_reserved":false,"is_disabled":false,"rental_uris":{"android":"levelo://app?vid=df87bdcd-46a7-4b0e-8da7-fe811f9445f8","ios":"levelo://app?vid=df87bdcd-46a7-4b0e-8da7-fe811f9445f8"},"vehicle_type_id":"4","last_reported":1752304238,"current_range_meters":18000,"station_id":"ce4bhk92rcd13ifvqgc0","pricing_plan_id":"cebpf4jnsgd1na2vs0mg"},{"bike_id":"e37a2d08-72ed-4015-b714-186e1a332d22","system_id":"levelo_inurba_marseille","lat":43.28689,"lon":5.38642,"is_reserved":false,"is_disabled":false,"rental_uris":{"android":"levelo://app?vid=e37a2d08-72ed-4015-b714-186e1a332d22","ios":"levelo://app?vid=e37a2d08-72ed-4015-b714-186e1a332d22"},"vehicle_type_id":"4","last_reported":1752304238,"current_range_meters":18000,"station_id":"ce4bh492rcd13ifvqdug","pricing_plan_id":"cebpf4jnsgd1na2vs0mg"},{"bike_id":"15c005ca-52e7-4b89-8afe-4bc56f68590a","system_id":"levelo_inurba_marseille","lat":43.265649,"lon":5.390094,"is_reserved":false,"is_disabled":false,"rental_uris":{"android":"levelo://app?vid=15c005ca-52e7-4b89-8afe-4bc56f68590a","ios":"levelo://app?vid=15c005ca-52e7-4b89-8afe-4bc56f68590a"},"vehicle_type_id":"4","last_reported":1752304238,"current_range_meters":18000,"station_id":"ce4bhe12rcd13ifvqf30","pricing_plan_id":"cebpf4jnsgd1na2vs0mg"},{"bike_id":"715646cc-87aa-466c-a34b-df843b8622d4","system_id":"levelo_inurba_marseille","lat":43.29569,"lon":5.37501,"is_reserved":false,"is_disabled":false,"rental_uris":{"android":"levelo://app?vid=715646cc-87aa-466c-a34b-df843b8622d4","ios":"levelo://app?vid=715646cc-87aa-466c-a34b-df843b8622d4"},"vehicle_type_id":"4","last_reported":1752304238,"current_range_meters":18000,"station_id":"ce4bgh92rcd13ifvqb50","pricing_plan_id":"cebpf4jnsgd1na2vs0mg"},{"bike_id":"8b37f03f-f226-4bbc-8648-b109da7ba145","system_id":"levelo_inurba_marseille","lat":43.30536,"lon":5.366999,"is_reserved":false,"is_disabled":false,"rental_uris":{"android":"levelo://app?vid=8b37f03f-f226-4bbc-8648-b109da7ba145","ios":"levelo://app?vid=8b37f03f-f226-4bbc-8648-b109da7ba145"},"vehicle_type_id":"4","last_reported":1752304238,"current_range_meters":18000,"station_id":"","pricing_plan_id":"cebpf4jnsgd1na2vs0mg"},{"bike_id":"b59e51ca-d910-4846-ae9d-c6b0b3ae1ac3","system_id":"levelo_inurba_marseille","lat":43.283208,"lon":5.350554,"is_reserved":false,"is_disabled":false,"rental_uris":{"android":"levelo://app?vid=b59e51ca-d910-4846-ae9d-c6b0b3ae1ac3","ios":"levelo://app?vid=b59e51ca-d910-4846-ae9d-c6b0b3ae1ac3"},"vehicle_type_id":"4","last_reported":1752304238,"current_range_meters":18000,"station_id":"","pricing_plan_id":"cebpf4jnsgd1na2vs0mg"},{"bike_id":"f23760ff-ab61-4853-aa67-28aac93822c1","system_id":"levelo_inurba_marseille","lat":43.337444,"lon":5.374475,"is_reserved":false,"is_disabled":false,"rental_uris":{"android":"levelo://app?vid=f23760ff-ab61-4853-aa67-28aac93822c1","ios":"levelo://app?vid=f23760ff-ab61-4853-aa67-28aac93822c1"},"vehicle_type_id":"4","last_reported":1752304238,"current_range_meters":18000,"station_id":"","pricing_plan_id":"cebpf4jnsgd1na2vs0mg"},{"bike_id":"d799b321-3a7d-4201-b46e-ffe2ad124f19","system_id":"levelo_inurba_marseille","lat":43.328809,"lon":5.38394,"is_reserved":false,"is_disabled":false,"rental_uris":{"android":"levelo://app?vid=d799b321-3a7d-4201-b46e-ffe2ad124f19","ios":"levelo://app?vid=d799b321-3a7d-4201-b46e-ffe2ad124f19"},"vehicle_type_id":"4","last_reported":1752304238,"current_range_meters":18000,"station_id":"","pricing_plan_id":"cebpf4jnsgd1na2vs0mg"},{"bike_id":"370ae3e6-8487-4b1d-a408-f62ab081da71","system_id":"levelo_inurba_marseille","lat":43.29273,"lon":5.40116,"is_reserved":false,"is_disabled":false,"rental_uris":{"android":"levelo://app?vid=370ae3e6-8487-4b1d-a408-f62ab081da71","ios":"levelo://app?vid=370ae3e6-8487-4b1d-a408-f62ab081da71"},"vehicle_type_id":"4","last_reported":1752304238,"current_range_meters":18000,"station_id":"ce4bh312rcd13ifvqdk0","pricing_plan_id":"cebpf4jnsgd1na2vs0mg"},{"bike_id":"d1174286-7c20-4cec-9521-e1fe98b8de7e","system_id":"levelo_inurba_marseille","lat":43.306453,"lon":5.400773,"is_reserved":false,"is_disabled":false,"rental_uris":{"android":"levelo://app?vid=d1174286-7c20-4cec-9521-e1fe98b8de7e","ios":"levelo://app?vid=d1174286-7c20-4cec-9521-e1fe98b8de7e"},"vehicle_type_id":"4","last_reported":1752304238,"current_range_meters":18000,"station_id":"ce4bh112rcd13ifvqda0","pricing_plan_id":"cebpf4jnsgd1na2vs0mg"},{"bike_id":"99125745-b6bc-4148-bd64-a63adb588d10","system_id":"levelo_inurba_marseille","lat":43.24388,"lon":5.37057,"is_reserved":false,"is_disabled":false,"rental_uris":{"android":"levelo://app?vid=99125745-b6bc-4148-bd64-a63adb588d10","ios":"levelo://app?vid=99125745-b6bc-4148-bd64-a63adb588d10"},"vehicle_type_id":"4","last_reported":1752304238,"current_range_meters":18800,"station_id":"ce4bhhh2rcd13ifvqfk0","pricing_plan_id":"cebpf4jnsgd1na2vs0mg"},{"bike_id":"775fc0d3-6cde-492b-b703-b78970571f1a","system_id":"levelo_inurba_marseille","lat":43.32365,"lon":5.367606,"is_reserved":false,"is_disabled":false,"rental_uris":{"android":"levelo://app?vid=775fc0d3-6cde-492b-b703-b78970571f1a","ios":"levelo://app?vid=775fc0d3-6cde-492b-b703-b78970571f1a"},"vehicle_type_id":"4","last_reported":1752304238,"current_range_meters":18800,"station_id":"ce4bhsh2rcd13ifvqi2g","pricing_plan_id":"cebpf4jnsgd1na2vs0mg"},{"bike_id":"844b44b6-4e33-4917-878d-a3c647561239","system_id":"levelo_inurba_marseille","lat":43.30738,"lon":5.42438,"is_reserved":false,"is_disabled":false,"rental_uris":{"android":"levelo://app?vid=844b44b6-4e33-4917-878d-a3c647561239","ios":"levelo://app?vid=844b44b6-4e33-4917-878d-a3c647561239"},"vehicle_type_id":"4","last_reported":1752304238,"current_range_meters":18800,"station_id":"st_cvj6ca6bvosntc0bfgr0","pricing_plan_id":"cebpf4jnsgd1na2vs0mg"},{"bike_id":"4b8da722-ee9e-48a4-a5e5-3a8a10364708","system_id":"levelo_inurba_marseille","lat":43.312395,"lon":5.378058,"is_reserved":false,"is_disabled":false,"rental_uris":{"android":"levelo://app?vid=4b8da722-ee9e-48a4-a5e5-3a8a10364708","ios":"levelo://app?vid=4b8da722-ee9e-48a4-a5e5-3a8a10364708"},"vehicle_type_id":"4","last_reported":1752304238,"current_range_meters":18800,"station_id":"","pricing_plan_id":"cebpf4jnsgd1na2vs0mg"},{"bike_id":"57692aae-9841-41ad-bc01-254866eaf8b0","system_id":"levelo_inurba_marseille","lat":43.32336,"lon":5.406213,"is_reserved":false,"is_disabled":false,"rental_uris":{"android":"levelo://app?vid=57692aae-9841-41ad-bc01-254866eaf8b0","ios":"levelo://app?vid=57692aae-9841-41ad-bc01-254866eaf8b0"},"vehicle_type_id":"4","last_reported":1752304238,"current_range_meters":18800,"station_id":"ce4bhq92rcd13ifvqhjg","pricing_plan_id":"cebpf4jnsgd1na2vs0mg"},{"bike_id":"5af35bc3-c835-45dc-8089-0d78e9c38b02","system_id":"levelo_inurba_marseille","lat":43.278956,"lon":5.380043,"is_reserved":false,"is_disabled":false,"rental_uris":{"android":"levelo://app?vid=5af35bc3-c835-45dc-8089-0d78e9c38b02","ios":"levelo://app?vid=5af35bc3-c835-45dc-8089-0d78e9c38b02"},"vehicle_type_id":"4","last_reported":1752304238,"current_range_meters":18800,"station_id":"ce4bhf92rcd13ifvqf50","pricing_plan_id":"cebpf4jnsgd1na2vs0mg"},{"bike_id":"ed387e25-1565-45a2-bc50-3d9ebbd60ae1","system_id":"levelo_inurba_marseille","lat":43.32669,"lon":5.3763,"is_reserved":false,"is_disabled":false,"rental_uris":{"android":"levelo://app?vid=ed387e25-1565-45a2-bc50-3d9ebbd60ae1","ios":"levelo://app?vid=ed387e25-1565-45a2-bc50-3d9ebbd60ae1"},"vehicle_type_id":"4","last_reported":1752304238,"current_range_meters":18800,"station_id":"","pricing_plan_id":"cebpf4jnsgd1na2vs0mg"},{"bike_id":"d79a699f-219a-4276-9165-07d645cadd36","system_id":"levelo_inurba_marseille","lat":43.279438,"lon":5.387075,"is_reserved":false,"is_disabled":true,"rental_uris":{"android":"levelo://app?vid=d79a699f-219a-4276-9165-07d645cadd36","ios":"levelo://app?vid=d79a699f-219a-4276-9165-07d645cadd36"},"vehicle_type_id":"4","last_reported":1752304238,"current_range_meters":19200,"station_id":"ce4bhg12rcd13ifvqf80","pricing_plan_id":"cebpf4jnsgd1na2vs0mg"},{"bike_id":"e817dbcf-1eb6-4edb-9c23-a648f327672e","system_id":"levelo_inurba_marseille","lat":43.30326,"lon":5.40429,"is_reserved":false,"is_disabled":false,"rental_uris":{"android":"levelo://app?vid=e817dbcf-1eb6-4edb-9c23-a648f327672e","ios":"levelo://app?vid=e817dbcf-1eb6-4edb-9c23-a648f327672e"},"vehicle_type_id":"4","last_reported":1752304238,"current_range_meters":19200,"station_id":"ce4bh012rcd13ifvqd10","pricing_plan_id":"cebpf4jnsgd1na2vs0mg"},{"bike_id":"49a25542-5ccc-437e-a925-aba2deda045d","system_id":"levelo_inurba_marseille","lat":43.320068,"lon":5.38143,"is_reserved":false,"is_disabled":false,"rental_uris":{"android":"levelo://app?vid=49a25542-5ccc-437e-a925-aba2deda045d","ios":"levelo://app?vid=49a25542-5ccc-437e-a925-aba2deda045d"},"vehicle_type_id":"4","last_reported":1752304238,"current_range_meters":19200,"station_id":"ce4bhr12rcd13ifvqhpg","pricing_plan_id":"cebpf4jnsgd1na2vs0mg"},{"bike_id":"b84efe8f-b40a-4e55-b7c2-d1e60451fba9","system_id":"levelo_inurba_marseille","lat":43.30782,"lon":5.37649,"is_reserved":false,"is_disabled":false,"rental_uris":{"android":"levelo://app?vid=b84efe8f-b40a-4e55-b7c2-d1e60451fba9","ios":"levelo://app?vid=b84efe8f-b40a-4e55-b7c2-d1e60451fba9"},"vehicle_type_id":"4","last_reported":1752304238,"current_range_meters":19600,"station_id":"ce4bgv92rcd13ifvqcq0","pricing_plan_id":"cebpf4jnsgd1na2vs0mg"},{"bike_id":"a46b9dfb-4db3-4551-a2f5-a8c981c35f1f","system_id":"levelo_inurba_marseille","lat":43.288477,"lon":5.3935,"is_reserved":false,"is_disabled":true,"rental_uris":{"android":"levelo://app?vid=a46b9dfb-4db3-4551-a2f5-a8c981c35f1f","ios":"levelo://app?vid=a46b9dfb-4db3-4551-a2f5-a8c981c35f1f"},"vehicle_type_id":"4","last_reported":1752304238,"current_range_meters":19600,"station_id":"ce4bh2p2rcd13ifvqdi0","pricing_plan_id":"cebpf4jnsgd1na2vs0mg"},{"bike_id":"14b914a7-ac81-4524-a358-77b861ff3535","system_id":"levelo_inurba_marseille","lat":43.276177,"lon":5.360993,"is_reserved":false,"is_disabled":false,"rental_uris":{"android":"levelo://app?vid=14b914a7-ac81-4524-a358-77b861ff3535","ios":"levelo://app?vid=14b914a7-ac81-4524-a358-77b861ff3535"},"vehicle_type_id":"4","last_reported":1752304238,"current_range_meters":19600,"station_id":"ce4bgj92rcd13ifvqbe0","pricing_plan_id":"cebpf4jnsgd1na2vs0mg"},{"bike_id":"81a7968c-76d4-40a6-9015-2ce2ddcae4c6","system_id":"levelo_inurba_marseille","lat":43.284564,"lon":5.391921,"is_reserved":false,"is_disabled":false,"rental_uris":{"android":"levelo://app?vid=81a7968c-76d4-40a6-9015-2ce2ddcae4c6","ios":"levelo://app?vid=81a7968c-76d4-40a6-9015-2ce2ddcae4c6"},"vehicle_type_id":"4","last_reported":1752304238,"current_range_meters":20000,"station_id":"ce4bhoh2rcd13ifvqh5g","pricing_plan_id":"cebpf4jnsgd1na2vs0mg"},{"bike_id":"2be08dce-0157-4ef8-802b-b5ca6818a70f","system_id":"levelo_inurba_marseille","lat":43.312831,"lon":5.401624,"is_reserved":false,"is_disabled":false,"rental_uris":{"android":"levelo://app?vid=2be08dce-0157-4ef8-802b-b5ca6818a70f","ios":"levelo://app?vid=2be08dce-0157-4ef8-802b-b5ca6818a70f"},"vehicle_type_id":"4","last_reported":1752304238,"current_range_meters":20000,"station_id":"ce4bh092rcd13ifvqd30","pricing_plan_id":"cebpf4jnsgd1na2vs0mg"},{"bike_id":"ece5e006-0a29-4a34-88d5-2dde675964aa","system_id":"levelo_inurba_marseille","lat":43.276137,"lon":5.361123,"is_reserved":false,"is_disabled":false,"rental_uris":{"android":"levelo://app?vid=ece5e006-0a29-4a34-88d5-2dde675964aa","ios":"levelo://app?vid=ece5e006-0a29-4a34-88d5-2dde675964aa"},"vehicle_type_id":"4","last_reported":1752304238,"current_range_meters":20000,"station_id":"ce4bgj92rcd13ifvqbe0","pricing_plan_id":"cebpf4jnsgd1na2vs0mg"},{"bike_id":"f9924005-c8ac-4086-8e25-9a21391f65ea","system_id":"levelo_inurba_marseille","lat":43.21192,"lon":5.35075,"is_reserved":false,"is_disabled":false,"rental_uris":{"android":"levelo://app?vid=f9924005-c8ac-4086-8e25-9a21391f65ea","ios":"levelo://app?vid=f9924005-c8ac-4086-8e25-9a21391f65ea"},"vehicle_type_id":"4","last_reported":1752304238,"current_range_meters":20000,"station_id":"st_cvj6sg6p6f1abm77japg","pricing_plan_id":"cebpf4jnsgd1na2vs0mg"},{"bike_id":"2afd10ce-5f23-4122-9c7a-a3416be941b2","system_id":"levelo_inurba_marseille","lat":43.26031,"lon":5.37553,"is_reserved":false,"is_disabled":true,"rental_uris":{"android":"levelo://app?vid=2afd10ce-5f23-4122-9c7a-a3416be941b2","ios":"levelo://app?vid=2afd10ce-5f23-4122-9c7a-a3416be941b2"},"vehicle_type_id":"4","last_reported":1752304238,"current_range_meters":20000,"station_id":"ce4bhgh2rcd13ifvqfa0","pricing_plan_id":"cebpf4jnsgd1na2vs0mg"},{"bike_id":"93736004-e478-41dc-b796-7360599bf429","system_id":"levelo_inurba_marseille","lat":43.3204,"lon":5.4157,"is_reserved":false,"is_disabled":true,"rental_uris":{"android":"levelo://app?vid=93736004-e478-41dc-b796-7360599bf429","ios":"levelo://app?vid=93736004-e478-41dc-b796-7360599bf429"},"vehicle_type_id":"4","last_reported":1752304238,"current_range_meters":20000,"station_id":"ce4bhq92rcd13ifvqhkg","pricing_plan_id":"cebpf4jnsgd1na2vs0mg"},{"bike_id":"daee89b2-7637-43fb-a5bb-124b5364aaf3","system_id":"levelo_inurba_marseille","lat":43.25585,"lon":5.38229,"is_reserved":false,"is_disabled":false,"rental_uris":{"android":"levelo://app?vid=daee89b2-7637-43fb-a5bb-124b5364aaf3","ios":"levelo://app?vid=daee89b2-7637-43fb-a5bb-124b5364aaf3"},"vehicle_type_id":"4","last_reported":1752304238,"current_range_meters":20400,"station_id":"ce4bhih2rcd13ifvqfs0","pricing_plan_id":"cebpf4jnsgd1na2vs0mg"},{"bike_id":"a97283a8-00c1-4a88-b765-2d0c83f0c3b3","system_id":"levelo_inurba_marseille","lat":43.25013,"lon":5.38917,"is_reserved":false,"is_disabled":false,"rental_uris":{"android":"levelo://app?vid=a97283a8-00c1-4a88-b765-2d0c83f0c3b3","ios":"levelo://app?vid=a97283a8-00c1-4a88-b765-2d0c83f0c3b3"},"vehicle_type_id":"4","last_reported":1752304238,"current_range_meters":20400,"station_id":"ce4bhgp2rcd13ifvqfd0","pricing_plan_id":"cebpf4jnsgd1na2vs0mg"},{"bike_id":"adcc9ae0-a9a8-4cbc-892d-3748d0a338d6","system_id":"levelo_inurba_marseille","lat":43.298767,"lon":5.39728,"is_reserved":false,"is_disabled":true,"rental_uris":{"android":"levelo://app?vid=adcc9ae0-a9a8-4cbc-892d-3748d0a338d6","ios":"levelo://app?vid=adcc9ae0-a9a8-4cbc-892d-3748d0a338d6"},"vehicle_type_id":"4","last_reported":1752304238,"current_range_meters":20400,"station_id":"ce4bh0h2rcd13ifvqd50","pricing_plan_id":"cebpf4jnsgd1na2vs0mg"},{"bike_id":"9d6ac4be-4158-44cb-bc4e-274ed8244cdc","system_id":"levelo_inurba_marseille","lat":43.296763,"lon":5.373824,"is_reserved":false,"is_disabled":false,"rental_uris":{"android":"levelo://app?vid=9d6ac4be-4158-44cb-bc4e-274ed8244cdc","ios":"levelo://app?vid=9d6ac4be-4158-44cb-bc4e-274ed8244cdc"},"vehicle_type_id":"4","last_reported":1752304238,"current_range_meters":20000,"station_id":"ce4bh412rcd13ifvqdr0","pricing_plan_id":"cebpf4jnsgd1na2vs0mg"},{"bike_id":"71ffafe8-ba4f-4329-9795-1b18b71c34dd","system_id":"levelo_inurba_marseille","lat":43.2978,"lon":5.37097,"is_reserved":false,"is_disabled":false,"rental_uris":{"android":"levelo://app?vid=71ffafe8-ba4f-4329-9795-1b18b71c34dd","ios":"levelo://app?vid=71ffafe8-ba4f-4329-9795-1b18b71c34dd"},"vehicle_type_id":"4","last_reported":1752304238,"current_range_meters":20800,"station_id":"ce4bgop2rcd13ifvqc1g","pricing_plan_id":"cebpf4jnsgd1na2vs0mg"},{"bike_id":"9b40dc73-509b-4d2f-8a27-44696719b175","system_id":"levelo_inurba_marseille","lat":43.270688,"lon":5.422752,"is_reserved":false,"is_disabled":false,"rental_uris":{"android":"levelo://app?vid=9b40dc73-509b-4d2f-8a27-44696719b175","ios":"levelo://app?vid=9b40dc73-509b-4d2f-8a27-44696719b175"},"vehicle_type_id":"4","last_reported":1752304238,"current_range_meters":20800,"station_id":"ce4bhk92rcd13ifvqgb0","pricing_plan_id":"cebpf4jnsgd1na2vs0mg"},{"bike_id":"b3b8d3ae-e1dc-45c6-92d5-1af4f0a120fa","system_id":"levelo_inurba_marseille","lat":43.29499,"lon":5.39414,"is_reserved":false,"is_disabled":false,"rental_uris":{"android":"levelo://app?vid=b3b8d3ae-e1dc-45c6-92d5-1af4f0a120fa","ios":"levelo://app?vid=b3b8d3ae-e1dc-45c6-92d5-1af4f0a120fa"},"vehicle_type_id":"4","last_reported":1752304238,"current_range_meters":20800,"station_id":"ce4bh292rcd13ifvqdf0","pricing_plan_id":"cebpf4jnsgd1na2vs0mg"},{"bike_id":"2d5ece50-7b5e-4b8c-b259-cb04f9b7d133","system_id":"levelo_inurba_marseille","lat":43.31387,"lon":5.38498,"is_reserved":false,"is_disabled":false,"rental_uris":{"android":"levelo://app?vid=2d5ece50-7b5e-4b8c-b259-cb04f9b7d133","ios":"levelo://app?vid=2d5ece50-7b5e-4b8c-b259-cb04f9b7d133"},"vehicle_type_id":"4","last_reported":1752304238,"current_range_meters":20800,"station_id":"ce4bgt92rcd13ifvqcf0","pricing_plan_id":"cebpf4jnsgd1na2vs0mg"},{"bike_id":"760e7858-c0b8-4554-a613-7f2d68de507f","system_id":"levelo_inurba_marseille","lat":43.30151,"lon":5.37192,"is_reserved":false,"is_disabled":false,"rental_uris":{"android":"levelo://app?vid=760e7858-c0b8-4554-a613-7f2d68de507f","ios":"levelo://app?vid=760e7858-c0b8-4554-a613-7f2d68de507f"},"vehicle_type_id":"4","last_reported":1752304238,"current_range_meters":20800,"station_id":"","pricing_plan_id":"cebpf4jnsgd1na2vs0mg"},{"bike_id":"6ab47a3b-33be-43a3-9be5-22544c2b0721","system_id":"levelo_inurba_marseille","lat":43.295322,"lon":5.385474,"is_reserved":false,"is_disabled":true,"rental_uris":{"android":"levelo://app?vid=6ab47a3b-33be-43a3-9be5-22544c2b0721","ios":"levelo://app?vid=6ab47a3b-33be-43a3-9be5-22544c2b0721"},"vehicle_type_id":"4","last_reported":1752304238,"current_range_meters":20800,"station_id":"ce4bgih2rcd13ifvqba0","pricing_plan_id":"cebpf4jnsgd1na2vs0mg"},{"bike_id":"dc47e28b-4d2c-4cc0-9dcc-30f47829d9cb","system_id":"levelo_inurba_marseille","lat":43.25004,"lon":5.38903,"is_reserved":false,"is_disabled":false,"rental_uris":{"android":"levelo://app?vid=dc47e28b-4d2c-4cc0-9dcc-30f47829d9cb","ios":"levelo://app?vid=dc47e28b-4d2c-4cc0-9dcc-30f47829d9cb"},"vehicle_type_id":"4","last_reported":1752304238,"current_range_meters":20800,"station_id":"ce4bhgp2rcd13ifvqfd0","pricing_plan_id":"cebpf4jnsgd1na2vs0mg"},{"bike_id":"5ac1cc19-1bc3-4f55-9cc0-4d45c0e83a3a","system_id":"levelo_inurba_marseille","lat":43.292766,"lon":5.401201,"is_reserved":false,"is_disabled":false,"rental_uris":{"android":"levelo://app?vid=5ac1cc19-1bc3-4f55-9cc0-4d45c0e83a3a","ios":"levelo://app?vid=5ac1cc19-1bc3-4f55-9cc0-4d45c0e83a3a"},"vehicle_type_id":"4","last_reported":1752304238,"current_range_meters":20800,"station_id":"ce4bh312rcd13ifvqdk0","pricing_plan_id":"cebpf4jnsgd1na2vs0mg"},{"bike_id":"02c71304-9c4f-4ebf-b265-2eb94afb5a95","system_id":"levelo_inurba_marseille","lat":43.30932,"lon":5.36832,"is_reserved":false,"is_disabled":false,"rental_uris":{"android":"levelo://app?vid=02c71304-9c4f-4ebf-b265-2eb94afb5a95","ios":"levelo://app?vid=02c71304-9c4f-4ebf-b265-2eb94afb5a95"},"vehicle_type_id":"4","last_reported":1752304238,"current_range_meters":21600,"station_id":"","pricing_plan_id":"cebpf4jnsgd1na2vs0mg"},{"bike_id":"45be3528-fd16-498e-8434-e30e29d5ac2e","system_id":"levelo_inurba_marseille","lat":43.30364,"lon":5.39789,"is_reserved":false,"is_disabled":false,"rental_uris":{"android":"levelo://app?vid=45be3528-fd16-498e-8434-e30e29d5ac2e","ios":"levelo://app?vid=45be3528-fd16-498e-8434-e30e29d5ac2e"},"vehicle_type_id":"4","last_reported":1752304238,"current_range_meters":21600,"station_id":"","pricing_plan_id":"cebpf4jnsgd1na2vs0mg"},{"bike_id":"06c941b6-ccf0-438e-96c1-752265e3672d","system_id":"levelo_inurba_marseille","lat":43.312788,"lon":5.40167,"is_reserved":false,"is_disabled":false,"rental_uris":{"android":"levelo://app?vid=06c941b6-ccf0-438e-96c1-752265e3672d","ios":"levelo://app?vid=06c941b6-ccf0-438e-96c1-752265e3672d"},"vehicle_type_id":"4","last_reported":1752304238,"current_range_meters":21600,"station_id":"ce4bh092rcd13ifvqd30","pricing_plan_id":"cebpf4jnsgd1na2vs0mg"},{"bike_id":"69e04c82-feaa-4455-a918-fbb51efec30e","system_id":"levelo_inurba_marseille","lat":43.305398,"lon":5.381401,"is_reserved":false,"is_disabled":false,"rental_uris":{"android":"levelo://app?vid=69e04c82-feaa-4455-a918-fbb51efec30e","ios":"levelo://app?vid=69e04c82-feaa-4455-a918-fbb51efec30e"},"vehicle_type_id":"4","last_reported":1752304238,"current_range_meters":21600,"station_id":"","pricing_plan_id":"cebpf4jnsgd1na2vs0mg"},{"bike_id":"dd8a22ab-a77e-41e2-b54b-73865567fd13","system_id":"levelo_inurba_marseille","lat":43.29244,"lon":5.40118,"is_reserved":false,"is_disabled":false,"rental_uris":{"android":"levelo://app?vid=dd8a22ab-a77e-41e2-b54b-73865567fd13","ios":"levelo://app?vid=dd8a22ab-a77e-41e2-b54b-73865567fd13"},"vehicle_type_id":"4","last_reported":1752304238,"current_range_meters":21600,"station_id":"ce4bh312rcd13ifvqdk0","pricing_plan_id":"cebpf4jnsgd1na2vs0mg"},{"bike_id":"7f8239f6-49ce-42e0-a2e5-983000e48522","system_id":"levelo_inurba_marseille","lat":43.25121,"lon":5.40307,"is_reserved":false,"is_disabled":false,"rental_uris":{"android":"levelo://app?vid=7f8239f6-49ce-42e0-a2e5-983000e48522","ios":"levelo://app?vid=7f8239f6-49ce-42e0-a2e5-983000e48522"},"vehicle_type_id":"4","last_reported":1752304238,"current_range_meters":21600,"station_id":"ce4bhlh2rcd13ifvqgig","pricing_plan_id":"cebpf4jnsgd1na2vs0mg"},{"bike_id":"bcdfec2b-e0a6-46cf-82ad-7596c584252c","system_id":"levelo_inurba_marseille","lat":43.28568,"lon":5.39496,"is_reserved":false,"is_disabled":false,"rental_uris":{"android":"levelo://app?vid=bcdfec2b-e0a6-46cf-82ad-7596c584252c","ios":"levelo://app?vid=bcdfec2b-e0a6-46cf-82ad-7596c584252c"},"vehicle_type_id":"4","last_reported":1752304238,"current_range_meters":20800,"station_id":"ce4bh292rcd13ifvqdg0","pricing_plan_id":"cebpf4jnsgd1na2vs0mg"},{"bike_id":"c35b2c01-0717-4a19-a3fc-fc581bde10ae","system_id":"levelo_inurba_marseille","lat":43.308068,"lon":5.381569,"is_reserved":false,"is_disabled":false,"rental_uris":{"android":"levelo://app?vid=c35b2c01-0717-4a19-a3fc-fc581bde10ae","ios":"levelo://app?vid=c35b2c01-0717-4a19-a3fc-fc581bde10ae"},"vehicle_type_id":"4","last_reported":1752304238,"current_range_meters":22000,"station_id":"ce4bgt12rcd13ifvqce0","pricing_plan_id":"cebpf4jnsgd1na2vs0mg"},{"bike_id":"3194e511-7eaa-423b-8037-0a4e779bf4e7","system_id":"levelo_inurba_marseille","lat":43.3079,"lon":5.37643,"is_reserved":false,"is_disabled":false,"rental_uris":{"android":"levelo://app?vid=3194e511-7eaa-423b-8037-0a4e779bf4e7","ios":"levelo://app?vid=3194e511-7eaa-423b-8037-0a4e779bf4e7"},"vehicle_type_id":"4","last_reported":1752304238,"current_range_meters":22000,"station_id":"ce4bgv92rcd13ifvqcq0","pricing_plan_id":"cebpf4jnsgd1na2vs0mg"},{"bike_id":"62d45175-5b58-487b-a431-c56fa7420b77","system_id":"levelo_inurba_marseille","lat":43.279911,"lon":5.416887,"is_reserved":false,"is_disabled":false,"rental_uris":{"android":"levelo://app?vid=62d45175-5b58-487b-a431-c56fa7420b77","ios":"levelo://app?vid=62d45175-5b58-487b-a431-c56fa7420b77"},"vehicle_type_id":"4","last_reported":1752304238,"current_range_meters":22000,"station_id":"ce4bho12rcd13ifvqh1g","pricing_plan_id":"cebpf4jnsgd1na2vs0mg"},{"bike_id":"91a5348d-1996-4338-8fbd-12c576d3f361","system_id":"levelo_inurba_marseille","lat":43.3079,"lon":5.38137,"is_reserved":false,"is_disabled":false,"rental_uris":{"android":"levelo://app?vid=91a5348d-1996-4338-8fbd-12c576d3f361","ios":"levelo://app?vid=91a5348d-1996-4338-8fbd-12c576d3f361"},"vehicle_type_id":"4","last_reported":1752304238,"current_range_meters":22000,"station_id":"ce4bgt12rcd13ifvqce0","pricing_plan_id":"cebpf4jnsgd1na2vs0mg"},{"bike_id":"80706ed8-34fd-4666-9e3e-8aacbb0a19ea","system_id":"levelo_inurba_marseille","lat":43.267966,"lon":5.402679,"is_reserved":false,"is_disabled":true,"rental_uris":{"android":"levelo://app?vid=80706ed8-34fd-4666-9e3e-8aacbb0a19ea","ios":"levelo://app?vid=80706ed8-34fd-4666-9e3e-8aacbb0a19ea"},"vehicle_type_id":"4","last_reported":1752304238,"current_range_meters":22000,"station_id":"ce501612rcd8frsf0b60","pricing_plan_id":"cebpf4jnsgd1na2vs0mg"},{"bike_id":"37ae07fb-42db-4df6-b63d-b27df0f83f8d","system_id":"levelo_inurba_marseille","lat":43.25493,"lon":5.37645,"is_reserved":false,"is_disabled":false,"rental_uris":{"android":"levelo://app?vid=37ae07fb-42db-4df6-b63d-b27df0f83f8d","ios":"levelo://app?vid=37ae07fb-42db-4df6-b63d-b27df0f83f8d"},"vehicle_type_id":"4","last_reported":1752304238,"current_range_meters":22400,"station_id":"ce4bhh12rcd13ifvqff0","pricing_plan_id":"cebpf4jnsgd1na2vs0mg"},{"bike_id":"8fbbc130-8f5c-46d9-a0e4-5e968efe633b","system_id":"levelo_inurba_marseille","lat":43.29201,"lon":5.35797,"is_reserved":false,"is_disabled":false,"rental_uris":{"android":"levelo://app?vid=8fbbc130-8f5c-46d9-a0e4-5e968efe633b","ios":"levelo://app?vid=8fbbc130-8f5c-46d9-a0e4-5e968efe633b"},"vehicle_type_id":"4","last_reported":1752304238,"current_range_meters":22400,"station_id":"ce4bhb12rcd13ifvqel0","pricing_plan_id":"cebpf4jnsgd1na2vs0mg"},{"bike_id":"a0196c14-51ca-4a48-8ced-0c344b199527","system_id":"levelo_inurba_marseille","lat":43.29846,"lon":5.36271,"is_reserved":false,"is_disabled":false,"rental_uris":{"android":"levelo://app?vid=a0196c14-51ca-4a48-8ced-0c344b199527","ios":"levelo://app?vid=a0196c14-51ca-4a48-8ced-0c344b199527"},"vehicle_type_id":"4","last_reported":1752304238,"current_range_meters":22000,"station_id":"ce4bgpp2rcd13ifvqc3g","pricing_plan_id":"cebpf4jnsgd1na2vs0mg"},{"bike_id":"96743d52-937f-4826-8924-38fc8c385246","system_id":"levelo_inurba_marseille","lat":43.30938,"lon":5.40144,"is_reserved":false,"is_disabled":false,"rental_uris":{"android":"levelo://app?vid=96743d52-937f-4826-8924-38fc8c385246","ios":"levelo://app?vid=96743d52-937f-4826-8924-38fc8c385246"},"vehicle_type_id":"4","last_reported":1752304238,"current_range_meters":22400,"station_id":"ce4bgvp2rcd13ifvqct0","pricing_plan_id":"cebpf4jnsgd1na2vs0mg"},{"bike_id":"37e04037-4751-45cc-9e56-db1728107dad","system_id":"levelo_inurba_marseille","lat":43.311129,"lon":5.377613,"is_reserved":false,"is_disabled":false,"rental_uris":{"android":"levelo://app?vid=37e04037-4751-45cc-9e56-db1728107dad","ios":"levelo://app?vid=37e04037-4751-45cc-9e56-db1728107dad"},"vehicle_type_id":"4","last_reported":1752304238,"current_range_meters":22400,"station_id":"ce4bgt92rcd13ifvqcg0","pricing_plan_id":"cebpf4jnsgd1na2vs0mg"},{"bike_id":"30eb0ca0-8ddd-43cd-aeff-88f0926bec3f","system_id":"levelo_inurba_marseille","lat":43.318981,"lon":5.407388,"is_reserved":false,"is_disabled":true,"rental_uris":{"android":"levelo://app?vid=30eb0ca0-8ddd-43cd-aeff-88f0926bec3f","ios":"levelo://app?vid=30eb0ca0-8ddd-43cd-aeff-88f0926bec3f"},"vehicle_type_id":"4","last_reported":1752304238,"current_range_meters":22400,"station_id":"ce4bhq12rcd13ifvqhig","pricing_plan_id":"cebpf4jnsgd1na2vs0mg"},{"bike_id":"9f7a8926-fe00-41e0-80a0-ac3ffcc68741","system_id":"levelo_inurba_marseille","lat":43.24071,"lon":5.37764,"is_reserved":false,"is_disabled":false,"rental_uris":{"android":"levelo://app?vid=9f7a8926-fe00-41e0-80a0-ac3ffcc68741","ios":"levelo://app?vid=9f7a8926-fe00-41e0-80a0-ac3ffcc68741"},"vehicle_type_id":"4","last_reported":1752304238,"current_range_meters":22800,"station_id":"ce4bhnp2rcd13ifvqgvg","pricing_plan_id":"cebpf4jnsgd1na2vs0mg"},{"bike_id":"f5a47db5-6fb2-46bd-a2de-efa4ad13bf60","system_id":"levelo_inurba_marseille","lat":43.211921,"lon":5.350726,"is_reserved":false,"is_disabled":false,"rental_uris":{"android":"levelo://app?vid=f5a47db5-6fb2-46bd-a2de-efa4ad13bf60","ios":"levelo://app?vid=f5a47db5-6fb2-46bd-a2de-efa4ad13bf60"},"vehicle_type_id":"4","last_reported":1752304238,"current_range_meters":22800,"station_id":"st_cvj6sg6p6f1abm77japg","pricing_plan_id":"cebpf4jnsgd1na2vs0mg"},{"bike_id":"579c9257-e9d2-4fed-8af3-001a27548604","system_id":"levelo_inurba_marseille","lat":43.21192,"lon":5.35064,"is_reserved":false,"is_disabled":false,"rental_uris":{"android":"levelo://app?vid=579c9257-e9d2-4fed-8af3-001a27548604","ios":"levelo://app?vid=579c9257-e9d2-4fed-8af3-001a27548604"},"vehicle_type_id":"4","last_reported":1752304238,"current_range_meters":22800,"station_id":"st_cvj6sg6p6f1abm77japg","pricing_plan_id":"cebpf4jnsgd1na2vs0mg"},{"bike_id":"d2501d8a-17a4-488b-92ac-71df945193d6","system_id":"levelo_inurba_marseille","lat":43.270695,"lon":5.422773,"is_reserved":false,"is_disabled":false,"rental_uris":{"android":"levelo://app?vid=d2501d8a-17a4-488b-92ac-71df945193d6","ios":"levelo://app?vid=d2501d8a-17a4-488b-92ac-71df945193d6"},"vehicle_type_id":"4","last_reported":1752304238,"current_range_meters":22800,"station_id":"ce4bhk92rcd13ifvqgb0","pricing_plan_id":"cebpf4jnsgd1na2vs0mg"},{"bike_id":"58375fde-ca97-4dab-be52-59caf98323d3","system_id":"levelo_inurba_marseille","lat":43.26549,"lon":5.37282,"is_reserved":false,"is_disabled":true,"rental_uris":{"android":"levelo://app?vid=58375fde-ca97-4dab-be52-59caf98323d3","ios":"levelo://app?vid=58375fde-ca97-4dab-be52-59caf98323d3"},"vehicle_type_id":"4","last_reported":1752304238,"current_range_meters":22800,"station_id":"ce4bhg12rcd13ifvqf70","pricing_plan_id":"cebpf4jnsgd1na2vs0mg"},{"bike_id":"acae9b01-926e-41f4-ad29-043ee59ff1cc","system_id":"levelo_inurba_marseille","lat":43.30087,"lon":5.39087,"is_reserved":false,"is_disabled":false,"rental_uris":{"android":"levelo://app?vid=acae9b01-926e-41f4-ad29-043ee59ff1cc","ios":"levelo://app?vid=acae9b01-926e-41f4-ad29-043ee59ff1cc"},"vehicle_type_id":"4","last_reported":1752304238,"current_range_meters":22800,"station_id":"ce4bh192rcd13ifvqdb0","pricing_plan_id":"cebpf4jnsgd1na2vs0mg"},{"bike_id":"cc6260c7-e588-42d7-afef-96c409802ccc","system_id":"levelo_inurba_marseille","lat":43.211951,"lon":5.350676,"is_reserved":false,"is_disabled":false,"rental_uris":{"android":"levelo://app?vid=cc6260c7-e588-42d7-afef-96c409802ccc","ios":"levelo://app?vid=cc6260c7-e588-42d7-afef-96c409802ccc"},"vehicle_type_id":"4","last_reported":1752304238,"current_range_meters":22800,"station_id":"st_cvj6sg6p6f1abm77japg","pricing_plan_id":"cebpf4jnsgd1na2vs0mg"},{"bike_id":"9bfc7d3d-4e60-4f8a-9c32-ef3d0e77ec5b","system_id":"levelo_inurba_marseille","lat":43.211918,"lon":5.350737,"is_reserved":false,"is_disabled":false,"rental_uris":{"android":"levelo://app?vid=9bfc7d3d-4e60-4f8a-9c32-ef3d0e77ec5b","ios":"levelo://app?vid=9bfc7d3d-4e60-4f8a-9c32-ef3d0e77ec5b"},"vehicle_type_id":"4","last_reported":1752304238,"current_range_meters":22800,"station_id":"st_cvj6sg6p6f1abm77japg","pricing_plan_id":"cebpf4jnsgd1na2vs0mg"},{"bike_id":"29dc3911-ed20-469c-be27-30aba7e69ef9","system_id":"levelo_inurba_marseille","lat":43.28481,"lon":5.38575,"is_reserved":false,"is_disabled":false,"rental_uris":{"android":"levelo://app?vid=29dc3911-ed20-469c-be27-30aba7e69ef9","ios":"levelo://app?vid=29dc3911-ed20-469c-be27-30aba7e69ef9"},"vehicle_type_id":"4","last_reported":1752304238,"current_range_meters":22800,"station_id":"ce4bh8p2rcd13ifvqeb0","pricing_plan_id":"cebpf4jnsgd1na2vs0mg"},{"bike_id":"10666549-7ebc-45b0-9816-8cedb6235d7b","system_id":"levelo_inurba_marseille","lat":43.28611,"lon":5.37029,"is_reserved":false,"is_disabled":false,"rental_uris":{"android":"levelo://app?vid=10666549-7ebc-45b0-9816-8cedb6235d7b","ios":"levelo://app?vid=10666549-7ebc-45b0-9816-8cedb6235d7b"},"vehicle_type_id":"4","last_reported":1752304238,"current_range_meters":23200,"station_id":"ce4bht12rcd13ifvqi60","pricing_plan_id":"cebpf4jnsgd1na2vs0mg"},{"bike_id":"606f76d1-bb3c-4528-9492-1dacd033a853","system_id":"levelo_inurba_marseille","lat":43.28484,"lon":5.38554,"is_reserved":false,"is_disabled":false,"rental_uris":{"android":"levelo://app?vid=606f76d1-bb3c-4528-9492-1dacd033a853","ios":"levelo://app?vid=606f76d1-bb3c-4528-9492-1dacd033a853"},"vehicle_type_id":"4","last_reported":1752304238,"current_range_meters":23200,"station_id":"ce4bh8p2rcd13ifvqeb0","pricing_plan_id":"cebpf4jnsgd1na2vs0mg"},{"bike_id":"a03a975e-b486-407b-9fe2-dcab76e4a421","system_id":"levelo_inurba_marseille","lat":43.29531,"lon":5.38539,"is_reserved":false,"is_disabled":true,"rental_uris":{"android":"levelo://app?vid=a03a975e-b486-407b-9fe2-dcab76e4a421","ios":"levelo://app?vid=a03a975e-b486-407b-9fe2-dcab76e4a421"},"vehicle_type_id":"4","last_reported":1752304238,"current_range_meters":23200,"station_id":"ce4bgih2rcd13ifvqba0","pricing_plan_id":"cebpf4jnsgd1na2vs0mg"},{"bike_id":"2140d094-f43a-4d54-b055-6273bdbd483a","system_id":"levelo_inurba_marseille","lat":43.29603,"lon":5.38098,"is_reserved":false,"is_disabled":false,"rental_uris":{"android":"levelo://app?vid=2140d094-f43a-4d54-b055-6273bdbd483a","ios":"levelo://app?vid=2140d094-f43a-4d54-b055-6273bdbd483a"},"vehicle_type_id":"4","last_reported":1752304238,"current_range_meters":23200,"station_id":"ce4bgl12rcd13ifvqbo0","pricing_plan_id":"cebpf4jnsgd1na2vs0mg"},{"bike_id":"c8c4de1a-846f-4f5b-aace-9fb14bf7ad52","system_id":"levelo_inurba_marseille","lat":43.21187,"lon":5.35072,"is_reserved":false,"is_disabled":false,"rental_uris":{"android":"levelo://app?vid=c8c4de1a-846f-4f5b-aace-9fb14bf7ad52","ios":"levelo://app?vid=c8c4de1a-846f-4f5b-aace-9fb14bf7ad52"},"vehicle_type_id":"4","last_reported":1752304238,"current_range_meters":23200,"station_id":"st_cvj6sg6p6f1abm77japg","pricing_plan_id":"cebpf4jnsgd1na2vs0mg"},{"bike_id":"37422138-407d-4333-b488-6355afcfad7f","system_id":"levelo_inurba_marseille","lat":43.27617,"lon":5.36102,"is_reserved":false,"is_disabled":false,"rental_uris":{"android":"levelo://app?vid=37422138-407d-4333-b488-6355afcfad7f","ios":"levelo://app?vid=37422138-407d-4333-b488-6355afcfad7f"},"vehicle_type_id":"4","last_reported":1752304238,"current_range_meters":23200,"station_id":"ce4bgj92rcd13ifvqbe0","pricing_plan_id":"cebpf4jnsgd1na2vs0mg"},{"bike_id":"7b49c975-458d-4b6e-820c-0a946d3491f2","system_id":"levelo_inurba_marseille","lat":43.29143,"lon":5.37168,"is_reserved":false,"is_disabled":true,"rental_uris":{"android":"levelo://app?vid=7b49c975-458d-4b6e-820c-0a946d3491f2","ios":"levelo://app?vid=7b49c975-458d-4b6e-820c-0a946d3491f2"},"vehicle_type_id":"4","last_reported":1752304238,"current_range_meters":23200,"station_id":"ce4bha92rcd13ifvqeh0","pricing_plan_id":"cebpf4jnsgd1na2vs0mg"},{"bike_id":"27ddc5d2-b61b-45ad-9987-f12fa460ae74","system_id":"levelo_inurba_marseille","lat":43.30954,"lon":5.4015,"is_reserved":false,"is_disabled":false,"rental_uris":{"android":"levelo://app?vid=27ddc5d2-b61b-45ad-9987-f12fa460ae74","ios":"levelo://app?vid=27ddc5d2-b61b-45ad-9987-f12fa460ae74"},"vehicle_type_id":"4","last_reported":1752304238,"current_range_meters":23200,"station_id":"ce4bgvp2rcd13ifvqct0","pricing_plan_id":"cebpf4jnsgd1na2vs0mg"},{"bike_id":"e551c81f-beb8-4535-a76a-0860bd6c5653","system_id":"levelo_inurba_marseille","lat":43.29426,"lon":5.38605,"is_reserved":false,"is_disabled":true,"rental_uris":{"android":"levelo://app?vid=e551c81f-beb8-4535-a76a-0860bd6c5653","ios":"levelo://app?vid=e551c81f-beb8-4535-a76a-0860bd6c5653"},"vehicle_type_id":"4","last_reported":1752304238,"current_range_meters":24000,"station_id":"ce4bh2h2rcd13ifvqdh0","pricing_plan_id":"cebpf4jnsgd1na2vs0mg"},{"bike_id":"07d14d86-a176-4665-a495-26ba7e0009ea","system_id":"levelo_inurba_marseille","lat":43.282719,"lon":5.350586,"is_reserved":false,"is_disabled":true,"rental_uris":{"android":"levelo://app?vid=07d14d86-a176-4665-a495-26ba7e0009ea","ios":"levelo://app?vid=07d14d86-a176-4665-a495-26ba7e0009ea"},"vehicle_type_id":"4","last_reported":1752304238,"current_range_meters":24000,"station_id":"ce4bhbp2rcd13ifvqerg","pricing_plan_id":"cebpf4jnsgd1na2vs0mg"},{"bike_id":"99ae43ef-9981-41ec-907c-f94f73cc9ad2","system_id":"levelo_inurba_marseille","lat":43.29985,"lon":5.38484,"is_reserved":false,"is_disabled":false,"rental_uris":{"android":"levelo://app?vid=99ae43ef-9981-41ec-907c-f94f73cc9ad2","ios":"levelo://app?vid=99ae43ef-9981-41ec-907c-f94f73cc9ad2"},"vehicle_type_id":"4","last_reported":1752304238,"current_range_meters":24000,"station_id":"ce4bgj92rcd13ifvqbd0","pricing_plan_id":"cebpf4jnsgd1na2vs0mg"},{"bike_id":"3eff1484-7a5e-46ac-b3f5-4582e141a83e","system_id":"levelo_inurba_marseille","lat":43.269383,"lon":5.402493,"is_reserved":false,"is_disabled":false,"rental_uris":{"android":"levelo://app?vid=3eff1484-7a5e-46ac-b3f5-4582e141a83e","ios":"levelo://app?vid=3eff1484-7a5e-46ac-b3f5-4582e141a83e"},"vehicle_type_id":"4","last_reported":1752304238,"current_range_meters":24400,"station_id":"cjm6bp8fraef2m0cb0m0","pricing_plan_id":"cebpf4jnsgd1na2vs0mg"},{"bike_id":"df3e9a10-9a98-4a5f-84d2-8f885536a725","system_id":"levelo_inurba_marseille","lat":43.299222,"lon":5.365536,"is_reserved":false,"is_disabled":false,"rental_uris":{"android":"levelo://app?vid=df3e9a10-9a98-4a5f-84d2-8f885536a725","ios":"levelo://app?vid=df3e9a10-9a98-4a5f-84d2-8f885536a725"},"vehicle_type_id":"4","last_reported":1752304238,"current_range_meters":24400,"station_id":"ce4bgm92rcd13ifvqbr0","pricing_plan_id":"cebpf4jnsgd1na2vs0mg"},{"bike_id":"b29c635f-9f64-466c-a57c-b8a3bc4058b4","system_id":"levelo_inurba_marseille","lat":43.308318,"lon":5.400329,"is_reserved":false,"is_disabled":false,"rental_uris":{"android":"levelo://app?vid=b29c635f-9f64-466c-a57c-b8a3bc4058b4","ios":"levelo://app?vid=b29c635f-9f64-466c-a57c-b8a3bc4058b4"},"vehicle_type_id":"4","last_reported":1752304238,"current_range_meters":24400,"station_id":"","pricing_plan_id":"cebpf4jnsgd1na2vs0mg"},{"bike_id":"80955d0f-8669-4c02-b90f-c6fe20790c37","system_id":"levelo_inurba_marseille","lat":43.23199,"lon":5.3505,"is_reserved":false,"is_disabled":false,"rental_uris":{"android":"levelo://app?vid=80955d0f-8669-4c02-b90f-c6fe20790c37","ios":"levelo://app?vid=80955d0f-8669-4c02-b90f-c6fe20790c37"},"vehicle_type_id":"4","last_reported":1752304238,"current_range_meters":24400,"station_id":"","pricing_plan_id":"cebpf4jnsgd1na2vs0mg"},{"bike_id":"fb76ffbe-c9ca-4171-9d82-f00c3931fbea","system_id":"levelo_inurba_marseille","lat":43.29893,"lon":5.381442,"is_reserved":false,"is_disabled":true,"rental_uris":{"android":"levelo://app?vid=fb76ffbe-c9ca-4171-9d82-f00c3931fbea","ios":"levelo://app?vid=fb76ffbe-c9ca-4171-9d82-f00c3931fbea"},"vehicle_type_id":"4","last_reported":1752304238,"current_range_meters":24400,"station_id":"ce4bgj12rcd13ifvqbc0","pricing_plan_id":"cebpf4jnsgd1na2vs0mg"},{"bike_id":"4840a500-316c-452a-8619-2a7792ea3551","system_id":"levelo_inurba_marseille","lat":43.282747,"lon":5.350721,"is_reserved":false,"is_disabled":true,"rental_uris":{"android":"levelo://app?vid=4840a500-316c-452a-8619-2a7792ea3551","ios":"levelo://app?vid=4840a500-316c-452a-8619-2a7792ea3551"},"vehicle_type_id":"4","last_reported":1752304238,"current_range_meters":24400,"station_id":"ce4bhbp2rcd13ifvqerg","pricing_plan_id":"cebpf4jnsgd1na2vs0mg"},{"bike_id":"f59f6657-f62a-42fc-a273-bf50a25645d6","system_id":"levelo_inurba_marseille","lat":43.273699,"lon":5.362726,"is_reserved":false,"is_disabled":false,"rental_uris":{"android":"levelo://app?vid=f59f6657-f62a-42fc-a273-bf50a25645d6","ios":"levelo://app?vid=f59f6657-f62a-42fc-a273-bf50a25645d6"},"vehicle_type_id":"4","last_reported":1752304238,"current_range_meters":24400,"station_id":"ce4bhbh2rcd13ifvqeo0","pricing_plan_id":"cebpf4jnsgd1na2vs0mg"},{"bike_id":"0812d093-8e54-4ac3-897c-b1868e2f1926","system_id":"levelo_inurba_marseille","lat":43.28898,"lon":5.3953,"is_reserved":false,"is_disabled":false,"rental_uris":{"android":"levelo://app?vid=0812d093-8e54-4ac3-897c-b1868e2f1926","ios":"levelo://app?vid=0812d093-8e54-4ac3-897c-b1868e2f1926"},"vehicle_type_id":"4","last_reported":1752304238,"current_range_meters":24400,"station_id":"","pricing_plan_id":"cebpf4jnsgd1na2vs0mg"},{"bike_id":"9928d297-b595-4aa0-af92-3f76c8d3fc60","system_id":"levelo_inurba_marseille","lat":43.316939,"lon":5.376565,"is_reserved":false,"is_disabled":false,"rental_uris":{"android":"levelo://app?vid=9928d297-b595-4aa0-af92-3f76c8d3fc60","ios":"levelo://app?vid=9928d297-b595-4aa0-af92-3f76c8d3fc60"},"vehicle_type_id":"4","last_reported":1752304238,"current_range_meters":24400,"station_id":"ce4bgth2rcd13ifvqch0","pricing_plan_id":"cebpf4jnsgd1na2vs0mg"},{"bike_id":"9a80b397-971d-4f9f-ac4d-7bae9fe43b81","system_id":"levelo_inurba_marseille","lat":43.292856,"lon":5.401274,"is_reserved":false,"is_disabled":false,"rental_uris":{"android":"levelo://app?vid=9a80b397-971d-4f9f-ac4d-7bae9fe43b81","ios":"levelo://app?vid=9a80b397-971d-4f9f-ac4d-7bae9fe43b81"},"vehicle_type_id":"4","last_reported":1752304238,"current_range_meters":24400,"station_id":"ce4bh312rcd13ifvqdk0","pricing_plan_id":"cebpf4jnsgd1na2vs0mg"},{"bike_id":"bbaecf5c-c043-4427-831b-e9b9f93743bc","system_id":"levelo_inurba_marseille","lat":43.28155,"lon":5.426507,"is_reserved":false,"is_disabled":false,"rental_uris":{"android":"levelo://app?vid=bbaecf5c-c043-4427-831b-e9b9f93743bc","ios":"levelo://app?vid=bbaecf5c-c043-4427-831b-e9b9f93743bc"},"vehicle_type_id":"4","last_reported":1752304238,"current_range_meters":24400,"station_id":"ce4bhnh2rcd13ifvqgug","pricing_plan_id":"cebpf4jnsgd1na2vs0mg"},{"bike_id":"b799f899-220f-4d7e-bfad-6862bab05a50","system_id":"levelo_inurba_marseille","lat":43.24735,"lon":5.41184,"is_reserved":false,"is_disabled":false,"rental_uris":{"android":"levelo://app?vid=b799f899-220f-4d7e-bfad-6862bab05a50","ios":"levelo://app?vid=b799f899-220f-4d7e-bfad-6862bab05a50"},"vehicle_type_id":"4","last_reported":1752304238,"current_range_meters":24400,"station_id":"","pricing_plan_id":"cebpf4jnsgd1na2vs0mg"},{"bike_id":"515ac2e0-c9e8-48ee-b4c2-6d580aece682","system_id":"levelo_inurba_marseille","lat":43.2603,"lon":5.37552,"is_reserved":false,"is_disabled":false,"rental_uris":{"android":"levelo://app?vid=515ac2e0-c9e8-48ee-b4c2-6d580aece682","ios":"levelo://app?vid=515ac2e0-c9e8-48ee-b4c2-6d580aece682"},"vehicle_type_id":"4","last_reported":1752304238,"current_range_meters":24400,"station_id":"ce4bhgh2rcd13ifvqfa0","pricing_plan_id":"cebpf4jnsgd1na2vs0mg"},{"bike_id":"697d5fc4-b988-4a4e-8323-c1ce5ed61a61","system_id":"levelo_inurba_marseille","lat":43.211926,"lon":5.350727,"is_reserved":false,"is_disabled":false,"rental_uris":{"android":"levelo://app?vid=697d5fc4-b988-4a4e-8323-c1ce5ed61a61","ios":"levelo://app?vid=697d5fc4-b988-4a4e-8323-c1ce5ed61a61"},"vehicle_type_id":"4","last_reported":1752304238,"current_range_meters":24800,"station_id":"st_cvj6sg6p6f1abm77japg","pricing_plan_id":"cebpf4jnsgd1na2vs0mg"},{"bike_id":"6ac174d4-75c5-4a9c-9699-97cd631c6e65","system_id":"levelo_inurba_marseille","lat":43.25467,"lon":5.39934,"is_reserved":false,"is_disabled":false,"rental_uris":{"android":"levelo://app?vid=6ac174d4-75c5-4a9c-9699-97cd631c6e65","ios":"levelo://app?vid=6ac174d4-75c5-4a9c-9699-97cd631c6e65"},"vehicle_type_id":"4","last_reported":1752304238,"current_range_meters":24800,"station_id":"","pricing_plan_id":"cebpf4jnsgd1na2vs0mg"},{"bike_id":"da983724-2189-4fc3-8aaf-a6ee9bbfd66a","system_id":"levelo_inurba_marseille","lat":43.26933,"lon":5.40253,"is_reserved":false,"is_disabled":false,"rental_uris":{"android":"levelo://app?vid=da983724-2189-4fc3-8aaf-a6ee9bbfd66a","ios":"levelo://app?vid=da983724-2189-4fc3-8aaf-a6ee9bbfd66a"},"vehicle_type_id":"4","last_reported":1752304238,"current_range_meters":24800,"station_id":"cjm6bp8fraef2m0cb0m0","pricing_plan_id":"cebpf4jnsgd1na2vs0mg"},{"bike_id":"b640c36c-6c5a-408e-8ac7-d6548dede463","system_id":"levelo_inurba_marseille","lat":43.2407,"lon":5.377564,"is_reserved":false,"is_disabled":false,"rental_uris":{"android":"levelo://app?vid=b640c36c-6c5a-408e-8ac7-d6548dede463","ios":"levelo://app?vid=b640c36c-6c5a-408e-8ac7-d6548dede463"},"vehicle_type_id":"4","last_reported":1752304238,"current_range_meters":24800,"station_id":"ce4bhnp2rcd13ifvqgvg","pricing_plan_id":"cebpf4jnsgd1na2vs0mg"},{"bike_id":"a277f6d0-2f51-422a-9887-22e4f2a7b95c","system_id":"levelo_inurba_marseille","lat":43.23182,"lon":5.39986,"is_reserved":false,"is_disabled":false,"rental_uris":{"android":"levelo://app?vid=a277f6d0-2f51-422a-9887-22e4f2a7b95c","ios":"levelo://app?vid=a277f6d0-2f51-422a-9887-22e4f2a7b95c"},"vehicle_type_id":"4","last_reported":1752304238,"current_range_meters":24800,"station_id":"ce4bhn12rcd13ifvqgqg","pricing_plan_id":"cebpf4jnsgd1na2vs0mg"},{"bike_id":"8ad58758-a996-4b15-9696-9e763ae6ed1e","system_id":"levelo_inurba_marseille","lat":43.29297,"lon":5.37449,"is_reserved":false,"is_disabled":false,"rental_uris":{"android":"levelo://app?vid=8ad58758-a996-4b15-9696-9e763ae6ed1e","ios":"levelo://app?vid=8ad58758-a996-4b15-9696-9e763ae6ed1e"},"vehicle_type_id":"4","last_reported":1752304238,"current_range_meters":24800,"station_id":"ce4bgi12rcd13ifvqb70","pricing_plan_id":"cebpf4jnsgd1na2vs0mg"},