{"last_updated":1743900867,"ttl":60,"version":"2.2","data":{"bikes":[{"bike_id":"d1bab34b-9aa2-41ce-b4be-4ecef60c072b","system_id":"levelo_inurba_marseille","lat":43.27072,"lon":5.4227,"is_reserved":false,"is_disabled":false,"rental_uris":{"android":"levelo://app?vid=d1bab34b-9aa2-41ce-b4be-4ecef60c072b","ios":"levelo://app?vid=d1bab34b-9aa2-41ce-b4be-4ecef60c072b"},"vehicle_type_id":"4","last_reported":1743900867,"current_range_meters":2800,"station_id":"ce4bhk92rcd13ifvqgb0","pricing_plan_id":"cebpf4jnsgd1na2vs0mg"},{"bike_id":"6f22310a-626e-4211-890d-7c515b7c3784","system_id":"levelo_inurba_marseille","lat":43.23155,"lon":5.43706,"is_reserved":false,"is_disabled":false,"rental_uris":{"android":"levelo://app?vid=6f22310a-626e-4211-890d-7c515b7c3784","ios":"levelo://app?vid=6f22310a-626e-4211-890d-7c515b7c3784"},"vehicle_type_id":"4","last_reported":1743900867,"current_range_meters":2800,"station_id":"ce4bhmp2rcd13ifvqgog","pricing_plan_id":"cebpf4jnsgd1na2vs0mg"},{"bike_id":"bb837f1a-e4cf-4e0d-a191-6016f9543820","system_id":"levelo_inurba_marseille","lat":43.31356,"lon":5.3849,"is_reserved":false,"is_disabled":false,"rental_uris":{"android":"levelo://app?vid=bb837f1a-e4cf-4e0d-a191-6016f9543820","ios":"levelo://app?vid=bb837f1a-e4cf-4e0d-a191-6016f9543820"},"vehicle_type_id":"4","last_reported":1743900867,"current_range_meters":3200,"station_id":"ce4bgt92rcd13ifvqcf0","pricing_plan_id":"cebpf4jnsgd1na2vs0mg"},{"bike_id":"614254ce-7d38-408c-8e02-3083ad7a0088","system_id":"levelo_inurba_marseille","lat":43.28732,"lon":5.36089,"is_reserved":false,"is_disabled":false,"rental_uris":{"android":"levelo://app?vid=614254ce-7d38-408c-8e02-3083ad7a0088","ios":"levelo://app?vid=614254ce-7d38-408c-8e02-3083ad7a0088"},"vehicle_type_id":"4","last_reported":1743900867,"current_range_meters":3600,"station_id":"cki0cbj6b192h4jlfktg","pricing_plan_id":"cebpf4jnsgd1na2vs0mg"},{"bike_id":"7c7f0e84-b938-421f-ba51-f3a9e4bfdd8e","system_id":"levelo_inurba_marseille","lat":43.28702,"lon":5.39972,"is_reserved":false,"is_disabled":false,"rental_uris":{"android":"levelo://app?vid=7c7f0e84-b938-421f-ba51-f3a9e4bfdd8e","ios":"levelo://app?vid=7c7f0e84-b938-421f-ba51-f3a9e4bfdd8e"},"vehicle_type_id":"4","last_reported":1743900867,"current_range_meters":3600,"station_id":"ce4bho92rcd13ifvqh3g","pricing_plan_id":"cebpf4jnsgd1na2vs0mg"},{"bike_id":"e12865bf-ad01-44a1-854d-bd6412a6e31b","system_id":"levelo_inurba_marseille","lat":43.307984,"lon":5.381658,"is_reserved":false,"is_disabled":false,"rental_uris":{"android":"levelo://app?vid=e12865bf-ad01-44a1-854d-bd6412a6e31b","ios":"levelo://app?vid=e12865bf-ad01-44a1-854d-bd6412a6e31b"},"vehicle_type_id":"4","last_reported":1743900867,"current_range_meters":3600,"station_id":"ce4bgt12rcd13ifvqce0","pricing_plan_id":"cebpf4jnsgd1na2vs0mg"},{"bike_id":"9646ab3d-e520-4f4a-9f92-d1e85e785b4a","system_id":"levelo_inurba_marseille","lat":43.30129,"lon":5.39865,"is_reserved":false,"is_disabled":false,"rental_uris":{"android":"levelo://app?vid=9646ab3d-e520-4f4a-9f92-d1e85e785b4a","ios":"levelo://app?vid=9646ab3d-e520-4f4a-9f92-d1e85e785b4a"},"vehicle_type_id":"4","last_reported":1743900867,"current_range_meters":3600,"station_id":"ce4bh0h2rcd13ifvqd40","pricing_plan_id":"cebpf4jnsgd1na2vs0mg"},{"bike_id":"a2425067-993c-42e1-b311-f7ac8549b53a","system_id":"levelo_inurba_marseille","lat":43.31359,"lon":5.38492,"is_reserved":false,"is_disabled":false,"rental_uris":{"android":"levelo://app?vid=a2425067-993c-42e1-b311-f7ac8549b53a","ios":"levelo://app?vid=a2425067-993c-42e1-b311-f7ac8549b53a"},"vehicle_type_id":"4","last_reported":1743900867,"current_range_meters":4000,"station_id":"ce4bgt92rcd13ifvqcf0","pricing_plan_id":"cebpf4jnsgd1na2vs0mg"},{"bike_id":"57bf4e8a-9c9a-4b4c-967c-a6a1430f9b98","system_id":"levelo_inurba_marseille","lat":43.2293,"lon":5.35374,"is_reserved":false,"is_disabled":false,"rental_uris":{"android":"levelo://app?vid=57bf4e8a-9c9a-4b4c-967c-a6a1430f9b98","ios":"levelo://app?vid=57bf4e8a-9c9a-4b4c-967c-a6a1430f9b98"},"vehicle_type_id":"4","last_reported":1743900867,"current_range_meters":4000,"station_id":"cpo3532slgdg3j2ikp40","pricing_plan_id":"cebpf4jnsgd1na2vs0mg"},{"bike_id":"e758fc19-b2e3-4298-a2c5-166cfc54196d","system_id":"levelo_inurba_marseille","lat":43.311682,"lon":5.387124,"is_reserved":false,"is_disabled":false,"rental_uris":{"android":"levelo://app?vid=e758fc19-b2e3-4298-a2c5-166cfc54196d","ios":"levelo://app?vid=e758fc19-b2e3-4298-a2c5-166cfc54196d"},"vehicle_type_id":"4","last_reported":1743900867,"current_range_meters":4000,"station_id":"ce4bgv12rcd13ifvqcp0","pricing_plan_id":"cebpf4jnsgd1na2vs0mg"},{"bike_id":"b991118a-b3fd-4081-a6c6-23b69168496a","system_id":"levelo_inurba_marseille","lat":43.21759,"lon":5.34593,"is_reserved":false,"is_disabled":true,"rental_uris":{"android":"levelo://app?vid=b991118a-b3fd-4081-a6c6-23b69168496a","ios":"levelo://app?vid=b991118a-b3fd-4081-a6c6-23b69168496a"},"vehicle_type_id":"4","last_reported":1743900867,"current_range_meters":4000,"station_id":"st_cvj6r9ubvosntc0bgbag","pricing_plan_id":"cebpf4jnsgd1na2vs0mg"},{"bike_id":"32bf51bb-97b5-4077-a61d-920c581ee021","system_id":"levelo_inurba_marseille","lat":43.30783,"lon":5.37646,"is_reserved":false,"is_disabled":false,"rental_uris":{"android":"levelo://app?vid=32bf51bb-97b5-4077-a61d-920c581ee021","ios":"levelo://app?vid=32bf51bb-97b5-4077-a61d-920c581ee021"},"vehicle_type_id":"4","last_reported":1743900867,"current_range_meters":4000,"station_id":"","pricing_plan_id":"cebpf4jnsgd1na2vs0mg"},{"bike_id":"9f11ddad-f9cf-432b-8e0c-b6536f5e7092","system_id":"levelo_inurba_marseille","lat":43.27946,"lon":5.41035,"is_reserved":false,"is_disabled":false,"rental_uris":{"android":"levelo://app?vid=9f11ddad-f9cf-432b-8e0c-b6536f5e7092","ios":"levelo://app?vid=9f11ddad-f9cf-432b-8e0c-b6536f5e7092"},"vehicle_type_id":"4","last_reported":1743900867,"current_range_meters":4000,"station_id":"ce4bhnp2rcd13ifvqh0g","pricing_plan_id":"cebpf4jnsgd1na2vs0mg"},{"bike_id":"50297066-959d-45c5-a71e-b062cc3724ec","system_id":"levelo_inurba_marseille","lat":43.30807,"lon":5.3734,"is_reserved":false,"is_disabled":false,"rental_uris":{"android":"levelo://app?vid=50297066-959d-45c5-a71e-b062cc3724ec","ios":"levelo://app?vid=50297066-959d-45c5-a71e-b062cc3724ec"},"vehicle_type_id":"4","last_reported":1743900867,"current_range_meters":4000,"station_id":"","pricing_plan_id":"cebpf4jnsgd1na2vs0mg"},{"bike_id":"02dd5f37-e4ce-4efc-9ce6-2776472fc632","system_id":"levelo_inurba_marseille","lat":43.25145,"lon":5.40342,"is_reserved":false,"is_disabled":false,"rental_uris":{"android":"levelo://app?vid=02dd5f37-e4ce-4efc-9ce6-2776472fc632","ios":"levelo://app?vid=02dd5f37-e4ce-4efc-9ce6-2776472fc632"},"vehicle_type_id":"4","last_reported":1743900867,"current_range_meters":4000,"station_id":"","pricing_plan_id":"cebpf4jnsgd1na2vs0mg"},{"bike_id":"9a15121a-5462-466d-985c-935e6e5e6b97","system_id":"levelo_inurba_marseille","lat":43.30235,"lon":5.40057,"is_reserved":false,"is_disabled":false,"rental_uris":{"android":"levelo://app?vid=9a15121a-5462-466d-985c-935e6e5e6b97","ios":"levelo://app?vid=9a15121a-5462-466d-985c-935e6e5e6b97"},"vehicle_type_id":"4","last_reported":1743900867,"current_range_meters":4400,"station_id":"ce4bgvh2rcd13ifvqcs0","pricing_plan_id":"cebpf4jnsgd1na2vs0mg"},{"bike_id":"ac6a7cf5-44a6-42bf-86bf-9e9c95309efa","system_id":"levelo_inurba_marseille","lat":43.290647,"lon":5.37156,"is_reserved":false,"is_disabled":false,"rental_uris":{"android":"levelo://app?vid=ac6a7cf5-44a6-42bf-86bf-9e9c95309efa","ios":"levelo://app?vid=ac6a7cf5-44a6-42bf-86bf-9e9c95309efa"},"vehicle_type_id":"4","last_reported":1743900867,"current_range_meters":4400,"station_id":"ce4bh5p2rcd13ifvqe4g","pricing_plan_id":"cebpf4jnsgd1na2vs0mg"},{"bike_id":"c73a85e2-fb2d-4d21-bea0-c717ffa7bb89","system_id":"levelo_inurba_marseille","lat":43.30448,"lon":5.36702,"is_reserved":false,"is_disabled":true,"rental_uris":{"android":"levelo://app?vid=c73a85e2-fb2d-4d21-bea0-c717ffa7bb89","ios":"levelo://app?vid=c73a85e2-fb2d-4d21-bea0-c717ffa7bb89"},"vehicle_type_id":"4","last_reported":1743900867,"current_range_meters":4800,"station_id":"","pricing_plan_id":"cebpf4jnsgd1na2vs0mg"},{"bike_id":"351fe75b-eb04-4abc-9eb5-865028629e1f","system_id":"levelo_inurba_marseille","lat":43.29281,"lon":5.40114,"is_reserved":false,"is_disabled":false,"rental_uris":{"android":"levelo://app?vid=351fe75b-eb04-4abc-9eb5-865028629e1f","ios":"levelo://app?vid=351fe75b-eb04-4abc-9eb5-865028629e1f"},"vehicle_type_id":"4","last_reported":1743900867,"current_range_meters":4800,"station_id":"ce4bh312rcd13ifvqdk0","pricing_plan_id":"cebpf4jnsgd1na2vs0mg"},{"bike_id":"545a1284-c4f1-4c1f-af78-d30b70d2175f","system_id":"levelo_inurba_marseille","lat":43.26663,"lon":5.38251,"is_reserved":false,"is_disabled":false,"rental_uris":{"android":"levelo://app?vid=545a1284-c4f1-4c1f-af78-d30b70d2175f","ios":"levelo://app?vid=545a1284-c4f1-4c1f-af78-d30b70d2175f"},"vehicle_type_id":"4","last_reported":1743900867,"current_range_meters":4800,"station_id":"ce4bhg92rcd13ifvqf90","pricing_plan_id":"cebpf4jnsgd1na2vs0mg"},{"bike_id":"67bfd585-c195-4c9f-97cc-5e77c96701dd","system_id":"levelo_inurba_marseille","lat":43.30428,"lon":5.39742,"is_reserved":false,"is_disabled":false,"rental_uris":{"android":"levelo://app?vid=67bfd585-c195-4c9f-97cc-5e77c96701dd","ios":"levelo://app?vid=67bfd585-c195-4c9f-97cc-5e77c96701dd"},"vehicle_type_id":"4","last_reported":1743900867,"current_range_meters":4800,"station_id":"ce4bh092rcd13ifvqd20","pricing_plan_id":"cebpf4jnsgd1na2vs0mg"},{"bike_id":"95ebc31d-ba2c-4855-9413-141191b5e202","system_id":"levelo_inurba_marseille","lat":43.29261,"lon":5.40107,"is_reserved":false,"is_disabled":true,"rental_uris":{"android":"levelo://app?vid=95ebc31d-ba2c-4855-9413-141191b5e202","ios":"levelo://app?vid=95ebc31d-ba2c-4855-9413-141191b5e202"},"vehicle_type_id":"4","last_reported":1743900867,"current_range_meters":4800,"station_id":"ce4bh312rcd13ifvqdk0","pricing_plan_id":"cebpf4jnsgd1na2vs0mg"},{"bike_id":"4dadedb4-70df-4adb-8b59-ec279d787b0c","system_id":"levelo_inurba_marseille","lat":43.2905,"lon":5.35912,"is_reserved":false,"is_disabled":false,"rental_uris":{"android":"levelo://app?vid=4dadedb4-70df-4adb-8b59-ec279d787b0c","ios":"levelo://app?vid=4dadedb4-70df-4adb-8b59-ec279d787b0c"},"vehicle_type_id":"4","last_reported":1743900867,"current_range_meters":5600,"station_id":"ce4bha92rcd13ifvqeg0","pricing_plan_id":"cebpf4jnsgd1na2vs0mg"},{"bike_id":"b15f50ff-f9b1-4c07-9098-5883ec7eb833","system_id":"levelo_inurba_marseille","lat":43.292574,"lon":5.408998,"is_reserved":false,"is_disabled":false,"rental_uris":{"android":"levelo://app?vid=b15f50ff-f9b1-4c07-9098-5883ec7eb833","ios":"levelo://app?vid=b15f50ff-f9b1-4c07-9098-5883ec7eb833"},"vehicle_type_id":"4","last_reported":1743900867,"current_range_meters":5600,"station_id":"ce4bh192rcd13ifvqdc0","pricing_plan_id":"cebpf4jnsgd1na2vs0mg"},{"bike_id":"40d86564-5d7f-4f9b-a447-03cd0a10ad79","system_id":"levelo_inurba_marseille","lat":43.3045,"lon":5.38889,"is_reserved":false,"is_disabled":false,"rental_uris":{"android":"levelo://app?vid=40d86564-5d7f-4f9b-a447-03cd0a10ad79","ios":"levelo://app?vid=40d86564-5d7f-4f9b-a447-03cd0a10ad79"},"vehicle_type_id":"4","last_reported":1743900867,"current_range_meters":5600,"station_id":"ce4bgk12rcd13ifvqbi0","pricing_plan_id":"cebpf4jnsgd1na2vs0mg"},{"bike_id":"de50bbab-1368-4da3-a92a-1e482f1dcc12","system_id":"levelo_inurba_marseille","lat":43.290478,"lon":5.371529,"is_reserved":false,"is_disabled":false,"rental_uris":{"android":"levelo://app?vid=de50bbab-1368-4da3-a92a-1e482f1dcc12","ios":"levelo://app?vid=de50bbab-1368-4da3-a92a-1e482f1dcc12"},"vehicle_type_id":"4","last_reported":1743900867,"current_range_meters":5600,"station_id":"ce4bh5p2rcd13ifvqe4g","pricing_plan_id":"cebpf4jnsgd1na2vs0mg"},{"bike_id":"dc7e3549-ceba-4c23-bcc5-f429c3b0f5d7","system_id":"levelo_inurba_marseille","lat":43.28403,"lon":5.37545,"is_reserved":false,"is_disabled":false,"rental_uris":{"android":"levelo://app?vid=dc7e3549-ceba-4c23-bcc5-f429c3b0f5d7","ios":"levelo://app?vid=dc7e3549-ceba-4c23-bcc5-f429c3b0f5d7"},"vehicle_type_id":"4","last_reported":1743900867,"current_range_meters":5600,"station_id":"ce4bh412rcd13ifvqds0","pricing_plan_id":"cebpf4jnsgd1na2vs0mg"},{"bike_id":"11101b03-02c0-4bb4-a9dc-326497f91f4e","system_id":"levelo_inurba_marseille","lat":43.292601,"lon":5.409116,"is_reserved":false,"is_disabled":true,"rental_uris":{"android":"levelo://app?vid=11101b03-02c0-4bb4-a9dc-326497f91f4e","ios":"levelo://app?vid=11101b03-02c0-4bb4-a9dc-326497f91f4e"},"vehicle_type_id":"4","last_reported":1743900867,"current_range_meters":5600,"station_id":"ce4bh192rcd13ifvqdc0","pricing_plan_id":"cebpf4jnsgd1na2vs0mg"},{"bike_id":"fb9d1f05-72fd-4a51-b608-bdb6965dd1ba","system_id":"levelo_inurba_marseille","lat":43.29029,"lon":5.38645,"is_reserved":false,"is_disabled":false,"rental_uris":{"android":"levelo://app?vid=fb9d1f05-72fd-4a51-b608-bdb6965dd1ba","ios":"levelo://app?vid=fb9d1f05-72fd-4a51-b608-bdb6965dd1ba"},"vehicle_type_id":"4","last_reported":1743900867,"current_range_meters":5600,"station_id":"ce4bh4p2rcd13ifvqe0g","pricing_plan_id":"cebpf4jnsgd1na2vs0mg"},{"bike_id":"68ea0086-76a8-4c6e-b84d-9082869e46b1","system_id":"levelo_inurba_marseille","lat":43.30361,"lon":5.41894,"is_reserved":false,"is_disabled":false,"rental_uris":{"android":"levelo://app?vid=68ea0086-76a8-4c6e-b84d-9082869e46b1","ios":"levelo://app?vid=68ea0086-76a8-4c6e-b84d-9082869e46b1"},"vehicle_type_id":"4","last_reported":1743900867,"current_range_meters":6000,"station_id":"ce4bhop2rcd13ifvqh7g","pricing_plan_id":"cebpf4jnsgd1na2vs0mg"},{"bike_id":"0868e417-7cc5-4742-b16e-4407ef2bf098","system_id":"levelo_inurba_marseille","lat":43.30604,"lon":5.37199,"is_reserved":false,"is_disabled":false,"rental_uris":{"android":"levelo://app?vid=0868e417-7cc5-4742-b16e-4407ef2bf098","ios":"levelo://app?vid=0868e417-7cc5-4742-b16e-4407ef2bf098"},"vehicle_type_id":"4","last_reported":1743900867,"current_range_meters":6000,"station_id":"ce4bgqh2rcd13ifvqc4g","pricing_plan_id":"cebpf4jnsgd1na2vs0mg"},{"bike_id":"ca519737-f34f-4e55-baab-dc89f354b8df","system_id":"levelo_inurba_marseille","lat":43.30315,"lon":5.40428,"is_reserved":false,"is_disabled":false,"rental_uris":{"android":"levelo://app?vid=ca519737-f34f-4e55-baab-dc89f354b8df","ios":"levelo://app?vid=ca519737-f34f-4e55-baab-dc89f354b8df"},"vehicle_type_id":"4","last_reported":1743900867,"current_range_meters":6000,"station_id":"ce4bh012rcd13ifvqd10","pricing_plan_id":"cebpf4jnsgd1na2vs0mg"},{"bike_id":"4f1b2510-6b89-4469-8841-e8ba00c73ccf","system_id":"levelo_inurba_marseille","lat":43.28375,"lon":5.38634,"is_reserved":false,"is_disabled":false,"rental_uris":{"android":"levelo://app?vid=4f1b2510-6b89-4469-8841-e8ba00c73ccf","ios":"levelo://app?vid=4f1b2510-6b89-4469-8841-e8ba00c73ccf"},"vehicle_type_id":"4","last_reported":1743900867,"current_range_meters":6400,"station_id":"ce4bh492rcd13ifvqdvg","pricing_plan_id":"cebpf4jnsgd1na2vs0mg"},{"bike_id":"3f83aad8-3e3b-4d5a-9f28-c15287cc1e10","system_id":"levelo_inurba_marseille","lat":43.28412,"lon":5.37506,"is_reserved":false,"is_disabled":false,"rental_uris":{"android":"levelo://app?vid=3f83aad8-3e3b-4d5a-9f28-c15287cc1e10","ios":"levelo://app?vid=3f83aad8-3e3b-4d5a-9f28-c15287cc1e10"},"vehicle_type_id":"4","last_reported":1743900867,"current_range_meters":6400,"station_id":"ce4bh412rcd13ifvqds0","pricing_plan_id":"cebpf4jnsgd1na2vs0mg"},{"bike_id":"8fa92ff1-c2cb-4fa2-b3ce-e14c12ce1bf4","system_id":"levelo_inurba_marseille","lat":43.281644,"lon":5.426315,"is_reserved":false,"is_disabled":false,"rental_uris":{"android":"levelo://app?vid=8fa92ff1-c2cb-4fa2-b3ce-e14c12ce1bf4","ios":"levelo://app?vid=8fa92ff1-c2cb-4fa2-b3ce-e14c12ce1bf4"},"vehicle_type_id":"4","last_reported":1743900867,"current_range_meters":6400,"station_id":"ce4bhnh2rcd13ifvqgug","pricing_plan_id":"cebpf4jnsgd1na2vs0mg"},{"bike_id":"74aa386e-40bb-4033-8cf4-8be7f9c96b67","system_id":"levelo_inurba_marseille","lat":43.26219,"lon":5.37911,"is_reserved":false,"is_disabled":true,"rental_uris":{"android":"levelo://app?vid=74aa386e-40bb-4033-8cf4-8be7f9c96b67","ios":"levelo://app?vid=74aa386e-40bb-4033-8cf4-8be7f9c96b67"},"vehicle_type_id":"4","last_reported":1743900867,"current_range_meters":6400,"station_id":"","pricing_plan_id":"cebpf4jnsgd1na2vs0mg"},{"bike_id":"91c1edaf-977d-4632-affd-dc0004bc3721","system_id":"levelo_inurba_marseille","lat":43.27919,"lon":5.3958,"is_reserved":false,"is_disabled":false,"rental_uris":{"android":"levelo://app?vid=91c1edaf-977d-4632-affd-dc0004bc3721","ios":"levelo://app?vid=91c1edaf-977d-4632-affd-dc0004bc3721"},"vehicle_type_id":"4","last_reported":1743900867,"current_range_meters":6400,"station_id":"ce4bhf92rcd13ifvqf40","pricing_plan_id":"cebpf4jnsgd1na2vs0mg"},{"bike_id":"2089321a-808d-4e73-8e35-bbbd6284c52b","system_id":"levelo_inurba_marseille","lat":43.29694,"lon":5.36591,"is_reserved":false,"is_disabled":false,"rental_uris":{"android":"levelo://app?vid=2089321a-808d-4e73-8e35-bbbd6284c52b","ios":"levelo://app?vid=2089321a-808d-4e73-8e35-bbbd6284c52b"},"vehicle_type_id":"4","last_reported":1743900867,"current_range_meters":6400,"station_id":"ce4bgn12rcd13ifvqbt0","pricing_plan_id":"cebpf4jnsgd1na2vs0mg"},{"bike_id":"e7b956ce-2ab2-4301-8fd3-6312d753e8f6","system_id":"levelo_inurba_marseille","lat":43.24659,"lon":5.38174,"is_reserved":false,"is_disabled":true,"rental_uris":{"android":"levelo://app?vid=e7b956ce-2ab2-4301-8fd3-6312d753e8f6","ios":"levelo://app?vid=e7b956ce-2ab2-4301-8fd3-6312d753e8f6"},"vehicle_type_id":"4","last_reported":1743900867,"current_range_meters":6400,"station_id":"ce4bhih2rcd13ifvqfr0","pricing_plan_id":"cebpf4jnsgd1na2vs0mg"},{"bike_id":"45658822-a1d0-42ca-81f0-1fd86fca1d91","system_id":"levelo_inurba_marseille","lat":43.27429,"lon":5.39408,"is_reserved":false,"is_disabled":false,"rental_uris":{"android":"levelo://app?vid=45658822-a1d0-42ca-81f0-1fd86fca1d91","ios":"levelo://app?vid=45658822-a1d0-42ca-81f0-1fd86fca1d91"},"vehicle_type_id":"4","last_reported":1743900867,"current_range_meters":6400,"station_id":"ce4bhdp2rcd13ifvqf20","pricing_plan_id":"cebpf4jnsgd1na2vs0mg"},{"bike_id":"100a1278-7d52-462a-b16c-6cf14c293fc8","system_id":"levelo_inurba_marseille","lat":43.28405,"lon":5.37516,"is_reserved":false,"is_disabled":false,"rental_uris":{"android":"levelo://app?vid=100a1278-7d52-462a-b16c-6cf14c293fc8","ios":"levelo://app?vid=100a1278-7d52-462a-b16c-6cf14c293fc8"},"vehicle_type_id":"4","last_reported":1743900867,"current_range_meters":6400,"station_id":"ce4bh412rcd13ifvqds0","pricing_plan_id":"cebpf4jnsgd1na2vs0mg"},{"bike_id":"7b67800d-f82f-4a84-a388-fe0fb5c5cf2e","system_id":"levelo_inurba_marseille","lat":43.30422,"lon":5.3975,"is_reserved":false,"is_disabled":false,"rental_uris":{"android":"levelo://app?vid=7b67800d-f82f-4a84-a388-fe0fb5c5cf2e","ios":"levelo://app?vid=7b67800d-f82f-4a84-a388-fe0fb5c5cf2e"},"vehicle_type_id":"4","last_reported":1743900867,"current_range_meters":6400,"station_id":"ce4bh092rcd13ifvqd20","pricing_plan_id":"cebpf4jnsgd1na2vs0mg"},{"bike_id":"05736583-a4df-4140-bff4-80483d983a4a","system_id":"levelo_inurba_marseille","lat":43.3004,"lon":5.39976,"is_reserved":false,"is_disabled":false,"rental_uris":{"android":"levelo://app?vid=05736583-a4df-4140-bff4-80483d983a4a","ios":"levelo://app?vid=05736583-a4df-4140-bff4-80483d983a4a"},"vehicle_type_id":"4","last_reported":1743900867,"current_range_meters":6400,"station_id":"","pricing_plan_id":"cebpf4jnsgd1na2vs0mg"},{"bike_id":"6c6d4a54-f7f8-4fcb-9518-22e12af63f19","system_id":"levelo_inurba_marseille","lat":43.258267,"lon":5.394357,"is_reserved":false,"is_disabled":false,"rental_uris":{"android":"levelo://app?vid=6c6d4a54-f7f8-4fcb-9518-22e12af63f19","ios":"levelo://app?vid=6c6d4a54-f7f8-4fcb-9518-22e12af63f19"},"vehicle_type_id":"4","last_reported":1743900867,"current_range_meters":6400,"station_id":"ce4bhip2rcd13ifvqft0","pricing_plan_id":"cebpf4jnsgd1na2vs0mg"},{"bike_id":"fa5e7a26-4eaf-41ce-9120-d31ec113c950","system_id":"levelo_inurba_marseille","lat":43.31172,"lon":5.38716,"is_reserved":false,"is_disabled":false,"rental_uris":{"android":"levelo://app?vid=fa5e7a26-4eaf-41ce-9120-d31ec113c950","ios":"levelo://app?vid=fa5e7a26-4eaf-41ce-9120-d31ec113c950"},"vehicle_type_id":"4","last_reported":1743900867,"current_range_meters":6800,"station_id":"ce4bgv12rcd13ifvqcp0","pricing_plan_id":"cebpf4jnsgd1na2vs0mg"},{"bike_id":"9a36e749-313f-43fc-ac90-b52b5015306e","system_id":"levelo_inurba_marseille","lat":43.21202,"lon":5.35081,"is_reserved":false,"is_disabled":false,"rental_uris":{"android":"levelo://app?vid=9a36e749-313f-43fc-ac90-b52b5015306e","ios":"levelo://app?vid=9a36e749-313f-43fc-ac90-b52b5015306e"},"vehicle_type_id":"4","last_reported":1743900867,"current_range_meters":6800,"station_id":"st_cvj6sg6p6f1abm77japg","pricing_plan_id":"cebpf4jnsgd1na2vs0mg"},{"bike_id":"c129ecbc-fa81-4169-8f04-cc6466a8fd4b","system_id":"levelo_inurba_marseille","lat":43.29557,"lon":5.4229,"is_reserved":false,"is_disabled":false,"rental_uris":{"android":"levelo://app?vid=c129ecbc-fa81-4169-8f04-cc6466a8fd4b","ios":"levelo://app?vid=c129ecbc-fa81-4169-8f04-cc6466a8fd4b"},"vehicle_type_id":"4","last_reported":1743900867,"current_range_meters":6800,"station_id":"ce4bhph2rcd13ifvqhdg","pricing_plan_id":"cebpf4jnsgd1na2vs0mg"},{"bike_id":"aee5ad9a-f0e6-4325-aab2-0d740c441f15","system_id":"levelo_inurba_marseille","lat":43.28701,"lon":5.39992,"is_reserved":false,"is_disabled":false,"rental_uris":{"android":"levelo://app?vid=aee5ad9a-f0e6-4325-aab2-0d740c441f15","ios":"levelo://app?vid=aee5ad9a-f0e6-4325-aab2-0d740c441f15"},"vehicle_type_id":"4","last_reported":1743900867,"current_range_meters":6800,"station_id":"ce4bho92rcd13ifvqh3g","pricing_plan_id":"cebpf4jnsgd1na2vs0mg"},{"bike_id":"b71a90bd-6f85-4770-a515-2d0fa5402a88","system_id":"levelo_inurba_marseille","lat":43.3099,"lon":5.37929,"is_reserved":false,"is_disabled":false,"rental_uris":{"android":"levelo://app?vid=b71a90bd-6f85-4770-a515-2d0fa5402a88","ios":"levelo://app?vid=b71a90bd-6f85-4770-a515-2d0fa5402a88"},"vehicle_type_id":"4","last_reported":1743900867,"current_range_meters":6800,"station_id":"","pricing_plan_id":"cebpf4jnsgd1na2vs0mg"},{"bike_id":"c952d374-5ef3-47bc-b922-879cef5c36f2","system_id":"levelo_inurba_marseille","lat":43.303205,"lon":5.40436,"is_reserved":false,"is_disabled":false,"rental_uris":{"android":"levelo://app?vid=c952d374-5ef3-47bc-b922-879cef5c36f2","ios":"levelo://app?vid=c952d374-5ef3-47bc-b922-879cef5c36f2"},"vehicle_type_id":"4","last_reported":1743900867,"current_range_meters":6800,"station_id":"ce4bh012rcd13ifvqd10","pricing_plan_id":"cebpf4jnsgd1na2vs0mg"},{"bike_id":"feb6e46c-3fb2-45a9-a2fb-22ac62feb505","system_id":"levelo_inurba_marseille","lat":43.23063,"lon":5.35518,"is_reserved":false,"is_disabled":true,"rental_uris":{"android":"levelo://app?vid=feb6e46c-3fb2-45a9-a2fb-22ac62feb505","ios":"levelo://app?vid=feb6e46c-3fb2-45a9-a2fb-22ac62feb505"},"vehicle_type_id":"4","last_reported":1743900867,"current_range_meters":6800,"station_id":"cpo3342slgdg3j2ifvpg","pricing_plan_id":"cebpf4jnsgd1na2vs0mg"},{"bike_id":"b5f7c507-44db-40d3-a7d0-d8cd7fd3f572","system_id":"levelo_inurba_marseille","lat":43.2869,"lon":5.3999,"is_reserved":false,"is_disabled":false,"rental_uris":{"android":"levelo://app?vid=b5f7c507-44db-40d3-a7d0-d8cd7fd3f572","ios":"levelo://app?vid=b5f7c507-44db-40d3-a7d0-d8cd7fd3f572"},"vehicle_type_id":"4","last_reported":1743900867,"current_range_meters":7200,"station_id":"ce4bho92rcd13ifvqh3g","pricing_plan_id":"cebpf4jnsgd1na2vs0mg"},{"bike_id":"fb0d4993-67fa-4314-9525-ef2ba9197c72","system_id":"levelo_inurba_marseille","lat":43.30321,"lon":5.4059,"is_reserved":false,"is_disabled":false,"rental_uris":{"android":"levelo://app?vid=fb0d4993-67fa-4314-9525-ef2ba9197c72","ios":"levelo://app?vid=fb0d4993-67fa-4314-9525-ef2ba9197c72"},"vehicle_type_id":"4","last_reported":1743900867,"current_range_meters":7200,"station_id":"","pricing_plan_id":"cebpf4jnsgd1na2vs0mg"},{"bike_id":"d2562d4e-2d6b-4959-802d-909086d3d133","system_id":"levelo_inurba_marseille","lat":43.31359,"lon":5.38492,"is_reserved":false,"is_disabled":false,"rental_uris":{"android":"levelo://app?vid=d2562d4e-2d6b-4959-802d-909086d3d133","ios":"levelo://app?vid=d2562d4e-2d6b-4959-802d-909086d3d133"},"vehicle_type_id":"4","last_reported":1743900867,"current_range_meters":7200,"station_id":"ce4bgt92rcd13ifvqcf0","pricing_plan_id":"cebpf4jnsgd1na2vs0mg"},{"bike_id":"8ff7d88d-e165-4c8e-847a-c04ec538a98f","system_id":"levelo_inurba_marseille","lat":43.29261,"lon":5.40895,"is_reserved":false,"is_disabled":false,"rental_uris":{"android":"levelo://app?vid=8ff7d88d-e165-4c8e-847a-c04ec538a98f","ios":"levelo://app?vid=8ff7d88d-e165-4c8e-847a-c04ec538a98f"},"vehicle_type_id":"4","last_reported":1743900867,"current_range_meters":7200,"station_id":"ce4bh192rcd13ifvqdc0","pricing_plan_id":"cebpf4jnsgd1na2vs0mg"},{"bike_id":"4de2753b-47dd-45d8-8907-cb5207b9492d","system_id":"levelo_inurba_marseille","lat":43.28365,"lon":5.38618,"is_reserved":false,"is_disabled":false,"rental_uris":{"android":"levelo://app?vid=4de2753b-47dd-45d8-8907-cb5207b9492d","ios":"levelo://app?vid=4de2753b-47dd-45d8-8907-cb5207b9492d"},"vehicle_type_id":"4","last_reported":1743900867,"current_range_meters":7200,"station_id":"ce4bh492rcd13ifvqdvg","pricing_plan_id":"cebpf4jnsgd1na2vs0mg"},{"bike_id":"eb79d1f9-7c91-4ea2-b5f8-796189743e1a","system_id":"levelo_inurba_marseille","lat":43.337461,"lon":5.391838,"is_reserved":false,"is_disabled":false,"rental_uris":{"android":"levelo://app?vid=eb79d1f9-7c91-4ea2-b5f8-796189743e1a","ios":"levelo://app?vid=eb79d1f9-7c91-4ea2-b5f8-796189743e1a"},"vehicle_type_id":"4","last_reported":1743900867,"current_range_meters":8000,"station_id":"ce4bhr92rcd13ifvqhsg","pricing_plan_id":"cebpf4jnsgd1na2vs0mg"},{"bike_id":"b58ad8a0-c08d-46b4-aa19-7fbb9bd04d04","system_id":"levelo_inurba_marseille","lat":43.30321,"lon":5.40435,"is_reserved":false,"is_disabled":false,"rental_uris":{"android":"levelo://app?vid=b58ad8a0-c08d-46b4-aa19-7fbb9bd04d04","ios":"levelo://app?vid=b58ad8a0-c08d-46b4-aa19-7fbb9bd04d04"},"vehicle_type_id":"4","last_reported":1743900867,"current_range_meters":8000,"station_id":"ce4bh012rcd13ifvqd10","pricing_plan_id":"cebpf4jnsgd1na2vs0mg"},{"bike_id":"66bd6e2d-3170-42d5-91d3-6f6cc114323c","system_id":"levelo_inurba_marseille","lat":43.28726,"lon":5.36085,"is_reserved":false,"is_disabled":false,"rental_uris":{"android":"levelo://app?vid=66bd6e2d-3170-42d5-91d3-6f6cc114323c","ios":"levelo://app?vid=66bd6e2d-3170-42d5-91d3-6f6cc114323c"},"vehicle_type_id":"4","last_reported":1743900867,"current_range_meters":8000,"station_id":"cki0cbj6b192h4jlfktg","pricing_plan_id":"cebpf4jnsgd1na2vs0mg"},{"bike_id":"98514e77-22f5-4e2b-9f65-8efc32d06320","system_id":"levelo_inurba_marseille","lat":43.25118,"lon":5.40323,"is_reserved":false,"is_disabled":false,"rental_uris":{"android":"levelo://app?vid=98514e77-22f5-4e2b-9f65-8efc32d06320","ios":"levelo://app?vid=98514e77-22f5-4e2b-9f65-8efc32d06320"},"vehicle_type_id":"4","last_reported":1743900867,"current_range_meters":8000,"station_id":"ce4bhlh2rcd13ifvqgig","pricing_plan_id":"cebpf4jnsgd1na2vs0mg"},{"bike_id":"768c60df-a94b-4354-bc31-8458e62edc47","system_id":"levelo_inurba_marseille","lat":43.28372,"lon":5.38111,"is_reserved":false,"is_disabled":false,"rental_uris":{"android":"levelo://app?vid=768c60df-a94b-4354-bc31-8458e62edc47","ios":"levelo://app?vid=768c60df-a94b-4354-bc31-8458e62edc47"},"vehicle_type_id":"4","last_reported":1743900867,"current_range_meters":8000,"station_id":"ce4bh412rcd13ifvqdr0","pricing_plan_id":"cebpf4jnsgd1na2vs0mg"},{"bike_id":"da2c0523-95d2-4536-9674-1400e7cb2212","system_id":"levelo_inurba_marseille","lat":43.241791,"lon":5.397213,"is_reserved":false,"is_disabled":false,"rental_uris":{"android":"levelo://app?vid=da2c0523-95d2-4536-9674-1400e7cb2212","ios":"levelo://app?vid=da2c0523-95d2-4536-9674-1400e7cb2212"},"vehicle_type_id":"4","last_reported":1743900867,"current_range_meters":8000,"station_id":"ce4bhn12rcd13ifvqgpg","pricing_plan_id":"cebpf4jnsgd1na2vs0mg"},{"bike_id":"ac7a85da-6a1d-42f4-b3e0-decaec458451","system_id":"levelo_inurba_marseille","lat":43.22931,"lon":5.35379,"is_reserved":false,"is_disabled":true,"rental_uris":{"android":"levelo://app?vid=ac7a85da-6a1d-42f4-b3e0-decaec458451","ios":"levelo://app?vid=ac7a85da-6a1d-42f4-b3e0-decaec458451"},"vehicle_type_id":"4","last_reported":1743900867,"current_range_meters":8000,"station_id":"cpo3532slgdg3j2ikp40","pricing_plan_id":"cebpf4jnsgd1na2vs0mg"},{"bike_id":"fdad6e5e-1467-4616-9d72-68b29d343e00","system_id":"levelo_inurba_marseille","lat":43.322879,"lon":5.382851,"is_reserved":false,"is_disabled":false,"rental_uris":{"android":"levelo://app?vid=fdad6e5e-1467-4616-9d72-68b29d343e00","ios":"levelo://app?vid=fdad6e5e-1467-4616-9d72-68b29d343e00"},"vehicle_type_id":"4","last_reported":1743900867,"current_range_meters":8000,"station_id":"ce4bhr12rcd13ifvqhqg","pricing_plan_id":"cebpf4jnsgd1na2vs0mg"},{"bike_id":"0d521fea-8d2e-4143-a269-c4dc173ef288","system_id":"levelo_inurba_marseille","lat":43.28703,"lon":5.39976,"is_reserved":false,"is_disabled":false,"rental_uris":{"android":"levelo://app?vid=0d521fea-8d2e-4143-a269-c4dc173ef288","ios":"levelo://app?vid=0d521fea-8d2e-4143-a269-c4dc173ef288"},"vehicle_type_id":"4","last_reported":1743900867,"current_range_meters":8000,"station_id":"ce4bho92rcd13ifvqh3g","pricing_plan_id":"cebpf4jnsgd1na2vs0mg"},{"bike_id":"d144cdeb-94c3-4a1d-92d5-9d5462e2a94e","system_id":"levelo_inurba_marseille","lat":43.28043,"lon":5.36938,"is_reserved":false,"is_disabled":false,"rental_uris":{"android":"levelo://app?vid=d144cdeb-94c3-4a1d-92d5-9d5462e2a94e","ios":"levelo://app?vid=d144cdeb-94c3-4a1d-92d5-9d5462e2a94e"},"vehicle_type_id":"4","last_reported":1743900867,"current_range_meters":8000,"station_id":"ce4bha12rcd13ifvqef0","pricing_plan_id":"cebpf4jnsgd1na2vs0mg"},{"bike_id":"8e8105ce-63e2-4441-9ebe-d6a09a08a22e","system_id":"levelo_inurba_marseille","lat":43.29668,"lon":5.36204,"is_reserved":false,"is_disabled":false,"rental_uris":{"android":"levelo://app?vid=8e8105ce-63e2-4441-9ebe-d6a09a08a22e","ios":"levelo://app?vid=8e8105ce-63e2-4441-9ebe-d6a09a08a22e"},"vehicle_type_id":"4","last_reported":1743900867,"current_range_meters":8000,"station_id":"","pricing_plan_id":"cebpf4jnsgd1na2vs0mg"},{"bike_id":"596c8839-b7cf-45b4-a690-17d962944c1f","system_id":"levelo_inurba_marseille","lat":43.24643,"lon":5.38904,"is_reserved":false,"is_disabled":false,"rental_uris":{"android":"levelo://app?vid=596c8839-b7cf-45b4-a690-17d962944c1f","ios":"levelo://app?vid=596c8839-b7cf-45b4-a690-17d962944c1f"},"vehicle_type_id":"4","last_reported":1743900867,"current_range_meters":8000,"station_id":"ce4bhg12rcd13ifvqf60","pricing_plan_id":"cebpf4jnsgd1na2vs0mg"},{"bike_id":"820e00b9-22a9-4c8a-884d-a6d5542f1894","system_id":"levelo_inurba_marseille","lat":43.26804,"lon":5.40257,"is_reserved":false,"is_disabled":false,"rental_uris":{"android":"levelo://app?vid=820e00b9-22a9-4c8a-884d-a6d5542f1894","ios":"levelo://app?vid=820e00b9-22a9-4c8a-884d-a6d5542f1894"},"vehicle_type_id":"4","last_reported":1743900867,"current_range_meters":8000,"station_id":"ce501612rcd8frsf0b60","pricing_plan_id":"cebpf4jnsgd1na2vs0mg"},{"bike_id":"20441dc7-dc53-4ae0-9823-3c81cdd5dac5","system_id":"levelo_inurba_marseille","lat":43.27966,"lon":5.41031,"is_reserved":false,"is_disabled":false,"rental_uris":{"android":"levelo://app?vid=20441dc7-dc53-4ae0-9823-3c81cdd5dac5","ios":"levelo://app?vid=20441dc7-dc53-4ae0-9823-3c81cdd5dac5"},"vehicle_type_id":"4","last_reported":1743900867,"current_range_meters":8000,"station_id":"ce4bhnp2rcd13ifvqh0g","pricing_plan_id":"cebpf4jnsgd1na2vs0mg"},{"bike_id":"86950742-2a83-439a-b6d7-c0601bd4f799","system_id":"levelo_inurba_marseille","lat":43.280283,"lon":5.36943,"is_reserved":false,"is_disabled":false,"rental_uris":{"android":"levelo://app?vid=86950742-2a83-439a-b6d7-c0601bd4f799","ios":"levelo://app?vid=86950742-2a83-439a-b6d7-c0601bd4f799"},"vehicle_type_id":"4","last_reported":1743900867,"current_range_meters":8000,"station_id":"ce4bha12rcd13ifvqef0","pricing_plan_id":"cebpf4jnsgd1na2vs0mg"},{"bike_id":"d5e984d3-343e-4e16-bd54-bc3ebbd48639","system_id":"levelo_inurba_marseille","lat":43.301433,"lon":5.387713,"is_reserved":false,"is_disabled":true,"rental_uris":{"android":"levelo://app?vid=d5e984d3-343e-4e16-bd54-bc3ebbd48639","ios":"levelo://app?vid=d5e984d3-343e-4e16-bd54-bc3ebbd48639"},"vehicle_type_id":"4","last_reported":1743900867,"current_range_meters":8800,"station_id":"ce4bghh2rcd13ifvqb60","pricing_plan_id":"cebpf4jnsgd1na2vs0mg"},{"bike_id":"1a86e247-337a-4db8-8e60-400e01dd3247","system_id":"levelo_inurba_marseille","lat":43.28572,"lon":5.39499,"is_reserved":false,"is_disabled":false,"rental_uris":{"android":"levelo://app?vid=1a86e247-337a-4db8-8e60-400e01dd3247","ios":"levelo://app?vid=1a86e247-337a-4db8-8e60-400e01dd3247"},"vehicle_type_id":"4","last_reported":1743900867,"current_range_meters":8400,"station_id":"ce4bh292rcd13ifvqdg0","pricing_plan_id":"cebpf4jnsgd1na2vs0mg"},{"bike_id":"597e3cb0-7bf1-4c5c-814c-bff699977597","system_id":"levelo_inurba_marseille","lat":43.33152,"lon":5.38179,"is_reserved":false,"is_disabled":false,"rental_uris":{"android":"levelo://app?vid=597e3cb0-7bf1-4c5c-814c-bff699977597","ios":"levelo://app?vid=597e3cb0-7bf1-4c5c-814c-bff699977597"},"vehicle_type_id":"4","last_reported":1743900867,"current_range_meters":8400,"station_id":"","pricing_plan_id":"cebpf4jnsgd1na2vs0mg"},{"bike_id":"f7853fbc-5665-4d12-92ec-692c497fc780","system_id":"levelo_inurba_marseille","lat":43.31343,"lon":5.38496,"is_reserved":false,"is_disabled":false,"rental_uris":{"android":"levelo://app?vid=f7853fbc-5665-4d12-92ec-692c497fc780","ios":"levelo://app?vid=f7853fbc-5665-4d12-92ec-692c497fc780"},"vehicle_type_id":"4","last_reported":1743900867,"current_range_meters":8400,"station_id":"ce4bgt92rcd13ifvqcf0","pricing_plan_id":"cebpf4jnsgd1na2vs0mg"},{"bike_id":"7b346f00-0950-4c07-885d-ff2c2df7cd13","system_id":"levelo_inurba_marseille","lat":43.25587,"lon":5.38229,"is_reserved":false,"is_disabled":false,"rental_uris":{"android":"levelo://app?vid=7b346f00-0950-4c07-885d-ff2c2df7cd13","ios":"levelo://app?vid=7b346f00-0950-4c07-885d-ff2c2df7cd13"},"vehicle_type_id":"4","last_reported":1743900867,"current_range_meters":8400,"station_id":"ce4bhih2rcd13ifvqfs0","pricing_plan_id":"cebpf4jnsgd1na2vs0mg"},{"bike_id":"f825fa0b-561d-4b58-a029-a279b1a7e45d","system_id":"levelo_inurba_marseille","lat":43.31065,"lon":5.38351,"is_reserved":false,"is_disabled":false,"rental_uris":{"android":"levelo://app?vid=f825fa0b-561d-4b58-a029-a279b1a7e45d","ios":"levelo://app?vid=f825fa0b-561d-4b58-a029-a279b1a7e45d"},"vehicle_type_id":"4","last_reported":1743900867,"current_range_meters":8400,"station_id":"ce4bgv92rcd13ifvqcr0","pricing_plan_id":"cebpf4jnsgd1na2vs0mg"},{"bike_id":"206b6e3f-1026-43f6-af3e-66257f1d1bd4","system_id":"levelo_inurba_marseille","lat":43.28624,"lon":5.35099,"is_reserved":false,"is_disabled":false,"rental_uris":{"android":"levelo://app?vid=206b6e3f-1026-43f6-af3e-66257f1d1bd4","ios":"levelo://app?vid=206b6e3f-1026-43f6-af3e-66257f1d1bd4"},"vehicle_type_id":"4","last_reported":1743900867,"current_range_meters":8400,"station_id":"ce4bhch2rcd13ifvqeug","pricing_plan_id":"cebpf4jnsgd1na2vs0mg"},{"bike_id":"fb7a6658-65a4-4af9-acc1-679ce624548f","system_id":"levelo_inurba_marseille","lat":43.26216,"lon":5.40439,"is_reserved":false,"is_disabled":false,"rental_uris":{"android":"levelo://app?vid=fb7a6658-65a4-4af9-acc1-679ce624548f","ios":"levelo://app?vid=fb7a6658-65a4-4af9-acc1-679ce624548f"},"vehicle_type_id":"4","last_reported":1743900867,"current_range_meters":8800,"station_id":"ce4bhmh2rcd13ifvqgmg","pricing_plan_id":"cebpf4jnsgd1na2vs0mg"},{"bike_id":"4ac6dfb0-5fb3-41d5-9e83-0029602112f6","system_id":"levelo_inurba_marseille","lat":43.29673,"lon":5.36574,"is_reserved":false,"is_disabled":true,"rental_uris":{"android":"levelo://app?vid=4ac6dfb0-5fb3-41d5-9e83-0029602112f6","ios":"levelo://app?vid=4ac6dfb0-5fb3-41d5-9e83-0029602112f6"},"vehicle_type_id":"4","last_reported":1743900867,"current_range_meters":8800,"station_id":"ce4bgn12rcd13ifvqbt0","pricing_plan_id":"cebpf4jnsgd1na2vs0mg"},{"bike_id":"d76389e4-de6d-4794-a9e5-e268ae6c2a8e","system_id":"levelo_inurba_marseille","lat":43.306495,"lon":5.40094,"is_reserved":false,"is_disabled":false,"rental_uris":{"android":"levelo://app?vid=d76389e4-de6d-4794-a9e5-e268ae6c2a8e","ios":"levelo://app?vid=d76389e4-de6d-4794-a9e5-e268ae6c2a8e"},"vehicle_type_id":"4","last_reported":1743900867,"current_range_meters":8800,"station_id":"ce4bh112rcd13ifvqda0","pricing_plan_id":"cebpf4jnsgd1na2vs0mg"},{"bike_id":"19e5e026-6d23-4689-a279-bec1f0dfe8ef","system_id":"levelo_inurba_marseille","lat":43.22938,"lon":5.35391,"is_reserved":false,"is_disabled":false,"rental_uris":{"android":"levelo://app?vid=19e5e026-6d23-4689-a279-bec1f0dfe8ef","ios":"levelo://app?vid=19e5e026-6d23-4689-a279-bec1f0dfe8ef"},"vehicle_type_id":"4","last_reported":1743900867,"current_range_meters":8800,"station_id":"cpo3532slgdg3j2ikp40","pricing_plan_id":"cebpf4jnsgd1na2vs0mg"},{"bike_id":"6139488f-b70f-40ae-a83b-7181496761d9","system_id":"levelo_inurba_marseille","lat":43.30436,"lon":5.38904,"is_reserved":false,"is_disabled":false,"rental_uris":{"android":"levelo://app?vid=6139488f-b70f-40ae-a83b-7181496761d9","ios":"levelo://app?vid=6139488f-b70f-40ae-a83b-7181496761d9"},"vehicle_type_id":"4","last_reported":1743900867,"current_range_meters":8800,"station_id":"ce4bgk12rcd13ifvqbi0","pricing_plan_id":"cebpf4jnsgd1na2vs0mg"},{"bike_id":"30b57730-cb66-4122-bd93-7dabcaba84e7","system_id":"levelo_inurba_marseille","lat":43.24919,"lon":5.40688,"is_reserved":false,"is_disabled":false,"rental_uris":{"android":"levelo://app?vid=30b57730-cb66-4122-bd93-7dabcaba84e7","ios":"levelo://app?vid=30b57730-cb66-4122-bd93-7dabcaba84e7"},"vehicle_type_id":"4","last_reported":1743900867,"current_range_meters":8800,"station_id":"","pricing_plan_id":"cebpf4jnsgd1na2vs0mg"},{"bike_id":"71a10363-64d3-46e8-bbcf-3db39fa04dc2","system_id":"levelo_inurba_marseille","lat":43.24071,"lon":5.37764,"is_reserved":false,"is_disabled":false,"rental_uris":{"android":"levelo://app?vid=71a10363-64d3-46e8-bbcf-3db39fa04dc2","ios":"levelo://app?vid=71a10363-64d3-46e8-bbcf-3db39fa04dc2"},"vehicle_type_id":"4","last_reported":1743900867,"current_range_meters":8800,"station_id":"ce4bhnp2rcd13ifvqgvg","pricing_plan_id":"cebpf4jnsgd1na2vs0mg"},{"bike_id":"1e72d3fb-accb-4636-a1fd-813f0b952e02","system_id":"levelo_inurba_marseille","lat":43.30889,"lon":5.39637,"is_reserved":false,"is_disabled":false,"rental_uris":{"android":"levelo://app?vid=1e72d3fb-accb-4636-a1fd-813f0b952e02","ios":"levelo://app?vid=1e72d3fb-accb-4636-a1fd-813f0b952e02"},"vehicle_type_id":"4","last_reported":1743900867,"current_range_meters":8800,"station_id":"ce4bh012rcd13ifvqcv0","pricing_plan_id":"cebpf4jnsgd1na2vs0mg"},{"bike_id":"36193449-5d65-43ac-9630-c9c4e089746a","system_id":"levelo_inurba_marseille","lat":43.308011,"lon":5.381519,"is_reserved":false,"is_disabled":false,"rental_uris":{"android":"levelo://app?vid=36193449-5d65-43ac-9630-c9c4e089746a","ios":"levelo://app?vid=36193449-5d65-43ac-9630-c9c4e089746a"},"vehicle_type_id":"4","last_reported":1743900867,"current_range_meters":8800,"station_id":"ce4bgt12rcd13ifvqce0","pricing_plan_id":"cebpf4jnsgd1na2vs0mg"},{"bike_id":"db29433a-c7f6-40d6-b0e1-3a1f0abf15ab","system_id":"levelo_inurba_marseille","lat":43.241712,"lon":5.364041,"is_reserved":false,"is_disabled":true,"rental_uris":{"android":"levelo://app?vid=db29433a-c7f6-40d6-b0e1-3a1f0abf15ab","ios":"levelo://app?vid=db29433a-c7f6-40d6-b0e1-3a1f0abf15ab"},"vehicle_type_id":"4","last_reported":1743900867,"current_range_meters":9200,"station_id":"ce4bh412rcd13ifvqdr0","pricing_plan_id":"cebpf4jnsgd1na2vs0mg"},{"bike_id":"7275bfd1-0df5-4d5d-9b7f-1a4bcfb62b50","system_id":"levelo_inurba_marseille","lat":43.26065,"lon":5.39395,"is_reserved":false,"is_disabled":false,"rental_uris":{"android":"levelo://app?vid=7275bfd1-0df5-4d5d-9b7f-1a4bcfb62b50","ios":"levelo://app?vid=7275bfd1-0df5-4d5d-9b7f-1a4bcfb62b50"},"vehicle_type_id":"4","last_reported":1743900867,"current_range_meters":9200,"station_id":"ce4bhh92rcd13ifvqfj0","pricing_plan_id":"cebpf4jnsgd1na2vs0mg"},{"bike_id":"fdfd01fc-093d-4c48-8c80-06fe1b4633e3","system_id":"levelo_inurba_marseille","lat":43.292672,"lon":5.384236,"is_reserved":false,"is_disabled":true,"rental_uris":{"android":"levelo://app?vid=fdfd01fc-093d-4c48-8c80-06fe1b4633e3","ios":"levelo://app?vid=fdfd01fc-093d-4c48-8c80-06fe1b4633e3"},"vehicle_type_id":"4","last_reported":1743900867,"current_range_meters":9200,"station_id":"ce4bh692rcd13ifvqea0","pricing_plan_id":"cebpf4jnsgd1na2vs0mg"},{"bike_id":"17a6b79d-0f55-410e-bc56-bc1bcf6a9d7e","system_id":"levelo_inurba_marseille","lat":43.307933,"lon":5.381564,"is_reserved":false,"is_disabled":false,"rental_uris":{"android":"levelo://app?vid=17a6b79d-0f55-410e-bc56-bc1bcf6a9d7e","ios":"levelo://app?vid=17a6b79d-0f55-410e-bc56-bc1bcf6a9d7e"},"vehicle_type_id":"4","last_reported":1743900867,"current_range_meters":9200,"station_id":"ce4bgt12rcd13ifvqce0","pricing_plan_id":"cebpf4jnsgd1na2vs0mg"},{"bike_id":"86b491e7-71de-4e89-a3e4-04fa1b7fb2ae","system_id":"levelo_inurba_marseille","lat":43.29284,"lon":5.40131,"is_reserved":false,"is_disabled":false,"rental_uris":{"android":"levelo://app?vid=86b491e7-71de-4e89-a3e4-04fa1b7fb2ae","ios":"levelo://app?vid=86b491e7-71de-4e89-a3e4-04fa1b7fb2ae"},"vehicle_type_id":"4","last_reported":1743900867,"current_range_meters":9200,"station_id":"ce4bh312rcd13ifvqdk0","pricing_plan_id":"cebpf4jnsgd1na2vs0mg"},{"bike_id":"9d5e033b-05b5-411f-8f82-5b44142c931e","system_id":"levelo_inurba_marseille","lat":43.25826,"lon":5.39428,"is_reserved":false,"is_disabled":false,"rental_uris":{"android":"levelo://app?vid=9d5e033b-05b5-411f-8f82-5b44142c931e","ios":"levelo://app?vid=9d5e033b-05b5-411f-8f82-5b44142c931e"},"vehicle_type_id":"4","last_reported":1743900867,"current_range_meters":9200,"station_id":"ce4bhip2rcd13ifvqft0","pricing_plan_id":"cebpf4jnsgd1na2vs0mg"},{"bike_id":"301b6729-c45c-4915-8ef6-dadde3959d3d","system_id":"levelo_inurba_marseille","lat":43.265685,"lon":5.390201,"is_reserved":false,"is_disabled":true,"rental_uris":{"android":"levelo://app?vid=301b6729-c45c-4915-8ef6-dadde3959d3d","ios":"levelo://app?vid=301b6729-c45c-4915-8ef6-dadde3959d3d"},"vehicle_type_id":"4","last_reported":1743900867,"current_range_meters":9200,"station_id":"ce4bhe12rcd13ifvqf30","pricing_plan_id":"cebpf4jnsgd1na2vs0mg"},{"bike_id":"267eeb16-6453-4fb7-8038-3b408a6bb427","system_id":"levelo_inurba_marseille","lat":43.31441,"lon":5.36975,"is_reserved":false,"is_disabled":false,"rental_uris":{"android":"levelo://app?vid=267eeb16-6453-4fb7-8038-3b408a6bb427","ios":"levelo://app?vid=267eeb16-6453-4fb7-8038-3b408a6bb427"},"vehicle_type_id":"4","last_reported":1743900867,"current_range_meters":9200,"station_id":"","pricing_plan_id":"cebpf4jnsgd1na2vs0mg"},{"bike_id":"25314db0-1249-4b49-9956-f519e7c8e80f","system_id":"levelo_inurba_marseille","lat":43.32111,"lon":5.36779,"is_reserved":false,"is_disabled":false,"rental_uris":{"android":"levelo://app?vid=25314db0-1249-4b49-9956-f519e7c8e80f","ios":"levelo://app?vid=25314db0-1249-4b49-9956-f519e7c8e80f"},"vehicle_type_id":"4","last_reported":1743900867,"current_range_meters":9200,"station_id":"ce4bhrh2rcd13ifvqhug","pricing_plan_id":"cebpf4jnsgd1na2vs0mg"},{"bike_id":"b7a6d371-4cea-45c6-b168-85005dec8f56","system_id":"levelo_inurba_marseille","lat":43.31347,"lon":5.39715,"is_reserved":false,"is_disabled":false,"rental_uris":{"android":"levelo://app?vid=b7a6d371-4cea-45c6-b168-85005dec8f56","ios":"levelo://app?vid=b7a6d371-4cea-45c6-b168-85005dec8f56"},"vehicle_type_id":"4","last_reported":1743900867,"current_range_meters":9200,"station_id":"ce4bgvp2rcd13ifvqcu0","pricing_plan_id":"cebpf4jnsgd1na2vs0mg"},{"bike_id":"990da929-1cb7-46ce-a5e3-a46343bfffe7","system_id":"levelo_inurba_marseille","lat":43.297718,"lon":5.381424,"is_reserved":false,"is_disabled":true,"rental_uris":{"android":"levelo://app?vid=990da929-1cb7-46ce-a5e3-a46343bfffe7","ios":"levelo://app?vid=990da929-1cb7-46ce-a5e3-a46343bfffe7"},"vehicle_type_id":"4","last_reported":1743900867,"current_range_meters":9200,"station_id":"ce4bgip2rcd13ifvqbb0","pricing_plan_id":"cebpf4jnsgd1na2vs0mg"},{"bike_id":"e5a7e6b1-2168-407f-8739-469989498272","system_id":"levelo_inurba_marseille","lat":43.31703,"lon":5.43697,"is_reserved":false,"is_disabled":false,"rental_uris":{"android":"levelo://app?vid=e5a7e6b1-2168-407f-8739-469989498272","ios":"levelo://app?vid=e5a7e6b1-2168-407f-8739-469989498272"},"vehicle_type_id":"4","last_reported":1743900867,"current_range_meters":9200,"station_id":"ce4bhp92rcd13ifvqhcg","pricing_plan_id":"cebpf4jnsgd1na2vs0mg"},{"bike_id":"c9bc89cd-58d1-4a47-b4fa-ac99803a3fe2","system_id":"levelo_inurba_marseille","lat":43.28423,"lon":5.37504,"is_reserved":false,"is_disabled":false,"rental_uris":{"android":"levelo://app?vid=c9bc89cd-58d1-4a47-b4fa-ac99803a3fe2","ios":"levelo://app?vid=c9bc89cd-58d1-4a47-b4fa-ac99803a3fe2"},"vehicle_type_id":"4","last_reported":1743900867,"current_range_meters":9200,"station_id":"ce4bh412rcd13ifvqds0","pricing_plan_id":"cebpf4jnsgd1na2vs0mg"},{"bike_id":"a0028a5b-7a63-48b6-b5f5-2f29f7976b11","system_id":"levelo_inurba_marseille","lat":43.26676,"lon":5.38288,"is_reserved":false,"is_disabled":false,"rental_uris":{"android":"levelo://app?vid=a0028a5b-7a63-48b6-b5f5-2f29f7976b11","ios":"levelo://app?vid=a0028a5b-7a63-48b6-b5f5-2f29f7976b11"},"vehicle_type_id":"4","last_reported":1743900867,"current_range_meters":9200,"station_id":"ce4bhg92rcd13ifvqf90","pricing_plan_id":"cebpf4jnsgd1na2vs0mg"},{"bike_id":"5519561e-6a78-4e38-8de4-84b7f76a38b0","system_id":"levelo_inurba_marseille","lat":43.309274,"lon":5.401415,"is_reserved":false,"is_disabled":true,"rental_uris":{"android":"levelo://app?vid=5519561e-6a78-4e38-8de4-84b7f76a38b0","ios":"levelo://app?vid=5519561e-6a78-4e38-8de4-84b7f76a38b0"},"vehicle_type_id":"4","last_reported":1743900867,"current_range_meters":9200,"station_id":"ce4bgvp2rcd13ifvqct0","pricing_plan_id":"cebpf4jnsgd1na2vs0mg"},{"bike_id":"02779b29-7a5d-439e-936a-d77d08eab911","system_id":"levelo_inurba_marseille","lat":43.24994,"lon":5.3892,"is_reserved":false,"is_disabled":false,"rental_uris":{"android":"levelo://app?vid=02779b29-7a5d-439e-936a-d77d08eab911","ios":"levelo://app?vid=02779b29-7a5d-439e-936a-d77d08eab911"},"vehicle_type_id":"4","last_reported":1743900867,"current_range_meters":9200,"station_id":"ce4bhgp2rcd13ifvqfd0","pricing_plan_id":"cebpf4jnsgd1na2vs0mg"},{"bike_id":"da9c8c5a-aa54-4242-9f06-c4b2da0ddccb","system_id":"levelo_inurba_marseille","lat":43.27912,"lon":5.38003,"is_reserved":false,"is_disabled":false,"rental_uris":{"android":"levelo://app?vid=da9c8c5a-aa54-4242-9f06-c4b2da0ddccb","ios":"levelo://app?vid=da9c8c5a-aa54-4242-9f06-c4b2da0ddccb"},"vehicle_type_id":"4","last_reported":1743900867,"current_range_meters":9600,"station_id":"ce4bhf92rcd13ifvqf50","pricing_plan_id":"cebpf4jnsgd1na2vs0mg"},{"bike_id":"a6a4aada-4dec-4c66-9029-bd9ebff46b38","system_id":"levelo_inurba_marseille","lat":43.3133,"lon":5.39688,"is_reserved":false,"is_disabled":false,"rental_uris":{"android":"levelo://app?vid=a6a4aada-4dec-4c66-9029-bd9ebff46b38","ios":"levelo://app?vid=a6a4aada-4dec-4c66-9029-bd9ebff46b38"},"vehicle_type_id":"4","last_reported":1743900867,"current_range_meters":9600,"station_id":"ce4bgvp2rcd13ifvqcu0","pricing_plan_id":"cebpf4jnsgd1na2vs0mg"},{"bike_id":"43c81fe2-bf38-4316-8970-c2129f39ed9f","system_id":"levelo_inurba_marseille","lat":43.28673,"lon":5.38651,"is_reserved":false,"is_disabled":false,"rental_uris":{"android":"levelo://app?vid=43c81fe2-bf38-4316-8970-c2129f39ed9f","ios":"levelo://app?vid=43c81fe2-bf38-4316-8970-c2129f39ed9f"},"vehicle_type_id":"4","last_reported":1743900867,"current_range_meters":9200,"station_id":"ce4bh492rcd13ifvqdug","pricing_plan_id":"cebpf4jnsgd1na2vs0mg"},{"bike_id":"43718d37-b132-4a2d-9430-23101833a89e","system_id":"levelo_inurba_marseille","lat":43.30832,"lon":5.381,"is_reserved":false,"is_disabled":false,"rental_uris":{"android":"levelo://app?vid=43718d37-b132-4a2d-9430-23101833a89e","ios":"levelo://app?vid=43718d37-b132-4a2d-9430-23101833a89e"},"vehicle_type_id":"4","last_reported":1743900867,"current_range_meters":9600,"station_id":"","pricing_plan_id":"cebpf4jnsgd1na2vs0mg"},{"bike_id":"dcfa7d8b-8535-4cc9-8cdb-dcc1058e4607","system_id":"levelo_inurba_marseille","lat":43.2927,"lon":5.40112,"is_reserved":false,"is_disabled":false,"rental_uris":{"android":"levelo://app?vid=dcfa7d8b-8535-4cc9-8cdb-dcc1058e4607","ios":"levelo://app?vid=dcfa7d8b-8535-4cc9-8cdb-dcc1058e4607"},"vehicle_type_id":"4","last_reported":1743900867,"current_range_meters":9600,"station_id":"ce4bh312rcd13ifvqdk0","pricing_plan_id":"cebpf4jnsgd1na2vs0mg"},{"bike_id":"4c25fb76-cd0e-4544-8837-d2585ee48375","system_id":"levelo_inurba_marseille","lat":43.29889,"lon":5.43667,"is_reserved":false,"is_disabled":false,"rental_uris":{"android":"levelo://app?vid=4c25fb76-cd0e-4544-8837-d2585ee48375","ios":"levelo://app?vid=4c25fb76-cd0e-4544-8837-d2585ee48375"},"vehicle_type_id":"4","last_reported":1743900867,"current_range_meters":9600,"station_id":"ce4bhpp2rcd13ifvqhfg","pricing_plan_id":"cebpf4jnsgd1na2vs0mg"},{"bike_id":"7a935817-47e2-4cb3-8324-a647fdf3a140","system_id":"levelo_inurba_marseille","lat":43.29545,"lon":5.38541,"is_reserved":false,"is_disabled":true,"rental_uris":{"android":"levelo://app?vid=7a935817-47e2-4cb3-8324-a647fdf3a140","ios":"levelo://app?vid=7a935817-47e2-4cb3-8324-a647fdf3a140"},"vehicle_type_id":"4","last_reported":1743900867,"current_range_meters":9600,"station_id":"ce4bgih2rcd13ifvqba0","pricing_plan_id":"cebpf4jnsgd1na2vs0mg"},{"bike_id":"ae2491ec-6c71-4a54-8266-8b04f74c4c6b","system_id":"levelo_inurba_marseille","lat":43.31985,"lon":5.38146,"is_reserved":false,"is_disabled":false,"rental_uris":{"android":"levelo://app?vid=ae2491ec-6c71-4a54-8266-8b04f74c4c6b","ios":"levelo://app?vid=ae2491ec-6c71-4a54-8266-8b04f74c4c6b"},"vehicle_type_id":"4","last_reported":1743900867,"current_range_meters":10000,"station_id":"ce4bhr12rcd13ifvqhpg","pricing_plan_id":"cebpf4jnsgd1na2vs0mg"},{"bike_id":"2947ce29-c55a-4f00-b57b-cb647d290c55","system_id":"levelo_inurba_marseille","lat":43.247963,"lon":5.374593,"is_reserved":false,"is_disabled":true,"rental_uris":{"android":"levelo://app?vid=2947ce29-c55a-4f00-b57b-cb647d290c55","ios":"levelo://app?vid=2947ce29-c55a-4f00-b57b-cb647d290c55"},"vehicle_type_id":"4","last_reported":1743900867,"current_range_meters":10000,"station_id":"ce4bhgh2rcd13ifvqfb0","pricing_plan_id":"cebpf4jnsgd1na2vs0mg"},{"bike_id":"308ccf60-9009-43f8-bb03-6f4f6c34706f","system_id":"levelo_inurba_marseille","lat":43.3023,"lon":5.40031,"is_reserved":false,"is_disabled":false,"rental_uris":{"android":"levelo://app?vid=308ccf60-9009-43f8-bb03-6f4f6c34706f","ios":"levelo://app?vid=308ccf60-9009-43f8-bb03-6f4f6c34706f"},"vehicle_type_id":"4","last_reported":1743900867,"current_range_meters":10000,"station_id":"ce4bgvh2rcd13ifvqcs0","pricing_plan_id":"cebpf4jnsgd1na2vs0mg"},{"bike_id":"1d16e172-d477-4a96-8d7d-42ff6a622d2e","system_id":"levelo_inurba_marseille","lat":43.24696,"lon":5.411817,"is_reserved":false,"is_disabled":false,"rental_uris":{"android":"levelo://app?vid=1d16e172-d477-4a96-8d7d-42ff6a622d2e","ios":"levelo://app?vid=1d16e172-d477-4a96-8d7d-42ff6a622d2e"},"vehicle_type_id":"4","last_reported":1743900867,"current_range_meters":10000,"station_id":"","pricing_plan_id":"cebpf4jnsgd1na2vs0mg"},{"bike_id":"e82f7598-ef71-4a7a-9107-2754e23fe2bf","system_id":"levelo_inurba_marseille","lat":43.28405,"lon":5.37492,"is_reserved":false,"is_disabled":false,"rental_uris":{"android":"levelo://app?vid=e82f7598-ef71-4a7a-9107-2754e23fe2bf","ios":"levelo://app?vid=e82f7598-ef71-4a7a-9107-2754e23fe2bf"},"vehicle_type_id":"4","last_reported":1743900867,"current_range_meters":10000,"station_id":"ce4bh412rcd13ifvqds0","pricing_plan_id":"cebpf4jnsgd1na2vs0mg"},{"bike_id":"b70cced5-dc6e-4ac4-aef4-4cfbee9a2e11","system_id":"levelo_inurba_marseille","lat":43.296063,"lon":5.377241,"is_reserved":false,"is_disabled":true,"rental_uris":{"android":"levelo://app?vid=b70cced5-dc6e-4ac4-aef4-4cfbee9a2e11","ios":"levelo://app?vid=b70cced5-dc6e-4ac4-aef4-4cfbee9a2e11"},"vehicle_type_id":"4","last_reported":1743900867,"current_range_meters":10000,"station_id":"ce4bgi92rcd13ifvqb90","pricing_plan_id":"cebpf4jnsgd1na2vs0mg"},{"bike_id":"bead49ad-4f08-409b-b5dc-f17872424c3c","system_id":"levelo_inurba_marseille","lat":43.29555,"lon":5.42287,"is_reserved":false,"is_disabled":false,"rental_uris":{"android":"levelo://app?vid=bead49ad-4f08-409b-b5dc-f17872424c3c","ios":"levelo://app?vid=bead49ad-4f08-409b-b5dc-f17872424c3c"},"vehicle_type_id":"4","last_reported":1743900867,"current_range_meters":10000,"station_id":"ce4bhph2rcd13ifvqhdg","pricing_plan_id":"cebpf4jnsgd1na2vs0mg"},{"bike_id":"ead2f46e-40fb-45c8-8a51-cd63d9889ae4","system_id":"levelo_inurba_marseille","lat":43.28695,"lon":5.37409,"is_reserved":false,"is_disabled":false,"rental_uris":{"android":"levelo://app?vid=ead2f46e-40fb-45c8-8a51-cd63d9889ae4","ios":"levelo://app?vid=ead2f46e-40fb-45c8-8a51-cd63d9889ae4"},"vehicle_type_id":"4","last_reported":1743900867,"current_range_meters":10000,"station_id":"ce4bh3p2rcd13ifvqdq0","pricing_plan_id":"cebpf4jnsgd1na2vs0mg"},{"bike_id":"1d7e034e-3553-4b69-9eb8-32c77ea26169","system_id":"levelo_inurba_marseille","lat":43.28738,"lon":5.36083,"is_reserved":false,"is_disabled":false,"rental_uris":{"android":"levelo://app?vid=1d7e034e-3553-4b69-9eb8-32c77ea26169","ios":"levelo://app?vid=1d7e034e-3553-4b69-9eb8-32c77ea26169"},"vehicle_type_id":"4","last_reported":1743900867,"current_range_meters":10000,"station_id":"cki0cbj6b192h4jlfktg","pricing_plan_id":"cebpf4jnsgd1na2vs0mg"},{"bike_id":"aeaafdce-072b-410b-bb71-bd5216dc505b","system_id":"levelo_inurba_marseille","lat":43.2313,"lon":5.40048,"is_reserved":false,"is_disabled":false,"rental_uris":{"android":"levelo://app?vid=aeaafdce-072b-410b-bb71-bd5216dc505b","ios":"levelo://app?vid=aeaafdce-072b-410b-bb71-bd5216dc505b"},"vehicle_type_id":"4","last_reported":1743900867,"current_range_meters":10800,"station_id":"","pricing_plan_id":"cebpf4jnsgd1na2vs0mg"},{"bike_id":"64ef4aca-2f76-454a-86f0-57d107f9d4b8","system_id":"levelo_inurba_marseille","lat":43.28729,"lon":5.36097,"is_reserved":false,"is_disabled":false,"rental_uris":{"android":"levelo://app?vid=64ef4aca-2f76-454a-86f0-57d107f9d4b8","ios":"levelo://app?vid=64ef4aca-2f76-454a-86f0-57d107f9d4b8"},"vehicle_type_id":"4","last_reported":1743900867,"current_range_meters":10800,"station_id":"cki0cbj6b192h4jlfktg","pricing_plan_id":"cebpf4jnsgd1na2vs0mg"},{"bike_id":"1622461e-25a5-4ec6-9188-643400d8cf0e","system_id":"levelo_inurba_marseille","lat":43.308,"lon":5.43522,"is_reserved":false,"is_disabled":false,"rental_uris":{"android":"levelo://app?vid=1622461e-25a5-4ec6-9188-643400d8cf0e","ios":"levelo://app?vid=1622461e-25a5-4ec6-9188-643400d8cf0e"},"vehicle_type_id":"4","last_reported":1743900867,"current_range_meters":10800,"station_id":"ce4bhph2rcd13ifvqheg","pricing_plan_id":"cebpf4jnsgd1na2vs0mg"},{"bike_id":"ba254344-24b5-42e0-9c38-54dba63d24e7","system_id":"levelo_inurba_marseille","lat":43.27978,"lon":5.38738,"is_reserved":false,"is_disabled":false,"rental_uris":{"android":"levelo://app?vid=ba254344-24b5-42e0-9c38-54dba63d24e7","ios":"levelo://app?vid=ba254344-24b5-42e0-9c38-54dba63d24e7"},"vehicle_type_id":"4","last_reported":1743900867,"current_range_meters":10800,"station_id":"ce4bhg12rcd13ifvqf80","pricing_plan_id":"cebpf4jnsgd1na2vs0mg"},{"bike_id":"64928ba1-df5f-4bed-a597-6dab5f3f4879","system_id":"levelo_inurba_marseille","lat":43.21732,"lon":5.34608,"is_reserved":false,"is_disabled":false,"rental_uris":{"android":"levelo://app?vid=64928ba1-df5f-4bed-a597-6dab5f3f4879","ios":"levelo://app?vid=64928ba1-df5f-4bed-a597-6dab5f3f4879"},"vehicle_type_id":"4","last_reported":1743900867,"current_range_meters":10800,"station_id":"ce4bhgh2rcd13ifvqfb0","pricing_plan_id":"cebpf4jnsgd1na2vs0mg"},{"bike_id":"f470b7ff-8985-4014-b9d1-2d1b82ce3088","system_id":"levelo_inurba_marseille","lat":43.287203,"lon":5.379321,"is_reserved":false,"is_disabled":false,"rental_uris":{"android":"levelo://app?vid=f470b7ff-8985-4014-b9d1-2d1b82ce3088","ios":"levelo://app?vid=f470b7ff-8985-4014-b9d1-2d1b82ce3088"},"vehicle_type_id":"4","last_reported":1743900867,"current_range_meters":10800,"station_id":"ce4bh9p2rcd13ifvqec0","pricing_plan_id":"cebpf4jnsgd1na2vs0mg"},{"bike_id":"0f3d6cb8-7efe-42ee-ab50-2a663f90e5af","system_id":"levelo_inurba_marseille","lat":43.27616,"lon":5.36116,"is_reserved":false,"is_disabled":false,"rental_uris":{"android":"levelo://app?vid=0f3d6cb8-7efe-42ee-ab50-2a663f90e5af","ios":"levelo://app?vid=0f3d6cb8-7efe-42ee-ab50-2a663f90e5af"},"vehicle_type_id":"4","last_reported":1743900867,"current_range_meters":10800,"station_id":"ce4bgj92rcd13ifvqbe0","pricing_plan_id":"cebpf4jnsgd1na2vs0mg"},{"bike_id":"b7ee7aed-09b2-4789-a41c-a569428ae849","system_id":"levelo_inurba_marseille","lat":43.3079,"lon":5.37639,"is_reserved":false,"is_disabled":false,"rental_uris":{"android":"levelo://app?vid=b7ee7aed-09b2-4789-a41c-a569428ae849","ios":"levelo://app?vid=b7ee7aed-09b2-4789-a41c-a569428ae849"},"vehicle_type_id":"4","last_reported":1743900867,"current_range_meters":10800,"station_id":"ce4bgv92rcd13ifvqcq0","pricing_plan_id":"cebpf4jnsgd1na2vs0mg"},{"bike_id":"83f72f2e-1d74-47c8-a665-7663d334199b","system_id":"levelo_inurba_marseille","lat":43.28738,"lon":5.3613,"is_reserved":false,"is_disabled":false,"rental_uris":{"android":"levelo://app?vid=83f72f2e-1d74-47c8-a665-7663d334199b","ios":"levelo://app?vid=83f72f2e-1d74-47c8-a665-7663d334199b"},"vehicle_type_id":"4","last_reported":1743900867,"current_range_meters":10800,"station_id":"cki0cbj6b192h4jlfktg","pricing_plan_id":"cebpf4jnsgd1na2vs0mg"},{"bike_id":"4c1aaeaf-05fb-40a2-ac2f-a52a3a50ef57","system_id":"levelo_inurba_marseille","lat":43.29263,"lon":5.40907,"is_reserved":false,"is_disabled":false,"rental_uris":{"android":"levelo://app?vid=4c1aaeaf-05fb-40a2-ac2f-a52a3a50ef57","ios":"levelo://app?vid=4c1aaeaf-05fb-40a2-ac2f-a52a3a50ef57"},"vehicle_type_id":"4","last_reported":1743900867,"current_range_meters":10800,"station_id":"ce4bh192rcd13ifvqdc0","pricing_plan_id":"cebpf4jnsgd1na2vs0mg"},{"bike_id":"048baa14-41a1-4854-b930-24ae08b403d5","system_id":"levelo_inurba_marseille","lat":43.32651,"lon":5.40999,"is_reserved":false,"is_disabled":false,"rental_uris":{"android":"levelo://app?vid=048baa14-41a1-4854-b930-24ae08b403d5","ios":"levelo://app?vid=048baa14-41a1-4854-b930-24ae08b403d5"},"vehicle_type_id":"4","last_reported":1743900867,"current_range_meters":10800,"station_id":"ce4bhpp2rcd13ifvqhgg","pricing_plan_id":"cebpf4jnsgd1na2vs0mg"},{"bike_id":"efe359c6-9a16-4a01-b52f-9f3d2b04dd09","system_id":"levelo_inurba_marseille","lat":43.3043,"lon":5.3975,"is_reserved":false,"is_disabled":false,"rental_uris":{"android":"levelo://app?vid=efe359c6-9a16-4a01-b52f-9f3d2b04dd09","ios":"levelo://app?vid=efe359c6-9a16-4a01-b52f-9f3d2b04dd09"},"vehicle_type_id":"4","last_reported":1743900867,"current_range_meters":10800,"station_id":"ce4bh092rcd13ifvqd20","pricing_plan_id":"cebpf4jnsgd1na2vs0mg"},{"bike_id":"5ed85862-8a09-4b95-a2aa-7fe225e41cfe","system_id":"levelo_inurba_marseille","lat":43.30776,"lon":5.37656,"is_reserved":false,"is_disabled":false,"rental_uris":{"android":"levelo://app?vid=5ed85862-8a09-4b95-a2aa-7fe225e41cfe","ios":"levelo://app?vid=5ed85862-8a09-4b95-a2aa-7fe225e41cfe"},"vehicle_type_id":"4","last_reported":1743900867,"current_range_meters":11200,"station_id":"ce4bgv92rcd13ifvqcq0","pricing_plan_id":"cebpf4jnsgd1na2vs0mg"},{"bike_id":"6b652b17-4709-4398-8896-6b070cee45a3","system_id":"levelo_inurba_marseille","lat":43.315044,"lon":5.380354,"is_reserved":false,"is_disabled":false,"rental_uris":{"android":"levelo://app?vid=6b652b17-4709-4398-8896-6b070cee45a3","ios":"levelo://app?vid=6b652b17-4709-4398-8896-6b070cee45a3"},"vehicle_type_id":"4","last_reported":1743900867,"current_range_meters":11200,"station_id":"ce4bhsp2rcd13ifvqi50","pricing_plan_id":"cebpf4jnsgd1na2vs0mg"},{"bike_id":"0390015b-5bef-448b-bc10-44e5f8ab3c5f","system_id":"levelo_inurba_marseille","lat":43.2582,"lon":5.39415,"is_reserved":false,"is_disabled":false,"rental_uris":{"android":"levelo://app?vid=0390015b-5bef-448b-bc10-44e5f8ab3c5f","ios":"levelo://app?vid=0390015b-5bef-448b-bc10-44e5f8ab3c5f"},"vehicle_type_id":"4","last_reported":1743900867,"current_range_meters":11200,"station_id":"ce4bhip2rcd13ifvqft0","pricing_plan_id":"cebpf4jnsgd1na2vs0mg"},{"bike_id":"97d77224-5748-4443-848a-6ab951c45d6d","system_id":"levelo_inurba_marseille","lat":43.32254,"lon":5.3829,"is_reserved":false,"is_disabled":false,"rental_uris":{"android":"levelo://app?vid=97d77224-5748-4443-848a-6ab951c45d6d","ios":"levelo://app?vid=97d77224-5748-4443-848a-6ab951c45d6d"},"vehicle_type_id":"4","last_reported":1743900867,"current_range_meters":11200,"station_id":"ce4bhr12rcd13ifvqhqg","pricing_plan_id":"cebpf4jnsgd1na2vs0mg"},{"bike_id":"1bf28fcd-357a-43a7-b215-31bb2951a59c","system_id":"levelo_inurba_marseille","lat":43.29582,"lon":5.42262,"is_reserved":false,"is_disabled":false,"rental_uris":{"android":"levelo://app?vid=1bf28fcd-357a-43a7-b215-31bb2951a59c","ios":"levelo://app?vid=1bf28fcd-357a-43a7-b215-31bb2951a59c"},"vehicle_type_id":"4","last_reported":1743900867,"current_range_meters":11200,"station_id":"ce4bhph2rcd13ifvqhdg","pricing_plan_id":"cebpf4jnsgd1na2vs0mg"},{"bike_id":"b6db97d3-b4ae-4421-91cd-b6ce323b6de2","system_id":"levelo_inurba_marseille","lat":43.30762,"lon":5.38168,"is_reserved":false,"is_disabled":false,"rental_uris":{"android":"levelo://app?vid=b6db97d3-b4ae-4421-91cd-b6ce323b6de2","ios":"levelo://app?vid=b6db97d3-b4ae-4421-91cd-b6ce323b6de2"},"vehicle_type_id":"4","last_reported":1743900867,"current_range_meters":11200,"station_id":"ce4bgt12rcd13ifvqce0","pricing_plan_id":"cebpf4jnsgd1na2vs0mg"},{"bike_id":"c0259057-5c87-4e25-aac9-1ccb60068e35","system_id":"levelo_inurba_marseille","lat":43.29933,"lon":5.36544,"is_reserved":false,"is_disabled":false,"rental_uris":{"android":"levelo://app?vid=c0259057-5c87-4e25-aac9-1ccb60068e35","ios":"levelo://app?vid=c0259057-5c87-4e25-aac9-1ccb60068e35"},"vehicle_type_id":"4","last_reported":1743900867,"current_range_meters":11200,"station_id":"ce4bgm92rcd13ifvqbr0","pricing_plan_id":"cebpf4jnsgd1na2vs0mg"},{"bike_id":"01da542b-ce27-4a44-9a9a-bd145ac5f04c","system_id":"levelo_inurba_marseille","lat":43.301223,"lon":5.398603,"is_reserved":false,"is_disabled":false,"rental_uris":{"android":"levelo://app?vid=01da542b-ce27-4a44-9a9a-bd145ac5f04c","ios":"levelo://app?vid=01da542b-ce27-4a44-9a9a-bd145ac5f04c"},"vehicle_type_id":"4","last_reported":1743900867,"current_range_meters":11200,"station_id":"ce4bh0h2rcd13ifvqd40","pricing_plan_id":"cebpf4jnsgd1na2vs0mg"},{"bike_id":"b84b2e6e-4de1-4f4a-bb14-266e3e1725e1","system_id":"levelo_inurba_marseille","lat":43.28947,"lon":5.36387,"is_reserved":false,"is_disabled":false,"rental_uris":{"android":"levelo://app?vid=b84b2e6e-4de1-4f4a-bb14-266e3e1725e1","ios":"levelo://app?vid=b84b2e6e-4de1-4f4a-bb14-266e3e1725e1"},"vehicle_type_id":"4","last_reported":1743900867,"current_range_meters":11200,"station_id":"ce4bhc92rcd13ifvqetg","pricing_plan_id":"cebpf4jnsgd1na2vs0mg"},{"bike_id":"f6b91dd7-4f9e-409f-bb72-770ac25bc24e","system_id":"levelo_inurba_marseille","lat":43.32478,"lon":5.36568,"is_reserved":false,"is_disabled":false,"rental_uris":{"android":"levelo://app?vid=f6b91dd7-4f9e-409f-bb72-770ac25bc24e","ios":"levelo://app?vid=f6b91dd7-4f9e-409f-bb72-770ac25bc24e"},"vehicle_type_id":"4","last_reported":1743900867,"current_range_meters":11600,"station_id":"ce4bhs12rcd13ifvqhvg","pricing_plan_id":"cebpf4jnsgd1na2vs0mg"},{"bike_id":"00393ee2-317d-4e98-a30d-fd25773ef49f","system_id":"levelo_inurba_marseille","lat":43.35247,"lon":5.35763,"is_reserved":false,"is_disabled":false,"rental_uris":{"android":"levelo://app?vid=00393ee2-317d-4e98-a30d-fd25773ef49f","ios":"levelo://app?vid=00393ee2-317d-4e98-a30d-fd25773ef49f"},"vehicle_type_id":"4","last_reported":1743900867,"current_range_meters":11600,"station_id":"","pricing_plan_id":"cebpf4jnsgd1na2vs0mg"},{"bike_id":"867fb900-f56e-4c6b-83c4-e5102d4bd393","system_id":"levelo_inurba_marseille","lat":43.32344,"lon":5.40614,"is_reserved":false,"is_disabled":false,"rental_uris":{"android":"levelo://app?vid=867fb900-f56e-4c6b-83c4-e5102d4bd393","ios":"levelo://app?vid=867fb900-f56e-4c6b-83c4-e5102d4bd393"},"vehicle_type_id":"4","last_reported":1743900867,"current_range_meters":11600,"station_id":"ce4bhq92rcd13ifvqhjg","pricing_plan_id":"cebpf4jnsgd1na2vs0mg"},{"bike_id":"d4286db4-b3a4-4b8e-9578-24abb2935477","system_id":"levelo_inurba_marseille","lat":43.279394,"lon":5.410468,"is_reserved":false,"is_disabled":false,"rental_uris":{"android":"levelo://app?vid=d4286db4-b3a4-4b8e-9578-24abb2935477","ios":"levelo://app?vid=d4286db4-b3a4-4b8e-9578-24abb2935477"},"vehicle_type_id":"4","last_reported":1743900867,"current_range_meters":11600,"station_id":"ce4bhnp2rcd13ifvqh0g","pricing_plan_id":"cebpf4jnsgd1na2vs0mg"},{"bike_id":"6023584e-870f-454d-88b0-bf3dc0e21fbe","system_id":"levelo_inurba_marseille","lat":43.24393,"lon":5.37066,"is_reserved":false,"is_disabled":true,"rental_uris":{"android":"levelo://app?vid=6023584e-870f-454d-88b0-bf3dc0e21fbe","ios":"levelo://app?vid=6023584e-870f-454d-88b0-bf3dc0e21fbe"},"vehicle_type_id":"4","last_reported":1743900867,"current_range_meters":11600,"station_id":"ce4bhhh2rcd13ifvqfk0","pricing_plan_id":"cebpf4jnsgd1na2vs0mg"},{"bike_id":"c38030f9-cf9d-4d54-956e-0166a9954e63","system_id":"levelo_inurba_marseille","lat":43.30332,"lon":5.4043,"is_reserved":false,"is_disabled":false,"rental_uris":{"android":"levelo://app?vid=c38030f9-cf9d-4d54-956e-0166a9954e63","ios":"levelo://app?vid=c38030f9-cf9d-4d54-956e-0166a9954e63"},"vehicle_type_id":"4","last_reported":1743900867,"current_range_meters":12000,"station_id":"ce4bh012rcd13ifvqd10","pricing_plan_id":"cebpf4jnsgd1na2vs0mg"},{"bike_id":"803c489a-4b4f-4c2e-a1e2-a333d65d0230","system_id":"levelo_inurba_marseille","lat":43.29044,"lon":5.39963,"is_reserved":false,"is_disabled":false,"rental_uris":{"android":"levelo://app?vid=803c489a-4b4f-4c2e-a1e2-a333d65d0230","ios":"levelo://app?vid=803c489a-4b4f-4c2e-a1e2-a333d65d0230"},"vehicle_type_id":"4","last_reported":1743900867,"current_range_meters":12000,"station_id":"ce4bh392rcd13ifvqdm0","pricing_plan_id":"cebpf4jnsgd1na2vs0mg"},{"bike_id":"e281b7f3-1a96-4bd2-8c5e-918aab0335b3","system_id":"levelo_inurba_marseille","lat":43.28707,"lon":5.38672,"is_reserved":false,"is_disabled":false,"rental_uris":{"android":"levelo://app?vid=e281b7f3-1a96-4bd2-8c5e-918aab0335b3","ios":"levelo://app?vid=e281b7f3-1a96-4bd2-8c5e-918aab0335b3"},"vehicle_type_id":"4","last_reported":1743900867,"current_range_meters":12000,"station_id":"ce4bh492rcd13ifvqdug","pricing_plan_id":"cebpf4jnsgd1na2vs0mg"},{"bike_id":"9c9e91df-e133-414a-8295-3f6a292805f6","system_id":"levelo_inurba_marseille","lat":43.23193,"lon":5.3555,"is_reserved":false,"is_disabled":true,"rental_uris":{"android":"levelo://app?vid=9c9e91df-e133-414a-8295-3f6a292805f6","ios":"levelo://app?vid=9c9e91df-e133-414a-8295-3f6a292805f6"},"vehicle_type_id":"4","last_reported":1743900867,"current_range_meters":12000,"station_id":"ce4bhu92rcd13ifvqi70","pricing_plan_id":"cebpf4jnsgd1na2vs0mg"},{"bike_id":"4fb49432-e938-4018-8849-d2e72e50a49a","system_id":"levelo_inurba_marseille","lat":43.30792,"lon":5.38147,"is_reserved":false,"is_disabled":false,"rental_uris":{"android":"levelo://app?vid=4fb49432-e938-4018-8849-d2e72e50a49a","ios":"levelo://app?vid=4fb49432-e938-4018-8849-d2e72e50a49a"},"vehicle_type_id":"4","last_reported":1743900867,"current_range_meters":12000,"station_id":"ce4bgt12rcd13ifvqce0","pricing_plan_id":"cebpf4jnsgd1na2vs0mg"},{"bike_id":"73272853-088e-4b39-8e6e-94fe10fc353c","system_id":"levelo_inurba_marseille","lat":43.33763,"lon":5.37488,"is_reserved":false,"is_disabled":false,"rental_uris":{"android":"levelo://app?vid=73272853-088e-4b39-8e6e-94fe10fc353c","ios":"levelo://app?vid=73272853-088e-4b39-8e6e-94fe10fc353c"},"vehicle_type_id":"4","last_reported":1743900867,"current_range_meters":12000,"station_id":"","pricing_plan_id":"cebpf4jnsgd1na2vs0mg"},{"bike_id":"b41d12f7-712e-4af4-bf60-a021894a5dc3","system_id":"levelo_inurba_marseille","lat":43.28942,"lon":5.36392,"is_reserved":false,"is_disabled":false,"rental_uris":{"android":"levelo://app?vid=b41d12f7-712e-4af4-bf60-a021894a5dc3","ios":"levelo://app?vid=b41d12f7-712e-4af4-bf60-a021894a5dc3"},"vehicle_type_id":"4","last_reported":1743900867,"current_range_meters":12000,"station_id":"ce4bhc92rcd13ifvqetg","pricing_plan_id":"cebpf4jnsgd1na2vs0mg"},{"bike_id":"936233dd-1e5b-4f07-9529-f0ff53a06c61","system_id":"levelo_inurba_marseille","lat":43.24672,"lon":5.38124,"is_reserved":false,"is_disabled":false,"rental_uris":{"android":"levelo://app?vid=936233dd-1e5b-4f07-9529-f0ff53a06c61","ios":"levelo://app?vid=936233dd-1e5b-4f07-9529-f0ff53a06c61"},"vehicle_type_id":"4","last_reported":1743900867,"current_range_meters":12400,"station_id":"ce4bhih2rcd13ifvqfr0","pricing_plan_id":"cebpf4jnsgd1na2vs0mg"},{"bike_id":"abde5d83-9b30-4b2f-8a88-f914ca452329","system_id":"levelo_inurba_marseille","lat":43.31248,"lon":5.38705,"is_reserved":false,"is_disabled":false,"rental_uris":{"android":"levelo://app?vid=abde5d83-9b30-4b2f-8a88-f914ca452329","ios":"levelo://app?vid=abde5d83-9b30-4b2f-8a88-f914ca452329"},"vehicle_type_id":"4","last_reported":1743900867,"current_range_meters":12400,"station_id":"","pricing_plan_id":"cebpf4jnsgd1na2vs0mg"},{"bike_id":"b598b6b8-69a3-4491-bd9b-eb0a2b32b0cf","system_id":"levelo_inurba_marseille","lat":43.310304,"lon":5.380931,"is_reserved":false,"is_disabled":false,"rental_uris":{"android":"levelo://app?vid=b598b6b8-69a3-4491-bd9b-eb0a2b32b0cf","ios":"levelo://app?vid=b598b6b8-69a3-4491-bd9b-eb0a2b32b0cf"},"vehicle_type_id":"4","last_reported":1743900867,"current_range_meters":12400,"station_id":"","pricing_plan_id":"cebpf4jnsgd1na2vs0mg"},{"bike_id":"be0592d1-8673-41de-b066-b2109d8e8167","system_id":"levelo_inurba_marseille","lat":43.30315,"lon":5.36886,"is_reserved":false,"is_disabled":false,"rental_uris":{"android":"levelo://app?vid=be0592d1-8673-41de-b066-b2109d8e8167","ios":"levelo://app?vid=be0592d1-8673-41de-b066-b2109d8e8167"},"vehicle_type_id":"4","last_reported":1743900867,"current_range_meters":12400,"station_id":"ce4bgqh2rcd13ifvqc5g","pricing_plan_id":"cebpf4jnsgd1na2vs0mg"},{"bike_id":"625c7f88-f421-41b1-8bda-76b07c36098e","system_id":"levelo_inurba_marseille","lat":43.26546,"lon":5.39027,"is_reserved":false,"is_disabled":false,"rental_uris":{"android":"levelo://app?vid=625c7f88-f421-41b1-8bda-76b07c36098e","ios":"levelo://app?vid=625c7f88-f421-41b1-8bda-76b07c36098e"},"vehicle_type_id":"4","last_reported":1743900867,"current_range_meters":12400,"station_id":"ce4bhe12rcd13ifvqf30","pricing_plan_id":"cebpf4jnsgd1na2vs0mg"},{"bike_id":"e82f7f02-1218-4d63-b2ef-c5b20d402fa4","system_id":"levelo_inurba_marseille","lat":43.28107,"lon":5.37823,"is_reserved":false,"is_disabled":false,"rental_uris":{"android":"levelo://app?vid=e82f7f02-1218-4d63-b2ef-c5b20d402fa4","ios":"levelo://app?vid=e82f7f02-1218-4d63-b2ef-c5b20d402fa4"},"vehicle_type_id":"4","last_reported":1743900867,"current_range_meters":12400,"station_id":"ce4bha12rcd13ifvqee0","pricing_plan_id":"cebpf4jnsgd1na2vs0mg"},{"bike_id":"cdba44aa-a105-4f1b-b51d-73fa7a4d54d2","system_id":"levelo_inurba_marseille","lat":43.311772,"lon":5.387112,"is_reserved":false,"is_disabled":false,"rental_uris":{"android":"levelo://app?vid=cdba44aa-a105-4f1b-b51d-73fa7a4d54d2","ios":"levelo://app?vid=cdba44aa-a105-4f1b-b51d-73fa7a4d54d2"},"vehicle_type_id":"4","last_reported":1743900867,"current_range_meters":12800,"station_id":"ce4bgv12rcd13ifvqcp0","pricing_plan_id":"cebpf4jnsgd1na2vs0mg"},{"bike_id":"9f934b58-f1ea-480f-8936-f14b081c3420","system_id":"levelo_inurba_marseille","lat":43.26217,"lon":5.37441,"is_reserved":false,"is_disabled":false,"rental_uris":{"android":"levelo://app?vid=9f934b58-f1ea-480f-8936-f14b081c3420","ios":"levelo://app?vid=9f934b58-f1ea-480f-8936-f14b081c3420"},"vehicle_type_id":"4","last_reported":1743900867,"current_range_meters":12800,"station_id":"ce4bhgp2rcd13ifvqfc0","pricing_plan_id":"cebpf4jnsgd1na2vs0mg"},{"bike_id":"ceba594e-ff69-4140-828e-f8a961103e51","system_id":"levelo_inurba_marseille","lat":43.24169,"lon":5.36377,"is_reserved":false,"is_disabled":false,"rental_uris":{"android":"levelo://app?vid=ceba594e-ff69-4140-828e-f8a961103e51","ios":"levelo://app?vid=ceba594e-ff69-4140-828e-f8a961103e51"},"vehicle_type_id":"4","last_reported":1743900867,"current_range_meters":12800,"station_id":"cpo36qri1sfpv3e86is0","pricing_plan_id":"cebpf4jnsgd1na2vs0mg"},{"bike_id":"a5f8fe53-2f9c-4672-9bdc-1433af05ee91","system_id":"levelo_inurba_marseille","lat":43.27917,"lon":5.39576,"is_reserved":false,"is_disabled":false,"rental_uris":{"android":"levelo://app?vid=a5f8fe53-2f9c-4672-9bdc-1433af05ee91","ios":"levelo://app?vid=a5f8fe53-2f9c-4672-9bdc-1433af05ee91"},"vehicle_type_id":"4","last_reported":1743900867,"current_range_meters":12800,"station_id":"ce4bhf92rcd13ifvqf40","pricing_plan_id":"cebpf4jnsgd1na2vs0mg"},{"bike_id":"97701ac3-cfa4-4f07-87c0-26acad567d6a","system_id":"levelo_inurba_marseille","lat":43.29042,"lon":5.35917,"is_reserved":false,"is_disabled":false,"rental_uris":{"android":"levelo://app?vid=97701ac3-cfa4-4f07-87c0-26acad567d6a","ios":"levelo://app?vid=97701ac3-cfa4-4f07-87c0-26acad567d6a"},"vehicle_type_id":"4","last_reported":1743900867,"current_range_meters":12800,"station_id":"ce4bha92rcd13ifvqeg0","pricing_plan_id":"cebpf4jnsgd1na2vs0mg"},{"bike_id":"041a64d4-c209-47e3-9bde-273215841e33","system_id":"levelo_inurba_marseille","lat":43.28715,"lon":5.37376,"is_reserved":false,"is_disabled":false,"rental_uris":{"android":"levelo://app?vid=041a64d4-c209-47e3-9bde-273215841e33","ios":"levelo://app?vid=041a64d4-c209-47e3-9bde-273215841e33"},"vehicle_type_id":"4","last_reported":1743900867,"current_range_meters":12800,"station_id":"ce4bh3p2rcd13ifvqdq0","pricing_plan_id":"cebpf4jnsgd1na2vs0mg"},{"bike_id":"1b0f2b83-0e4e-48f0-805f-48633619073a","system_id":"levelo_inurba_marseille","lat":43.27189,"lon":5.40984,"is_reserved":false,"is_disabled":false,"rental_uris":{"android":"levelo://app?vid=1b0f2b83-0e4e-48f0-805f-48633619073a","ios":"levelo://app?vid=1b0f2b83-0e4e-48f0-805f-48633619073a"},"vehicle_type_id":"4","last_reported":1743900867,"current_range_meters":12800,"station_id":"ce4bhl12rcd13ifvqgf0","pricing_plan_id":"cebpf4jnsgd1na2vs0mg"},{"bike_id":"c89a749e-492a-4edb-8fe9-5254d4113a2d","system_id":"levelo_inurba_marseille","lat":43.27999,"lon":5.41666,"is_reserved":false,"is_disabled":false,"rental_uris":{"android":"levelo://app?vid=c89a749e-492a-4edb-8fe9-5254d4113a2d","ios":"levelo://app?vid=c89a749e-492a-4edb-8fe9-5254d4113a2d"},"vehicle_type_id":"4","last_reported":1743900867,"current_range_meters":12800,"station_id":"ce4bho12rcd13ifvqh1g","pricing_plan_id":"cebpf4jnsgd1na2vs0mg"},{"bike_id":"bcf7c07f-b391-45d6-a419-1493f771d4df","system_id":"levelo_inurba_marseille","lat":43.30595,"lon":5.39349,"is_reserved":false,"is_disabled":false,"rental_uris":{"android":"levelo://app?vid=bcf7c07f-b391-45d6-a419-1493f771d4df","ios":"levelo://app?vid=bcf7c07f-b391-45d6-a419-1493f771d4df"},"vehicle_type_id":"4","last_reported":1743900867,"current_range_meters":12800,"station_id":"ce4bh0p2rcd13ifvqd80","pricing_plan_id":"cebpf4jnsgd1na2vs0mg"},{"bike_id":"136b6e45-ee21-453e-aa22-e07947db9071","system_id":"levelo_inurba_marseille","lat":43.23149,"lon":5.43697,"is_reserved":false,"is_disabled":true,"rental_uris":{"android":"levelo://app?vid=136b6e45-ee21-453e-aa22-e07947db9071","ios":"levelo://app?vid=136b6e45-ee21-453e-aa22-e07947db9071"},"vehicle_type_id":"4","last_reported":1743900867,"current_range_meters":12800,"station_id":"ce4bhmp2rcd13ifvqgog","pricing_plan_id":"cebpf4jnsgd1na2vs0mg"},{"bike_id":"ce21ecfa-084f-4452-8882-e74e683c23b9","system_id":"levelo_inurba_marseille","lat":43.24074,"lon":5.37761,"is_reserved":false,"is_disabled":false,"rental_uris":{"android":"levelo://app?vid=ce21ecfa-084f-4452-8882-e74e683c23b9","ios":"levelo://app?vid=ce21ecfa-084f-4452-8882-e74e683c23b9"},"vehicle_type_id":"4","last_reported":1743900867,"current_range_meters":13600,"station_id":"ce4bhnp2rcd13ifvqgvg","pricing_plan_id":"cebpf4jnsgd1na2vs0mg"},{"bike_id":"5420e474-5232-43f0-bd62-51e2359e3157","system_id":"levelo_inurba_marseille","lat":43.31372,"lon":5.37014,"is_reserved":false,"is_disabled":false,"rental_uris":{"android":"levelo://app?vid=5420e474-5232-43f0-bd62-51e2359e3157","ios":"levelo://app?vid=5420e474-5232-43f0-bd62-51e2359e3157"},"vehicle_type_id":"4","last_reported":1743900867,"current_range_meters":13600,"station_id":"","pricing_plan_id":"cebpf4jnsgd1na2vs0mg"},{"bike_id":"68a0ae26-138b-4d54-ae64-8ab54e02cd2f","system_id":"levelo_inurba_marseille","lat":43.26785,"lon":5.39418,"is_reserved":false,"is_disabled":false,"rental_uris":{"android":"levelo://app?vid=68a0ae26-138b-4d54-ae64-8ab54e02cd2f","ios":"levelo://app?vid=68a0ae26-138b-4d54-ae64-8ab54e02cd2f"},"vehicle_type_id":"4","last_reported":1743900867,"current_range_meters":13600,"station_id":"ce4bhh12rcd13ifvqfg0","pricing_plan_id":"cebpf4jnsgd1na2vs0mg"},{"bike_id":"f4bd038b-da6d-4cef-a600-a76db0e8d333","system_id":"levelo_inurba_marseille","lat":43.29252,"lon":5.40899,"is_reserved":false,"is_disabled":false,"rental_uris":{"android":"levelo://app?vid=f4bd038b-da6d-4cef-a600-a76db0e8d333","ios":"levelo://app?vid=f4bd038b-da6d-4cef-a600-a76db0e8d333"},"vehicle_type_id":"4","last_reported":1743900867,"current_range_meters":13600,"station_id":"ce4bh192rcd13ifvqdc0","pricing_plan_id":"cebpf4jnsgd1na2vs0mg"},{"bike_id":"8f6dc4df-021c-4b49-b773-41ad9c5221cf","system_id":"levelo_inurba_marseille","lat":43.31038,"lon":5.37123,"is_reserved":false,"is_disabled":false,"rental_uris":{"android":"levelo://app?vid=8f6dc4df-021c-4b49-b773-41ad9c5221cf","ios":"levelo://app?vid=8f6dc4df-021c-4b49-b773-41ad9c5221cf"},"vehicle_type_id":"4","last_reported":1743900867,"current_range_meters":13600,"station_id":"","pricing_plan_id":"cebpf4jnsgd1na2vs0mg"},{"bike_id":"97c1701e-ad11-4e7e-92b1-742af6d82d4f","system_id":"levelo_inurba_marseille","lat":43.2926,"lon":5.40909,"is_reserved":false,"is_disabled":false,"rental_uris":{"android":"levelo://app?vid=97c1701e-ad11-4e7e-92b1-742af6d82d4f","ios":"levelo://app?vid=97c1701e-ad11-4e7e-92b1-742af6d82d4f"},"vehicle_type_id":"4","last_reported":1743900867,"current_range_meters":13600,"station_id":"ce4bh192rcd13ifvqdc0","pricing_plan_id":"cebpf4jnsgd1na2vs0mg"},{"bike_id":"77fb35d2-28de-4101-8dd2-278f833d51b4","system_id":"levelo_inurba_marseille","lat":43.3077,"lon":5.37663,"is_reserved":false,"is_disabled":false,"rental_uris":{"android":"levelo://app?vid=77fb35d2-28de-4101-8dd2-278f833d51b4","ios":"levelo://app?vid=77fb35d2-28de-4101-8dd2-278f833d51b4"},"vehicle_type_id":"4","last_reported":1743900867,"current_range_meters":13600,"station_id":"ce4bgv92rcd13ifvqcq0","pricing_plan_id":"cebpf4jnsgd1na2vs0mg"},{"bike_id":"7fd0635d-68ad-4ce6-a52b-daef56987b4b","system_id":"levelo_inurba_marseille","lat":43.30868,"lon":5.38589,"is_reserved":false,"is_disabled":false,"rental_uris":{"android":"levelo://app?vid=7fd0635d-68ad-4ce6-a52b-daef56987b4b","ios":"levelo://app?vid=7fd0635d-68ad-4ce6-a52b-daef56987b4b"},"vehicle_type_id":"4","last_reported":1743900867,"current_range_meters":13600,"station_id":"","pricing_plan_id":"cebpf4jnsgd1na2vs0mg"},{"bike_id":"b1ce8b7b-c4b8-4a00-be3c-16a99eebf500","system_id":"levelo_inurba_marseille","lat":43.2708,"lon":5.42287,"is_reserved":false,"is_disabled":false,"rental_uris":{"android":"levelo://app?vid=b1ce8b7b-c4b8-4a00-be3c-16a99eebf500","ios":"levelo://app?vid=b1ce8b7b-c4b8-4a00-be3c-16a99eebf500"},"vehicle_type_id":"4","last_reported":1743900867,"current_range_meters":13600,"station_id":"ce4bhk92rcd13ifvqgb0","pricing_plan_id":"cebpf4jnsgd1na2vs0mg"},{"bike_id":"c9bcb9ed-89fa-4f1d-bf29-12fb5d644696","system_id":"levelo_inurba_marseille","lat":43.28005,"lon":5.41655,"is_reserved":false,"is_disabled":false,"rental_uris":{"android":"levelo://app?vid=c9bcb9ed-89fa-4f1d-bf29-12fb5d644696","ios":"levelo://app?vid=c9bcb9ed-89fa-4f1d-bf29-12fb5d644696"},"vehicle_type_id":"4","last_reported":1743900867,"current_range_meters":14000,"station_id":"ce4bho12rcd13ifvqh1g","pricing_plan_id":"cebpf4jnsgd1na2vs0mg"},{"bike_id":"347b59a6-7fab-4bf0-a924-eac626981b6e","system_id":"levelo_inurba_marseille","lat":43.24185,"lon":5.39732,"is_reserved":false,"is_disabled":false,"rental_uris":{"android":"levelo://app?vid=347b59a6-7fab-4bf0-a924-eac626981b6e","ios":"levelo://app?vid=347b59a6-7fab-4bf0-a924-eac626981b6e"},"vehicle_type_id":"4","last_reported":1743900867,"current_range_meters":14000,"station_id":"ce4bhn12rcd13ifvqgpg","pricing_plan_id":"cebpf4jnsgd1na2vs0mg"},{"bike_id":"c3e6d442-6282-4c88-9f90-93d85aff9e76","system_id":"levelo_inurba_marseille","lat":43.28149,"lon":5.42634,"is_reserved":false,"is_disabled":false,"rental_uris":{"android":"levelo://app?vid=c3e6d442-6282-4c88-9f90-93d85aff9e76","ios":"levelo://app?vid=c3e6d442-6282-4c88-9f90-93d85aff9e76"},"vehicle_type_id":"4","last_reported":1743900867,"current_range_meters":14000,"station_id":"ce4bhnh2rcd13ifvqgug","pricing_plan_id":"cebpf4jnsgd1na2vs0mg"},{"bike_id":"4d7b5bba-54ec-4f46-b586-1bbcd8197903","system_id":"levelo_inurba_marseille","lat":43.2656,"lon":5.37296,"is_reserved":false,"is_disabled":false,"rental_uris":{"android":"levelo://app?vid=4d7b5bba-54ec-4f46-b586-1bbcd8197903","ios":"levelo://app?vid=4d7b5bba-54ec-4f46-b586-1bbcd8197903"},"vehicle_type_id":"4","last_reported":1743900867,"current_range_meters":14000,"station_id":"ce4bhg12rcd13ifvqf70","pricing_plan_id":"cebpf4jnsgd1na2vs0mg"},{"bike_id":"90eefabd-bdae-4624-872e-20a02839d612","system_id":"levelo_inurba_marseille","lat":43.30663,"lon":5.40025,"is_reserved":false,"is_disabled":false,"rental_uris":{"android":"levelo://app?vid=90eefabd-bdae-4624-872e-20a02839d612","ios":"levelo://app?vid=90eefabd-bdae-4624-872e-20a02839d612"},"vehicle_type_id":"4","last_reported":1743900867,"current_range_meters":14000,"station_id":"ce4bh112rcd13ifvqda0","pricing_plan_id":"cebpf4jnsgd1na2vs0mg"},{"bike_id":"bff1f6ae-49dc-4b51-83a2-55b35b74eafe","system_id":"levelo_inurba_marseille","lat":43.30896,"lon":5.39642,"is_reserved":false,"is_disabled":false,"rental_uris":{"android":"levelo://app?vid=bff1f6ae-49dc-4b51-83a2-55b35b74eafe","ios":"levelo://app?vid=bff1f6ae-49dc-4b51-83a2-55b35b74eafe"},"vehicle_type_id":"4","last_reported":1743900867,"current_range_meters":14400,"station_id":"ce4bh012rcd13ifvqcv0","pricing_plan_id":"cebpf4jnsgd1na2vs0mg"},{"bike_id":"7d2dde4f-5a6a-4005-a47e-231c9dacefe3","system_id":"levelo_inurba_marseille","lat":43.30799,"lon":5.4352,"is_reserved":false,"is_disabled":false,"rental_uris":{"android":"levelo://app?vid=7d2dde4f-5a6a-4005-a47e-231c9dacefe3","ios":"levelo://app?vid=7d2dde4f-5a6a-4005-a47e-231c9dacefe3"},"vehicle_type_id":"4","last_reported":1743900867,"current_range_meters":14400,"station_id":"ce4bhph2rcd13ifvqheg","pricing_plan_id":"cebpf4jnsgd1na2vs0mg"},{"bike_id":"0e4eff56-ae45-4e2c-accd-c526c0eb00c2","system_id":"levelo_inurba_marseille","lat":43.3081,"lon":5.38163,"is_reserved":false,"is_disabled":false,"rental_uris":{"android":"levelo://app?vid=0e4eff56-ae45-4e2c-accd-c526c0eb00c2","ios":"levelo://app?vid=0e4eff56-ae45-4e2c-accd-c526c0eb00c2"},"vehicle_type_id":"4","last_reported":1743900867,"current_range_meters":14400,"station_id":"ce4bgt12rcd13ifvqce0","pricing_plan_id":"cebpf4jnsgd1na2vs0mg"},{"bike_id":"7afda8a2-fa95-4781-be89-80b687076b94","system_id":"levelo_inurba_marseille","lat":43.33602,"lon":5.41006,"is_reserved":false,"is_disabled":false,"rental_uris":{"android":"levelo://app?vid=7afda8a2-fa95-4781-be89-80b687076b94","ios":"levelo://app?vid=7afda8a2-fa95-4781-be89-80b687076b94"},"vehicle_type_id":"4","last_reported":1743900867,"current_range_meters":14400,"station_id":"ce4bhqh2rcd13ifvqhmg","pricing_plan_id":"cebpf4jnsgd1na2vs0mg"},{"bike_id":"29f11379-58b8-4f95-8f1b-9fcbd186b65f","system_id":"levelo_inurba_marseille","lat":43.28706,"lon":5.39977,"is_reserved":false,"is_disabled":false,"rental_uris":{"android":"levelo://app?vid=29f11379-58b8-4f95-8f1b-9fcbd186b65f","ios":"levelo://app?vid=29f11379-58b8-4f95-8f1b-9fcbd186b65f"},"vehicle_type_id":"4","last_reported":1743900867,"current_range_meters":14400,"station_id":"ce4bho92rcd13ifvqh3g","pricing_plan_id":"cebpf4jnsgd1na2vs0mg"},{"bike_id":"a9205477-1e06-40c5-91b2-845a271a0b01","system_id":"levelo_inurba_marseille","lat":43.28722,"lon":5.36092,"is_reserved":false,"is_disabled":false,"rental_uris":{"android":"levelo://app?vid=a9205477-1e06-40c5-91b2-845a271a0b01","ios":"levelo://app?vid=a9205477-1e06-40c5-91b2-845a271a0b01"},"vehicle_type_id":"4","last_reported":1743900867,"current_range_meters":14400,"station_id":"cki0cbj6b192h4jlfktg","pricing_plan_id":"cebpf4jnsgd1na2vs0mg"},{"bike_id":"4c37ba17-dd09-40d8-a29c-6f932748c036","system_id":"levelo_inurba_marseille","lat":43.30269,"lon":5.40074,"is_reserved":false,"is_disabled":false,"rental_uris":{"android":"levelo://app?vid=4c37ba17-dd09-40d8-a29c-6f932748c036","ios":"levelo://app?vid=4c37ba17-dd09-40d8-a29c-6f932748c036"},"vehicle_type_id":"4","last_reported":1743900867,"current_range_meters":14400,"station_id":"ce4bgvh2rcd13ifvqcs0","pricing_plan_id":"cebpf4jnsgd1na2vs0mg"},{"bike_id":"f2a4a726-900d-43d4-8328-76c9d2f6012d","system_id":"levelo_inurba_marseille","lat":43.28993,"lon":5.35606,"is_reserved":false,"is_disabled":true,"rental_uris":{"android":"levelo://app?vid=f2a4a726-900d-43d4-8328-76c9d2f6012d","ios":"levelo://app?vid=f2a4a726-900d-43d4-8328-76c9d2f6012d"},"vehicle_type_id":"4","last_reported":1743900867,"current_range_meters":14400,"station_id":"ce4bhb92rcd13ifvqen0","pricing_plan_id":"cebpf4jnsgd1na2vs0mg"},{"bike_id":"f4c25770-9cc6-4667-819b-4c6cc6677927","system_id":"levelo_inurba_marseille","lat":43.2895,"lon":5.3638,"is_reserved":false,"is_disabled":false,"rental_uris":{"android":"levelo://app?vid=f4c25770-9cc6-4667-819b-4c6cc6677927","ios":"levelo://app?vid=f4c25770-9cc6-4667-819b-4c6cc6677927"},"vehicle_type_id":"4","last_reported":1743900867,"current_range_meters":14800,"station_id":"ce4bhc92rcd13ifvqetg","pricing_plan_id":"cebpf4jnsgd1na2vs0mg"},{"bike_id":"96d4e4c9-aa52-4d8f-a0fb-e0ace37d23e4","system_id":"levelo_inurba_marseille","lat":43.30312,"lon":5.36892,"is_reserved":false,"is_disabled":false,"rental_uris":{"android":"levelo://app?vid=96d4e4c9-aa52-4d8f-a0fb-e0ace37d23e4","ios":"levelo://app?vid=96d4e4c9-aa52-4d8f-a0fb-e0ace37d23e4"},"vehicle_type_id":"4","last_reported":1743900867,"current_range_meters":14800,"station_id":"ce4bgqh2rcd13ifvqc5g","pricing_plan_id":"cebpf4jnsgd1na2vs0mg"},{"bike_id":"9d9ecd7f-1e89-42e7-a812-6a77504eca65","system_id":"levelo_inurba_marseille","lat":43.26802,"lon":5.402657,"is_reserved":false,"is_disabled":false,"rental_uris":{"android":"levelo://app?vid=9d9ecd7f-1e89-42e7-a812-6a77504eca65","ios":"levelo://app?vid=9d9ecd7f-1e89-42e7-a812-6a77504eca65"},"vehicle_type_id":"4","last_reported":1743900867,"current_range_meters":14800,"station_id":"ce501612rcd8frsf0b60","pricing_plan_id":"cebpf4jnsgd1na2vs0mg"},{"bike_id":"3f9f60e9-46e5-408d-a83f-6ffb283e0d47","system_id":"levelo_inurba_marseille","lat":43.24181,"lon":5.39735,"is_reserved":false,"is_disabled":false,"rental_uris":{"android":"levelo://app?vid=3f9f60e9-46e5-408d-a83f-6ffb283e0d47","ios":"levelo://app?vid=3f9f60e9-46e5-408d-a83f-6ffb283e0d47"},"vehicle_type_id":"4","last_reported":1743900867,"current_range_meters":14800,"station_id":"ce4bhn12rcd13ifvqgpg","pricing_plan_id":"cebpf4jnsgd1na2vs0mg"},{"bike_id":"1ae7beda-2129-429f-8a9e-081a31a5273d","system_id":"levelo_inurba_marseille","lat":43.30797,"lon":5.38181,"is_reserved":false,"is_disabled":false,"rental_uris":{"android":"levelo://app?vid=1ae7beda-2129-429f-8a9e-081a31a5273d","ios":"levelo://app?vid=1ae7beda-2129-429f-8a9e-081a31a5273d"},"vehicle_type_id":"4","last_reported":1743900867,"current_range_meters":14800,"station_id":"","pricing_plan_id":"cebpf4jnsgd1na2vs0mg"},{"bike_id":"475be72a-4446-4444-800d-db0d330a0dc6","system_id":"levelo_inurba_marseille","lat":43.2757,"lon":5.38417,"is_reserved":false,"is_disabled":false,"rental_uris":{"android":"levelo://app?vid=475be72a-4446-4444-800d-db0d330a0dc6","ios":"levelo://app?vid=475be72a-4446-4444-800d-db0d330a0dc6"},"vehicle_type_id":"4","last_reported":1743900867,"current_range_meters":14800,"station_id":"ce4bhh92rcd13ifvqfi0","pricing_plan_id":"cebpf4jnsgd1na2vs0mg"},{"bike_id":"a6064373-4863-4de1-99db-ff063ca1121f","system_id":"levelo_inurba_marseille","lat":43.275604,"lon":5.384181,"is_reserved":false,"is_disabled":false,"rental_uris":{"android":"levelo://app?vid=a6064373-4863-4de1-99db-ff063ca1121f","ios":"levelo://app?vid=a6064373-4863-4de1-99db-ff063ca1121f"},"vehicle_type_id":"4","last_reported":1743900867,"current_range_meters":14800,"station_id":"ce4bhh92rcd13ifvqfi0","pricing_plan_id":"cebpf4jnsgd1na2vs0mg"},{"bike_id":"fda449e2-5ae5-47f8-bc2d-ff12dd44c5cf","system_id":"levelo_inurba_marseille","lat":43.3078,"lon":5.37655,"is_reserved":false,"is_disabled":false,"rental_uris":{"android":"levelo://app?vid=fda449e2-5ae5-47f8-bc2d-ff12dd44c5cf","ios":"levelo://app?vid=fda449e2-5ae5-47f8-bc2d-ff12dd44c5cf"},"vehicle_type_id":"4","last_reported":1743900867,"current_range_meters":15200,"station_id":"ce4bgv92rcd13ifvqcq0","pricing_plan_id":"cebpf4jnsgd1na2vs0mg"},{"bike_id":"4086da61-2e3a-46c3-96ef-3ba142d24b47","system_id":"levelo_inurba_marseille","lat":43.27807,"lon":5.40712,"is_reserved":false,"is_disabled":false,"rental_uris":{"android":"levelo://app?vid=4086da61-2e3a-46c3-96ef-3ba142d24b47","ios":"levelo://app?vid=4086da61-2e3a-46c3-96ef-3ba142d24b47"},"vehicle_type_id":"4","last_reported":1743900867,"current_range_meters":15200,"station_id":"ce4bhnh2rcd13ifvqgtg","pricing_plan_id":"cebpf4jnsgd1na2vs0mg"},{"bike_id":"6ee85d75-9576-48a6-9ea1-92da0dac2d73","system_id":"levelo_inurba_marseille","lat":43.30799,"lon":5.4353,"is_reserved":false,"is_disabled":false,"rental_uris":{"android":"levelo://app?vid=6ee85d75-9576-48a6-9ea1-92da0dac2d73","ios":"levelo://app?vid=6ee85d75-9576-48a6-9ea1-92da0dac2d73"},"vehicle_type_id":"4","last_reported":1743900867,"current_range_meters":15200,"station_id":"ce4bhph2rcd13ifvqheg","pricing_plan_id":"cebpf4jnsgd1na2vs0mg"},{"bike_id":"a409c3f0-8991-4228-afb5-57b19bb06658","system_id":"levelo_inurba_marseille","lat":43.32401,"lon":5.38997,"is_reserved":false,"is_disabled":false,"rental_uris":{"android":"levelo://app?vid=a409c3f0-8991-4228-afb5-57b19bb06658","ios":"levelo://app?vid=a409c3f0-8991-4228-afb5-57b19bb06658"},"vehicle_type_id":"4","last_reported":1743900867,"current_range_meters":15200,"station_id":"","pricing_plan_id":"cebpf4jnsgd1na2vs0mg"},{"bike_id":"c2c27c97-cdb9-4118-84ef-b2dc6e9357e6","system_id":"levelo_inurba_marseille","lat":43.306085,"lon":5.371629,"is_reserved":false,"is_disabled":false,"rental_uris":{"android":"levelo://app?vid=c2c27c97-cdb9-4118-84ef-b2dc6e9357e6","ios":"levelo://app?vid=c2c27c97-cdb9-4118-84ef-b2dc6e9357e6"},"vehicle_type_id":"4","last_reported":1743900867,"current_range_meters":15200,"station_id":"","pricing_plan_id":"cebpf4jnsgd1na2vs0mg"},{"bike_id":"8de0b3a1-1e13-479a-bd25-c51924997b77","system_id":"levelo_inurba_marseille","lat":43.2321,"lon":5.40009,"is_reserved":false,"is_disabled":false,"rental_uris":{"android":"levelo://app?vid=8de0b3a1-1e13-479a-bd25-c51924997b77","ios":"levelo://app?vid=8de0b3a1-1e13-479a-bd25-c51924997b77"},"vehicle_type_id":"4","last_reported":1743900867,"current_range_meters":15200,"station_id":"ce4bhn12rcd13ifvqgqg","pricing_plan_id":"cebpf4jnsgd1na2vs0mg"},{"bike_id":"f7e3b8fa-9062-4469-bcee-58c5aa5cfb6e","system_id":"levelo_inurba_marseille","lat":43.2955,"lon":5.38531,"is_reserved":false,"is_disabled":true,"rental_uris":{"android":"levelo://app?vid=f7e3b8fa-9062-4469-bcee-58c5aa5cfb6e","ios":"levelo://app?vid=f7e3b8fa-9062-4469-bcee-58c5aa5cfb6e"},"vehicle_type_id":"4","last_reported":1743900867,"current_range_meters":15200,"station_id":"ce4bgih2rcd13ifvqba0","pricing_plan_id":"cebpf4jnsgd1na2vs0mg"},{"bike_id":"0787e976-b031-4ee4-ab9b-38dc341c39e3","system_id":"levelo_inurba_marseille","lat":43.308819,"lon":5.396409,"is_reserved":false,"is_disabled":false,"rental_uris":{"android":"levelo://app?vid=0787e976-b031-4ee4-ab9b-38dc341c39e3","ios":"levelo://app?vid=0787e976-b031-4ee4-ab9b-38dc341c39e3"},"vehicle_type_id":"4","last_reported":1743900867,"current_range_meters":15200,"station_id":"ce4bh012rcd13ifvqcv0","pricing_plan_id":"cebpf4jnsgd1na2vs0mg"},{"bike_id":"e332aab8-1fe3-40e9-8086-1f7d5ff35118","system_id":"levelo_inurba_marseille","lat":43.331703,"lon":5.38174,"is_reserved":false,"is_disabled":false,"rental_uris":{"android":"levelo://app?vid=e332aab8-1fe3-40e9-8086-1f7d5ff35118","ios":"levelo://app?vid=e332aab8-1fe3-40e9-8086-1f7d5ff35118"},"vehicle_type_id":"4","last_reported":1743900867,"current_range_meters":16000,"station_id":"","pricing_plan_id":"cebpf4jnsgd1na2vs0mg"},{"bike_id":"8a38320c-a733-4cf5-8c8e-152497fe8f8f","system_id":"levelo_inurba_marseille","lat":43.281584,"lon":5.426339,"is_reserved":false,"is_disabled":false,"rental_uris":{"android":"levelo://app?vid=8a38320c-a733-4cf5-8c8e-152497fe8f8f","ios":"levelo://app?vid=8a38320c-a733-4cf5-8c8e-152497fe8f8f"},"vehicle_type_id":"4","last_reported":1743900867,"current_range_meters":16000,"station_id":"ce4bhnh2rcd13ifvqgug","pricing_plan_id":"cebpf4jnsgd1na2vs0mg"},{"bike_id":"428002cd-714e-4f16-889f-7ab5216addc2","system_id":"levelo_inurba_marseille","lat":43.27908,"lon":5.39604,"is_reserved":false,"is_disabled":false,"rental_uris":{"android":"levelo://app?vid=428002cd-714e-4f16-889f-7ab5216addc2","ios":"levelo://app?vid=428002cd-714e-4f16-889f-7ab5216addc2"},"vehicle_type_id":"4","last_reported":1743900867,"current_range_meters":16000,"station_id":"ce4bhf92rcd13ifvqf40","pricing_plan_id":"cebpf4jnsgd1na2vs0mg"},{"bike_id":"40a621c0-90fc-49e7-b4b6-60f8184e982f","system_id":"levelo_inurba_marseille","lat":43.32289,"lon":5.3828,"is_reserved":false,"is_disabled":false,"rental_uris":{"android":"levelo://app?vid=40a621c0-90fc-49e7-b4b6-60f8184e982f","ios":"levelo://app?vid=40a621c0-90fc-49e7-b4b6-60f8184e982f"},"vehicle_type_id":"4","last_reported":1743900867,"current_range_meters":16000,"station_id":"ce4bhr12rcd13ifvqhqg","pricing_plan_id":"cebpf4jnsgd1na2vs0mg"},{"bike_id":"37e477ca-64a8-4e1c-a30c-15861ae4ef83","system_id":"levelo_inurba_marseille","lat":43.23195,"lon":5.35551,"is_reserved":false,"is_disabled":false,"rental_uris":{"android":"levelo://app?vid=37e477ca-64a8-4e1c-a30c-15861ae4ef83","ios":"levelo://app?vid=37e477ca-64a8-4e1c-a30c-15861ae4ef83"},"vehicle_type_id":"4","last_reported":1743900867,"current_range_meters":16000,"station_id":"ce4bhu92rcd13ifvqi70","pricing_plan_id":"cebpf4jnsgd1na2vs0mg"},{"bike_id":"0eb63064-fdac-46db-8828-83c6999ff221","system_id":"levelo_inurba_marseille","lat":43.28654,"lon":5.38536,"is_reserved":false,"is_disabled":false,"rental_uris":{"android":"levelo://app?vid=0eb63064-fdac-46db-8828-83c6999ff221","ios":"levelo://app?vid=0eb63064-fdac-46db-8828-83c6999ff221"},"vehicle_type_id":"4","last_reported":1743900867,"current_range_meters":16000,"station_id":"","pricing_plan_id":"cebpf4jnsgd1na2vs0mg"},{"bike_id":"63e1d95c-79be-4b82-a868-e312bf827ceb","system_id":"levelo_inurba_marseille","lat":43.2904,"lon":5.38666,"is_reserved":false,"is_disabled":true,"rental_uris":{"android":"levelo://app?vid=63e1d95c-79be-4b82-a868-e312bf827ceb","ios":"levelo://app?vid=63e1d95c-79be-4b82-a868-e312bf827ceb"},"vehicle_type_id":"4","last_reported":1743900867,"current_range_meters":16000,"station_id":"ce4bh4p2rcd13ifvqe0g","pricing_plan_id":"cebpf4jnsgd1na2vs0mg"},{"bike_id":"28b08876-aa27-4b49-aa26-386ac99a9990","system_id":"levelo_inurba_marseille","lat":43.27948,"lon":5.410409,"is_reserved":false,"is_disabled":false,"rental_uris":{"android":"levelo://app?vid=28b08876-aa27-4b49-aa26-386ac99a9990","ios":"levelo://app?vid=28b08876-aa27-4b49-aa26-386ac99a9990"},"vehicle_type_id":"4","last_reported":1743900867,"current_range_meters":16000,"station_id":"ce4bhnp2rcd13ifvqh0g","pricing_plan_id":"cebpf4jnsgd1na2vs0mg"},{"bike_id":"ce20ece9-fd7c-4e76-9da2-20464a57b067","system_id":"levelo_inurba_marseille","lat":43.287109,"lon":5.399829,"is_reserved":false,"is_disabled":false,"rental_uris":{"android":"levelo://app?vid=ce20ece9-fd7c-4e76-9da2-20464a57b067","ios":"levelo://app?vid=ce20ece9-fd7c-4e76-9da2-20464a57b067"},"vehicle_type_id":"4","last_reported":1743900867,"current_range_meters":16000,"station_id":"ce4bho92rcd13ifvqh3g","pricing_plan_id":"cebpf4jnsgd1na2vs0mg"},{"bike_id":"a8d196c6-d67e-49ab-bc9d-bbe18ac2fd33","system_id":"levelo_inurba_marseille","lat":43.30419,"lon":5.41275,"is_reserved":false,"is_disabled":false,"rental_uris":{"android":"levelo://app?vid=a8d196c6-d67e-49ab-bc9d-bbe18ac2fd33","ios":"levelo://app?vid=a8d196c6-d67e-49ab-bc9d-bbe18ac2fd33"},"vehicle_type_id":"4","last_reported":1743900867,"current_range_meters":16000,"station_id":"ce4bhop2rcd13ifvqh8g","pricing_plan_id":"cebpf4jnsgd1na2vs0mg"},{"bike_id":"74157f86-074d-454c-9a36-ea55e1110ec5","system_id":"levelo_inurba_marseille","lat":43.2605,"lon":5.39388,"is_reserved":false,"is_disabled":false,"rental_uris":{"android":"levelo://app?vid=74157f86-074d-454c-9a36-ea55e1110ec5","ios":"levelo://app?vid=74157f86-074d-454c-9a36-ea55e1110ec5"},"vehicle_type_id":"4","last_reported":1743900867,"current_range_meters":16000,"station_id":"ce4bhh92rcd13ifvqfj0","pricing_plan_id":"cebpf4jnsgd1na2vs0mg"},{"bike_id":"fefe83d6-22ae-4bdc-9846-80fca8c3f8b6","system_id":"levelo_inurba_marseille","lat":43.26227,"lon":5.40464,"is_reserved":false,"is_disabled":false,"rental_uris":{"android":"levelo://app?vid=fefe83d6-22ae-4bdc-9846-80fca8c3f8b6","ios":"levelo://app?vid=fefe83d6-22ae-4bdc-9846-80fca8c3f8b6"},"vehicle_type_id":"4","last_reported":1743900867,"current_range_meters":16000,"station_id":"ce4bhmh2rcd13ifvqgmg","pricing_plan_id":"cebpf4jnsgd1na2vs0mg"},{"bike_id":"d6c3d7f4-760c-422c-8667-25e15a7934b3","system_id":"levelo_inurba_marseille","lat":43.30802,"lon":5.37467,"is_reserved":false,"is_disabled":false,"rental_uris":{"android":"levelo://app?vid=d6c3d7f4-760c-422c-8667-25e15a7934b3","ios":"levelo://app?vid=d6c3d7f4-760c-422c-8667-25e15a7934b3"},"vehicle_type_id":"4","last_reported":1743900867,"current_range_meters":16400,"station_id":"","pricing_plan_id":"cebpf4jnsgd1na2vs0mg"},{"bike_id":"873b9cb9-411d-441c-81fa-204f209e04e7","system_id":"levelo_inurba_marseille","lat":43.308446,"lon":5.373885,"is_reserved":false,"is_disabled":false,"rental_uris":{"android":"levelo://app?vid=873b9cb9-411d-441c-81fa-204f209e04e7","ios":"levelo://app?vid=873b9cb9-411d-441c-81fa-204f209e04e7"},"vehicle_type_id":"4","last_reported":1743900867,"current_range_meters":16400,"station_id":"","pricing_plan_id":"cebpf4jnsgd1na2vs0mg"},{"bike_id":"8c2a7989-7558-4fed-bf99-3812f8d03874","system_id":"levelo_inurba_marseille","lat":43.28108,"lon":5.37838,"is_reserved":false,"is_disabled":false,"rental_uris":{"android":"levelo://app?vid=8c2a7989-7558-4fed-bf99-3812f8d03874","ios":"levelo://app?vid=8c2a7989-7558-4fed-bf99-3812f8d03874"},"vehicle_type_id":"4","last_reported":1743900867,"current_range_meters":16400,"station_id":"ce4bha12rcd13ifvqee0","pricing_plan_id":"cebpf4jnsgd1na2vs0mg"},