{"last_updated":1732187292,"ttl":60,"version":"2.2","data":{"bikes":[{"bike_id":"156320ae-cdf1-448d-a5dd-5f82d48b8bf7","system_id":"levelo_inurba_marseille","lat":43.28622,"lon":5.35102,"is_reserved":false,"is_disabled":false,"rental_uris":{"android":"levelo://app?vid=156320ae-cdf1-448d-a5dd-5f82d48b8bf7","ios":"levelo://app?vid=156320ae-cdf1-448d-a5dd-5f82d48b8bf7"},"vehicle_type_id":"4","last_reported":1732187292,"current_range_meters":36800,"station_id":"ce4bhch2rcd13ifvqeug","pricing_plan_id":"cebpf4jnsgd1na2vs0mg"},{"bike_id":"fa3b4529-ac0b-456b-acfc-4e5f8fd0d89d","system_id":"levelo_inurba_marseille","lat":43.26681,"lon":5.38272,"is_reserved":false,"is_disabled":false,"rental_uris":{"android":"levelo://app?vid=fa3b4529-ac0b-456b-acfc-4e5f8fd0d89d","ios":"levelo://app?vid=fa3b4529-ac0b-456b-acfc-4e5f8fd0d89d"},"vehicle_type_id":"4","last_reported":1732187292,"current_range_meters":39200,"station_id":"ce4bhg92rcd13ifvqf90","pricing_plan_id":"cebpf4jnsgd1na2vs0mg"},{"bike_id":"3d4f4541-0ce5-44c4-b89f-9a920af4dfeb","system_id":"levelo_inurba_marseille","lat":43.27319,"lon":5.39084,"is_reserved":false,"is_disabled":true,"rental_uris":{"android":"levelo://app?vid=3d4f4541-0ce5-44c4-b89f-9a920af4dfeb","ios":"levelo://app?vid=3d4f4541-0ce5-44c4-b89f-9a920af4dfeb"},"vehicle_type_id":"4","last_reported":1732187292,"current_range_meters":26000,"station_id":"ce4bhgp2rcd13ifvqfe0","pricing_plan_id":"cebpf4jnsgd1na2vs0mg"},{"bike_id":"d2581040-8772-4d35-a569-af5f240334a7","system_id":"levelo_inurba_marseille","lat":43.26943,"lon":5.40242,"is_reserved":false,"is_disabled":true,"rental_uris":{"android":"levelo://app?vid=d2581040-8772-4d35-a569-af5f240334a7","ios":"levelo://app?vid=d2581040-8772-4d35-a569-af5f240334a7"},"vehicle_type_id":"4","last_reported":1732187292,"current_range_meters":10000,"station_id":"cjm6bp8fraef2m0cb0m0","pricing_plan_id":"cebpf4jnsgd1na2vs0mg"},{"bike_id":"c00b4f6c-6c4f-4961-9e81-4dd1a492f0b2","system_id":"levelo_inurba_marseille","lat":43.30136,"lon":5.38769,"is_reserved":false,"is_disabled":false,"rental_uris":{"android":"levelo://app?vid=c00b4f6c-6c4f-4961-9e81-4dd1a492f0b2","ios":"levelo://app?vid=c00b4f6c-6c4f-4961-9e81-4dd1a492f0b2"},"vehicle_type_id":"4","last_reported":1732187292,"current_range_meters":22800,"station_id":"ce4bghh2rcd13ifvqb60","pricing_plan_id":"cebpf4jnsgd1na2vs0mg"},{"bike_id":"be97b7ff-a776-4abb-98b4-c9cc68de032d","system_id":"levelo_inurba_marseille","lat":43.28152,"lon":5.42644,"is_reserved":false,"is_disabled":false,"rental_uris":{"android":"levelo://app?vid=be97b7ff-a776-4abb-98b4-c9cc68de032d","ios":"levelo://app?vid=be97b7ff-a776-4abb-98b4-c9cc68de032d"},"vehicle_type_id":"4","last_reported":1732187292,"current_range_meters":30400,"station_id":"ce4bhnh2rcd13ifvqgug","pricing_plan_id":"cebpf4jnsgd1na2vs0mg"},{"bike_id":"8e6a3078-d201-4b7f-83a6-596972387b0b","system_id":"levelo_inurba_marseille","lat":43.26949,"lon":5.38637,"is_reserved":false,"is_disabled":false,"rental_uris":{"android":"levelo://app?vid=8e6a3078-d201-4b7f-83a6-596972387b0b","ios":"levelo://app?vid=8e6a3078-d201-4b7f-83a6-596972387b0b"},"vehicle_type_id":"4","last_reported":1732187292,"current_range_meters":38800,"station_id":"ce4bhh92rcd13ifvqfh0","pricing_plan_id":"cebpf4jnsgd1na2vs0mg"},{"bike_id":"1f203897-1164-43c5-8a36-2a35df13aaf6","system_id":"levelo_inurba_marseille","lat":43.2315,"lon":5.43709,"is_reserved":false,"is_disabled":true,"rental_uris":{"android":"levelo://app?vid=1f203897-1164-43c5-8a36-2a35df13aaf6","ios":"levelo://app?vid=1f203897-1164-43c5-8a36-2a35df13aaf6"},"vehicle_type_id":"4","last_reported":1732187292,"current_range_meters":36400,"station_id":"ce4bhmp2rcd13ifvqgog","pricing_plan_id":"cebpf4jnsgd1na2vs0mg"},{"bike_id":"4be3997b-0298-4a92-a78f-ce2230a4e3ad","system_id":"levelo_inurba_marseille","lat":43.29895,"lon":5.38131,"is_reserved":false,"is_disabled":true,"rental_uris":{"android":"levelo://app?vid=4be3997b-0298-4a92-a78f-ce2230a4e3ad","ios":"levelo://app?vid=4be3997b-0298-4a92-a78f-ce2230a4e3ad"},"vehicle_type_id":"4","last_reported":1732187292,"current_range_meters":33200,"station_id":"ce4bgj12rcd13ifvqbc0","pricing_plan_id":"cebpf4jnsgd1na2vs0mg"},{"bike_id":"b0f66ea2-78e1-4119-b62a-f387f6956061","system_id":"levelo_inurba_marseille","lat":43.337444,"lon":5.374475,"is_reserved":false,"is_disabled":false,"rental_uris":{"android":"levelo://app?vid=b0f66ea2-78e1-4119-b62a-f387f6956061","ios":"levelo://app?vid=b0f66ea2-78e1-4119-b62a-f387f6956061"},"vehicle_type_id":"4","last_reported":1732187292,"current_range_meters":36400,"station_id":"","pricing_plan_id":"cebpf4jnsgd1na2vs0mg"},{"bike_id":"4633b1c2-ce30-49c6-98e5-95d4bb70140f","system_id":"levelo_inurba_marseille","lat":43.31347,"lon":5.36719,"is_reserved":false,"is_disabled":false,"rental_uris":{"android":"levelo://app?vid=4633b1c2-ce30-49c6-98e5-95d4bb70140f","ios":"levelo://app?vid=4633b1c2-ce30-49c6-98e5-95d4bb70140f"},"vehicle_type_id":"4","last_reported":1732187292,"current_range_meters":26800,"station_id":"ce4bgr92rcd13ifvqc6g","pricing_plan_id":"cebpf4jnsgd1na2vs0mg"},{"bike_id":"e642ccdb-cb84-421c-a18f-c3de34e58923","system_id":"levelo_inurba_marseille","lat":43.29781,"lon":5.38117,"is_reserved":false,"is_disabled":true,"rental_uris":{"android":"levelo://app?vid=e642ccdb-cb84-421c-a18f-c3de34e58923","ios":"levelo://app?vid=e642ccdb-cb84-421c-a18f-c3de34e58923"},"vehicle_type_id":"4","last_reported":1732187292,"current_range_meters":19600,"station_id":"ce4bgip2rcd13ifvqbb0","pricing_plan_id":"cebpf4jnsgd1na2vs0mg"},{"bike_id":"13ff1b66-47ef-4e1a-9d3c-07330c379e40","system_id":"levelo_inurba_marseille","lat":43.29615,"lon":5.37157,"is_reserved":false,"is_disabled":false,"rental_uris":{"android":"levelo://app?vid=13ff1b66-47ef-4e1a-9d3c-07330c379e40","ios":"levelo://app?vid=13ff1b66-47ef-4e1a-9d3c-07330c379e40"},"vehicle_type_id":"4","last_reported":1732187292,"current_range_meters":15200,"station_id":"ce4bgnh2rcd13ifvqc0g","pricing_plan_id":"cebpf4jnsgd1na2vs0mg"},{"bike_id":"5996db57-59a4-4fac-a07b-fe6f610f8f44","system_id":"levelo_inurba_marseille","lat":43.30136,"lon":5.38774,"is_reserved":false,"is_disabled":true,"rental_uris":{"android":"levelo://app?vid=5996db57-59a4-4fac-a07b-fe6f610f8f44","ios":"levelo://app?vid=5996db57-59a4-4fac-a07b-fe6f610f8f44"},"vehicle_type_id":"4","last_reported":1732187292,"current_range_meters":34800,"station_id":"ce4bghh2rcd13ifvqb60","pricing_plan_id":"cebpf4jnsgd1na2vs0mg"},{"bike_id":"b8de1e79-708a-4bf7-9b34-32ea533da143","system_id":"levelo_inurba_marseille","lat":43.29266,"lon":5.38442,"is_reserved":false,"is_disabled":false,"rental_uris":{"android":"levelo://app?vid=b8de1e79-708a-4bf7-9b34-32ea533da143","ios":"levelo://app?vid=b8de1e79-708a-4bf7-9b34-32ea533da143"},"vehicle_type_id":"4","last_reported":1732187292,"current_range_meters":22400,"station_id":"ce4bh692rcd13ifvqea0","pricing_plan_id":"cebpf4jnsgd1na2vs0mg"},{"bike_id":"35a8628f-fb93-4db6-94c8-fa1706ae2626","system_id":"levelo_inurba_marseille","lat":43.30416,"lon":5.4128,"is_reserved":false,"is_disabled":false,"rental_uris":{"android":"levelo://app?vid=35a8628f-fb93-4db6-94c8-fa1706ae2626","ios":"levelo://app?vid=35a8628f-fb93-4db6-94c8-fa1706ae2626"},"vehicle_type_id":"4","last_reported":1732187292,"current_range_meters":32800,"station_id":"ce4bhop2rcd13ifvqh8g","pricing_plan_id":"cebpf4jnsgd1na2vs0mg"},{"bike_id":"aaa68104-60d6-454b-9438-4e38b46ffb6c","system_id":"levelo_inurba_marseille","lat":43.3081,"lon":5.37057,"is_reserved":false,"is_disabled":false,"rental_uris":{"android":"levelo://app?vid=aaa68104-60d6-454b-9438-4e38b46ffb6c","ios":"levelo://app?vid=aaa68104-60d6-454b-9438-4e38b46ffb6c"},"vehicle_type_id":"4","last_reported":1732187292,"current_range_meters":17200,"station_id":"","pricing_plan_id":"cebpf4jnsgd1na2vs0mg"},{"bike_id":"d2321b4c-ae3a-4b43-8bcd-12cb7984481d","system_id":"levelo_inurba_marseille","lat":43.30752,"lon":5.37013,"is_reserved":false,"is_disabled":true,"rental_uris":{"android":"levelo://app?vid=d2321b4c-ae3a-4b43-8bcd-12cb7984481d","ios":"levelo://app?vid=d2321b4c-ae3a-4b43-8bcd-12cb7984481d"},"vehicle_type_id":"4","last_reported":1732187292,"current_range_meters":24000,"station_id":"","pricing_plan_id":"cebpf4jnsgd1na2vs0mg"},{"bike_id":"3e5537ef-4855-46e9-9f2b-209fa5863cc4","system_id":"levelo_inurba_marseille","lat":43.30183,"lon":5.36598,"is_reserved":false,"is_disabled":false,"rental_uris":{"android":"levelo://app?vid=3e5537ef-4855-46e9-9f2b-209fa5863cc4","ios":"levelo://app?vid=3e5537ef-4855-46e9-9f2b-209fa5863cc4"},"vehicle_type_id":"4","last_reported":1732187292,"current_range_meters":22800,"station_id":"ce4bgrh2rcd13ifvqc8g","pricing_plan_id":"cebpf4jnsgd1na2vs0mg"},{"bike_id":"ed37508a-b0e4-437f-9a04-e25844b72733","system_id":"levelo_inurba_marseille","lat":43.25857,"lon":5.39904,"is_reserved":false,"is_disabled":true,"rental_uris":{"android":"levelo://app?vid=ed37508a-b0e4-437f-9a04-e25844b72733","ios":"levelo://app?vid=ed37508a-b0e4-437f-9a04-e25844b72733"},"vehicle_type_id":"4","last_reported":1732187292,"current_range_meters":8000,"station_id":"ce4bhl92rcd13ifvqghg","pricing_plan_id":"cebpf4jnsgd1na2vs0mg"},{"bike_id":"a01317b5-7a7e-497a-9b85-248058728779","system_id":"levelo_inurba_marseille","lat":43.29567,"lon":5.37515,"is_reserved":false,"is_disabled":false,"rental_uris":{"android":"levelo://app?vid=a01317b5-7a7e-497a-9b85-248058728779","ios":"levelo://app?vid=a01317b5-7a7e-497a-9b85-248058728779"},"vehicle_type_id":"4","last_reported":1732187292,"current_range_meters":39200,"station_id":"ce4bgh92rcd13ifvqb50","pricing_plan_id":"cebpf4jnsgd1na2vs0mg"},{"bike_id":"ff096b2b-2949-453d-974b-e7c91d9e83b6","system_id":"levelo_inurba_marseille","lat":43.29305,"lon":5.3717,"is_reserved":false,"is_disabled":false,"rental_uris":{"android":"levelo://app?vid=ff096b2b-2949-453d-974b-e7c91d9e83b6","ios":"levelo://app?vid=ff096b2b-2949-453d-974b-e7c91d9e83b6"},"vehicle_type_id":"4","last_reported":1732187292,"current_range_meters":38800,"station_id":"ce4bgh92rcd13ifvqb40","pricing_plan_id":"cebpf4jnsgd1na2vs0mg"},{"bike_id":"5c3000a0-a190-4007-a723-aa2707fd1ce3","system_id":"levelo_inurba_marseille","lat":43.22936,"lon":5.35367,"is_reserved":false,"is_disabled":false,"rental_uris":{"android":"levelo://app?vid=5c3000a0-a190-4007-a723-aa2707fd1ce3","ios":"levelo://app?vid=5c3000a0-a190-4007-a723-aa2707fd1ce3"},"vehicle_type_id":"4","last_reported":1732187292,"current_range_meters":38800,"station_id":"cpo3532slgdg3j2ikp40","pricing_plan_id":"cebpf4jnsgd1na2vs0mg"},{"bike_id":"749dcff2-f3db-46db-bd3a-aabc18114a16","system_id":"levelo_inurba_marseille","lat":43.31211,"lon":5.36862,"is_reserved":false,"is_disabled":false,"rental_uris":{"android":"levelo://app?vid=749dcff2-f3db-46db-bd3a-aabc18114a16","ios":"levelo://app?vid=749dcff2-f3db-46db-bd3a-aabc18114a16"},"vehicle_type_id":"4","last_reported":1732187292,"current_range_meters":38800,"station_id":"ce4bgl92rcd13ifvqbq0","pricing_plan_id":"cebpf4jnsgd1na2vs0mg"},{"bike_id":"46c49dce-98b7-428a-b21a-8ef877502ee0","system_id":"levelo_inurba_marseille","lat":43.29569,"lon":5.37501,"is_reserved":false,"is_disabled":false,"rental_uris":{"android":"levelo://app?vid=46c49dce-98b7-428a-b21a-8ef877502ee0","ios":"levelo://app?vid=46c49dce-98b7-428a-b21a-8ef877502ee0"},"vehicle_type_id":"4","last_reported":1732187292,"current_range_meters":12000,"station_id":"ce4bgh92rcd13ifvqb50","pricing_plan_id":"cebpf4jnsgd1na2vs0mg"},{"bike_id":"87c97a4c-6681-4bda-bede-ddb33d07fffc","system_id":"levelo_inurba_marseille","lat":43.30181,"lon":5.36606,"is_reserved":false,"is_disabled":false,"rental_uris":{"android":"levelo://app?vid=87c97a4c-6681-4bda-bede-ddb33d07fffc","ios":"levelo://app?vid=87c97a4c-6681-4bda-bede-ddb33d07fffc"},"vehicle_type_id":"4","last_reported":1732187292,"current_range_meters":27600,"station_id":"ce4bgrh2rcd13ifvqc8g","pricing_plan_id":"cebpf4jnsgd1na2vs0mg"},{"bike_id":"e3f992ed-ce5d-426e-8686-094b80b146c3","system_id":"levelo_inurba_marseille","lat":43.25107,"lon":5.40323,"is_reserved":false,"is_disabled":true,"rental_uris":{"android":"levelo://app?vid=e3f992ed-ce5d-426e-8686-094b80b146c3","ios":"levelo://app?vid=e3f992ed-ce5d-426e-8686-094b80b146c3"},"vehicle_type_id":"4","last_reported":1732187292,"current_range_meters":0,"station_id":"ce4bhlh2rcd13ifvqgig","pricing_plan_id":"cebpf4jnsgd1na2vs0mg"},{"bike_id":"771a590e-af65-48d4-813a-c5e1d4911c8c","system_id":"levelo_inurba_marseille","lat":43.24074,"lon":5.37737,"is_reserved":false,"is_disabled":false,"rental_uris":{"android":"levelo://app?vid=771a590e-af65-48d4-813a-c5e1d4911c8c","ios":"levelo://app?vid=771a590e-af65-48d4-813a-c5e1d4911c8c"},"vehicle_type_id":"4","last_reported":1732187292,"current_range_meters":26000,"station_id":"ce4bhnp2rcd13ifvqgvg","pricing_plan_id":"cebpf4jnsgd1na2vs0mg"},{"bike_id":"62d0ee86-5b1c-494d-b80a-0c29643d8236","system_id":"levelo_inurba_marseille","lat":43.2984,"lon":5.36264,"is_reserved":false,"is_disabled":false,"rental_uris":{"android":"levelo://app?vid=62d0ee86-5b1c-494d-b80a-0c29643d8236","ios":"levelo://app?vid=62d0ee86-5b1c-494d-b80a-0c29643d8236"},"vehicle_type_id":"4","last_reported":1732187292,"current_range_meters":38800,"station_id":"ce4bgpp2rcd13ifvqc3g","pricing_plan_id":"cebpf4jnsgd1na2vs0mg"},{"bike_id":"895dae95-9dde-4a45-9252-bfb2ffb1ef60","system_id":"levelo_inurba_marseille","lat":43.29841,"lon":5.36266,"is_reserved":false,"is_disabled":false,"rental_uris":{"android":"levelo://app?vid=895dae95-9dde-4a45-9252-bfb2ffb1ef60","ios":"levelo://app?vid=895dae95-9dde-4a45-9252-bfb2ffb1ef60"},"vehicle_type_id":"4","last_reported":1732187292,"current_range_meters":39200,"station_id":"ce4bgpp2rcd13ifvqc3g","pricing_plan_id":"cebpf4jnsgd1na2vs0mg"},{"bike_id":"0537b288-f6d5-4a4a-b5a0-fbb6f073f2c1","system_id":"levelo_inurba_marseille","lat":43.30529,"lon":5.36542,"is_reserved":false,"is_disabled":false,"rental_uris":{"android":"levelo://app?vid=0537b288-f6d5-4a4a-b5a0-fbb6f073f2c1","ios":"levelo://app?vid=0537b288-f6d5-4a4a-b5a0-fbb6f073f2c1"},"vehicle_type_id":"4","last_reported":1732187292,"current_range_meters":39200,"station_id":"ce4bgs12rcd13ifvqcag","pricing_plan_id":"cebpf4jnsgd1na2vs0mg"},{"bike_id":"f1a5529f-d308-4bb7-8ccd-2d79295e5b55","system_id":"levelo_inurba_marseille","lat":43.25574,"lon":5.38228,"is_reserved":false,"is_disabled":false,"rental_uris":{"android":"levelo://app?vid=f1a5529f-d308-4bb7-8ccd-2d79295e5b55","ios":"levelo://app?vid=f1a5529f-d308-4bb7-8ccd-2d79295e5b55"},"vehicle_type_id":"4","last_reported":1732187292,"current_range_meters":37600,"station_id":"ce4bhih2rcd13ifvqfs0","pricing_plan_id":"cebpf4jnsgd1na2vs0mg"},{"bike_id":"2dc80269-2726-492b-8c3c-d8761f277bdf","system_id":"levelo_inurba_marseille","lat":43.32366,"lon":5.38882,"is_reserved":false,"is_disabled":true,"rental_uris":{"android":"levelo://app?vid=2dc80269-2726-492b-8c3c-d8761f277bdf","ios":"levelo://app?vid=2dc80269-2726-492b-8c3c-d8761f277bdf"},"vehicle_type_id":"4","last_reported":1732187292,"current_range_meters":800,"station_id":"ce4bhqp2rcd13ifvqhog","pricing_plan_id":"cebpf4jnsgd1na2vs0mg"},{"bike_id":"1cd0daee-d68a-4e66-9883-fbe67fd8260f","system_id":"levelo_inurba_marseille","lat":43.30592,"lon":5.37121,"is_reserved":false,"is_disabled":true,"rental_uris":{"android":"levelo://app?vid=1cd0daee-d68a-4e66-9883-fbe67fd8260f","ios":"levelo://app?vid=1cd0daee-d68a-4e66-9883-fbe67fd8260f"},"vehicle_type_id":"4","last_reported":1732187292,"current_range_meters":0,"station_id":"","pricing_plan_id":"cebpf4jnsgd1na2vs0mg"},{"bike_id":"29706612-9234-4875-a9c8-78672d89ff5e","system_id":"levelo_inurba_marseille","lat":43.28619,"lon":5.351,"is_reserved":false,"is_disabled":false,"rental_uris":{"android":"levelo://app?vid=29706612-9234-4875-a9c8-78672d89ff5e","ios":"levelo://app?vid=29706612-9234-4875-a9c8-78672d89ff5e"},"vehicle_type_id":"4","last_reported":1732187292,"current_range_meters":29600,"station_id":"ce4bhch2rcd13ifvqeug","pricing_plan_id":"cebpf4jnsgd1na2vs0mg"},{"bike_id":"a127105f-c61f-44d0-b11b-d4db50097da3","system_id":"levelo_inurba_marseille","lat":43.29317,"lon":5.37187,"is_reserved":false,"is_disabled":false,"rental_uris":{"android":"levelo://app?vid=a127105f-c61f-44d0-b11b-d4db50097da3","ios":"levelo://app?vid=a127105f-c61f-44d0-b11b-d4db50097da3"},"vehicle_type_id":"4","last_reported":1732187292,"current_range_meters":28800,"station_id":"ce4bgh92rcd13ifvqb40","pricing_plan_id":"cebpf4jnsgd1na2vs0mg"},{"bike_id":"772ce743-8958-4198-b3ba-b6e0d96fa296","system_id":"levelo_inurba_marseille","lat":43.24168,"lon":5.36402,"is_reserved":false,"is_disabled":false,"rental_uris":{"android":"levelo://app?vid=772ce743-8958-4198-b3ba-b6e0d96fa296","ios":"levelo://app?vid=772ce743-8958-4198-b3ba-b6e0d96fa296"},"vehicle_type_id":"4","last_reported":1732187292,"current_range_meters":38400,"station_id":"cpo36qri1sfpv3e86is0","pricing_plan_id":"cebpf4jnsgd1na2vs0mg"},{"bike_id":"6ac813fd-2f8a-4e96-83c3-26fdfb134841","system_id":"levelo_inurba_marseille","lat":43.28939,"lon":5.36392,"is_reserved":false,"is_disabled":false,"rental_uris":{"android":"levelo://app?vid=6ac813fd-2f8a-4e96-83c3-26fdfb134841","ios":"levelo://app?vid=6ac813fd-2f8a-4e96-83c3-26fdfb134841"},"vehicle_type_id":"4","last_reported":1732187292,"current_range_meters":10000,"station_id":"ce4bhc92rcd13ifvqetg","pricing_plan_id":"cebpf4jnsgd1na2vs0mg"},{"bike_id":"a91d19d3-8057-4b70-88f1-be828ea306bd","system_id":"levelo_inurba_marseille","lat":43.26691,"lon":5.38277,"is_reserved":false,"is_disabled":false,"rental_uris":{"android":"levelo://app?vid=a91d19d3-8057-4b70-88f1-be828ea306bd","ios":"levelo://app?vid=a91d19d3-8057-4b70-88f1-be828ea306bd"},"vehicle_type_id":"4","last_reported":1732187292,"current_range_meters":23200,"station_id":"ce4bhg92rcd13ifvqf90","pricing_plan_id":"cebpf4jnsgd1na2vs0mg"},{"bike_id":"65037f4b-f5b0-47d3-99a9-1e6f34142111","system_id":"levelo_inurba_marseille","lat":43.32362,"lon":5.38884,"is_reserved":false,"is_disabled":false,"rental_uris":{"android":"levelo://app?vid=65037f4b-f5b0-47d3-99a9-1e6f34142111","ios":"levelo://app?vid=65037f4b-f5b0-47d3-99a9-1e6f34142111"},"vehicle_type_id":"4","last_reported":1732187292,"current_range_meters":38800,"station_id":"ce4bhqp2rcd13ifvqhog","pricing_plan_id":"cebpf4jnsgd1na2vs0mg"},{"bike_id":"7a6ff8dd-c1de-412e-a849-d4d1027a9fef","system_id":"levelo_inurba_marseille","lat":43.3035,"lon":5.41885,"is_reserved":false,"is_disabled":false,"rental_uris":{"android":"levelo://app?vid=7a6ff8dd-c1de-412e-a849-d4d1027a9fef","ios":"levelo://app?vid=7a6ff8dd-c1de-412e-a849-d4d1027a9fef"},"vehicle_type_id":"4","last_reported":1732187292,"current_range_meters":30400,"station_id":"ce4bhop2rcd13ifvqh7g","pricing_plan_id":"cebpf4jnsgd1na2vs0mg"},{"bike_id":"a7fce1eb-2f2a-4561-bd8b-f77092da043b","system_id":"levelo_inurba_marseille","lat":43.27055,"lon":5.42259,"is_reserved":false,"is_disabled":true,"rental_uris":{"android":"levelo://app?vid=a7fce1eb-2f2a-4561-bd8b-f77092da043b","ios":"levelo://app?vid=a7fce1eb-2f2a-4561-bd8b-f77092da043b"},"vehicle_type_id":"4","last_reported":1732187292,"current_range_meters":34800,"station_id":"ce4bhk92rcd13ifvqgb0","pricing_plan_id":"cebpf4jnsgd1na2vs0mg"},{"bike_id":"136b3344-ecaa-408f-8d23-ce80be140b6f","system_id":"levelo_inurba_marseille","lat":43.29596,"lon":5.38089,"is_reserved":false,"is_disabled":false,"rental_uris":{"android":"levelo://app?vid=136b3344-ecaa-408f-8d23-ce80be140b6f","ios":"levelo://app?vid=136b3344-ecaa-408f-8d23-ce80be140b6f"},"vehicle_type_id":"4","last_reported":1732187292,"current_range_meters":23200,"station_id":"ce4bgl12rcd13ifvqbo0","pricing_plan_id":"cebpf4jnsgd1na2vs0mg"},{"bike_id":"a45d15e6-dc7a-4260-8aab-7115ecf2aa91","system_id":"levelo_inurba_marseille","lat":43.29973,"lon":5.38482,"is_reserved":false,"is_disabled":false,"rental_uris":{"android":"levelo://app?vid=a45d15e6-dc7a-4260-8aab-7115ecf2aa91","ios":"levelo://app?vid=a45d15e6-dc7a-4260-8aab-7115ecf2aa91"},"vehicle_type_id":"4","last_reported":1732187292,"current_range_meters":37600,"station_id":"ce4bgj92rcd13ifvqbd0","pricing_plan_id":"cebpf4jnsgd1na2vs0mg"},{"bike_id":"3fd5bebc-428a-4b96-b754-ca818ccd1f16","system_id":"levelo_inurba_marseille","lat":43.25929,"lon":5.40911,"is_reserved":false,"is_disabled":true,"rental_uris":{"android":"levelo://app?vid=3fd5bebc-428a-4b96-b754-ca818ccd1f16","ios":"levelo://app?vid=3fd5bebc-428a-4b96-b754-ca818ccd1f16"},"vehicle_type_id":"4","last_reported":1732187292,"current_range_meters":36800,"station_id":"ce4bhm92rcd13ifvqglg","pricing_plan_id":"cebpf4jnsgd1na2vs0mg"},{"bike_id":"a764c778-c8a8-4fae-886e-64f3d5668825","system_id":"levelo_inurba_marseille","lat":43.28162,"lon":5.42618,"is_reserved":false,"is_disabled":true,"rental_uris":{"android":"levelo://app?vid=a764c778-c8a8-4fae-886e-64f3d5668825","ios":"levelo://app?vid=a764c778-c8a8-4fae-886e-64f3d5668825"},"vehicle_type_id":"4","last_reported":1732187292,"current_range_meters":38800,"station_id":"ce4bhnh2rcd13ifvqgug","pricing_plan_id":"cebpf4jnsgd1na2vs0mg"},{"bike_id":"c135e75e-8f72-424b-a248-3608ebd51264","system_id":"levelo_inurba_marseille","lat":43.24079,"lon":5.37758,"is_reserved":false,"is_disabled":false,"rental_uris":{"android":"levelo://app?vid=c135e75e-8f72-424b-a248-3608ebd51264","ios":"levelo://app?vid=c135e75e-8f72-424b-a248-3608ebd51264"},"vehicle_type_id":"4","last_reported":1732187292,"current_range_meters":32400,"station_id":"ce4bhnp2rcd13ifvqgvg","pricing_plan_id":"cebpf4jnsgd1na2vs0mg"},{"bike_id":"5dd4afbb-16bd-43bd-b0db-67e7146c68d0","system_id":"levelo_inurba_marseille","lat":43.30534,"lon":5.36696,"is_reserved":false,"is_disabled":false,"rental_uris":{"android":"levelo://app?vid=5dd4afbb-16bd-43bd-b0db-67e7146c68d0","ios":"levelo://app?vid=5dd4afbb-16bd-43bd-b0db-67e7146c68d0"},"vehicle_type_id":"4","last_reported":1732187292,"current_range_meters":32400,"station_id":"ce4bgrp2rcd13ifvqc9g","pricing_plan_id":"cebpf4jnsgd1na2vs0mg"},{"bike_id":"cdd81121-c199-40e9-b48f-6c00aea8dc95","system_id":"levelo_inurba_marseille","lat":43.30092,"lon":5.39084,"is_reserved":false,"is_disabled":false,"rental_uris":{"android":"levelo://app?vid=cdd81121-c199-40e9-b48f-6c00aea8dc95","ios":"levelo://app?vid=cdd81121-c199-40e9-b48f-6c00aea8dc95"},"vehicle_type_id":"4","last_reported":1732187292,"current_range_meters":27200,"station_id":"ce4bh192rcd13ifvqdb0","pricing_plan_id":"cebpf4jnsgd1na2vs0mg"},{"bike_id":"571825fc-1c1f-4e61-ba4d-fc13912fcda9","system_id":"levelo_inurba_marseille","lat":43.32467,"lon":5.36556,"is_reserved":false,"is_disabled":false,"rental_uris":{"android":"levelo://app?vid=571825fc-1c1f-4e61-ba4d-fc13912fcda9","ios":"levelo://app?vid=571825fc-1c1f-4e61-ba4d-fc13912fcda9"},"vehicle_type_id":"4","last_reported":1732187292,"current_range_meters":39200,"station_id":"ce4bhs12rcd13ifvqhvg","pricing_plan_id":"cebpf4jnsgd1na2vs0mg"},{"bike_id":"ccc13f20-e135-4427-8207-c9fa00d28a91","system_id":"levelo_inurba_marseille","lat":43.29275,"lon":5.40117,"is_reserved":false,"is_disabled":false,"rental_uris":{"android":"levelo://app?vid=ccc13f20-e135-4427-8207-c9fa00d28a91","ios":"levelo://app?vid=ccc13f20-e135-4427-8207-c9fa00d28a91"},"vehicle_type_id":"4","last_reported":1732187292,"current_range_meters":4800,"station_id":"ce4bh312rcd13ifvqdk0","pricing_plan_id":"cebpf4jnsgd1na2vs0mg"},{"bike_id":"6d8d4026-73c3-4703-a895-b6045425d457","system_id":"levelo_inurba_marseille","lat":43.30546,"lon":5.36698,"is_reserved":false,"is_disabled":false,"rental_uris":{"android":"levelo://app?vid=6d8d4026-73c3-4703-a895-b6045425d457","ios":"levelo://app?vid=6d8d4026-73c3-4703-a895-b6045425d457"},"vehicle_type_id":"4","last_reported":1732187292,"current_range_meters":39200,"station_id":"ce4bgrp2rcd13ifvqc9g","pricing_plan_id":"cebpf4jnsgd1na2vs0mg"},{"bike_id":"513ea4f8-f64a-48ed-b367-ff3a3b123528","system_id":"levelo_inurba_marseille","lat":43.30538,"lon":5.38419,"is_reserved":false,"is_disabled":false,"rental_uris":{"android":"levelo://app?vid=513ea4f8-f64a-48ed-b367-ff3a3b123528","ios":"levelo://app?vid=513ea4f8-f64a-48ed-b367-ff3a3b123528"},"vehicle_type_id":"4","last_reported":1732187292,"current_range_meters":12800,"station_id":"ce4bgg92rcd13ifvqb30","pricing_plan_id":"cebpf4jnsgd1na2vs0mg"},{"bike_id":"4e0ae9d0-4853-4c4a-8966-a6752727c462","system_id":"levelo_inurba_marseille","lat":43.28945,"lon":5.39631,"is_reserved":false,"is_disabled":true,"rental_uris":{"android":"levelo://app?vid=4e0ae9d0-4853-4c4a-8966-a6752727c462","ios":"levelo://app?vid=4e0ae9d0-4853-4c4a-8966-a6752727c462"},"vehicle_type_id":"4","last_reported":1732187292,"current_range_meters":0,"station_id":"ce4bh3h2rcd13ifvqdn0","pricing_plan_id":"cebpf4jnsgd1na2vs0mg"},{"bike_id":"be9ae0a8-c549-4adb-a0f6-54609edbc62f","system_id":"levelo_inurba_marseille","lat":43.29851,"lon":5.36285,"is_reserved":false,"is_disabled":false,"rental_uris":{"android":"levelo://app?vid=be9ae0a8-c549-4adb-a0f6-54609edbc62f","ios":"levelo://app?vid=be9ae0a8-c549-4adb-a0f6-54609edbc62f"},"vehicle_type_id":"4","last_reported":1732187292,"current_range_meters":38800,"station_id":"ce4bgpp2rcd13ifvqc3g","pricing_plan_id":"cebpf4jnsgd1na2vs0mg"},{"bike_id":"c172d9d0-ede4-49c5-b256-6c8ea7b60db6","system_id":"levelo_inurba_marseille","lat":43.31987,"lon":5.38158,"is_reserved":false,"is_disabled":true,"rental_uris":{"android":"levelo://app?vid=c172d9d0-ede4-49c5-b256-6c8ea7b60db6","ios":"levelo://app?vid=c172d9d0-ede4-49c5-b256-6c8ea7b60db6"},"vehicle_type_id":"4","last_reported":1732187292,"current_range_meters":0,"station_id":"ce4bhr12rcd13ifvqhpg","pricing_plan_id":"cebpf4jnsgd1na2vs0mg"},{"bike_id":"38335152-bc19-4317-b42d-e5f914f4b0c5","system_id":"levelo_inurba_marseille","lat":43.23189,"lon":5.39987,"is_reserved":false,"is_disabled":false,"rental_uris":{"android":"levelo://app?vid=38335152-bc19-4317-b42d-e5f914f4b0c5","ios":"levelo://app?vid=38335152-bc19-4317-b42d-e5f914f4b0c5"},"vehicle_type_id":"4","last_reported":1732187292,"current_range_meters":38800,"station_id":"ce4bhn12rcd13ifvqgqg","pricing_plan_id":"cebpf4jnsgd1na2vs0mg"},{"bike_id":"c7fd457d-a19c-4251-b4e4-b68a95fbe4b7","system_id":"levelo_inurba_marseille","lat":43.30144,"lon":5.38078,"is_reserved":false,"is_disabled":false,"rental_uris":{"android":"levelo://app?vid=c7fd457d-a19c-4251-b4e4-b68a95fbe4b7","ios":"levelo://app?vid=c7fd457d-a19c-4251-b4e4-b68a95fbe4b7"},"vehicle_type_id":"4","last_reported":1732187292,"current_range_meters":32800,"station_id":"ce4bgjp2rcd13ifvqbh0","pricing_plan_id":"cebpf4jnsgd1na2vs0mg"},{"bike_id":"f0fa4e60-0a2b-48c7-9942-83170358dd4a","system_id":"levelo_inurba_marseille","lat":43.32291,"lon":5.38276,"is_reserved":false,"is_disabled":false,"rental_uris":{"android":"levelo://app?vid=f0fa4e60-0a2b-48c7-9942-83170358dd4a","ios":"levelo://app?vid=f0fa4e60-0a2b-48c7-9942-83170358dd4a"},"vehicle_type_id":"4","last_reported":1732187292,"current_range_meters":39200,"station_id":"ce4bhr12rcd13ifvqhqg","pricing_plan_id":"cebpf4jnsgd1na2vs0mg"},{"bike_id":"550f0269-af81-4f74-bed5-fe17c4459dfd","system_id":"levelo_inurba_marseille","lat":43.25936,"lon":5.40907,"is_reserved":false,"is_disabled":false,"rental_uris":{"android":"levelo://app?vid=550f0269-af81-4f74-bed5-fe17c4459dfd","ios":"levelo://app?vid=550f0269-af81-4f74-bed5-fe17c4459dfd"},"vehicle_type_id":"4","last_reported":1732187292,"current_range_meters":28000,"station_id":"ce4bhm92rcd13ifvqglg","pricing_plan_id":"cebpf4jnsgd1na2vs0mg"},{"bike_id":"9c37a5af-6b01-4e75-9657-7ef6bddc1bc6","system_id":"levelo_inurba_marseille","lat":43.33024,"lon":5.39041,"is_reserved":false,"is_disabled":false,"rental_uris":{"android":"levelo://app?vid=9c37a5af-6b01-4e75-9657-7ef6bddc1bc6","ios":"levelo://app?vid=9c37a5af-6b01-4e75-9657-7ef6bddc1bc6"},"vehicle_type_id":"4","last_reported":1732187292,"current_range_meters":27600,"station_id":"ce4bhr92rcd13ifvqhrg","pricing_plan_id":"cebpf4jnsgd1na2vs0mg"},{"bike_id":"1d044a0d-972e-4b67-af1d-58efd269330b","system_id":"levelo_inurba_marseille","lat":43.27806,"lon":5.4071,"is_reserved":false,"is_disabled":false,"rental_uris":{"android":"levelo://app?vid=1d044a0d-972e-4b67-af1d-58efd269330b","ios":"levelo://app?vid=1d044a0d-972e-4b67-af1d-58efd269330b"},"vehicle_type_id":"4","last_reported":1732187292,"current_range_meters":36400,"station_id":"ce4bhnh2rcd13ifvqgtg","pricing_plan_id":"cebpf4jnsgd1na2vs0mg"},{"bike_id":"3585d018-4b66-4cf5-bca5-17fcec2fef21","system_id":"levelo_inurba_marseille","lat":43.23189,"lon":5.35558,"is_reserved":false,"is_disabled":false,"rental_uris":{"android":"levelo://app?vid=3585d018-4b66-4cf5-bca5-17fcec2fef21","ios":"levelo://app?vid=3585d018-4b66-4cf5-bca5-17fcec2fef21"},"vehicle_type_id":"4","last_reported":1732187292,"current_range_meters":33200,"station_id":"ce4bhu92rcd13ifvqi70","pricing_plan_id":"cebpf4jnsgd1na2vs0mg"},{"bike_id":"5f94102a-92bf-473a-a926-bc765900825f","system_id":"levelo_inurba_marseille","lat":43.30417,"lon":5.41287,"is_reserved":false,"is_disabled":false,"rental_uris":{"android":"levelo://app?vid=5f94102a-92bf-473a-a926-bc765900825f","ios":"levelo://app?vid=5f94102a-92bf-473a-a926-bc765900825f"},"vehicle_type_id":"4","last_reported":1732187292,"current_range_meters":29600,"station_id":"ce4bhop2rcd13ifvqh8g","pricing_plan_id":"cebpf4jnsgd1na2vs0mg"},{"bike_id":"dab0d648-1245-446e-901f-fbbde305d335","system_id":"levelo_inurba_marseille","lat":43.30146,"lon":5.38082,"is_reserved":false,"is_disabled":false,"rental_uris":{"android":"levelo://app?vid=dab0d648-1245-446e-901f-fbbde305d335","ios":"levelo://app?vid=dab0d648-1245-446e-901f-fbbde305d335"},"vehicle_type_id":"4","last_reported":1732187292,"current_range_meters":36000,"station_id":"ce4bgjp2rcd13ifvqbh0","pricing_plan_id":"cebpf4jnsgd1na2vs0mg"},{"bike_id":"a6d5ad62-cc28-4f8d-bea7-62693026e2bf","system_id":"levelo_inurba_marseille","lat":43.29221,"lon":5.36052,"is_reserved":false,"is_disabled":true,"rental_uris":{"android":"levelo://app?vid=a6d5ad62-cc28-4f8d-bea7-62693026e2bf","ios":"levelo://app?vid=a6d5ad62-cc28-4f8d-bea7-62693026e2bf"},"vehicle_type_id":"4","last_reported":1732187292,"current_range_meters":1600,"station_id":"ce4bhbh2rcd13ifvqeqg","pricing_plan_id":"cebpf4jnsgd1na2vs0mg"},{"bike_id":"e57590cc-a844-462b-b95c-023047b497c3","system_id":"levelo_inurba_marseille","lat":43.26027,"lon":5.3755,"is_reserved":false,"is_disabled":false,"rental_uris":{"android":"levelo://app?vid=e57590cc-a844-462b-b95c-023047b497c3","ios":"levelo://app?vid=e57590cc-a844-462b-b95c-023047b497c3"},"vehicle_type_id":"4","last_reported":1732187292,"current_range_meters":38000,"station_id":"ce4bhgh2rcd13ifvqfa0","pricing_plan_id":"cebpf4jnsgd1na2vs0mg"},{"bike_id":"02548de1-a79f-4bc6-8c03-f2b86f8bd8f9","system_id":"levelo_inurba_marseille","lat":43.3236,"lon":5.38878,"is_reserved":false,"is_disabled":false,"rental_uris":{"android":"levelo://app?vid=02548de1-a79f-4bc6-8c03-f2b86f8bd8f9","ios":"levelo://app?vid=02548de1-a79f-4bc6-8c03-f2b86f8bd8f9"},"vehicle_type_id":"4","last_reported":1732187292,"current_range_meters":8800,"station_id":"ce4bhqp2rcd13ifvqhog","pricing_plan_id":"cebpf4jnsgd1na2vs0mg"},{"bike_id":"6c9513e0-9149-4216-b75b-dbc332866267","system_id":"levelo_inurba_marseille","lat":43.28107,"lon":5.37836,"is_reserved":false,"is_disabled":false,"rental_uris":{"android":"levelo://app?vid=6c9513e0-9149-4216-b75b-dbc332866267","ios":"levelo://app?vid=6c9513e0-9149-4216-b75b-dbc332866267"},"vehicle_type_id":"4","last_reported":1732187292,"current_range_meters":18800,"station_id":"ce4bha12rcd13ifvqee0","pricing_plan_id":"cebpf4jnsgd1na2vs0mg"},{"bike_id":"7ef9a5ef-b3b2-4ff2-82cc-f161ced30464","system_id":"levelo_inurba_marseille","lat":43.29419,"lon":5.38612,"is_reserved":false,"is_disabled":true,"rental_uris":{"android":"levelo://app?vid=7ef9a5ef-b3b2-4ff2-82cc-f161ced30464","ios":"levelo://app?vid=7ef9a5ef-b3b2-4ff2-82cc-f161ced30464"},"vehicle_type_id":"4","last_reported":1732187292,"current_range_meters":34800,"station_id":"ce4bh2h2rcd13ifvqdh0","pricing_plan_id":"cebpf4jnsgd1na2vs0mg"},{"bike_id":"ccd208dd-3d0b-41e2-93a6-fda6e537f6b8","system_id":"levelo_inurba_marseille","lat":43.31356,"lon":5.36705,"is_reserved":false,"is_disabled":false,"rental_uris":{"android":"levelo://app?vid=ccd208dd-3d0b-41e2-93a6-fda6e537f6b8","ios":"levelo://app?vid=ccd208dd-3d0b-41e2-93a6-fda6e537f6b8"},"vehicle_type_id":"4","last_reported":1732187292,"current_range_meters":7200,"station_id":"ce4bgr92rcd13ifvqc6g","pricing_plan_id":"cebpf4jnsgd1na2vs0mg"},{"bike_id":"1de80457-0b61-4d7e-9621-b45ef776805a","system_id":"levelo_inurba_marseille","lat":43.31227,"lon":5.36864,"is_reserved":false,"is_disabled":false,"rental_uris":{"android":"levelo://app?vid=1de80457-0b61-4d7e-9621-b45ef776805a","ios":"levelo://app?vid=1de80457-0b61-4d7e-9621-b45ef776805a"},"vehicle_type_id":"4","last_reported":1732187292,"current_range_meters":37600,"station_id":"ce4bgl92rcd13ifvqbq0","pricing_plan_id":"cebpf4jnsgd1na2vs0mg"},{"bike_id":"34290c9d-ad1a-4ac0-ba22-96d5a0f960f6","system_id":"levelo_inurba_marseille","lat":43.3014,"lon":5.37413,"is_reserved":false,"is_disabled":true,"rental_uris":{"android":"levelo://app?vid=34290c9d-ad1a-4ac0-ba22-96d5a0f960f6","ios":"levelo://app?vid=34290c9d-ad1a-4ac0-ba22-96d5a0f960f6"},"vehicle_type_id":"4","last_reported":1732187292,"current_range_meters":1600,"station_id":"ce4bgs92rcd13ifvqcc0","pricing_plan_id":"cebpf4jnsgd1na2vs0mg"},{"bike_id":"8d5e8e54-f87c-49b3-8720-7e21078f8fcd","system_id":"levelo_inurba_marseille","lat":43.26483,"lon":5.39548,"is_reserved":false,"is_disabled":false,"rental_uris":{"android":"levelo://app?vid=8d5e8e54-f87c-49b3-8720-7e21078f8fcd","ios":"levelo://app?vid=8d5e8e54-f87c-49b3-8720-7e21078f8fcd"},"vehicle_type_id":"4","last_reported":1732187292,"current_range_meters":36800,"station_id":"ce4bhi12rcd13ifvqfq0","pricing_plan_id":"cebpf4jnsgd1na2vs0mg"},{"bike_id":"844cb461-f780-45f5-88b2-3951b51e6462","system_id":"levelo_inurba_marseille","lat":43.30111,"lon":5.3782,"is_reserved":false,"is_disabled":true,"rental_uris":{"android":"levelo://app?vid=844cb461-f780-45f5-88b2-3951b51e6462","ios":"levelo://app?vid=844cb461-f780-45f5-88b2-3951b51e6462"},"vehicle_type_id":"4","last_reported":1732187292,"current_range_meters":0,"station_id":"","pricing_plan_id":"cebpf4jnsgd1na2vs0mg"},{"bike_id":"282acebe-c1d1-4697-aa23-6945db26dbe7","system_id":"levelo_inurba_marseille","lat":43.29516,"lon":5.39042,"is_reserved":false,"is_disabled":false,"rental_uris":{"android":"levelo://app?vid=282acebe-c1d1-4697-aa23-6945db26dbe7","ios":"levelo://app?vid=282acebe-c1d1-4697-aa23-6945db26dbe7"},"vehicle_type_id":"4","last_reported":1732187292,"current_range_meters":28400,"station_id":"ce4bh3p2rcd13ifvqdp0","pricing_plan_id":"cebpf4jnsgd1na2vs0mg"},{"bike_id":"d5fad729-dcc6-46f0-b4be-9f69354c8b21","system_id":"levelo_inurba_marseille","lat":43.33743,"lon":5.37457,"is_reserved":false,"is_disabled":false,"rental_uris":{"android":"levelo://app?vid=d5fad729-dcc6-46f0-b4be-9f69354c8b21","ios":"levelo://app?vid=d5fad729-dcc6-46f0-b4be-9f69354c8b21"},"vehicle_type_id":"4","last_reported":1732187292,"current_range_meters":38000,"station_id":"","pricing_plan_id":"cebpf4jnsgd1na2vs0mg"},{"bike_id":"141a6003-9c1b-40ba-b273-5abd7a8326b6","system_id":"levelo_inurba_marseille","lat":43.26552,"lon":5.3728,"is_reserved":false,"is_disabled":false,"rental_uris":{"android":"levelo://app?vid=141a6003-9c1b-40ba-b273-5abd7a8326b6","ios":"levelo://app?vid=141a6003-9c1b-40ba-b273-5abd7a8326b6"},"vehicle_type_id":"4","last_reported":1732187292,"current_range_meters":38800,"station_id":"ce4bhg12rcd13ifvqf70","pricing_plan_id":"cebpf4jnsgd1na2vs0mg"},{"bike_id":"51555b90-b7c7-4e79-bc4e-60c6b5e837a5","system_id":"levelo_inurba_marseille","lat":43.29622,"lon":5.37169,"is_reserved":false,"is_disabled":false,"rental_uris":{"android":"levelo://app?vid=51555b90-b7c7-4e79-bc4e-60c6b5e837a5","ios":"levelo://app?vid=51555b90-b7c7-4e79-bc4e-60c6b5e837a5"},"vehicle_type_id":"4","last_reported":1732187292,"current_range_meters":38000,"station_id":"ce4bgnh2rcd13ifvqc0g","pricing_plan_id":"cebpf4jnsgd1na2vs0mg"},{"bike_id":"bbf93218-68ad-4601-9ca1-23dbf504d3d0","system_id":"levelo_inurba_marseille","lat":43.28726,"lon":5.36083,"is_reserved":false,"is_disabled":false,"rental_uris":{"android":"levelo://app?vid=bbf93218-68ad-4601-9ca1-23dbf504d3d0","ios":"levelo://app?vid=bbf93218-68ad-4601-9ca1-23dbf504d3d0"},"vehicle_type_id":"4","last_reported":1732187292,"current_range_meters":38800,"station_id":"cki0cbj6b192h4jlfktg","pricing_plan_id":"cebpf4jnsgd1na2vs0mg"},{"bike_id":"7e647cfe-54cf-490a-bb7e-01f10acdb5a0","system_id":"levelo_inurba_marseille","lat":43.28349,"lon":5.38613,"is_reserved":false,"is_disabled":true,"rental_uris":{"android":"levelo://app?vid=7e647cfe-54cf-490a-bb7e-01f10acdb5a0","ios":"levelo://app?vid=7e647cfe-54cf-490a-bb7e-01f10acdb5a0"},"vehicle_type_id":"4","last_reported":1732187292,"current_range_meters":38800,"station_id":"ce4bh492rcd13ifvqdvg","pricing_plan_id":"cebpf4jnsgd1na2vs0mg"},{"bike_id":"cdaafd2d-0da1-4fac-9881-15c66a7cd7c0","system_id":"levelo_inurba_marseille","lat":43.23151,"lon":5.43707,"is_reserved":false,"is_disabled":false,"rental_uris":{"android":"levelo://app?vid=cdaafd2d-0da1-4fac-9881-15c66a7cd7c0","ios":"levelo://app?vid=cdaafd2d-0da1-4fac-9881-15c66a7cd7c0"},"vehicle_type_id":"4","last_reported":1732187292,"current_range_meters":38800,"station_id":"ce4bhmp2rcd13ifvqgog","pricing_plan_id":"cebpf4jnsgd1na2vs0mg"},{"bike_id":"1d606ca2-d831-4cab-8cc3-213a7446614a","system_id":"levelo_inurba_marseille","lat":43.31484,"lon":5.37293,"is_reserved":false,"is_disabled":false,"rental_uris":{"android":"levelo://app?vid=1d606ca2-d831-4cab-8cc3-213a7446614a","ios":"levelo://app?vid=1d606ca2-d831-4cab-8cc3-213a7446614a"},"vehicle_type_id":"4","last_reported":1732187292,"current_range_meters":26800,"station_id":"ce4bgt12rcd13ifvqcd0","pricing_plan_id":"cebpf4jnsgd1na2vs0mg"},{"bike_id":"8d5ad0a8-268e-4afd-be61-7919f93826c7","system_id":"levelo_inurba_marseille","lat":43.29909,"lon":5.37472,"is_reserved":false,"is_disabled":true,"rental_uris":{"android":"levelo://app?vid=8d5ad0a8-268e-4afd-be61-7919f93826c7","ios":"levelo://app?vid=8d5ad0a8-268e-4afd-be61-7919f93826c7"},"vehicle_type_id":"4","last_reported":1732187292,"current_range_meters":33600,"station_id":"ce4bgjh2rcd13ifvqbg0","pricing_plan_id":"cebpf4jnsgd1na2vs0mg"},{"bike_id":"7bc52ef8-b780-4f98-8fa2-b2125397c84e","system_id":"levelo_inurba_marseille","lat":43.32362,"lon":5.3888,"is_reserved":false,"is_disabled":false,"rental_uris":{"android":"levelo://app?vid=7bc52ef8-b780-4f98-8fa2-b2125397c84e","ios":"levelo://app?vid=7bc52ef8-b780-4f98-8fa2-b2125397c84e"},"vehicle_type_id":"4","last_reported":1732187292,"current_range_meters":32000,"station_id":"ce4bhqp2rcd13ifvqhog","pricing_plan_id":"cebpf4jnsgd1na2vs0mg"},{"bike_id":"be51f213-b695-404a-b3dc-ff30e4b3ca3d","system_id":"levelo_inurba_marseille","lat":43.33607,"lon":5.41025,"is_reserved":false,"is_disabled":false,"rental_uris":{"android":"levelo://app?vid=be51f213-b695-404a-b3dc-ff30e4b3ca3d","ios":"levelo://app?vid=be51f213-b695-404a-b3dc-ff30e4b3ca3d"},"vehicle_type_id":"4","last_reported":1732187292,"current_range_meters":6800,"station_id":"ce4bhqh2rcd13ifvqhmg","pricing_plan_id":"cebpf4jnsgd1na2vs0mg"},{"bike_id":"b4f1c3b4-7d3e-4593-8ba2-619fc9bfd486","system_id":"levelo_inurba_marseille","lat":43.23957,"lon":5.36626,"is_reserved":false,"is_disabled":false,"rental_uris":{"android":"levelo://app?vid=b4f1c3b4-7d3e-4593-8ba2-619fc9bfd486","ios":"levelo://app?vid=b4f1c3b4-7d3e-4593-8ba2-619fc9bfd486"},"vehicle_type_id":"4","last_reported":1732187292,"current_range_meters":38000,"station_id":"ce4bhi12rcd13ifvqfp0","pricing_plan_id":"cebpf4jnsgd1na2vs0mg"},{"bike_id":"21e611ca-1d52-46b2-9962-730ca3426b93","system_id":"levelo_inurba_marseille","lat":43.31482,"lon":5.37278,"is_reserved":false,"is_disabled":false,"rental_uris":{"android":"levelo://app?vid=21e611ca-1d52-46b2-9962-730ca3426b93","ios":"levelo://app?vid=21e611ca-1d52-46b2-9962-730ca3426b93"},"vehicle_type_id":"4","last_reported":1732187292,"current_range_meters":17200,"station_id":"ce4bgt12rcd13ifvqcd0","pricing_plan_id":"cebpf4jnsgd1na2vs0mg"},{"bike_id":"62e4a358-c2a0-48ac-be94-b0cfc53ce058","system_id":"levelo_inurba_marseille","lat":43.30277,"lon":5.37703,"is_reserved":false,"is_disabled":false,"rental_uris":{"android":"levelo://app?vid=62e4a358-c2a0-48ac-be94-b0cfc53ce058","ios":"levelo://app?vid=62e4a358-c2a0-48ac-be94-b0cfc53ce058"},"vehicle_type_id":"4","last_reported":1732187292,"current_range_meters":32800,"station_id":"ce4bguh2rcd13ifvqcj0","pricing_plan_id":"cebpf4jnsgd1na2vs0mg"},{"bike_id":"8b09ebd1-a82c-4c50-a6f1-82290ab766c7","system_id":"levelo_inurba_marseille","lat":43.27065,"lon":5.42277,"is_reserved":false,"is_disabled":false,"rental_uris":{"android":"levelo://app?vid=8b09ebd1-a82c-4c50-a6f1-82290ab766c7","ios":"levelo://app?vid=8b09ebd1-a82c-4c50-a6f1-82290ab766c7"},"vehicle_type_id":"4","last_reported":1732187292,"current_range_meters":38800,"station_id":"ce4bhk92rcd13ifvqgb0","pricing_plan_id":"cebpf4jnsgd1na2vs0mg"},{"bike_id":"e41e2b51-c116-404e-9858-995a8625acfc","system_id":"levelo_inurba_marseille","lat":43.3054,"lon":5.36688,"is_reserved":false,"is_disabled":false,"rental_uris":{"android":"levelo://app?vid=e41e2b51-c116-404e-9858-995a8625acfc","ios":"levelo://app?vid=e41e2b51-c116-404e-9858-995a8625acfc"},"vehicle_type_id":"4","last_reported":1732187292,"current_range_meters":39200,"station_id":"ce4bgrp2rcd13ifvqc9g","pricing_plan_id":"cebpf4jnsgd1na2vs0mg"},{"bike_id":"3663e551-0669-4733-ba48-df97cefac38e","system_id":"levelo_inurba_marseille","lat":43.26551,"lon":5.37285,"is_reserved":false,"is_disabled":false,"rental_uris":{"android":"levelo://app?vid=3663e551-0669-4733-ba48-df97cefac38e","ios":"levelo://app?vid=3663e551-0669-4733-ba48-df97cefac38e"},"vehicle_type_id":"4","last_reported":1732187292,"current_range_meters":38800,"station_id":"ce4bhg12rcd13ifvqf70","pricing_plan_id":"cebpf4jnsgd1na2vs0mg"},{"bike_id":"79062315-c396-425e-b0f2-e3729387cfe9","system_id":"levelo_inurba_marseille","lat":43.30534,"lon":5.38431,"is_reserved":false,"is_disabled":false,"rental_uris":{"android":"levelo://app?vid=79062315-c396-425e-b0f2-e3729387cfe9","ios":"levelo://app?vid=79062315-c396-425e-b0f2-e3729387cfe9"},"vehicle_type_id":"4","last_reported":1732187292,"current_range_meters":38800,"station_id":"ce4bgg92rcd13ifvqb30","pricing_plan_id":"cebpf4jnsgd1na2vs0mg"},{"bike_id":"f3d1de11-ea0c-4809-8e9c-3957146035eb","system_id":"levelo_inurba_marseille","lat":43.26025,"lon":5.37553,"is_reserved":false,"is_disabled":false,"rental_uris":{"android":"levelo://app?vid=f3d1de11-ea0c-4809-8e9c-3957146035eb","ios":"levelo://app?vid=f3d1de11-ea0c-4809-8e9c-3957146035eb"},"vehicle_type_id":"4","last_reported":1732187292,"current_range_meters":32400,"station_id":"ce4bhgh2rcd13ifvqfa0","pricing_plan_id":"cebpf4jnsgd1na2vs0mg"},{"bike_id":"319639f6-c364-407e-9612-56f449d4d076","system_id":"levelo_inurba_marseille","lat":43.28074,"lon":5.39634,"is_reserved":false,"is_disabled":true,"rental_uris":{"android":"levelo://app?vid=319639f6-c364-407e-9612-56f449d4d076","ios":"levelo://app?vid=319639f6-c364-407e-9612-56f449d4d076"},"vehicle_type_id":"4","last_reported":1732187292,"current_range_meters":0,"station_id":"ce4bho12rcd13ifvqh2g","pricing_plan_id":"cebpf4jnsgd1na2vs0mg"},{"bike_id":"880a77f6-57c5-46b9-84bd-a094e82691de","system_id":"levelo_inurba_marseille","lat":43.29018,"lon":5.38132,"is_reserved":false,"is_disabled":false,"rental_uris":{"android":"levelo://app?vid=880a77f6-57c5-46b9-84bd-a094e82691de","ios":"levelo://app?vid=880a77f6-57c5-46b9-84bd-a094e82691de"},"vehicle_type_id":"4","last_reported":1732187292,"current_range_meters":38400,"station_id":"ce4bh4p2rcd13ifvqe1g","pricing_plan_id":"cebpf4jnsgd1na2vs0mg"},{"bike_id":"eee4f3c1-8991-48be-8118-58219d02235f","system_id":"levelo_inurba_marseille","lat":43.30529,"lon":5.36538,"is_reserved":false,"is_disabled":false,"rental_uris":{"android":"levelo://app?vid=eee4f3c1-8991-48be-8118-58219d02235f","ios":"levelo://app?vid=eee4f3c1-8991-48be-8118-58219d02235f"},"vehicle_type_id":"4","last_reported":1732187292,"current_range_meters":38400,"station_id":"ce4bgs12rcd13ifvqcag","pricing_plan_id":"cebpf4jnsgd1na2vs0mg"},{"bike_id":"401ba890-da26-4a3a-814c-dae1af1c581b","system_id":"levelo_inurba_marseille","lat":43.26951,"lon":5.38628,"is_reserved":false,"is_disabled":false,"rental_uris":{"android":"levelo://app?vid=401ba890-da26-4a3a-814c-dae1af1c581b","ios":"levelo://app?vid=401ba890-da26-4a3a-814c-dae1af1c581b"},"vehicle_type_id":"4","last_reported":1732187292,"current_range_meters":8400,"station_id":"ce4bhh92rcd13ifvqfh0","pricing_plan_id":"cebpf4jnsgd1na2vs0mg"},{"bike_id":"53bbdfc0-4d63-4cc4-86e6-4ec910061123","system_id":"levelo_inurba_marseille","lat":43.30901,"lon":5.367,"is_reserved":false,"is_disabled":true,"rental_uris":{"android":"levelo://app?vid=53bbdfc0-4d63-4cc4-86e6-4ec910061123","ios":"levelo://app?vid=53bbdfc0-4d63-4cc4-86e6-4ec910061123"},"vehicle_type_id":"4","last_reported":1732187292,"current_range_meters":0,"station_id":"","pricing_plan_id":"cebpf4jnsgd1na2vs0mg"},{"bike_id":"6aca163b-448e-41c3-ae15-0a38c50ec209","system_id":"levelo_inurba_marseille","lat":43.25936,"lon":5.40907,"is_reserved":false,"is_disabled":false,"rental_uris":{"android":"levelo://app?vid=6aca163b-448e-41c3-ae15-0a38c50ec209","ios":"levelo://app?vid=6aca163b-448e-41c3-ae15-0a38c50ec209"},"vehicle_type_id":"4","last_reported":1732187292,"current_range_meters":6800,"station_id":"ce4bhm92rcd13ifvqglg","pricing_plan_id":"cebpf4jnsgd1na2vs0mg"},{"bike_id":"b494a81b-9378-4a05-b7e5-9de8ae63939b","system_id":"levelo_inurba_marseille","lat":43.24999,"lon":5.38924,"is_reserved":false,"is_disabled":false,"rental_uris":{"android":"levelo://app?vid=b494a81b-9378-4a05-b7e5-9de8ae63939b","ios":"levelo://app?vid=b494a81b-9378-4a05-b7e5-9de8ae63939b"},"vehicle_type_id":"4","last_reported":1732187292,"current_range_meters":17200,"station_id":"ce4bhgp2rcd13ifvqfd0","pricing_plan_id":"cebpf4jnsgd1na2vs0mg"},{"bike_id":"c9dca009-3253-4e84-8638-735e3befb4d6","system_id":"levelo_inurba_marseille","lat":43.27173,"lon":5.40995,"is_reserved":false,"is_disabled":false,"rental_uris":{"android":"levelo://app?vid=c9dca009-3253-4e84-8638-735e3befb4d6","ios":"levelo://app?vid=c9dca009-3253-4e84-8638-735e3befb4d6"},"vehicle_type_id":"4","last_reported":1732187292,"current_range_meters":36400,"station_id":"ce4bhl12rcd13ifvqgf0","pricing_plan_id":"cebpf4jnsgd1na2vs0mg"},{"bike_id":"dfca3e23-b1dd-40cd-81b2-441e5e82c803","system_id":"levelo_inurba_marseille","lat":43.24163,"lon":5.36391,"is_reserved":false,"is_disabled":false,"rental_uris":{"android":"levelo://app?vid=dfca3e23-b1dd-40cd-81b2-441e5e82c803","ios":"levelo://app?vid=dfca3e23-b1dd-40cd-81b2-441e5e82c803"},"vehicle_type_id":"4","last_reported":1732187292,"current_range_meters":2000,"station_id":"cpo36qri1sfpv3e86is0","pricing_plan_id":"cebpf4jnsgd1na2vs0mg"},{"bike_id":"8d5ebe18-9b95-43cc-87d7-edbc038a818e","system_id":"levelo_inurba_marseille","lat":43.27067,"lon":5.42272,"is_reserved":false,"is_disabled":false,"rental_uris":{"android":"levelo://app?vid=8d5ebe18-9b95-43cc-87d7-edbc038a818e","ios":"levelo://app?vid=8d5ebe18-9b95-43cc-87d7-edbc038a818e"},"vehicle_type_id":"4","last_reported":1732187292,"current_range_meters":30000,"station_id":"ce4bhk92rcd13ifvqgb0","pricing_plan_id":"cebpf4jnsgd1na2vs0mg"},{"bike_id":"3193222d-584b-4642-a1d8-0c04b2309736","system_id":"levelo_inurba_marseille","lat":43.33726,"lon":5.39182,"is_reserved":false,"is_disabled":false,"rental_uris":{"android":"levelo://app?vid=3193222d-584b-4642-a1d8-0c04b2309736","ios":"levelo://app?vid=3193222d-584b-4642-a1d8-0c04b2309736"},"vehicle_type_id":"4","last_reported":1732187292,"current_range_meters":8400,"station_id":"ce4bhr92rcd13ifvqhsg","pricing_plan_id":"cebpf4jnsgd1na2vs0mg"},{"bike_id":"b9456264-d2cf-439a-ba03-d5a471d11820","system_id":"levelo_inurba_marseille","lat":43.29196,"lon":5.35798,"is_reserved":false,"is_disabled":false,"rental_uris":{"android":"levelo://app?vid=b9456264-d2cf-439a-ba03-d5a471d11820","ios":"levelo://app?vid=b9456264-d2cf-439a-ba03-d5a471d11820"},"vehicle_type_id":"4","last_reported":1732187292,"current_range_meters":38800,"station_id":"ce4bhb12rcd13ifvqel0","pricing_plan_id":"cebpf4jnsgd1na2vs0mg"},{"bike_id":"4271307a-1e8f-4ec3-92c3-b1cc077db63a","system_id":"levelo_inurba_marseille","lat":43.28405,"lon":5.37505,"is_reserved":false,"is_disabled":true,"rental_uris":{"android":"levelo://app?vid=4271307a-1e8f-4ec3-92c3-b1cc077db63a","ios":"levelo://app?vid=4271307a-1e8f-4ec3-92c3-b1cc077db63a"},"vehicle_type_id":"4","last_reported":1732187292,"current_range_meters":36400,"station_id":"ce4bh412rcd13ifvqds0","pricing_plan_id":"cebpf4jnsgd1na2vs0mg"},{"bike_id":"13b56afa-018b-4abe-9633-b9cde5e2bde9","system_id":"levelo_inurba_marseille","lat":43.33716,"lon":5.39175,"is_reserved":false,"is_disabled":false,"rental_uris":{"android":"levelo://app?vid=13b56afa-018b-4abe-9633-b9cde5e2bde9","ios":"levelo://app?vid=13b56afa-018b-4abe-9633-b9cde5e2bde9"},"vehicle_type_id":"4","last_reported":1732187292,"current_range_meters":7200,"station_id":"ce4bhr92rcd13ifvqhsg","pricing_plan_id":"cebpf4jnsgd1na2vs0mg"},{"bike_id":"fae4826f-7cb0-49ab-84f6-0e67dea50443","system_id":"levelo_inurba_marseille","lat":43.27204,"lon":5.39177,"is_reserved":false,"is_disabled":true,"rental_uris":{"android":"levelo://app?vid=fae4826f-7cb0-49ab-84f6-0e67dea50443","ios":"levelo://app?vid=fae4826f-7cb0-49ab-84f6-0e67dea50443"},"vehicle_type_id":"4","last_reported":1732187292,"current_range_meters":0,"station_id":"ce4bhhp2rcd13ifvqfm0","pricing_plan_id":"cebpf4jnsgd1na2vs0mg"},{"bike_id":"b0d9745a-2763-47c2-b16f-7118691d7722","system_id":"levelo_inurba_marseille","lat":43.31168,"lon":5.38721,"is_reserved":false,"is_disabled":false,"rental_uris":{"android":"levelo://app?vid=b0d9745a-2763-47c2-b16f-7118691d7722","ios":"levelo://app?vid=b0d9745a-2763-47c2-b16f-7118691d7722"},"vehicle_type_id":"4","last_reported":1732187292,"current_range_meters":28000,"station_id":"ce4bgv12rcd13ifvqcp0","pricing_plan_id":"cebpf4jnsgd1na2vs0mg"},{"bike_id":"8ae288fe-7f9e-4636-bc68-3daa0c790f34","system_id":"levelo_inurba_marseille","lat":43.24662,"lon":5.38168,"is_reserved":false,"is_disabled":false,"rental_uris":{"android":"levelo://app?vid=8ae288fe-7f9e-4636-bc68-3daa0c790f34","ios":"levelo://app?vid=8ae288fe-7f9e-4636-bc68-3daa0c790f34"},"vehicle_type_id":"4","last_reported":1732187292,"current_range_meters":37600,"station_id":"ce4bhih2rcd13ifvqfr0","pricing_plan_id":"cebpf4jnsgd1na2vs0mg"},{"bike_id":"f8d773ad-6117-441c-8a1f-2ad7889ac928","system_id":"levelo_inurba_marseille","lat":43.28277,"lon":5.35072,"is_reserved":false,"is_disabled":false,"rental_uris":{"android":"levelo://app?vid=f8d773ad-6117-441c-8a1f-2ad7889ac928","ios":"levelo://app?vid=f8d773ad-6117-441c-8a1f-2ad7889ac928"},"vehicle_type_id":"4","last_reported":1732187292,"current_range_meters":32800,"station_id":"ce4bhbp2rcd13ifvqerg","pricing_plan_id":"cebpf4jnsgd1na2vs0mg"},{"bike_id":"f402b1ba-2454-4504-b364-8d8c0c01c0d2","system_id":"levelo_inurba_marseille","lat":43.28486,"lon":5.38574,"is_reserved":false,"is_disabled":false,"rental_uris":{"android":"levelo://app?vid=f402b1ba-2454-4504-b364-8d8c0c01c0d2","ios":"levelo://app?vid=f402b1ba-2454-4504-b364-8d8c0c01c0d2"},"vehicle_type_id":"4","last_reported":1732187292,"current_range_meters":27200,"station_id":"ce4bh8p2rcd13ifvqeb0","pricing_plan_id":"cebpf4jnsgd1na2vs0mg"},{"bike_id":"bb3ce57b-72f6-4d96-aeb1-7a5f6d6e454e","system_id":"levelo_inurba_marseille","lat":43.26566,"lon":5.39004,"is_reserved":false,"is_disabled":false,"rental_uris":{"android":"levelo://app?vid=bb3ce57b-72f6-4d96-aeb1-7a5f6d6e454e","ios":"levelo://app?vid=bb3ce57b-72f6-4d96-aeb1-7a5f6d6e454e"},"vehicle_type_id":"4","last_reported":1732187292,"current_range_meters":4800,"station_id":"ce4bhe12rcd13ifvqf30","pricing_plan_id":"cebpf4jnsgd1na2vs0mg"},{"bike_id":"612e2fb5-5bdd-4493-9d90-eaa49396d072","system_id":"levelo_inurba_marseille","lat":43.30552,"lon":5.36523,"is_reserved":false,"is_disabled":false,"rental_uris":{"android":"levelo://app?vid=612e2fb5-5bdd-4493-9d90-eaa49396d072","ios":"levelo://app?vid=612e2fb5-5bdd-4493-9d90-eaa49396d072"},"vehicle_type_id":"4","last_reported":1732187292,"current_range_meters":38400,"station_id":"ce4bgs12rcd13ifvqcag","pricing_plan_id":"cebpf4jnsgd1na2vs0mg"},{"bike_id":"24618c6c-9f3e-4480-ac3f-3dfa9b93dc99","system_id":"levelo_inurba_marseille","lat":43.27961,"lon":5.41017,"is_reserved":false,"is_disabled":true,"rental_uris":{"android":"levelo://app?vid=24618c6c-9f3e-4480-ac3f-3dfa9b93dc99","ios":"levelo://app?vid=24618c6c-9f3e-4480-ac3f-3dfa9b93dc99"},"vehicle_type_id":"4","last_reported":1732187292,"current_range_meters":0,"station_id":"ce4bhnp2rcd13ifvqh0g","pricing_plan_id":"cebpf4jnsgd1na2vs0mg"},{"bike_id":"d67adecc-f4bc-486c-995c-7f6c894d54fe","system_id":"levelo_inurba_marseille","lat":43.2991,"lon":5.3747,"is_reserved":false,"is_disabled":false,"rental_uris":{"android":"levelo://app?vid=d67adecc-f4bc-486c-995c-7f6c894d54fe","ios":"levelo://app?vid=d67adecc-f4bc-486c-995c-7f6c894d54fe"},"vehicle_type_id":"4","last_reported":1732187292,"current_range_meters":38800,"station_id":"ce4bgjh2rcd13ifvqbg0","pricing_plan_id":"cebpf4jnsgd1na2vs0mg"},{"bike_id":"a72de0fb-a9f5-4a11-a126-f1a4a586a23a","system_id":"levelo_inurba_marseille","lat":43.30276,"lon":5.37698,"is_reserved":false,"is_disabled":false,"rental_uris":{"android":"levelo://app?vid=a72de0fb-a9f5-4a11-a126-f1a4a586a23a","ios":"levelo://app?vid=a72de0fb-a9f5-4a11-a126-f1a4a586a23a"},"vehicle_type_id":"4","last_reported":1732187292,"current_range_meters":17200,"station_id":"ce4bguh2rcd13ifvqcj0","pricing_plan_id":"cebpf4jnsgd1na2vs0mg"},{"bike_id":"889549f4-52db-4c10-8952-2d713c9cb7e7","system_id":"levelo_inurba_marseille","lat":43.24081,"lon":5.37744,"is_reserved":false,"is_disabled":false,"rental_uris":{"android":"levelo://app?vid=889549f4-52db-4c10-8952-2d713c9cb7e7","ios":"levelo://app?vid=889549f4-52db-4c10-8952-2d713c9cb7e7"},"vehicle_type_id":"4","last_reported":1732187292,"current_range_meters":39200,"station_id":"ce4bhnp2rcd13ifvqgvg","pricing_plan_id":"cebpf4jnsgd1na2vs0mg"},{"bike_id":"0fc41ac5-7b74-48a7-a8e3-a8231ac024dd","system_id":"levelo_inurba_marseille","lat":43.27917,"lon":5.39571,"is_reserved":false,"is_disabled":false,"rental_uris":{"android":"levelo://app?vid=0fc41ac5-7b74-48a7-a8e3-a8231ac024dd","ios":"levelo://app?vid=0fc41ac5-7b74-48a7-a8e3-a8231ac024dd"},"vehicle_type_id":"4","last_reported":1732187292,"current_range_meters":10000,"station_id":"ce4bhf92rcd13ifvqf40","pricing_plan_id":"cebpf4jnsgd1na2vs0mg"},{"bike_id":"089fadd4-bd3e-433a-b4d1-be4d9cb61c9f","system_id":"levelo_inurba_marseille","lat":43.30147,"lon":5.37418,"is_reserved":false,"is_disabled":false,"rental_uris":{"android":"levelo://app?vid=089fadd4-bd3e-433a-b4d1-be4d9cb61c9f","ios":"levelo://app?vid=089fadd4-bd3e-433a-b4d1-be4d9cb61c9f"},"vehicle_type_id":"4","last_reported":1732187292,"current_range_meters":26000,"station_id":"ce4bgs92rcd13ifvqcc0","pricing_plan_id":"cebpf4jnsgd1na2vs0mg"},{"bike_id":"8fff82c0-94c8-4109-9d0c-0de6261ecbde","system_id":"levelo_inurba_marseille","lat":43.26556,"lon":5.3728,"is_reserved":false,"is_disabled":false,"rental_uris":{"android":"levelo://app?vid=8fff82c0-94c8-4109-9d0c-0de6261ecbde","ios":"levelo://app?vid=8fff82c0-94c8-4109-9d0c-0de6261ecbde"},"vehicle_type_id":"4","last_reported":1732187292,"current_range_meters":38800,"station_id":"ce4bhg12rcd13ifvqf70","pricing_plan_id":"cebpf4jnsgd1na2vs0mg"},{"bike_id":"52cf5535-a63e-4b7f-a2e2-caef9122fcae","system_id":"levelo_inurba_marseille","lat":43.3013,"lon":5.39864,"is_reserved":false,"is_disabled":false,"rental_uris":{"android":"levelo://app?vid=52cf5535-a63e-4b7f-a2e2-caef9122fcae","ios":"levelo://app?vid=52cf5535-a63e-4b7f-a2e2-caef9122fcae"},"vehicle_type_id":"4","last_reported":1732187292,"current_range_meters":38000,"station_id":"ce4bh0h2rcd13ifvqd40","pricing_plan_id":"cebpf4jnsgd1na2vs0mg"},{"bike_id":"519aef3f-1ad2-4edb-bb0d-161b0166ade4","system_id":"levelo_inurba_marseille","lat":43.2894,"lon":5.39632,"is_reserved":false,"is_disabled":true,"rental_uris":{"android":"levelo://app?vid=519aef3f-1ad2-4edb-bb0d-161b0166ade4","ios":"levelo://app?vid=519aef3f-1ad2-4edb-bb0d-161b0166ade4"},"vehicle_type_id":"4","last_reported":1732187292,"current_range_meters":11600,"station_id":"ce4bh3h2rcd13ifvqdn0","pricing_plan_id":"cebpf4jnsgd1na2vs0mg"},{"bike_id":"1a51f640-6b48-41c3-8e7d-c6952041deac","system_id":"levelo_inurba_marseille","lat":43.29801,"lon":5.40409,"is_reserved":false,"is_disabled":false,"rental_uris":{"android":"levelo://app?vid=1a51f640-6b48-41c3-8e7d-c6952041deac","ios":"levelo://app?vid=1a51f640-6b48-41c3-8e7d-c6952041deac"},"vehicle_type_id":"4","last_reported":1732187292,"current_range_meters":20800,"station_id":"ce4bh112rcd13ifvqd90","pricing_plan_id":"cebpf4jnsgd1na2vs0mg"},{"bike_id":"b56ed195-7dba-449c-a550-4356820895ad","system_id":"levelo_inurba_marseille","lat":43.25117,"lon":5.40318,"is_reserved":false,"is_disabled":false,"rental_uris":{"android":"levelo://app?vid=b56ed195-7dba-449c-a550-4356820895ad","ios":"levelo://app?vid=b56ed195-7dba-449c-a550-4356820895ad"},"vehicle_type_id":"4","last_reported":1732187292,"current_range_meters":38800,"station_id":"ce4bhlh2rcd13ifvqgig","pricing_plan_id":"cebpf4jnsgd1na2vs0mg"},{"bike_id":"5d65b627-3435-4723-9775-b5218e9b2a7a","system_id":"levelo_inurba_marseille","lat":43.27207,"lon":5.39186,"is_reserved":false,"is_disabled":true,"rental_uris":{"android":"levelo://app?vid=5d65b627-3435-4723-9775-b5218e9b2a7a","ios":"levelo://app?vid=5d65b627-3435-4723-9775-b5218e9b2a7a"},"vehicle_type_id":"4","last_reported":1732187292,"current_range_meters":3600,"station_id":"ce4bhhp2rcd13ifvqfm0","pricing_plan_id":"cebpf4jnsgd1na2vs0mg"},{"bike_id":"9c2f56c3-b6c0-4a04-ad1c-456b29248b9e","system_id":"levelo_inurba_marseille","lat":43.30543,"lon":5.36712,"is_reserved":false,"is_disabled":false,"rental_uris":{"android":"levelo://app?vid=9c2f56c3-b6c0-4a04-ad1c-456b29248b9e","ios":"levelo://app?vid=9c2f56c3-b6c0-4a04-ad1c-456b29248b9e"},"vehicle_type_id":"4","last_reported":1732187292,"current_range_meters":27200,"station_id":"ce4bgrp2rcd13ifvqc9g","pricing_plan_id":"cebpf4jnsgd1na2vs0mg"},{"bike_id":"32c2fe9f-a607-4c07-a100-4beef28636ed","system_id":"levelo_inurba_marseille","lat":43.32479,"lon":5.36566,"is_reserved":false,"is_disabled":false,"rental_uris":{"android":"levelo://app?vid=32c2fe9f-a607-4c07-a100-4beef28636ed","ios":"levelo://app?vid=32c2fe9f-a607-4c07-a100-4beef28636ed"},"vehicle_type_id":"4","last_reported":1732187292,"current_range_meters":25600,"station_id":"ce4bhs12rcd13ifvqhvg","pricing_plan_id":"cebpf4jnsgd1na2vs0mg"},{"bike_id":"43c8e9b3-9b4a-4510-a969-75b32db670f0","system_id":"levelo_inurba_marseille","lat":43.26787,"lon":5.39416,"is_reserved":false,"is_disabled":true,"rental_uris":{"android":"levelo://app?vid=43c8e9b3-9b4a-4510-a969-75b32db670f0","ios":"levelo://app?vid=43c8e9b3-9b4a-4510-a969-75b32db670f0"},"vehicle_type_id":"4","last_reported":1732187292,"current_range_meters":0,"station_id":"ce4bhh12rcd13ifvqfg0","pricing_plan_id":"cebpf4jnsgd1na2vs0mg"},{"bike_id":"1904e4d6-e1e0-456f-9800-8b0e0e7107b4","system_id":"levelo_inurba_marseille","lat":43.23152,"lon":5.43708,"is_reserved":false,"is_disabled":false,"rental_uris":{"android":"levelo://app?vid=1904e4d6-e1e0-456f-9800-8b0e0e7107b4","ios":"levelo://app?vid=1904e4d6-e1e0-456f-9800-8b0e0e7107b4"},"vehicle_type_id":"4","last_reported":1732187292,"current_range_meters":39200,"station_id":"ce4bhmp2rcd13ifvqgog","pricing_plan_id":"cebpf4jnsgd1na2vs0mg"},{"bike_id":"8a3c98a5-40a4-477c-bac4-fe951a1c5169","system_id":"levelo_inurba_marseille","lat":43.26677,"lon":5.38265,"is_reserved":false,"is_disabled":false,"rental_uris":{"android":"levelo://app?vid=8a3c98a5-40a4-477c-bac4-fe951a1c5169","ios":"levelo://app?vid=8a3c98a5-40a4-477c-bac4-fe951a1c5169"},"vehicle_type_id":"4","last_reported":1732187292,"current_range_meters":24000,"station_id":"ce4bhg92rcd13ifvqf90","pricing_plan_id":"cebpf4jnsgd1na2vs0mg"},{"bike_id":"1eff5ce5-2d56-4465-a12c-60db9ec2175a","system_id":"levelo_inurba_marseille","lat":43.22931,"lon":5.35371,"is_reserved":false,"is_disabled":false,"rental_uris":{"android":"levelo://app?vid=1eff5ce5-2d56-4465-a12c-60db9ec2175a","ios":"levelo://app?vid=1eff5ce5-2d56-4465-a12c-60db9ec2175a"},"vehicle_type_id":"4","last_reported":1732187292,"current_range_meters":10000,"station_id":"cpo3532slgdg3j2ikp40","pricing_plan_id":"cebpf4jnsgd1na2vs0mg"},{"bike_id":"ce6d46e5-4223-4bce-a0db-85f63ca84039","system_id":"levelo_inurba_marseille","lat":43.3015,"lon":5.4005,"is_reserved":false,"is_disabled":true,"rental_uris":{"android":"levelo://app?vid=ce6d46e5-4223-4bce-a0db-85f63ca84039","ios":"levelo://app?vid=ce6d46e5-4223-4bce-a0db-85f63ca84039"},"vehicle_type_id":"4","last_reported":1732187292,"current_range_meters":2800,"station_id":"","pricing_plan_id":"cebpf4jnsgd1na2vs0mg"},{"bike_id":"dc815649-e3e3-48aa-b0fd-022cdb8ac58a","system_id":"levelo_inurba_marseille","lat":43.32368,"lon":5.38889,"is_reserved":false,"is_disabled":false,"rental_uris":{"android":"levelo://app?vid=dc815649-e3e3-48aa-b0fd-022cdb8ac58a","ios":"levelo://app?vid=dc815649-e3e3-48aa-b0fd-022cdb8ac58a"},"vehicle_type_id":"4","last_reported":1732187292,"current_range_meters":8400,"station_id":"ce4bhqp2rcd13ifvqhog","pricing_plan_id":"cebpf4jnsgd1na2vs0mg"},{"bike_id":"77f33faa-058c-4caf-a980-cba04db4b198","system_id":"levelo_inurba_marseille","lat":43.28613,"lon":5.35106,"is_reserved":false,"is_disabled":false,"rental_uris":{"android":"levelo://app?vid=77f33faa-058c-4caf-a980-cba04db4b198","ios":"levelo://app?vid=77f33faa-058c-4caf-a980-cba04db4b198"},"vehicle_type_id":"4","last_reported":1732187292,"current_range_meters":27600,"station_id":"ce4bhch2rcd13ifvqeug","pricing_plan_id":"cebpf4jnsgd1na2vs0mg"},{"bike_id":"7ec34146-21cc-45f2-97f0-73eca315446c","system_id":"levelo_inurba_marseille","lat":43.2679,"lon":5.39409,"is_reserved":false,"is_disabled":false,"rental_uris":{"android":"levelo://app?vid=7ec34146-21cc-45f2-97f0-73eca315446c","ios":"levelo://app?vid=7ec34146-21cc-45f2-97f0-73eca315446c"},"vehicle_type_id":"4","last_reported":1732187292,"current_range_meters":34800,"station_id":"ce4bhh12rcd13ifvqfg0","pricing_plan_id":"cebpf4jnsgd1na2vs0mg"},{"bike_id":"995530e1-b419-4e95-b02a-89f607b334d6","system_id":"levelo_inurba_marseille","lat":43.27999,"lon":5.40012,"is_reserved":false,"is_disabled":false,"rental_uris":{"android":"levelo://app?vid=995530e1-b419-4e95-b02a-89f607b334d6","ios":"levelo://app?vid=995530e1-b419-4e95-b02a-89f607b334d6"},"vehicle_type_id":"4","last_reported":1732187292,"current_range_meters":36000,"station_id":"ce4bho92rcd13ifvqh4g","pricing_plan_id":"cebpf4jnsgd1na2vs0mg"},{"bike_id":"6e1202d7-79a0-4929-9ed3-a6242fdc8587","system_id":"levelo_inurba_marseille","lat":43.25578,"lon":5.38235,"is_reserved":false,"is_disabled":false,"rental_uris":{"android":"levelo://app?vid=6e1202d7-79a0-4929-9ed3-a6242fdc8587","ios":"levelo://app?vid=6e1202d7-79a0-4929-9ed3-a6242fdc8587"},"vehicle_type_id":"4","last_reported":1732187292,"current_range_meters":38400,"station_id":"ce4bhih2rcd13ifvqfs0","pricing_plan_id":"cebpf4jnsgd1na2vs0mg"},{"bike_id":"e8edf841-94ff-4efb-939d-b3afba07f79a","system_id":"levelo_inurba_marseille","lat":43.31321,"lon":5.3969,"is_reserved":false,"is_disabled":false,"rental_uris":{"android":"levelo://app?vid=e8edf841-94ff-4efb-939d-b3afba07f79a","ios":"levelo://app?vid=e8edf841-94ff-4efb-939d-b3afba07f79a"},"vehicle_type_id":"4","last_reported":1732187292,"current_range_meters":19200,"station_id":"ce4bgvp2rcd13ifvqcu0","pricing_plan_id":"cebpf4jnsgd1na2vs0mg"},{"bike_id":"d5e18f5c-b2ab-4047-84c8-18de805c95b5","system_id":"levelo_inurba_marseille","lat":43.26941,"lon":5.38632,"is_reserved":false,"is_disabled":true,"rental_uris":{"android":"levelo://app?vid=d5e18f5c-b2ab-4047-84c8-18de805c95b5","ios":"levelo://app?vid=d5e18f5c-b2ab-4047-84c8-18de805c95b5"},"vehicle_type_id":"4","last_reported":1732187292,"current_range_meters":8400,"station_id":"ce4bhh92rcd13ifvqfh0","pricing_plan_id":"cebpf4jnsgd1na2vs0mg"},{"bike_id":"87bdbe60-5511-4418-a4e4-682b5da37bfd","system_id":"levelo_inurba_marseille","lat":43.25865,"lon":5.39897,"is_reserved":false,"is_disabled":true,"rental_uris":{"android":"levelo://app?vid=87bdbe60-5511-4418-a4e4-682b5da37bfd","ios":"levelo://app?vid=87bdbe60-5511-4418-a4e4-682b5da37bfd"},"vehicle_type_id":"4","last_reported":1732187292,"current_range_meters":38000,"station_id":"ce4bhl92rcd13ifvqghg","pricing_plan_id":"cebpf4jnsgd1na2vs0mg"},{"bike_id":"47052fe1-a05c-49c3-b626-f5c628f20fc0","system_id":"levelo_inurba_marseille","lat":43.29096,"lon":5.38131,"is_reserved":false,"is_disabled":false,"rental_uris":{"android":"levelo://app?vid=47052fe1-a05c-49c3-b626-f5c628f20fc0","ios":"levelo://app?vid=47052fe1-a05c-49c3-b626-f5c628f20fc0"},"vehicle_type_id":"4","last_reported":1732187292,"current_range_meters":39200,"station_id":"ce4bh512rcd13ifvqe2g","pricing_plan_id":"cebpf4jnsgd1na2vs0mg"},{"bike_id":"c74528e0-ae6e-446f-b436-91ec4ca23880","system_id":"levelo_inurba_marseille","lat":43.28475,"lon":5.3855,"is_reserved":false,"is_disabled":true,"rental_uris":{"android":"levelo://app?vid=c74528e0-ae6e-446f-b436-91ec4ca23880","ios":"levelo://app?vid=c74528e0-ae6e-446f-b436-91ec4ca23880"},"vehicle_type_id":"4","last_reported":1732187292,"current_range_meters":6400,"station_id":"ce4bh8p2rcd13ifvqeb0","pricing_plan_id":"cebpf4jnsgd1na2vs0mg"},{"bike_id":"9b3fbf62-4f4c-46b4-9c62-9854a41b7d49","system_id":"levelo_inurba_marseille","lat":43.31706,"lon":5.37759,"is_reserved":false,"is_disabled":false,"rental_uris":{"android":"levelo://app?vid=9b3fbf62-4f4c-46b4-9c62-9854a41b7d49","ios":"levelo://app?vid=9b3fbf62-4f4c-46b4-9c62-9854a41b7d49"},"vehicle_type_id":"4","last_reported":1732187292,"current_range_meters":38800,"station_id":"ce4bgth2rcd13ifvqch0","pricing_plan_id":"cebpf4jnsgd1na2vs0mg"},{"bike_id":"cf61680d-5115-4748-ad58-157c0370fbd6","system_id":"levelo_inurba_marseille","lat":43.33607,"lon":5.41029,"is_reserved":false,"is_disabled":false,"rental_uris":{"android":"levelo://app?vid=cf61680d-5115-4748-ad58-157c0370fbd6","ios":"levelo://app?vid=cf61680d-5115-4748-ad58-157c0370fbd6"},"vehicle_type_id":"4","last_reported":1732187292,"current_range_meters":14000,"station_id":"ce4bhqh2rcd13ifvqhmg","pricing_plan_id":"cebpf4jnsgd1na2vs0mg"},{"bike_id":"7eaf5910-b4db-4259-961f-d6ce83b4b295","system_id":"levelo_inurba_marseille","lat":43.33764,"lon":5.37443,"is_reserved":false,"is_disabled":false,"rental_uris":{"android":"levelo://app?vid=7eaf5910-b4db-4259-961f-d6ce83b4b295","ios":"levelo://app?vid=7eaf5910-b4db-4259-961f-d6ce83b4b295"},"vehicle_type_id":"4","last_reported":1732187292,"current_range_meters":38400,"station_id":"","pricing_plan_id":"cebpf4jnsgd1na2vs0mg"},{"bike_id":"42d6fa67-3d3d-427c-a63a-15e267a4a6ee","system_id":"levelo_inurba_marseille","lat":43.27957,"lon":5.41046,"is_reserved":false,"is_disabled":true,"rental_uris":{"android":"levelo://app?vid=42d6fa67-3d3d-427c-a63a-15e267a4a6ee","ios":"levelo://app?vid=42d6fa67-3d3d-427c-a63a-15e267a4a6ee"},"vehicle_type_id":"4","last_reported":1732187292,"current_range_meters":24000,"station_id":"ce4bhnp2rcd13ifvqh0g","pricing_plan_id":"cebpf4jnsgd1na2vs0mg"},{"bike_id":"dd44fd55-371c-46e9-a01e-4d7bedae8a2e","system_id":"levelo_inurba_marseille","lat":43.29958,"lon":5.41312,"is_reserved":false,"is_disabled":false,"rental_uris":{"android":"levelo://app?vid=dd44fd55-371c-46e9-a01e-4d7bedae8a2e","ios":"levelo://app?vid=dd44fd55-371c-46e9-a01e-4d7bedae8a2e"},"vehicle_type_id":"4","last_reported":1732187292,"current_range_meters":38400,"station_id":"ce4bhp12rcd13ifvqh9g","pricing_plan_id":"cebpf4jnsgd1na2vs0mg"},{"bike_id":"a5e930ec-bd17-4fd5-804e-783bf99d3d71","system_id":"levelo_inurba_marseille","lat":43.26682,"lon":5.38265,"is_reserved":false,"is_disabled":false,"rental_uris":{"android":"levelo://app?vid=a5e930ec-bd17-4fd5-804e-783bf99d3d71","ios":"levelo://app?vid=a5e930ec-bd17-4fd5-804e-783bf99d3d71"},"vehicle_type_id":"4","last_reported":1732187292,"current_range_meters":38800,"station_id":"ce4bhg92rcd13ifvqf90","pricing_plan_id":"cebpf4jnsgd1na2vs0mg"},{"bike_id":"6a1cf72b-8b4d-4929-af84-9c436a903bb4","system_id":"levelo_inurba_marseille","lat":43.2991,"lon":5.37467,"is_reserved":false,"is_disabled":false,"rental_uris":{"android":"levelo://app?vid=6a1cf72b-8b4d-4929-af84-9c436a903bb4","ios":"levelo://app?vid=6a1cf72b-8b4d-4929-af84-9c436a903bb4"},"vehicle_type_id":"4","last_reported":1732187292,"current_range_meters":39200,"station_id":"ce4bgjh2rcd13ifvqbg0","pricing_plan_id":"cebpf4jnsgd1na2vs0mg"},{"bike_id":"27132460-ee92-417e-8642-f67ad1ce2f8b","system_id":"levelo_inurba_marseille","lat":43.293672,"lon":5.378377,"is_reserved":false,"is_disabled":false,"rental_uris":{"android":"levelo://app?vid=27132460-ee92-417e-8642-f67ad1ce2f8b","ios":"levelo://app?vid=27132460-ee92-417e-8642-f67ad1ce2f8b"},"vehicle_type_id":"4","last_reported":1732187292,"current_range_meters":38000,"station_id":"ce4bgjh2rcd13ifvqbf0","pricing_plan_id":"cebpf4jnsgd1na2vs0mg"},{"bike_id":"b40ede3d-3df1-4e75-aa7c-f784505f0ad9","system_id":"levelo_inurba_marseille","lat":43.31995,"lon":5.38139,"is_reserved":false,"is_disabled":false,"rental_uris":{"android":"levelo://app?vid=b40ede3d-3df1-4e75-aa7c-f784505f0ad9","ios":"levelo://app?vid=b40ede3d-3df1-4e75-aa7c-f784505f0ad9"},"vehicle_type_id":"4","last_reported":1732187292,"current_range_meters":38800,"station_id":"ce4bhr12rcd13ifvqhpg","pricing_plan_id":"cebpf4jnsgd1na2vs0mg"},{"bike_id":"01c81827-d820-4edc-9a26-38eac8bf434e","system_id":"levelo_inurba_marseille","lat":43.30142,"lon":5.38779,"is_reserved":false,"is_disabled":false,"rental_uris":{"android":"levelo://app?vid=01c81827-d820-4edc-9a26-38eac8bf434e","ios":"levelo://app?vid=01c81827-d820-4edc-9a26-38eac8bf434e"},"vehicle_type_id":"4","last_reported":1732187292,"current_range_meters":25600,"station_id":"ce4bghh2rcd13ifvqb60","pricing_plan_id":"cebpf4jnsgd1na2vs0mg"},{"bike_id":"5b5f4604-3a82-4584-a08b-4bc79bf3d12b","system_id":"levelo_inurba_marseille","lat":43.30911,"lon":5.37162,"is_reserved":false,"is_disabled":false,"rental_uris":{"android":"levelo://app?vid=5b5f4604-3a82-4584-a08b-4bc79bf3d12b","ios":"levelo://app?vid=5b5f4604-3a82-4584-a08b-4bc79bf3d12b"},"vehicle_type_id":"4","last_reported":1732187292,"current_range_meters":9200,"station_id":"ce4bguh2rcd13ifvqckg","pricing_plan_id":"cebpf4jnsgd1na2vs0mg"},{"bike_id":"1a88079e-ca3a-4e16-9bb1-2dbd342dd3a2","system_id":"levelo_inurba_marseille","lat":43.27203,"lon":5.39189,"is_reserved":false,"is_disabled":true,"rental_uris":{"android":"levelo://app?vid=1a88079e-ca3a-4e16-9bb1-2dbd342dd3a2","ios":"levelo://app?vid=1a88079e-ca3a-4e16-9bb1-2dbd342dd3a2"},"vehicle_type_id":"4","last_reported":1732187292,"current_range_meters":10000,"station_id":"ce4bhhp2rcd13ifvqfm0","pricing_plan_id":"cebpf4jnsgd1na2vs0mg"},{"bike_id":"1d0e6f9d-ffe0-4f98-a2ea-2e9800754c1c","system_id":"levelo_inurba_marseille","lat":43.32473,"lon":5.36576,"is_reserved":false,"is_disabled":false,"rental_uris":{"android":"levelo://app?vid=1d0e6f9d-ffe0-4f98-a2ea-2e9800754c1c","ios":"levelo://app?vid=1d0e6f9d-ffe0-4f98-a2ea-2e9800754c1c"},"vehicle_type_id":"4","last_reported":1732187292,"current_range_meters":30000,"station_id":"ce4bhs12rcd13ifvqhvg","pricing_plan_id":"cebpf4jnsgd1na2vs0mg"},{"bike_id":"436225a6-4694-4ff0-bed2-3c1da85ae302","system_id":"levelo_inurba_marseille","lat":43.30541,"lon":5.36711,"is_reserved":false,"is_disabled":false,"rental_uris":{"android":"levelo://app?vid=436225a6-4694-4ff0-bed2-3c1da85ae302","ios":"levelo://app?vid=436225a6-4694-4ff0-bed2-3c1da85ae302"},"vehicle_type_id":"4","last_reported":1732187292,"current_range_meters":38800,"station_id":"ce4bgrp2rcd13ifvqc9g","pricing_plan_id":"cebpf4jnsgd1na2vs0mg"},{"bike_id":"552ae1f9-34eb-4d70-a19b-3616d3661778","system_id":"levelo_inurba_marseille","lat":43.33721,"lon":5.3918,"is_reserved":false,"is_disabled":false,"rental_uris":{"android":"levelo://app?vid=552ae1f9-34eb-4d70-a19b-3616d3661778","ios":"levelo://app?vid=552ae1f9-34eb-4d70-a19b-3616d3661778"},"vehicle_type_id":"4","last_reported":1732187292,"current_range_meters":30000,"station_id":"ce4bhr92rcd13ifvqhsg","pricing_plan_id":"cebpf4jnsgd1na2vs0mg"},{"bike_id":"1bf91585-1655-41ca-aa3f-ff0ba6e8cc52","system_id":"levelo_inurba_marseille","lat":43.33026,"lon":5.3904,"is_reserved":false,"is_disabled":false,"rental_uris":{"android":"levelo://app?vid=1bf91585-1655-41ca-aa3f-ff0ba6e8cc52","ios":"levelo://app?vid=1bf91585-1655-41ca-aa3f-ff0ba6e8cc52"},"vehicle_type_id":"4","last_reported":1732187292,"current_range_meters":34800,"station_id":"ce4bhr92rcd13ifvqhrg","pricing_plan_id":"cebpf4jnsgd1na2vs0mg"},{"bike_id":"c7918193-fa65-4835-86b6-87f36f654569","system_id":"levelo_inurba_marseille","lat":43.2315,"lon":5.43725,"is_reserved":false,"is_disabled":false,"rental_uris":{"android":"levelo://app?vid=c7918193-fa65-4835-86b6-87f36f654569","ios":"levelo://app?vid=c7918193-fa65-4835-86b6-87f36f654569"},"vehicle_type_id":"4","last_reported":1732187292,"current_range_meters":24400,"station_id":"ce4bhmp2rcd13ifvqgog","pricing_plan_id":"cebpf4jnsgd1na2vs0mg"},{"bike_id":"1301efea-ff5b-4e24-b39d-c9c465af4db2","system_id":"levelo_inurba_marseille","lat":43.24543,"lon":5.39522,"is_reserved":false,"is_disabled":false,"rental_uris":{"android":"levelo://app?vid=1301efea-ff5b-4e24-b39d-c9c465af4db2","ios":"levelo://app?vid=1301efea-ff5b-4e24-b39d-c9c465af4db2"},"vehicle_type_id":"4","last_reported":1732187292,"current_range_meters":24800,"station_id":"ce4bhlp2rcd13ifvqgjg","pricing_plan_id":"cebpf4jnsgd1na2vs0mg"},{"bike_id":"7a942108-16ea-4f98-9d80-82c238759071","system_id":"levelo_inurba_marseille","lat":43.29568,"lon":5.39961,"is_reserved":false,"is_disabled":true,"rental_uris":{"android":"levelo://app?vid=7a942108-16ea-4f98-9d80-82c238759071","ios":"levelo://app?vid=7a942108-16ea-4f98-9d80-82c238759071"},"vehicle_type_id":"4","last_reported":1732187292,"current_range_meters":34800,"station_id":"ce4bh312rcd13ifvqdj0","pricing_plan_id":"cebpf4jnsgd1na2vs0mg"},{"bike_id":"028e5427-36e2-49e1-b3db-260058fffb58","system_id":"levelo_inurba_marseille","lat":43.25574,"lon":5.38231,"is_reserved":false,"is_disabled":false,"rental_uris":{"android":"levelo://app?vid=028e5427-36e2-49e1-b3db-260058fffb58","ios":"levelo://app?vid=028e5427-36e2-49e1-b3db-260058fffb58"},"vehicle_type_id":"4","last_reported":1732187292,"current_range_meters":24000,"station_id":"ce4bhih2rcd13ifvqfs0","pricing_plan_id":"cebpf4jnsgd1na2vs0mg"},{"bike_id":"29463371-d946-47f6-9abd-c0f575df9a0e","system_id":"levelo_inurba_marseille","lat":43.29278,"lon":5.40115,"is_reserved":false,"is_disabled":false,"rental_uris":{"android":"levelo://app?vid=29463371-d946-47f6-9abd-c0f575df9a0e","ios":"levelo://app?vid=29463371-d946-47f6-9abd-c0f575df9a0e"},"vehicle_type_id":"4","last_reported":1732187292,"current_range_meters":11200,"station_id":"ce4bh312rcd13ifvqdk0","pricing_plan_id":"cebpf4jnsgd1na2vs0mg"},{"bike_id":"ced66872-059d-4268-815d-080a073d130d","system_id":"levelo_inurba_marseille","lat":43.33601,"lon":5.41027,"is_reserved":false,"is_disabled":false,"rental_uris":{"android":"levelo://app?vid=ced66872-059d-4268-815d-080a073d130d","ios":"levelo://app?vid=ced66872-059d-4268-815d-080a073d130d"},"vehicle_type_id":"4","last_reported":1732187292,"current_range_meters":11600,"station_id":"ce4bhqh2rcd13ifvqhmg","pricing_plan_id":"cebpf4jnsgd1na2vs0mg"},{"bike_id":"7e17a81f-3b24-49e1-a5fc-e88f9462d78d","system_id":"levelo_inurba_marseille","lat":43.28414,"lon":5.40929,"is_reserved":false,"is_disabled":false,"rental_uris":{"android":"levelo://app?vid=7e17a81f-3b24-49e1-a5fc-e88f9462d78d","ios":"levelo://app?vid=7e17a81f-3b24-49e1-a5fc-e88f9462d78d"},"vehicle_type_id":"4","last_reported":1732187292,"current_range_meters":9200,"station_id":"","pricing_plan_id":"cebpf4jnsgd1na2vs0mg"},{"bike_id":"0d5efe48-32bd-461f-be09-c1d5e2d6ef37","system_id":"levelo_inurba_marseille","lat":43.32363,"lon":5.38881,"is_reserved":false,"is_disabled":false,"rental_uris":{"android":"levelo://app?vid=0d5efe48-32bd-461f-be09-c1d5e2d6ef37","ios":"levelo://app?vid=0d5efe48-32bd-461f-be09-c1d5e2d6ef37"},"vehicle_type_id":"4","last_reported":1732187292,"current_range_meters":38000,"station_id":"ce4bhqp2rcd13ifvqhog","pricing_plan_id":"cebpf4jnsgd1na2vs0mg"},{"bike_id":"feef18d9-267d-4d53-86f9-9c4304aa064a","system_id":"levelo_inurba_marseille","lat":43.26935,"lon":5.38907,"is_reserved":false,"is_disabled":false,"rental_uris":{"android":"levelo://app?vid=feef18d9-267d-4d53-86f9-9c4304aa064a","ios":"levelo://app?vid=feef18d9-267d-4d53-86f9-9c4304aa064a"},"vehicle_type_id":"4","last_reported":1732187292,"current_range_meters":38800,"station_id":"ce4bhhh2rcd13ifvqfl0","pricing_plan_id":"cebpf4jnsgd1na2vs0mg"},{"bike_id":"1deabaa7-1d02-474d-b833-0dc5ee1bcadb","system_id":"levelo_inurba_marseille","lat":43.28422,"lon":5.34985,"is_reserved":false,"is_disabled":false,"rental_uris":{"android":"levelo://app?vid=1deabaa7-1d02-474d-b833-0dc5ee1bcadb","ios":"levelo://app?vid=1deabaa7-1d02-474d-b833-0dc5ee1bcadb"},"vehicle_type_id":"4","last_reported":1732187292,"current_range_meters":38000,"station_id":"ce4bhbh2rcd13ifvqepg","pricing_plan_id":"cebpf4jnsgd1na2vs0mg"},{"bike_id":"2299b820-f196-4260-94c0-b18365bdbb31","system_id":"levelo_inurba_marseille","lat":43.29293,"lon":5.3745,"is_reserved":false,"is_disabled":false,"rental_uris":{"android":"levelo://app?vid=2299b820-f196-4260-94c0-b18365bdbb31","ios":"levelo://app?vid=2299b820-f196-4260-94c0-b18365bdbb31"},"vehicle_type_id":"4","last_reported":1732187292,"current_range_meters":22800,"station_id":"ce4bgi12rcd13ifvqb70","pricing_plan_id":"cebpf4jnsgd1na2vs0mg"},{"bike_id":"41b66025-5082-421d-922c-552de41f1f1b","system_id":"levelo_inurba_marseille","lat":43.33754,"lon":5.37448,"is_reserved":false,"is_disabled":false,"rental_uris":{"android":"levelo://app?vid=41b66025-5082-421d-922c-552de41f1f1b","ios":"levelo://app?vid=41b66025-5082-421d-922c-552de41f1f1b"},"vehicle_type_id":"4","last_reported":1732187292,"current_range_meters":37600,"station_id":"","pricing_plan_id":"cebpf4jnsgd1na2vs0mg"},{"bike_id":"74e778eb-ec7c-4bce-9674-2a045167f6a2","system_id":"levelo_inurba_marseille","lat":43.29902,"lon":5.38129,"is_reserved":false,"is_disabled":false,"rental_uris":{"android":"levelo://app?vid=74e778eb-ec7c-4bce-9674-2a045167f6a2","ios":"levelo://app?vid=74e778eb-ec7c-4bce-9674-2a045167f6a2"},"vehicle_type_id":"4","last_reported":1732187292,"current_range_meters":38000,"station_id":"ce4bgj12rcd13ifvqbc0","pricing_plan_id":"cebpf4jnsgd1na2vs0mg"},{"bike_id":"0afcb3e2-570a-4027-86e1-4d1b78253615","system_id":"levelo_inurba_marseille","lat":43.32542,"lon":5.41436,"is_reserved":false,"is_disabled":false,"rental_uris":{"android":"levelo://app?vid=0afcb3e2-570a-4027-86e1-4d1b78253615","ios":"levelo://app?vid=0afcb3e2-570a-4027-86e1-4d1b78253615"},"vehicle_type_id":"4","last_reported":1732187292,"current_range_meters":38800,"station_id":"ce4bhq12rcd13ifvqhhg","pricing_plan_id":"cebpf4jnsgd1na2vs0mg"},{"bike_id":"e092006c-73fc-47d0-9953-16a161a38977","system_id":"levelo_inurba_marseille","lat":43.30185,"lon":5.36609,"is_reserved":false,"is_disabled":false,"rental_uris":{"android":"levelo://app?vid=e092006c-73fc-47d0-9953-16a161a38977","ios":"levelo://app?vid=e092006c-73fc-47d0-9953-16a161a38977"},"vehicle_type_id":"4","last_reported":1732187292,"current_range_meters":24400,"station_id":"ce4bgrh2rcd13ifvqc8g","pricing_plan_id":"cebpf4jnsgd1na2vs0mg"},{"bike_id":"0aeb214c-fde7-45c8-b020-03be17efcbb9","system_id":"levelo_inurba_marseille","lat":43.33027,"lon":5.39042,"is_reserved":false,"is_disabled":false,"rental_uris":{"android":"levelo://app?vid=0aeb214c-fde7-45c8-b020-03be17efcbb9","ios":"levelo://app?vid=0aeb214c-fde7-45c8-b020-03be17efcbb9"},"vehicle_type_id":"4","last_reported":1732187292,"current_range_meters":29600,"station_id":"ce4bhr92rcd13ifvqhrg","pricing_plan_id":"cebpf4jnsgd1na2vs0mg"},{"bike_id":"ca486df7-b50c-4fa3-9ab1-a4cd00a0b3bb","system_id":"levelo_inurba_marseille","lat":43.29269,"lon":5.40117,"is_reserved":false,"is_disabled":false,"rental_uris":{"android":"levelo://app?vid=ca486df7-b50c-4fa3-9ab1-a4cd00a0b3bb","ios":"levelo://app?vid=ca486df7-b50c-4fa3-9ab1-a4cd00a0b3bb"},"vehicle_type_id":"4","last_reported":1732187292,"current_range_meters":22800,"station_id":"ce4bh312rcd13ifvqdk0","pricing_plan_id":"cebpf4jnsgd1na2vs0mg"},{"bike_id":"eac211e0-5ad3-46de-a2e3-4183f2224029","system_id":"levelo_inurba_marseille","lat":43.29036,"lon":5.37566,"is_reserved":false,"is_disabled":false,"rental_uris":{"android":"levelo://app?vid=eac211e0-5ad3-46de-a2e3-4183f2224029","ios":"levelo://app?vid=eac211e0-5ad3-46de-a2e3-4183f2224029"},"vehicle_type_id":"4","last_reported":1732187292,"current_range_meters":26000,"station_id":"ce4bh692rcd13ifvqe90","pricing_plan_id":"cebpf4jnsgd1na2vs0mg"},{"bike_id":"545e0fc8-9864-4713-9710-375fa1e188c6","system_id":"levelo_inurba_marseille","lat":43.25938,"lon":5.40897,"is_reserved":false,"is_disabled":false,"rental_uris":{"android":"levelo://app?vid=545e0fc8-9864-4713-9710-375fa1e188c6","ios":"levelo://app?vid=545e0fc8-9864-4713-9710-375fa1e188c6"},"vehicle_type_id":"4","last_reported":1732187292,"current_range_meters":5600,"station_id":"ce4bhm92rcd13ifvqglg","pricing_plan_id":"cebpf4jnsgd1na2vs0mg"},{"bike_id":"c830409b-547c-4be3-b8ac-0819d1d038fe","system_id":"levelo_inurba_marseille","lat":43.29568,"lon":5.39964,"is_reserved":false,"is_disabled":true,"rental_uris":{"android":"levelo://app?vid=c830409b-547c-4be3-b8ac-0819d1d038fe","ios":"levelo://app?vid=c830409b-547c-4be3-b8ac-0819d1d038fe"},"vehicle_type_id":"4","last_reported":1732187292,"current_range_meters":21600,"station_id":"ce4bh312rcd13ifvqdj0","pricing_plan_id":"cebpf4jnsgd1na2vs0mg"},{"bike_id":"796b733f-49d0-45e2-becf-a5ec2492cb3c","system_id":"levelo_inurba_marseille","lat":43.25107,"lon":5.40324,"is_reserved":false,"is_disabled":true,"rental_uris":{"android":"levelo://app?vid=796b733f-49d0-45e2-becf-a5ec2492cb3c","ios":"levelo://app?vid=796b733f-49d0-45e2-becf-a5ec2492cb3c"},"vehicle_type_id":"4","last_reported":1732187292,"current_range_meters":800,"station_id":"ce4bhlh2rcd13ifvqgig","pricing_plan_id":"cebpf4jnsgd1na2vs0mg"},{"bike_id":"da7f8bd4-8fd7-46fd-961a-7182e334da8d","system_id":"levelo_inurba_marseille","lat":43.30273,"lon":5.37698,"is_reserved":false,"is_disabled":false,"rental_uris":{"android":"levelo://app?vid=da7f8bd4-8fd7-46fd-961a-7182e334da8d","ios":"levelo://app?vid=da7f8bd4-8fd7-46fd-961a-7182e334da8d"},"vehicle_type_id":"4","last_reported":1732187292,"current_range_meters":38800,"station_id":"ce4bguh2rcd13ifvqcj0","pricing_plan_id":"cebpf4jnsgd1na2vs0mg"},{"bike_id":"5b781679-db62-46ee-a333-693ce67c900e","system_id":"levelo_inurba_marseille","lat":43.24386,"lon":5.37051,"is_reserved":false,"is_disabled":false,"rental_uris":{"android":"levelo://app?vid=5b781679-db62-46ee-a333-693ce67c900e","ios":"levelo://app?vid=5b781679-db62-46ee-a333-693ce67c900e"},"vehicle_type_id":"4","last_reported":1732187292,"current_range_meters":30800,"station_id":"ce4bhhh2rcd13ifvqfk0","pricing_plan_id":"cebpf4jnsgd1na2vs0mg"},{"bike_id":"decd24b0-09df-4c75-b2c4-aba3f9e424ca","system_id":"levelo_inurba_marseille","lat":43.28269,"lon":5.35062,"is_reserved":false,"is_disabled":false,"rental_uris":{"android":"levelo://app?vid=decd24b0-09df-4c75-b2c4-aba3f9e424ca","ios":"levelo://app?vid=decd24b0-09df-4c75-b2c4-aba3f9e424ca"},"vehicle_type_id":"4","last_reported":1732187292,"current_range_meters":38800,"station_id":"ce4bhbp2rcd13ifvqerg","pricing_plan_id":"cebpf4jnsgd1na2vs0mg"},{"bike_id":"e5951ee3-4a5a-4ebb-b469-096c5188dfa3","system_id":"levelo_inurba_marseille","lat":43.23184,"lon":5.35556,"is_reserved":false,"is_disabled":false,"rental_uris":{"android":"levelo://app?vid=e5951ee3-4a5a-4ebb-b469-096c5188dfa3","ios":"levelo://app?vid=e5951ee3-4a5a-4ebb-b469-096c5188dfa3"},"vehicle_type_id":"4","last_reported":1732187292,"current_range_meters":34800,"station_id":"ce4bhu92rcd13ifvqi70","pricing_plan_id":"cebpf4jnsgd1na2vs0mg"},{"bike_id":"b2f6b9cf-69db-40ab-8230-689c41a2c16c","system_id":"levelo_inurba_marseille","lat":43.24166,"lon":5.36395,"is_reserved":false,"is_disabled":false,"rental_uris":{"android":"levelo://app?vid=b2f6b9cf-69db-40ab-8230-689c41a2c16c","ios":"levelo://app?vid=b2f6b9cf-69db-40ab-8230-689c41a2c16c"},"vehicle_type_id":"4","last_reported":1732187292,"current_range_meters":33600,"station_id":"cpo36qri1sfpv3e86is0","pricing_plan_id":"cebpf4jnsgd1na2vs0mg"},{"bike_id":"58a208f4-fd83-44a4-bf12-9a135848ed36","system_id":"levelo_inurba_marseille","lat":43.3372,"lon":5.39184,"is_reserved":false,"is_disabled":false,"rental_uris":{"android":"levelo://app?vid=58a208f4-fd83-44a4-bf12-9a135848ed36","ios":"levelo://app?vid=58a208f4-fd83-44a4-bf12-9a135848ed36"},"vehicle_type_id":"4","last_reported":1732187292,"current_range_meters":38800,"station_id":"ce4bhr92rcd13ifvqhsg","pricing_plan_id":"cebpf4jnsgd1na2vs0mg"},{"bike_id":"198f5065-1d85-4e69-bd04-2ca02d1aa0d3","system_id":"levelo_inurba_marseille","lat":43.28269,"lon":5.35067,"is_reserved":false,"is_disabled":false,"rental_uris":{"android":"levelo://app?vid=198f5065-1d85-4e69-bd04-2ca02d1aa0d3","ios":"levelo://app?vid=198f5065-1d85-4e69-bd04-2ca02d1aa0d3"},"vehicle_type_id":"4","last_reported":1732187292,"current_range_meters":8400,"station_id":"ce4bhbp2rcd13ifvqerg","pricing_plan_id":"cebpf4jnsgd1na2vs0mg"},{"bike_id":"3265f8b3-617c-45cd-88fe-477b9a41e9c0","system_id":"levelo_inurba_marseille","lat":43.29619,"lon":5.37164,"is_reserved":false,"is_disabled":false,"rental_uris":{"android":"levelo://app?vid=3265f8b3-617c-45cd-88fe-477b9a41e9c0","ios":"levelo://app?vid=3265f8b3-617c-45cd-88fe-477b9a41e9c0"},"vehicle_type_id":"4","last_reported":1732187292,"current_range_meters":16000,"station_id":"ce4bgnh2rcd13ifvqc0g","pricing_plan_id":"cebpf4jnsgd1na2vs0mg"},{"bike_id":"2dc62d2b-79ca-433b-ad6f-17fb4bb3bae5","system_id":"levelo_inurba_marseille","lat":43.24079,"lon":5.3775,"is_reserved":false,"is_disabled":true,"rental_uris":{"android":"levelo://app?vid=2dc62d2b-79ca-433b-ad6f-17fb4bb3bae5","ios":"levelo://app?vid=2dc62d2b-79ca-433b-ad6f-17fb4bb3bae5"},"vehicle_type_id":"4","last_reported":1732187292,"current_range_meters":30400,"station_id":"ce4bhnp2rcd13ifvqgvg","pricing_plan_id":"cebpf4jnsgd1na2vs0mg"},{"bike_id":"1d6b1468-6f10-4ded-b396-130449eec3da","system_id":"levelo_inurba_marseille","lat":43.29846,"lon":5.36274,"is_reserved":false,"is_disabled":false,"rental_uris":{"android":"levelo://app?vid=1d6b1468-6f10-4ded-b396-130449eec3da","ios":"levelo://app?vid=1d6b1468-6f10-4ded-b396-130449eec3da"},"vehicle_type_id":"4","last_reported":1732187292,"current_range_meters":25200,"station_id":"ce4bgpp2rcd13ifvqc3g","pricing_plan_id":"cebpf4jnsgd1na2vs0mg"},{"bike_id":"d81ab7a3-51c2-4185-a371-62197aa1f5e2","system_id":"levelo_inurba_marseille","lat":43.31284,"lon":5.38679,"is_reserved":false,"is_disabled":false,"rental_uris":{"android":"levelo://app?vid=d81ab7a3-51c2-4185-a371-62197aa1f5e2","ios":"levelo://app?vid=d81ab7a3-51c2-4185-a371-62197aa1f5e2"},"vehicle_type_id":"4","last_reported":1732187292,"current_range_meters":26000,"station_id":"","pricing_plan_id":"cebpf4jnsgd1na2vs0mg"},{"bike_id":"92f1cf39-cea8-47d0-b035-e070a49378a0","system_id":"levelo_inurba_marseille","lat":43.29626,"lon":5.40604,"is_reserved":false,"is_disabled":false,"rental_uris":{"android":"levelo://app?vid=92f1cf39-cea8-47d0-b035-e070a49378a0","ios":"levelo://app?vid=92f1cf39-cea8-47d0-b035-e070a49378a0"},"vehicle_type_id":"4","last_reported":1732187292,"current_range_meters":5600,"station_id":"ce4bh0h2rcd13ifvqd60","pricing_plan_id":"cebpf4jnsgd1na2vs0mg"},{"bike_id":"b7577726-d0d8-46a4-abb0-0e66776506ca","system_id":"levelo_inurba_marseille","lat":43.27059,"lon":5.40261,"is_reserved":false,"is_disabled":false,"rental_uris":{"android":"levelo://app?vid=b7577726-d0d8-46a4-abb0-0e66776506ca","ios":"levelo://app?vid=b7577726-d0d8-46a4-abb0-0e66776506ca"},"vehicle_type_id":"4","last_reported":1732187292,"current_range_meters":9600,"station_id":"ce4bhk92rcd13ifvqgc0","pricing_plan_id":"cebpf4jnsgd1na2vs0mg"},{"bike_id":"26ce6e22-11fe-4850-80ce-605c93f03f2d","system_id":"levelo_inurba_marseille","lat":43.30535,"lon":5.3654,"is_reserved":false,"is_disabled":false,"rental_uris":{"android":"levelo://app?vid=26ce6e22-11fe-4850-80ce-605c93f03f2d","ios":"levelo://app?vid=26ce6e22-11fe-4850-80ce-605c93f03f2d"},"vehicle_type_id":"4","last_reported":1732187292,"current_range_meters":23200,"station_id":"ce4bgs12rcd13ifvqcag","pricing_plan_id":"cebpf4jnsgd1na2vs0mg"},{"bike_id":"5c53cfbd-2547-413a-b79a-f8cc3b1ca992","system_id":"levelo_inurba_marseille","lat":43.32109,"lon":5.36785,"is_reserved":false,"is_disabled":false,"rental_uris":{"android":"levelo://app?vid=5c53cfbd-2547-413a-b79a-f8cc3b1ca992","ios":"levelo://app?vid=5c53cfbd-2547-413a-b79a-f8cc3b1ca992"},"vehicle_type_id":"4","last_reported":1732187292,"current_range_meters":23200,"station_id":"ce4bhrh2rcd13ifvqhug","pricing_plan_id":"cebpf4jnsgd1na2vs0mg"},{"bike_id":"f786c67d-5db5-4718-bece-061de4975fd6","system_id":"levelo_inurba_marseille","lat":43.32478,"lon":5.36548,"is_reserved":false,"is_disabled":false,"rental_uris":{"android":"levelo://app?vid=f786c67d-5db5-4718-bece-061de4975fd6","ios":"levelo://app?vid=f786c67d-5db5-4718-bece-061de4975fd6"},"vehicle_type_id":"4","last_reported":1732187292,"current_range_meters":33600,"station_id":"ce4bhs12rcd13ifvqhvg","pricing_plan_id":"cebpf4jnsgd1na2vs0mg"},{"bike_id":"4dfb42ce-7051-4b93-a415-0c12fe0f916e","system_id":"levelo_inurba_marseille","lat":43.30896,"lon":5.36839,"is_reserved":false,"is_disabled":false,"rental_uris":{"android":"levelo://app?vid=4dfb42ce-7051-4b93-a415-0c12fe0f916e","ios":"levelo://app?vid=4dfb42ce-7051-4b93-a415-0c12fe0f916e"},"vehicle_type_id":"4","last_reported":1732187292,"current_range_meters":34000,"station_id":"","pricing_plan_id":"cebpf4jnsgd1na2vs0mg"},{"bike_id":"4674a573-a71e-41c0-a925-5c021c5e6c25","system_id":"levelo_inurba_marseille","lat":43.29426,"lon":5.37456,"is_reserved":false,"is_disabled":true,"rental_uris":{"android":"levelo://app?vid=4674a573-a71e-41c0-a925-5c021c5e6c25","ios":"levelo://app?vid=4674a573-a71e-41c0-a925-5c021c5e6c25"},"vehicle_type_id":"4","last_reported":1732187292,"current_range_meters":0,"station_id":"","pricing_plan_id":"cebpf4jnsgd1na2vs0mg"},{"bike_id":"ad8d03a1-1638-43ad-84b0-b4c469a0f0f0","system_id":"levelo_inurba_marseille","lat":43.33727,"lon":5.39187,"is_reserved":false,"is_disabled":false,"rental_uris":{"android":"levelo://app?vid=ad8d03a1-1638-43ad-84b0-b4c469a0f0f0","ios":"levelo://app?vid=ad8d03a1-1638-43ad-84b0-b4c469a0f0f0"},"vehicle_type_id":"4","last_reported":1732187292,"current_range_meters":30400,"station_id":"ce4bhr92rcd13ifvqhsg","pricing_plan_id":"cebpf4jnsgd1na2vs0mg"},{"bike_id":"cde5eb04-35f5-4971-aec4-8004f9b2dcd9","system_id":"levelo_inurba_marseille","lat":43.2828,"lon":5.35063,"is_reserved":false,"is_disabled":true,"rental_uris":{"android":"levelo://app?vid=cde5eb04-35f5-4971-aec4-8004f9b2dcd9","ios":"levelo://app?vid=cde5eb04-35f5-4971-aec4-8004f9b2dcd9"},"vehicle_type_id":"4","last_reported":1732187292,"current_range_meters":0,"station_id":"ce4bhbp2rcd13ifvqerg","pricing_plan_id":"cebpf4jnsgd1na2vs0mg"},{"bike_id":"aca988f7-b070-4cb2-80b5-49e37e63aaac","system_id":"levelo_inurba_marseille","lat":43.31219,"lon":5.36869,"is_reserved":false,"is_disabled":false,"rental_uris":{"android":"levelo://app?vid=aca988f7-b070-4cb2-80b5-49e37e63aaac","ios":"levelo://app?vid=aca988f7-b070-4cb2-80b5-49e37e63aaac"},"vehicle_type_id":"4","last_reported":1732187292,"current_range_meters":30000,"station_id":"ce4bgl92rcd13ifvqbq0","pricing_plan_id":"cebpf4jnsgd1na2vs0mg"},{"bike_id":"61018330-efb6-49ca-a329-bb59cd378a08","system_id":"levelo_inurba_marseille","lat":43.30553,"lon":5.3653,"is_reserved":false,"is_disabled":false,"rental_uris":{"android":"levelo://app?vid=61018330-efb6-49ca-a329-bb59cd378a08","ios":"levelo://app?vid=61018330-efb6-49ca-a329-bb59cd378a08"},"vehicle_type_id":"4","last_reported":1732187292,"current_range_meters":38000,"station_id":"ce4bgs12rcd13ifvqcag","pricing_plan_id":"cebpf4jnsgd1na2vs0mg"},{"bike_id":"584713cb-7d8a-44e0-acc3-1caf7d260af0","system_id":"levelo_inurba_marseille","lat":43.30887,"lon":5.39642,"is_reserved":false,"is_disabled":false,"rental_uris":{"android":"levelo://app?vid=584713cb-7d8a-44e0-acc3-1caf7d260af0","ios":"levelo://app?vid=584713cb-7d8a-44e0-acc3-1caf7d260af0"},"vehicle_type_id":"4","last_reported":1732187292,"current_range_meters":38800,"station_id":"ce4bh012rcd13ifvqcv0","pricing_plan_id":"cebpf4jnsgd1na2vs0mg"},{"bike_id":"983b5008-1aea-462d-9f94-ca7d239fa86f","system_id":"levelo_inurba_marseille","lat":43.24166,"lon":5.36393,"is_reserved":false,"is_disabled":false,"rental_uris":{"android":"levelo://app?vid=983b5008-1aea-462d-9f94-ca7d239fa86f","ios":"levelo://app?vid=983b5008-1aea-462d-9f94-ca7d239fa86f"},"vehicle_type_id":"4","last_reported":1732187292,"current_range_meters":20400,"station_id":"cpo36qri1sfpv3e86is0","pricing_plan_id":"cebpf4jnsgd1na2vs0mg"},{"bike_id":"d31bcf0a-c511-421b-85e0-1a0dd3c42cdd","system_id":"levelo_inurba_marseille","lat":43.29528,"lon":5.38537,"is_reserved":false,"is_disabled":false,"rental_uris":{"android":"levelo://app?vid=d31bcf0a-c511-421b-85e0-1a0dd3c42cdd","ios":"levelo://app?vid=d31bcf0a-c511-421b-85e0-1a0dd3c42cdd"},"vehicle_type_id":"4","last_reported":1732187292,"current_range_meters":8800,"station_id":"ce4bgih2rcd13ifvqba0","pricing_plan_id":"cebpf4jnsgd1na2vs0mg"},{"bike_id":"bb82b0a5-3895-445f-8989-d42fb7ee34cc","system_id":"levelo_inurba_marseille","lat":43.27057,"lon":5.4026,"is_reserved":false,"is_disabled":false,"rental_uris":{"android":"levelo://app?vid=bb82b0a5-3895-445f-8989-d42fb7ee34cc","ios":"levelo://app?vid=bb82b0a5-3895-445f-8989-d42fb7ee34cc"},"vehicle_type_id":"4","last_reported":1732187292,"current_range_meters":8000,"station_id":"ce4bhk92rcd13ifvqgc0","pricing_plan_id":"cebpf4jnsgd1na2vs0mg"},{"bike_id":"7e03452a-5366-4688-94db-9a3264015332","system_id":"levelo_inurba_marseille","lat":43.33761,"lon":5.37428,"is_reserved":false,"is_disabled":false,"rental_uris":{"android":"levelo://app?vid=7e03452a-5366-4688-94db-9a3264015332","ios":"levelo://app?vid=7e03452a-5366-4688-94db-9a3264015332"},"vehicle_type_id":"4","last_reported":1732187292,"current_range_meters":15200,"station_id":"","pricing_plan_id":"cebpf4jnsgd1na2vs0mg"},{"bike_id":"89429ed2-f839-4749-bcb9-3e5230fe3bfb","system_id":"levelo_inurba_marseille","lat":43.337213,"lon":5.391801,"is_reserved":false,"is_disabled":false,"rental_uris":{"android":"levelo://app?vid=89429ed2-f839-4749-bcb9-3e5230fe3bfb","ios":"levelo://app?vid=89429ed2-f839-4749-bcb9-3e5230fe3bfb"},"vehicle_type_id":"4","last_reported":1732187292,"current_range_meters":38800,"station_id":"ce4bhr92rcd13ifvqhsg","pricing_plan_id":"cebpf4jnsgd1na2vs0mg"},{"bike_id":"4c573f9b-e733-4c7a-a83e-318f1a4efcd4","system_id":"levelo_inurba_marseille","lat":43.29516,"lon":5.39043,"is_reserved":false,"is_disabled":false,"rental_uris":{"android":"levelo://app?vid=4c573f9b-e733-4c7a-a83e-318f1a4efcd4","ios":"levelo://app?vid=4c573f9b-e733-4c7a-a83e-318f1a4efcd4"},"vehicle_type_id":"4","last_reported":1732187292,"current_range_meters":24800,"station_id":"ce4bh3p2rcd13ifvqdp0","pricing_plan_id":"cebpf4jnsgd1na2vs0mg"},{"bike_id":"c8db655f-b3df-4bb3-b835-fb06b95a1b22","system_id":"levelo_inurba_marseille","lat":43.29616,"lon":5.40129,"is_reserved":false,"is_disabled":false,"rental_uris":{"android":"levelo://app?vid=c8db655f-b3df-4bb3-b835-fb06b95a1b22","ios":"levelo://app?vid=c8db655f-b3df-4bb3-b835-fb06b95a1b22"},"vehicle_type_id":"4","last_reported":1732187292,"current_range_meters":16800,"station_id":"","pricing_plan_id":"cebpf4jnsgd1na2vs0mg"},{"bike_id":"d20311b3-291b-4d76-81bd-b44ef2f8caa8","system_id":"levelo_inurba_marseille","lat":43.32475,"lon":5.3656,"is_reserved":false,"is_disabled":false,"rental_uris":{"android":"levelo://app?vid=d20311b3-291b-4d76-81bd-b44ef2f8caa8","ios":"levelo://app?vid=d20311b3-291b-4d76-81bd-b44ef2f8caa8"},"vehicle_type_id":"4","last_reported":1732187292,"current_range_meters":17200,"station_id":"ce4bhs12rcd13ifvqhvg","pricing_plan_id":"cebpf4jnsgd1na2vs0mg"},{"bike_id":"96774fe7-fc73-434b-ba0d-dfdd27d52b3d","system_id":"levelo_inurba_marseille","lat":43.29629,"lon":5.40589,"is_reserved":false,"is_disabled":false,"rental_uris":{"android":"levelo://app?vid=96774fe7-fc73-434b-ba0d-dfdd27d52b3d","ios":"levelo://app?vid=96774fe7-fc73-434b-ba0d-dfdd27d52b3d"},"vehicle_type_id":"4","last_reported":1732187292,"current_range_meters":21600,"station_id":"ce4bh0h2rcd13ifvqd60","pricing_plan_id":"cebpf4jnsgd1na2vs0mg"},{"bike_id":"7a6a27cc-c598-4850-b0a6-6bac46025bc3","system_id":"levelo_inurba_marseille","lat":43.27063,"lon":5.40266,"is_reserved":false,"is_disabled":true,"rental_uris":{"android":"levelo://app?vid=7a6a27cc-c598-4850-b0a6-6bac46025bc3","ios":"levelo://app?vid=7a6a27cc-c598-4850-b0a6-6bac46025bc3"},"vehicle_type_id":"4","last_reported":1732187292,"current_range_meters":800,"station_id":"ce4bhk92rcd13ifvqgc0","pricing_plan_id":"cebpf4jnsgd1na2vs0mg"},{"bike_id":"73fda337-657c-4904-a2e7-fb3adef5793a","system_id":"levelo_inurba_marseille","lat":43.2917,"lon":5.37162,"is_reserved":false,"is_disabled":false,"rental_uris":{"android":"levelo://app?vid=73fda337-657c-4904-a2e7-fb3adef5793a","ios":"levelo://app?vid=73fda337-657c-4904-a2e7-fb3adef5793a"},"vehicle_type_id":"4","last_reported":1732187292,"current_range_meters":39200,"station_id":"ce4bha92rcd13ifvqeh0","pricing_plan_id":"cebpf4jnsgd1na2vs0mg"},{"bike_id":"6d941e85-5142-43a9-863d-c3a4efb11567","system_id":"levelo_inurba_marseille","lat":43.30532,"lon":5.36537,"is_reserved":false,"is_disabled":false,"rental_uris":{"android":"levelo://app?vid=6d941e85-5142-43a9-863d-c3a4efb11567","ios":"levelo://app?vid=6d941e85-5142-43a9-863d-c3a4efb11567"},"vehicle_type_id":"4","last_reported":1732187292,"current_range_meters":15200,"station_id":"ce4bgs12rcd13ifvqcag","pricing_plan_id":"cebpf4jnsgd1na2vs0mg"},{"bike_id":"c03b41e5-42c8-48fc-87cd-e68755636258","system_id":"levelo_inurba_marseille","lat":43.27561,"lon":5.38416,"is_reserved":false,"is_disabled":false,"rental_uris":{"android":"levelo://app?vid=c03b41e5-42c8-48fc-87cd-e68755636258","ios":"levelo://app?vid=c03b41e5-42c8-48fc-87cd-e68755636258"},"vehicle_type_id":"4","last_reported":1732187292,"current_range_meters":36800,"station_id":"ce4bhh92rcd13ifvqfi0","pricing_plan_id":"cebpf4jnsgd1na2vs0mg"},{"bike_id":"e165db19-aa55-429c-9883-47bf07245a6f","system_id":"levelo_inurba_marseille","lat":43.30308,"lon":5.36905,"is_reserved":false,"is_disabled":false,"rental_uris":{"android":"levelo://app?vid=e165db19-aa55-429c-9883-47bf07245a6f","ios":"levelo://app?vid=e165db19-aa55-429c-9883-47bf07245a6f"},"vehicle_type_id":"4","last_reported":1732187292,"current_range_meters":38000,"station_id":"ce4bgqh2rcd13ifvqc5g","pricing_plan_id":"cebpf4jnsgd1na2vs0mg"},{"bike_id":"79d8c574-9062-423c-8a03-76b3dbc58333","system_id":"levelo_inurba_marseille","lat":43.27842,"lon":5.39186,"is_reserved":false,"is_disabled":true,"rental_uris":{"android":"levelo://app?vid=79d8c574-9062-423c-8a03-76b3dbc58333","ios":"levelo://app?vid=79d8c574-9062-423c-8a03-76b3dbc58333"},"vehicle_type_id":"4","last_reported":1732187292,"current_range_meters":0,"station_id":"ce4bhjp2rcd13ifvqga0","pricing_plan_id":"cebpf4jnsgd1na2vs0mg"},{"bike_id":"7770b1cc-2a54-4d08-8255-6bed2fc397aa","system_id":"levelo_inurba_marseille","lat":43.2319,"lon":5.35545,"is_reserved":false,"is_disabled":false,"rental_uris":{"android":"levelo://app?vid=7770b1cc-2a54-4d08-8255-6bed2fc397aa","ios":"levelo://app?vid=7770b1cc-2a54-4d08-8255-6bed2fc397aa"},