{"last_updated":1777066698,"ttl":60,"version":"2.2","data":{"bikes":[{"bike_id":"e909de40-3f59-4e1e-ae06-80496cb8cc57","system_id":"levelo_inurba_marseille","lat":43.301453,"lon":5.380797,"is_reserved":false,"is_disabled":false,"rental_uris":{"android":"levelo://app?vid=e909de40-3f59-4e1e-ae06-80496cb8cc57","ios":"levelo://app?vid=e909de40-3f59-4e1e-ae06-80496cb8cc57"},"vehicle_type_id":"4","last_reported":1777066699,"current_range_meters":2800,"station_id":"ce4bgjp2rcd13ifvqbh0","pricing_plan_id":"cebpf4jnsgd1na2vs0mg"},{"bike_id":"8f975cf4-69f4-4fd4-8c34-d7df8df21514","system_id":"levelo_inurba_marseille","lat":43.33787,"lon":5.37468,"is_reserved":false,"is_disabled":false,"rental_uris":{"android":"levelo://app?vid=8f975cf4-69f4-4fd4-8c34-d7df8df21514","ios":"levelo://app?vid=8f975cf4-69f4-4fd4-8c34-d7df8df21514"},"vehicle_type_id":"4","last_reported":1777066699,"current_range_meters":2800,"station_id":"st_d46cu089ee8s73dldbu0","pricing_plan_id":"cebpf4jnsgd1na2vs0mg"},{"bike_id":"fab422c3-3e71-460a-9231-398cabf4cd0f","system_id":"levelo_inurba_marseille","lat":43.2319,"lon":5.35564,"is_reserved":false,"is_disabled":true,"rental_uris":{"android":"levelo://app?vid=fab422c3-3e71-460a-9231-398cabf4cd0f","ios":"levelo://app?vid=fab422c3-3e71-460a-9231-398cabf4cd0f"},"vehicle_type_id":"4","last_reported":1777066699,"current_range_meters":2800,"station_id":"ce4bhu92rcd13ifvqi70","pricing_plan_id":"cebpf4jnsgd1na2vs0mg"},{"bike_id":"5b6b783e-0d52-4bbd-b5a7-c33df0c76194","system_id":"levelo_inurba_marseille","lat":43.28232,"lon":5.3706,"is_reserved":false,"is_disabled":false,"rental_uris":{"android":"levelo://app?vid=5b6b783e-0d52-4bbd-b5a7-c33df0c76194","ios":"levelo://app?vid=5b6b783e-0d52-4bbd-b5a7-c33df0c76194"},"vehicle_type_id":"4","last_reported":1777066699,"current_range_meters":2800,"station_id":"","pricing_plan_id":"cebpf4jnsgd1na2vs0mg"},{"bike_id":"70885aaa-862c-4ba8-9411-2e942b144a18","system_id":"levelo_inurba_marseille","lat":43.28927,"lon":5.36648,"is_reserved":false,"is_disabled":false,"rental_uris":{"android":"levelo://app?vid=70885aaa-862c-4ba8-9411-2e942b144a18","ios":"levelo://app?vid=70885aaa-862c-4ba8-9411-2e942b144a18"},"vehicle_type_id":"4","last_reported":1777066699,"current_range_meters":2800,"station_id":"ce4bhap2rcd13ifvqek0","pricing_plan_id":"cebpf4jnsgd1na2vs0mg"},{"bike_id":"a767dc6e-2f51-4d71-9e29-f318a1beff69","system_id":"levelo_inurba_marseille","lat":43.30097,"lon":5.36591,"is_reserved":false,"is_disabled":false,"rental_uris":{"android":"levelo://app?vid=a767dc6e-2f51-4d71-9e29-f318a1beff69","ios":"levelo://app?vid=a767dc6e-2f51-4d71-9e29-f318a1beff69"},"vehicle_type_id":"4","last_reported":1777066699,"current_range_meters":2800,"station_id":"","pricing_plan_id":"cebpf4jnsgd1na2vs0mg"},{"bike_id":"012ab00b-f689-42c3-ab60-9a31e3694e83","system_id":"levelo_inurba_marseille","lat":43.28937,"lon":5.36398,"is_reserved":false,"is_disabled":false,"rental_uris":{"android":"levelo://app?vid=012ab00b-f689-42c3-ab60-9a31e3694e83","ios":"levelo://app?vid=012ab00b-f689-42c3-ab60-9a31e3694e83"},"vehicle_type_id":"4","last_reported":1777066699,"current_range_meters":2800,"station_id":"ce4bhc92rcd13ifvqetg","pricing_plan_id":"cebpf4jnsgd1na2vs0mg"},{"bike_id":"49ce7a94-5b66-4e95-9ac8-cbf3e1f5864a","system_id":"levelo_inurba_marseille","lat":43.30135,"lon":5.38793,"is_reserved":false,"is_disabled":false,"rental_uris":{"android":"levelo://app?vid=49ce7a94-5b66-4e95-9ac8-cbf3e1f5864a","ios":"levelo://app?vid=49ce7a94-5b66-4e95-9ac8-cbf3e1f5864a"},"vehicle_type_id":"4","last_reported":1777066699,"current_range_meters":2800,"station_id":"ce4bghh2rcd13ifvqb60","pricing_plan_id":"cebpf4jnsgd1na2vs0mg"},{"bike_id":"469e7ab2-72f0-4b0f-9072-c85f6191f66f","system_id":"levelo_inurba_marseille","lat":43.23783,"lon":5.3663,"is_reserved":false,"is_disabled":false,"rental_uris":{"android":"levelo://app?vid=469e7ab2-72f0-4b0f-9072-c85f6191f66f","ios":"levelo://app?vid=469e7ab2-72f0-4b0f-9072-c85f6191f66f"},"vehicle_type_id":"4","last_reported":1777066699,"current_range_meters":2800,"station_id":"st_d3nk18o9ro0c73en2l3g","pricing_plan_id":"cebpf4jnsgd1na2vs0mg"},{"bike_id":"df45da96-46bb-4239-aac8-8fc8ff9a4728","system_id":"levelo_inurba_marseille","lat":43.27443,"lon":5.39447,"is_reserved":false,"is_disabled":true,"rental_uris":{"android":"levelo://app?vid=df45da96-46bb-4239-aac8-8fc8ff9a4728","ios":"levelo://app?vid=df45da96-46bb-4239-aac8-8fc8ff9a4728"},"vehicle_type_id":"4","last_reported":1777066699,"current_range_meters":2800,"station_id":"","pricing_plan_id":"cebpf4jnsgd1na2vs0mg"},{"bike_id":"60079881-d22c-4e6a-8b34-2d8c783f10de","system_id":"levelo_inurba_marseille","lat":43.292,"lon":5.39323,"is_reserved":false,"is_disabled":false,"rental_uris":{"android":"levelo://app?vid=60079881-d22c-4e6a-8b34-2d8c783f10de","ios":"levelo://app?vid=60079881-d22c-4e6a-8b34-2d8c783f10de"},"vehicle_type_id":"4","last_reported":1777066699,"current_range_meters":2800,"station_id":"ce4bh192rcd13ifvqdd0","pricing_plan_id":"cebpf4jnsgd1na2vs0mg"},{"bike_id":"5fc78bc2-0815-473f-b2c6-82fcecae2baa","system_id":"levelo_inurba_marseille","lat":43.26561,"lon":5.37276,"is_reserved":false,"is_disabled":true,"rental_uris":{"android":"levelo://app?vid=5fc78bc2-0815-473f-b2c6-82fcecae2baa","ios":"levelo://app?vid=5fc78bc2-0815-473f-b2c6-82fcecae2baa"},"vehicle_type_id":"4","last_reported":1777066699,"current_range_meters":2800,"station_id":"ce4bhg12rcd13ifvqf70","pricing_plan_id":"cebpf4jnsgd1na2vs0mg"},{"bike_id":"1b9ebb5c-553a-4be1-9905-13234b06e922","system_id":"levelo_inurba_marseille","lat":43.29443,"lon":5.39734,"is_reserved":false,"is_disabled":false,"rental_uris":{"android":"levelo://app?vid=1b9ebb5c-553a-4be1-9905-13234b06e922","ios":"levelo://app?vid=1b9ebb5c-553a-4be1-9905-13234b06e922"},"vehicle_type_id":"4","last_reported":1777066699,"current_range_meters":2800,"station_id":"ce4bh3h2rcd13ifvqdo0","pricing_plan_id":"cebpf4jnsgd1na2vs0mg"},{"bike_id":"77bae04d-b155-4a06-9049-fda6a4b9e974","system_id":"levelo_inurba_marseille","lat":43.29147,"lon":5.42616,"is_reserved":false,"is_disabled":false,"rental_uris":{"android":"levelo://app?vid=77bae04d-b155-4a06-9049-fda6a4b9e974","ios":"levelo://app?vid=77bae04d-b155-4a06-9049-fda6a4b9e974"},"vehicle_type_id":"4","last_reported":1777066699,"current_range_meters":3200,"station_id":"","pricing_plan_id":"cebpf4jnsgd1na2vs0mg"},{"bike_id":"1aaf0100-915b-4670-a711-1dd0c7417865","system_id":"levelo_inurba_marseille","lat":43.2408,"lon":5.37763,"is_reserved":false,"is_disabled":true,"rental_uris":{"android":"levelo://app?vid=1aaf0100-915b-4670-a711-1dd0c7417865","ios":"levelo://app?vid=1aaf0100-915b-4670-a711-1dd0c7417865"},"vehicle_type_id":"4","last_reported":1777066699,"current_range_meters":3200,"station_id":"ce4bhnp2rcd13ifvqgvg","pricing_plan_id":"cebpf4jnsgd1na2vs0mg"},{"bike_id":"87cdb95c-813f-44ea-8261-e58ae463baf5","system_id":"levelo_inurba_marseille","lat":43.27914,"lon":5.38005,"is_reserved":false,"is_disabled":false,"rental_uris":{"android":"levelo://app?vid=87cdb95c-813f-44ea-8261-e58ae463baf5","ios":"levelo://app?vid=87cdb95c-813f-44ea-8261-e58ae463baf5"},"vehicle_type_id":"4","last_reported":1777066699,"current_range_meters":3200,"station_id":"ce4bhf92rcd13ifvqf50","pricing_plan_id":"cebpf4jnsgd1na2vs0mg"},{"bike_id":"d3296e14-4a65-47fb-8fa8-c3757bf94b77","system_id":"levelo_inurba_marseille","lat":43.29785,"lon":5.39346,"is_reserved":false,"is_disabled":false,"rental_uris":{"android":"levelo://app?vid=d3296e14-4a65-47fb-8fa8-c3757bf94b77","ios":"levelo://app?vid=d3296e14-4a65-47fb-8fa8-c3757bf94b77"},"vehicle_type_id":"4","last_reported":1777066699,"current_range_meters":3200,"station_id":"chh1huq6cuj3fo74tm60","pricing_plan_id":"cebpf4jnsgd1na2vs0mg"},{"bike_id":"be3395ac-ccc9-4697-8504-3a4d24ca70ac","system_id":"levelo_inurba_marseille","lat":43.29717,"lon":5.36606,"is_reserved":false,"is_disabled":false,"rental_uris":{"android":"levelo://app?vid=be3395ac-ccc9-4697-8504-3a4d24ca70ac","ios":"levelo://app?vid=be3395ac-ccc9-4697-8504-3a4d24ca70ac"},"vehicle_type_id":"4","last_reported":1777066699,"current_range_meters":3200,"station_id":"ce4bgn12rcd13ifvqbt0","pricing_plan_id":"cebpf4jnsgd1na2vs0mg"},{"bike_id":"dad1cc0a-3f01-4ea5-93fd-471227a87bff","system_id":"levelo_inurba_marseille","lat":43.2816,"lon":5.42636,"is_reserved":false,"is_disabled":false,"rental_uris":{"android":"levelo://app?vid=dad1cc0a-3f01-4ea5-93fd-471227a87bff","ios":"levelo://app?vid=dad1cc0a-3f01-4ea5-93fd-471227a87bff"},"vehicle_type_id":"4","last_reported":1777066699,"current_range_meters":3600,"station_id":"ce4bhnh2rcd13ifvqgug","pricing_plan_id":"cebpf4jnsgd1na2vs0mg"},{"bike_id":"20c3670a-57f9-4aca-b674-acf22d26b0f8","system_id":"levelo_inurba_marseille","lat":43.23951,"lon":5.36633,"is_reserved":false,"is_disabled":true,"rental_uris":{"android":"levelo://app?vid=20c3670a-57f9-4aca-b674-acf22d26b0f8","ios":"levelo://app?vid=20c3670a-57f9-4aca-b674-acf22d26b0f8"},"vehicle_type_id":"4","last_reported":1777066699,"current_range_meters":3600,"station_id":"ce4bhi12rcd13ifvqfp0","pricing_plan_id":"cebpf4jnsgd1na2vs0mg"},{"bike_id":"8cface65-b4eb-461b-bfbf-47e7ffe88fe6","system_id":"levelo_inurba_marseille","lat":43.2746,"lon":5.43886,"is_reserved":false,"is_disabled":false,"rental_uris":{"android":"levelo://app?vid=8cface65-b4eb-461b-bfbf-47e7ffe88fe6","ios":"levelo://app?vid=8cface65-b4eb-461b-bfbf-47e7ffe88fe6"},"vehicle_type_id":"4","last_reported":1777066699,"current_range_meters":3600,"station_id":"","pricing_plan_id":"cebpf4jnsgd1na2vs0mg"},{"bike_id":"f4d9ef01-6b22-4474-afe1-c4f05b6d6ca5","system_id":"levelo_inurba_marseille","lat":43.27069,"lon":5.42273,"is_reserved":false,"is_disabled":false,"rental_uris":{"android":"levelo://app?vid=f4d9ef01-6b22-4474-afe1-c4f05b6d6ca5","ios":"levelo://app?vid=f4d9ef01-6b22-4474-afe1-c4f05b6d6ca5"},"vehicle_type_id":"4","last_reported":1777066699,"current_range_meters":3600,"station_id":"ce4bhk92rcd13ifvqgb0","pricing_plan_id":"cebpf4jnsgd1na2vs0mg"},{"bike_id":"ea3c1786-161a-49ba-9999-4db433e959c3","system_id":"levelo_inurba_marseille","lat":43.24457,"lon":5.40912,"is_reserved":false,"is_disabled":false,"rental_uris":{"android":"levelo://app?vid=ea3c1786-161a-49ba-9999-4db433e959c3","ios":"levelo://app?vid=ea3c1786-161a-49ba-9999-4db433e959c3"},"vehicle_type_id":"4","last_reported":1777066699,"current_range_meters":4000,"station_id":"","pricing_plan_id":"cebpf4jnsgd1na2vs0mg"},{"bike_id":"50f9b43d-bb2c-4db2-ac21-3d9239e595ab","system_id":"levelo_inurba_marseille","lat":43.29276,"lon":5.36846,"is_reserved":false,"is_disabled":false,"rental_uris":{"android":"levelo://app?vid=50f9b43d-bb2c-4db2-ac21-3d9239e595ab","ios":"levelo://app?vid=50f9b43d-bb2c-4db2-ac21-3d9239e595ab"},"vehicle_type_id":"4","last_reported":1777066699,"current_range_meters":4000,"station_id":"","pricing_plan_id":"cebpf4jnsgd1na2vs0mg"},{"bike_id":"9ccc1443-548e-4633-ad70-0ac72feedfa4","system_id":"levelo_inurba_marseille","lat":43.23376,"lon":5.41232,"is_reserved":false,"is_disabled":false,"rental_uris":{"android":"levelo://app?vid=9ccc1443-548e-4633-ad70-0ac72feedfa4","ios":"levelo://app?vid=9ccc1443-548e-4633-ad70-0ac72feedfa4"},"vehicle_type_id":"4","last_reported":1777066699,"current_range_meters":4400,"station_id":"st_d75pvndhf9lc73cqq3eg","pricing_plan_id":"cebpf4jnsgd1na2vs0mg"},{"bike_id":"071d1e71-48c5-45bd-bc37-ce81033af5ba","system_id":"levelo_inurba_marseille","lat":43.31536,"lon":5.38064,"is_reserved":false,"is_disabled":false,"rental_uris":{"android":"levelo://app?vid=071d1e71-48c5-45bd-bc37-ce81033af5ba","ios":"levelo://app?vid=071d1e71-48c5-45bd-bc37-ce81033af5ba"},"vehicle_type_id":"4","last_reported":1777066699,"current_range_meters":4400,"station_id":"ce4bhsp2rcd13ifvqi50","pricing_plan_id":"cebpf4jnsgd1na2vs0mg"},{"bike_id":"e8557749-3421-4449-9d46-c4c5325d1eb1","system_id":"levelo_inurba_marseille","lat":43.25511,"lon":5.37644,"is_reserved":false,"is_disabled":false,"rental_uris":{"android":"levelo://app?vid=e8557749-3421-4449-9d46-c4c5325d1eb1","ios":"levelo://app?vid=e8557749-3421-4449-9d46-c4c5325d1eb1"},"vehicle_type_id":"4","last_reported":1777066699,"current_range_meters":4400,"station_id":"ce4bhh12rcd13ifvqff0","pricing_plan_id":"cebpf4jnsgd1na2vs0mg"},{"bike_id":"e596e608-f85e-4fc0-9be5-0ba85c066bb6","system_id":"levelo_inurba_marseille","lat":43.27487,"lon":5.42458,"is_reserved":false,"is_disabled":false,"rental_uris":{"android":"levelo://app?vid=e596e608-f85e-4fc0-9be5-0ba85c066bb6","ios":"levelo://app?vid=e596e608-f85e-4fc0-9be5-0ba85c066bb6"},"vehicle_type_id":"4","last_reported":1777066699,"current_range_meters":4400,"station_id":"ce4bhn92rcd13ifvqgrg","pricing_plan_id":"cebpf4jnsgd1na2vs0mg"},{"bike_id":"697c9542-b1db-498d-9f68-36c566b60b6e","system_id":"levelo_inurba_marseille","lat":43.25341,"lon":5.42166,"is_reserved":false,"is_disabled":false,"rental_uris":{"android":"levelo://app?vid=697c9542-b1db-498d-9f68-36c566b60b6e","ios":"levelo://app?vid=697c9542-b1db-498d-9f68-36c566b60b6e"},"vehicle_type_id":"4","last_reported":1777066699,"current_range_meters":4400,"station_id":"st_d2m65c5bi1j21697t3ng","pricing_plan_id":"cebpf4jnsgd1na2vs0mg"},{"bike_id":"67cea062-d66f-4a7a-9c0a-41e54e217db1","system_id":"levelo_inurba_marseille","lat":43.29578,"lon":5.38999,"is_reserved":false,"is_disabled":false,"rental_uris":{"android":"levelo://app?vid=67cea062-d66f-4a7a-9c0a-41e54e217db1","ios":"levelo://app?vid=67cea062-d66f-4a7a-9c0a-41e54e217db1"},"vehicle_type_id":"4","last_reported":1777066699,"current_range_meters":4800,"station_id":"","pricing_plan_id":"cebpf4jnsgd1na2vs0mg"},{"bike_id":"53d0b464-9d84-4ebb-a788-233487c8451c","system_id":"levelo_inurba_marseille","lat":43.33261,"lon":5.37783,"is_reserved":false,"is_disabled":false,"rental_uris":{"android":"levelo://app?vid=53d0b464-9d84-4ebb-a788-233487c8451c","ios":"levelo://app?vid=53d0b464-9d84-4ebb-a788-233487c8451c"},"vehicle_type_id":"4","last_reported":1777066699,"current_range_meters":4800,"station_id":"","pricing_plan_id":"cebpf4jnsgd1na2vs0mg"},{"bike_id":"0c22485a-a711-4725-8592-dab240ed7b73","system_id":"levelo_inurba_marseille","lat":43.23966,"lon":5.36628,"is_reserved":false,"is_disabled":false,"rental_uris":{"android":"levelo://app?vid=0c22485a-a711-4725-8592-dab240ed7b73","ios":"levelo://app?vid=0c22485a-a711-4725-8592-dab240ed7b73"},"vehicle_type_id":"4","last_reported":1777066699,"current_range_meters":4800,"station_id":"ce4bhi12rcd13ifvqfp0","pricing_plan_id":"cebpf4jnsgd1na2vs0mg"},{"bike_id":"f7d2c842-67cc-480e-93ef-1402adc37955","system_id":"levelo_inurba_marseille","lat":43.28929,"lon":5.36631,"is_reserved":false,"is_disabled":false,"rental_uris":{"android":"levelo://app?vid=f7d2c842-67cc-480e-93ef-1402adc37955","ios":"levelo://app?vid=f7d2c842-67cc-480e-93ef-1402adc37955"},"vehicle_type_id":"4","last_reported":1777066699,"current_range_meters":4800,"station_id":"ce4bhap2rcd13ifvqek0","pricing_plan_id":"cebpf4jnsgd1na2vs0mg"},{"bike_id":"bad05bc0-d057-4d7a-8298-4c847c3817c1","system_id":"levelo_inurba_marseille","lat":43.28498,"lon":5.38414,"is_reserved":false,"is_disabled":false,"rental_uris":{"android":"levelo://app?vid=bad05bc0-d057-4d7a-8298-4c847c3817c1","ios":"levelo://app?vid=bad05bc0-d057-4d7a-8298-4c847c3817c1"},"vehicle_type_id":"4","last_reported":1777066699,"current_range_meters":4800,"station_id":"ce4bh512rcd13ifvqe3g","pricing_plan_id":"cebpf4jnsgd1na2vs0mg"},{"bike_id":"001ed0b6-f80d-40bc-93ea-a2f882ed6577","system_id":"levelo_inurba_marseille","lat":43.31137,"lon":5.37761,"is_reserved":false,"is_disabled":true,"rental_uris":{"android":"levelo://app?vid=001ed0b6-f80d-40bc-93ea-a2f882ed6577","ios":"levelo://app?vid=001ed0b6-f80d-40bc-93ea-a2f882ed6577"},"vehicle_type_id":"4","last_reported":1777066699,"current_range_meters":4800,"station_id":"ce4bgt92rcd13ifvqcg0","pricing_plan_id":"cebpf4jnsgd1na2vs0mg"},{"bike_id":"e16f7e13-319b-4576-812c-7661e0f75eef","system_id":"levelo_inurba_marseille","lat":43.24639,"lon":5.38896,"is_reserved":false,"is_disabled":false,"rental_uris":{"android":"levelo://app?vid=e16f7e13-319b-4576-812c-7661e0f75eef","ios":"levelo://app?vid=e16f7e13-319b-4576-812c-7661e0f75eef"},"vehicle_type_id":"4","last_reported":1777066699,"current_range_meters":4800,"station_id":"ce4bhg12rcd13ifvqf60","pricing_plan_id":"cebpf4jnsgd1na2vs0mg"},{"bike_id":"89cb976b-df3a-46fc-a9ef-0025de561630","system_id":"levelo_inurba_marseille","lat":43.29435,"lon":5.43406,"is_reserved":false,"is_disabled":false,"rental_uris":{"android":"levelo://app?vid=89cb976b-df3a-46fc-a9ef-0025de561630","ios":"levelo://app?vid=89cb976b-df3a-46fc-a9ef-0025de561630"},"vehicle_type_id":"4","last_reported":1777066699,"current_range_meters":4800,"station_id":"","pricing_plan_id":"cebpf4jnsgd1na2vs0mg"},{"bike_id":"8ddd46a8-ab76-4a5d-8ade-936f57064491","system_id":"levelo_inurba_marseille","lat":43.29196,"lon":5.39312,"is_reserved":false,"is_disabled":false,"rental_uris":{"android":"levelo://app?vid=8ddd46a8-ab76-4a5d-8ade-936f57064491","ios":"levelo://app?vid=8ddd46a8-ab76-4a5d-8ade-936f57064491"},"vehicle_type_id":"4","last_reported":1777066699,"current_range_meters":4800,"station_id":"ce4bh192rcd13ifvqdd0","pricing_plan_id":"cebpf4jnsgd1na2vs0mg"},{"bike_id":"416a18e8-cfad-45f6-9579-0f51ebff9cdb","system_id":"levelo_inurba_marseille","lat":43.2954,"lon":5.38556,"is_reserved":false,"is_disabled":false,"rental_uris":{"android":"levelo://app?vid=416a18e8-cfad-45f6-9579-0f51ebff9cdb","ios":"levelo://app?vid=416a18e8-cfad-45f6-9579-0f51ebff9cdb"},"vehicle_type_id":"4","last_reported":1777066699,"current_range_meters":4800,"station_id":"","pricing_plan_id":"cebpf4jnsgd1na2vs0mg"},{"bike_id":"bf941743-da61-4fe3-9e32-46f004a7578b","system_id":"levelo_inurba_marseille","lat":43.28597,"lon":5.3709,"is_reserved":false,"is_disabled":false,"rental_uris":{"android":"levelo://app?vid=bf941743-da61-4fe3-9e32-46f004a7578b","ios":"levelo://app?vid=bf941743-da61-4fe3-9e32-46f004a7578b"},"vehicle_type_id":"4","last_reported":1777066699,"current_range_meters":5600,"station_id":"ce4bht12rcd13ifvqi60","pricing_plan_id":"cebpf4jnsgd1na2vs0mg"},{"bike_id":"2d42be0a-583e-4a67-ad38-b849541c12ba","system_id":"levelo_inurba_marseille","lat":43.28956,"lon":5.36409,"is_reserved":false,"is_disabled":false,"rental_uris":{"android":"levelo://app?vid=2d42be0a-583e-4a67-ad38-b849541c12ba","ios":"levelo://app?vid=2d42be0a-583e-4a67-ad38-b849541c12ba"},"vehicle_type_id":"4","last_reported":1777066699,"current_range_meters":5600,"station_id":"ce4bhc92rcd13ifvqetg","pricing_plan_id":"cebpf4jnsgd1na2vs0mg"},{"bike_id":"146def8f-c25a-4a36-bb78-c0e04f65294e","system_id":"levelo_inurba_marseille","lat":43.28878,"lon":5.43038,"is_reserved":false,"is_disabled":false,"rental_uris":{"android":"levelo://app?vid=146def8f-c25a-4a36-bb78-c0e04f65294e","ios":"levelo://app?vid=146def8f-c25a-4a36-bb78-c0e04f65294e"},"vehicle_type_id":"4","last_reported":1777066699,"current_range_meters":5600,"station_id":"","pricing_plan_id":"cebpf4jnsgd1na2vs0mg"},{"bike_id":"eb54d19c-192d-4b9f-8d7f-dd3accd1602e","system_id":"levelo_inurba_marseille","lat":43.24803,"lon":5.37434,"is_reserved":false,"is_disabled":false,"rental_uris":{"android":"levelo://app?vid=eb54d19c-192d-4b9f-8d7f-dd3accd1602e","ios":"levelo://app?vid=eb54d19c-192d-4b9f-8d7f-dd3accd1602e"},"vehicle_type_id":"4","last_reported":1777066699,"current_range_meters":5600,"station_id":"ce4bhgh2rcd13ifvqfb0","pricing_plan_id":"cebpf4jnsgd1na2vs0mg"},{"bike_id":"c025fe4d-f167-4f80-bde7-0dfb9be7b37b","system_id":"levelo_inurba_marseille","lat":43.28497,"lon":5.48385,"is_reserved":false,"is_disabled":false,"rental_uris":{"android":"levelo://app?vid=c025fe4d-f167-4f80-bde7-0dfb9be7b37b","ios":"levelo://app?vid=c025fe4d-f167-4f80-bde7-0dfb9be7b37b"},"vehicle_type_id":"4","last_reported":1777066699,"current_range_meters":5600,"station_id":"","pricing_plan_id":"cebpf4jnsgd1na2vs0mg"},{"bike_id":"89fec258-6298-4895-8b3b-4f26153833c9","system_id":"levelo_inurba_marseille","lat":43.31367,"lon":5.384917,"is_reserved":false,"is_disabled":false,"rental_uris":{"android":"levelo://app?vid=89fec258-6298-4895-8b3b-4f26153833c9","ios":"levelo://app?vid=89fec258-6298-4895-8b3b-4f26153833c9"},"vehicle_type_id":"4","last_reported":1777066699,"current_range_meters":5600,"station_id":"ce4bgt92rcd13ifvqcf0","pricing_plan_id":"cebpf4jnsgd1na2vs0mg"},{"bike_id":"52e21fad-fd42-4791-a972-27ba4fccf6fb","system_id":"levelo_inurba_marseille","lat":43.30303,"lon":5.39205,"is_reserved":false,"is_disabled":false,"rental_uris":{"android":"levelo://app?vid=52e21fad-fd42-4791-a972-27ba4fccf6fb","ios":"levelo://app?vid=52e21fad-fd42-4791-a972-27ba4fccf6fb"},"vehicle_type_id":"4","last_reported":1777066699,"current_range_meters":5600,"station_id":"ce4bgkh2rcd13ifvqbk0","pricing_plan_id":"cebpf4jnsgd1na2vs0mg"},{"bike_id":"250b15a8-ae72-4a04-beeb-15324439784f","system_id":"levelo_inurba_marseille","lat":43.31485,"lon":5.37312,"is_reserved":false,"is_disabled":false,"rental_uris":{"android":"levelo://app?vid=250b15a8-ae72-4a04-beeb-15324439784f","ios":"levelo://app?vid=250b15a8-ae72-4a04-beeb-15324439784f"},"vehicle_type_id":"4","last_reported":1777066699,"current_range_meters":5600,"station_id":"ce4bgt12rcd13ifvqcd0","pricing_plan_id":"cebpf4jnsgd1na2vs0mg"},{"bike_id":"08490cf7-8caa-4d8c-a5d5-d0ce20d650c8","system_id":"levelo_inurba_marseille","lat":43.30247,"lon":5.40071,"is_reserved":false,"is_disabled":false,"rental_uris":{"android":"levelo://app?vid=08490cf7-8caa-4d8c-a5d5-d0ce20d650c8","ios":"levelo://app?vid=08490cf7-8caa-4d8c-a5d5-d0ce20d650c8"},"vehicle_type_id":"4","last_reported":1777066699,"current_range_meters":5600,"station_id":"ce4bgvh2rcd13ifvqcs0","pricing_plan_id":"cebpf4jnsgd1na2vs0mg"},{"bike_id":"4e792e19-7973-4766-b248-14fc3cd2dc95","system_id":"levelo_inurba_marseille","lat":43.24407,"lon":5.37062,"is_reserved":false,"is_disabled":false,"rental_uris":{"android":"levelo://app?vid=4e792e19-7973-4766-b248-14fc3cd2dc95","ios":"levelo://app?vid=4e792e19-7973-4766-b248-14fc3cd2dc95"},"vehicle_type_id":"4","last_reported":1777066699,"current_range_meters":5600,"station_id":"ce4bhhh2rcd13ifvqfk0","pricing_plan_id":"cebpf4jnsgd1na2vs0mg"},{"bike_id":"2f5837b5-417d-4465-9514-c2e400d5dd41","system_id":"levelo_inurba_marseille","lat":43.25344,"lon":5.42168,"is_reserved":false,"is_disabled":false,"rental_uris":{"android":"levelo://app?vid=2f5837b5-417d-4465-9514-c2e400d5dd41","ios":"levelo://app?vid=2f5837b5-417d-4465-9514-c2e400d5dd41"},"vehicle_type_id":"4","last_reported":1777066699,"current_range_meters":5600,"station_id":"st_d2m65c5bi1j21697t3ng","pricing_plan_id":"cebpf4jnsgd1na2vs0mg"},{"bike_id":"66cc7df0-e04c-43bc-96f4-f5d8be3baa28","system_id":"levelo_inurba_marseille","lat":43.30883,"lon":5.39631,"is_reserved":false,"is_disabled":false,"rental_uris":{"android":"levelo://app?vid=66cc7df0-e04c-43bc-96f4-f5d8be3baa28","ios":"levelo://app?vid=66cc7df0-e04c-43bc-96f4-f5d8be3baa28"},"vehicle_type_id":"4","last_reported":1777066699,"current_range_meters":6000,"station_id":"ce4bh012rcd13ifvqcv0","pricing_plan_id":"cebpf4jnsgd1na2vs0mg"},{"bike_id":"aa897415-67a0-4b07-b64e-cbc8da7d4792","system_id":"levelo_inurba_marseille","lat":43.2418,"lon":5.36394,"is_reserved":false,"is_disabled":false,"rental_uris":{"android":"levelo://app?vid=aa897415-67a0-4b07-b64e-cbc8da7d4792","ios":"levelo://app?vid=aa897415-67a0-4b07-b64e-cbc8da7d4792"},"vehicle_type_id":"4","last_reported":1777066699,"current_range_meters":6000,"station_id":"cpo36qri1sfpv3e86is0","pricing_plan_id":"cebpf4jnsgd1na2vs0mg"},{"bike_id":"d6547d7c-22de-4211-8570-dad16c77ec67","system_id":"levelo_inurba_marseille","lat":43.27683,"lon":5.38898,"is_reserved":false,"is_disabled":false,"rental_uris":{"android":"levelo://app?vid=d6547d7c-22de-4211-8570-dad16c77ec67","ios":"levelo://app?vid=d6547d7c-22de-4211-8570-dad16c77ec67"},"vehicle_type_id":"4","last_reported":1777066699,"current_range_meters":6000,"station_id":"ce4bhi12rcd13ifvqfo0","pricing_plan_id":"cebpf4jnsgd1na2vs0mg"},{"bike_id":"0802d81a-fc51-4a40-b8bd-5dbd8906e7aa","system_id":"levelo_inurba_marseille","lat":43.30955,"lon":5.39053,"is_reserved":false,"is_disabled":false,"rental_uris":{"android":"levelo://app?vid=0802d81a-fc51-4a40-b8bd-5dbd8906e7aa","ios":"levelo://app?vid=0802d81a-fc51-4a40-b8bd-5dbd8906e7aa"},"vehicle_type_id":"4","last_reported":1777066699,"current_range_meters":6000,"station_id":"ce4bgup2rcd13ifvqco0","pricing_plan_id":"cebpf4jnsgd1na2vs0mg"},{"bike_id":"50b3537d-0369-460e-8281-426df86e0856","system_id":"levelo_inurba_marseille","lat":43.30071,"lon":5.36431,"is_reserved":false,"is_disabled":false,"rental_uris":{"android":"levelo://app?vid=50b3537d-0369-460e-8281-426df86e0856","ios":"levelo://app?vid=50b3537d-0369-460e-8281-426df86e0856"},"vehicle_type_id":"4","last_reported":1777066699,"current_range_meters":6000,"station_id":"","pricing_plan_id":"cebpf4jnsgd1na2vs0mg"},{"bike_id":"4a97ef6e-bfe1-484b-b529-a8bd45e974c7","system_id":"levelo_inurba_marseille","lat":43.29601,"lon":5.3807,"is_reserved":false,"is_disabled":false,"rental_uris":{"android":"levelo://app?vid=4a97ef6e-bfe1-484b-b529-a8bd45e974c7","ios":"levelo://app?vid=4a97ef6e-bfe1-484b-b529-a8bd45e974c7"},"vehicle_type_id":"4","last_reported":1777066699,"current_range_meters":6000,"station_id":"ce4bgl12rcd13ifvqbo0","pricing_plan_id":"cebpf4jnsgd1na2vs0mg"},{"bike_id":"6a979988-2dd0-41f2-9c5f-0c6cc10fba5f","system_id":"levelo_inurba_marseille","lat":43.24186,"lon":5.36397,"is_reserved":false,"is_disabled":false,"rental_uris":{"android":"levelo://app?vid=6a979988-2dd0-41f2-9c5f-0c6cc10fba5f","ios":"levelo://app?vid=6a979988-2dd0-41f2-9c5f-0c6cc10fba5f"},"vehicle_type_id":"4","last_reported":1777066699,"current_range_meters":6000,"station_id":"cpo36qri1sfpv3e86is0","pricing_plan_id":"cebpf4jnsgd1na2vs0mg"},{"bike_id":"4453c01c-b844-4c68-8e60-1655e94625b7","system_id":"levelo_inurba_marseille","lat":43.27468,"lon":5.43893,"is_reserved":false,"is_disabled":false,"rental_uris":{"android":"levelo://app?vid=4453c01c-b844-4c68-8e60-1655e94625b7","ios":"levelo://app?vid=4453c01c-b844-4c68-8e60-1655e94625b7"},"vehicle_type_id":"4","last_reported":1777066699,"current_range_meters":6000,"station_id":"","pricing_plan_id":"cebpf4jnsgd1na2vs0mg"},{"bike_id":"40c1815e-7f94-4a71-a786-6fdbbf279016","system_id":"levelo_inurba_marseille","lat":43.3211,"lon":5.36772,"is_reserved":false,"is_disabled":false,"rental_uris":{"android":"levelo://app?vid=40c1815e-7f94-4a71-a786-6fdbbf279016","ios":"levelo://app?vid=40c1815e-7f94-4a71-a786-6fdbbf279016"},"vehicle_type_id":"4","last_reported":1777066699,"current_range_meters":6000,"station_id":"ce4bhrh2rcd13ifvqhug","pricing_plan_id":"cebpf4jnsgd1na2vs0mg"},{"bike_id":"1f3906dd-948e-4d18-9bb2-b2fc350fa481","system_id":"levelo_inurba_marseille","lat":43.27427,"lon":5.39408,"is_reserved":false,"is_disabled":true,"rental_uris":{"android":"levelo://app?vid=1f3906dd-948e-4d18-9bb2-b2fc350fa481","ios":"levelo://app?vid=1f3906dd-948e-4d18-9bb2-b2fc350fa481"},"vehicle_type_id":"4","last_reported":1777066699,"current_range_meters":6000,"station_id":"ce4bhdp2rcd13ifvqf20","pricing_plan_id":"cebpf4jnsgd1na2vs0mg"},{"bike_id":"e00985dd-0b9c-4883-8a91-d09e406e1f1d","system_id":"levelo_inurba_marseille","lat":43.2886,"lon":5.39313,"is_reserved":false,"is_disabled":false,"rental_uris":{"android":"levelo://app?vid=e00985dd-0b9c-4883-8a91-d09e406e1f1d","ios":"levelo://app?vid=e00985dd-0b9c-4883-8a91-d09e406e1f1d"},"vehicle_type_id":"4","last_reported":1777066699,"current_range_meters":6000,"station_id":"ce4bh2p2rcd13ifvqdi0","pricing_plan_id":"cebpf4jnsgd1na2vs0mg"},{"bike_id":"1f6631b6-1692-4dbe-89e4-4b9a7994768e","system_id":"levelo_inurba_marseille","lat":43.24664,"lon":5.38152,"is_reserved":false,"is_disabled":false,"rental_uris":{"android":"levelo://app?vid=1f6631b6-1692-4dbe-89e4-4b9a7994768e","ios":"levelo://app?vid=1f6631b6-1692-4dbe-89e4-4b9a7994768e"},"vehicle_type_id":"4","last_reported":1777066699,"current_range_meters":6400,"station_id":"ce4bhih2rcd13ifvqfr0","pricing_plan_id":"cebpf4jnsgd1na2vs0mg"},{"bike_id":"3762a15a-49a2-4fc6-b2e6-a79b5f91a12f","system_id":"levelo_inurba_marseille","lat":43.28493,"lon":5.48385,"is_reserved":false,"is_disabled":false,"rental_uris":{"android":"levelo://app?vid=3762a15a-49a2-4fc6-b2e6-a79b5f91a12f","ios":"levelo://app?vid=3762a15a-49a2-4fc6-b2e6-a79b5f91a12f"},"vehicle_type_id":"4","last_reported":1777066699,"current_range_meters":6400,"station_id":"st_d3svhcjqgbts73a3dn0g","pricing_plan_id":"cebpf4jnsgd1na2vs0mg"},{"bike_id":"66d70dce-ab31-4097-bff5-626ba1c1aebb","system_id":"levelo_inurba_marseille","lat":43.29613,"lon":5.37735,"is_reserved":false,"is_disabled":false,"rental_uris":{"android":"levelo://app?vid=66d70dce-ab31-4097-bff5-626ba1c1aebb","ios":"levelo://app?vid=66d70dce-ab31-4097-bff5-626ba1c1aebb"},"vehicle_type_id":"4","last_reported":1777066699,"current_range_meters":6400,"station_id":"ce4bgi92rcd13ifvqb90","pricing_plan_id":"cebpf4jnsgd1na2vs0mg"},{"bike_id":"03d50329-e768-413f-8f2a-24897a3a945b","system_id":"levelo_inurba_marseille","lat":43.24819,"lon":5.37439,"is_reserved":false,"is_disabled":false,"rental_uris":{"android":"levelo://app?vid=03d50329-e768-413f-8f2a-24897a3a945b","ios":"levelo://app?vid=03d50329-e768-413f-8f2a-24897a3a945b"},"vehicle_type_id":"4","last_reported":1777066699,"current_range_meters":6400,"station_id":"ce4bhgh2rcd13ifvqfb0","pricing_plan_id":"cebpf4jnsgd1na2vs0mg"},{"bike_id":"54a75b0a-08ed-4f39-98a6-ead70631a9f0","system_id":"levelo_inurba_marseille","lat":43.26947,"lon":5.40233,"is_reserved":false,"is_disabled":false,"rental_uris":{"android":"levelo://app?vid=54a75b0a-08ed-4f39-98a6-ead70631a9f0","ios":"levelo://app?vid=54a75b0a-08ed-4f39-98a6-ead70631a9f0"},"vehicle_type_id":"4","last_reported":1777066699,"current_range_meters":6400,"station_id":"cjm6bp8fraef2m0cb0m0","pricing_plan_id":"cebpf4jnsgd1na2vs0mg"},{"bike_id":"81aac9ff-484f-4851-bab4-3dd3b4973c75","system_id":"levelo_inurba_marseille","lat":43.26068,"lon":5.39383,"is_reserved":false,"is_disabled":false,"rental_uris":{"android":"levelo://app?vid=81aac9ff-484f-4851-bab4-3dd3b4973c75","ios":"levelo://app?vid=81aac9ff-484f-4851-bab4-3dd3b4973c75"},"vehicle_type_id":"4","last_reported":1777066699,"current_range_meters":6400,"station_id":"ce4bhh92rcd13ifvqfj0","pricing_plan_id":"cebpf4jnsgd1na2vs0mg"},{"bike_id":"be0930f3-9e0a-47a5-bdbd-77b334870bac","system_id":"levelo_inurba_marseille","lat":43.28947,"lon":5.36625,"is_reserved":false,"is_disabled":false,"rental_uris":{"android":"levelo://app?vid=be0930f3-9e0a-47a5-bdbd-77b334870bac","ios":"levelo://app?vid=be0930f3-9e0a-47a5-bdbd-77b334870bac"},"vehicle_type_id":"4","last_reported":1777066699,"current_range_meters":6400,"station_id":"ce4bhap2rcd13ifvqek0","pricing_plan_id":"cebpf4jnsgd1na2vs0mg"},{"bike_id":"b38d89b8-c3c9-4fae-b6f2-09980d89f2e9","system_id":"levelo_inurba_marseille","lat":43.2849,"lon":5.48384,"is_reserved":false,"is_disabled":false,"rental_uris":{"android":"levelo://app?vid=b38d89b8-c3c9-4fae-b6f2-09980d89f2e9","ios":"levelo://app?vid=b38d89b8-c3c9-4fae-b6f2-09980d89f2e9"},"vehicle_type_id":"4","last_reported":1777066699,"current_range_meters":6400,"station_id":"st_d3svhcjqgbts73a3dn0g","pricing_plan_id":"cebpf4jnsgd1na2vs0mg"},{"bike_id":"06edec6a-5805-469e-9aae-fb51ca9b0dbc","system_id":"levelo_inurba_marseille","lat":43.31993,"lon":5.38149,"is_reserved":false,"is_disabled":false,"rental_uris":{"android":"levelo://app?vid=06edec6a-5805-469e-9aae-fb51ca9b0dbc","ios":"levelo://app?vid=06edec6a-5805-469e-9aae-fb51ca9b0dbc"},"vehicle_type_id":"4","last_reported":1777066699,"current_range_meters":6400,"station_id":"ce4bhr12rcd13ifvqhpg","pricing_plan_id":"cebpf4jnsgd1na2vs0mg"},{"bike_id":"26e311ec-734f-477f-9bdc-cee009d68abe","system_id":"levelo_inurba_marseille","lat":43.33557,"lon":5.37458,"is_reserved":false,"is_disabled":false,"rental_uris":{"android":"levelo://app?vid=26e311ec-734f-477f-9bdc-cee009d68abe","ios":"levelo://app?vid=26e311ec-734f-477f-9bdc-cee009d68abe"},"vehicle_type_id":"4","last_reported":1777066699,"current_range_meters":6400,"station_id":"st_d46tts09ee8s73dlu43g","pricing_plan_id":"cebpf4jnsgd1na2vs0mg"},{"bike_id":"1e941e67-1c60-4947-a9c0-0fe9f5579fb7","system_id":"levelo_inurba_marseille","lat":43.29067,"lon":5.39934,"is_reserved":false,"is_disabled":false,"rental_uris":{"android":"levelo://app?vid=1e941e67-1c60-4947-a9c0-0fe9f5579fb7","ios":"levelo://app?vid=1e941e67-1c60-4947-a9c0-0fe9f5579fb7"},"vehicle_type_id":"4","last_reported":1777066699,"current_range_meters":6400,"station_id":"ce4bh392rcd13ifvqdm0","pricing_plan_id":"cebpf4jnsgd1na2vs0mg"},{"bike_id":"e8d6ce3d-1aa9-47ef-9b48-93862ee5f7fd","system_id":"levelo_inurba_marseille","lat":43.21317,"lon":5.35399,"is_reserved":false,"is_disabled":false,"rental_uris":{"android":"levelo://app?vid=e8d6ce3d-1aa9-47ef-9b48-93862ee5f7fd","ios":"levelo://app?vid=e8d6ce3d-1aa9-47ef-9b48-93862ee5f7fd"},"vehicle_type_id":"4","last_reported":1777066699,"current_range_meters":6400,"station_id":"","pricing_plan_id":"cebpf4jnsgd1na2vs0mg"},{"bike_id":"55489fe9-a91e-44b1-8204-b20940debb4b","system_id":"levelo_inurba_marseille","lat":43.28935,"lon":5.36625,"is_reserved":false,"is_disabled":false,"rental_uris":{"android":"levelo://app?vid=55489fe9-a91e-44b1-8204-b20940debb4b","ios":"levelo://app?vid=55489fe9-a91e-44b1-8204-b20940debb4b"},"vehicle_type_id":"4","last_reported":1777066699,"current_range_meters":6400,"station_id":"ce4bhap2rcd13ifvqek0","pricing_plan_id":"cebpf4jnsgd1na2vs0mg"},{"bike_id":"500c3cdf-5e69-46f4-9694-d063e2b1b8f7","system_id":"levelo_inurba_marseille","lat":43.31313,"lon":5.3969,"is_reserved":false,"is_disabled":false,"rental_uris":{"android":"levelo://app?vid=500c3cdf-5e69-46f4-9694-d063e2b1b8f7","ios":"levelo://app?vid=500c3cdf-5e69-46f4-9694-d063e2b1b8f7"},"vehicle_type_id":"4","last_reported":1777066699,"current_range_meters":6400,"station_id":"ce4bgvp2rcd13ifvqcu0","pricing_plan_id":"cebpf4jnsgd1na2vs0mg"},{"bike_id":"1c89594e-cd92-4154-8076-405e4d92a39c","system_id":"levelo_inurba_marseille","lat":43.28363,"lon":5.38631,"is_reserved":false,"is_disabled":false,"rental_uris":{"android":"levelo://app?vid=1c89594e-cd92-4154-8076-405e4d92a39c","ios":"levelo://app?vid=1c89594e-cd92-4154-8076-405e4d92a39c"},"vehicle_type_id":"4","last_reported":1777066699,"current_range_meters":6400,"station_id":"ce4bh492rcd13ifvqdvg","pricing_plan_id":"cebpf4jnsgd1na2vs0mg"},{"bike_id":"b368c110-d0d2-4b4f-b409-b59532cc65bc","system_id":"levelo_inurba_marseille","lat":43.29023,"lon":5.39985,"is_reserved":false,"is_disabled":false,"rental_uris":{"android":"levelo://app?vid=b368c110-d0d2-4b4f-b409-b59532cc65bc","ios":"levelo://app?vid=b368c110-d0d2-4b4f-b409-b59532cc65bc"},"vehicle_type_id":"4","last_reported":1777066699,"current_range_meters":6400,"station_id":"ce4bh392rcd13ifvqdm0","pricing_plan_id":"cebpf4jnsgd1na2vs0mg"},{"bike_id":"dd2047c2-bb91-49cf-b349-a50990a16979","system_id":"levelo_inurba_marseille","lat":43.29032,"lon":5.38139,"is_reserved":false,"is_disabled":true,"rental_uris":{"android":"levelo://app?vid=dd2047c2-bb91-49cf-b349-a50990a16979","ios":"levelo://app?vid=dd2047c2-bb91-49cf-b349-a50990a16979"},"vehicle_type_id":"4","last_reported":1777066699,"current_range_meters":6400,"station_id":"ce4bh4p2rcd13ifvqe1g","pricing_plan_id":"cebpf4jnsgd1na2vs0mg"},{"bike_id":"90fac789-06e9-4c33-94b9-e82543e03c21","system_id":"levelo_inurba_marseille","lat":43.27376,"lon":5.36245,"is_reserved":false,"is_disabled":true,"rental_uris":{"android":"levelo://app?vid=90fac789-06e9-4c33-94b9-e82543e03c21","ios":"levelo://app?vid=90fac789-06e9-4c33-94b9-e82543e03c21"},"vehicle_type_id":"4","last_reported":1777066699,"current_range_meters":6400,"station_id":"ce4bhbh2rcd13ifvqeo0","pricing_plan_id":"cebpf4jnsgd1na2vs0mg"},{"bike_id":"815dd24c-6bc3-404e-ae21-da40af49d8c8","system_id":"levelo_inurba_marseille","lat":43.28036,"lon":5.36967,"is_reserved":false,"is_disabled":false,"rental_uris":{"android":"levelo://app?vid=815dd24c-6bc3-404e-ae21-da40af49d8c8","ios":"levelo://app?vid=815dd24c-6bc3-404e-ae21-da40af49d8c8"},"vehicle_type_id":"4","last_reported":1777066699,"current_range_meters":6400,"station_id":"ce4bha12rcd13ifvqef0","pricing_plan_id":"cebpf4jnsgd1na2vs0mg"},{"bike_id":"1f582608-2655-4ba4-b095-16566a7cd559","system_id":"levelo_inurba_marseille","lat":43.31839,"lon":5.44549,"is_reserved":false,"is_disabled":false,"rental_uris":{"android":"levelo://app?vid=1f582608-2655-4ba4-b095-16566a7cd559","ios":"levelo://app?vid=1f582608-2655-4ba4-b095-16566a7cd559"},"vehicle_type_id":"4","last_reported":1777066699,"current_range_meters":6400,"station_id":"","pricing_plan_id":"cebpf4jnsgd1na2vs0mg"},{"bike_id":"f8b71621-9ee0-4284-b9b2-be8fa047ba8a","system_id":"levelo_inurba_marseille","lat":43.30128,"lon":5.43097,"is_reserved":false,"is_disabled":false,"rental_uris":{"android":"levelo://app?vid=f8b71621-9ee0-4284-b9b2-be8fa047ba8a","ios":"levelo://app?vid=f8b71621-9ee0-4284-b9b2-be8fa047ba8a"},"vehicle_type_id":"4","last_reported":1777066699,"current_range_meters":6400,"station_id":"st_d3js3co5814s73ftftug","pricing_plan_id":"cebpf4jnsgd1na2vs0mg"},{"bike_id":"c4a6cf3f-a5b9-43d7-91d0-4da564433a66","system_id":"levelo_inurba_marseille","lat":43.30126,"lon":5.37395,"is_reserved":false,"is_disabled":false,"rental_uris":{"android":"levelo://app?vid=c4a6cf3f-a5b9-43d7-91d0-4da564433a66","ios":"levelo://app?vid=c4a6cf3f-a5b9-43d7-91d0-4da564433a66"},"vehicle_type_id":"4","last_reported":1777066699,"current_range_meters":6800,"station_id":"ce4bgs92rcd13ifvqcc0","pricing_plan_id":"cebpf4jnsgd1na2vs0mg"},{"bike_id":"8a4d316b-7dfb-42df-8aea-4c7d58210d7a","system_id":"levelo_inurba_marseille","lat":43.31264,"lon":5.43056,"is_reserved":false,"is_disabled":false,"rental_uris":{"android":"levelo://app?vid=8a4d316b-7dfb-42df-8aea-4c7d58210d7a","ios":"levelo://app?vid=8a4d316b-7dfb-42df-8aea-4c7d58210d7a"},"vehicle_type_id":"4","last_reported":1777066699,"current_range_meters":6800,"station_id":"","pricing_plan_id":"cebpf4jnsgd1na2vs0mg"},{"bike_id":"732477f8-f155-4d59-a54d-b8bf4e772643","system_id":"levelo_inurba_marseille","lat":43.30104,"lon":5.38103,"is_reserved":false,"is_disabled":false,"rental_uris":{"android":"levelo://app?vid=732477f8-f155-4d59-a54d-b8bf4e772643","ios":"levelo://app?vid=732477f8-f155-4d59-a54d-b8bf4e772643"},"vehicle_type_id":"4","last_reported":1777066699,"current_range_meters":6800,"station_id":"ce4bgjp2rcd13ifvqbh0","pricing_plan_id":"cebpf4jnsgd1na2vs0mg"},{"bike_id":"cd21f6c1-a1f8-4978-8025-1d254a6bf514","system_id":"levelo_inurba_marseille","lat":43.28486,"lon":5.48393,"is_reserved":false,"is_disabled":false,"rental_uris":{"android":"levelo://app?vid=cd21f6c1-a1f8-4978-8025-1d254a6bf514","ios":"levelo://app?vid=cd21f6c1-a1f8-4978-8025-1d254a6bf514"},"vehicle_type_id":"4","last_reported":1777066699,"current_range_meters":6800,"station_id":"st_d3svhcjqgbts73a3dn0g","pricing_plan_id":"cebpf4jnsgd1na2vs0mg"},{"bike_id":"aa65a205-4a73-4ed3-aa15-5e199161459f","system_id":"levelo_inurba_marseille","lat":43.30129,"lon":5.39861,"is_reserved":false,"is_disabled":false,"rental_uris":{"android":"levelo://app?vid=aa65a205-4a73-4ed3-aa15-5e199161459f","ios":"levelo://app?vid=aa65a205-4a73-4ed3-aa15-5e199161459f"},"vehicle_type_id":"4","last_reported":1777066699,"current_range_meters":6800,"station_id":"ce4bh0h2rcd13ifvqd40","pricing_plan_id":"cebpf4jnsgd1na2vs0mg"},{"bike_id":"f95f8175-1618-4974-8970-509c6f0c66c1","system_id":"levelo_inurba_marseille","lat":43.26954,"lon":5.38906,"is_reserved":false,"is_disabled":false,"rental_uris":{"android":"levelo://app?vid=f95f8175-1618-4974-8970-509c6f0c66c1","ios":"levelo://app?vid=f95f8175-1618-4974-8970-509c6f0c66c1"},"vehicle_type_id":"4","last_reported":1777066699,"current_range_meters":6800,"station_id":"ce4bhhh2rcd13ifvqfl0","pricing_plan_id":"cebpf4jnsgd1na2vs0mg"},{"bike_id":"02f9279e-7ffe-4b60-b55f-54f135904b3a","system_id":"levelo_inurba_marseille","lat":43.29951,"lon":5.38477,"is_reserved":false,"is_disabled":false,"rental_uris":{"android":"levelo://app?vid=02f9279e-7ffe-4b60-b55f-54f135904b3a","ios":"levelo://app?vid=02f9279e-7ffe-4b60-b55f-54f135904b3a"},"vehicle_type_id":"4","last_reported":1777066699,"current_range_meters":6800,"station_id":"ce4bgj92rcd13ifvqbd0","pricing_plan_id":"cebpf4jnsgd1na2vs0mg"},{"bike_id":"8fb84350-1a94-4bc1-975c-56b8215e2ec6","system_id":"levelo_inurba_marseille","lat":43.27463,"lon":5.439,"is_reserved":false,"is_disabled":false,"rental_uris":{"android":"levelo://app?vid=8fb84350-1a94-4bc1-975c-56b8215e2ec6","ios":"levelo://app?vid=8fb84350-1a94-4bc1-975c-56b8215e2ec6"},"vehicle_type_id":"4","last_reported":1777066699,"current_range_meters":6800,"station_id":"","pricing_plan_id":"cebpf4jnsgd1na2vs0mg"},{"bike_id":"c5144401-e972-4445-9dc7-2e728caa9411","system_id":"levelo_inurba_marseille","lat":43.23201,"lon":5.3998,"is_reserved":false,"is_disabled":false,"rental_uris":{"android":"levelo://app?vid=c5144401-e972-4445-9dc7-2e728caa9411","ios":"levelo://app?vid=c5144401-e972-4445-9dc7-2e728caa9411"},"vehicle_type_id":"4","last_reported":1777066699,"current_range_meters":6800,"station_id":"ce4bhn12rcd13ifvqgqg","pricing_plan_id":"cebpf4jnsgd1na2vs0mg"},{"bike_id":"d49733df-3051-4ea3-89e5-132f163227a3","system_id":"levelo_inurba_marseille","lat":43.3044,"lon":5.38887,"is_reserved":false,"is_disabled":false,"rental_uris":{"android":"levelo://app?vid=d49733df-3051-4ea3-89e5-132f163227a3","ios":"levelo://app?vid=d49733df-3051-4ea3-89e5-132f163227a3"},"vehicle_type_id":"4","last_reported":1777066699,"current_range_meters":6800,"station_id":"ce4bgk12rcd13ifvqbi0","pricing_plan_id":"cebpf4jnsgd1na2vs0mg"},{"bike_id":"7e26327c-b51f-4a0c-8642-a9b92f586618","system_id":"levelo_inurba_marseille","lat":43.2931,"lon":5.37466,"is_reserved":false,"is_disabled":false,"rental_uris":{"android":"levelo://app?vid=7e26327c-b51f-4a0c-8642-a9b92f586618","ios":"levelo://app?vid=7e26327c-b51f-4a0c-8642-a9b92f586618"},"vehicle_type_id":"4","last_reported":1777066699,"current_range_meters":6800,"station_id":"ce4bgi12rcd13ifvqb70","pricing_plan_id":"cebpf4jnsgd1na2vs0mg"},{"bike_id":"fe29a2a6-ba1c-4e94-9c3b-ef1df3f12df5","system_id":"levelo_inurba_marseille","lat":43.28424,"lon":5.37497,"is_reserved":false,"is_disabled":false,"rental_uris":{"android":"levelo://app?vid=fe29a2a6-ba1c-4e94-9c3b-ef1df3f12df5","ios":"levelo://app?vid=fe29a2a6-ba1c-4e94-9c3b-ef1df3f12df5"},"vehicle_type_id":"4","last_reported":1777066699,"current_range_meters":6800,"station_id":"ce4bh412rcd13ifvqds0","pricing_plan_id":"cebpf4jnsgd1na2vs0mg"},{"bike_id":"7ab9e9d2-55c6-492f-8e60-126c7a6965ab","system_id":"levelo_inurba_marseille","lat":43.27961,"lon":5.37036,"is_reserved":false,"is_disabled":false,"rental_uris":{"android":"levelo://app?vid=7ab9e9d2-55c6-492f-8e60-126c7a6965ab","ios":"levelo://app?vid=7ab9e9d2-55c6-492f-8e60-126c7a6965ab"},"vehicle_type_id":"4","last_reported":1777066699,"current_range_meters":6800,"station_id":"","pricing_plan_id":"cebpf4jnsgd1na2vs0mg"},{"bike_id":"27cd71a7-0940-4415-a67f-21597fbf1cd9","system_id":"levelo_inurba_marseille","lat":43.33036,"lon":5.39029,"is_reserved":false,"is_disabled":false,"rental_uris":{"android":"levelo://app?vid=27cd71a7-0940-4415-a67f-21597fbf1cd9","ios":"levelo://app?vid=27cd71a7-0940-4415-a67f-21597fbf1cd9"},"vehicle_type_id":"4","last_reported":1777066699,"current_range_meters":7200,"station_id":"ce4bhr92rcd13ifvqhrg","pricing_plan_id":"cebpf4jnsgd1na2vs0mg"},{"bike_id":"eb0bc669-27ac-4a41-b200-c9414b34635e","system_id":"levelo_inurba_marseille","lat":43.29264,"lon":5.40915,"is_reserved":false,"is_disabled":true,"rental_uris":{"android":"levelo://app?vid=eb0bc669-27ac-4a41-b200-c9414b34635e","ios":"levelo://app?vid=eb0bc669-27ac-4a41-b200-c9414b34635e"},"vehicle_type_id":"4","last_reported":1777066699,"current_range_meters":7200,"station_id":"ce4bh192rcd13ifvqdc0","pricing_plan_id":"cebpf4jnsgd1na2vs0mg"},{"bike_id":"8ee0a40d-124f-4413-9074-6911095dcd65","system_id":"levelo_inurba_marseille","lat":43.2655,"lon":5.3729,"is_reserved":false,"is_disabled":false,"rental_uris":{"android":"levelo://app?vid=8ee0a40d-124f-4413-9074-6911095dcd65","ios":"levelo://app?vid=8ee0a40d-124f-4413-9074-6911095dcd65"},"vehicle_type_id":"4","last_reported":1777066699,"current_range_meters":7200,"station_id":"ce4bhg12rcd13ifvqf70","pricing_plan_id":"cebpf4jnsgd1na2vs0mg"},{"bike_id":"3d157094-1633-4b6b-b41f-2648a50f3eee","system_id":"levelo_inurba_marseille","lat":43.31512,"lon":5.3732,"is_reserved":false,"is_disabled":false,"rental_uris":{"android":"levelo://app?vid=3d157094-1633-4b6b-b41f-2648a50f3eee","ios":"levelo://app?vid=3d157094-1633-4b6b-b41f-2648a50f3eee"},"vehicle_type_id":"4","last_reported":1777066699,"current_range_meters":7200,"station_id":"ce4bgt12rcd13ifvqcd0","pricing_plan_id":"cebpf4jnsgd1na2vs0mg"},{"bike_id":"40457f83-17ec-403e-b602-4d357d73bc74","system_id":"levelo_inurba_marseille","lat":43.29287,"lon":5.3747,"is_reserved":false,"is_disabled":false,"rental_uris":{"android":"levelo://app?vid=40457f83-17ec-403e-b602-4d357d73bc74","ios":"levelo://app?vid=40457f83-17ec-403e-b602-4d357d73bc74"},"vehicle_type_id":"4","last_reported":1777066699,"current_range_meters":7200,"station_id":"ce4bgi12rcd13ifvqb70","pricing_plan_id":"cebpf4jnsgd1na2vs0mg"},{"bike_id":"e8d002b1-199e-4516-8ed6-821a0c98040c","system_id":"levelo_inurba_marseille","lat":43.33773,"lon":5.37478,"is_reserved":false,"is_disabled":false,"rental_uris":{"android":"levelo://app?vid=e8d002b1-199e-4516-8ed6-821a0c98040c","ios":"levelo://app?vid=e8d002b1-199e-4516-8ed6-821a0c98040c"},"vehicle_type_id":"4","last_reported":1777066699,"current_range_meters":7200,"station_id":"st_d46cu089ee8s73dldbu0","pricing_plan_id":"cebpf4jnsgd1na2vs0mg"},{"bike_id":"a7b87245-c28d-4f8d-becb-31bbaad379e8","system_id":"levelo_inurba_marseille","lat":43.28366,"lon":5.38637,"is_reserved":false,"is_disabled":true,"rental_uris":{"android":"levelo://app?vid=a7b87245-c28d-4f8d-becb-31bbaad379e8","ios":"levelo://app?vid=a7b87245-c28d-4f8d-becb-31bbaad379e8"},"vehicle_type_id":"4","last_reported":1777066699,"current_range_meters":7200,"station_id":"ce4bh492rcd13ifvqdvg","pricing_plan_id":"cebpf4jnsgd1na2vs0mg"},{"bike_id":"e5351f5d-750e-4125-8c39-ab705504929d","system_id":"levelo_inurba_marseille","lat":43.2954,"lon":5.38545,"is_reserved":false,"is_disabled":false,"rental_uris":{"android":"levelo://app?vid=e5351f5d-750e-4125-8c39-ab705504929d","ios":"levelo://app?vid=e5351f5d-750e-4125-8c39-ab705504929d"},"vehicle_type_id":"4","last_reported":1777066699,"current_range_meters":7200,"station_id":"ce4bgih2rcd13ifvqba0","pricing_plan_id":"cebpf4jnsgd1na2vs0mg"},{"bike_id":"cd210a1c-14e3-40ad-b7a0-4041750b24d6","system_id":"levelo_inurba_marseille","lat":43.26947,"lon":5.38624,"is_reserved":false,"is_disabled":false,"rental_uris":{"android":"levelo://app?vid=cd210a1c-14e3-40ad-b7a0-4041750b24d6","ios":"levelo://app?vid=cd210a1c-14e3-40ad-b7a0-4041750b24d6"},"vehicle_type_id":"4","last_reported":1777066699,"current_range_meters":7200,"station_id":"ce4bhh92rcd13ifvqfh0","pricing_plan_id":"cebpf4jnsgd1na2vs0mg"},{"bike_id":"d694ba1c-512d-41c4-bc02-130d465adeb0","system_id":"levelo_inurba_marseille","lat":43.29618,"lon":5.38114,"is_reserved":false,"is_disabled":false,"rental_uris":{"android":"levelo://app?vid=d694ba1c-512d-41c4-bc02-130d465adeb0","ios":"levelo://app?vid=d694ba1c-512d-41c4-bc02-130d465adeb0"},"vehicle_type_id":"4","last_reported":1777066699,"current_range_meters":7200,"station_id":"ce4bgl12rcd13ifvqbo0","pricing_plan_id":"cebpf4jnsgd1na2vs0mg"},{"bike_id":"9e5bff11-fc6f-401c-a734-c0114c638ef0","system_id":"levelo_inurba_marseille","lat":43.29021,"lon":5.38103,"is_reserved":false,"is_disabled":false,"rental_uris":{"android":"levelo://app?vid=9e5bff11-fc6f-401c-a734-c0114c638ef0","ios":"levelo://app?vid=9e5bff11-fc6f-401c-a734-c0114c638ef0"},"vehicle_type_id":"4","last_reported":1777066699,"current_range_meters":7200,"station_id":"ce4bh4p2rcd13ifvqe1g","pricing_plan_id":"cebpf4jnsgd1na2vs0mg"},{"bike_id":"a28acdbc-a7a8-459e-8894-ea9ca11bb640","system_id":"levelo_inurba_marseille","lat":43.29574,"lon":5.39965,"is_reserved":false,"is_disabled":false,"rental_uris":{"android":"levelo://app?vid=a28acdbc-a7a8-459e-8894-ea9ca11bb640","ios":"levelo://app?vid=a28acdbc-a7a8-459e-8894-ea9ca11bb640"},"vehicle_type_id":"4","last_reported":1777066699,"current_range_meters":7200,"station_id":"ce4bh312rcd13ifvqdj0","pricing_plan_id":"cebpf4jnsgd1na2vs0mg"},{"bike_id":"bab7cad4-d1a4-434a-ada5-56f652707f0f","system_id":"levelo_inurba_marseille","lat":43.29306,"lon":5.37149,"is_reserved":false,"is_disabled":false,"rental_uris":{"android":"levelo://app?vid=bab7cad4-d1a4-434a-ada5-56f652707f0f","ios":"levelo://app?vid=bab7cad4-d1a4-434a-ada5-56f652707f0f"},"vehicle_type_id":"4","last_reported":1777066699,"current_range_meters":7200,"station_id":"ce4bgh92rcd13ifvqb40","pricing_plan_id":"cebpf4jnsgd1na2vs0mg"},{"bike_id":"ea4e001a-09d6-4f9d-8d3d-9f93e3b94c6f","system_id":"levelo_inurba_marseille","lat":43.28502,"lon":5.38433,"is_reserved":false,"is_disabled":false,"rental_uris":{"android":"levelo://app?vid=ea4e001a-09d6-4f9d-8d3d-9f93e3b94c6f","ios":"levelo://app?vid=ea4e001a-09d6-4f9d-8d3d-9f93e3b94c6f"},"vehicle_type_id":"4","last_reported":1777066699,"current_range_meters":7200,"station_id":"ce4bh512rcd13ifvqe3g","pricing_plan_id":"cebpf4jnsgd1na2vs0mg"},{"bike_id":"fbf8807f-c70c-4070-a509-f8fc45c2a6a9","system_id":"levelo_inurba_marseille","lat":43.29297,"lon":5.37442,"is_reserved":false,"is_disabled":false,"rental_uris":{"android":"levelo://app?vid=fbf8807f-c70c-4070-a509-f8fc45c2a6a9","ios":"levelo://app?vid=fbf8807f-c70c-4070-a509-f8fc45c2a6a9"},"vehicle_type_id":"4","last_reported":1777066699,"current_range_meters":7200,"station_id":"ce4bgi12rcd13ifvqb70","pricing_plan_id":"cebpf4jnsgd1na2vs0mg"},{"bike_id":"511a07b4-6464-4c78-9aa6-e1013bbe91a1","system_id":"levelo_inurba_marseille","lat":43.32114,"lon":5.3676,"is_reserved":false,"is_disabled":false,"rental_uris":{"android":"levelo://app?vid=511a07b4-6464-4c78-9aa6-e1013bbe91a1","ios":"levelo://app?vid=511a07b4-6464-4c78-9aa6-e1013bbe91a1"},"vehicle_type_id":"4","last_reported":1777066699,"current_range_meters":7200,"station_id":"ce4bhrh2rcd13ifvqhug","pricing_plan_id":"cebpf4jnsgd1na2vs0mg"},{"bike_id":"b9637e18-e26e-4fc4-a2f8-6ce0332b2718","system_id":"levelo_inurba_marseille","lat":43.29546,"lon":5.39022,"is_reserved":false,"is_disabled":false,"rental_uris":{"android":"levelo://app?vid=b9637e18-e26e-4fc4-a2f8-6ce0332b2718","ios":"levelo://app?vid=b9637e18-e26e-4fc4-a2f8-6ce0332b2718"},"vehicle_type_id":"4","last_reported":1777066699,"current_range_meters":7200,"station_id":"ce4bh3p2rcd13ifvqdp0","pricing_plan_id":"cebpf4jnsgd1na2vs0mg"},{"bike_id":"a7398d3c-309c-40e4-8059-f2e4acd33fe1","system_id":"levelo_inurba_marseille","lat":43.31995,"lon":5.38131,"is_reserved":false,"is_disabled":false,"rental_uris":{"android":"levelo://app?vid=a7398d3c-309c-40e4-8059-f2e4acd33fe1","ios":"levelo://app?vid=a7398d3c-309c-40e4-8059-f2e4acd33fe1"},"vehicle_type_id":"4","last_reported":1777066699,"current_range_meters":7200,"station_id":"ce4bhr12rcd13ifvqhpg","pricing_plan_id":"cebpf4jnsgd1na2vs0mg"},{"bike_id":"e4c7f787-7227-4a2f-bbc2-2a93beba45d0","system_id":"levelo_inurba_marseille","lat":43.3111,"lon":5.37774,"is_reserved":false,"is_disabled":false,"rental_uris":{"android":"levelo://app?vid=e4c7f787-7227-4a2f-bbc2-2a93beba45d0","ios":"levelo://app?vid=e4c7f787-7227-4a2f-bbc2-2a93beba45d0"},"vehicle_type_id":"4","last_reported":1777066699,"current_range_meters":7200,"station_id":"ce4bgt92rcd13ifvqcg0","pricing_plan_id":"cebpf4jnsgd1na2vs0mg"},{"bike_id":"5f4d22fe-104c-4f36-a551-988d331d9f95","system_id":"levelo_inurba_marseille","lat":43.30133,"lon":5.37422,"is_reserved":false,"is_disabled":false,"rental_uris":{"android":"levelo://app?vid=5f4d22fe-104c-4f36-a551-988d331d9f95","ios":"levelo://app?vid=5f4d22fe-104c-4f36-a551-988d331d9f95"},"vehicle_type_id":"4","last_reported":1777066699,"current_range_meters":7200,"station_id":"ce4bgs92rcd13ifvqcc0","pricing_plan_id":"cebpf4jnsgd1na2vs0mg"},{"bike_id":"41307ca2-8b85-4f42-8a79-9609c6efa26c","system_id":"levelo_inurba_marseille","lat":43.28938,"lon":5.36398,"is_reserved":false,"is_disabled":false,"rental_uris":{"android":"levelo://app?vid=41307ca2-8b85-4f42-8a79-9609c6efa26c","ios":"levelo://app?vid=41307ca2-8b85-4f42-8a79-9609c6efa26c"},"vehicle_type_id":"4","last_reported":1777066699,"current_range_meters":7200,"station_id":"ce4bhc92rcd13ifvqetg","pricing_plan_id":"cebpf4jnsgd1na2vs0mg"},{"bike_id":"77e7c858-ad16-4751-946e-c5a14f87713a","system_id":"levelo_inurba_marseille","lat":43.31182,"lon":5.38707,"is_reserved":false,"is_disabled":false,"rental_uris":{"android":"levelo://app?vid=77e7c858-ad16-4751-946e-c5a14f87713a","ios":"levelo://app?vid=77e7c858-ad16-4751-946e-c5a14f87713a"},"vehicle_type_id":"4","last_reported":1777066699,"current_range_meters":7200,"station_id":"ce4bgv12rcd13ifvqcp0","pricing_plan_id":"cebpf4jnsgd1na2vs0mg"},{"bike_id":"0639af1a-29da-4df9-ab58-5e51ff933c8f","system_id":"levelo_inurba_marseille","lat":43.29265,"lon":5.3684,"is_reserved":false,"is_disabled":false,"rental_uris":{"android":"levelo://app?vid=0639af1a-29da-4df9-ab58-5e51ff933c8f","ios":"levelo://app?vid=0639af1a-29da-4df9-ab58-5e51ff933c8f"},"vehicle_type_id":"4","last_reported":1777066699,"current_range_meters":8000,"station_id":"","pricing_plan_id":"cebpf4jnsgd1na2vs0mg"},{"bike_id":"1a28a8e6-efb3-431b-8efc-c187ccae1671","system_id":"levelo_inurba_marseille","lat":43.25486,"lon":5.37641,"is_reserved":false,"is_disabled":false,"rental_uris":{"android":"levelo://app?vid=1a28a8e6-efb3-431b-8efc-c187ccae1671","ios":"levelo://app?vid=1a28a8e6-efb3-431b-8efc-c187ccae1671"},"vehicle_type_id":"4","last_reported":1777066699,"current_range_meters":8000,"station_id":"ce4bhh12rcd13ifvqff0","pricing_plan_id":"cebpf4jnsgd1na2vs0mg"},{"bike_id":"f9c28b33-e7ba-4f82-bdba-494d269ab6b2","system_id":"levelo_inurba_marseille","lat":43.29188,"lon":5.39351,"is_reserved":false,"is_disabled":false,"rental_uris":{"android":"levelo://app?vid=f9c28b33-e7ba-4f82-bdba-494d269ab6b2","ios":"levelo://app?vid=f9c28b33-e7ba-4f82-bdba-494d269ab6b2"},"vehicle_type_id":"4","last_reported":1777066699,"current_range_meters":8000,"station_id":"","pricing_plan_id":"cebpf4jnsgd1na2vs0mg"},{"bike_id":"c47a816f-c50b-4ba2-93a9-d675855335e9","system_id":"levelo_inurba_marseille","lat":43.305573,"lon":5.365674,"is_reserved":false,"is_disabled":false,"rental_uris":{"android":"levelo://app?vid=c47a816f-c50b-4ba2-93a9-d675855335e9","ios":"levelo://app?vid=c47a816f-c50b-4ba2-93a9-d675855335e9"},"vehicle_type_id":"4","last_reported":1777066699,"current_range_meters":8000,"station_id":"ce4bgs12rcd13ifvqcag","pricing_plan_id":"cebpf4jnsgd1na2vs0mg"},{"bike_id":"87d16eab-f62b-4609-a92f-7cb9e2844076","system_id":"levelo_inurba_marseille","lat":43.281182,"lon":5.378289,"is_reserved":false,"is_disabled":false,"rental_uris":{"android":"levelo://app?vid=87d16eab-f62b-4609-a92f-7cb9e2844076","ios":"levelo://app?vid=87d16eab-f62b-4609-a92f-7cb9e2844076"},"vehicle_type_id":"4","last_reported":1777066699,"current_range_meters":8000,"station_id":"ce4bha12rcd13ifvqee0","pricing_plan_id":"cebpf4jnsgd1na2vs0mg"},{"bike_id":"487de52d-8377-4a2f-bcff-bc1b51b966ef","system_id":"levelo_inurba_marseille","lat":43.28935,"lon":5.36627,"is_reserved":false,"is_disabled":false,"rental_uris":{"android":"levelo://app?vid=487de52d-8377-4a2f-bcff-bc1b51b966ef","ios":"levelo://app?vid=487de52d-8377-4a2f-bcff-bc1b51b966ef"},"vehicle_type_id":"4","last_reported":1777066699,"current_range_meters":8000,"station_id":"ce4bhap2rcd13ifvqek0","pricing_plan_id":"cebpf4jnsgd1na2vs0mg"},{"bike_id":"a3dee876-3af2-46d4-9131-1dd0997e500a","system_id":"levelo_inurba_marseille","lat":43.24397,"lon":5.37077,"is_reserved":false,"is_disabled":true,"rental_uris":{"android":"levelo://app?vid=a3dee876-3af2-46d4-9131-1dd0997e500a","ios":"levelo://app?vid=a3dee876-3af2-46d4-9131-1dd0997e500a"},"vehicle_type_id":"4","last_reported":1777066699,"current_range_meters":8000,"station_id":"ce4bhhh2rcd13ifvqfk0","pricing_plan_id":"cebpf4jnsgd1na2vs0mg"},{"bike_id":"a744fe3b-687b-464f-8bc6-3c55d8d32006","system_id":"levelo_inurba_marseille","lat":43.2995,"lon":5.38421,"is_reserved":false,"is_disabled":false,"rental_uris":{"android":"levelo://app?vid=a744fe3b-687b-464f-8bc6-3c55d8d32006","ios":"levelo://app?vid=a744fe3b-687b-464f-8bc6-3c55d8d32006"},"vehicle_type_id":"4","last_reported":1777066699,"current_range_meters":8000,"station_id":"ce4bgj92rcd13ifvqbd0","pricing_plan_id":"cebpf4jnsgd1na2vs0mg"},{"bike_id":"60be4b0d-4c83-4300-8220-7b23e159ba6b","system_id":"levelo_inurba_marseille","lat":43.24802,"lon":5.37455,"is_reserved":false,"is_disabled":false,"rental_uris":{"android":"levelo://app?vid=60be4b0d-4c83-4300-8220-7b23e159ba6b","ios":"levelo://app?vid=60be4b0d-4c83-4300-8220-7b23e159ba6b"},"vehicle_type_id":"4","last_reported":1777066699,"current_range_meters":8000,"station_id":"ce4bhgh2rcd13ifvqfb0","pricing_plan_id":"cebpf4jnsgd1na2vs0mg"},{"bike_id":"7615b581-cda4-4a3c-be59-c04cb3e93e24","system_id":"levelo_inurba_marseille","lat":43.29293,"lon":5.37464,"is_reserved":false,"is_disabled":false,"rental_uris":{"android":"levelo://app?vid=7615b581-cda4-4a3c-be59-c04cb3e93e24","ios":"levelo://app?vid=7615b581-cda4-4a3c-be59-c04cb3e93e24"},"vehicle_type_id":"4","last_reported":1777066699,"current_range_meters":8000,"station_id":"ce4bgi12rcd13ifvqb70","pricing_plan_id":"cebpf4jnsgd1na2vs0mg"},{"bike_id":"05483cf0-c1ae-4465-a083-0bc3c7400548","system_id":"levelo_inurba_marseille","lat":43.27671,"lon":5.38889,"is_reserved":false,"is_disabled":true,"rental_uris":{"android":"levelo://app?vid=05483cf0-c1ae-4465-a083-0bc3c7400548","ios":"levelo://app?vid=05483cf0-c1ae-4465-a083-0bc3c7400548"},"vehicle_type_id":"4","last_reported":1777066699,"current_range_meters":8000,"station_id":"ce4bhi12rcd13ifvqfo0","pricing_plan_id":"cebpf4jnsgd1na2vs0mg"},{"bike_id":"33b474e7-79ff-4803-b72e-82f4ac2d8854","system_id":"levelo_inurba_marseille","lat":43.3086,"lon":5.39637,"is_reserved":false,"is_disabled":false,"rental_uris":{"android":"levelo://app?vid=33b474e7-79ff-4803-b72e-82f4ac2d8854","ios":"levelo://app?vid=33b474e7-79ff-4803-b72e-82f4ac2d8854"},"vehicle_type_id":"4","last_reported":1777066699,"current_range_meters":8000,"station_id":"","pricing_plan_id":"cebpf4jnsgd1na2vs0mg"},{"bike_id":"3efa2a42-91b7-416f-9540-9469d341ac74","system_id":"levelo_inurba_marseille","lat":43.28695,"lon":5.37395,"is_reserved":false,"is_disabled":false,"rental_uris":{"android":"levelo://app?vid=3efa2a42-91b7-416f-9540-9469d341ac74","ios":"levelo://app?vid=3efa2a42-91b7-416f-9540-9469d341ac74"},"vehicle_type_id":"4","last_reported":1777066699,"current_range_meters":8000,"station_id":"ce4bh3p2rcd13ifvqdq0","pricing_plan_id":"cebpf4jnsgd1na2vs0mg"},{"bike_id":"a49cc85a-db02-4da4-9fff-21ab4ec25f52","system_id":"levelo_inurba_marseille","lat":43.23195,"lon":5.35544,"is_reserved":false,"is_disabled":false,"rental_uris":{"android":"levelo://app?vid=a49cc85a-db02-4da4-9fff-21ab4ec25f52","ios":"levelo://app?vid=a49cc85a-db02-4da4-9fff-21ab4ec25f52"},"vehicle_type_id":"4","last_reported":1777066699,"current_range_meters":8000,"station_id":"ce4bhu92rcd13ifvqi70","pricing_plan_id":"cebpf4jnsgd1na2vs0mg"},{"bike_id":"8b8b5db3-e95a-497f-b84a-b89a12682ca4","system_id":"levelo_inurba_marseille","lat":43.29815,"lon":5.44072,"is_reserved":false,"is_disabled":false,"rental_uris":{"android":"levelo://app?vid=8b8b5db3-e95a-497f-b84a-b89a12682ca4","ios":"levelo://app?vid=8b8b5db3-e95a-497f-b84a-b89a12682ca4"},"vehicle_type_id":"4","last_reported":1777066699,"current_range_meters":8000,"station_id":"st_d3jp68qikq2c7381ktn0","pricing_plan_id":"cebpf4jnsgd1na2vs0mg"},{"bike_id":"ba91578f-7f51-4950-b60f-8143dfcb6ad4","system_id":"levelo_inurba_marseille","lat":43.29528,"lon":5.38585,"is_reserved":false,"is_disabled":false,"rental_uris":{"android":"levelo://app?vid=ba91578f-7f51-4950-b60f-8143dfcb6ad4","ios":"levelo://app?vid=ba91578f-7f51-4950-b60f-8143dfcb6ad4"},"vehicle_type_id":"4","last_reported":1777066699,"current_range_meters":8000,"station_id":"ce4bgih2rcd13ifvqba0","pricing_plan_id":"cebpf4jnsgd1na2vs0mg"},{"bike_id":"68385ad1-5a71-4622-9ac2-dcc837084f17","system_id":"levelo_inurba_marseille","lat":43.24095,"lon":5.37755,"is_reserved":false,"is_disabled":false,"rental_uris":{"android":"levelo://app?vid=68385ad1-5a71-4622-9ac2-dcc837084f17","ios":"levelo://app?vid=68385ad1-5a71-4622-9ac2-dcc837084f17"},"vehicle_type_id":"4","last_reported":1777066699,"current_range_meters":8000,"station_id":"ce4bhnp2rcd13ifvqgvg","pricing_plan_id":"cebpf4jnsgd1na2vs0mg"},{"bike_id":"261b4d20-3fce-4a9a-b1df-f7d9447249df","system_id":"levelo_inurba_marseille","lat":43.28468,"lon":5.48405,"is_reserved":false,"is_disabled":false,"rental_uris":{"android":"levelo://app?vid=261b4d20-3fce-4a9a-b1df-f7d9447249df","ios":"levelo://app?vid=261b4d20-3fce-4a9a-b1df-f7d9447249df"},"vehicle_type_id":"4","last_reported":1777066699,"current_range_meters":8000,"station_id":"st_d3svhcjqgbts73a3dn0g","pricing_plan_id":"cebpf4jnsgd1na2vs0mg"},{"bike_id":"c153b3f7-0c39-4669-87ba-aeaabe7d058a","system_id":"levelo_inurba_marseille","lat":43.25513,"lon":5.37643,"is_reserved":false,"is_disabled":false,"rental_uris":{"android":"levelo://app?vid=c153b3f7-0c39-4669-87ba-aeaabe7d058a","ios":"levelo://app?vid=c153b3f7-0c39-4669-87ba-aeaabe7d058a"},"vehicle_type_id":"4","last_reported":1777066699,"current_range_meters":8000,"station_id":"ce4bhh12rcd13ifvqff0","pricing_plan_id":"cebpf4jnsgd1na2vs0mg"},{"bike_id":"c7ac0306-6afc-4781-8692-f962ddfe1a23","system_id":"levelo_inurba_marseille","lat":43.32346,"lon":5.36727,"is_reserved":false,"is_disabled":false,"rental_uris":{"android":"levelo://app?vid=c7ac0306-6afc-4781-8692-f962ddfe1a23","ios":"levelo://app?vid=c7ac0306-6afc-4781-8692-f962ddfe1a23"},"vehicle_type_id":"4","last_reported":1777066699,"current_range_meters":8000,"station_id":"ce4bhsh2rcd13ifvqi2g","pricing_plan_id":"cebpf4jnsgd1na2vs0mg"},{"bike_id":"bc4afa5a-8f90-4f88-ba03-187e32e4c517","system_id":"levelo_inurba_marseille","lat":43.31263,"lon":5.40171,"is_reserved":false,"is_disabled":false,"rental_uris":{"android":"levelo://app?vid=bc4afa5a-8f90-4f88-ba03-187e32e4c517","ios":"levelo://app?vid=bc4afa5a-8f90-4f88-ba03-187e32e4c517"},"vehicle_type_id":"4","last_reported":1777066699,"current_range_meters":8000,"station_id":"ce4bh092rcd13ifvqd30","pricing_plan_id":"cebpf4jnsgd1na2vs0mg"},{"bike_id":"59fb24e2-6e2a-48ad-80e3-6e45721ebdf3","system_id":"levelo_inurba_marseille","lat":43.26558,"lon":5.37281,"is_reserved":false,"is_disabled":false,"rental_uris":{"android":"levelo://app?vid=59fb24e2-6e2a-48ad-80e3-6e45721ebdf3","ios":"levelo://app?vid=59fb24e2-6e2a-48ad-80e3-6e45721ebdf3"},"vehicle_type_id":"4","last_reported":1777066699,"current_range_meters":8000,"station_id":"ce4bhg12rcd13ifvqf70","pricing_plan_id":"cebpf4jnsgd1na2vs0mg"},{"bike_id":"7a69ea77-881a-4771-9115-4df032584bb0","system_id":"levelo_inurba_marseille","lat":43.28697,"lon":5.37385,"is_reserved":false,"is_disabled":false,"rental_uris":{"android":"levelo://app?vid=7a69ea77-881a-4771-9115-4df032584bb0","ios":"levelo://app?vid=7a69ea77-881a-4771-9115-4df032584bb0"},"vehicle_type_id":"4","last_reported":1777066699,"current_range_meters":8000,"station_id":"ce4bh3p2rcd13ifvqdq0","pricing_plan_id":"cebpf4jnsgd1na2vs0mg"},{"bike_id":"e9243ebf-6dc3-49dc-93c9-157d9d0312a2","system_id":"levelo_inurba_marseille","lat":43.30097,"lon":5.39076,"is_reserved":false,"is_disabled":false,"rental_uris":{"android":"levelo://app?vid=e9243ebf-6dc3-49dc-93c9-157d9d0312a2","ios":"levelo://app?vid=e9243ebf-6dc3-49dc-93c9-157d9d0312a2"},"vehicle_type_id":"4","last_reported":1777066699,"current_range_meters":8000,"station_id":"ce4bh192rcd13ifvqdb0","pricing_plan_id":"cebpf4jnsgd1na2vs0mg"},{"bike_id":"afc4cbb5-169b-4703-a752-402550e6087c","system_id":"levelo_inurba_marseille","lat":43.30254,"lon":5.40075,"is_reserved":false,"is_disabled":false,"rental_uris":{"android":"levelo://app?vid=afc4cbb5-169b-4703-a752-402550e6087c","ios":"levelo://app?vid=afc4cbb5-169b-4703-a752-402550e6087c"},"vehicle_type_id":"4","last_reported":1777066699,"current_range_meters":8000,"station_id":"ce4bgvh2rcd13ifvqcs0","pricing_plan_id":"cebpf4jnsgd1na2vs0mg"},{"bike_id":"b75f4a97-cfc4-4379-8d94-d9c91f7bd122","system_id":"levelo_inurba_marseille","lat":43.272115,"lon":5.391797,"is_reserved":false,"is_disabled":false,"rental_uris":{"android":"levelo://app?vid=b75f4a97-cfc4-4379-8d94-d9c91f7bd122","ios":"levelo://app?vid=b75f4a97-cfc4-4379-8d94-d9c91f7bd122"},"vehicle_type_id":"4","last_reported":1777066699,"current_range_meters":8400,"station_id":"ce4bhhp2rcd13ifvqfm0","pricing_plan_id":"cebpf4jnsgd1na2vs0mg"},{"bike_id":"910e2269-8a03-48a4-8e15-739ce9eb01f2","system_id":"levelo_inurba_marseille","lat":43.29622,"lon":5.37184,"is_reserved":false,"is_disabled":false,"rental_uris":{"android":"levelo://app?vid=910e2269-8a03-48a4-8e15-739ce9eb01f2","ios":"levelo://app?vid=910e2269-8a03-48a4-8e15-739ce9eb01f2"},"vehicle_type_id":"4","last_reported":1777066699,"current_range_meters":8400,"station_id":"ce4bgnh2rcd13ifvqc0g","pricing_plan_id":"cebpf4jnsgd1na2vs0mg"},{"bike_id":"ef1780af-1aea-4e08-82c2-da4d0be385bf","system_id":"levelo_inurba_marseille","lat":43.28993,"lon":5.36059,"is_reserved":false,"is_disabled":false,"rental_uris":{"android":"levelo://app?vid=ef1780af-1aea-4e08-82c2-da4d0be385bf","ios":"levelo://app?vid=ef1780af-1aea-4e08-82c2-da4d0be385bf"},"vehicle_type_id":"4","last_reported":1777066699,"current_range_meters":8400,"station_id":"","pricing_plan_id":"cebpf4jnsgd1na2vs0mg"},{"bike_id":"4af5f932-71ad-4954-ac3b-fecb2a352994","system_id":"levelo_inurba_marseille","lat":43.32359,"lon":5.36741,"is_reserved":false,"is_disabled":false,"rental_uris":{"android":"levelo://app?vid=4af5f932-71ad-4954-ac3b-fecb2a352994","ios":"levelo://app?vid=4af5f932-71ad-4954-ac3b-fecb2a352994"},"vehicle_type_id":"4","last_reported":1777066699,"current_range_meters":8400,"station_id":"ce4bhsh2rcd13ifvqi2g","pricing_plan_id":"cebpf4jnsgd1na2vs0mg"},{"bike_id":"50ad27c5-4cc2-4b29-aa01-94bdfa36d853","system_id":"levelo_inurba_marseille","lat":43.29255,"lon":5.40927,"is_reserved":false,"is_disabled":false,"rental_uris":{"android":"levelo://app?vid=50ad27c5-4cc2-4b29-aa01-94bdfa36d853","ios":"levelo://app?vid=50ad27c5-4cc2-4b29-aa01-94bdfa36d853"},"vehicle_type_id":"4","last_reported":1777066699,"current_range_meters":8400,"station_id":"ce4bh192rcd13ifvqdc0","pricing_plan_id":"cebpf4jnsgd1na2vs0mg"},{"bike_id":"a4663972-6325-41a0-ad69-b2abed5b6121","system_id":"levelo_inurba_marseille","lat":43.31196,"lon":5.38704,"is_reserved":false,"is_disabled":false,"rental_uris":{"android":"levelo://app?vid=a4663972-6325-41a0-ad69-b2abed5b6121","ios":"levelo://app?vid=a4663972-6325-41a0-ad69-b2abed5b6121"},"vehicle_type_id":"4","last_reported":1777066699,"current_range_meters":8400,"station_id":"ce4bgv12rcd13ifvqcp0","pricing_plan_id":"cebpf4jnsgd1na2vs0mg"},{"bike_id":"3806eb63-4038-466d-ac03-ee4e2f1be1a5","system_id":"levelo_inurba_marseille","lat":43.28498,"lon":5.38424,"is_reserved":false,"is_disabled":false,"rental_uris":{"android":"levelo://app?vid=3806eb63-4038-466d-ac03-ee4e2f1be1a5","ios":"levelo://app?vid=3806eb63-4038-466d-ac03-ee4e2f1be1a5"},"vehicle_type_id":"4","last_reported":1777066699,"current_range_meters":8400,"station_id":"ce4bh512rcd13ifvqe3g","pricing_plan_id":"cebpf4jnsgd1na2vs0mg"},{"bike_id":"1370c3f0-6074-43de-a93b-f7f87c829b3b","system_id":"levelo_inurba_marseille","lat":43.2912,"lon":5.39985,"is_reserved":false,"is_disabled":false,"rental_uris":{"android":"levelo://app?vid=1370c3f0-6074-43de-a93b-f7f87c829b3b","ios":"levelo://app?vid=1370c3f0-6074-43de-a93b-f7f87c829b3b"},"vehicle_type_id":"4","last_reported":1777066699,"current_range_meters":8400,"station_id":"","pricing_plan_id":"cebpf4jnsgd1na2vs0mg"},{"bike_id":"ddef2dd6-6243-43e9-8e3f-d1a8299bf8e2","system_id":"levelo_inurba_marseille","lat":43.2954,"lon":5.38545,"is_reserved":false,"is_disabled":false,"rental_uris":{"android":"levelo://app?vid=ddef2dd6-6243-43e9-8e3f-d1a8299bf8e2","ios":"levelo://app?vid=ddef2dd6-6243-43e9-8e3f-d1a8299bf8e2"},"vehicle_type_id":"4","last_reported":1777066699,"current_range_meters":8400,"station_id":"ce4bgih2rcd13ifvqba0","pricing_plan_id":"cebpf4jnsgd1na2vs0mg"},{"bike_id":"25483487-2b04-452c-acde-62aa1068bf0e","system_id":"levelo_inurba_marseille","lat":43.30353,"lon":5.37728,"is_reserved":false,"is_disabled":false,"rental_uris":{"android":"levelo://app?vid=25483487-2b04-452c-acde-62aa1068bf0e","ios":"levelo://app?vid=25483487-2b04-452c-acde-62aa1068bf0e"},"vehicle_type_id":"4","last_reported":1777066699,"current_range_meters":8400,"station_id":"ce4bguh2rcd13ifvqcj0","pricing_plan_id":"cebpf4jnsgd1na2vs0mg"},{"bike_id":"9e5aee0e-189a-407a-8b2b-79869522f433","system_id":"levelo_inurba_marseille","lat":43.31746,"lon":5.37729,"is_reserved":false,"is_disabled":false,"rental_uris":{"android":"levelo://app?vid=9e5aee0e-189a-407a-8b2b-79869522f433","ios":"levelo://app?vid=9e5aee0e-189a-407a-8b2b-79869522f433"},"vehicle_type_id":"4","last_reported":1777066699,"current_range_meters":8400,"station_id":"ce4bgth2rcd13ifvqch0","pricing_plan_id":"cebpf4jnsgd1na2vs0mg"},{"bike_id":"7d84ddb3-748e-4f77-9ad4-ce79510747ad","system_id":"levelo_inurba_marseille","lat":43.28617,"lon":5.39891,"is_reserved":false,"is_disabled":false,"rental_uris":{"android":"levelo://app?vid=7d84ddb3-748e-4f77-9ad4-ce79510747ad","ios":"levelo://app?vid=7d84ddb3-748e-4f77-9ad4-ce79510747ad"},"vehicle_type_id":"4","last_reported":1777066699,"current_range_meters":8400,"station_id":"st_d4a7ka997mjs738ck50g","pricing_plan_id":"cebpf4jnsgd1na2vs0mg"},{"bike_id":"48725464-dbb6-451e-b66b-16552dc7c5db","system_id":"levelo_inurba_marseille","lat":43.29722,"lon":5.37677,"is_reserved":false,"is_disabled":false,"rental_uris":{"android":"levelo://app?vid=48725464-dbb6-451e-b66b-16552dc7c5db","ios":"levelo://app?vid=48725464-dbb6-451e-b66b-16552dc7c5db"},"vehicle_type_id":"4","last_reported":1777066699,"current_range_meters":8400,"station_id":"ce4bgkh2rcd13ifvqbl0","pricing_plan_id":"cebpf4jnsgd1na2vs0mg"},{"bike_id":"4d5b4915-5fc0-4782-a3a4-e445cc2cf470","system_id":"levelo_inurba_marseille","lat":43.29871,"lon":5.42101,"is_reserved":false,"is_disabled":false,"rental_uris":{"android":"levelo://app?vid=4d5b4915-5fc0-4782-a3a4-e445cc2cf470","ios":"levelo://app?vid=4d5b4915-5fc0-4782-a3a4-e445cc2cf470"},"vehicle_type_id":"4","last_reported":1777066699,"current_range_meters":8400,"station_id":"st_d6tc004otcvc738tfe70","pricing_plan_id":"cebpf4jnsgd1na2vs0mg"},{"bike_id":"ca05a569-2405-4cde-93c3-ccf205f28456","system_id":"levelo_inurba_marseille","lat":43.24646,"lon":5.38896,"is_reserved":false,"is_disabled":false,"rental_uris":{"android":"levelo://app?vid=ca05a569-2405-4cde-93c3-ccf205f28456","ios":"levelo://app?vid=ca05a569-2405-4cde-93c3-ccf205f28456"},"vehicle_type_id":"4","last_reported":1777066699,"current_range_meters":8400,"station_id":"ce4bhg12rcd13ifvqf60","pricing_plan_id":"cebpf4jnsgd1na2vs0mg"},{"bike_id":"25da488e-77a1-4b15-a23b-57f58235fca3","system_id":"levelo_inurba_marseille","lat":43.2606,"lon":5.39401,"is_reserved":false,"is_disabled":false,"rental_uris":{"android":"levelo://app?vid=25da488e-77a1-4b15-a23b-57f58235fca3","ios":"levelo://app?vid=25da488e-77a1-4b15-a23b-57f58235fca3"},"vehicle_type_id":"4","last_reported":1777066699,"current_range_meters":8400,"station_id":"ce4bhh92rcd13ifvqfj0","pricing_plan_id":"cebpf4jnsgd1na2vs0mg"},{"bike_id":"f43d4928-2045-486c-a490-907c83e092ec","system_id":"levelo_inurba_marseille","lat":43.31181,"lon":5.3871,"is_reserved":false,"is_disabled":false,"rental_uris":{"android":"levelo://app?vid=f43d4928-2045-486c-a490-907c83e092ec","ios":"levelo://app?vid=f43d4928-2045-486c-a490-907c83e092ec"},"vehicle_type_id":"4","last_reported":1777066699,"current_range_meters":8400,"station_id":"ce4bgv12rcd13ifvqcp0","pricing_plan_id":"cebpf4jnsgd1na2vs0mg"},{"bike_id":"419b8d0a-c51e-441d-afb9-ec5ef12e7f85","system_id":"levelo_inurba_marseille","lat":43.27085,"lon":5.42262,"is_reserved":false,"is_disabled":false,"rental_uris":{"android":"levelo://app?vid=419b8d0a-c51e-441d-afb9-ec5ef12e7f85","ios":"levelo://app?vid=419b8d0a-c51e-441d-afb9-ec5ef12e7f85"},"vehicle_type_id":"4","last_reported":1777066699,"current_range_meters":8400,"station_id":"ce4bhk92rcd13ifvqgb0","pricing_plan_id":"cebpf4jnsgd1na2vs0mg"},{"bike_id":"0cc6ece2-102c-4c80-bec5-f4b16857b331","system_id":"levelo_inurba_marseille","lat":43.32286,"lon":5.38951,"is_reserved":false,"is_disabled":false,"rental_uris":{"android":"levelo://app?vid=0cc6ece2-102c-4c80-bec5-f4b16857b331","ios":"levelo://app?vid=0cc6ece2-102c-4c80-bec5-f4b16857b331"},"vehicle_type_id":"4","last_reported":1777066699,"current_range_meters":8400,"station_id":"","pricing_plan_id":"cebpf4jnsgd1na2vs0mg"},{"bike_id":"8318e414-7f9d-4ad5-ba31-e8e296c64029","system_id":"levelo_inurba_marseille","lat":43.27823,"lon":5.39219,"is_reserved":false,"is_disabled":false,"rental_uris":{"android":"levelo://app?vid=8318e414-7f9d-4ad5-ba31-e8e296c64029","ios":"levelo://app?vid=8318e414-7f9d-4ad5-ba31-e8e296c64029"},"vehicle_type_id":"4","last_reported":1777066699,"current_range_meters":8400,"station_id":"ce4bhjp2rcd13ifvqga0","pricing_plan_id":"cebpf4jnsgd1na2vs0mg"},{"bike_id":"4ce8ebc3-20a6-4a54-8e15-6c4772b86e6e","system_id":"levelo_inurba_marseille","lat":43.2953,"lon":5.38538,"is_reserved":false,"is_disabled":false,"rental_uris":{"android":"levelo://app?vid=4ce8ebc3-20a6-4a54-8e15-6c4772b86e6e","ios":"levelo://app?vid=4ce8ebc3-20a6-4a54-8e15-6c4772b86e6e"},"vehicle_type_id":"4","last_reported":1777066699,"current_range_meters":8400,"station_id":"ce4bgih2rcd13ifvqba0","pricing_plan_id":"cebpf4jnsgd1na2vs0mg"},{"bike_id":"57ec443c-17dc-48a4-897f-17260d6e713b","system_id":"levelo_inurba_marseille","lat":43.29994,"lon":5.38491,"is_reserved":false,"is_disabled":false,"rental_uris":{"android":"levelo://app?vid=57ec443c-17dc-48a4-897f-17260d6e713b","ios":"levelo://app?vid=57ec443c-17dc-48a4-897f-17260d6e713b"},"vehicle_type_id":"4","last_reported":1777066699,"current_range_meters":8800,"station_id":"ce4bgj92rcd13ifvqbd0","pricing_plan_id":"cebpf4jnsgd1na2vs0mg"},{"bike_id":"6a382a26-93df-4b4f-99b6-0161544321ed","system_id":"levelo_inurba_marseille","lat":43.2829,"lon":5.35055,"is_reserved":false,"is_disabled":true,"rental_uris":{"android":"levelo://app?vid=6a382a26-93df-4b4f-99b6-0161544321ed","ios":"levelo://app?vid=6a382a26-93df-4b4f-99b6-0161544321ed"},"vehicle_type_id":"4","last_reported":1777066699,"current_range_meters":8800,"station_id":"ce4bhbp2rcd13ifvqerg","pricing_plan_id":"cebpf4jnsgd1na2vs0mg"},{"bike_id":"0ce641a1-ca62-4f05-b894-4a72f77b98f2","system_id":"levelo_inurba_marseille","lat":43.32358,"lon":5.36773,"is_reserved":false,"is_disabled":false,"rental_uris":{"android":"levelo://app?vid=0ce641a1-ca62-4f05-b894-4a72f77b98f2","ios":"levelo://app?vid=0ce641a1-ca62-4f05-b894-4a72f77b98f2"},"vehicle_type_id":"4","last_reported":1777066699,"current_range_meters":8800,"station_id":"ce4bhsh2rcd13ifvqi2g","pricing_plan_id":"cebpf4jnsgd1na2vs0mg"},{"bike_id":"f8a83fb6-7d2a-428c-bd05-e015e93a936e","system_id":"levelo_inurba_marseille","lat":43.29871,"lon":5.38906,"is_reserved":false,"is_disabled":false,"rental_uris":{"android":"levelo://app?vid=f8a83fb6-7d2a-428c-bd05-e015e93a936e","ios":"levelo://app?vid=f8a83fb6-7d2a-428c-bd05-e015e93a936e"},"vehicle_type_id":"4","last_reported":1777066699,"current_range_meters":8800,"station_id":"ce4bh392rcd13ifvqdl0","pricing_plan_id":"cebpf4jnsgd1na2vs0mg"},{"bike_id":"4e7f60dc-2079-4f51-9d09-01d31cdd2f9b","system_id":"levelo_inurba_marseille","lat":43.24637,"lon":5.43125,"is_reserved":false,"is_disabled":false,"rental_uris":{"android":"levelo://app?vid=4e7f60dc-2079-4f51-9d09-01d31cdd2f9b","ios":"levelo://app?vid=4e7f60dc-2079-4f51-9d09-01d31cdd2f9b"},"vehicle_type_id":"4","last_reported":1777066699,"current_range_meters":8800,"station_id":"st_d2m6c4gdas8pm72e190g","pricing_plan_id":"cebpf4jnsgd1na2vs0mg"},{"bike_id":"1d368fe1-0c8f-4a40-864c-b54082c58fa1","system_id":"levelo_inurba_marseille","lat":43.33553,"lon":5.37453,"is_reserved":false,"is_disabled":false,"rental_uris":{"android":"levelo://app?vid=1d368fe1-0c8f-4a40-864c-b54082c58fa1","ios":"levelo://app?vid=1d368fe1-0c8f-4a40-864c-b54082c58fa1"},"vehicle_type_id":"4","last_reported":1777066699,"current_range_meters":8800,"station_id":"st_d46tts09ee8s73dlu43g","pricing_plan_id":"cebpf4jnsgd1na2vs0mg"},{"bike_id":"a0264141-68d7-45b7-9b1e-6556ab382769","system_id":"levelo_inurba_marseille","lat":43.28488,"lon":5.38551,"is_reserved":false,"is_disabled":false,"rental_uris":{"android":"levelo://app?vid=a0264141-68d7-45b7-9b1e-6556ab382769","ios":"levelo://app?vid=a0264141-68d7-45b7-9b1e-6556ab382769"},"vehicle_type_id":"4","last_reported":1777066699,"current_range_meters":8800,"station_id":"ce4bh8p2rcd13ifvqeb0","pricing_plan_id":"cebpf4jnsgd1na2vs0mg"},{"bike_id":"15f36b0e-6f5e-405f-a52c-15b8f33605e6","system_id":"levelo_inurba_marseille","lat":43.26955,"lon":5.38634,"is_reserved":false,"is_disabled":false,"rental_uris":{"android":"levelo://app?vid=15f36b0e-6f5e-405f-a52c-15b8f33605e6","ios":"levelo://app?vid=15f36b0e-6f5e-405f-a52c-15b8f33605e6"},"vehicle_type_id":"4","last_reported":1777066699,"current_range_meters":8800,"station_id":"ce4bhh92rcd13ifvqfh0","pricing_plan_id":"cebpf4jnsgd1na2vs0mg"},{"bike_id":"3bb719ff-b88d-42af-ad9e-aef72a3f1ba8","system_id":"levelo_inurba_marseille","lat":43.28476,"lon":5.37571,"is_reserved":false,"is_disabled":false,"rental_uris":{"android":"levelo://app?vid=3bb719ff-b88d-42af-ad9e-aef72a3f1ba8","ios":"levelo://app?vid=3bb719ff-b88d-42af-ad9e-aef72a3f1ba8"},"vehicle_type_id":"4","last_reported":1777066699,"current_range_meters":8800,"station_id":"","pricing_plan_id":"cebpf4jnsgd1na2vs0mg"},{"bike_id":"2150e900-bc36-4714-8063-0320eae925a9","system_id":"levelo_inurba_marseille","lat":43.23962,"lon":5.36637,"is_reserved":false,"is_disabled":false,"rental_uris":{"android":"levelo://app?vid=2150e900-bc36-4714-8063-0320eae925a9","ios":"levelo://app?vid=2150e900-bc36-4714-8063-0320eae925a9"},"vehicle_type_id":"4","last_reported":1777066699,"current_range_meters":8800,"station_id":"ce4bhi12rcd13ifvqfp0","pricing_plan_id":"cebpf4jnsgd1na2vs0mg"},{"bike_id":"488d74a8-5d1b-4f38-a4ff-48a0147c97ba","system_id":"levelo_inurba_marseille","lat":43.26504,"lon":5.39546,"is_reserved":false,"is_disabled":false,"rental_uris":{"android":"levelo://app?vid=488d74a8-5d1b-4f38-a4ff-48a0147c97ba","ios":"levelo://app?vid=488d74a8-5d1b-4f38-a4ff-48a0147c97ba"},"vehicle_type_id":"4","last_reported":1777066699,"current_range_meters":8800,"station_id":"ce4bhi12rcd13ifvqfq0","pricing_plan_id":"cebpf4jnsgd1na2vs0mg"},{"bike_id":"ce3f30fe-0390-437f-888f-b9cc7637e87e","system_id":"levelo_inurba_marseille","lat":43.25133,"lon":5.40331,"is_reserved":false,"is_disabled":false,"rental_uris":{"android":"levelo://app?vid=ce3f30fe-0390-437f-888f-b9cc7637e87e","ios":"levelo://app?vid=ce3f30fe-0390-437f-888f-b9cc7637e87e"},"vehicle_type_id":"4","last_reported":1777066699,"current_range_meters":8800,"station_id":"ce4bhlh2rcd13ifvqgig","pricing_plan_id":"cebpf4jnsgd1na2vs0mg"},{"bike_id":"541dbded-315f-4ca8-ac49-47fcb4294bb7","system_id":"levelo_inurba_marseille","lat":43.33541,"lon":5.37468,"is_reserved":false,"is_disabled":false,"rental_uris":{"android":"levelo://app?vid=541dbded-315f-4ca8-ac49-47fcb4294bb7","ios":"levelo://app?vid=541dbded-315f-4ca8-ac49-47fcb4294bb7"},"vehicle_type_id":"4","last_reported":1777066699,"current_range_meters":8800,"station_id":"st_d46tts09ee8s73dlu43g","pricing_plan_id":"cebpf4jnsgd1na2vs0mg"},{"bike_id":"4703b0a1-afd3-4f1a-8b6d-3c61cf911e43","system_id":"levelo_inurba_marseille","lat":43.25818,"lon":5.39439,"is_reserved":false,"is_disabled":false,"rental_uris":{"android":"levelo://app?vid=4703b0a1-afd3-4f1a-8b6d-3c61cf911e43","ios":"levelo://app?vid=4703b0a1-afd3-4f1a-8b6d-3c61cf911e43"},"vehicle_type_id":"4","last_reported":1777066699,"current_range_meters":8800,"station_id":"ce4bhip2rcd13ifvqft0","pricing_plan_id":"cebpf4jnsgd1na2vs0mg"},{"bike_id":"92aa62cf-f128-49f7-9b7e-a1b28669bee8","system_id":"levelo_inurba_marseille","lat":43.24666,"lon":5.38154,"is_reserved":false,"is_disabled":false,"rental_uris":{"android":"levelo://app?vid=92aa62cf-f128-49f7-9b7e-a1b28669bee8","ios":"levelo://app?vid=92aa62cf-f128-49f7-9b7e-a1b28669bee8"},"vehicle_type_id":"4","last_reported":1777066699,"current_range_meters":8800,"station_id":"ce4bhih2rcd13ifvqfr0","pricing_plan_id":"cebpf4jnsgd1na2vs0mg"},{"bike_id":"915f3511-b21b-4a84-8018-3a43f6b1a303","system_id":"levelo_inurba_marseille","lat":43.27075,"lon":5.42259,"is_reserved":false,"is_disabled":false,"rental_uris":{"android":"levelo://app?vid=915f3511-b21b-4a84-8018-3a43f6b1a303","ios":"levelo://app?vid=915f3511-b21b-4a84-8018-3a43f6b1a303"},"vehicle_type_id":"4","last_reported":1777066699,"current_range_meters":8800,"station_id":"ce4bhk92rcd13ifvqgb0","pricing_plan_id":"cebpf4jnsgd1na2vs0mg"},{"bike_id":"ffd48d56-7b48-4767-b8fc-5ac8787018c8","system_id":"levelo_inurba_marseille","lat":43.29089,"lon":5.35566,"is_reserved":false,"is_disabled":true,"rental_uris":{"android":"levelo://app?vid=ffd48d56-7b48-4767-b8fc-5ac8787018c8","ios":"levelo://app?vid=ffd48d56-7b48-4767-b8fc-5ac8787018c8"},"vehicle_type_id":"4","last_reported":1777066699,"current_range_meters":8800,"station_id":"","pricing_plan_id":"cebpf4jnsgd1na2vs0mg"},{"bike_id":"5091d3df-140a-4a96-ba1e-f44ab742c57b","system_id":"levelo_inurba_marseille","lat":43.2319,"lon":5.39985,"is_reserved":false,"is_disabled":true,"rental_uris":{"android":"levelo://app?vid=5091d3df-140a-4a96-ba1e-f44ab742c57b","ios":"levelo://app?vid=5091d3df-140a-4a96-ba1e-f44ab742c57b"},"vehicle_type_id":"4","last_reported":1777066699,"current_range_meters":8800,"station_id":"ce4bhn12rcd13ifvqgqg","pricing_plan_id":"cebpf4jnsgd1na2vs0mg"},{"bike_id":"ccf4aa42-e67e-4a99-a577-9288b4dd1a9f","system_id":"levelo_inurba_marseille","lat":43.28354,"lon":5.38094,"is_reserved":false,"is_disabled":false,"rental_uris":{"android":"levelo://app?vid=ccf4aa42-e67e-4a99-a577-9288b4dd1a9f","ios":"levelo://app?vid=ccf4aa42-e67e-4a99-a577-9288b4dd1a9f"},"vehicle_type_id":"4","last_reported":1777066699,"current_range_meters":8800,"station_id":"ce4bh412rcd13ifvqdr0","pricing_plan_id":"cebpf4jnsgd1na2vs0mg"},{"bike_id":"09fa1106-51b2-47c3-ac87-007d4e61a088","system_id":"levelo_inurba_marseille","lat":43.295744,"lon":5.375236,"is_reserved":false,"is_disabled":false,"rental_uris":{"android":"levelo://app?vid=09fa1106-51b2-47c3-ac87-007d4e61a088","ios":"levelo://app?vid=09fa1106-51b2-47c3-ac87-007d4e61a088"},"vehicle_type_id":"4","last_reported":1777066699,"current_range_meters":8800,"station_id":"ce4bgh92rcd13ifvqb50","pricing_plan_id":"cebpf4jnsgd1na2vs0mg"},{"bike_id":"ebf4bd81-18d0-4300-ba98-4ecb924642b0","system_id":"levelo_inurba_marseille","lat":43.26769,"lon":5.38402,"is_reserved":false,"is_disabled":false,"rental_uris":{"android":"levelo://app?vid=ebf4bd81-18d0-4300-ba98-4ecb924642b0","ios":"levelo://app?vid=ebf4bd81-18d0-4300-ba98-4ecb924642b0"},"vehicle_type_id":"4","last_reported":1777066699,"current_range_meters":8800,"station_id":"","pricing_plan_id":"cebpf4jnsgd1na2vs0mg"},{"bike_id":"7d6bfb05-2cc9-480b-a5bb-604efee1db65","system_id":"levelo_inurba_marseille","lat":43.290326,"lon":5.386476,"is_reserved":false,"is_disabled":false,"rental_uris":{"android":"levelo://app?vid=7d6bfb05-2cc9-480b-a5bb-604efee1db65","ios":"levelo://app?vid=7d6bfb05-2cc9-480b-a5bb-604efee1db65"},"vehicle_type_id":"4","last_reported":1777066699,"current_range_meters":8800,"station_id":"ce4bh4p2rcd13ifvqe0g","pricing_plan_id":"cebpf4jnsgd1na2vs0mg"},{"bike_id":"4426216e-b3b0-4980-9f53-deaa9f5bee57","system_id":"levelo_inurba_marseille","lat":43.29525,"lon":5.3854,"is_reserved":false,"is_disabled":false,"rental_uris":{"android":"levelo://app?vid=4426216e-b3b0-4980-9f53-deaa9f5bee57","ios":"levelo://app?vid=4426216e-b3b0-4980-9f53-deaa9f5bee57"},"vehicle_type_id":"4","last_reported":1777066699,"current_range_meters":8800,"station_id":"ce4bgih2rcd13ifvqba0","pricing_plan_id":"cebpf4jnsgd1na2vs0mg"},{"bike_id":"61153f64-2219-4f2d-a3e7-3066e588ef14","system_id":"levelo_inurba_marseille","lat":43.29555,"lon":5.38528,"is_reserved":false,"is_disabled":false,"rental_uris":{"android":"levelo://app?vid=61153f64-2219-4f2d-a3e7-3066e588ef14","ios":"levelo://app?vid=61153f64-2219-4f2d-a3e7-3066e588ef14"},"vehicle_type_id":"4","last_reported":1777066699,"current_range_meters":9200,"station_id":"ce4bgih2rcd13ifvqba0","pricing_plan_id":"cebpf4jnsgd1na2vs0mg"},{"bike_id":"517b465b-1cbe-47c0-8062-1f1f68f9139f","system_id":"levelo_inurba_marseille","lat":43.23185,"lon":5.35568,"is_reserved":false,"is_disabled":false,"rental_uris":{"android":"levelo://app?vid=517b465b-1cbe-47c0-8062-1f1f68f9139f","ios":"levelo://app?vid=517b465b-1cbe-47c0-8062-1f1f68f9139f"},"vehicle_type_id":"4","last_reported":1777066699,"current_range_meters":9200,"station_id":"ce4bhu92rcd13ifvqi70","pricing_plan_id":"cebpf4jnsgd1na2vs0mg"},{"bike_id":"f01b33b4-d615-44f3-8c41-5a4c243a6920","system_id":"levelo_inurba_marseille","lat":43.35187,"lon":5.43943,"is_reserved":false,"is_disabled":false,"rental_uris":{"android":"levelo://app?vid=f01b33b4-d615-44f3-8c41-5a4c243a6920","ios":"levelo://app?vid=f01b33b4-d615-44f3-8c41-5a4c243a6920"},"vehicle_type_id":"4","last_reported":1777066699,"current_range_meters":9200,"station_id":"","pricing_plan_id":"cebpf4jnsgd1na2vs0mg"},{"bike_id":"f645e30b-5616-45b3-a17d-faf4a49d971d","system_id":"levelo_inurba_marseille","lat":43.31,"lon":5.37533,"is_reserved":false,"is_disabled":false,"rental_uris":{"android":"levelo://app?vid=f645e30b-5616-45b3-a17d-faf4a49d971d","ios":"levelo://app?vid=f645e30b-5616-45b3-a17d-faf4a49d971d"},"vehicle_type_id":"4","last_reported":1777066699,"current_range_meters":9200,"station_id":"","pricing_plan_id":"cebpf4jnsgd1na2vs0mg"},{"bike_id":"08b04c66-2aee-44d4-bed2-d61b5326e863","system_id":"levelo_inurba_marseille","lat":43.24809,"lon":5.37455,"is_reserved":false,"is_disabled":false,"rental_uris":{"android":"levelo://app?vid=08b04c66-2aee-44d4-bed2-d61b5326e863","ios":"levelo://app?vid=08b04c66-2aee-44d4-bed2-d61b5326e863"},"vehicle_type_id":"4","last_reported":1777066699,"current_range_meters":9200,"station_id":"ce4bhgh2rcd13ifvqfb0","pricing_plan_id":"cebpf4jnsgd1na2vs0mg"},{"bike_id":"dd35f2b0-c1f0-4e1e-8418-bded130cdf05","system_id":"levelo_inurba_marseille","lat":43.29541,"lon":5.38558,"is_reserved":false,"is_disabled":false,"rental_uris":{"android":"levelo://app?vid=dd35f2b0-c1f0-4e1e-8418-bded130cdf05","ios":"levelo://app?vid=dd35f2b0-c1f0-4e1e-8418-bded130cdf05"},"vehicle_type_id":"4","last_reported":1777066699,"current_range_meters":9200,"station_id":"ce4bgih2rcd13ifvqba0","pricing_plan_id":"cebpf4jnsgd1na2vs0mg"},{"bike_id":"db814deb-a55c-4a71-86e4-2f8a6710d93b","system_id":"levelo_inurba_marseille","lat":43.25822,"lon":5.39434,"is_reserved":false,"is_disabled":true,"rental_uris":{"android":"levelo://app?vid=db814deb-a55c-4a71-86e4-2f8a6710d93b","ios":"levelo://app?vid=db814deb-a55c-4a71-86e4-2f8a6710d93b"},"vehicle_type_id":"4","last_reported":1777066699,"current_range_meters":9200,"station_id":"ce4bhip2rcd13ifvqft0","pricing_plan_id":"cebpf4jnsgd1na2vs0mg"},{"bike_id":"8240ae53-3b21-4495-b553-933fb2bb4a99","system_id":"levelo_inurba_marseille","lat":43.32672,"lon":5.39882,"is_reserved":false,"is_disabled":false,"rental_uris":{"android":"levelo://app?vid=8240ae53-3b21-4495-b553-933fb2bb4a99","ios":"levelo://app?vid=8240ae53-3b21-4495-b553-933fb2bb4a99"},"vehicle_type_id":"4","last_reported":1777066699,"current_range_meters":9200,"station_id":"","pricing_plan_id":"cebpf4jnsgd1na2vs0mg"},{"bike_id":"80d34ee4-9695-41ba-bcd8-fb44ac5753a6","system_id":"levelo_inurba_marseille","lat":43.2854,"lon":5.44109,"is_reserved":false,"is_disabled":false,"rental_uris":{"android":"levelo://app?vid=80d34ee4-9695-41ba-bcd8-fb44ac5753a6","ios":"levelo://app?vid=80d34ee4-9695-41ba-bcd8-fb44ac5753a6"},"vehicle_type_id":"4","last_reported":1777066699,"current_range_meters":9200,"station_id":"st_d3j3df2ikq2c7380ej80","pricing_plan_id":"cebpf4jnsgd1na2vs0mg"},{"bike_id":"e1da2326-ff01-4df9-96ab-f3e1005b63be","system_id":"levelo_inurba_marseille","lat":43.29188,"lon":5.39322,"is_reserved":false,"is_disabled":false,"rental_uris":{"android":"levelo://app?vid=e1da2326-ff01-4df9-96ab-f3e1005b63be","ios":"levelo://app?vid=e1da2326-ff01-4df9-96ab-f3e1005b63be"},"vehicle_type_id":"4","last_reported":1777066699,"current_range_meters":9600,"station_id":"ce4bh192rcd13ifvqdd0","pricing_plan_id":"cebpf4jnsgd1na2vs0mg"},{"bike_id":"97f0351e-0015-4f6a-a402-604cdb115786","system_id":"levelo_inurba_marseille","lat":43.21232,"lon":5.35064,"is_reserved":false,"is_disabled":false,"rental_uris":{"android":"levelo://app?vid=97f0351e-0015-4f6a-a402-604cdb115786","ios":"levelo://app?vid=97f0351e-0015-4f6a-a402-604cdb115786"},"vehicle_type_id":"4","last_reported":1777066699,"current_range_meters":9600,"station_id":"","pricing_plan_id":"cebpf4jnsgd1na2vs0mg"},{"bike_id":"4a896773-d468-4674-ab8d-3b89a54fe152","system_id":"levelo_inurba_marseille","lat":43.31632,"lon":5.39115,"is_reserved":false,"is_disabled":false,"rental_uris":{"android":"levelo://app?vid=4a896773-d468-4674-ab8d-3b89a54fe152","ios":"levelo://app?vid=4a896773-d468-4674-ab8d-3b89a54fe152"},"vehicle_type_id":"4","last_reported":1777066699,"current_range_meters":9600,"station_id":"","pricing_plan_id":"cebpf4jnsgd1na2vs0mg"},{"bike_id":"335d7250-451d-4620-bf87-cc5a457d5216","system_id":"levelo_inurba_marseille","lat":43.28649,"lon":5.38336,"is_reserved":false,"is_disabled":false,"rental_uris":{"android":"levelo://app?vid=335d7250-451d-4620-bf87-cc5a457d5216","ios":"levelo://app?vid=335d7250-451d-4620-bf87-cc5a457d5216"},"vehicle_type_id":"4","last_reported":1777066699,"current_range_meters":9600,"station_id":"","pricing_plan_id":"cebpf4jnsgd1na2vs0mg"},{"bike_id":"5687bcf3-d7dc-457c-91e4-c37491638fcd","system_id":"levelo_inurba_marseille","lat":43.24166,"lon":5.36391,"is_reserved":false,"is_disabled":false,"rental_uris":{"android":"levelo://app?vid=5687bcf3-d7dc-457c-91e4-c37491638fcd","ios":"levelo://app?vid=5687bcf3-d7dc-457c-91e4-c37491638fcd"},"vehicle_type_id":"4","last_reported":1777066699,"current_range_meters":9600,"station_id":"cpo36qri1sfpv3e86is0","pricing_plan_id":"cebpf4jnsgd1na2vs0mg"},{"bike_id":"9f82b203-4d52-4e0e-8ac4-642ec4bb0935","system_id":"levelo_inurba_marseille","lat":43.30966,"lon":5.39043,"is_reserved":false,"is_disabled":false,"rental_uris":{"android":"levelo://app?vid=9f82b203-4d52-4e0e-8ac4-642ec4bb0935","ios":"levelo://app?vid=9f82b203-4d52-4e0e-8ac4-642ec4bb0935"},"vehicle_type_id":"4","last_reported":1777066699,"current_range_meters":9600,"station_id":"ce4bgup2rcd13ifvqco0","pricing_plan_id":"cebpf4jnsgd1na2vs0mg"},{"bike_id":"7c7a6e62-e130-431f-b3ec-a07feec308d8","system_id":"levelo_inurba_marseille","lat":43.22703,"lon":5.34817,"is_reserved":false,"is_disabled":false,"rental_uris":{"android":"levelo://app?vid=7c7a6e62-e130-431f-b3ec-a07feec308d8","ios":"levelo://app?vid=7c7a6e62-e130-431f-b3ec-a07feec308d8"},"vehicle_type_id":"4","last_reported":1777066699,"current_range_meters":9600,"station_id":"","pricing_plan_id":"cebpf4jnsgd1na2vs0mg"},{"bike_id":"f9b98806-d74c-46ef-8642-07dd46c19f4b","system_id":"levelo_inurba_marseille","lat":43.28719,"lon":5.4668,"is_reserved":false,"is_disabled":false,"rental_uris":{"android":"levelo://app?vid=f9b98806-d74c-46ef-8642-07dd46c19f4b","ios":"levelo://app?vid=f9b98806-d74c-46ef-8642-07dd46c19f4b"},"vehicle_type_id":"4","last_reported":1777066699,"current_range_meters":9600,"station_id":"st_d6tc3vkotcvc738tfjhg","pricing_plan_id":"cebpf4jnsgd1na2vs0mg"},{"bike_id":"126acbb4-d331-4931-8eb5-2f2cf7ea1c4d","system_id":"levelo_inurba_marseille","lat":43.29551,"lon":5.38515,"is_reserved":false,"is_disabled":false,"rental_uris":{"android":"levelo://app?vid=126acbb4-d331-4931-8eb5-2f2cf7ea1c4d","ios":"levelo://app?vid=126acbb4-d331-4931-8eb5-2f2cf7ea1c4d"},"vehicle_type_id":"4","last_reported":1777066699,"current_range_meters":9600,"station_id":"ce4bgih2rcd13ifvqba0","pricing_plan_id":"cebpf4jnsgd1na2vs0mg"},{"bike_id":"89b4dec0-82be-4d44-8bf9-961143360cc0","system_id":"levelo_inurba_marseille","lat":43.21753,"lon":5.34604,"is_reserved":false,"is_disabled":false,"rental_uris":{"android":"levelo://app?vid=89b4dec0-82be-4d44-8bf9-961143360cc0","ios":"levelo://app?vid=89b4dec0-82be-4d44-8bf9-961143360cc0"},"vehicle_type_id":"4","last_reported":1777066699,"current_range_meters":9600,"station_id":"st_cvj6r9ubvosntc0bgbag","pricing_plan_id":"cebpf4jnsgd1na2vs0mg"},{"bike_id":"3807bc14-05bb-4358-bd62-05aef0c2e0a5","system_id":"levelo_inurba_marseille","lat":43.25505,"lon":5.37643,"is_reserved":false,"is_disabled":false,"rental_uris":{"android":"levelo://app?vid=3807bc14-05bb-4358-bd62-05aef0c2e0a5","ios":"levelo://app?vid=3807bc14-05bb-4358-bd62-05aef0c2e0a5"},"vehicle_type_id":"4","last_reported":1777066699,"current_range_meters":9600,"station_id":"ce4bhh12rcd13ifvqff0","pricing_plan_id":"cebpf4jnsgd1na2vs0mg"},{"bike_id":"04a0c1d7-fef1-4f9b-b95e-9be79f69effb","system_id":"levelo_inurba_marseille","lat":43.29537,"lon":5.38538,"is_reserved":false,"is_disabled":false,"rental_uris":{"android":"levelo://app?vid=04a0c1d7-fef1-4f9b-b95e-9be79f69effb","ios":"levelo://app?vid=04a0c1d7-fef1-4f9b-b95e-9be79f69effb"},"vehicle_type_id":"4","last_reported":1777066699,"current_range_meters":9600,"station_id":"ce4bgih2rcd13ifvqba0","pricing_plan_id":"cebpf4jnsgd1na2vs0mg"},{"bike_id":"7aac87d3-c898-490d-9663-7b756f122524","system_id":"levelo_inurba_marseille","lat":43.31779,"lon":5.38983,"is_reserved":false,"is_disabled":false,"rental_uris":{"android":"levelo://app?vid=7aac87d3-c898-490d-9663-7b756f122524","ios":"levelo://app?vid=7aac87d3-c898-490d-9663-7b756f122524"},"vehicle_type_id":"4","last_reported":1777066699,"current_range_meters":9600,"station_id":"ce4bhqp2rcd13ifvqhng","pricing_plan_id":"cebpf4jnsgd1na2vs0mg"},{"bike_id":"bc0099df-f306-483b-886d-f98614947259","system_id":"levelo_inurba_marseille","lat":43.33169,"lon":5.37676,"is_reserved":false,"is_disabled":false,"rental_uris":{"android":"levelo://app?vid=bc0099df-f306-483b-886d-f98614947259","ios":"levelo://app?vid=bc0099df-f306-483b-886d-f98614947259"},"vehicle_type_id":"4","last_reported":1777066699,"current_range_meters":10000,"station_id":"st_d46cu089ee8s73dldbu0","pricing_plan_id":"cebpf4jnsgd1na2vs0mg"},{"bike_id":"41d5da57-be96-43cf-99f4-aa67206f3750","system_id":"levelo_inurba_marseille","lat":43.28654,"lon":5.3507,"is_reserved":false,"is_disabled":false,"rental_uris":{"android":"levelo://app?vid=41d5da57-be96-43cf-99f4-aa67206f3750","ios":"levelo://app?vid=41d5da57-be96-43cf-99f4-aa67206f3750"},"vehicle_type_id":"4","last_reported":1777066699,"current_range_meters":10000,"station_id":"ce4bhch2rcd13ifvqeug","pricing_plan_id":"cebpf4jnsgd1na2vs0mg"},{"bike_id":"9a7c39d8-ef30-4694-b180-b6fe0a089530","system_id":"levelo_inurba_marseille","lat":43.3013,"lon":5.43114,"is_reserved":false,"is_disabled":false,"rental_uris":{"android":"levelo://app?vid=9a7c39d8-ef30-4694-b180-b6fe0a089530","ios":"levelo://app?vid=9a7c39d8-ef30-4694-b180-b6fe0a089530"},"vehicle_type_id":"4","last_reported":1777066699,"current_range_meters":10000,"station_id":"st_d3js3co5814s73ftftug","pricing_plan_id":"cebpf4jnsgd1na2vs0mg"},{"bike_id":"47cdfd85-c850-4193-aaa5-b5a23a2b2f3d","system_id":"levelo_inurba_marseille","lat":43.31096,"lon":5.37235,"is_reserved":false,"is_disabled":false,"rental_uris":{"android":"levelo://app?vid=47cdfd85-c850-4193-aaa5-b5a23a2b2f3d","ios":"levelo://app?vid=47cdfd85-c850-4193-aaa5-b5a23a2b2f3d"},"vehicle_type_id":"4","last_reported":1777066699,"current_range_meters":10000,"station_id":"st_d4kl2rp97mjs73e7tdfg","pricing_plan_id":"cebpf4jnsgd1na2vs0mg"},{"bike_id":"c6f069e4-38a6-42c9-ad41-3bbd5cc3639b","system_id":"levelo_inurba_marseille","lat":43.29333,"lon":5.37189,"is_reserved":false,"is_disabled":false,"rental_uris":{"android":"levelo://app?vid=c6f069e4-38a6-42c9-ad41-3bbd5cc3639b","ios":"levelo://app?vid=c6f069e4-38a6-42c9-ad41-3bbd5cc3639b"},"vehicle_type_id":"4","last_reported":1777066699,"current_range_meters":10000,"station_id":"ce4bgh92rcd13ifvqb40","pricing_plan_id":"cebpf4jnsgd1na2vs0mg"},{"bike_id":"7b548114-61f6-4f44-8ad1-8c83ed4c23dc","system_id":"levelo_inurba_marseille","lat":43.24584,"lon":5.41775,"is_reserved":false,"is_disabled":false,"rental_uris":{"android":"levelo://app?vid=7b548114-61f6-4f44-8ad1-8c83ed4c23dc","ios":"levelo://app?vid=7b548114-61f6-4f44-8ad1-8c83ed4c23dc"},"vehicle_type_id":"4","last_reported":1777066699,"current_range_meters":10000,"station_id":"","pricing_plan_id":"cebpf4jnsgd1na2vs0mg"},{"bike_id":"548e4a82-32b2-49d2-a8d0-a6b1676f8a48","system_id":"levelo_inurba_marseille","lat":43.325,"lon":5.36563,"is_reserved":false,"is_disabled":false,"rental_uris":{"android":"levelo://app?vid=548e4a82-32b2-49d2-a8d0-a6b1676f8a48","ios":"levelo://app?vid=548e4a82-32b2-49d2-a8d0-a6b1676f8a48"},"vehicle_type_id":"4","last_reported":1777066699,"current_range_meters":10000,"station_id":"ce4bhs12rcd13ifvqhvg","pricing_plan_id":"cebpf4jnsgd1na2vs0mg"},{"bike_id":"fea5a28c-0167-4a62-9062-e629ed9b3e8f","system_id":"levelo_inurba_marseille","lat":43.28474,"lon":5.48406,"is_reserved":false,"is_disabled":false,"rental_uris":{"android":"levelo://app?vid=fea5a28c-0167-4a62-9062-e629ed9b3e8f","ios":"levelo://app?vid=fea5a28c-0167-4a62-9062-e629ed9b3e8f"},"vehicle_type_id":"4","last_reported":1777066699,"current_range_meters":10000,"station_id":"st_d3svhcjqgbts73a3dn0g","pricing_plan_id":"cebpf4jnsgd1na2vs0mg"},{"bike_id":"9c6c7acf-9a6f-4f8b-b2a0-c478d216311c","system_id":"levelo_inurba_marseille","lat":43.3188,"lon":5.40739,"is_reserved":false,"is_disabled":false,"rental_uris":{"android":"levelo://app?vid=9c6c7acf-9a6f-4f8b-b2a0-c478d216311c","ios":"levelo://app?vid=9c6c7acf-9a6f-4f8b-b2a0-c478d216311c"},"vehicle_type_id":"4","last_reported":1777066699,"current_range_meters":10000,"station_id":"ce4bhq12rcd13ifvqhig","pricing_plan_id":"cebpf4jnsgd1na2vs0mg"},{"bike_id":"71698934-451a-4d49-bc45-09c4958983b5","system_id":"levelo_inurba_marseille","lat":43.29305,"lon":5.3718,"is_reserved":false,"is_disabled":false,"rental_uris":{"android":"levelo://app?vid=71698934-451a-4d49-bc45-09c4958983b5","ios":"levelo://app?vid=71698934-451a-4d49-bc45-09c4958983b5"},"vehicle_type_id":"4","last_reported":1777066699,"current_range_meters":10000,"station_id":"ce4bgh92rcd13ifvqb40","pricing_plan_id":"cebpf4jnsgd1na2vs0mg"},{"bike_id":"3f8ec14d-ec75-4b21-8dc6-a7f3e8af88c3","system_id":"levelo_inurba_marseille","lat":43.29523,"lon":5.38548,"is_reserved":false,"is_disabled":false,"rental_uris":{"android":"levelo://app?vid=3f8ec14d-ec75-4b21-8dc6-a7f3e8af88c3","ios":"levelo://app?vid=3f8ec14d-ec75-4b21-8dc6-a7f3e8af88c3"},"vehicle_type_id":"4","last_reported":1777066699,"current_range_meters":10000,"station_id":"ce4bgih2rcd13ifvqba0","pricing_plan_id":"cebpf4jnsgd1na2vs0mg"},{"bike_id":"aeb5cf40-639c-4793-abb4-68ffff7148f0","system_id":"levelo_inurba_marseille","lat":43.29541,"lon":5.38541,"is_reserved":false,"is_disabled":false,"rental_uris":{"android":"levelo://app?vid=aeb5cf40-639c-4793-abb4-68ffff7148f0","ios":"levelo://app?vid=aeb5cf40-639c-4793-abb4-68ffff7148f0"},"vehicle_type_id":"4","last_reported":1777066699,"current_range_meters":10000,"station_id":"ce4bgih2rcd13ifvqba0","pricing_plan_id":"cebpf4jnsgd1na2vs0mg"},{"bike_id":"9c05e145-a3b4-4d5b-b573-2721608fc40e","system_id":"levelo_inurba_marseille","lat":43.2926,"lon":5.38449,"is_reserved":false,"is_disabled":false,"rental_uris":{"android":"levelo://app?vid=9c05e145-a3b4-4d5b-b573-2721608fc40e","ios":"levelo://app?vid=9c05e145-a3b4-4d5b-b573-2721608fc40e"},