{"last_updated":1720033572,"ttl":30,"version":"2.2","data":{"bikes":[{"bike_id":"01c9cbd1-4fbb-40a0-b7b5-00f9b1aeacdd","system_id":"levelo_inurba_marseille","lat":43.313391,"lon":5.36706,"is_reserved":false,"is_disabled":false,"rental_uris":{"android":"levelo://app?vid=01c9cbd1-4fbb-40a0-b7b5-00f9b1aeacdd","ios":"levelo://app?vid=01c9cbd1-4fbb-40a0-b7b5-00f9b1aeacdd"},"vehicle_type_id":"4","last_reported":1720033572,"current_range_meters":0,"station_id":"ce4bgr92rcd13ifvqc6g","pricing_plan_id":"cebpf4jnsgd1na2vs0mg"},{"bike_id":"f391312b-dc44-45c1-aaac-2f1eb0d1986b","system_id":"levelo_inurba_marseille","lat":43.312317,"lon":5.36869,"is_reserved":false,"is_disabled":false,"rental_uris":{"android":"levelo://app?vid=f391312b-dc44-45c1-aaac-2f1eb0d1986b","ios":"levelo://app?vid=f391312b-dc44-45c1-aaac-2f1eb0d1986b"},"vehicle_type_id":"4","last_reported":1720033572,"current_range_meters":0,"station_id":"ce4bgl92rcd13ifvqbq0","pricing_plan_id":"cebpf4jnsgd1na2vs0mg"},{"bike_id":"8959c5f9-5f02-4670-bc0c-53e66a0477dd","system_id":"levelo_inurba_marseille","lat":43.31105,"lon":5.370523,"is_reserved":false,"is_disabled":false,"rental_uris":{"android":"levelo://app?vid=8959c5f9-5f02-4670-bc0c-53e66a0477dd","ios":"levelo://app?vid=8959c5f9-5f02-4670-bc0c-53e66a0477dd"},"vehicle_type_id":"4","last_reported":1720033572,"current_range_meters":12400,"station_id":"","pricing_plan_id":"cebpf4jnsgd1na2vs0mg"},{"bike_id":"a76af452-ec24-43df-9d87-fd4338b49118","system_id":"levelo_inurba_marseille","lat":43.30921,"lon":5.36836,"is_reserved":false,"is_disabled":false,"rental_uris":{"android":"levelo://app?vid=a76af452-ec24-43df-9d87-fd4338b49118","ios":"levelo://app?vid=a76af452-ec24-43df-9d87-fd4338b49118"},"vehicle_type_id":"4","last_reported":1720033572,"current_range_meters":0,"station_id":"ce4bgn92rcd13ifvqbvg","pricing_plan_id":"cebpf4jnsgd1na2vs0mg"},{"bike_id":"ae81130d-c774-4196-be79-f476dd64d960","system_id":"levelo_inurba_marseille","lat":43.3091,"lon":5.36845,"is_reserved":false,"is_disabled":false,"rental_uris":{"android":"levelo://app?vid=ae81130d-c774-4196-be79-f476dd64d960","ios":"levelo://app?vid=ae81130d-c774-4196-be79-f476dd64d960"},"vehicle_type_id":"4","last_reported":1720033572,"current_range_meters":0,"station_id":"ce4bgn92rcd13ifvqbvg","pricing_plan_id":"cebpf4jnsgd1na2vs0mg"},{"bike_id":"d3b8aedf-425a-47a0-b066-27a37428aab3","system_id":"levelo_inurba_marseille","lat":43.314811,"lon":5.373103,"is_reserved":false,"is_disabled":false,"rental_uris":{"android":"levelo://app?vid=d3b8aedf-425a-47a0-b066-27a37428aab3","ios":"levelo://app?vid=d3b8aedf-425a-47a0-b066-27a37428aab3"},"vehicle_type_id":"4","last_reported":1720033572,"current_range_meters":25200,"station_id":"ce4bgt12rcd13ifvqcd0","pricing_plan_id":"cebpf4jnsgd1na2vs0mg"},{"bike_id":"981cd8da-df79-4e23-a329-270a4caad16d","system_id":"levelo_inurba_marseille","lat":43.31497,"lon":5.37305,"is_reserved":false,"is_disabled":false,"rental_uris":{"android":"levelo://app?vid=981cd8da-df79-4e23-a329-270a4caad16d","ios":"levelo://app?vid=981cd8da-df79-4e23-a329-270a4caad16d"},"vehicle_type_id":"4","last_reported":1720033572,"current_range_meters":5600,"station_id":"ce4bgt12rcd13ifvqcd0","pricing_plan_id":"cebpf4jnsgd1na2vs0mg"},{"bike_id":"1696566b-950a-46c3-837d-527c3e9e99b5","system_id":"levelo_inurba_marseille","lat":43.31496,"lon":5.37306,"is_reserved":false,"is_disabled":false,"rental_uris":{"android":"levelo://app?vid=1696566b-950a-46c3-837d-527c3e9e99b5","ios":"levelo://app?vid=1696566b-950a-46c3-837d-527c3e9e99b5"},"vehicle_type_id":"4","last_reported":1720033572,"current_range_meters":0,"station_id":"ce4bgt12rcd13ifvqcd0","pricing_plan_id":"cebpf4jnsgd1na2vs0mg"},{"bike_id":"ed506dc2-b260-485c-849f-dc3a942b8f9c","system_id":"levelo_inurba_marseille","lat":43.30766,"lon":5.36825,"is_reserved":false,"is_disabled":false,"rental_uris":{"android":"levelo://app?vid=ed506dc2-b260-485c-849f-dc3a942b8f9c","ios":"levelo://app?vid=ed506dc2-b260-485c-849f-dc3a942b8f9c"},"vehicle_type_id":"4","last_reported":1720033572,"current_range_meters":0,"station_id":"","pricing_plan_id":"cebpf4jnsgd1na2vs0mg"},{"bike_id":"39a53ccc-b060-4b0e-91b8-9d7c21819357","system_id":"levelo_inurba_marseille","lat":43.309039,"lon":5.371797,"is_reserved":false,"is_disabled":false,"rental_uris":{"android":"levelo://app?vid=39a53ccc-b060-4b0e-91b8-9d7c21819357","ios":"levelo://app?vid=39a53ccc-b060-4b0e-91b8-9d7c21819357"},"vehicle_type_id":"4","last_reported":1720033572,"current_range_meters":25600,"station_id":"ce4bguh2rcd13ifvqckg","pricing_plan_id":"cebpf4jnsgd1na2vs0mg"},{"bike_id":"a4ccb0d5-5f8f-47b6-981c-6f36b5cc5013","system_id":"levelo_inurba_marseille","lat":43.309034,"lon":5.371783,"is_reserved":false,"is_disabled":false,"rental_uris":{"android":"levelo://app?vid=a4ccb0d5-5f8f-47b6-981c-6f36b5cc5013","ios":"levelo://app?vid=a4ccb0d5-5f8f-47b6-981c-6f36b5cc5013"},"vehicle_type_id":"4","last_reported":1720033572,"current_range_meters":14800,"station_id":"ce4bguh2rcd13ifvqckg","pricing_plan_id":"cebpf4jnsgd1na2vs0mg"},{"bike_id":"b5292ea6-2ea3-496b-8865-1615ae742ffa","system_id":"levelo_inurba_marseille","lat":43.309039,"lon":5.371797,"is_reserved":false,"is_disabled":false,"rental_uris":{"android":"levelo://app?vid=b5292ea6-2ea3-496b-8865-1615ae742ffa","ios":"levelo://app?vid=b5292ea6-2ea3-496b-8865-1615ae742ffa"},"vehicle_type_id":"4","last_reported":1720033572,"current_range_meters":24400,"station_id":"ce4bguh2rcd13ifvqckg","pricing_plan_id":"cebpf4jnsgd1na2vs0mg"},{"bike_id":"1a378c2d-d02e-41a3-9f90-294fe62dba4e","system_id":"levelo_inurba_marseille","lat":43.310967,"lon":5.37501,"is_reserved":false,"is_disabled":false,"rental_uris":{"android":"levelo://app?vid=1a378c2d-d02e-41a3-9f90-294fe62dba4e","ios":"levelo://app?vid=1a378c2d-d02e-41a3-9f90-294fe62dba4e"},"vehicle_type_id":"4","last_reported":1720033572,"current_range_meters":0,"station_id":"","pricing_plan_id":"cebpf4jnsgd1na2vs0mg"},{"bike_id":"680354a0-47dd-4515-9af6-2f5bab6d1594","system_id":"levelo_inurba_marseille","lat":43.30546,"lon":5.36656,"is_reserved":false,"is_disabled":false,"rental_uris":{"android":"levelo://app?vid=680354a0-47dd-4515-9af6-2f5bab6d1594","ios":"levelo://app?vid=680354a0-47dd-4515-9af6-2f5bab6d1594"},"vehicle_type_id":"4","last_reported":1720033572,"current_range_meters":5600,"station_id":"","pricing_plan_id":"cebpf4jnsgd1na2vs0mg"},{"bike_id":"e636c8ed-e1b4-4d23-97be-9afef32c9787","system_id":"levelo_inurba_marseille","lat":43.305706,"lon":5.365654,"is_reserved":false,"is_disabled":false,"rental_uris":{"android":"levelo://app?vid=e636c8ed-e1b4-4d23-97be-9afef32c9787","ios":"levelo://app?vid=e636c8ed-e1b4-4d23-97be-9afef32c9787"},"vehicle_type_id":"4","last_reported":1720033572,"current_range_meters":400,"station_id":"ce4bgs12rcd13ifvqcag","pricing_plan_id":"cebpf4jnsgd1na2vs0mg"},{"bike_id":"714c05ad-1fd2-4efa-a0f6-20c272d0a62a","system_id":"levelo_inurba_marseille","lat":43.305989,"lon":5.37225,"is_reserved":false,"is_disabled":false,"rental_uris":{"android":"levelo://app?vid=714c05ad-1fd2-4efa-a0f6-20c272d0a62a","ios":"levelo://app?vid=714c05ad-1fd2-4efa-a0f6-20c272d0a62a"},"vehicle_type_id":"4","last_reported":1720033572,"current_range_meters":3600,"station_id":"ce4bgqh2rcd13ifvqc4g","pricing_plan_id":"cebpf4jnsgd1na2vs0mg"},{"bike_id":"943e9858-20e7-4df4-8a94-8942d454ca0d","system_id":"levelo_inurba_marseille","lat":43.30608,"lon":5.37225,"is_reserved":false,"is_disabled":false,"rental_uris":{"android":"levelo://app?vid=943e9858-20e7-4df4-8a94-8942d454ca0d","ios":"levelo://app?vid=943e9858-20e7-4df4-8a94-8942d454ca0d"},"vehicle_type_id":"4","last_reported":1720033572,"current_range_meters":26400,"station_id":"ce4bgqh2rcd13ifvqc4g","pricing_plan_id":"cebpf4jnsgd1na2vs0mg"},{"bike_id":"ae94c5c0-acfa-4d7d-aafa-8ae89296cf63","system_id":"levelo_inurba_marseille","lat":43.311125,"lon":5.377624,"is_reserved":false,"is_disabled":false,"rental_uris":{"android":"levelo://app?vid=ae94c5c0-acfa-4d7d-aafa-8ae89296cf63","ios":"levelo://app?vid=ae94c5c0-acfa-4d7d-aafa-8ae89296cf63"},"vehicle_type_id":"4","last_reported":1720033572,"current_range_meters":4400,"station_id":"ce4bgt92rcd13ifvqcg0","pricing_plan_id":"cebpf4jnsgd1na2vs0mg"},{"bike_id":"d22dce3a-965b-4d79-830f-e51e49d7bd14","system_id":"levelo_inurba_marseille","lat":43.311125,"lon":5.377624,"is_reserved":false,"is_disabled":false,"rental_uris":{"android":"levelo://app?vid=d22dce3a-965b-4d79-830f-e51e49d7bd14","ios":"levelo://app?vid=d22dce3a-965b-4d79-830f-e51e49d7bd14"},"vehicle_type_id":"4","last_reported":1720033572,"current_range_meters":18800,"station_id":"ce4bgt92rcd13ifvqcg0","pricing_plan_id":"cebpf4jnsgd1na2vs0mg"},{"bike_id":"e183672c-3db3-4bed-a6f2-2e201e7b9e05","system_id":"levelo_inurba_marseille","lat":43.307945,"lon":5.376487,"is_reserved":false,"is_disabled":false,"rental_uris":{"android":"levelo://app?vid=e183672c-3db3-4bed-a6f2-2e201e7b9e05","ios":"levelo://app?vid=e183672c-3db3-4bed-a6f2-2e201e7b9e05"},"vehicle_type_id":"4","last_reported":1720033572,"current_range_meters":23600,"station_id":"ce4bgv92rcd13ifvqcq0","pricing_plan_id":"cebpf4jnsgd1na2vs0mg"},{"bike_id":"aa3388c7-a98f-404a-a07e-9ae6de3b069d","system_id":"levelo_inurba_marseille","lat":43.307945,"lon":5.376487,"is_reserved":false,"is_disabled":false,"rental_uris":{"android":"levelo://app?vid=aa3388c7-a98f-404a-a07e-9ae6de3b069d","ios":"levelo://app?vid=aa3388c7-a98f-404a-a07e-9ae6de3b069d"},"vehicle_type_id":"4","last_reported":1720033572,"current_range_meters":11200,"station_id":"ce4bgv92rcd13ifvqcq0","pricing_plan_id":"cebpf4jnsgd1na2vs0mg"},{"bike_id":"9ff62812-2d00-4537-b2e5-fb43a7d6edea","system_id":"levelo_inurba_marseille","lat":43.307945,"lon":5.376487,"is_reserved":false,"is_disabled":false,"rental_uris":{"android":"levelo://app?vid=9ff62812-2d00-4537-b2e5-fb43a7d6edea","ios":"levelo://app?vid=9ff62812-2d00-4537-b2e5-fb43a7d6edea"},"vehicle_type_id":"4","last_reported":1720033572,"current_range_meters":31600,"station_id":"ce4bgv92rcd13ifvqcq0","pricing_plan_id":"cebpf4jnsgd1na2vs0mg"},{"bike_id":"c371cbcf-cde5-4516-8c99-cf071f1440b9","system_id":"levelo_inurba_marseille","lat":43.303046,"lon":5.368981,"is_reserved":false,"is_disabled":false,"rental_uris":{"android":"levelo://app?vid=c371cbcf-cde5-4516-8c99-cf071f1440b9","ios":"levelo://app?vid=c371cbcf-cde5-4516-8c99-cf071f1440b9"},"vehicle_type_id":"4","last_reported":1720033572,"current_range_meters":20800,"station_id":"ce4bgqh2rcd13ifvqc5g","pricing_plan_id":"cebpf4jnsgd1na2vs0mg"},{"bike_id":"5283b42e-13c3-4399-97e5-15d4a875ff38","system_id":"levelo_inurba_marseille","lat":43.30675,"lon":5.37743,"is_reserved":false,"is_disabled":false,"rental_uris":{"android":"levelo://app?vid=5283b42e-13c3-4399-97e5-15d4a875ff38","ios":"levelo://app?vid=5283b42e-13c3-4399-97e5-15d4a875ff38"},"vehicle_type_id":"4","last_reported":1720033572,"current_range_meters":15200,"station_id":"","pricing_plan_id":"cebpf4jnsgd1na2vs0mg"},{"bike_id":"8f3ed59a-e8d8-4c24-a074-765319a1222d","system_id":"levelo_inurba_marseille","lat":43.303046,"lon":5.368981,"is_reserved":false,"is_disabled":false,"rental_uris":{"android":"levelo://app?vid=8f3ed59a-e8d8-4c24-a074-765319a1222d","ios":"levelo://app?vid=8f3ed59a-e8d8-4c24-a074-765319a1222d"},"vehicle_type_id":"4","last_reported":1720033572,"current_range_meters":2400,"station_id":"ce4bgqh2rcd13ifvqc5g","pricing_plan_id":"cebpf4jnsgd1na2vs0mg"},{"bike_id":"fda87917-56b8-426f-81c9-8c81370962d2","system_id":"levelo_inurba_marseille","lat":43.315289,"lon":5.380349,"is_reserved":false,"is_disabled":false,"rental_uris":{"android":"levelo://app?vid=fda87917-56b8-426f-81c9-8c81370962d2","ios":"levelo://app?vid=fda87917-56b8-426f-81c9-8c81370962d2"},"vehicle_type_id":"4","last_reported":1720033572,"current_range_meters":29200,"station_id":"ce4bhsp2rcd13ifvqi50","pricing_plan_id":"cebpf4jnsgd1na2vs0mg"},{"bike_id":"cd81f9b1-66a9-4608-bc55-96ba2c58c15f","system_id":"levelo_inurba_marseille","lat":43.301939,"lon":5.366286,"is_reserved":false,"is_disabled":false,"rental_uris":{"android":"levelo://app?vid=cd81f9b1-66a9-4608-bc55-96ba2c58c15f","ios":"levelo://app?vid=cd81f9b1-66a9-4608-bc55-96ba2c58c15f"},"vehicle_type_id":"4","last_reported":1720033572,"current_range_meters":10400,"station_id":"ce4bgrh2rcd13ifvqc8g","pricing_plan_id":"cebpf4jnsgd1na2vs0mg"},{"bike_id":"ba09cfcf-4950-41a7-8642-30becab2d9ca","system_id":"levelo_inurba_marseille","lat":43.308012,"lon":5.381511,"is_reserved":false,"is_disabled":false,"rental_uris":{"android":"levelo://app?vid=ba09cfcf-4950-41a7-8642-30becab2d9ca","ios":"levelo://app?vid=ba09cfcf-4950-41a7-8642-30becab2d9ca"},"vehicle_type_id":"4","last_reported":1720033572,"current_range_meters":28400,"station_id":"ce4bgt12rcd13ifvqce0","pricing_plan_id":"cebpf4jnsgd1na2vs0mg"},{"bike_id":"ecced0a7-2a77-4292-a7e3-67f0b5bf5104","system_id":"levelo_inurba_marseille","lat":43.308012,"lon":5.381511,"is_reserved":false,"is_disabled":false,"rental_uris":{"android":"levelo://app?vid=ecced0a7-2a77-4292-a7e3-67f0b5bf5104","ios":"levelo://app?vid=ecced0a7-2a77-4292-a7e3-67f0b5bf5104"},"vehicle_type_id":"4","last_reported":1720033572,"current_range_meters":10400,"station_id":"ce4bgt12rcd13ifvqce0","pricing_plan_id":"cebpf4jnsgd1na2vs0mg"},{"bike_id":"1035c7fa-4be5-44e9-a902-d06a7eee8395","system_id":"levelo_inurba_marseille","lat":43.308012,"lon":5.381511,"is_reserved":false,"is_disabled":false,"rental_uris":{"android":"levelo://app?vid=1035c7fa-4be5-44e9-a902-d06a7eee8395","ios":"levelo://app?vid=1035c7fa-4be5-44e9-a902-d06a7eee8395"},"vehicle_type_id":"4","last_reported":1720033572,"current_range_meters":28000,"station_id":"ce4bgt12rcd13ifvqce0","pricing_plan_id":"cebpf4jnsgd1na2vs0mg"},{"bike_id":"d75d3940-f863-4614-9923-792e0b2f247b","system_id":"levelo_inurba_marseille","lat":43.310804,"lon":5.38359,"is_reserved":false,"is_disabled":false,"rental_uris":{"android":"levelo://app?vid=d75d3940-f863-4614-9923-792e0b2f247b","ios":"levelo://app?vid=d75d3940-f863-4614-9923-792e0b2f247b"},"vehicle_type_id":"4","last_reported":1720033572,"current_range_meters":16000,"station_id":"ce4bgv92rcd13ifvqcr0","pricing_plan_id":"cebpf4jnsgd1na2vs0mg"},{"bike_id":"86bf87e2-7811-4fca-a7cc-4b3101849dfd","system_id":"levelo_inurba_marseille","lat":43.304606,"lon":5.379026,"is_reserved":false,"is_disabled":false,"rental_uris":{"android":"levelo://app?vid=86bf87e2-7811-4fca-a7cc-4b3101849dfd","ios":"levelo://app?vid=86bf87e2-7811-4fca-a7cc-4b3101849dfd"},"vehicle_type_id":"4","last_reported":1720033572,"current_range_meters":16400,"station_id":"ce4bgup2rcd13ifvqcn0","pricing_plan_id":"cebpf4jnsgd1na2vs0mg"},{"bike_id":"37d802b9-c7aa-44b2-aacf-8458563bcefd","system_id":"levelo_inurba_marseille","lat":43.3047,"lon":5.37907,"is_reserved":false,"is_disabled":false,"rental_uris":{"android":"levelo://app?vid=37d802b9-c7aa-44b2-aacf-8458563bcefd","ios":"levelo://app?vid=37d802b9-c7aa-44b2-aacf-8458563bcefd"},"vehicle_type_id":"4","last_reported":1720033572,"current_range_meters":29600,"station_id":"ce4bgup2rcd13ifvqcn0","pricing_plan_id":"cebpf4jnsgd1na2vs0mg"},{"bike_id":"f48b4ef5-294e-480b-a3cb-a7bc1e5b0d74","system_id":"levelo_inurba_marseille","lat":43.30459,"lon":5.37896,"is_reserved":false,"is_disabled":false,"rental_uris":{"android":"levelo://app?vid=f48b4ef5-294e-480b-a3cb-a7bc1e5b0d74","ios":"levelo://app?vid=f48b4ef5-294e-480b-a3cb-a7bc1e5b0d74"},"vehicle_type_id":"4","last_reported":1720033572,"current_range_meters":31200,"station_id":"ce4bgup2rcd13ifvqcn0","pricing_plan_id":"cebpf4jnsgd1na2vs0mg"},{"bike_id":"2b251761-4011-45ea-91e9-e9c10a5068a4","system_id":"levelo_inurba_marseille","lat":43.304606,"lon":5.379026,"is_reserved":false,"is_disabled":false,"rental_uris":{"android":"levelo://app?vid=2b251761-4011-45ea-91e9-e9c10a5068a4","ios":"levelo://app?vid=2b251761-4011-45ea-91e9-e9c10a5068a4"},"vehicle_type_id":"4","last_reported":1720033572,"current_range_meters":26800,"station_id":"ce4bgup2rcd13ifvqcn0","pricing_plan_id":"cebpf4jnsgd1na2vs0mg"},{"bike_id":"afa4c189-a6cf-4475-ad92-5e5e43b25378","system_id":"levelo_inurba_marseille","lat":43.304606,"lon":5.379026,"is_reserved":false,"is_disabled":false,"rental_uris":{"android":"levelo://app?vid=afa4c189-a6cf-4475-ad92-5e5e43b25378","ios":"levelo://app?vid=afa4c189-a6cf-4475-ad92-5e5e43b25378"},"vehicle_type_id":"4","last_reported":1720033572,"current_range_meters":7200,"station_id":"ce4bgup2rcd13ifvqcn0","pricing_plan_id":"cebpf4jnsgd1na2vs0mg"},{"bike_id":"19351f23-a607-4ae9-bea4-5c9ffe161614","system_id":"levelo_inurba_marseille","lat":43.304606,"lon":5.379026,"is_reserved":false,"is_disabled":false,"rental_uris":{"android":"levelo://app?vid=19351f23-a607-4ae9-bea4-5c9ffe161614","ios":"levelo://app?vid=19351f23-a607-4ae9-bea4-5c9ffe161614"},"vehicle_type_id":"4","last_reported":1720033572,"current_range_meters":7200,"station_id":"ce4bgup2rcd13ifvqcn0","pricing_plan_id":"cebpf4jnsgd1na2vs0mg"},{"bike_id":"3affd453-4fb2-4893-868e-2c6d4138cd0d","system_id":"levelo_inurba_marseille","lat":43.304606,"lon":5.379026,"is_reserved":false,"is_disabled":false,"rental_uris":{"android":"levelo://app?vid=3affd453-4fb2-4893-868e-2c6d4138cd0d","ios":"levelo://app?vid=3affd453-4fb2-4893-868e-2c6d4138cd0d"},"vehicle_type_id":"4","last_reported":1720033572,"current_range_meters":4800,"station_id":"ce4bgup2rcd13ifvqcn0","pricing_plan_id":"cebpf4jnsgd1na2vs0mg"},{"bike_id":"53eab4e7-2f81-421a-b15e-548326453335","system_id":"levelo_inurba_marseille","lat":43.31076,"lon":5.3836,"is_reserved":false,"is_disabled":false,"rental_uris":{"android":"levelo://app?vid=53eab4e7-2f81-421a-b15e-548326453335","ios":"levelo://app?vid=53eab4e7-2f81-421a-b15e-548326453335"},"vehicle_type_id":"4","last_reported":1720033572,"current_range_meters":22000,"station_id":"ce4bgv92rcd13ifvqcr0","pricing_plan_id":"cebpf4jnsgd1na2vs0mg"},{"bike_id":"f301395d-ff9b-4797-8066-04c6914b354c","system_id":"levelo_inurba_marseille","lat":43.302784,"lon":5.377158,"is_reserved":false,"is_disabled":false,"rental_uris":{"android":"levelo://app?vid=f301395d-ff9b-4797-8066-04c6914b354c","ios":"levelo://app?vid=f301395d-ff9b-4797-8066-04c6914b354c"},"vehicle_type_id":"4","last_reported":1720033572,"current_range_meters":17200,"station_id":"ce4bguh2rcd13ifvqcj0","pricing_plan_id":"cebpf4jnsgd1na2vs0mg"},{"bike_id":"5439f6a1-bea6-4fa8-9112-0cdbd1fcb5c4","system_id":"levelo_inurba_marseille","lat":43.301429,"lon":5.37413,"is_reserved":false,"is_disabled":false,"rental_uris":{"android":"levelo://app?vid=5439f6a1-bea6-4fa8-9112-0cdbd1fcb5c4","ios":"levelo://app?vid=5439f6a1-bea6-4fa8-9112-0cdbd1fcb5c4"},"vehicle_type_id":"4","last_reported":1720033572,"current_range_meters":30800,"station_id":"ce4bgs92rcd13ifvqcc0","pricing_plan_id":"cebpf4jnsgd1na2vs0mg"},{"bike_id":"fb784225-4dd2-4714-a6df-68e25ad6f644","system_id":"levelo_inurba_marseille","lat":43.319935,"lon":5.381699,"is_reserved":false,"is_disabled":false,"rental_uris":{"android":"levelo://app?vid=fb784225-4dd2-4714-a6df-68e25ad6f644","ios":"levelo://app?vid=fb784225-4dd2-4714-a6df-68e25ad6f644"},"vehicle_type_id":"4","last_reported":1720033572,"current_range_meters":21600,"station_id":"ce4bhr12rcd13ifvqhpg","pricing_plan_id":"cebpf4jnsgd1na2vs0mg"},{"bike_id":"21ad8ea9-d70d-4ddd-a2dd-cac040efb52b","system_id":"levelo_inurba_marseille","lat":43.319935,"lon":5.381699,"is_reserved":false,"is_disabled":false,"rental_uris":{"android":"levelo://app?vid=21ad8ea9-d70d-4ddd-a2dd-cac040efb52b","ios":"levelo://app?vid=21ad8ea9-d70d-4ddd-a2dd-cac040efb52b"},"vehicle_type_id":"4","last_reported":1720033572,"current_range_meters":2400,"station_id":"ce4bhr12rcd13ifvqhpg","pricing_plan_id":"cebpf4jnsgd1na2vs0mg"},{"bike_id":"cfc07a0b-6915-4893-9013-6bd5d0c20e37","system_id":"levelo_inurba_marseille","lat":43.313571,"lon":5.384829,"is_reserved":false,"is_disabled":false,"rental_uris":{"android":"levelo://app?vid=cfc07a0b-6915-4893-9013-6bd5d0c20e37","ios":"levelo://app?vid=cfc07a0b-6915-4893-9013-6bd5d0c20e37"},"vehicle_type_id":"4","last_reported":1720033572,"current_range_meters":22400,"station_id":"ce4bgt92rcd13ifvqcf0","pricing_plan_id":"cebpf4jnsgd1na2vs0mg"},{"bike_id":"d96a30c4-abbc-4a13-b5bb-12c0577e8e7b","system_id":"levelo_inurba_marseille","lat":43.3137,"lon":5.38491,"is_reserved":false,"is_disabled":false,"rental_uris":{"android":"levelo://app?vid=d96a30c4-abbc-4a13-b5bb-12c0577e8e7b","ios":"levelo://app?vid=d96a30c4-abbc-4a13-b5bb-12c0577e8e7b"},"vehicle_type_id":"4","last_reported":1720033572,"current_range_meters":17600,"station_id":"ce4bgt92rcd13ifvqcf0","pricing_plan_id":"cebpf4jnsgd1na2vs0mg"},{"bike_id":"98b679d1-2728-4eee-8d0f-313b4deab3e0","system_id":"levelo_inurba_marseille","lat":43.313667,"lon":5.384997,"is_reserved":false,"is_disabled":false,"rental_uris":{"android":"levelo://app?vid=98b679d1-2728-4eee-8d0f-313b4deab3e0","ios":"levelo://app?vid=98b679d1-2728-4eee-8d0f-313b4deab3e0"},"vehicle_type_id":"4","last_reported":1720033572,"current_range_meters":25600,"station_id":"ce4bgt92rcd13ifvqcf0","pricing_plan_id":"cebpf4jnsgd1na2vs0mg"},{"bike_id":"4e39fb1b-a2dd-4dfb-9c51-2502b7f554e0","system_id":"levelo_inurba_marseille","lat":43.299222,"lon":5.365554,"is_reserved":false,"is_disabled":false,"rental_uris":{"android":"levelo://app?vid=4e39fb1b-a2dd-4dfb-9c51-2502b7f554e0","ios":"levelo://app?vid=4e39fb1b-a2dd-4dfb-9c51-2502b7f554e0"},"vehicle_type_id":"4","last_reported":1720033572,"current_range_meters":6000,"station_id":"ce4bgm92rcd13ifvqbr0","pricing_plan_id":"cebpf4jnsgd1na2vs0mg"},{"bike_id":"1dba201a-473d-470f-ac04-2d7eb65842b4","system_id":"levelo_inurba_marseille","lat":43.298565,"lon":5.362895,"is_reserved":false,"is_disabled":false,"rental_uris":{"android":"levelo://app?vid=1dba201a-473d-470f-ac04-2d7eb65842b4","ios":"levelo://app?vid=1dba201a-473d-470f-ac04-2d7eb65842b4"},"vehicle_type_id":"4","last_reported":1720033572,"current_range_meters":30800,"station_id":"ce4bgpp2rcd13ifvqc3g","pricing_plan_id":"cebpf4jnsgd1na2vs0mg"},{"bike_id":"88d60d1c-89b6-4012-80c4-da5db0410c44","system_id":"levelo_inurba_marseille","lat":43.2985,"lon":5.36286,"is_reserved":false,"is_disabled":false,"rental_uris":{"android":"levelo://app?vid=88d60d1c-89b6-4012-80c4-da5db0410c44","ios":"levelo://app?vid=88d60d1c-89b6-4012-80c4-da5db0410c44"},"vehicle_type_id":"4","last_reported":1720033572,"current_range_meters":7200,"station_id":"ce4bgpp2rcd13ifvqc3g","pricing_plan_id":"cebpf4jnsgd1na2vs0mg"},{"bike_id":"bb4997f6-d01e-45cb-b001-58ad07b66e8c","system_id":"levelo_inurba_marseille","lat":43.305364,"lon":5.384119,"is_reserved":false,"is_disabled":false,"rental_uris":{"android":"levelo://app?vid=bb4997f6-d01e-45cb-b001-58ad07b66e8c","ios":"levelo://app?vid=bb4997f6-d01e-45cb-b001-58ad07b66e8c"},"vehicle_type_id":"4","last_reported":1720033572,"current_range_meters":6800,"station_id":"ce4bgg92rcd13ifvqb30","pricing_plan_id":"cebpf4jnsgd1na2vs0mg"},{"bike_id":"5b489e1a-5937-4057-81b3-493e841ec16a","system_id":"levelo_inurba_marseille","lat":43.2985,"lon":5.36285,"is_reserved":false,"is_disabled":false,"rental_uris":{"android":"levelo://app?vid=5b489e1a-5937-4057-81b3-493e841ec16a","ios":"levelo://app?vid=5b489e1a-5937-4057-81b3-493e841ec16a"},"vehicle_type_id":"4","last_reported":1720033572,"current_range_meters":31200,"station_id":"ce4bgpp2rcd13ifvqc3g","pricing_plan_id":"cebpf4jnsgd1na2vs0mg"},{"bike_id":"e27e8071-7297-4a83-abfb-c09e0fcd30e1","system_id":"levelo_inurba_marseille","lat":43.29849,"lon":5.36286,"is_reserved":false,"is_disabled":false,"rental_uris":{"android":"levelo://app?vid=e27e8071-7297-4a83-abfb-c09e0fcd30e1","ios":"levelo://app?vid=e27e8071-7297-4a83-abfb-c09e0fcd30e1"},"vehicle_type_id":"4","last_reported":1720033572,"current_range_meters":31200,"station_id":"ce4bgpp2rcd13ifvqc3g","pricing_plan_id":"cebpf4jnsgd1na2vs0mg"},{"bike_id":"b2e15bb7-b996-44c0-90d8-c09130de27f4","system_id":"levelo_inurba_marseille","lat":43.298433,"lon":5.362774,"is_reserved":false,"is_disabled":false,"rental_uris":{"android":"levelo://app?vid=b2e15bb7-b996-44c0-90d8-c09130de27f4","ios":"levelo://app?vid=b2e15bb7-b996-44c0-90d8-c09130de27f4"},"vehicle_type_id":"4","last_reported":1720033572,"current_range_meters":27600,"station_id":"ce4bgpp2rcd13ifvqc3g","pricing_plan_id":"cebpf4jnsgd1na2vs0mg"},{"bike_id":"13c85ad0-7638-4313-bf8e-31869b29ed48","system_id":"levelo_inurba_marseille","lat":43.298433,"lon":5.362774,"is_reserved":false,"is_disabled":false,"rental_uris":{"android":"levelo://app?vid=13c85ad0-7638-4313-bf8e-31869b29ed48","ios":"levelo://app?vid=13c85ad0-7638-4313-bf8e-31869b29ed48"},"vehicle_type_id":"4","last_reported":1720033572,"current_range_meters":31200,"station_id":"ce4bgpp2rcd13ifvqc3g","pricing_plan_id":"cebpf4jnsgd1na2vs0mg"},{"bike_id":"c74b4197-1513-4940-a288-752751df2421","system_id":"levelo_inurba_marseille","lat":43.298433,"lon":5.362774,"is_reserved":false,"is_disabled":false,"rental_uris":{"android":"levelo://app?vid=c74b4197-1513-4940-a288-752751df2421","ios":"levelo://app?vid=c74b4197-1513-4940-a288-752751df2421"},"vehicle_type_id":"4","last_reported":1720033572,"current_range_meters":15600,"station_id":"ce4bgpp2rcd13ifvqc3g","pricing_plan_id":"cebpf4jnsgd1na2vs0mg"},{"bike_id":"2c38a098-cd70-4f20-8298-f806dc6e492d","system_id":"levelo_inurba_marseille","lat":43.298433,"lon":5.362774,"is_reserved":false,"is_disabled":false,"rental_uris":{"android":"levelo://app?vid=2c38a098-cd70-4f20-8298-f806dc6e492d","ios":"levelo://app?vid=2c38a098-cd70-4f20-8298-f806dc6e492d"},"vehicle_type_id":"4","last_reported":1720033572,"current_range_meters":30800,"station_id":"ce4bgpp2rcd13ifvqc3g","pricing_plan_id":"cebpf4jnsgd1na2vs0mg"},{"bike_id":"270f791f-c357-4c79-bcea-7f2aa241e43a","system_id":"levelo_inurba_marseille","lat":43.298433,"lon":5.362774,"is_reserved":false,"is_disabled":false,"rental_uris":{"android":"levelo://app?vid=270f791f-c357-4c79-bcea-7f2aa241e43a","ios":"levelo://app?vid=270f791f-c357-4c79-bcea-7f2aa241e43a"},"vehicle_type_id":"4","last_reported":1720033572,"current_range_meters":6000,"station_id":"ce4bgpp2rcd13ifvqc3g","pricing_plan_id":"cebpf4jnsgd1na2vs0mg"},{"bike_id":"d25cb2bb-bdf4-4f0e-9b98-70ec13e4bc06","system_id":"levelo_inurba_marseille","lat":43.298433,"lon":5.362774,"is_reserved":false,"is_disabled":false,"rental_uris":{"android":"levelo://app?vid=d25cb2bb-bdf4-4f0e-9b98-70ec13e4bc06","ios":"levelo://app?vid=d25cb2bb-bdf4-4f0e-9b98-70ec13e4bc06"},"vehicle_type_id":"4","last_reported":1720033572,"current_range_meters":12400,"station_id":"ce4bgpp2rcd13ifvqc3g","pricing_plan_id":"cebpf4jnsgd1na2vs0mg"},{"bike_id":"aad9c942-0918-4e09-95fd-eb7519b09f2a","system_id":"levelo_inurba_marseille","lat":43.298433,"lon":5.362774,"is_reserved":false,"is_disabled":false,"rental_uris":{"android":"levelo://app?vid=aad9c942-0918-4e09-95fd-eb7519b09f2a","ios":"levelo://app?vid=aad9c942-0918-4e09-95fd-eb7519b09f2a"},"vehicle_type_id":"4","last_reported":1720033572,"current_range_meters":26400,"station_id":"ce4bgpp2rcd13ifvqc3g","pricing_plan_id":"cebpf4jnsgd1na2vs0mg"},{"bike_id":"84baeb07-adbb-41f7-86c1-9508dd3a10bd","system_id":"levelo_inurba_marseille","lat":43.311722,"lon":5.387247,"is_reserved":false,"is_disabled":false,"rental_uris":{"android":"levelo://app?vid=84baeb07-adbb-41f7-86c1-9508dd3a10bd","ios":"levelo://app?vid=84baeb07-adbb-41f7-86c1-9508dd3a10bd"},"vehicle_type_id":"4","last_reported":1720033572,"current_range_meters":30400,"station_id":"ce4bgv12rcd13ifvqcp0","pricing_plan_id":"cebpf4jnsgd1na2vs0mg"},{"bike_id":"f4ec5a4d-95f0-492d-8bfb-ab8461850f80","system_id":"levelo_inurba_marseille","lat":43.297774,"lon":5.370875,"is_reserved":false,"is_disabled":false,"rental_uris":{"android":"levelo://app?vid=f4ec5a4d-95f0-492d-8bfb-ab8461850f80","ios":"levelo://app?vid=f4ec5a4d-95f0-492d-8bfb-ab8461850f80"},"vehicle_type_id":"4","last_reported":1720033572,"current_range_meters":2000,"station_id":"ce4bgop2rcd13ifvqc1g","pricing_plan_id":"cebpf4jnsgd1na2vs0mg"},{"bike_id":"fa1a1020-9b19-44ba-b7fe-11ceccea46c1","system_id":"levelo_inurba_marseille","lat":43.297794,"lon":5.370888,"is_reserved":false,"is_disabled":false,"rental_uris":{"android":"levelo://app?vid=fa1a1020-9b19-44ba-b7fe-11ceccea46c1","ios":"levelo://app?vid=fa1a1020-9b19-44ba-b7fe-11ceccea46c1"},"vehicle_type_id":"4","last_reported":1720033572,"current_range_meters":30400,"station_id":"ce4bgop2rcd13ifvqc1g","pricing_plan_id":"cebpf4jnsgd1na2vs0mg"},{"bike_id":"f1748190-5169-40de-8e5f-9315241db08e","system_id":"levelo_inurba_marseille","lat":43.32289,"lon":5.38266,"is_reserved":false,"is_disabled":false,"rental_uris":{"android":"levelo://app?vid=f1748190-5169-40de-8e5f-9315241db08e","ios":"levelo://app?vid=f1748190-5169-40de-8e5f-9315241db08e"},"vehicle_type_id":"4","last_reported":1720033572,"current_range_meters":17600,"station_id":"ce4bhr12rcd13ifvqhqg","pricing_plan_id":"cebpf4jnsgd1na2vs0mg"},{"bike_id":"acbacc07-3406-42b6-a4b4-6ba8eee52b33","system_id":"levelo_inurba_marseille","lat":43.322872,"lon":5.382756,"is_reserved":false,"is_disabled":false,"rental_uris":{"android":"levelo://app?vid=acbacc07-3406-42b6-a4b4-6ba8eee52b33","ios":"levelo://app?vid=acbacc07-3406-42b6-a4b4-6ba8eee52b33"},"vehicle_type_id":"4","last_reported":1720033572,"current_range_meters":31600,"station_id":"ce4bhr12rcd13ifvqhqg","pricing_plan_id":"cebpf4jnsgd1na2vs0mg"},{"bike_id":"489ca125-8191-47bc-845a-75e5e64afb40","system_id":"levelo_inurba_marseille","lat":43.322872,"lon":5.382756,"is_reserved":false,"is_disabled":false,"rental_uris":{"android":"levelo://app?vid=489ca125-8191-47bc-845a-75e5e64afb40","ios":"levelo://app?vid=489ca125-8191-47bc-845a-75e5e64afb40"},"vehicle_type_id":"4","last_reported":1720033572,"current_range_meters":17600,"station_id":"ce4bhr12rcd13ifvqhqg","pricing_plan_id":"cebpf4jnsgd1na2vs0mg"},{"bike_id":"786cff49-04a8-4f4d-8f58-0ea4f8372672","system_id":"levelo_inurba_marseille","lat":43.322872,"lon":5.382756,"is_reserved":false,"is_disabled":false,"rental_uris":{"android":"levelo://app?vid=786cff49-04a8-4f4d-8f58-0ea4f8372672","ios":"levelo://app?vid=786cff49-04a8-4f4d-8f58-0ea4f8372672"},"vehicle_type_id":"4","last_reported":1720033572,"current_range_meters":27200,"station_id":"ce4bhr12rcd13ifvqhqg","pricing_plan_id":"cebpf4jnsgd1na2vs0mg"},{"bike_id":"27a6bef8-9fa2-4c7c-a852-ef52da7f4c34","system_id":"levelo_inurba_marseille","lat":43.322872,"lon":5.382756,"is_reserved":false,"is_disabled":false,"rental_uris":{"android":"levelo://app?vid=27a6bef8-9fa2-4c7c-a852-ef52da7f4c34","ios":"levelo://app?vid=27a6bef8-9fa2-4c7c-a852-ef52da7f4c34"},"vehicle_type_id":"4","last_reported":1720033572,"current_range_meters":31200,"station_id":"ce4bhr12rcd13ifvqhqg","pricing_plan_id":"cebpf4jnsgd1na2vs0mg"},{"bike_id":"6fe8dc21-0882-49c2-928e-9911e760a97a","system_id":"levelo_inurba_marseille","lat":43.29723,"lon":5.36611,"is_reserved":false,"is_disabled":false,"rental_uris":{"android":"levelo://app?vid=6fe8dc21-0882-49c2-928e-9911e760a97a","ios":"levelo://app?vid=6fe8dc21-0882-49c2-928e-9911e760a97a"},"vehicle_type_id":"4","last_reported":1720033572,"current_range_meters":29200,"station_id":"ce4bgn12rcd13ifvqbt0","pricing_plan_id":"cebpf4jnsgd1na2vs0mg"},{"bike_id":"974cd13a-b13b-4815-b046-b51e791dee06","system_id":"levelo_inurba_marseille","lat":43.29713,"lon":5.36617,"is_reserved":false,"is_disabled":false,"rental_uris":{"android":"levelo://app?vid=974cd13a-b13b-4815-b046-b51e791dee06","ios":"levelo://app?vid=974cd13a-b13b-4815-b046-b51e791dee06"},"vehicle_type_id":"4","last_reported":1720033572,"current_range_meters":27600,"station_id":"ce4bgn12rcd13ifvqbt0","pricing_plan_id":"cebpf4jnsgd1na2vs0mg"},{"bike_id":"4fc02259-ae4a-42d1-9959-e2ff1bcecc52","system_id":"levelo_inurba_marseille","lat":43.32853,"lon":5.36686,"is_reserved":false,"is_disabled":false,"rental_uris":{"android":"levelo://app?vid=4fc02259-ae4a-42d1-9959-e2ff1bcecc52","ios":"levelo://app?vid=4fc02259-ae4a-42d1-9959-e2ff1bcecc52"},"vehicle_type_id":"4","last_reported":1720033572,"current_range_meters":8800,"station_id":"","pricing_plan_id":"cebpf4jnsgd1na2vs0mg"},{"bike_id":"fe6f4d5f-b026-4774-a179-01deab04e26e","system_id":"levelo_inurba_marseille","lat":43.31318,"lon":5.38927,"is_reserved":false,"is_disabled":false,"rental_uris":{"android":"levelo://app?vid=fe6f4d5f-b026-4774-a179-01deab04e26e","ios":"levelo://app?vid=fe6f4d5f-b026-4774-a179-01deab04e26e"},"vehicle_type_id":"4","last_reported":1720033572,"current_range_meters":4400,"station_id":"","pricing_plan_id":"cebpf4jnsgd1na2vs0mg"},{"bike_id":"b83305bb-0761-4292-8cbf-8980b485e101","system_id":"levelo_inurba_marseille","lat":43.2968,"lon":5.37291,"is_reserved":false,"is_disabled":false,"rental_uris":{"android":"levelo://app?vid=b83305bb-0761-4292-8cbf-8980b485e101","ios":"levelo://app?vid=b83305bb-0761-4292-8cbf-8980b485e101"},"vehicle_type_id":"4","last_reported":1720033572,"current_range_meters":16400,"station_id":"ce4bgk12rcd13ifvqbj0","pricing_plan_id":"cebpf4jnsgd1na2vs0mg"},{"bike_id":"0c845e77-91f9-4f53-b4c0-9cd585c05b3e","system_id":"levelo_inurba_marseille","lat":43.29663,"lon":5.36162,"is_reserved":false,"is_disabled":false,"rental_uris":{"android":"levelo://app?vid=0c845e77-91f9-4f53-b4c0-9cd585c05b3e","ios":"levelo://app?vid=0c845e77-91f9-4f53-b4c0-9cd585c05b3e"},"vehicle_type_id":"4","last_reported":1720033572,"current_range_meters":3200,"station_id":"","pricing_plan_id":"cebpf4jnsgd1na2vs0mg"},{"bike_id":"9a6c25bf-1c51-41f0-ac00-c56e66a96189","system_id":"levelo_inurba_marseille","lat":43.296131,"lon":5.370791,"is_reserved":false,"is_disabled":false,"rental_uris":{"android":"levelo://app?vid=9a6c25bf-1c51-41f0-ac00-c56e66a96189","ios":"levelo://app?vid=9a6c25bf-1c51-41f0-ac00-c56e66a96189"},"vehicle_type_id":"4","last_reported":1720033572,"current_range_meters":19600,"station_id":"ce4bgnh2rcd13ifvqc0g","pricing_plan_id":"cebpf4jnsgd1na2vs0mg"},{"bike_id":"1c133900-b4fc-4747-b786-83690ccb04dd","system_id":"levelo_inurba_marseille","lat":43.29621,"lon":5.37149,"is_reserved":false,"is_disabled":false,"rental_uris":{"android":"levelo://app?vid=1c133900-b4fc-4747-b786-83690ccb04dd","ios":"levelo://app?vid=1c133900-b4fc-4747-b786-83690ccb04dd"},"vehicle_type_id":"4","last_reported":1720033572,"current_range_meters":20800,"station_id":"ce4bgnh2rcd13ifvqc0g","pricing_plan_id":"cebpf4jnsgd1na2vs0mg"},{"bike_id":"2e61dbda-c2c7-435d-a6a1-f60de8b6bdc4","system_id":"levelo_inurba_marseille","lat":43.29573,"lon":5.367355,"is_reserved":false,"is_disabled":false,"rental_uris":{"android":"levelo://app?vid=2e61dbda-c2c7-435d-a6a1-f60de8b6bdc4","ios":"levelo://app?vid=2e61dbda-c2c7-435d-a6a1-f60de8b6bdc4"},"vehicle_type_id":"4","last_reported":1720033572,"current_range_meters":2800,"station_id":"ce4bgph2rcd13ifvqc2g","pricing_plan_id":"cebpf4jnsgd1na2vs0mg"},{"bike_id":"84b83639-69c2-44bd-955c-3a618b7edacd","system_id":"levelo_inurba_marseille","lat":43.29582,"lon":5.3674,"is_reserved":false,"is_disabled":false,"rental_uris":{"android":"levelo://app?vid=84b83639-69c2-44bd-955c-3a618b7edacd","ios":"levelo://app?vid=84b83639-69c2-44bd-955c-3a618b7edacd"},"vehicle_type_id":"4","last_reported":1720033572,"current_range_meters":0,"station_id":"ce4bgph2rcd13ifvqc2g","pricing_plan_id":"cebpf4jnsgd1na2vs0mg"},{"bike_id":"ad67f13c-b7fa-496e-9fe5-da3fb4bf1bc1","system_id":"levelo_inurba_marseille","lat":43.29573,"lon":5.367355,"is_reserved":false,"is_disabled":false,"rental_uris":{"android":"levelo://app?vid=ad67f13c-b7fa-496e-9fe5-da3fb4bf1bc1","ios":"levelo://app?vid=ad67f13c-b7fa-496e-9fe5-da3fb4bf1bc1"},"vehicle_type_id":"4","last_reported":1720033572,"current_range_meters":16400,"station_id":"ce4bgph2rcd13ifvqc2g","pricing_plan_id":"cebpf4jnsgd1na2vs0mg"},{"bike_id":"c6df7a0b-4678-4456-9e93-fd2348e36dd2","system_id":"levelo_inurba_marseille","lat":43.29573,"lon":5.367355,"is_reserved":false,"is_disabled":false,"rental_uris":{"android":"levelo://app?vid=c6df7a0b-4678-4456-9e93-fd2348e36dd2","ios":"levelo://app?vid=c6df7a0b-4678-4456-9e93-fd2348e36dd2"},"vehicle_type_id":"4","last_reported":1720033572,"current_range_meters":2400,"station_id":"ce4bgph2rcd13ifvqc2g","pricing_plan_id":"cebpf4jnsgd1na2vs0mg"},{"bike_id":"0dc4c540-67ea-46de-b14e-ddcc98d9d074","system_id":"levelo_inurba_marseille","lat":43.303064,"lon":5.386227,"is_reserved":false,"is_disabled":false,"rental_uris":{"android":"levelo://app?vid=0dc4c540-67ea-46de-b14e-ddcc98d9d074","ios":"levelo://app?vid=0dc4c540-67ea-46de-b14e-ddcc98d9d074"},"vehicle_type_id":"4","last_reported":1720033572,"current_range_meters":0,"station_id":"","pricing_plan_id":"cebpf4jnsgd1na2vs0mg"},{"bike_id":"3a2723c3-3aff-43ec-9610-dec41ceeff17","system_id":"levelo_inurba_marseille","lat":43.296921,"lon":5.376579,"is_reserved":false,"is_disabled":false,"rental_uris":{"android":"levelo://app?vid=3a2723c3-3aff-43ec-9610-dec41ceeff17","ios":"levelo://app?vid=3a2723c3-3aff-43ec-9610-dec41ceeff17"},"vehicle_type_id":"4","last_reported":1720033572,"current_range_meters":800,"station_id":"ce4bgkh2rcd13ifvqbl0","pricing_plan_id":"cebpf4jnsgd1na2vs0mg"},{"bike_id":"75dae7b1-b946-4ae2-b23e-e5a0c8919015","system_id":"levelo_inurba_marseille","lat":43.299028,"lon":5.381509,"is_reserved":false,"is_disabled":false,"rental_uris":{"android":"levelo://app?vid=75dae7b1-b946-4ae2-b23e-e5a0c8919015","ios":"levelo://app?vid=75dae7b1-b946-4ae2-b23e-e5a0c8919015"},"vehicle_type_id":"4","last_reported":1720033572,"current_range_meters":3600,"station_id":"ce4bgj12rcd13ifvqbc0","pricing_plan_id":"cebpf4jnsgd1na2vs0mg"},{"bike_id":"b54b351a-a3ab-41f5-acf8-f7648f7a6957","system_id":"levelo_inurba_marseille","lat":43.3095,"lon":5.39028,"is_reserved":false,"is_disabled":false,"rental_uris":{"android":"levelo://app?vid=b54b351a-a3ab-41f5-acf8-f7648f7a6957","ios":"levelo://app?vid=b54b351a-a3ab-41f5-acf8-f7648f7a6957"},"vehicle_type_id":"4","last_reported":1720033572,"current_range_meters":0,"station_id":"ce4bgup2rcd13ifvqco0","pricing_plan_id":"cebpf4jnsgd1na2vs0mg"},{"bike_id":"71f6b426-8889-4033-b69a-fe93810206a2","system_id":"levelo_inurba_marseille","lat":43.30957,"lon":5.3903,"is_reserved":false,"is_disabled":false,"rental_uris":{"android":"levelo://app?vid=71f6b426-8889-4033-b69a-fe93810206a2","ios":"levelo://app?vid=71f6b426-8889-4033-b69a-fe93810206a2"},"vehicle_type_id":"4","last_reported":1720033572,"current_range_meters":0,"station_id":"ce4bgup2rcd13ifvqco0","pricing_plan_id":"cebpf4jnsgd1na2vs0mg"},{"bike_id":"4bbe8e8e-03e6-4c13-b183-532eb5667a3b","system_id":"levelo_inurba_marseille","lat":43.309573,"lon":5.390317,"is_reserved":false,"is_disabled":false,"rental_uris":{"android":"levelo://app?vid=4bbe8e8e-03e6-4c13-b183-532eb5667a3b","ios":"levelo://app?vid=4bbe8e8e-03e6-4c13-b183-532eb5667a3b"},"vehicle_type_id":"4","last_reported":1720033572,"current_range_meters":1600,"station_id":"","pricing_plan_id":"cebpf4jnsgd1na2vs0mg"},{"bike_id":"d24c9007-5781-4009-98c4-c9a6298a0f9b","system_id":"levelo_inurba_marseille","lat":43.309589,"lon":5.390258,"is_reserved":false,"is_disabled":false,"rental_uris":{"android":"levelo://app?vid=d24c9007-5781-4009-98c4-c9a6298a0f9b","ios":"levelo://app?vid=d24c9007-5781-4009-98c4-c9a6298a0f9b"},"vehicle_type_id":"4","last_reported":1720033572,"current_range_meters":27600,"station_id":"ce4bgup2rcd13ifvqco0","pricing_plan_id":"cebpf4jnsgd1na2vs0mg"},{"bike_id":"d42b7d0e-bc2f-4c52-96dd-f648a83a09f8","system_id":"levelo_inurba_marseille","lat":43.30951,"lon":5.39033,"is_reserved":false,"is_disabled":false,"rental_uris":{"android":"levelo://app?vid=d42b7d0e-bc2f-4c52-96dd-f648a83a09f8","ios":"levelo://app?vid=d42b7d0e-bc2f-4c52-96dd-f648a83a09f8"},"vehicle_type_id":"4","last_reported":1720033572,"current_range_meters":4800,"station_id":"ce4bgup2rcd13ifvqco0","pricing_plan_id":"cebpf4jnsgd1na2vs0mg"},{"bike_id":"4ea15eee-50c3-4efd-b53f-e95bf7388fbb","system_id":"levelo_inurba_marseille","lat":43.309589,"lon":5.390258,"is_reserved":false,"is_disabled":false,"rental_uris":{"android":"levelo://app?vid=4ea15eee-50c3-4efd-b53f-e95bf7388fbb","ios":"levelo://app?vid=4ea15eee-50c3-4efd-b53f-e95bf7388fbb"},"vehicle_type_id":"4","last_reported":1720033572,"current_range_meters":22800,"station_id":"ce4bgup2rcd13ifvqco0","pricing_plan_id":"cebpf4jnsgd1na2vs0mg"},{"bike_id":"227d746a-cec2-48ff-a95a-91014e25667d","system_id":"levelo_inurba_marseille","lat":43.30958,"lon":5.39035,"is_reserved":false,"is_disabled":false,"rental_uris":{"android":"levelo://app?vid=227d746a-cec2-48ff-a95a-91014e25667d","ios":"levelo://app?vid=227d746a-cec2-48ff-a95a-91014e25667d"},"vehicle_type_id":"4","last_reported":1720033572,"current_range_meters":2000,"station_id":"ce4bgup2rcd13ifvqco0","pricing_plan_id":"cebpf4jnsgd1na2vs0mg"},{"bike_id":"343ce8b7-26b4-467f-a84b-002c82cd01bb","system_id":"levelo_inurba_marseille","lat":43.309589,"lon":5.390258,"is_reserved":false,"is_disabled":false,"rental_uris":{"android":"levelo://app?vid=343ce8b7-26b4-467f-a84b-002c82cd01bb","ios":"levelo://app?vid=343ce8b7-26b4-467f-a84b-002c82cd01bb"},"vehicle_type_id":"4","last_reported":1720033572,"current_range_meters":29600,"station_id":"ce4bgup2rcd13ifvqco0","pricing_plan_id":"cebpf4jnsgd1na2vs0mg"},{"bike_id":"938c1217-ca46-40b1-9426-1145a89fa658","system_id":"levelo_inurba_marseille","lat":43.30948,"lon":5.39035,"is_reserved":false,"is_disabled":false,"rental_uris":{"android":"levelo://app?vid=938c1217-ca46-40b1-9426-1145a89fa658","ios":"levelo://app?vid=938c1217-ca46-40b1-9426-1145a89fa658"},"vehicle_type_id":"4","last_reported":1720033572,"current_range_meters":0,"station_id":"ce4bgup2rcd13ifvqco0","pricing_plan_id":"cebpf4jnsgd1na2vs0mg"},{"bike_id":"7879fc72-df58-4054-9840-13f70096e65c","system_id":"levelo_inurba_marseille","lat":43.30952,"lon":5.390373,"is_reserved":false,"is_disabled":false,"rental_uris":{"android":"levelo://app?vid=7879fc72-df58-4054-9840-13f70096e65c","ios":"levelo://app?vid=7879fc72-df58-4054-9840-13f70096e65c"},"vehicle_type_id":"4","last_reported":1720033572,"current_range_meters":0,"station_id":"ce4bgup2rcd13ifvqco0","pricing_plan_id":"cebpf4jnsgd1na2vs0mg"},{"bike_id":"64781ab5-8213-480d-b2b7-2fbb8a8dfee7","system_id":"levelo_inurba_marseille","lat":43.309589,"lon":5.390258,"is_reserved":false,"is_disabled":false,"rental_uris":{"android":"levelo://app?vid=64781ab5-8213-480d-b2b7-2fbb8a8dfee7","ios":"levelo://app?vid=64781ab5-8213-480d-b2b7-2fbb8a8dfee7"},"vehicle_type_id":"4","last_reported":1720033572,"current_range_meters":23200,"station_id":"ce4bgup2rcd13ifvqco0","pricing_plan_id":"cebpf4jnsgd1na2vs0mg"},{"bike_id":"7c206ed5-498f-4719-a5c4-0a03287c24f7","system_id":"levelo_inurba_marseille","lat":43.3095,"lon":5.3904,"is_reserved":false,"is_disabled":false,"rental_uris":{"android":"levelo://app?vid=7c206ed5-498f-4719-a5c4-0a03287c24f7","ios":"levelo://app?vid=7c206ed5-498f-4719-a5c4-0a03287c24f7"},"vehicle_type_id":"4","last_reported":1720033572,"current_range_meters":21600,"station_id":"ce4bgup2rcd13ifvqco0","pricing_plan_id":"cebpf4jnsgd1na2vs0mg"},{"bike_id":"ae933f7a-0537-4d49-ada4-3c06a1d5b3f5","system_id":"levelo_inurba_marseille","lat":43.30953,"lon":5.39041,"is_reserved":false,"is_disabled":false,"rental_uris":{"android":"levelo://app?vid=ae933f7a-0537-4d49-ada4-3c06a1d5b3f5","ios":"levelo://app?vid=ae933f7a-0537-4d49-ada4-3c06a1d5b3f5"},"vehicle_type_id":"4","last_reported":1720033572,"current_range_meters":27600,"station_id":"ce4bgup2rcd13ifvqco0","pricing_plan_id":"cebpf4jnsgd1na2vs0mg"},{"bike_id":"2767897a-d436-42fa-8f59-d9c0e17e6ff1","system_id":"levelo_inurba_marseille","lat":43.309589,"lon":5.390258,"is_reserved":false,"is_disabled":false,"rental_uris":{"android":"levelo://app?vid=2767897a-d436-42fa-8f59-d9c0e17e6ff1","ios":"levelo://app?vid=2767897a-d436-42fa-8f59-d9c0e17e6ff1"},"vehicle_type_id":"4","last_reported":1720033572,"current_range_meters":10400,"station_id":"ce4bgup2rcd13ifvqco0","pricing_plan_id":"cebpf4jnsgd1na2vs0mg"},{"bike_id":"39177d45-eea0-4edc-ad01-89244feb095b","system_id":"levelo_inurba_marseille","lat":43.309589,"lon":5.390258,"is_reserved":false,"is_disabled":false,"rental_uris":{"android":"levelo://app?vid=39177d45-eea0-4edc-ad01-89244feb095b","ios":"levelo://app?vid=39177d45-eea0-4edc-ad01-89244feb095b"},"vehicle_type_id":"4","last_reported":1720033572,"current_range_meters":5600,"station_id":"ce4bgup2rcd13ifvqco0","pricing_plan_id":"cebpf4jnsgd1na2vs0mg"},{"bike_id":"ab03acfb-9629-4e23-a88f-370acd6a5473","system_id":"levelo_inurba_marseille","lat":43.3095,"lon":5.39042,"is_reserved":false,"is_disabled":false,"rental_uris":{"android":"levelo://app?vid=ab03acfb-9629-4e23-a88f-370acd6a5473","ios":"levelo://app?vid=ab03acfb-9629-4e23-a88f-370acd6a5473"},"vehicle_type_id":"4","last_reported":1720033572,"current_range_meters":0,"station_id":"ce4bgup2rcd13ifvqco0","pricing_plan_id":"cebpf4jnsgd1na2vs0mg"},{"bike_id":"ab5ded03-d71f-44b2-a777-07464d4f9adf","system_id":"levelo_inurba_marseille","lat":43.309589,"lon":5.390258,"is_reserved":false,"is_disabled":false,"rental_uris":{"android":"levelo://app?vid=ab5ded03-d71f-44b2-a777-07464d4f9adf","ios":"levelo://app?vid=ab5ded03-d71f-44b2-a777-07464d4f9adf"},"vehicle_type_id":"4","last_reported":1720033572,"current_range_meters":1200,"station_id":"ce4bgup2rcd13ifvqco0","pricing_plan_id":"cebpf4jnsgd1na2vs0mg"},{"bike_id":"6001da9d-218b-4c34-a1ad-2cee9f51ade5","system_id":"levelo_inurba_marseille","lat":43.31758,"lon":5.39009,"is_reserved":false,"is_disabled":false,"rental_uris":{"android":"levelo://app?vid=6001da9d-218b-4c34-a1ad-2cee9f51ade5","ios":"levelo://app?vid=6001da9d-218b-4c34-a1ad-2cee9f51ade5"},"vehicle_type_id":"4","last_reported":1720033572,"current_range_meters":28400,"station_id":"ce4bhqp2rcd13ifvqhng","pricing_plan_id":"cebpf4jnsgd1na2vs0mg"},{"bike_id":"c31bac7f-eadf-4f74-9756-b99bb23bd992","system_id":"levelo_inurba_marseille","lat":43.317557,"lon":5.390173,"is_reserved":false,"is_disabled":false,"rental_uris":{"android":"levelo://app?vid=c31bac7f-eadf-4f74-9756-b99bb23bd992","ios":"levelo://app?vid=c31bac7f-eadf-4f74-9756-b99bb23bd992"},"vehicle_type_id":"4","last_reported":1720033572,"current_range_meters":15600,"station_id":"ce4bhqp2rcd13ifvqhng","pricing_plan_id":"cebpf4jnsgd1na2vs0mg"},{"bike_id":"8da24db0-5823-4bf3-a187-790c3499b773","system_id":"levelo_inurba_marseille","lat":43.317557,"lon":5.390173,"is_reserved":false,"is_disabled":false,"rental_uris":{"android":"levelo://app?vid=8da24db0-5823-4bf3-a187-790c3499b773","ios":"levelo://app?vid=8da24db0-5823-4bf3-a187-790c3499b773"},"vehicle_type_id":"4","last_reported":1720033572,"current_range_meters":25200,"station_id":"ce4bhqp2rcd13ifvqhng","pricing_plan_id":"cebpf4jnsgd1na2vs0mg"},{"bike_id":"5a7264ec-d7b4-4595-adbd-c263e07548f8","system_id":"levelo_inurba_marseille","lat":43.31761,"lon":5.39022,"is_reserved":false,"is_disabled":false,"rental_uris":{"android":"levelo://app?vid=5a7264ec-d7b4-4595-adbd-c263e07548f8","ios":"levelo://app?vid=5a7264ec-d7b4-4595-adbd-c263e07548f8"},"vehicle_type_id":"4","last_reported":1720033572,"current_range_meters":6000,"station_id":"ce4bhqp2rcd13ifvqhng","pricing_plan_id":"cebpf4jnsgd1na2vs0mg"},{"bike_id":"bfe1ae7c-91ef-4822-b205-1c4afd9064ec","system_id":"levelo_inurba_marseille","lat":43.309589,"lon":5.390258,"is_reserved":false,"is_disabled":false,"rental_uris":{"android":"levelo://app?vid=bfe1ae7c-91ef-4822-b205-1c4afd9064ec","ios":"levelo://app?vid=bfe1ae7c-91ef-4822-b205-1c4afd9064ec"},"vehicle_type_id":"4","last_reported":1720033572,"current_range_meters":29200,"station_id":"ce4bgup2rcd13ifvqco0","pricing_plan_id":"cebpf4jnsgd1na2vs0mg"},{"bike_id":"27d04c65-0426-4652-95de-6e715521b002","system_id":"levelo_inurba_marseille","lat":43.298037,"lon":5.381066,"is_reserved":false,"is_disabled":false,"rental_uris":{"android":"levelo://app?vid=27d04c65-0426-4652-95de-6e715521b002","ios":"levelo://app?vid=27d04c65-0426-4652-95de-6e715521b002"},"vehicle_type_id":"4","last_reported":1720033572,"current_range_meters":22800,"station_id":"ce4bgip2rcd13ifvqbb0","pricing_plan_id":"cebpf4jnsgd1na2vs0mg"},{"bike_id":"76e1b479-3c51-469b-94f7-9ffa3659f59d","system_id":"levelo_inurba_marseille","lat":43.298037,"lon":5.381066,"is_reserved":false,"is_disabled":false,"rental_uris":{"android":"levelo://app?vid=76e1b479-3c51-469b-94f7-9ffa3659f59d","ios":"levelo://app?vid=76e1b479-3c51-469b-94f7-9ffa3659f59d"},"vehicle_type_id":"4","last_reported":1720033572,"current_range_meters":12400,"station_id":"ce4bgip2rcd13ifvqbb0","pricing_plan_id":"cebpf4jnsgd1na2vs0mg"},{"bike_id":"c19a3f28-473a-4b22-afbd-8dd35550e9d8","system_id":"levelo_inurba_marseille","lat":43.304274,"lon":5.388873,"is_reserved":false,"is_disabled":false,"rental_uris":{"android":"levelo://app?vid=c19a3f28-473a-4b22-afbd-8dd35550e9d8","ios":"levelo://app?vid=c19a3f28-473a-4b22-afbd-8dd35550e9d8"},"vehicle_type_id":"4","last_reported":1720033572,"current_range_meters":6800,"station_id":"ce4bgk12rcd13ifvqbi0","pricing_plan_id":"cebpf4jnsgd1na2vs0mg"},{"bike_id":"c83d8036-4ee7-4d02-9772-403c16d80572","system_id":"levelo_inurba_marseille","lat":43.304278,"lon":5.388868,"is_reserved":false,"is_disabled":false,"rental_uris":{"android":"levelo://app?vid=c83d8036-4ee7-4d02-9772-403c16d80572","ios":"levelo://app?vid=c83d8036-4ee7-4d02-9772-403c16d80572"},"vehicle_type_id":"4","last_reported":1720033572,"current_range_meters":16400,"station_id":"ce4bgk12rcd13ifvqbi0","pricing_plan_id":"cebpf4jnsgd1na2vs0mg"},{"bike_id":"5786c3ca-0616-490f-bee7-446ffa71d4a8","system_id":"levelo_inurba_marseille","lat":43.304274,"lon":5.388873,"is_reserved":false,"is_disabled":false,"rental_uris":{"android":"levelo://app?vid=5786c3ca-0616-490f-bee7-446ffa71d4a8","ios":"levelo://app?vid=5786c3ca-0616-490f-bee7-446ffa71d4a8"},"vehicle_type_id":"4","last_reported":1720033572,"current_range_meters":14800,"station_id":"ce4bgk12rcd13ifvqbi0","pricing_plan_id":"cebpf4jnsgd1na2vs0mg"},{"bike_id":"45b96747-ba87-43dd-9888-c94b0ce64bae","system_id":"levelo_inurba_marseille","lat":43.309589,"lon":5.390258,"is_reserved":false,"is_disabled":false,"rental_uris":{"android":"levelo://app?vid=45b96747-ba87-43dd-9888-c94b0ce64bae","ios":"levelo://app?vid=45b96747-ba87-43dd-9888-c94b0ce64bae"},"vehicle_type_id":"4","last_reported":1720033572,"current_range_meters":7600,"station_id":"ce4bgup2rcd13ifvqco0","pricing_plan_id":"cebpf4jnsgd1na2vs0mg"},{"bike_id":"816b3471-b461-4b0b-aa72-cbf7f5724c23","system_id":"levelo_inurba_marseille","lat":43.299717,"lon":5.384845,"is_reserved":false,"is_disabled":false,"rental_uris":{"android":"levelo://app?vid=816b3471-b461-4b0b-aa72-cbf7f5724c23","ios":"levelo://app?vid=816b3471-b461-4b0b-aa72-cbf7f5724c23"},"vehicle_type_id":"4","last_reported":1720033572,"current_range_meters":28800,"station_id":"ce4bgj92rcd13ifvqbd0","pricing_plan_id":"cebpf4jnsgd1na2vs0mg"},{"bike_id":"38a1305e-ad6a-4384-881c-1dbe363711ae","system_id":"levelo_inurba_marseille","lat":43.299717,"lon":5.384845,"is_reserved":false,"is_disabled":false,"rental_uris":{"android":"levelo://app?vid=38a1305e-ad6a-4384-881c-1dbe363711ae","ios":"levelo://app?vid=38a1305e-ad6a-4384-881c-1dbe363711ae"},"vehicle_type_id":"4","last_reported":1720033572,"current_range_meters":22000,"station_id":"ce4bgj92rcd13ifvqbd0","pricing_plan_id":"cebpf4jnsgd1na2vs0mg"},{"bike_id":"12d4772f-b662-4092-8976-610ccd7eb50a","system_id":"levelo_inurba_marseille","lat":43.299717,"lon":5.384845,"is_reserved":false,"is_disabled":false,"rental_uris":{"android":"levelo://app?vid=12d4772f-b662-4092-8976-610ccd7eb50a","ios":"levelo://app?vid=12d4772f-b662-4092-8976-610ccd7eb50a"},"vehicle_type_id":"4","last_reported":1720033572,"current_range_meters":20800,"station_id":"ce4bgj92rcd13ifvqbd0","pricing_plan_id":"cebpf4jnsgd1na2vs0mg"},{"bike_id":"38dc622b-b6e6-42ce-ae14-909b014964f8","system_id":"levelo_inurba_marseille","lat":43.299724,"lon":5.384848,"is_reserved":false,"is_disabled":false,"rental_uris":{"android":"levelo://app?vid=38dc622b-b6e6-42ce-ae14-909b014964f8","ios":"levelo://app?vid=38dc622b-b6e6-42ce-ae14-909b014964f8"},"vehicle_type_id":"4","last_reported":1720033572,"current_range_meters":1600,"station_id":"ce4bgj92rcd13ifvqbd0","pricing_plan_id":"cebpf4jnsgd1na2vs0mg"},{"bike_id":"85f74836-046a-4b95-91b6-a46106c5e5c4","system_id":"levelo_inurba_marseille","lat":43.30125,"lon":5.38763,"is_reserved":false,"is_disabled":false,"rental_uris":{"android":"levelo://app?vid=85f74836-046a-4b95-91b6-a46106c5e5c4","ios":"levelo://app?vid=85f74836-046a-4b95-91b6-a46106c5e5c4"},"vehicle_type_id":"4","last_reported":1720033572,"current_range_meters":30000,"station_id":"ce4bghh2rcd13ifvqb60","pricing_plan_id":"cebpf4jnsgd1na2vs0mg"},{"bike_id":"e5719508-1853-494d-a38d-54930acefc16","system_id":"levelo_inurba_marseille","lat":43.30132,"lon":5.38775,"is_reserved":false,"is_disabled":false,"rental_uris":{"android":"levelo://app?vid=e5719508-1853-494d-a38d-54930acefc16","ios":"levelo://app?vid=e5719508-1853-494d-a38d-54930acefc16"},"vehicle_type_id":"4","last_reported":1720033572,"current_range_meters":24800,"station_id":"ce4bghh2rcd13ifvqb60","pricing_plan_id":"cebpf4jnsgd1na2vs0mg"},{"bike_id":"c21845c4-fbba-4147-b9af-543690c8f4e7","system_id":"levelo_inurba_marseille","lat":43.30136,"lon":5.38781,"is_reserved":false,"is_disabled":false,"rental_uris":{"android":"levelo://app?vid=c21845c4-fbba-4147-b9af-543690c8f4e7","ios":"levelo://app?vid=c21845c4-fbba-4147-b9af-543690c8f4e7"},"vehicle_type_id":"4","last_reported":1720033572,"current_range_meters":22000,"station_id":"ce4bghh2rcd13ifvqb60","pricing_plan_id":"cebpf4jnsgd1na2vs0mg"},{"bike_id":"6d0089e8-f4d4-4dbb-a212-b7495b80f63e","system_id":"levelo_inurba_marseille","lat":43.30134,"lon":5.38782,"is_reserved":false,"is_disabled":false,"rental_uris":{"android":"levelo://app?vid=6d0089e8-f4d4-4dbb-a212-b7495b80f63e","ios":"levelo://app?vid=6d0089e8-f4d4-4dbb-a212-b7495b80f63e"},"vehicle_type_id":"4","last_reported":1720033572,"current_range_meters":23600,"station_id":"ce4bghh2rcd13ifvqb60","pricing_plan_id":"cebpf4jnsgd1na2vs0mg"},{"bike_id":"0f852103-f586-4cbe-8bdb-b46721cc31f5","system_id":"levelo_inurba_marseille","lat":43.32367,"lon":5.388836,"is_reserved":false,"is_disabled":false,"rental_uris":{"android":"levelo://app?vid=0f852103-f586-4cbe-8bdb-b46721cc31f5","ios":"levelo://app?vid=0f852103-f586-4cbe-8bdb-b46721cc31f5"},"vehicle_type_id":"4","last_reported":1720033572,"current_range_meters":0,"station_id":"ce4bhqp2rcd13ifvqhog","pricing_plan_id":"cebpf4jnsgd1na2vs0mg"},{"bike_id":"27e71306-da20-49bd-9b93-c18781396ca7","system_id":"levelo_inurba_marseille","lat":43.32368,"lon":5.38884,"is_reserved":false,"is_disabled":false,"rental_uris":{"android":"levelo://app?vid=27e71306-da20-49bd-9b93-c18781396ca7","ios":"levelo://app?vid=27e71306-da20-49bd-9b93-c18781396ca7"},"vehicle_type_id":"4","last_reported":1720033572,"current_range_meters":0,"station_id":"ce4bhqp2rcd13ifvqhog","pricing_plan_id":"cebpf4jnsgd1na2vs0mg"},{"bike_id":"90361363-6a9c-4b37-86c9-ecce6847e080","system_id":"levelo_inurba_marseille","lat":43.32367,"lon":5.388836,"is_reserved":false,"is_disabled":false,"rental_uris":{"android":"levelo://app?vid=90361363-6a9c-4b37-86c9-ecce6847e080","ios":"levelo://app?vid=90361363-6a9c-4b37-86c9-ecce6847e080"},"vehicle_type_id":"4","last_reported":1720033572,"current_range_meters":16400,"station_id":"ce4bhqp2rcd13ifvqhog","pricing_plan_id":"cebpf4jnsgd1na2vs0mg"},{"bike_id":"d55bc9ed-4fb3-402d-a794-83ee8336a624","system_id":"levelo_inurba_marseille","lat":43.32367,"lon":5.388836,"is_reserved":false,"is_disabled":false,"rental_uris":{"android":"levelo://app?vid=d55bc9ed-4fb3-402d-a794-83ee8336a624","ios":"levelo://app?vid=d55bc9ed-4fb3-402d-a794-83ee8336a624"},"vehicle_type_id":"4","last_reported":1720033572,"current_range_meters":13200,"station_id":"ce4bhqp2rcd13ifvqhog","pricing_plan_id":"cebpf4jnsgd1na2vs0mg"},{"bike_id":"681e3e77-016b-47d3-bc53-7ee25afd3938","system_id":"levelo_inurba_marseille","lat":43.29602,"lon":5.381084,"is_reserved":false,"is_disabled":false,"rental_uris":{"android":"levelo://app?vid=681e3e77-016b-47d3-bc53-7ee25afd3938","ios":"levelo://app?vid=681e3e77-016b-47d3-bc53-7ee25afd3938"},"vehicle_type_id":"4","last_reported":1720033572,"current_range_meters":24800,"station_id":"ce4bgl12rcd13ifvqbo0","pricing_plan_id":"cebpf4jnsgd1na2vs0mg"},{"bike_id":"d241bbb7-6a86-4a4d-ac59-76e5d627fa07","system_id":"levelo_inurba_marseille","lat":43.29602,"lon":5.381084,"is_reserved":false,"is_disabled":false,"rental_uris":{"android":"levelo://app?vid=d241bbb7-6a86-4a4d-ac59-76e5d627fa07","ios":"levelo://app?vid=d241bbb7-6a86-4a4d-ac59-76e5d627fa07"},"vehicle_type_id":"4","last_reported":1720033572,"current_range_meters":4400,"station_id":"ce4bgl12rcd13ifvqbo0","pricing_plan_id":"cebpf4jnsgd1na2vs0mg"},{"bike_id":"35194e7c-c193-4cbc-9dff-d63ec5bcb807","system_id":"levelo_inurba_marseille","lat":43.29602,"lon":5.381084,"is_reserved":false,"is_disabled":false,"rental_uris":{"android":"levelo://app?vid=35194e7c-c193-4cbc-9dff-d63ec5bcb807","ios":"levelo://app?vid=35194e7c-c193-4cbc-9dff-d63ec5bcb807"},"vehicle_type_id":"4","last_reported":1720033572,"current_range_meters":16000,"station_id":"ce4bgl12rcd13ifvqbo0","pricing_plan_id":"cebpf4jnsgd1na2vs0mg"},{"bike_id":"4a0134ed-37fe-403f-9dfd-ec771529dcea","system_id":"levelo_inurba_marseille","lat":43.29602,"lon":5.381084,"is_reserved":false,"is_disabled":false,"rental_uris":{"android":"levelo://app?vid=4a0134ed-37fe-403f-9dfd-ec771529dcea","ios":"levelo://app?vid=4a0134ed-37fe-403f-9dfd-ec771529dcea"},"vehicle_type_id":"4","last_reported":1720033572,"current_range_meters":1200,"station_id":"ce4bgl12rcd13ifvqbo0","pricing_plan_id":"cebpf4jnsgd1na2vs0mg"},{"bike_id":"2d2ef30c-e593-4610-bef1-bc02a8ae4c36","system_id":"levelo_inurba_marseille","lat":43.29601,"lon":5.381084,"is_reserved":false,"is_disabled":false,"rental_uris":{"android":"levelo://app?vid=2d2ef30c-e593-4610-bef1-bc02a8ae4c36","ios":"levelo://app?vid=2d2ef30c-e593-4610-bef1-bc02a8ae4c36"},"vehicle_type_id":"4","last_reported":1720033572,"current_range_meters":12400,"station_id":"ce4bgl12rcd13ifvqbo0","pricing_plan_id":"cebpf4jnsgd1na2vs0mg"},{"bike_id":"35c8e60b-016c-4b11-b419-ad8f5d21556c","system_id":"levelo_inurba_marseille","lat":43.29602,"lon":5.381084,"is_reserved":false,"is_disabled":false,"rental_uris":{"android":"levelo://app?vid=35c8e60b-016c-4b11-b419-ad8f5d21556c","ios":"levelo://app?vid=35c8e60b-016c-4b11-b419-ad8f5d21556c"},"vehicle_type_id":"4","last_reported":1720033572,"current_range_meters":12000,"station_id":"ce4bgl12rcd13ifvqbo0","pricing_plan_id":"cebpf4jnsgd1na2vs0mg"},{"bike_id":"b5803b40-7b5f-43c2-8c3d-c0a7c2d39fdb","system_id":"levelo_inurba_marseille","lat":43.29309,"lon":5.37169,"is_reserved":false,"is_disabled":false,"rental_uris":{"android":"levelo://app?vid=b5803b40-7b5f-43c2-8c3d-c0a7c2d39fdb","ios":"levelo://app?vid=b5803b40-7b5f-43c2-8c3d-c0a7c2d39fdb"},"vehicle_type_id":"4","last_reported":1720033572,"current_range_meters":3200,"station_id":"ce4bgh92rcd13ifvqb40","pricing_plan_id":"cebpf4jnsgd1na2vs0mg"},{"bike_id":"f8634041-852f-47ad-8c17-67f137715ebf","system_id":"levelo_inurba_marseille","lat":43.292749,"lon":5.368398,"is_reserved":false,"is_disabled":false,"rental_uris":{"android":"levelo://app?vid=f8634041-852f-47ad-8c17-67f137715ebf","ios":"levelo://app?vid=f8634041-852f-47ad-8c17-67f137715ebf"},"vehicle_type_id":"4","last_reported":1720033572,"current_range_meters":0,"station_id":"ce4bhbp2rcd13ifvqesg","pricing_plan_id":"cebpf4jnsgd1na2vs0mg"},{"bike_id":"74de9ac6-2cb4-4f30-938e-90ca6a876429","system_id":"levelo_inurba_marseille","lat":43.292749,"lon":5.368398,"is_reserved":false,"is_disabled":false,"rental_uris":{"android":"levelo://app?vid=74de9ac6-2cb4-4f30-938e-90ca6a876429","ios":"levelo://app?vid=74de9ac6-2cb4-4f30-938e-90ca6a876429"},"vehicle_type_id":"4","last_reported":1720033572,"current_range_meters":24800,"station_id":"ce4bhbp2rcd13ifvqesg","pricing_plan_id":"cebpf4jnsgd1na2vs0mg"},{"bike_id":"bb46e258-6528-4c5f-833f-36d1f1a92ad6","system_id":"levelo_inurba_marseille","lat":43.29274,"lon":5.36842,"is_reserved":false,"is_disabled":false,"rental_uris":{"android":"levelo://app?vid=bb46e258-6528-4c5f-833f-36d1f1a92ad6","ios":"levelo://app?vid=bb46e258-6528-4c5f-833f-36d1f1a92ad6"},"vehicle_type_id":"4","last_reported":1720033572,"current_range_meters":31200,"station_id":"ce4bhbp2rcd13ifvqesg","pricing_plan_id":"cebpf4jnsgd1na2vs0mg"},{"bike_id":"91d3a93a-8e12-4fee-91fb-ffa2662495d6","system_id":"levelo_inurba_marseille","lat":43.30013,"lon":5.3885,"is_reserved":false,"is_disabled":false,"rental_uris":{"android":"levelo://app?vid=91d3a93a-8e12-4fee-91fb-ffa2662495d6","ios":"levelo://app?vid=91d3a93a-8e12-4fee-91fb-ffa2662495d6"},"vehicle_type_id":"4","last_reported":1720033572,"current_range_meters":25600,"station_id":"","pricing_plan_id":"cebpf4jnsgd1na2vs0mg"},{"bike_id":"f32ffe4e-510d-4bbf-8774-790987ab0cdd","system_id":"levelo_inurba_marseille","lat":43.29304,"lon":5.37456,"is_reserved":false,"is_disabled":false,"rental_uris":{"android":"levelo://app?vid=f32ffe4e-510d-4bbf-8774-790987ab0cdd","ios":"levelo://app?vid=f32ffe4e-510d-4bbf-8774-790987ab0cdd"},"vehicle_type_id":"4","last_reported":1720033572,"current_range_meters":0,"station_id":"ce4bgi12rcd13ifvqb70","pricing_plan_id":"cebpf4jnsgd1na2vs0mg"},{"bike_id":"e3a03ae8-fa40-4978-8f29-ac98a0f5ad7e","system_id":"levelo_inurba_marseille","lat":43.29297,"lon":5.37435,"is_reserved":false,"is_disabled":false,"rental_uris":{"android":"levelo://app?vid=e3a03ae8-fa40-4978-8f29-ac98a0f5ad7e","ios":"levelo://app?vid=e3a03ae8-fa40-4978-8f29-ac98a0f5ad7e"},"vehicle_type_id":"4","last_reported":1720033572,"current_range_meters":0,"station_id":"ce4bgi12rcd13ifvqb70","pricing_plan_id":"cebpf4jnsgd1na2vs0mg"},{"bike_id":"b769425a-2949-470a-9025-f73146777872","system_id":"levelo_inurba_marseille","lat":43.305994,"lon":5.393687,"is_reserved":false,"is_disabled":false,"rental_uris":{"android":"levelo://app?vid=b769425a-2949-470a-9025-f73146777872","ios":"levelo://app?vid=b769425a-2949-470a-9025-f73146777872"},"vehicle_type_id":"4","last_reported":1720033572,"current_range_meters":27200,"station_id":"ce4bh0p2rcd13ifvqd80","pricing_plan_id":"cebpf4jnsgd1na2vs0mg"},{"bike_id":"633d2312-6554-441e-8b6d-025c7cc50dc0","system_id":"levelo_inurba_marseille","lat":43.303002,"lon":5.392142,"is_reserved":false,"is_disabled":false,"rental_uris":{"android":"levelo://app?vid=633d2312-6554-441e-8b6d-025c7cc50dc0","ios":"levelo://app?vid=633d2312-6554-441e-8b6d-025c7cc50dc0"},"vehicle_type_id":"4","last_reported":1720033572,"current_range_meters":21600,"station_id":"ce4bgkh2rcd13ifvqbk0","pricing_plan_id":"cebpf4jnsgd1na2vs0mg"},{"bike_id":"bf3a04e8-a908-41f2-bf6d-b93b986c4063","system_id":"levelo_inurba_marseille","lat":43.303002,"lon":5.392142,"is_reserved":false,"is_disabled":false,"rental_uris":{"android":"levelo://app?vid=bf3a04e8-a908-41f2-bf6d-b93b986c4063","ios":"levelo://app?vid=bf3a04e8-a908-41f2-bf6d-b93b986c4063"},"vehicle_type_id":"4","last_reported":1720033572,"current_range_meters":12400,"station_id":"ce4bgkh2rcd13ifvqbk0","pricing_plan_id":"cebpf4jnsgd1na2vs0mg"},{"bike_id":"2a34be93-8af2-44ec-bd0e-0ee8061826f6","system_id":"levelo_inurba_marseille","lat":43.2936,"lon":5.37835,"is_reserved":false,"is_disabled":false,"rental_uris":{"android":"levelo://app?vid=2a34be93-8af2-44ec-bd0e-0ee8061826f6","ios":"levelo://app?vid=2a34be93-8af2-44ec-bd0e-0ee8061826f6"},"vehicle_type_id":"4","last_reported":1720033572,"current_range_meters":18000,"station_id":"ce4bgjh2rcd13ifvqbf0","pricing_plan_id":"cebpf4jnsgd1na2vs0mg"},{"bike_id":"3b9cc82d-189d-4fb4-b03b-b84fd5fea78e","system_id":"levelo_inurba_marseille","lat":43.300852,"lon":5.390859,"is_reserved":false,"is_disabled":false,"rental_uris":{"android":"levelo://app?vid=3b9cc82d-189d-4fb4-b03b-b84fd5fea78e","ios":"levelo://app?vid=3b9cc82d-189d-4fb4-b03b-b84fd5fea78e"},"vehicle_type_id":"4","last_reported":1720033572,"current_range_meters":3200,"station_id":"ce4bh192rcd13ifvqdb0","pricing_plan_id":"cebpf4jnsgd1na2vs0mg"},{"bike_id":"7b291491-196e-47f0-9031-44c33ce7b647","system_id":"levelo_inurba_marseille","lat":43.292311,"lon":5.360731,"is_reserved":false,"is_disabled":false,"rental_uris":{"android":"levelo://app?vid=7b291491-196e-47f0-9031-44c33ce7b647","ios":"levelo://app?vid=7b291491-196e-47f0-9031-44c33ce7b647"},"vehicle_type_id":"4","last_reported":1720033572,"current_range_meters":0,"station_id":"ce4bhbh2rcd13ifvqeqg","pricing_plan_id":"cebpf4jnsgd1na2vs0mg"},{"bike_id":"e88c13b7-690a-4c32-9f33-3b5f41e672c9","system_id":"levelo_inurba_marseille","lat":43.292311,"lon":5.360731,"is_reserved":false,"is_disabled":false,"rental_uris":{"android":"levelo://app?vid=e88c13b7-690a-4c32-9f33-3b5f41e672c9","ios":"levelo://app?vid=e88c13b7-690a-4c32-9f33-3b5f41e672c9"},"vehicle_type_id":"4","last_reported":1720033572,"current_range_meters":16800,"station_id":"ce4bhbh2rcd13ifvqeqg","pricing_plan_id":"cebpf4jnsgd1na2vs0mg"},{"bike_id":"7d2b3dec-e7d0-4e1d-a75a-8db146afcbdf","system_id":"levelo_inurba_marseille","lat":43.292311,"lon":5.360731,"is_reserved":false,"is_disabled":false,"rental_uris":{"android":"levelo://app?vid=7d2b3dec-e7d0-4e1d-a75a-8db146afcbdf","ios":"levelo://app?vid=7d2b3dec-e7d0-4e1d-a75a-8db146afcbdf"},"vehicle_type_id":"4","last_reported":1720033572,"current_range_meters":24400,"station_id":"ce4bhbh2rcd13ifvqeqg","pricing_plan_id":"cebpf4jnsgd1na2vs0mg"},{"bike_id":"fec4796b-e10b-4713-811b-f177a0870691","system_id":"levelo_inurba_marseille","lat":43.292311,"lon":5.360731,"is_reserved":false,"is_disabled":false,"rental_uris":{"android":"levelo://app?vid=fec4796b-e10b-4713-811b-f177a0870691","ios":"levelo://app?vid=fec4796b-e10b-4713-811b-f177a0870691"},"vehicle_type_id":"4","last_reported":1720033572,"current_range_meters":14000,"station_id":"ce4bhbh2rcd13ifvqeqg","pricing_plan_id":"cebpf4jnsgd1na2vs0mg"},{"bike_id":"0f4a2688-83dc-49fd-aaa7-f2df50c221e0","system_id":"levelo_inurba_marseille","lat":43.292311,"lon":5.360731,"is_reserved":false,"is_disabled":false,"rental_uris":{"android":"levelo://app?vid=0f4a2688-83dc-49fd-aaa7-f2df50c221e0","ios":"levelo://app?vid=0f4a2688-83dc-49fd-aaa7-f2df50c221e0"},"vehicle_type_id":"4","last_reported":1720033572,"current_range_meters":29200,"station_id":"ce4bhbh2rcd13ifvqeqg","pricing_plan_id":"cebpf4jnsgd1na2vs0mg"},{"bike_id":"7d57bd1c-fd15-480b-8021-0a7cd49f8a3a","system_id":"levelo_inurba_marseille","lat":43.292311,"lon":5.360731,"is_reserved":false,"is_disabled":false,"rental_uris":{"android":"levelo://app?vid=7d57bd1c-fd15-480b-8021-0a7cd49f8a3a","ios":"levelo://app?vid=7d57bd1c-fd15-480b-8021-0a7cd49f8a3a"},"vehicle_type_id":"4","last_reported":1720033572,"current_range_meters":20000,"station_id":"ce4bhbh2rcd13ifvqeqg","pricing_plan_id":"cebpf4jnsgd1na2vs0mg"},{"bike_id":"849b4a41-30d4-4912-82a9-c326121c2ddf","system_id":"levelo_inurba_marseille","lat":43.300852,"lon":5.390859,"is_reserved":false,"is_disabled":false,"rental_uris":{"android":"levelo://app?vid=849b4a41-30d4-4912-82a9-c326121c2ddf","ios":"levelo://app?vid=849b4a41-30d4-4912-82a9-c326121c2ddf"},"vehicle_type_id":"4","last_reported":1720033572,"current_range_meters":16400,"station_id":"ce4bh192rcd13ifvqdb0","pricing_plan_id":"cebpf4jnsgd1na2vs0mg"},{"bike_id":"58eaacc1-bf51-4172-bb28-4d1321ccc230","system_id":"levelo_inurba_marseille","lat":43.298764,"lon":5.388973,"is_reserved":false,"is_disabled":false,"rental_uris":{"android":"levelo://app?vid=58eaacc1-bf51-4172-bb28-4d1321ccc230","ios":"levelo://app?vid=58eaacc1-bf51-4172-bb28-4d1321ccc230"},"vehicle_type_id":"4","last_reported":1720033572,"current_range_meters":12000,"station_id":"ce4bh392rcd13ifvqdl0","pricing_plan_id":"cebpf4jnsgd1na2vs0mg"},{"bike_id":"4c45b91b-6d1b-4f65-8c11-b9892a1bd197","system_id":"levelo_inurba_marseille","lat":43.298764,"lon":5.388973,"is_reserved":false,"is_disabled":false,"rental_uris":{"android":"levelo://app?vid=4c45b91b-6d1b-4f65-8c11-b9892a1bd197","ios":"levelo://app?vid=4c45b91b-6d1b-4f65-8c11-b9892a1bd197"},"vehicle_type_id":"4","last_reported":1720033572,"current_range_meters":3200,"station_id":"ce4bh392rcd13ifvqdl0","pricing_plan_id":"cebpf4jnsgd1na2vs0mg"},{"bike_id":"771b4588-2a37-47a9-8441-880000b038df","system_id":"levelo_inurba_marseille","lat":43.313291,"lon":5.396838,"is_reserved":false,"is_disabled":false,"rental_uris":{"android":"levelo://app?vid=771b4588-2a37-47a9-8441-880000b038df","ios":"levelo://app?vid=771b4588-2a37-47a9-8441-880000b038df"},"vehicle_type_id":"4","last_reported":1720033572,"current_range_meters":12800,"station_id":"ce4bgvp2rcd13ifvqcu0","pricing_plan_id":"cebpf4jnsgd1na2vs0mg"},{"bike_id":"1493f067-0bbd-4ce1-b07f-7fb1d6602621","system_id":"levelo_inurba_marseille","lat":43.313291,"lon":5.396838,"is_reserved":false,"is_disabled":false,"rental_uris":{"android":"levelo://app?vid=1493f067-0bbd-4ce1-b07f-7fb1d6602621","ios":"levelo://app?vid=1493f067-0bbd-4ce1-b07f-7fb1d6602621"},"vehicle_type_id":"4","last_reported":1720033572,"current_range_meters":10000,"station_id":"ce4bgvp2rcd13ifvqcu0","pricing_plan_id":"cebpf4jnsgd1na2vs0mg"},{"bike_id":"9d909060-fd2b-4ad5-8e00-4f32296ccf2a","system_id":"levelo_inurba_marseille","lat":43.313291,"lon":5.396838,"is_reserved":false,"is_disabled":false,"rental_uris":{"android":"levelo://app?vid=9d909060-fd2b-4ad5-8e00-4f32296ccf2a","ios":"levelo://app?vid=9d909060-fd2b-4ad5-8e00-4f32296ccf2a"},"vehicle_type_id":"4","last_reported":1720033572,"current_range_meters":5200,"station_id":"ce4bgvp2rcd13ifvqcu0","pricing_plan_id":"cebpf4jnsgd1na2vs0mg"},{"bike_id":"9141db89-0039-407e-bed5-222a6828f95e","system_id":"levelo_inurba_marseille","lat":43.313291,"lon":5.396838,"is_reserved":false,"is_disabled":false,"rental_uris":{"android":"levelo://app?vid=9141db89-0039-407e-bed5-222a6828f95e","ios":"levelo://app?vid=9141db89-0039-407e-bed5-222a6828f95e"},"vehicle_type_id":"4","last_reported":1720033572,"current_range_meters":21200,"station_id":"ce4bgvp2rcd13ifvqcu0","pricing_plan_id":"cebpf4jnsgd1na2vs0mg"},{"bike_id":"250e8c35-fe6b-4eb3-810a-19cc7bdd0120","system_id":"levelo_inurba_marseille","lat":43.313291,"lon":5.396838,"is_reserved":false,"is_disabled":false,"rental_uris":{"android":"levelo://app?vid=250e8c35-fe6b-4eb3-810a-19cc7bdd0120","ios":"levelo://app?vid=250e8c35-fe6b-4eb3-810a-19cc7bdd0120"},"vehicle_type_id":"4","last_reported":1720033572,"current_range_meters":5200,"station_id":"ce4bgvp2rcd13ifvqcu0","pricing_plan_id":"cebpf4jnsgd1na2vs0mg"},{"bike_id":"20e6dd0e-09de-418d-9f89-f58b261f3a14","system_id":"levelo_inurba_marseille","lat":43.29539,"lon":5.38536,"is_reserved":false,"is_disabled":false,"rental_uris":{"android":"levelo://app?vid=20e6dd0e-09de-418d-9f89-f58b261f3a14","ios":"levelo://app?vid=20e6dd0e-09de-418d-9f89-f58b261f3a14"},"vehicle_type_id":"4","last_reported":1720033572,"current_range_meters":11600,"station_id":"ce4bgih2rcd13ifvqba0","pricing_plan_id":"cebpf4jnsgd1na2vs0mg"},{"bike_id":"6ebec17a-6546-414c-a12a-b2fe66d3d64d","system_id":"levelo_inurba_marseille","lat":43.29539,"lon":5.38536,"is_reserved":false,"is_disabled":false,"rental_uris":{"android":"levelo://app?vid=6ebec17a-6546-414c-a12a-b2fe66d3d64d","ios":"levelo://app?vid=6ebec17a-6546-414c-a12a-b2fe66d3d64d"},"vehicle_type_id":"4","last_reported":1720033572,"current_range_meters":15600,"station_id":"ce4bgih2rcd13ifvqba0","pricing_plan_id":"cebpf4jnsgd1na2vs0mg"},{"bike_id":"93ce822c-2fc5-4bb6-b6e1-1a50426edd86","system_id":"levelo_inurba_marseille","lat":43.309038,"lon":5.396546,"is_reserved":false,"is_disabled":false,"rental_uris":{"android":"levelo://app?vid=93ce822c-2fc5-4bb6-b6e1-1a50426edd86","ios":"levelo://app?vid=93ce822c-2fc5-4bb6-b6e1-1a50426edd86"},"vehicle_type_id":"4","last_reported":1720033572,"current_range_meters":1600,"station_id":"ce4bh012rcd13ifvqcv0","pricing_plan_id":"cebpf4jnsgd1na2vs0mg"},{"bike_id":"de8bb9ee-e46a-4662-827a-35b0e6c2b6d1","system_id":"levelo_inurba_marseille","lat":43.29533,"lon":5.38538,"is_reserved":false,"is_disabled":false,"rental_uris":{"android":"levelo://app?vid=de8bb9ee-e46a-4662-827a-35b0e6c2b6d1","ios":"levelo://app?vid=de8bb9ee-e46a-4662-827a-35b0e6c2b6d1"},"vehicle_type_id":"4","last_reported":1720033572,"current_range_meters":26400,"station_id":"ce4bgih2rcd13ifvqba0","pricing_plan_id":"cebpf4jnsgd1na2vs0mg"},{"bike_id":"1390fc8a-99d8-45b7-a953-5ece9eaf2925","system_id":"levelo_inurba_marseille","lat":43.29529,"lon":5.385581,"is_reserved":false,"is_disabled":false,"rental_uris":{"android":"levelo://app?vid=1390fc8a-99d8-45b7-a953-5ece9eaf2925","ios":"levelo://app?vid=1390fc8a-99d8-45b7-a953-5ece9eaf2925"},"vehicle_type_id":"4","last_reported":1720033572,"current_range_meters":0,"station_id":"ce4bgih2rcd13ifvqba0","pricing_plan_id":"cebpf4jnsgd1na2vs0mg"},{"bike_id":"0ef8fb0a-9802-4194-8757-85f06d69937c","system_id":"levelo_inurba_marseille","lat":43.29529,"lon":5.385581,"is_reserved":false,"is_disabled":false,"rental_uris":{"android":"levelo://app?vid=0ef8fb0a-9802-4194-8757-85f06d69937c","ios":"levelo://app?vid=0ef8fb0a-9802-4194-8757-85f06d69937c"},"vehicle_type_id":"4","last_reported":1720033572,"current_range_meters":28000,"station_id":"ce4bgih2rcd13ifvqba0","pricing_plan_id":"cebpf4jnsgd1na2vs0mg"},{"bike_id":"d3c99eff-3fc7-4415-befc-be12cb356bbe","system_id":"levelo_inurba_marseille","lat":43.2908,"lon":5.37159,"is_reserved":false,"is_disabled":false,"rental_uris":{"android":"levelo://app?vid=d3c99eff-3fc7-4415-befc-be12cb356bbe","ios":"levelo://app?vid=d3c99eff-3fc7-4415-befc-be12cb356bbe"},"vehicle_type_id":"4","last_reported":1720033572,"current_range_meters":2800,"station_id":"ce4bh5p2rcd13ifvqe4g","pricing_plan_id":"cebpf4jnsgd1na2vs0mg"},{"bike_id":"46e24f90-7be6-406f-b316-e56aa58fc74d","system_id":"levelo_inurba_marseille","lat":43.290779,"lon":5.371482,"is_reserved":false,"is_disabled":false,"rental_uris":{"android":"levelo://app?vid=46e24f90-7be6-406f-b316-e56aa58fc74d","ios":"levelo://app?vid=46e24f90-7be6-406f-b316-e56aa58fc74d"},"vehicle_type_id":"4","last_reported":1720033572,"current_range_meters":17600,"station_id":"ce4bh5p2rcd13ifvqe4g","pricing_plan_id":"cebpf4jnsgd1na2vs0mg"},{"bike_id":"cf473374-f391-44e6-be15-56a0c9cb02b2","system_id":"levelo_inurba_marseille","lat":43.290779,"lon":5.371482,"is_reserved":false,"is_disabled":false,"rental_uris":{"android":"levelo://app?vid=cf473374-f391-44e6-be15-56a0c9cb02b2","ios":"levelo://app?vid=cf473374-f391-44e6-be15-56a0c9cb02b2"},"vehicle_type_id":"4","last_reported":1720033572,"current_range_meters":29200,"station_id":"ce4bh5p2rcd13ifvqe4g","pricing_plan_id":"cebpf4jnsgd1na2vs0mg"},{"bike_id":"5942deb5-ffc1-4869-887b-f19cc6787ccf","system_id":"levelo_inurba_marseille","lat":43.290779,"lon":5.371482,"is_reserved":false,"is_disabled":false,"rental_uris":{"android":"levelo://app?vid=5942deb5-ffc1-4869-887b-f19cc6787ccf","ios":"levelo://app?vid=5942deb5-ffc1-4869-887b-f19cc6787ccf"},"vehicle_type_id":"4","last_reported":1720033572,"current_range_meters":15600,"station_id":"ce4bh5p2rcd13ifvqe4g","pricing_plan_id":"cebpf4jnsgd1na2vs0mg"},{"bike_id":"27318048-9973-45e4-9599-364a5c751928","system_id":"levelo_inurba_marseille","lat":43.290779,"lon":5.371482,"is_reserved":false,"is_disabled":false,"rental_uris":{"android":"levelo://app?vid=27318048-9973-45e4-9599-364a5c751928","ios":"levelo://app?vid=27318048-9973-45e4-9599-364a5c751928"},"vehicle_type_id":"4","last_reported":1720033572,"current_range_meters":31200,"station_id":"ce4bh5p2rcd13ifvqe4g","pricing_plan_id":"cebpf4jnsgd1na2vs0mg"},{"bike_id":"11612919-ad5b-4b21-8930-965a2375a617","system_id":"levelo_inurba_marseille","lat":43.29063,"lon":5.37171,"is_reserved":false,"is_disabled":false,"rental_uris":{"android":"levelo://app?vid=11612919-ad5b-4b21-8930-965a2375a617","ios":"levelo://app?vid=11612919-ad5b-4b21-8930-965a2375a617"},"vehicle_type_id":"4","last_reported":1720033572,"current_range_meters":0,"station_id":"ce4bh5p2rcd13ifvqe4g","pricing_plan_id":"cebpf4jnsgd1na2vs0mg"},{"bike_id":"c86efe95-ec41-46ff-9b3e-9f93734c1767","system_id":"levelo_inurba_marseille","lat":43.302008,"lon":5.394694,"is_reserved":false,"is_disabled":false,"rental_uris":{"android":"levelo://app?vid=c86efe95-ec41-46ff-9b3e-9f93734c1767","ios":"levelo://app?vid=c86efe95-ec41-46ff-9b3e-9f93734c1767"},"vehicle_type_id":"4","last_reported":1720033572,"current_range_meters":12400,"station_id":"ce4bh0p2rcd13ifvqd70","pricing_plan_id":"cebpf4jnsgd1na2vs0mg"},{"bike_id":"a01d6686-60d7-4017-b386-b08474ca4752","system_id":"levelo_inurba_marseille","lat":43.30209,"lon":5.3947,"is_reserved":false,"is_disabled":false,"rental_uris":{"android":"levelo://app?vid=a01d6686-60d7-4017-b386-b08474ca4752","ios":"levelo://app?vid=a01d6686-60d7-4017-b386-b08474ca4752"},"vehicle_type_id":"4","last_reported":1720033572,"current_range_meters":0,"station_id":"ce4bh0p2rcd13ifvqd70","pricing_plan_id":"cebpf4jnsgd1na2vs0mg"},{"bike_id":"c53d5042-9244-45e3-b1f3-bcaa8d80dc8a","system_id":"levelo_inurba_marseille","lat":43.30213,"lon":5.39475,"is_reserved":false,"is_disabled":false,"rental_uris":{"android":"levelo://app?vid=c53d5042-9244-45e3-b1f3-bcaa8d80dc8a","ios":"levelo://app?vid=c53d5042-9244-45e3-b1f3-bcaa8d80dc8a"},"vehicle_type_id":"4","last_reported":1720033572,"current_range_meters":28000,"station_id":"ce4bh0p2rcd13ifvqd70","pricing_plan_id":"cebpf4jnsgd1na2vs0mg"},{"bike_id":"2c9bc959-6fb8-4c35-b16e-76048aeec480","system_id":"levelo_inurba_marseille","lat":43.290624,"lon":5.359245,"is_reserved":false,"is_disabled":false,"rental_uris":{"android":"levelo://app?vid=2c9bc959-6fb8-4c35-b16e-76048aeec480","ios":"levelo://app?vid=2c9bc959-6fb8-4c35-b16e-76048aeec480"},"vehicle_type_id":"4","last_reported":1720033572,"current_range_meters":27200,"station_id":"ce4bha92rcd13ifvqeg0","pricing_plan_id":"cebpf4jnsgd1na2vs0mg"},{"bike_id":"0dbdba56-59f0-40b0-aeb4-affc391fe3f4","system_id":"levelo_inurba_marseille","lat":43.290327,"lon":5.375711,"is_reserved":false,"is_disabled":false,"rental_uris":{"android":"levelo://app?vid=0dbdba56-59f0-40b0-aeb4-affc391fe3f4","ios":"levelo://app?vid=0dbdba56-59f0-40b0-aeb4-affc391fe3f4"},"vehicle_type_id":"4","last_reported":1720033572,"current_range_meters":30000,"station_id":"ce4bh692rcd13ifvqe90","pricing_plan_id":"cebpf4jnsgd1na2vs0mg"},{"bike_id":"76594fa1-f491-46e4-895c-2a23e219f8b7","system_id":"levelo_inurba_marseille","lat":43.294153,"lon":5.386305,"is_reserved":false,"is_disabled":false,"rental_uris":{"android":"levelo://app?vid=76594fa1-f491-46e4-895c-2a23e219f8b7","ios":"levelo://app?vid=76594fa1-f491-46e4-895c-2a23e219f8b7"},"vehicle_type_id":"4","last_reported":1720033572,"current_range_meters":14400,"station_id":"ce4bh2h2rcd13ifvqdh0","pricing_plan_id":"cebpf4jnsgd1na2vs0mg"},{"bike_id":"78a3fb0a-51c0-4cc4-b75c-18905241d695","system_id":"levelo_inurba_marseille","lat":43.294153,"lon":5.386305,"is_reserved":false,"is_disabled":false,"rental_uris":{"android":"levelo://app?vid=78a3fb0a-51c0-4cc4-b75c-18905241d695","ios":"levelo://app?vid=78a3fb0a-51c0-4cc4-b75c-18905241d695"},"vehicle_type_id":"4","last_reported":1720033572,"current_range_meters":24800,"station_id":"ce4bh2h2rcd13ifvqdh0","pricing_plan_id":"cebpf4jnsgd1na2vs0mg"},{"bike_id":"6e2cd1d5-59a5-464a-b4c0-ca6e17796c56","system_id":"levelo_inurba_marseille","lat":43.294162,"lon":5.386292,"is_reserved":false,"is_disabled":false,"rental_uris":{"android":"levelo://app?vid=6e2cd1d5-59a5-464a-b4c0-ca6e17796c56","ios":"levelo://app?vid=6e2cd1d5-59a5-464a-b4c0-ca6e17796c56"},"vehicle_type_id":"4","last_reported":1720033572,"current_range_meters":8400,"station_id":"ce4bh2h2rcd13ifvqdh0","pricing_plan_id":"cebpf4jnsgd1na2vs0mg"},{"bike_id":"60037c39-d319-450d-b2f9-6dc7e0325900","system_id":"levelo_inurba_marseille","lat":43.290327,"lon":5.375711,"is_reserved":false,"is_disabled":false,"rental_uris":{"android":"levelo://app?vid=60037c39-d319-450d-b2f9-6dc7e0325900","ios":"levelo://app?vid=60037c39-d319-450d-b2f9-6dc7e0325900"},"vehicle_type_id":"4","last_reported":1720033572,"current_range_meters":400,"station_id":"ce4bh692rcd13ifvqe90","pricing_plan_id":"cebpf4jnsgd1na2vs0mg"},{"bike_id":"e08d819e-c25a-444f-a5b0-2c86882a5c6c","system_id":"levelo_inurba_marseille","lat":43.294153,"lon":5.386305,"is_reserved":false,"is_disabled":false,"rental_uris":{"android":"levelo://app?vid=e08d819e-c25a-444f-a5b0-2c86882a5c6c","ios":"levelo://app?vid=e08d819e-c25a-444f-a5b0-2c86882a5c6c"},"vehicle_type_id":"4","last_reported":1720033572,"current_range_meters":0,"station_id":"ce4bh2h2rcd13ifvqdh0","pricing_plan_id":"cebpf4jnsgd1na2vs0mg"},{"bike_id":"4406141b-205a-44b4-b5b9-2cd2aaec77bb","system_id":"levelo_inurba_marseille","lat":43.294197,"lon":5.386283,"is_reserved":false,"is_disabled":false,"rental_uris":{"android":"levelo://app?vid=4406141b-205a-44b4-b5b9-2cd2aaec77bb","ios":"levelo://app?vid=4406141b-205a-44b4-b5b9-2cd2aaec77bb"},"vehicle_type_id":"4","last_reported":1720033572,"current_range_meters":31200,"station_id":"ce4bh2h2rcd13ifvqdh0","pricing_plan_id":"cebpf4jnsgd1na2vs0mg"},{"bike_id":"48d82fd5-3fa6-47e1-b98a-5efb3b89ec55","system_id":"levelo_inurba_marseille","lat":43.29416,"lon":5.38624,"is_reserved":false,"is_disabled":false,"rental_uris":{"android":"levelo://app?vid=48d82fd5-3fa6-47e1-b98a-5efb3b89ec55","ios":"levelo://app?vid=48d82fd5-3fa6-47e1-b98a-5efb3b89ec55"},"vehicle_type_id":"4","last_reported":1720033572,"current_range_meters":29200,"station_id":"ce4bh2h2rcd13ifvqdh0","pricing_plan_id":"cebpf4jnsgd1na2vs0mg"},{"bike_id":"c7c2b02f-bcf8-40ad-bc4f-dc8a24b94a71","system_id":"levelo_inurba_marseille","lat":43.294153,"lon":5.386305,"is_reserved":false,"is_disabled":false,"rental_uris":{"android":"levelo://app?vid=c7c2b02f-bcf8-40ad-bc4f-dc8a24b94a71","ios":"levelo://app?vid=c7c2b02f-bcf8-40ad-bc4f-dc8a24b94a71"},"vehicle_type_id":"4","last_reported":1720033572,"current_range_meters":25200,"station_id":"ce4bh2h2rcd13ifvqdh0","pricing_plan_id":"cebpf4jnsgd1na2vs0mg"},{"bike_id":"5699a4db-65b8-488c-adf7-0fc5f48d4ad5","system_id":"levelo_inurba_marseille","lat":43.294162,"lon":5.386292,"is_reserved":false,"is_disabled":false,"rental_uris":{"android":"levelo://app?vid=5699a4db-65b8-488c-adf7-0fc5f48d4ad5","ios":"levelo://app?vid=5699a4db-65b8-488c-adf7-0fc5f48d4ad5"},"vehicle_type_id":"4","last_reported":1720033572,"current_range_meters":0,"station_id":"ce4bh2h2rcd13ifvqdh0","pricing_plan_id":"cebpf4jnsgd1na2vs0mg"},{"bike_id":"f13a540d-6779-486f-8021-c52ec3426051","system_id":"levelo_inurba_marseille","lat":43.294162,"lon":5.386292,"is_reserved":false,"is_disabled":false,"rental_uris":{"android":"levelo://app?vid=f13a540d-6779-486f-8021-c52ec3426051","ios":"levelo://app?vid=f13a540d-6779-486f-8021-c52ec3426051"},"vehicle_type_id":"4","last_reported":1720033572,"current_range_meters":17200,"station_id":"ce4bh2h2rcd13ifvqdh0","pricing_plan_id":"cebpf4jnsgd1na2vs0mg"},{"bike_id":"709af6ae-3ca3-419f-9fe0-77f9935bad8b","system_id":"levelo_inurba_marseille","lat":43.289184,"lon":5.366408,"is_reserved":false,"is_disabled":false,"rental_uris":{"android":"levelo://app?vid=709af6ae-3ca3-419f-9fe0-77f9935bad8b","ios":"levelo://app?vid=709af6ae-3ca3-419f-9fe0-77f9935bad8b"},"vehicle_type_id":"4","last_reported":1720033572,"current_range_meters":31200,"station_id":"ce4bhap2rcd13ifvqek0","pricing_plan_id":"cebpf4jnsgd1na2vs0mg"},{"bike_id":"b540bad3-cf45-4916-be96-6c24a94911de","system_id":"levelo_inurba_marseille","lat":43.289184,"lon":5.366408,"is_reserved":false,"is_disabled":false,"rental_uris":{"android":"levelo://app?vid=b540bad3-cf45-4916-be96-6c24a94911de","ios":"levelo://app?vid=b540bad3-cf45-4916-be96-6c24a94911de"},"vehicle_type_id":"4","last_reported":1720033572,"current_range_meters":31600,"station_id":"ce4bhap2rcd13ifvqek0","pricing_plan_id":"cebpf4jnsgd1na2vs0mg"},{"bike_id":"51457221-e086-463e-80e7-07ed2bddadbe","system_id":"levelo_inurba_marseille","lat":43.289184,"lon":5.366408,"is_reserved":false,"is_disabled":false,"rental_uris":{"android":"levelo://app?vid=51457221-e086-463e-80e7-07ed2bddadbe","ios":"levelo://app?vid=51457221-e086-463e-80e7-07ed2bddadbe"},"vehicle_type_id":"4","last_reported":1720033572,"current_range_meters":9600,"station_id":"ce4bhap2rcd13ifvqek0","pricing_plan_id":"cebpf4jnsgd1na2vs0mg"},{"bike_id":"1f6831de-cc16-4f9a-a9e0-c341820eb668","system_id":"levelo_inurba_marseille","lat":43.289184,"lon":5.366408,"is_reserved":false,"is_disabled":false,"rental_uris":{"android":"levelo://app?vid=1f6831de-cc16-4f9a-a9e0-c341820eb668","ios":"levelo://app?vid=1f6831de-cc16-4f9a-a9e0-c341820eb668"},"vehicle_type_id":"4","last_reported":1720033572,"current_range_meters":1600,"station_id":"ce4bhap2rcd13ifvqek0","pricing_plan_id":"cebpf4jnsgd1na2vs0mg"},{"bike_id":"10a2675f-5f26-420a-8cf9-7429504047b3","system_id":"levelo_inurba_marseille","lat":43.289184,"lon":5.366408,"is_reserved":false,"is_disabled":false,"rental_uris":{"android":"levelo://app?vid=10a2675f-5f26-420a-8cf9-7429504047b3","ios":"levelo://app?vid=10a2675f-5f26-420a-8cf9-7429504047b3"},"vehicle_type_id":"4","last_reported":1720033572,"current_range_meters":31600,"station_id":"ce4bhap2rcd13ifvqek0","pricing_plan_id":"cebpf4jnsgd1na2vs0mg"},{"bike_id":"6b6178bf-4a2e-4b7d-bf65-313ddcc9e7f0","system_id":"levelo_inurba_marseille","lat":43.289184,"lon":5.366408,"is_reserved":false,"is_disabled":false,"rental_uris":{"android":"levelo://app?vid=6b6178bf-4a2e-4b7d-bf65-313ddcc9e7f0","ios":"levelo://app?vid=6b6178bf-4a2e-4b7d-bf65-313ddcc9e7f0"},"vehicle_type_id":"4","last_reported":1720033572,"current_range_meters":31600,"station_id":"ce4bhap2rcd13ifvqek0","pricing_plan_id":"cebpf4jnsgd1na2vs0mg"},{"bike_id":"91eacbe6-df75-4ef4-9993-4ea3aff65c6e","system_id":"levelo_inurba_marseille","lat":43.289184,"lon":5.366408,"is_reserved":false,"is_disabled":false,"rental_uris":{"android":"levelo://app?vid=91eacbe6-df75-4ef4-9993-4ea3aff65c6e","ios":"levelo://app?vid=91eacbe6-df75-4ef4-9993-4ea3aff65c6e"},"vehicle_type_id":"4","last_reported":1720033572,"current_range_meters":31200,"station_id":"ce4bhap2rcd13ifvqek0","pricing_plan_id":"cebpf4jnsgd1na2vs0mg"},{"bike_id":"12e7ac50-a4c1-4fe3-a06b-13acd41c547c","system_id":"levelo_inurba_marseille","lat":43.289468,"lon":5.363719,"is_reserved":false,"is_disabled":false,"rental_uris":{"android":"levelo://app?vid=12e7ac50-a4c1-4fe3-a06b-13acd41c547c","ios":"levelo://app?vid=12e7ac50-a4c1-4fe3-a06b-13acd41c547c"},"vehicle_type_id":"4","last_reported":1720033572,"current_range_meters":1600,"station_id":"ce4bhc92rcd13ifvqetg","pricing_plan_id":"cebpf4jnsgd1na2vs0mg"},{"bike_id":"2b9dbfca-0fa0-4ab9-8888-9f2d1598d5bd","system_id":"levelo_inurba_marseille","lat":43.289468,"lon":5.363719,"is_reserved":false,"is_disabled":false,"rental_uris":{"android":"levelo://app?vid=2b9dbfca-0fa0-4ab9-8888-9f2d1598d5bd","ios":"levelo://app?vid=2b9dbfca-0fa0-4ab9-8888-9f2d1598d5bd"},"vehicle_type_id":"4","last_reported":1720033572,"current_range_meters":16000,"station_id":"ce4bhc92rcd13ifvqetg","pricing_plan_id":"cebpf4jnsgd1na2vs0mg"},{"bike_id":"75594023-8014-4793-a6a7-5208bc41877a","system_id":"levelo_inurba_marseille","lat":43.289468,"lon":5.363719,"is_reserved":false,"is_disabled":false,"rental_uris":{"android":"levelo://app?vid=75594023-8014-4793-a6a7-5208bc41877a","ios":"levelo://app?vid=75594023-8014-4793-a6a7-5208bc41877a"},"vehicle_type_id":"4","last_reported":1720033572,"current_range_meters":14400,"station_id":"ce4bhc92rcd13ifvqetg","pricing_plan_id":"cebpf4jnsgd1na2vs0mg"},{"bike_id":"5a1b5922-840a-435a-929d-e134a07d7c04","system_id":"levelo_inurba_marseille","lat":43.289202,"lon":5.364184,"is_reserved":false,"is_disabled":false,"rental_uris":{"android":"levelo://app?vid=5a1b5922-840a-435a-929d-e134a07d7c04","ios":"levelo://app?vid=5a1b5922-840a-435a-929d-e134a07d7c04"},"vehicle_type_id":"4","last_reported":1720033572,"current_range_meters":16000,"station_id":"ce4bhc92rcd13ifvqetg","pricing_plan_id":"cebpf4jnsgd1na2vs0mg"},{"bike_id":"1d9ca4a7-76f0-4b02-a80e-0d78d159bd55","system_id":"levelo_inurba_marseille","lat":43.29263,"lon":5.38427,"is_reserved":false,"is_disabled":false,"rental_uris":{"android":"levelo://app?vid=1d9ca4a7-76f0-4b02-a80e-0d78d159bd55","ios":"levelo://app?vid=1d9ca4a7-76f0-4b02-a80e-0d78d159bd55"},"vehicle_type_id":"4","last_reported":1720033572,"current_range_meters":0,"station_id":"ce4bh692rcd13ifvqea0","pricing_plan_id":"cebpf4jnsgd1na2vs0mg"},{"bike_id":"d584d72b-9d83-4e5b-a69d-92a0b3169f9c","system_id":"levelo_inurba_marseille","lat":43.292642,"lon":5.384254,"is_reserved":false,"is_disabled":false,"rental_uris":{"android":"levelo://app?vid=d584d72b-9d83-4e5b-a69d-92a0b3169f9c","ios":"levelo://app?vid=d584d72b-9d83-4e5b-a69d-92a0b3169f9c"},"vehicle_type_id":"4","last_reported":1720033572,"current_range_meters":22800,"station_id":"ce4bh692rcd13ifvqea0","pricing_plan_id":"cebpf4jnsgd1na2vs0mg"},{"bike_id":"643119e5-1037-4dbb-a4ec-b67982b1027b","system_id":"levelo_inurba_marseille","lat":43.30427,"lon":5.39747,"is_reserved":false,"is_disabled":false,"rental_uris":{"android":"levelo://app?vid=643119e5-1037-4dbb-a4ec-b67982b1027b","ios":"levelo://app?vid=643119e5-1037-4dbb-a4ec-b67982b1027b"},"vehicle_type_id":"4","last_reported":1720033572,"current_range_meters":0,"station_id":"ce4bh092rcd13ifvqd20","pricing_plan_id":"cebpf4jnsgd1na2vs0mg"},{"bike_id":"41532830-336e-431c-9978-a8899d40a07c","system_id":"levelo_inurba_marseille","lat":43.29263,"lon":5.38445,"is_reserved":false,"is_disabled":false,"rental_uris":{"android":"levelo://app?vid=41532830-336e-431c-9978-a8899d40a07c","ios":"levelo://app?vid=41532830-336e-431c-9978-a8899d40a07c"},"vehicle_type_id":"4","last_reported":1720033572,"current_range_meters":0,"station_id":"ce4bh692rcd13ifvqea0","pricing_plan_id":"cebpf4jnsgd1na2vs0mg"},{"bike_id":"130fb766-ef2c-4f52-8512-85ba3792f4ba","system_id":"levelo_inurba_marseille","lat":43.292634,"lon":5.384485,"is_reserved":false,"is_disabled":false,"rental_uris":{"android":"levelo://app?vid=130fb766-ef2c-4f52-8512-85ba3792f4ba","ios":"levelo://app?vid=130fb766-ef2c-4f52-8512-85ba3792f4ba"},"vehicle_type_id":"4","last_reported":1720033572,"current_range_meters":30400,"station_id":"ce4bh692rcd13ifvqea0","pricing_plan_id":"cebpf4jnsgd1na2vs0mg"},{"bike_id":"0f4d0ce4-1f6b-4697-affd-bd897364a788","system_id":"levelo_inurba_marseille","lat":43.304274,"lon":5.397513,"is_reserved":false,"is_disabled":false,"rental_uris":{"android":"levelo://app?vid=0f4d0ce4-1f6b-4697-affd-bd897364a788","ios":"levelo://app?vid=0f4d0ce4-1f6b-4697-affd-bd897364a788"},"vehicle_type_id":"4","last_reported":1720033572,"current_range_meters":0,"station_id":"ce4bh092rcd13ifvqd20","pricing_plan_id":"cebpf4jnsgd1na2vs0mg"},{"bike_id":"f8724634-9eed-48b1-920a-4c3a0a0d0b7c","system_id":"levelo_inurba_marseille","lat":43.292642,"lon":5.384254,"is_reserved":false,"is_disabled":false,"rental_uris":{"android":"levelo://app?vid=f8724634-9eed-48b1-920a-4c3a0a0d0b7c","ios":"levelo://app?vid=f8724634-9eed-48b1-920a-4c3a0a0d0b7c"},"vehicle_type_id":"4","last_reported":1720033572,"current_range_meters":31200,"station_id":"ce4bh692rcd13ifvqea0","pricing_plan_id":"cebpf4jnsgd1na2vs0mg"},{"bike_id":"30548edc-f3d5-4d19-8fd4-e8425a5e6a55","system_id":"levelo_inurba_marseille","lat":43.28999,"lon":5.35623,"is_reserved":false,"is_disabled":false,"rental_uris":{"android":"levelo://app?vid=30548edc-f3d5-4d19-8fd4-e8425a5e6a55","ios":"levelo://app?vid=30548edc-f3d5-4d19-8fd4-e8425a5e6a55"},"vehicle_type_id":"4","last_reported":1720033572,"current_range_meters":31200,"station_id":"ce4bhb92rcd13ifvqen0","pricing_plan_id":"cebpf4jnsgd1na2vs0mg"},{"bike_id":"c107ef1f-277f-42e1-bf28-7c3d345c3116","system_id":"levelo_inurba_marseille","lat":43.290004,"lon":5.35614,"is_reserved":false,"is_disabled":false,"rental_uris":{"android":"levelo://app?vid=c107ef1f-277f-42e1-bf28-7c3d345c3116","ios":"levelo://app?vid=c107ef1f-277f-42e1-bf28-7c3d345c3116"},"vehicle_type_id":"4","last_reported":1720033572,"current_range_meters":30000,"station_id":"ce4bhb92rcd13ifvqen0","pricing_plan_id":"cebpf4jnsgd1na2vs0mg"},{"bike_id":"3beba966-8189-4378-b0b4-0a56b04b0aa7","system_id":"levelo_inurba_marseille","lat":43.29103,"lon":5.381321,"is_reserved":false,"is_disabled":false,"rental_uris":{"android":"levelo://app?vid=3beba966-8189-4378-b0b4-0a56b04b0aa7","ios":"levelo://app?vid=3beba966-8189-4378-b0b4-0a56b04b0aa7"},"vehicle_type_id":"4","last_reported":1720033572,"current_range_meters":0,"station_id":"ce4bh512rcd13ifvqe2g","pricing_plan_id":"cebpf4jnsgd1na2vs0mg"},{"bike_id":"739b9e31-a96f-4465-90f5-afe58abc9055","system_id":"levelo_inurba_marseille","lat":43.290995,"lon":5.381361,"is_reserved":false,"is_disabled":false,"rental_uris":{"android":"levelo://app?vid=739b9e31-a96f-4465-90f5-afe58abc9055","ios":"levelo://app?vid=739b9e31-a96f-4465-90f5-afe58abc9055"},"vehicle_type_id":"4","last_reported":1720033572,"current_range_meters":3600,"station_id":"ce4bh512rcd13ifvqe2g","pricing_plan_id":"cebpf4jnsgd1na2vs0mg"},{"bike_id":"c78570f5-ba54-4e29-b323-508ca2bd50ab","system_id":"levelo_inurba_marseille","lat":43.290995,"lon":5.381361,"is_reserved":false,"is_disabled":false,"rental_uris":{"android":"levelo://app?vid=c78570f5-ba54-4e29-b323-508ca2bd50ab","ios":"levelo://app?vid=c78570f5-ba54-4e29-b323-508ca2bd50ab"},"vehicle_type_id":"4","last_reported":1720033572,"current_range_meters":1200,"station_id":"ce4bh512rcd13ifvqe2g","pricing_plan_id":"cebpf4jnsgd1na2vs0mg"},{"bike_id":"c5a74648-0940-46ae-82d1-56e75d572f09","system_id":"levelo_inurba_marseille","lat":43.297815,"lon":5.393548,"is_reserved":false,"is_disabled":false,"rental_uris":{"android":"levelo://app?vid=c5a74648-0940-46ae-82d1-56e75d572f09","ios":"levelo://app?vid=c5a74648-0940-46ae-82d1-56e75d572f09"},"vehicle_type_id":"4","last_reported":1720033572,"current_range_meters":5600,"station_id":"chh1huq6cuj3fo74tm60","pricing_plan_id":"cebpf4jnsgd1na2vs0mg"},{"bike_id":"bd2576df-c1b5-4913-8323-53baade8fd40","system_id":"levelo_inurba_marseille","lat":43.28982,"lon":5.37834,"is_reserved":false,"is_disabled":false,"rental_uris":{"android":"levelo://app?vid=bd2576df-c1b5-4913-8323-53baade8fd40","ios":"levelo://app?vid=bd2576df-c1b5-4913-8323-53baade8fd40"},"vehicle_type_id":"4","last_reported":1720033572,"current_range_meters":0,"station_id":"ce4bh9p2rcd13ifvqed0","pricing_plan_id":"cebpf4jnsgd1na2vs0mg"},{"bike_id":"319011c4-bbbc-4f6a-99b6-0a259958627b","system_id":"levelo_inurba_marseille","lat":43.295169,"lon":5.390426,"is_reserved":false,"is_disabled":false,"rental_uris":{"android":"levelo://app?vid=319011c4-bbbc-4f6a-99b6-0a259958627b","ios":"levelo://app?vid=319011c4-bbbc-4f6a-99b6-0a259958627b"},"vehicle_type_id":"4","last_reported":1720033572,"current_range_meters":20000,"station_id":"ce4bh3p2rcd13ifvqdp0","pricing_plan_id":"cebpf4jnsgd1na2vs0mg"},{"bike_id":"817647e7-da0d-418d-8353-9805c3b50649","system_id":"levelo_inurba_marseille","lat":43.295169,"lon":5.390426,"is_reserved":false,"is_disabled":false,"rental_uris":{"android":"levelo://app?vid=817647e7-da0d-418d-8353-9805c3b50649","ios":"levelo://app?vid=817647e7-da0d-418d-8353-9805c3b50649"},"vehicle_type_id":"4","last_reported":1720033572,"current_range_meters":8400,"station_id":"ce4bh3p2rcd13ifvqdp0","pricing_plan_id":"cebpf4jnsgd1na2vs0mg"},{"bike_id":"d5d5f70b-6036-40ca-92de-0310cf8c242c","system_id":"levelo_inurba_marseille","lat":43.295169,"lon":5.390426,"is_reserved":false,"is_disabled":false,"rental_uris":{"android":"levelo://app?vid=d5d5f70b-6036-40ca-92de-0310cf8c242c","ios":"levelo://app?vid=d5d5f70b-6036-40ca-92de-0310cf8c242c"},"vehicle_type_id":"4","last_reported":1720033572,"current_range_meters":26000,"station_id":"ce4bh3p2rcd13ifvqdp0","pricing_plan_id":"cebpf4jnsgd1na2vs0mg"},{"bike_id":"a3ed7893-4d1e-4f0f-9169-f1f29a55cae4","system_id":"levelo_inurba_marseille","lat":43.330442,"lon":5.389148,"is_reserved":false,"is_disabled":false,"rental_uris":{"android":"levelo://app?vid=a3ed7893-4d1e-4f0f-9169-f1f29a55cae4","ios":"levelo://app?vid=a3ed7893-4d1e-4f0f-9169-f1f29a55cae4"},"vehicle_type_id":"4","last_reported":1720033572,"current_range_meters":31200,"station_id":"ce4bhr92rcd13ifvqhrg","pricing_plan_id":"cebpf4jnsgd1na2vs0mg"},{"bike_id":"f20e0001-878b-4e0b-8039-0ac3cda63fc8","system_id":"levelo_inurba_marseille","lat":43.330442,"lon":5.389148,"is_reserved":false,"is_disabled":false,"rental_uris":{"android":"levelo://app?vid=f20e0001-878b-4e0b-8039-0ac3cda63fc8","ios":"levelo://app?vid=f20e0001-878b-4e0b-8039-0ac3cda63fc8"},"vehicle_type_id":"4","last_reported":1720033572,"current_range_meters":3200,"station_id":"ce4bhr92rcd13ifvqhrg","pricing_plan_id":"cebpf4jnsgd1na2vs0mg"},{"bike_id":"f832be3d-5080-47f1-a7e3-900f67b67bec","system_id":"levelo_inurba_marseille","lat":43.295169,"lon":5.390426,"is_reserved":false,"is_disabled":false,"rental_uris":{"android":"levelo://app?vid=f832be3d-5080-47f1-a7e3-900f67b67bec","ios":"levelo://app?vid=f832be3d-5080-47f1-a7e3-900f67b67bec"},"vehicle_type_id":"4","last_reported":1720033572,"current_range_meters":29200,"station_id":"ce4bh3p2rcd13ifvqdp0","pricing_plan_id":"cebpf4jnsgd1na2vs0mg"},{"bike_id":"546ab912-3404-416b-8322-c61cf6ee041f","system_id":"levelo_inurba_marseille","lat":43.330442,"lon":5.389148,"is_reserved":false,"is_disabled":false,"rental_uris":{"android":"levelo://app?vid=546ab912-3404-416b-8322-c61cf6ee041f","ios":"levelo://app?vid=546ab912-3404-416b-8322-c61cf6ee041f"},"vehicle_type_id":"4","last_reported":1720033572,"current_range_meters":15600,"station_id":"ce4bhr92rcd13ifvqhrg","pricing_plan_id":"cebpf4jnsgd1na2vs0mg"},{"bike_id":"52d9d9e1-8a11-4466-aa43-1b42280631c4","system_id":"levelo_inurba_marseille","lat":43.295169,"lon":5.390426,"is_reserved":false,"is_disabled":false,"rental_uris":{"android":"levelo://app?vid=52d9d9e1-8a11-4466-aa43-1b42280631c4","ios":"levelo://app?vid=52d9d9e1-8a11-4466-aa43-1b42280631c4"},"vehicle_type_id":"4","last_reported":1720033572,"current_range_meters":0,"station_id":"ce4bh3p2rcd13ifvqdp0","pricing_plan_id":"cebpf4jnsgd1na2vs0mg"},{"bike_id":"510a7818-629c-4c62-ad6c-469555f76dfe","system_id":"levelo_inurba_marseille","lat":43.295169,"lon":5.390426,"is_reserved":false,"is_disabled":false,"rental_uris":{"android":"levelo://app?vid=510a7818-629c-4c62-ad6c-469555f76dfe","ios":"levelo://app?vid=510a7818-629c-4c62-ad6c-469555f76dfe"},"vehicle_type_id":"4","last_reported":1720033572,"current_range_meters":24800,"station_id":"ce4bh3p2rcd13ifvqdp0","pricing_plan_id":"cebpf4jnsgd1na2vs0mg"},{"bike_id":"08584ad6-17d9-4272-9aee-391c4f3ea5e5","system_id":"levelo_inurba_marseille","lat":43.330442,"lon":5.389148,"is_reserved":false,"is_disabled":false,"rental_uris":{"android":"levelo://app?vid=08584ad6-17d9-4272-9aee-391c4f3ea5e5","ios":"levelo://app?vid=08584ad6-17d9-4272-9aee-391c4f3ea5e5"},"vehicle_type_id":"4","last_reported":1720033572,"current_range_meters":22000,"station_id":"ce4bhr92rcd13ifvqhrg","pricing_plan_id":"cebpf4jnsgd1na2vs0mg"},{"bike_id":"69b61a18-cb77-49b5-8738-a55d196e62f7","system_id":"levelo_inurba_marseille","lat":43.295169,"lon":5.390426,"is_reserved":false,"is_disabled":false,"rental_uris":{"android":"levelo://app?vid=69b61a18-cb77-49b5-8738-a55d196e62f7","ios":"levelo://app?vid=69b61a18-cb77-49b5-8738-a55d196e62f7"},"vehicle_type_id":"4","last_reported":1720033572,"current_range_meters":23600,"station_id":"ce4bh3p2rcd13ifvqdp0","pricing_plan_id":"cebpf4jnsgd1na2vs0mg"},{"bike_id":"3d7a0ed6-bb36-48a3-90d0-177cc77d6c00","system_id":"levelo_inurba_marseille","lat":43.295169,"lon":5.390426,"is_reserved":false,"is_disabled":false,"rental_uris":{"android":"levelo://app?vid=3d7a0ed6-bb36-48a3-90d0-177cc77d6c00","ios":"levelo://app?vid=3d7a0ed6-bb36-48a3-90d0-177cc77d6c00"},"vehicle_type_id":"4","last_reported":1720033572,"current_range_meters":19200,"station_id":"ce4bh3p2rcd13ifvqdp0","pricing_plan_id":"cebpf4jnsgd1na2vs0mg"},{"bike_id":"3e30cefe-0c8e-4341-9f1e-d730054546eb","system_id":"levelo_inurba_marseille","lat":43.2901,"lon":5.381269,"is_reserved":false,"is_disabled":false,"rental_uris":{"android":"levelo://app?vid=3e30cefe-0c8e-4341-9f1e-d730054546eb","ios":"levelo://app?vid=3e30cefe-0c8e-4341-9f1e-d730054546eb"},