{"last_updated":1679602053,"ttl":30,"version":"2.2","data":{"bikes":[{"bike_id":"d0ee16f2-cb06-4062-92b2-d7ae87d40898","system_id":"levelo_inurba_marseille","lat":43.314811,"lon":5.373103,"is_reserved":false,"is_disabled":false,"rental_uris":{"android":"levelo://app?vid=d0ee16f2-cb06-4062-92b2-d7ae87d40898","ios":"levelo://app?vid=d0ee16f2-cb06-4062-92b2-d7ae87d40898"},"vehicle_type_id":"4","last_reported":1679602054,"current_range_meters":10000,"station_id":"ce4bgt12rcd13ifvqcd0","pricing_plan_id":"free"},{"bike_id":"2e0a407c-e255-4813-8ee0-91a00b970d68","system_id":"levelo_inurba_marseille","lat":43.31483,"lon":5.3731,"is_reserved":false,"is_disabled":false,"rental_uris":{"android":"levelo://app?vid=2e0a407c-e255-4813-8ee0-91a00b970d68","ios":"levelo://app?vid=2e0a407c-e255-4813-8ee0-91a00b970d68"},"vehicle_type_id":"4","last_reported":1679602054,"current_range_meters":22400,"station_id":"","pricing_plan_id":"free"},{"bike_id":"f7578382-6c14-4192-8efc-a4f5c1902860","system_id":"levelo_inurba_marseille","lat":43.314811,"lon":5.373104,"is_reserved":false,"is_disabled":false,"rental_uris":{"android":"levelo://app?vid=f7578382-6c14-4192-8efc-a4f5c1902860","ios":"levelo://app?vid=f7578382-6c14-4192-8efc-a4f5c1902860"},"vehicle_type_id":"4","last_reported":1679602054,"current_range_meters":0,"station_id":"ce4bgt12rcd13ifvqcd0","pricing_plan_id":"free"},{"bike_id":"51baabc5-0962-4438-af11-03f55f56ad72","system_id":"levelo_inurba_marseille","lat":43.315,"lon":5.37316,"is_reserved":false,"is_disabled":false,"rental_uris":{"android":"levelo://app?vid=51baabc5-0962-4438-af11-03f55f56ad72","ios":"levelo://app?vid=51baabc5-0962-4438-af11-03f55f56ad72"},"vehicle_type_id":"4","last_reported":1679602054,"current_range_meters":27200,"station_id":"ce4bgt12rcd13ifvqcd0","pricing_plan_id":"free"},{"bike_id":"f3dba77e-5dd5-4de0-939e-31efd85b86ba","system_id":"levelo_inurba_marseille","lat":43.307554,"lon":5.370264,"is_reserved":false,"is_disabled":false,"rental_uris":{"android":"levelo://app?vid=f3dba77e-5dd5-4de0-939e-31efd85b86ba","ios":"levelo://app?vid=f3dba77e-5dd5-4de0-939e-31efd85b86ba"},"vehicle_type_id":"4","last_reported":1679602054,"current_range_meters":0,"station_id":"","pricing_plan_id":"free"},{"bike_id":"803e2b08-b0f4-47a0-a724-b15fd743009a","system_id":"levelo_inurba_marseille","lat":43.30552,"lon":5.36716,"is_reserved":false,"is_disabled":false,"rental_uris":{"android":"levelo://app?vid=803e2b08-b0f4-47a0-a724-b15fd743009a","ios":"levelo://app?vid=803e2b08-b0f4-47a0-a724-b15fd743009a"},"vehicle_type_id":"4","last_reported":1679602054,"current_range_meters":6800,"station_id":"","pricing_plan_id":"free"},{"bike_id":"9718124a-a14c-4eac-bde9-0490a82a6ba8","system_id":"levelo_inurba_marseille","lat":43.30543,"lon":5.367045,"is_reserved":false,"is_disabled":false,"rental_uris":{"android":"levelo://app?vid=9718124a-a14c-4eac-bde9-0490a82a6ba8","ios":"levelo://app?vid=9718124a-a14c-4eac-bde9-0490a82a6ba8"},"vehicle_type_id":"4","last_reported":1679602054,"current_range_meters":22800,"station_id":"","pricing_plan_id":"free"},{"bike_id":"36713dd4-1e2f-45bf-b310-2dbc8a78080d","system_id":"levelo_inurba_marseille","lat":43.3054,"lon":5.36717,"is_reserved":false,"is_disabled":false,"rental_uris":{"android":"levelo://app?vid=36713dd4-1e2f-45bf-b310-2dbc8a78080d","ios":"levelo://app?vid=36713dd4-1e2f-45bf-b310-2dbc8a78080d"},"vehicle_type_id":"4","last_reported":1679602054,"current_range_meters":9200,"station_id":"","pricing_plan_id":"free"},{"bike_id":"3f224df2-71cc-4ea2-bde5-e09f9a7dbd03","system_id":"levelo_inurba_marseille","lat":43.317075,"lon":5.377367,"is_reserved":false,"is_disabled":false,"rental_uris":{"android":"levelo://app?vid=3f224df2-71cc-4ea2-bde5-e09f9a7dbd03","ios":"levelo://app?vid=3f224df2-71cc-4ea2-bde5-e09f9a7dbd03"},"vehicle_type_id":"4","last_reported":1679602054,"current_range_meters":12000,"station_id":"ce4bgth2rcd13ifvqch0","pricing_plan_id":"free"},{"bike_id":"c30fc0b2-81b0-44d1-929d-21441b01eb9a","system_id":"levelo_inurba_marseille","lat":43.317075,"lon":5.377367,"is_reserved":false,"is_disabled":false,"rental_uris":{"android":"levelo://app?vid=c30fc0b2-81b0-44d1-929d-21441b01eb9a","ios":"levelo://app?vid=c30fc0b2-81b0-44d1-929d-21441b01eb9a"},"vehicle_type_id":"4","last_reported":1679602054,"current_range_meters":31600,"station_id":"ce4bgth2rcd13ifvqch0","pricing_plan_id":"free"},{"bike_id":"a2120c33-7a82-4299-a5d1-5e80ddb7e664","system_id":"levelo_inurba_marseille","lat":43.31186,"lon":5.38213,"is_reserved":false,"is_disabled":false,"rental_uris":{"android":"levelo://app?vid=a2120c33-7a82-4299-a5d1-5e80ddb7e664","ios":"levelo://app?vid=a2120c33-7a82-4299-a5d1-5e80ddb7e664"},"vehicle_type_id":"4","last_reported":1679602054,"current_range_meters":0,"station_id":"","pricing_plan_id":"free"},{"bike_id":"3fae61ef-e4bc-4e81-baea-406afe8f2fa3","system_id":"levelo_inurba_marseille","lat":43.317133,"lon":5.382775,"is_reserved":false,"is_disabled":false,"rental_uris":{"android":"levelo://app?vid=3fae61ef-e4bc-4e81-baea-406afe8f2fa3","ios":"levelo://app?vid=3fae61ef-e4bc-4e81-baea-406afe8f2fa3"},"vehicle_type_id":"4","last_reported":1679602054,"current_range_meters":26400,"station_id":"","pricing_plan_id":"free"},{"bike_id":"0f22fa08-e7f1-4d1d-9ce8-b4da001dd8de","system_id":"levelo_inurba_marseille","lat":43.313571,"lon":5.384829,"is_reserved":false,"is_disabled":false,"rental_uris":{"android":"levelo://app?vid=0f22fa08-e7f1-4d1d-9ce8-b4da001dd8de","ios":"levelo://app?vid=0f22fa08-e7f1-4d1d-9ce8-b4da001dd8de"},"vehicle_type_id":"4","last_reported":1679602054,"current_range_meters":31600,"station_id":"ce4bgt92rcd13ifvqcf0","pricing_plan_id":"free"},{"bike_id":"31aace76-8d6e-48f0-bc28-347bab3ad661","system_id":"levelo_inurba_marseille","lat":43.31367,"lon":5.384942,"is_reserved":false,"is_disabled":false,"rental_uris":{"android":"levelo://app?vid=31aace76-8d6e-48f0-bc28-347bab3ad661","ios":"levelo://app?vid=31aace76-8d6e-48f0-bc28-347bab3ad661"},"vehicle_type_id":"4","last_reported":1679602054,"current_range_meters":31600,"station_id":"","pricing_plan_id":"free"},{"bike_id":"bd7d745d-dbb4-440d-8453-182bff1e36bf","system_id":"levelo_inurba_marseille","lat":43.313571,"lon":5.384829,"is_reserved":false,"is_disabled":false,"rental_uris":{"android":"levelo://app?vid=bd7d745d-dbb4-440d-8453-182bff1e36bf","ios":"levelo://app?vid=bd7d745d-dbb4-440d-8453-182bff1e36bf"},"vehicle_type_id":"4","last_reported":1679602054,"current_range_meters":31200,"station_id":"ce4bgt92rcd13ifvqcf0","pricing_plan_id":"free"},{"bike_id":"1185200e-7196-402f-9435-28ba076349ca","system_id":"levelo_inurba_marseille","lat":43.31355,"lon":5.38503,"is_reserved":false,"is_disabled":false,"rental_uris":{"android":"levelo://app?vid=1185200e-7196-402f-9435-28ba076349ca","ios":"levelo://app?vid=1185200e-7196-402f-9435-28ba076349ca"},"vehicle_type_id":"4","last_reported":1679602054,"current_range_meters":800,"station_id":"","pricing_plan_id":"free"},{"bike_id":"9d733bf9-0390-499e-8ee1-9b65aab8a91c","system_id":"levelo_inurba_marseille","lat":43.313571,"lon":5.384829,"is_reserved":false,"is_disabled":false,"rental_uris":{"android":"levelo://app?vid=9d733bf9-0390-499e-8ee1-9b65aab8a91c","ios":"levelo://app?vid=9d733bf9-0390-499e-8ee1-9b65aab8a91c"},"vehicle_type_id":"4","last_reported":1679602054,"current_range_meters":31600,"station_id":"ce4bgt92rcd13ifvqcf0","pricing_plan_id":"free"},{"bike_id":"b91a5d1f-67ff-476f-85b6-c2e9a242d78f","system_id":"levelo_inurba_marseille","lat":43.299094,"lon":5.365415,"is_reserved":false,"is_disabled":false,"rental_uris":{"android":"levelo://app?vid=b91a5d1f-67ff-476f-85b6-c2e9a242d78f","ios":"levelo://app?vid=b91a5d1f-67ff-476f-85b6-c2e9a242d78f"},"vehicle_type_id":"4","last_reported":1679602054,"current_range_meters":12000,"station_id":"ce4bgm92rcd13ifvqbr0","pricing_plan_id":"free"},{"bike_id":"58d2a024-55c2-4880-a8ca-066f754bbcc3","system_id":"levelo_inurba_marseille","lat":43.299094,"lon":5.365415,"is_reserved":false,"is_disabled":false,"rental_uris":{"android":"levelo://app?vid=58d2a024-55c2-4880-a8ca-066f754bbcc3","ios":"levelo://app?vid=58d2a024-55c2-4880-a8ca-066f754bbcc3"},"vehicle_type_id":"4","last_reported":1679602054,"current_range_meters":4400,"station_id":"ce4bgm92rcd13ifvqbr0","pricing_plan_id":"free"},{"bike_id":"4a12c929-4c2d-4d6c-9524-f29aac987073","system_id":"levelo_inurba_marseille","lat":43.298433,"lon":5.362774,"is_reserved":false,"is_disabled":false,"rental_uris":{"android":"levelo://app?vid=4a12c929-4c2d-4d6c-9524-f29aac987073","ios":"levelo://app?vid=4a12c929-4c2d-4d6c-9524-f29aac987073"},"vehicle_type_id":"4","last_reported":1679602054,"current_range_meters":8800,"station_id":"ce4bgpp2rcd13ifvqc3g","pricing_plan_id":"free"},{"bike_id":"814bdd91-845e-4dea-89f3-060b891e6233","system_id":"levelo_inurba_marseille","lat":43.298433,"lon":5.362774,"is_reserved":false,"is_disabled":false,"rental_uris":{"android":"levelo://app?vid=814bdd91-845e-4dea-89f3-060b891e6233","ios":"levelo://app?vid=814bdd91-845e-4dea-89f3-060b891e6233"},"vehicle_type_id":"4","last_reported":1679602054,"current_range_meters":0,"station_id":"ce4bgpp2rcd13ifvqc3g","pricing_plan_id":"free"},{"bike_id":"0117cc6d-2a6e-4cc1-b7dc-626351e323fb","system_id":"levelo_inurba_marseille","lat":43.32824,"lon":5.36687,"is_reserved":false,"is_disabled":false,"rental_uris":{"android":"levelo://app?vid=0117cc6d-2a6e-4cc1-b7dc-626351e323fb","ios":"levelo://app?vid=0117cc6d-2a6e-4cc1-b7dc-626351e323fb"},"vehicle_type_id":"4","last_reported":1679602054,"current_range_meters":24000,"station_id":"ce4bhs92rcd13ifvqi0g","pricing_plan_id":"free"},{"bike_id":"5a6ad041-6474-4146-9dee-2a3525ba344f","system_id":"levelo_inurba_marseille","lat":43.328266,"lon":5.366834,"is_reserved":false,"is_disabled":false,"rental_uris":{"android":"levelo://app?vid=5a6ad041-6474-4146-9dee-2a3525ba344f","ios":"levelo://app?vid=5a6ad041-6474-4146-9dee-2a3525ba344f"},"vehicle_type_id":"4","last_reported":1679602054,"current_range_meters":4400,"station_id":"","pricing_plan_id":"free"},{"bike_id":"3573d59f-3081-4322-a212-7d5e82a2a212","system_id":"levelo_inurba_marseille","lat":43.328371,"lon":5.366912,"is_reserved":false,"is_disabled":false,"rental_uris":{"android":"levelo://app?vid=3573d59f-3081-4322-a212-7d5e82a2a212","ios":"levelo://app?vid=3573d59f-3081-4322-a212-7d5e82a2a212"},"vehicle_type_id":"4","last_reported":1679602054,"current_range_meters":6000,"station_id":"ce4bhs92rcd13ifvqi0g","pricing_plan_id":"free"},{"bike_id":"c14417e7-7230-4571-95e0-68165e3a647b","system_id":"levelo_inurba_marseille","lat":43.328371,"lon":5.366912,"is_reserved":false,"is_disabled":false,"rental_uris":{"android":"levelo://app?vid=c14417e7-7230-4571-95e0-68165e3a647b","ios":"levelo://app?vid=c14417e7-7230-4571-95e0-68165e3a647b"},"vehicle_type_id":"4","last_reported":1679602054,"current_range_meters":0,"station_id":"ce4bhs92rcd13ifvqi0g","pricing_plan_id":"free"},{"bike_id":"ae30bd76-4d7e-4fb9-b279-493edd260c6f","system_id":"levelo_inurba_marseille","lat":43.29573,"lon":5.367355,"is_reserved":false,"is_disabled":false,"rental_uris":{"android":"levelo://app?vid=ae30bd76-4d7e-4fb9-b279-493edd260c6f","ios":"levelo://app?vid=ae30bd76-4d7e-4fb9-b279-493edd260c6f"},"vehicle_type_id":"4","last_reported":1679602054,"current_range_meters":0,"station_id":"ce4bgph2rcd13ifvqc2g","pricing_plan_id":"free"},{"bike_id":"920986b6-75b6-4dd4-8328-9f49643f58bc","system_id":"levelo_inurba_marseille","lat":43.309589,"lon":5.390258,"is_reserved":false,"is_disabled":false,"rental_uris":{"android":"levelo://app?vid=920986b6-75b6-4dd4-8328-9f49643f58bc","ios":"levelo://app?vid=920986b6-75b6-4dd4-8328-9f49643f58bc"},"vehicle_type_id":"4","last_reported":1679602054,"current_range_meters":8000,"station_id":"ce4bgup2rcd13ifvqco0","pricing_plan_id":"free"},{"bike_id":"7f3c43cd-56f9-4a05-8c1c-27a129e74bce","system_id":"levelo_inurba_marseille","lat":43.29909,"lon":5.38149,"is_reserved":false,"is_disabled":false,"rental_uris":{"android":"levelo://app?vid=7f3c43cd-56f9-4a05-8c1c-27a129e74bce","ios":"levelo://app?vid=7f3c43cd-56f9-4a05-8c1c-27a129e74bce"},"vehicle_type_id":"4","last_reported":1679602054,"current_range_meters":7600,"station_id":"ce4bgj12rcd13ifvqbc0","pricing_plan_id":"free"},{"bike_id":"6b0b5e06-8a12-496c-bed5-3efa5ef86a5b","system_id":"levelo_inurba_marseille","lat":43.309589,"lon":5.390258,"is_reserved":false,"is_disabled":false,"rental_uris":{"android":"levelo://app?vid=6b0b5e06-8a12-496c-bed5-3efa5ef86a5b","ios":"levelo://app?vid=6b0b5e06-8a12-496c-bed5-3efa5ef86a5b"},"vehicle_type_id":"4","last_reported":1679602054,"current_range_meters":12800,"station_id":"ce4bgup2rcd13ifvqco0","pricing_plan_id":"free"},{"bike_id":"cdc38903-186e-4efc-8d6c-b0c6ec912dec","system_id":"levelo_inurba_marseille","lat":43.309589,"lon":5.390258,"is_reserved":false,"is_disabled":false,"rental_uris":{"android":"levelo://app?vid=cdc38903-186e-4efc-8d6c-b0c6ec912dec","ios":"levelo://app?vid=cdc38903-186e-4efc-8d6c-b0c6ec912dec"},"vehicle_type_id":"4","last_reported":1679602054,"current_range_meters":0,"station_id":"ce4bgup2rcd13ifvqco0","pricing_plan_id":"free"},{"bike_id":"082612f6-b71c-430e-b060-40d5c7575c4e","system_id":"levelo_inurba_marseille","lat":43.296263,"lon":5.377094,"is_reserved":false,"is_disabled":false,"rental_uris":{"android":"levelo://app?vid=082612f6-b71c-430e-b060-40d5c7575c4e","ios":"levelo://app?vid=082612f6-b71c-430e-b060-40d5c7575c4e"},"vehicle_type_id":"4","last_reported":1679602054,"current_range_meters":4400,"station_id":"ce4bgi92rcd13ifvqb90","pricing_plan_id":"free"},{"bike_id":"620a5682-6557-4f22-884a-ad2054ef8f85","system_id":"levelo_inurba_marseille","lat":43.304238,"lon":5.388976,"is_reserved":false,"is_disabled":false,"rental_uris":{"android":"levelo://app?vid=620a5682-6557-4f22-884a-ad2054ef8f85","ios":"levelo://app?vid=620a5682-6557-4f22-884a-ad2054ef8f85"},"vehicle_type_id":"4","last_reported":1679602054,"current_range_meters":0,"station_id":"","pricing_plan_id":"free"},{"bike_id":"8170daf0-b6aa-43cb-b748-22182ad84343","system_id":"levelo_inurba_marseille","lat":43.296141,"lon":5.377093,"is_reserved":false,"is_disabled":false,"rental_uris":{"android":"levelo://app?vid=8170daf0-b6aa-43cb-b748-22182ad84343","ios":"levelo://app?vid=8170daf0-b6aa-43cb-b748-22182ad84343"},"vehicle_type_id":"4","last_reported":1679602054,"current_range_meters":14800,"station_id":"","pricing_plan_id":"free"},{"bike_id":"9d28b2ba-1ccd-463e-91c9-4171dbced29f","system_id":"levelo_inurba_marseille","lat":43.29525,"lon":5.37499,"is_reserved":false,"is_disabled":false,"rental_uris":{"android":"levelo://app?vid=9d28b2ba-1ccd-463e-91c9-4171dbced29f","ios":"levelo://app?vid=9d28b2ba-1ccd-463e-91c9-4171dbced29f"},"vehicle_type_id":"4","last_reported":1679602054,"current_range_meters":0,"station_id":"ce4bgkp2rcd13ifvqbmg","pricing_plan_id":"free"},{"bike_id":"2f5ba7d6-1581-43ff-8ca6-5382d743624e","system_id":"levelo_inurba_marseille","lat":43.292663,"lon":5.376394,"is_reserved":false,"is_disabled":false,"rental_uris":{"android":"levelo://app?vid=2f5ba7d6-1581-43ff-8ca6-5382d743624e","ios":"levelo://app?vid=2f5ba7d6-1581-43ff-8ca6-5382d743624e"},"vehicle_type_id":"4","last_reported":1679602054,"current_range_meters":1600,"station_id":"ce4bgi12rcd13ifvqb80","pricing_plan_id":"free"},{"bike_id":"8a18a74f-6e83-4e42-a18a-2f5321a10748","system_id":"levelo_inurba_marseille","lat":43.30895,"lon":5.3963,"is_reserved":false,"is_disabled":false,"rental_uris":{"android":"levelo://app?vid=8a18a74f-6e83-4e42-a18a-2f5321a10748","ios":"levelo://app?vid=8a18a74f-6e83-4e42-a18a-2f5321a10748"},"vehicle_type_id":"4","last_reported":1679602054,"current_range_meters":24000,"station_id":"","pricing_plan_id":"free"},{"bike_id":"0022c166-5e18-4e44-9c53-07b4bd471f17","system_id":"levelo_inurba_marseille","lat":43.309038,"lon":5.396546,"is_reserved":false,"is_disabled":false,"rental_uris":{"android":"levelo://app?vid=0022c166-5e18-4e44-9c53-07b4bd471f17","ios":"levelo://app?vid=0022c166-5e18-4e44-9c53-07b4bd471f17"},"vehicle_type_id":"4","last_reported":1679602054,"current_range_meters":6000,"station_id":"ce4bh012rcd13ifvqcv0","pricing_plan_id":"free"},{"bike_id":"0776827d-0ddd-4e99-aa88-a8111d74478b","system_id":"levelo_inurba_marseille","lat":43.309038,"lon":5.396546,"is_reserved":false,"is_disabled":false,"rental_uris":{"android":"levelo://app?vid=0776827d-0ddd-4e99-aa88-a8111d74478b","ios":"levelo://app?vid=0776827d-0ddd-4e99-aa88-a8111d74478b"},"vehicle_type_id":"4","last_reported":1679602054,"current_range_meters":0,"station_id":"ce4bh012rcd13ifvqcv0","pricing_plan_id":"free"},{"bike_id":"7e506348-cc35-4367-9ba3-c7ec26a0709d","system_id":"levelo_inurba_marseille","lat":43.313291,"lon":5.396838,"is_reserved":false,"is_disabled":false,"rental_uris":{"android":"levelo://app?vid=7e506348-cc35-4367-9ba3-c7ec26a0709d","ios":"levelo://app?vid=7e506348-cc35-4367-9ba3-c7ec26a0709d"},"vehicle_type_id":"4","last_reported":1679602054,"current_range_meters":18000,"station_id":"ce4bgvp2rcd13ifvqcu0","pricing_plan_id":"free"},{"bike_id":"81b551da-4e59-4fcf-bac4-b3b85dd1fa63","system_id":"levelo_inurba_marseille","lat":43.309181,"lon":5.396594,"is_reserved":false,"is_disabled":false,"rental_uris":{"android":"levelo://app?vid=81b551da-4e59-4fcf-bac4-b3b85dd1fa63","ios":"levelo://app?vid=81b551da-4e59-4fcf-bac4-b3b85dd1fa63"},"vehicle_type_id":"4","last_reported":1679602054,"current_range_meters":0,"station_id":"ce4bh012rcd13ifvqcv0","pricing_plan_id":"free"},{"bike_id":"a70c284c-d344-4981-b886-981b578e9843","system_id":"levelo_inurba_marseille","lat":43.309038,"lon":5.396546,"is_reserved":false,"is_disabled":false,"rental_uris":{"android":"levelo://app?vid=a70c284c-d344-4981-b886-981b578e9843","ios":"levelo://app?vid=a70c284c-d344-4981-b886-981b578e9843"},"vehicle_type_id":"4","last_reported":1679602054,"current_range_meters":0,"station_id":"ce4bh012rcd13ifvqcv0","pricing_plan_id":"free"},{"bike_id":"13511277-081e-4d65-b4e1-108ef7d64fce","system_id":"levelo_inurba_marseille","lat":43.313291,"lon":5.396838,"is_reserved":false,"is_disabled":false,"rental_uris":{"android":"levelo://app?vid=13511277-081e-4d65-b4e1-108ef7d64fce","ios":"levelo://app?vid=13511277-081e-4d65-b4e1-108ef7d64fce"},"vehicle_type_id":"4","last_reported":1679602054,"current_range_meters":18800,"station_id":"ce4bgvp2rcd13ifvqcu0","pricing_plan_id":"free"},{"bike_id":"f3f4927b-35c4-4f6d-83ff-dbf1d9706710","system_id":"levelo_inurba_marseille","lat":43.29529,"lon":5.385581,"is_reserved":false,"is_disabled":false,"rental_uris":{"android":"levelo://app?vid=f3f4927b-35c4-4f6d-83ff-dbf1d9706710","ios":"levelo://app?vid=f3f4927b-35c4-4f6d-83ff-dbf1d9706710"},"vehicle_type_id":"4","last_reported":1679602054,"current_range_meters":1200,"station_id":"ce4bgih2rcd13ifvqba0","pricing_plan_id":"free"},{"bike_id":"104c3343-b3ad-4f04-8fdb-74b78d1cfd3d","system_id":"levelo_inurba_marseille","lat":43.290398,"lon":5.35921,"is_reserved":false,"is_disabled":false,"rental_uris":{"android":"levelo://app?vid=104c3343-b3ad-4f04-8fdb-74b78d1cfd3d","ios":"levelo://app?vid=104c3343-b3ad-4f04-8fdb-74b78d1cfd3d"},"vehicle_type_id":"4","last_reported":1679602054,"current_range_meters":0,"station_id":"","pricing_plan_id":"free"},{"bike_id":"eb97acc8-6241-48cc-a8fd-1c92e0e5cf21","system_id":"levelo_inurba_marseille","lat":43.290319,"lon":5.375732,"is_reserved":false,"is_disabled":false,"rental_uris":{"android":"levelo://app?vid=eb97acc8-6241-48cc-a8fd-1c92e0e5cf21","ios":"levelo://app?vid=eb97acc8-6241-48cc-a8fd-1c92e0e5cf21"},"vehicle_type_id":"4","last_reported":1679602054,"current_range_meters":25600,"station_id":"ce4bh692rcd13ifvqe90","pricing_plan_id":"free"},{"bike_id":"7e55564f-9f54-47a6-a643-fec94081037c","system_id":"levelo_inurba_marseille","lat":43.289184,"lon":5.366408,"is_reserved":false,"is_disabled":false,"rental_uris":{"android":"levelo://app?vid=7e55564f-9f54-47a6-a643-fec94081037c","ios":"levelo://app?vid=7e55564f-9f54-47a6-a643-fec94081037c"},"vehicle_type_id":"4","last_reported":1679602054,"current_range_meters":0,"station_id":"ce4bhap2rcd13ifvqek0","pricing_plan_id":"free"},{"bike_id":"cdb499c2-ef02-4cc7-ae3c-49392c075317","system_id":"levelo_inurba_marseille","lat":43.289184,"lon":5.366408,"is_reserved":false,"is_disabled":false,"rental_uris":{"android":"levelo://app?vid=cdb499c2-ef02-4cc7-ae3c-49392c075317","ios":"levelo://app?vid=cdb499c2-ef02-4cc7-ae3c-49392c075317"},"vehicle_type_id":"4","last_reported":1679602054,"current_range_meters":31600,"station_id":"ce4bhap2rcd13ifvqek0","pricing_plan_id":"free"},{"bike_id":"81b27261-6031-46d1-a20a-5425c7b6e7db","system_id":"levelo_inurba_marseille","lat":43.28938,"lon":5.36631,"is_reserved":false,"is_disabled":false,"rental_uris":{"android":"levelo://app?vid=81b27261-6031-46d1-a20a-5425c7b6e7db","ios":"levelo://app?vid=81b27261-6031-46d1-a20a-5425c7b6e7db"},"vehicle_type_id":"4","last_reported":1679602054,"current_range_meters":15600,"station_id":"","pricing_plan_id":"free"},{"bike_id":"24ab4658-f9f9-42a9-925e-35b802ad919c","system_id":"levelo_inurba_marseille","lat":43.28936,"lon":5.36644,"is_reserved":false,"is_disabled":false,"rental_uris":{"android":"levelo://app?vid=24ab4658-f9f9-42a9-925e-35b802ad919c","ios":"levelo://app?vid=24ab4658-f9f9-42a9-925e-35b802ad919c"},"vehicle_type_id":"4","last_reported":1679602054,"current_range_meters":800,"station_id":"","pricing_plan_id":"free"},{"bike_id":"f39371cd-9741-4617-825b-b5907eabc92a","system_id":"levelo_inurba_marseille","lat":43.304244,"lon":5.397458,"is_reserved":false,"is_disabled":false,"rental_uris":{"android":"levelo://app?vid=f39371cd-9741-4617-825b-b5907eabc92a","ios":"levelo://app?vid=f39371cd-9741-4617-825b-b5907eabc92a"},"vehicle_type_id":"4","last_reported":1679602054,"current_range_meters":0,"station_id":"","pricing_plan_id":"free"},{"bike_id":"04f50f3c-803e-4042-85f1-08cf862d8640","system_id":"levelo_inurba_marseille","lat":43.290104,"lon":5.356111,"is_reserved":false,"is_disabled":false,"rental_uris":{"android":"levelo://app?vid=04f50f3c-803e-4042-85f1-08cf862d8640","ios":"levelo://app?vid=04f50f3c-803e-4042-85f1-08cf862d8640"},"vehicle_type_id":"4","last_reported":1679602054,"current_range_meters":400,"station_id":"ce4bhb92rcd13ifvqen0","pricing_plan_id":"free"},{"bike_id":"0b94e187-92e8-4922-a5b8-0f00cdbef0bd","system_id":"levelo_inurba_marseille","lat":43.289743,"lon":5.378304,"is_reserved":false,"is_disabled":false,"rental_uris":{"android":"levelo://app?vid=0b94e187-92e8-4922-a5b8-0f00cdbef0bd","ios":"levelo://app?vid=0b94e187-92e8-4922-a5b8-0f00cdbef0bd"},"vehicle_type_id":"4","last_reported":1679602054,"current_range_meters":26400,"station_id":"ce4bh9p2rcd13ifvqed0","pricing_plan_id":"free"},{"bike_id":"4bb0aa74-47e6-46b2-a316-95929194175f","system_id":"levelo_inurba_marseille","lat":43.289743,"lon":5.378304,"is_reserved":false,"is_disabled":false,"rental_uris":{"android":"levelo://app?vid=4bb0aa74-47e6-46b2-a316-95929194175f","ios":"levelo://app?vid=4bb0aa74-47e6-46b2-a316-95929194175f"},"vehicle_type_id":"4","last_reported":1679602054,"current_range_meters":5200,"station_id":"ce4bh9p2rcd13ifvqed0","pricing_plan_id":"free"},{"bike_id":"af5b4ab1-db27-41eb-acea-c686acd6470b","system_id":"levelo_inurba_marseille","lat":43.295169,"lon":5.390426,"is_reserved":false,"is_disabled":false,"rental_uris":{"android":"levelo://app?vid=af5b4ab1-db27-41eb-acea-c686acd6470b","ios":"levelo://app?vid=af5b4ab1-db27-41eb-acea-c686acd6470b"},"vehicle_type_id":"4","last_reported":1679602054,"current_range_meters":4000,"station_id":"ce4bh3p2rcd13ifvqdp0","pricing_plan_id":"free"},{"bike_id":"e36fb4df-cb2b-4eb8-9c05-12d847c6bb7e","system_id":"levelo_inurba_marseille","lat":43.298681,"lon":5.397225,"is_reserved":false,"is_disabled":false,"rental_uris":{"android":"levelo://app?vid=e36fb4df-cb2b-4eb8-9c05-12d847c6bb7e","ios":"levelo://app?vid=e36fb4df-cb2b-4eb8-9c05-12d847c6bb7e"},"vehicle_type_id":"4","last_reported":1679602054,"current_range_meters":5200,"station_id":"ce4bh0h2rcd13ifvqd50","pricing_plan_id":"free"},{"bike_id":"949a5efa-3f41-4f1a-9aef-a15d32fd23c4","system_id":"levelo_inurba_marseille","lat":43.29534,"lon":5.39402,"is_reserved":false,"is_disabled":false,"rental_uris":{"android":"levelo://app?vid=949a5efa-3f41-4f1a-9aef-a15d32fd23c4","ios":"levelo://app?vid=949a5efa-3f41-4f1a-9aef-a15d32fd23c4"},"vehicle_type_id":"4","last_reported":1679602054,"current_range_meters":23600,"station_id":"ce4bh212rcd13ifvqde0","pricing_plan_id":"free"},{"bike_id":"79fbe0c2-e678-4be4-831c-ab0fad072876","system_id":"levelo_inurba_marseille","lat":43.30245,"lon":5.400537,"is_reserved":false,"is_disabled":false,"rental_uris":{"android":"levelo://app?vid=79fbe0c2-e678-4be4-831c-ab0fad072876","ios":"levelo://app?vid=79fbe0c2-e678-4be4-831c-ab0fad072876"},"vehicle_type_id":"4","last_reported":1679602054,"current_range_meters":13600,"station_id":"","pricing_plan_id":"free"},{"bike_id":"55a59ad5-687d-4bae-81b1-2da59aae4b45","system_id":"levelo_inurba_marseille","lat":43.29033,"lon":5.3865,"is_reserved":false,"is_disabled":false,"rental_uris":{"android":"levelo://app?vid=55a59ad5-687d-4bae-81b1-2da59aae4b45","ios":"levelo://app?vid=55a59ad5-687d-4bae-81b1-2da59aae4b45"},"vehicle_type_id":"4","last_reported":1679602054,"current_range_meters":22800,"station_id":"","pricing_plan_id":"free"},{"bike_id":"ddb8a74e-bd6e-44b4-8540-04bafceb7cfe","system_id":"levelo_inurba_marseille","lat":43.302759,"lon":5.400793,"is_reserved":false,"is_disabled":false,"rental_uris":{"android":"levelo://app?vid=ddb8a74e-bd6e-44b4-8540-04bafceb7cfe","ios":"levelo://app?vid=ddb8a74e-bd6e-44b4-8540-04bafceb7cfe"},"vehicle_type_id":"4","last_reported":1679602054,"current_range_meters":12800,"station_id":"ce4bgvh2rcd13ifvqcs0","pricing_plan_id":"free"},{"bike_id":"769273d9-9355-4665-bb8a-3b0409f37b7a","system_id":"levelo_inurba_marseille","lat":43.316517,"lon":5.404375,"is_reserved":false,"is_disabled":false,"rental_uris":{"android":"levelo://app?vid=769273d9-9355-4665-bb8a-3b0409f37b7a","ios":"levelo://app?vid=769273d9-9355-4665-bb8a-3b0409f37b7a"},"vehicle_type_id":"4","last_reported":1679602054,"current_range_meters":30400,"station_id":"ce4bh012rcd13ifvqd00","pricing_plan_id":"free"},{"bike_id":"61ce8840-02da-4675-ac06-4fc5515948e9","system_id":"levelo_inurba_marseille","lat":43.316517,"lon":5.404375,"is_reserved":false,"is_disabled":false,"rental_uris":{"android":"levelo://app?vid=61ce8840-02da-4675-ac06-4fc5515948e9","ios":"levelo://app?vid=61ce8840-02da-4675-ac06-4fc5515948e9"},"vehicle_type_id":"4","last_reported":1679602054,"current_range_meters":31600,"station_id":"ce4bh012rcd13ifvqd00","pricing_plan_id":"free"},{"bike_id":"d298b8c7-369d-4af2-a6ba-9ad8b8e657f4","system_id":"levelo_inurba_marseille","lat":43.316517,"lon":5.404375,"is_reserved":false,"is_disabled":false,"rental_uris":{"android":"levelo://app?vid=d298b8c7-369d-4af2-a6ba-9ad8b8e657f4","ios":"levelo://app?vid=d298b8c7-369d-4af2-a6ba-9ad8b8e657f4"},"vehicle_type_id":"4","last_reported":1679602054,"current_range_meters":31600,"station_id":"ce4bh012rcd13ifvqd00","pricing_plan_id":"free"},{"bike_id":"6a3dac54-ac78-481e-ba09-26e31c863f85","system_id":"levelo_inurba_marseille","lat":43.316517,"lon":5.404375,"is_reserved":false,"is_disabled":false,"rental_uris":{"android":"levelo://app?vid=6a3dac54-ac78-481e-ba09-26e31c863f85","ios":"levelo://app?vid=6a3dac54-ac78-481e-ba09-26e31c863f85"},"vehicle_type_id":"4","last_reported":1679602054,"current_range_meters":31600,"station_id":"ce4bh012rcd13ifvqd00","pricing_plan_id":"free"},{"bike_id":"32183b82-b253-4a7c-950b-484829a08860","system_id":"levelo_inurba_marseille","lat":43.30032,"lon":5.40104,"is_reserved":false,"is_disabled":false,"rental_uris":{"android":"levelo://app?vid=32183b82-b253-4a7c-950b-484829a08860","ios":"levelo://app?vid=32183b82-b253-4a7c-950b-484829a08860"},"vehicle_type_id":"4","last_reported":1679602054,"current_range_meters":13600,"station_id":"","pricing_plan_id":"free"},{"bike_id":"8f0e190f-7304-4b63-b71d-5a4f0181797e","system_id":"levelo_inurba_marseille","lat":43.28707,"lon":5.35204,"is_reserved":false,"is_disabled":false,"rental_uris":{"android":"levelo://app?vid=8f0e190f-7304-4b63-b71d-5a4f0181797e","ios":"levelo://app?vid=8f0e190f-7304-4b63-b71d-5a4f0181797e"},"vehicle_type_id":"4","last_reported":1679602054,"current_range_meters":2400,"station_id":"","pricing_plan_id":"free"},{"bike_id":"abae9482-9c89-4211-9926-3b8788379241","system_id":"levelo_inurba_marseille","lat":43.295713,"lon":5.399639,"is_reserved":false,"is_disabled":false,"rental_uris":{"android":"levelo://app?vid=abae9482-9c89-4211-9926-3b8788379241","ios":"levelo://app?vid=abae9482-9c89-4211-9926-3b8788379241"},"vehicle_type_id":"4","last_reported":1679602054,"current_range_meters":17600,"station_id":"ce4bh312rcd13ifvqdj0","pricing_plan_id":"free"},{"bike_id":"5f03c7b8-8f5c-47f8-b23b-cf7b809b9ce2","system_id":"levelo_inurba_marseille","lat":43.323464,"lon":5.406297,"is_reserved":false,"is_disabled":false,"rental_uris":{"android":"levelo://app?vid=5f03c7b8-8f5c-47f8-b23b-cf7b809b9ce2","ios":"levelo://app?vid=5f03c7b8-8f5c-47f8-b23b-cf7b809b9ce2"},"vehicle_type_id":"4","last_reported":1679602054,"current_range_meters":30400,"station_id":"ce4bhq92rcd13ifvqhjg","pricing_plan_id":"free"},{"bike_id":"adcfcdbc-f56d-4887-879d-17fbc60c4f14","system_id":"levelo_inurba_marseille","lat":43.323464,"lon":5.406297,"is_reserved":false,"is_disabled":false,"rental_uris":{"android":"levelo://app?vid=adcfcdbc-f56d-4887-879d-17fbc60c4f14","ios":"levelo://app?vid=adcfcdbc-f56d-4887-879d-17fbc60c4f14"},"vehicle_type_id":"4","last_reported":1679602054,"current_range_meters":29600,"station_id":"ce4bhq92rcd13ifvqhjg","pricing_plan_id":"free"},{"bike_id":"f5026d21-0a26-4ff3-9e8a-0621e36a0702","system_id":"levelo_inurba_marseille","lat":43.323464,"lon":5.406297,"is_reserved":false,"is_disabled":false,"rental_uris":{"android":"levelo://app?vid=f5026d21-0a26-4ff3-9e8a-0621e36a0702","ios":"levelo://app?vid=f5026d21-0a26-4ff3-9e8a-0621e36a0702"},"vehicle_type_id":"4","last_reported":1679602054,"current_range_meters":23200,"station_id":"ce4bhq92rcd13ifvqhjg","pricing_plan_id":"free"},{"bike_id":"e66643c9-40ce-4195-9b22-0f70dfe7c68b","system_id":"levelo_inurba_marseille","lat":43.323464,"lon":5.406297,"is_reserved":false,"is_disabled":false,"rental_uris":{"android":"levelo://app?vid=e66643c9-40ce-4195-9b22-0f70dfe7c68b","ios":"levelo://app?vid=e66643c9-40ce-4195-9b22-0f70dfe7c68b"},"vehicle_type_id":"4","last_reported":1679602054,"current_range_meters":24000,"station_id":"ce4bhq92rcd13ifvqhjg","pricing_plan_id":"free"},{"bike_id":"f253d286-e627-4566-b2ea-db1eb5bf03dd","system_id":"levelo_inurba_marseille","lat":43.323464,"lon":5.406297,"is_reserved":false,"is_disabled":false,"rental_uris":{"android":"levelo://app?vid=f253d286-e627-4566-b2ea-db1eb5bf03dd","ios":"levelo://app?vid=f253d286-e627-4566-b2ea-db1eb5bf03dd"},"vehicle_type_id":"4","last_reported":1679602054,"current_range_meters":30400,"station_id":"ce4bhq92rcd13ifvqhjg","pricing_plan_id":"free"},{"bike_id":"419fa5a2-09da-452e-a4ef-4ecb3f6ee51f","system_id":"levelo_inurba_marseille","lat":43.323464,"lon":5.406297,"is_reserved":false,"is_disabled":false,"rental_uris":{"android":"levelo://app?vid=419fa5a2-09da-452e-a4ef-4ecb3f6ee51f","ios":"levelo://app?vid=419fa5a2-09da-452e-a4ef-4ecb3f6ee51f"},"vehicle_type_id":"4","last_reported":1679602054,"current_range_meters":31600,"station_id":"ce4bhq92rcd13ifvqhjg","pricing_plan_id":"free"},{"bike_id":"448c4d7c-d7ef-4514-928c-9969e7d5c60c","system_id":"levelo_inurba_marseille","lat":43.283524,"lon":5.381058,"is_reserved":false,"is_disabled":false,"rental_uris":{"android":"levelo://app?vid=448c4d7c-d7ef-4514-928c-9969e7d5c60c","ios":"levelo://app?vid=448c4d7c-d7ef-4514-928c-9969e7d5c60c"},"vehicle_type_id":"4","last_reported":1679602054,"current_range_meters":0,"station_id":"","pricing_plan_id":"free"},{"bike_id":"96c95824-d047-4659-8a71-013deb225219","system_id":"levelo_inurba_marseille","lat":43.284324,"lon":5.349973,"is_reserved":false,"is_disabled":false,"rental_uris":{"android":"levelo://app?vid=96c95824-d047-4659-8a71-013deb225219","ios":"levelo://app?vid=96c95824-d047-4659-8a71-013deb225219"},"vehicle_type_id":"4","last_reported":1679602054,"current_range_meters":0,"station_id":"ce4bhbh2rcd13ifvqepg","pricing_plan_id":"free"},{"bike_id":"8cc46b44-bedc-4777-b418-7a01f031d481","system_id":"levelo_inurba_marseille","lat":43.284268,"lon":5.34987,"is_reserved":false,"is_disabled":false,"rental_uris":{"android":"levelo://app?vid=8cc46b44-bedc-4777-b418-7a01f031d481","ios":"levelo://app?vid=8cc46b44-bedc-4777-b418-7a01f031d481"},"vehicle_type_id":"4","last_reported":1679602054,"current_range_meters":31600,"station_id":"ce4bhbh2rcd13ifvqepg","pricing_plan_id":"free"},{"bike_id":"569df46d-3be8-4df2-83ab-b307b477fa65","system_id":"levelo_inurba_marseille","lat":43.284219,"lon":5.3497,"is_reserved":false,"is_disabled":false,"rental_uris":{"android":"levelo://app?vid=569df46d-3be8-4df2-83ab-b307b477fa65","ios":"levelo://app?vid=569df46d-3be8-4df2-83ab-b307b477fa65"},"vehicle_type_id":"4","last_reported":1679602054,"current_range_meters":28800,"station_id":"ce4bhbh2rcd13ifvqepg","pricing_plan_id":"free"},{"bike_id":"91df3a39-b7a9-46dd-b00b-c3b53373e830","system_id":"levelo_inurba_marseille","lat":43.284219,"lon":5.3497,"is_reserved":false,"is_disabled":false,"rental_uris":{"android":"levelo://app?vid=91df3a39-b7a9-46dd-b00b-c3b53373e830","ios":"levelo://app?vid=91df3a39-b7a9-46dd-b00b-c3b53373e830"},"vehicle_type_id":"4","last_reported":1679602054,"current_range_meters":6400,"station_id":"ce4bhbh2rcd13ifvqepg","pricing_plan_id":"free"},{"bike_id":"53c8627d-68a9-47bf-897a-1fdbb9765111","system_id":"levelo_inurba_marseille","lat":43.289363,"lon":5.396322,"is_reserved":false,"is_disabled":false,"rental_uris":{"android":"levelo://app?vid=53c8627d-68a9-47bf-897a-1fdbb9765111","ios":"levelo://app?vid=53c8627d-68a9-47bf-897a-1fdbb9765111"},"vehicle_type_id":"4","last_reported":1679602054,"current_range_meters":3600,"station_id":"ce4bh3h2rcd13ifvqdn0","pricing_plan_id":"free"},{"bike_id":"a09b291e-b57c-4778-8fdc-8211ac82241c","system_id":"levelo_inurba_marseille","lat":43.292724,"lon":5.401131,"is_reserved":false,"is_disabled":false,"rental_uris":{"android":"levelo://app?vid=a09b291e-b57c-4778-8fdc-8211ac82241c","ios":"levelo://app?vid=a09b291e-b57c-4778-8fdc-8211ac82241c"},"vehicle_type_id":"4","last_reported":1679602054,"current_range_meters":8400,"station_id":"ce4bh312rcd13ifvqdk0","pricing_plan_id":"free"},{"bike_id":"9e68514a-8a8e-4b1e-a15c-1cd7c0d52d62","system_id":"levelo_inurba_marseille","lat":43.28267,"lon":5.35069,"is_reserved":false,"is_disabled":false,"rental_uris":{"android":"levelo://app?vid=9e68514a-8a8e-4b1e-a15c-1cd7c0d52d62","ios":"levelo://app?vid=9e68514a-8a8e-4b1e-a15c-1cd7c0d52d62"},"vehicle_type_id":"4","last_reported":1679602054,"current_range_meters":17200,"station_id":"ce4bhbp2rcd13ifvqerg","pricing_plan_id":"free"},{"bike_id":"f5cb2569-c9d8-41b9-ba5d-ae8ed6433a5b","system_id":"levelo_inurba_marseille","lat":43.282683,"lon":5.350617,"is_reserved":false,"is_disabled":false,"rental_uris":{"android":"levelo://app?vid=f5cb2569-c9d8-41b9-ba5d-ae8ed6433a5b","ios":"levelo://app?vid=f5cb2569-c9d8-41b9-ba5d-ae8ed6433a5b"},"vehicle_type_id":"4","last_reported":1679602054,"current_range_meters":0,"station_id":"","pricing_plan_id":"free"},{"bike_id":"0cfa8f17-f119-43aa-a910-ace9da383da9","system_id":"levelo_inurba_marseille","lat":43.282633,"lon":5.350692,"is_reserved":false,"is_disabled":false,"rental_uris":{"android":"levelo://app?vid=0cfa8f17-f119-43aa-a910-ace9da383da9","ios":"levelo://app?vid=0cfa8f17-f119-43aa-a910-ace9da383da9"},"vehicle_type_id":"4","last_reported":1679602054,"current_range_meters":18800,"station_id":"ce4bhbp2rcd13ifvqerg","pricing_plan_id":"free"},{"bike_id":"a65aae0f-1b24-4376-bec0-ca56521eee41","system_id":"levelo_inurba_marseille","lat":43.28263,"lon":5.35057,"is_reserved":false,"is_disabled":false,"rental_uris":{"android":"levelo://app?vid=a65aae0f-1b24-4376-bec0-ca56521eee41","ios":"levelo://app?vid=a65aae0f-1b24-4376-bec0-ca56521eee41"},"vehicle_type_id":"4","last_reported":1679602054,"current_range_meters":9200,"station_id":"","pricing_plan_id":"free"},{"bike_id":"8f3aa175-b9ea-4089-a28d-fb4125b1c4a2","system_id":"levelo_inurba_marseille","lat":43.28039,"lon":5.369297,"is_reserved":false,"is_disabled":false,"rental_uris":{"android":"levelo://app?vid=8f3aa175-b9ea-4089-a28d-fb4125b1c4a2","ios":"levelo://app?vid=8f3aa175-b9ea-4089-a28d-fb4125b1c4a2"},"vehicle_type_id":"4","last_reported":1679602054,"current_range_meters":7600,"station_id":"ce4bha12rcd13ifvqef0","pricing_plan_id":"free"},{"bike_id":"530f460b-c0d6-4bdc-bc97-7dfcb1d82854","system_id":"levelo_inurba_marseille","lat":43.281044,"lon":5.378308,"is_reserved":false,"is_disabled":false,"rental_uris":{"android":"levelo://app?vid=530f460b-c0d6-4bdc-bc97-7dfcb1d82854","ios":"levelo://app?vid=530f460b-c0d6-4bdc-bc97-7dfcb1d82854"},"vehicle_type_id":"4","last_reported":1679602054,"current_range_meters":9200,"station_id":"ce4bha12rcd13ifvqee0","pricing_plan_id":"free"},{"bike_id":"82c4dd35-848c-4c48-9a35-26ca25c92583","system_id":"levelo_inurba_marseille","lat":43.281044,"lon":5.378308,"is_reserved":false,"is_disabled":false,"rental_uris":{"android":"levelo://app?vid=82c4dd35-848c-4c48-9a35-26ca25c92583","ios":"levelo://app?vid=82c4dd35-848c-4c48-9a35-26ca25c92583"},"vehicle_type_id":"4","last_reported":1679602054,"current_range_meters":3200,"station_id":"ce4bha12rcd13ifvqee0","pricing_plan_id":"free"},{"bike_id":"804bf766-6bc9-49be-a374-b50d7424d2e7","system_id":"levelo_inurba_marseille","lat":43.281044,"lon":5.378308,"is_reserved":false,"is_disabled":false,"rental_uris":{"android":"levelo://app?vid=804bf766-6bc9-49be-a374-b50d7424d2e7","ios":"levelo://app?vid=804bf766-6bc9-49be-a374-b50d7424d2e7"},"vehicle_type_id":"4","last_reported":1679602054,"current_range_meters":19600,"station_id":"ce4bha12rcd13ifvqee0","pricing_plan_id":"free"},{"bike_id":"88646941-ef36-471b-965b-01d0faa0b593","system_id":"levelo_inurba_marseille","lat":43.281044,"lon":5.378308,"is_reserved":false,"is_disabled":false,"rental_uris":{"android":"levelo://app?vid=88646941-ef36-471b-965b-01d0faa0b593","ios":"levelo://app?vid=88646941-ef36-471b-965b-01d0faa0b593"},"vehicle_type_id":"4","last_reported":1679602054,"current_range_meters":9200,"station_id":"ce4bha12rcd13ifvqee0","pricing_plan_id":"free"},{"bike_id":"ac551f60-6835-41ef-8124-8e7327497074","system_id":"levelo_inurba_marseille","lat":43.281044,"lon":5.378308,"is_reserved":false,"is_disabled":false,"rental_uris":{"android":"levelo://app?vid=ac551f60-6835-41ef-8124-8e7327497074","ios":"levelo://app?vid=ac551f60-6835-41ef-8124-8e7327497074"},"vehicle_type_id":"4","last_reported":1679602054,"current_range_meters":26800,"station_id":"ce4bha12rcd13ifvqee0","pricing_plan_id":"free"},{"bike_id":"a542c9df-6828-4105-80d2-53181420b8c3","system_id":"levelo_inurba_marseille","lat":43.281044,"lon":5.378308,"is_reserved":false,"is_disabled":false,"rental_uris":{"android":"levelo://app?vid=a542c9df-6828-4105-80d2-53181420b8c3","ios":"levelo://app?vid=a542c9df-6828-4105-80d2-53181420b8c3"},"vehicle_type_id":"4","last_reported":1679602054,"current_range_meters":0,"station_id":"ce4bha12rcd13ifvqee0","pricing_plan_id":"free"},{"bike_id":"55cf5284-0e67-4c8b-96c7-8f1d75310e66","system_id":"levelo_inurba_marseille","lat":43.304188,"lon":5.412904,"is_reserved":false,"is_disabled":false,"rental_uris":{"android":"levelo://app?vid=55cf5284-0e67-4c8b-96c7-8f1d75310e66","ios":"levelo://app?vid=55cf5284-0e67-4c8b-96c7-8f1d75310e66"},"vehicle_type_id":"4","last_reported":1679602054,"current_range_meters":31200,"station_id":"ce4bhop2rcd13ifvqh8g","pricing_plan_id":"free"},{"bike_id":"f041abab-1589-408c-8647-63cd6147c6f9","system_id":"levelo_inurba_marseille","lat":43.304188,"lon":5.412904,"is_reserved":false,"is_disabled":false,"rental_uris":{"android":"levelo://app?vid=f041abab-1589-408c-8647-63cd6147c6f9","ios":"levelo://app?vid=f041abab-1589-408c-8647-63cd6147c6f9"},"vehicle_type_id":"4","last_reported":1679602054,"current_range_meters":28800,"station_id":"ce4bhop2rcd13ifvqh8g","pricing_plan_id":"free"},{"bike_id":"8707aaa8-ec8a-467a-baf8-647def2e696b","system_id":"levelo_inurba_marseille","lat":43.320045,"lon":5.415048,"is_reserved":false,"is_disabled":false,"rental_uris":{"android":"levelo://app?vid=8707aaa8-ec8a-467a-baf8-647def2e696b","ios":"levelo://app?vid=8707aaa8-ec8a-467a-baf8-647def2e696b"},"vehicle_type_id":"4","last_reported":1679602054,"current_range_meters":12400,"station_id":"ce4bhq92rcd13ifvqhkg","pricing_plan_id":"free"},{"bike_id":"30b02593-75ad-477e-b175-8acfc87802b1","system_id":"levelo_inurba_marseille","lat":43.320784,"lon":5.415109,"is_reserved":false,"is_disabled":false,"rental_uris":{"android":"levelo://app?vid=30b02593-75ad-477e-b175-8acfc87802b1","ios":"levelo://app?vid=30b02593-75ad-477e-b175-8acfc87802b1"},"vehicle_type_id":"4","last_reported":1679602054,"current_range_meters":0,"station_id":"","pricing_plan_id":"free"},{"bike_id":"437a149c-52ae-40f7-be34-994b10cfbd55","system_id":"levelo_inurba_marseille","lat":43.320045,"lon":5.415048,"is_reserved":false,"is_disabled":false,"rental_uris":{"android":"levelo://app?vid=437a149c-52ae-40f7-be34-994b10cfbd55","ios":"levelo://app?vid=437a149c-52ae-40f7-be34-994b10cfbd55"},"vehicle_type_id":"4","last_reported":1679602054,"current_range_meters":18400,"station_id":"ce4bhq92rcd13ifvqhkg","pricing_plan_id":"free"},{"bike_id":"acda7b81-281d-4de9-a1d9-10e1a58669b1","system_id":"levelo_inurba_marseille","lat":43.27977,"lon":5.38743,"is_reserved":false,"is_disabled":false,"rental_uris":{"android":"levelo://app?vid=acda7b81-281d-4de9-a1d9-10e1a58669b1","ios":"levelo://app?vid=acda7b81-281d-4de9-a1d9-10e1a58669b1"},"vehicle_type_id":"4","last_reported":1679602054,"current_range_meters":7600,"station_id":"","pricing_plan_id":"free"},{"bike_id":"95d8fc16-f550-4bbd-bfd8-a00c4e223b57","system_id":"levelo_inurba_marseille","lat":43.27974,"lon":5.3874,"is_reserved":false,"is_disabled":false,"rental_uris":{"android":"levelo://app?vid=95d8fc16-f550-4bbd-bfd8-a00c4e223b57","ios":"levelo://app?vid=95d8fc16-f550-4bbd-bfd8-a00c4e223b57"},"vehicle_type_id":"4","last_reported":1679602054,"current_range_meters":23200,"station_id":"","pricing_plan_id":"free"},{"bike_id":"16e25b24-f22a-49e1-a438-dc3974d6917a","system_id":"levelo_inurba_marseille","lat":43.320045,"lon":5.415048,"is_reserved":false,"is_disabled":false,"rental_uris":{"android":"levelo://app?vid=16e25b24-f22a-49e1-a438-dc3974d6917a","ios":"levelo://app?vid=16e25b24-f22a-49e1-a438-dc3974d6917a"},"vehicle_type_id":"4","last_reported":1679602054,"current_range_meters":0,"station_id":"ce4bhq92rcd13ifvqhkg","pricing_plan_id":"free"},{"bike_id":"0272a59b-42cc-42f5-894e-644165ae495c","system_id":"levelo_inurba_marseille","lat":43.272116,"lon":5.391747,"is_reserved":false,"is_disabled":false,"rental_uris":{"android":"levelo://app?vid=0272a59b-42cc-42f5-894e-644165ae495c","ios":"levelo://app?vid=0272a59b-42cc-42f5-894e-644165ae495c"},"vehicle_type_id":"4","last_reported":1679602054,"current_range_meters":6400,"station_id":"ce4bhhp2rcd13ifvqfm0","pricing_plan_id":"free"},{"bike_id":"148465c7-c424-41d4-bf63-1fa5603e65f6","system_id":"levelo_inurba_marseille","lat":43.272116,"lon":5.391747,"is_reserved":false,"is_disabled":false,"rental_uris":{"android":"levelo://app?vid=148465c7-c424-41d4-bf63-1fa5603e65f6","ios":"levelo://app?vid=148465c7-c424-41d4-bf63-1fa5603e65f6"},"vehicle_type_id":"4","last_reported":1679602054,"current_range_meters":14000,"station_id":"ce4bhhp2rcd13ifvqfm0","pricing_plan_id":"free"},{"bike_id":"32e6cdf0-b6f1-421b-a661-4ede89b40162","system_id":"levelo_inurba_marseille","lat":43.29254,"lon":5.40904,"is_reserved":false,"is_disabled":false,"rental_uris":{"android":"levelo://app?vid=32e6cdf0-b6f1-421b-a661-4ede89b40162","ios":"levelo://app?vid=32e6cdf0-b6f1-421b-a661-4ede89b40162"},"vehicle_type_id":"4","last_reported":1679602054,"current_range_meters":0,"station_id":"ce4bh192rcd13ifvqdc0","pricing_plan_id":"free"},{"bike_id":"368f065b-012a-4a96-a22e-f370e198d9ef","system_id":"levelo_inurba_marseille","lat":43.27623,"lon":5.36109,"is_reserved":false,"is_disabled":false,"rental_uris":{"android":"levelo://app?vid=368f065b-012a-4a96-a22e-f370e198d9ef","ios":"levelo://app?vid=368f065b-012a-4a96-a22e-f370e198d9ef"},"vehicle_type_id":"4","last_reported":1679602054,"current_range_meters":6400,"station_id":"ce4bgj92rcd13ifvqbe0","pricing_plan_id":"free"},{"bike_id":"ec58f823-19ea-4737-b88f-ab18b5587585","system_id":"levelo_inurba_marseille","lat":43.28078,"lon":5.39662,"is_reserved":false,"is_disabled":false,"rental_uris":{"android":"levelo://app?vid=ec58f823-19ea-4737-b88f-ab18b5587585","ios":"levelo://app?vid=ec58f823-19ea-4737-b88f-ab18b5587585"},"vehicle_type_id":"4","last_reported":1679602054,"current_range_meters":21200,"station_id":"ce4bho12rcd13ifvqh2g","pricing_plan_id":"free"},{"bike_id":"586126ba-4fbd-4ece-bac9-d0edd1e71d24","system_id":"levelo_inurba_marseille","lat":43.336134,"lon":5.410341,"is_reserved":false,"is_disabled":false,"rental_uris":{"android":"levelo://app?vid=586126ba-4fbd-4ece-bac9-d0edd1e71d24","ios":"levelo://app?vid=586126ba-4fbd-4ece-bac9-d0edd1e71d24"},"vehicle_type_id":"4","last_reported":1679602054,"current_range_meters":21600,"station_id":"ce4bhqh2rcd13ifvqhmg","pricing_plan_id":"free"},{"bike_id":"0fd38c28-e378-4fee-9b0d-c788e876040f","system_id":"levelo_inurba_marseille","lat":43.336134,"lon":5.410341,"is_reserved":false,"is_disabled":false,"rental_uris":{"android":"levelo://app?vid=0fd38c28-e378-4fee-9b0d-c788e876040f","ios":"levelo://app?vid=0fd38c28-e378-4fee-9b0d-c788e876040f"},"vehicle_type_id":"4","last_reported":1679602054,"current_range_meters":20000,"station_id":"ce4bhqh2rcd13ifvqhmg","pricing_plan_id":"free"},{"bike_id":"38cc82b7-447c-4ba8-956e-a923841efa58","system_id":"levelo_inurba_marseille","lat":43.276771,"lon":5.388799,"is_reserved":false,"is_disabled":false,"rental_uris":{"android":"levelo://app?vid=38cc82b7-447c-4ba8-956e-a923841efa58","ios":"levelo://app?vid=38cc82b7-447c-4ba8-956e-a923841efa58"},"vehicle_type_id":"4","last_reported":1679602054,"current_range_meters":13200,"station_id":"ce4bhi12rcd13ifvqfo0","pricing_plan_id":"free"},{"bike_id":"a66f7511-26f7-4392-a762-4a091b6c7a45","system_id":"levelo_inurba_marseille","lat":43.3273,"lon":5.41777,"is_reserved":false,"is_disabled":false,"rental_uris":{"android":"levelo://app?vid=a66f7511-26f7-4392-a762-4a091b6c7a45","ios":"levelo://app?vid=a66f7511-26f7-4392-a762-4a091b6c7a45"},"vehicle_type_id":"4","last_reported":1679602054,"current_range_meters":1600,"station_id":"","pricing_plan_id":"free"},{"bike_id":"47ffa56f-0859-49c5-8d6d-e713f1e99c24","system_id":"levelo_inurba_marseille","lat":43.317121,"lon":5.423936,"is_reserved":false,"is_disabled":false,"rental_uris":{"android":"levelo://app?vid=47ffa56f-0859-49c5-8d6d-e713f1e99c24","ios":"levelo://app?vid=47ffa56f-0859-49c5-8d6d-e713f1e99c24"},"vehicle_type_id":"4","last_reported":1679602054,"current_range_meters":30400,"station_id":"ce4bhp92rcd13ifvqhbg","pricing_plan_id":"free"},{"bike_id":"f00a7d57-9b07-4d17-89b1-8ee32fda0541","system_id":"levelo_inurba_marseille","lat":43.310785,"lon":5.424305,"is_reserved":false,"is_disabled":false,"rental_uris":{"android":"levelo://app?vid=f00a7d57-9b07-4d17-89b1-8ee32fda0541","ios":"levelo://app?vid=f00a7d57-9b07-4d17-89b1-8ee32fda0541"},"vehicle_type_id":"4","last_reported":1679602054,"current_range_meters":18000,"station_id":"ce4bhp92rcd13ifvqhag","pricing_plan_id":"free"},{"bike_id":"dbc6bc69-5166-44fe-a766-ccf5c9e8a1d0","system_id":"levelo_inurba_marseille","lat":43.310785,"lon":5.424305,"is_reserved":false,"is_disabled":false,"rental_uris":{"android":"levelo://app?vid=dbc6bc69-5166-44fe-a766-ccf5c9e8a1d0","ios":"levelo://app?vid=dbc6bc69-5166-44fe-a766-ccf5c9e8a1d0"},"vehicle_type_id":"4","last_reported":1679602054,"current_range_meters":31600,"station_id":"ce4bhp92rcd13ifvqhag","pricing_plan_id":"free"},{"bike_id":"6eb96e54-ffd3-40ed-9416-89ea8ffaf0ab","system_id":"levelo_inurba_marseille","lat":43.27427,"lon":5.394029,"is_reserved":false,"is_disabled":false,"rental_uris":{"android":"levelo://app?vid=6eb96e54-ffd3-40ed-9416-89ea8ffaf0ab","ios":"levelo://app?vid=6eb96e54-ffd3-40ed-9416-89ea8ffaf0ab"},"vehicle_type_id":"4","last_reported":1679602054,"current_range_meters":0,"station_id":"","pricing_plan_id":"free"},{"bike_id":"a0a20e2b-cc6a-4187-9bfd-707e895768d3","system_id":"levelo_inurba_marseille","lat":43.304096,"lon":5.425385,"is_reserved":false,"is_disabled":false,"rental_uris":{"android":"levelo://app?vid=a0a20e2b-cc6a-4187-9bfd-707e895768d3","ios":"levelo://app?vid=a0a20e2b-cc6a-4187-9bfd-707e895768d3"},"vehicle_type_id":"4","last_reported":1679602054,"current_range_meters":24400,"station_id":"ce4bhoh2rcd13ifvqh6g","pricing_plan_id":"free"},{"bike_id":"09a30c90-5f94-4d20-b022-542e377fd6e9","system_id":"levelo_inurba_marseille","lat":43.304096,"lon":5.425385,"is_reserved":false,"is_disabled":false,"rental_uris":{"android":"levelo://app?vid=09a30c90-5f94-4d20-b022-542e377fd6e9","ios":"levelo://app?vid=09a30c90-5f94-4d20-b022-542e377fd6e9"},"vehicle_type_id":"4","last_reported":1679602054,"current_range_meters":27200,"station_id":"ce4bhoh2rcd13ifvqh6g","pricing_plan_id":"free"},{"bike_id":"c69449d1-639f-43b2-8543-99e803cc71dc","system_id":"levelo_inurba_marseille","lat":43.304096,"lon":5.425385,"is_reserved":false,"is_disabled":false,"rental_uris":{"android":"levelo://app?vid=c69449d1-639f-43b2-8543-99e803cc71dc","ios":"levelo://app?vid=c69449d1-639f-43b2-8543-99e803cc71dc"},"vehicle_type_id":"4","last_reported":1679602054,"current_range_meters":20800,"station_id":"ce4bhoh2rcd13ifvqh6g","pricing_plan_id":"free"},{"bike_id":"c73e3cd7-043f-478c-8083-be67fecaa77a","system_id":"levelo_inurba_marseille","lat":43.304096,"lon":5.425385,"is_reserved":false,"is_disabled":false,"rental_uris":{"android":"levelo://app?vid=c73e3cd7-043f-478c-8083-be67fecaa77a","ios":"levelo://app?vid=c73e3cd7-043f-478c-8083-be67fecaa77a"},"vehicle_type_id":"4","last_reported":1679602054,"current_range_meters":25600,"station_id":"ce4bhoh2rcd13ifvqh6g","pricing_plan_id":"free"},{"bike_id":"42af07bb-8c21-4e19-acae-f0576f90a5cf","system_id":"levelo_inurba_marseille","lat":43.304145,"lon":5.425468,"is_reserved":false,"is_disabled":false,"rental_uris":{"android":"levelo://app?vid=42af07bb-8c21-4e19-acae-f0576f90a5cf","ios":"levelo://app?vid=42af07bb-8c21-4e19-acae-f0576f90a5cf"},"vehicle_type_id":"4","last_reported":1679602054,"current_range_meters":28800,"station_id":"ce4bhoh2rcd13ifvqh6g","pricing_plan_id":"free"},{"bike_id":"d029861f-3bdc-4ab9-99ce-694fdf62ab1e","system_id":"levelo_inurba_marseille","lat":43.30415,"lon":5.425469,"is_reserved":false,"is_disabled":false,"rental_uris":{"android":"levelo://app?vid=d029861f-3bdc-4ab9-99ce-694fdf62ab1e","ios":"levelo://app?vid=d029861f-3bdc-4ab9-99ce-694fdf62ab1e"},"vehicle_type_id":"4","last_reported":1679602054,"current_range_meters":28000,"station_id":"ce4bhoh2rcd13ifvqh6g","pricing_plan_id":"free"},{"bike_id":"043bf9ae-c8f5-4c2d-a7e2-02a1727e95e5","system_id":"levelo_inurba_marseille","lat":43.30414,"lon":5.425476,"is_reserved":false,"is_disabled":false,"rental_uris":{"android":"levelo://app?vid=043bf9ae-c8f5-4c2d-a7e2-02a1727e95e5","ios":"levelo://app?vid=043bf9ae-c8f5-4c2d-a7e2-02a1727e95e5"},"vehicle_type_id":"4","last_reported":1679602054,"current_range_meters":19200,"station_id":"","pricing_plan_id":"free"},{"bike_id":"8697325f-5ca4-49d6-bce1-37b99d5c71e5","system_id":"levelo_inurba_marseille","lat":43.304142,"lon":5.42548,"is_reserved":false,"is_disabled":false,"rental_uris":{"android":"levelo://app?vid=8697325f-5ca4-49d6-bce1-37b99d5c71e5","ios":"levelo://app?vid=8697325f-5ca4-49d6-bce1-37b99d5c71e5"},"vehicle_type_id":"4","last_reported":1679602054,"current_range_meters":28000,"station_id":"ce4bhoh2rcd13ifvqh6g","pricing_plan_id":"free"},{"bike_id":"b5717fc4-fa42-495a-afc7-01e12eb2636d","system_id":"levelo_inurba_marseille","lat":43.304141,"lon":5.425482,"is_reserved":false,"is_disabled":false,"rental_uris":{"android":"levelo://app?vid=b5717fc4-fa42-495a-afc7-01e12eb2636d","ios":"levelo://app?vid=b5717fc4-fa42-495a-afc7-01e12eb2636d"},"vehicle_type_id":"4","last_reported":1679602054,"current_range_meters":31600,"station_id":"ce4bhoh2rcd13ifvqh6g","pricing_plan_id":"free"},{"bike_id":"1ff3e2e5-3817-4109-ab38-f8c73be10aad","system_id":"levelo_inurba_marseille","lat":43.304115,"lon":5.425486,"is_reserved":false,"is_disabled":false,"rental_uris":{"android":"levelo://app?vid=1ff3e2e5-3817-4109-ab38-f8c73be10aad","ios":"levelo://app?vid=1ff3e2e5-3817-4109-ab38-f8c73be10aad"},"vehicle_type_id":"4","last_reported":1679602054,"current_range_meters":22000,"station_id":"","pricing_plan_id":"free"},{"bike_id":"8d79ebce-e33d-4f9f-a429-0a986a2a3521","system_id":"levelo_inurba_marseille","lat":43.304096,"lon":5.425385,"is_reserved":false,"is_disabled":false,"rental_uris":{"android":"levelo://app?vid=8d79ebce-e33d-4f9f-a429-0a986a2a3521","ios":"levelo://app?vid=8d79ebce-e33d-4f9f-a429-0a986a2a3521"},"vehicle_type_id":"4","last_reported":1679602054,"current_range_meters":24400,"station_id":"ce4bhoh2rcd13ifvqh6g","pricing_plan_id":"free"},{"bike_id":"688e0731-8e86-4ac4-9c89-dc117e0f87fa","system_id":"levelo_inurba_marseille","lat":43.304113,"lon":5.425517,"is_reserved":false,"is_disabled":false,"rental_uris":{"android":"levelo://app?vid=688e0731-8e86-4ac4-9c89-dc117e0f87fa","ios":"levelo://app?vid=688e0731-8e86-4ac4-9c89-dc117e0f87fa"},"vehicle_type_id":"4","last_reported":1679602054,"current_range_meters":31600,"station_id":"ce4bhoh2rcd13ifvqh6g","pricing_plan_id":"free"},{"bike_id":"8921c813-01df-4174-9fcd-f28ce92518a5","system_id":"levelo_inurba_marseille","lat":43.295523,"lon":5.422926,"is_reserved":false,"is_disabled":false,"rental_uris":{"android":"levelo://app?vid=8921c813-01df-4174-9fcd-f28ce92518a5","ios":"levelo://app?vid=8921c813-01df-4174-9fcd-f28ce92518a5"},"vehicle_type_id":"4","last_reported":1679602054,"current_range_meters":31600,"station_id":"ce4bhph2rcd13ifvqhdg","pricing_plan_id":"free"},{"bike_id":"de86e6fe-ef27-4e88-8ec6-12fa13f212db","system_id":"levelo_inurba_marseille","lat":43.295523,"lon":5.422926,"is_reserved":false,"is_disabled":false,"rental_uris":{"android":"levelo://app?vid=de86e6fe-ef27-4e88-8ec6-12fa13f212db","ios":"levelo://app?vid=de86e6fe-ef27-4e88-8ec6-12fa13f212db"},"vehicle_type_id":"4","last_reported":1679602054,"current_range_meters":20800,"station_id":"ce4bhph2rcd13ifvqhdg","pricing_plan_id":"free"},{"bike_id":"69054306-7f07-4da0-bc61-7515659f4212","system_id":"levelo_inurba_marseille","lat":43.295523,"lon":5.422926,"is_reserved":false,"is_disabled":false,"rental_uris":{"android":"levelo://app?vid=69054306-7f07-4da0-bc61-7515659f4212","ios":"levelo://app?vid=69054306-7f07-4da0-bc61-7515659f4212"},"vehicle_type_id":"4","last_reported":1679602054,"current_range_meters":28400,"station_id":"ce4bhph2rcd13ifvqhdg","pricing_plan_id":"free"},{"bike_id":"6baa331e-0b6c-4eaa-bc6b-2a2f88cce9b3","system_id":"levelo_inurba_marseille","lat":43.295511,"lon":5.422926,"is_reserved":false,"is_disabled":false,"rental_uris":{"android":"levelo://app?vid=6baa331e-0b6c-4eaa-bc6b-2a2f88cce9b3","ios":"levelo://app?vid=6baa331e-0b6c-4eaa-bc6b-2a2f88cce9b3"},"vehicle_type_id":"4","last_reported":1679602054,"current_range_meters":31200,"station_id":"ce4bhph2rcd13ifvqhdg","pricing_plan_id":"free"},{"bike_id":"646bc38d-3886-4147-9493-9656fe1cd2a3","system_id":"levelo_inurba_marseille","lat":43.295511,"lon":5.422926,"is_reserved":false,"is_disabled":false,"rental_uris":{"android":"levelo://app?vid=646bc38d-3886-4147-9493-9656fe1cd2a3","ios":"levelo://app?vid=646bc38d-3886-4147-9493-9656fe1cd2a3"},"vehicle_type_id":"4","last_reported":1679602054,"current_range_meters":30800,"station_id":"ce4bhph2rcd13ifvqhdg","pricing_plan_id":"free"},{"bike_id":"2d9df878-c04a-4506-bc15-7857e266fb33","system_id":"levelo_inurba_marseille","lat":43.295511,"lon":5.422926,"is_reserved":false,"is_disabled":false,"rental_uris":{"android":"levelo://app?vid=2d9df878-c04a-4506-bc15-7857e266fb33","ios":"levelo://app?vid=2d9df878-c04a-4506-bc15-7857e266fb33"},"vehicle_type_id":"4","last_reported":1679602054,"current_range_meters":28400,"station_id":"ce4bhph2rcd13ifvqhdg","pricing_plan_id":"free"},{"bike_id":"07514ecb-c70b-4b76-b053-b55a4fc72d21","system_id":"levelo_inurba_marseille","lat":43.295523,"lon":5.422926,"is_reserved":false,"is_disabled":false,"rental_uris":{"android":"levelo://app?vid=07514ecb-c70b-4b76-b053-b55a4fc72d21","ios":"levelo://app?vid=07514ecb-c70b-4b76-b053-b55a4fc72d21"},"vehicle_type_id":"4","last_reported":1679602054,"current_range_meters":29200,"station_id":"ce4bhph2rcd13ifvqhdg","pricing_plan_id":"free"},{"bike_id":"4680999c-37c9-45df-80f9-7af6da86babf","system_id":"levelo_inurba_marseille","lat":43.295511,"lon":5.422926,"is_reserved":false,"is_disabled":false,"rental_uris":{"android":"levelo://app?vid=4680999c-37c9-45df-80f9-7af6da86babf","ios":"levelo://app?vid=4680999c-37c9-45df-80f9-7af6da86babf"},"vehicle_type_id":"4","last_reported":1679602054,"current_range_meters":27200,"station_id":"ce4bhph2rcd13ifvqhdg","pricing_plan_id":"free"},{"bike_id":"983f4494-d96e-4331-976e-7eda2310c9c1","system_id":"levelo_inurba_marseille","lat":43.295511,"lon":5.422926,"is_reserved":false,"is_disabled":false,"rental_uris":{"android":"levelo://app?vid=983f4494-d96e-4331-976e-7eda2310c9c1","ios":"levelo://app?vid=983f4494-d96e-4331-976e-7eda2310c9c1"},"vehicle_type_id":"4","last_reported":1679602054,"current_range_meters":0,"station_id":"ce4bhph2rcd13ifvqhdg","pricing_plan_id":"free"},{"bike_id":"a0decc3e-7854-4c8c-a237-b497459c2fa1","system_id":"levelo_inurba_marseille","lat":43.295511,"lon":5.422926,"is_reserved":false,"is_disabled":false,"rental_uris":{"android":"levelo://app?vid=a0decc3e-7854-4c8c-a237-b497459c2fa1","ios":"levelo://app?vid=a0decc3e-7854-4c8c-a237-b497459c2fa1"},"vehicle_type_id":"4","last_reported":1679602054,"current_range_meters":25200,"station_id":"ce4bhph2rcd13ifvqhdg","pricing_plan_id":"free"},{"bike_id":"748f3f52-60ee-49cd-8596-d8332919fedb","system_id":"levelo_inurba_marseille","lat":43.278128,"lon":5.407195,"is_reserved":false,"is_disabled":false,"rental_uris":{"android":"levelo://app?vid=748f3f52-60ee-49cd-8596-d8332919fedb","ios":"levelo://app?vid=748f3f52-60ee-49cd-8596-d8332919fedb"},"vehicle_type_id":"4","last_reported":1679602054,"current_range_meters":18400,"station_id":"ce4bhnh2rcd13ifvqgtg","pricing_plan_id":"free"},{"bike_id":"fe1f4c24-aae4-4492-bfe7-f287b3fad955","system_id":"levelo_inurba_marseille","lat":43.27814,"lon":5.4071,"is_reserved":false,"is_disabled":false,"rental_uris":{"android":"levelo://app?vid=fe1f4c24-aae4-4492-bfe7-f287b3fad955","ios":"levelo://app?vid=fe1f4c24-aae4-4492-bfe7-f287b3fad955"},"vehicle_type_id":"4","last_reported":1679602054,"current_range_meters":9600,"station_id":"ce4bhnh2rcd13ifvqgtg","pricing_plan_id":"free"},{"bike_id":"7f12ee50-c218-4898-9abb-99b0844d009e","system_id":"levelo_inurba_marseille","lat":43.27817,"lon":5.40715,"is_reserved":false,"is_disabled":false,"rental_uris":{"android":"levelo://app?vid=7f12ee50-c218-4898-9abb-99b0844d009e","ios":"levelo://app?vid=7f12ee50-c218-4898-9abb-99b0844d009e"},"vehicle_type_id":"4","last_reported":1679602054,"current_range_meters":18400,"station_id":"","pricing_plan_id":"free"},{"bike_id":"68e53ddc-dba4-4fd9-97d9-275272852627","system_id":"levelo_inurba_marseille","lat":43.278128,"lon":5.407195,"is_reserved":false,"is_disabled":false,"rental_uris":{"android":"levelo://app?vid=68e53ddc-dba4-4fd9-97d9-275272852627","ios":"levelo://app?vid=68e53ddc-dba4-4fd9-97d9-275272852627"},"vehicle_type_id":"4","last_reported":1679602054,"current_range_meters":11200,"station_id":"ce4bhnh2rcd13ifvqgtg","pricing_plan_id":"free"},{"bike_id":"e375d338-4c4a-4a7d-99a9-cbb8e5f73e08","system_id":"levelo_inurba_marseille","lat":43.2781,"lon":5.40709,"is_reserved":false,"is_disabled":false,"rental_uris":{"android":"levelo://app?vid=e375d338-4c4a-4a7d-99a9-cbb8e5f73e08","ios":"levelo://app?vid=e375d338-4c4a-4a7d-99a9-cbb8e5f73e08"},"vehicle_type_id":"4","last_reported":1679602054,"current_range_meters":20000,"station_id":"","pricing_plan_id":"free"},{"bike_id":"47aac22f-4e93-4590-a4ec-09b8aebf7fde","system_id":"levelo_inurba_marseille","lat":43.27817,"lon":5.40724,"is_reserved":false,"is_disabled":false,"rental_uris":{"android":"levelo://app?vid=47aac22f-4e93-4590-a4ec-09b8aebf7fde","ios":"levelo://app?vid=47aac22f-4e93-4590-a4ec-09b8aebf7fde"},"vehicle_type_id":"4","last_reported":1679602054,"current_range_meters":0,"station_id":"","pricing_plan_id":"free"},{"bike_id":"68bd8919-15ea-4424-a1ed-a6534ce2fe21","system_id":"levelo_inurba_marseille","lat":43.278128,"lon":5.407195,"is_reserved":false,"is_disabled":false,"rental_uris":{"android":"levelo://app?vid=68bd8919-15ea-4424-a1ed-a6534ce2fe21","ios":"levelo://app?vid=68bd8919-15ea-4424-a1ed-a6534ce2fe21"},"vehicle_type_id":"4","last_reported":1679602054,"current_range_meters":16000,"station_id":"ce4bhnh2rcd13ifvqgtg","pricing_plan_id":"free"},{"bike_id":"50457466-010a-4b2b-ac40-36bb0786f0de","system_id":"levelo_inurba_marseille","lat":43.277887,"lon":5.406993,"is_reserved":false,"is_disabled":false,"rental_uris":{"android":"levelo://app?vid=50457466-010a-4b2b-ac40-36bb0786f0de","ios":"levelo://app?vid=50457466-010a-4b2b-ac40-36bb0786f0de"},"vehicle_type_id":"4","last_reported":1679602054,"current_range_meters":26800,"station_id":"ce4bhnh2rcd13ifvqgtg","pricing_plan_id":"free"},{"bike_id":"12a79a61-4a9a-4a08-af1f-96cd7d2fa65f","system_id":"levelo_inurba_marseille","lat":43.269319,"lon":5.389397,"is_reserved":false,"is_disabled":false,"rental_uris":{"android":"levelo://app?vid=12a79a61-4a9a-4a08-af1f-96cd7d2fa65f","ios":"levelo://app?vid=12a79a61-4a9a-4a08-af1f-96cd7d2fa65f"},"vehicle_type_id":"4","last_reported":1679602054,"current_range_meters":18400,"station_id":"ce4bhhh2rcd13ifvqfl0","pricing_plan_id":"free"},{"bike_id":"4bc1e031-879d-42ce-9811-ce03d72db6db","system_id":"levelo_inurba_marseille","lat":43.26681,"lon":5.382694,"is_reserved":false,"is_disabled":false,"rental_uris":{"android":"levelo://app?vid=4bc1e031-879d-42ce-9811-ce03d72db6db","ios":"levelo://app?vid=4bc1e031-879d-42ce-9811-ce03d72db6db"},"vehicle_type_id":"4","last_reported":1679602054,"current_range_meters":6400,"station_id":"ce4bhg92rcd13ifvqf90","pricing_plan_id":"free"},{"bike_id":"6e5f2628-43f0-4d4a-858a-77f7204dff48","system_id":"levelo_inurba_marseille","lat":43.265714,"lon":5.372891,"is_reserved":false,"is_disabled":false,"rental_uris":{"android":"levelo://app?vid=6e5f2628-43f0-4d4a-858a-77f7204dff48","ios":"levelo://app?vid=6e5f2628-43f0-4d4a-858a-77f7204dff48"},"vehicle_type_id":"4","last_reported":1679602054,"current_range_meters":7200,"station_id":"ce4bhg12rcd13ifvqf70","pricing_plan_id":"free"},{"bike_id":"4f92a4d6-571e-427a-a6b8-e7d8d603ccd5","system_id":"levelo_inurba_marseille","lat":43.265714,"lon":5.372891,"is_reserved":false,"is_disabled":false,"rental_uris":{"android":"levelo://app?vid=4f92a4d6-571e-427a-a6b8-e7d8d603ccd5","ios":"levelo://app?vid=4f92a4d6-571e-427a-a6b8-e7d8d603ccd5"},"vehicle_type_id":"4","last_reported":1679602054,"current_range_meters":21600,"station_id":"ce4bhg12rcd13ifvqf70","pricing_plan_id":"free"},{"bike_id":"aa2a44f5-23e2-4a9a-995f-2219c9170d55","system_id":"levelo_inurba_marseille","lat":43.265266,"lon":5.373024,"is_reserved":false,"is_disabled":false,"rental_uris":{"android":"levelo://app?vid=aa2a44f5-23e2-4a9a-995f-2219c9170d55","ios":"levelo://app?vid=aa2a44f5-23e2-4a9a-995f-2219c9170d55"},"vehicle_type_id":"4","last_reported":1679602054,"current_range_meters":26400,"station_id":"","pricing_plan_id":"free"},{"bike_id":"1c0303d2-c7a5-41da-84cc-24884b9e7cc0","system_id":"levelo_inurba_marseille","lat":43.265172,"lon":5.372997,"is_reserved":false,"is_disabled":false,"rental_uris":{"android":"levelo://app?vid=1c0303d2-c7a5-41da-84cc-24884b9e7cc0","ios":"levelo://app?vid=1c0303d2-c7a5-41da-84cc-24884b9e7cc0"},"vehicle_type_id":"4","last_reported":1679602054,"current_range_meters":31600,"station_id":"","pricing_plan_id":"free"},{"bike_id":"33c09c48-733e-475b-9ecc-68911162104d","system_id":"levelo_inurba_marseille","lat":43.308051,"lon":5.43527,"is_reserved":false,"is_disabled":false,"rental_uris":{"android":"levelo://app?vid=33c09c48-733e-475b-9ecc-68911162104d","ios":"levelo://app?vid=33c09c48-733e-475b-9ecc-68911162104d"},"vehicle_type_id":"4","last_reported":1679602054,"current_range_meters":14000,"station_id":"ce4bhph2rcd13ifvqheg","pricing_plan_id":"free"},{"bike_id":"9766b96d-4eaf-4582-b41b-4b33d5036dc7","system_id":"levelo_inurba_marseille","lat":43.30803,"lon":5.435283,"is_reserved":false,"is_disabled":false,"rental_uris":{"android":"levelo://app?vid=9766b96d-4eaf-4582-b41b-4b33d5036dc7","ios":"levelo://app?vid=9766b96d-4eaf-4582-b41b-4b33d5036dc7"},"vehicle_type_id":"4","last_reported":1679602054,"current_range_meters":0,"station_id":"ce4bhph2rcd13ifvqheg","pricing_plan_id":"free"},{"bike_id":"b85b9bc1-2a9f-4ec0-9eda-2797722f6c0e","system_id":"levelo_inurba_marseille","lat":43.33199,"lon":5.43197,"is_reserved":false,"is_disabled":false,"rental_uris":{"android":"levelo://app?vid=b85b9bc1-2a9f-4ec0-9eda-2797722f6c0e","ios":"levelo://app?vid=b85b9bc1-2a9f-4ec0-9eda-2797722f6c0e"},"vehicle_type_id":"4","last_reported":1679602054,"current_range_meters":16400,"station_id":"","pricing_plan_id":"free"},{"bike_id":"dcb093fb-ffb4-44ca-902b-977b07f8b698","system_id":"levelo_inurba_marseille","lat":43.261782,"lon":5.374515,"is_reserved":false,"is_disabled":false,"rental_uris":{"android":"levelo://app?vid=dcb093fb-ffb4-44ca-902b-977b07f8b698","ios":"levelo://app?vid=dcb093fb-ffb4-44ca-902b-977b07f8b698"},"vehicle_type_id":"4","last_reported":1679602054,"current_range_meters":31600,"station_id":"ce4bhgp2rcd13ifvqfc0","pricing_plan_id":"free"},{"bike_id":"6e34e69d-40bd-402e-96ba-8b956839ac59","system_id":"levelo_inurba_marseille","lat":43.261782,"lon":5.374515,"is_reserved":false,"is_disabled":false,"rental_uris":{"android":"levelo://app?vid=6e34e69d-40bd-402e-96ba-8b956839ac59","ios":"levelo://app?vid=6e34e69d-40bd-402e-96ba-8b956839ac59"},"vehicle_type_id":"4","last_reported":1679602054,"current_range_meters":31600,"station_id":"ce4bhgp2rcd13ifvqfc0","pricing_plan_id":"free"},{"bike_id":"57540609-0ddf-4ef8-a0a7-1fda4a830056","system_id":"levelo_inurba_marseille","lat":43.261782,"lon":5.374515,"is_reserved":false,"is_disabled":false,"rental_uris":{"android":"levelo://app?vid=57540609-0ddf-4ef8-a0a7-1fda4a830056","ios":"levelo://app?vid=57540609-0ddf-4ef8-a0a7-1fda4a830056"},"vehicle_type_id":"4","last_reported":1679602054,"current_range_meters":27200,"station_id":"ce4bhgp2rcd13ifvqfc0","pricing_plan_id":"free"},{"bike_id":"6d5e7ef0-8e7c-4696-a6c4-93810e2206e2","system_id":"levelo_inurba_marseille","lat":43.261782,"lon":5.374515,"is_reserved":false,"is_disabled":false,"rental_uris":{"android":"levelo://app?vid=6d5e7ef0-8e7c-4696-a6c4-93810e2206e2","ios":"levelo://app?vid=6d5e7ef0-8e7c-4696-a6c4-93810e2206e2"},"vehicle_type_id":"4","last_reported":1679602054,"current_range_meters":30400,"station_id":"ce4bhgp2rcd13ifvqfc0","pricing_plan_id":"free"},{"bike_id":"93f56beb-b233-4e79-b079-0960f51da626","system_id":"levelo_inurba_marseille","lat":43.317104,"lon":5.436818,"is_reserved":false,"is_disabled":false,"rental_uris":{"android":"levelo://app?vid=93f56beb-b233-4e79-b079-0960f51da626","ios":"levelo://app?vid=93f56beb-b233-4e79-b079-0960f51da626"},"vehicle_type_id":"4","last_reported":1679602054,"current_range_meters":24800,"station_id":"ce4bhp92rcd13ifvqhcg","pricing_plan_id":"free"},{"bike_id":"9ced425c-27cf-40cd-8b03-5fb2f43c0fa3","system_id":"levelo_inurba_marseille","lat":43.317104,"lon":5.436818,"is_reserved":false,"is_disabled":false,"rental_uris":{"android":"levelo://app?vid=9ced425c-27cf-40cd-8b03-5fb2f43c0fa3","ios":"levelo://app?vid=9ced425c-27cf-40cd-8b03-5fb2f43c0fa3"},"vehicle_type_id":"4","last_reported":1679602054,"current_range_meters":17200,"station_id":"ce4bhp92rcd13ifvqhcg","pricing_plan_id":"free"},{"bike_id":"f2902925-4af0-4140-a7c8-5397188c4091","system_id":"levelo_inurba_marseille","lat":43.317104,"lon":5.436818,"is_reserved":false,"is_disabled":false,"rental_uris":{"android":"levelo://app?vid=f2902925-4af0-4140-a7c8-5397188c4091","ios":"levelo://app?vid=f2902925-4af0-4140-a7c8-5397188c4091"},"vehicle_type_id":"4","last_reported":1679602054,"current_range_meters":30800,"station_id":"ce4bhp92rcd13ifvqhcg","pricing_plan_id":"free"},{"bike_id":"456389e1-6406-4acd-b487-28ba27f96a8a","system_id":"levelo_inurba_marseille","lat":43.317104,"lon":5.436818,"is_reserved":false,"is_disabled":false,"rental_uris":{"android":"levelo://app?vid=456389e1-6406-4acd-b487-28ba27f96a8a","ios":"levelo://app?vid=456389e1-6406-4acd-b487-28ba27f96a8a"},"vehicle_type_id":"4","last_reported":1679602054,"current_range_meters":16800,"station_id":"ce4bhp92rcd13ifvqhcg","pricing_plan_id":"free"},{"bike_id":"a8ed163a-64e5-4a07-87f6-fec43d2f2fbc","system_id":"levelo_inurba_marseille","lat":43.29901,"lon":5.43662,"is_reserved":false,"is_disabled":false,"rental_uris":{"android":"levelo://app?vid=a8ed163a-64e5-4a07-87f6-fec43d2f2fbc","ios":"levelo://app?vid=a8ed163a-64e5-4a07-87f6-fec43d2f2fbc"},"vehicle_type_id":"4","last_reported":1679602054,"current_range_meters":16800,"station_id":"","pricing_plan_id":"free"},{"bike_id":"41fa2a4e-b8ba-4133-8b04-3a12523f90db","system_id":"levelo_inurba_marseille","lat":43.28151,"lon":5.42798,"is_reserved":false,"is_disabled":false,"rental_uris":{"android":"levelo://app?vid=41fa2a4e-b8ba-4133-8b04-3a12523f90db","ios":"levelo://app?vid=41fa2a4e-b8ba-4133-8b04-3a12523f90db"},"vehicle_type_id":"4","last_reported":1679602054,"current_range_meters":16800,"station_id":"","pricing_plan_id":"free"},{"bike_id":"9343be7b-f1dc-4a81-9101-bfc1f3bd60de","system_id":"levelo_inurba_marseille","lat":43.250009,"lon":5.389195,"is_reserved":false,"is_disabled":false,"rental_uris":{"android":"levelo://app?vid=9343be7b-f1dc-4a81-9101-bfc1f3bd60de","ios":"levelo://app?vid=9343be7b-f1dc-4a81-9101-bfc1f3bd60de"},"vehicle_type_id":"4","last_reported":1679602054,"current_range_meters":31600,"station_id":"ce4bhgp2rcd13ifvqfd0","pricing_plan_id":"free"},{"bike_id":"75eb6464-ded2-4840-8528-f95672df1dbe","system_id":"levelo_inurba_marseille","lat":43.250009,"lon":5.389195,"is_reserved":false,"is_disabled":false,"rental_uris":{"android":"levelo://app?vid=75eb6464-ded2-4840-8528-f95672df1dbe","ios":"levelo://app?vid=75eb6464-ded2-4840-8528-f95672df1dbe"},"vehicle_type_id":"4","last_reported":1679602054,"current_range_meters":30000,"station_id":"ce4bhgp2rcd13ifvqfd0","pricing_plan_id":"free"},{"bike_id":"ed633cfe-dae3-4bf3-a212-0abb9f1659d4","system_id":"levelo_inurba_marseille","lat":43.250009,"lon":5.389195,"is_reserved":false,"is_disabled":false,"rental_uris":{"android":"levelo://app?vid=ed633cfe-dae3-4bf3-a212-0abb9f1659d4","ios":"levelo://app?vid=ed633cfe-dae3-4bf3-a212-0abb9f1659d4"},"vehicle_type_id":"4","last_reported":1679602054,"current_range_meters":31200,"station_id":"ce4bhgp2rcd13ifvqfd0","pricing_plan_id":"free"},{"bike_id":"e0cf06c0-a9ef-467c-b502-e8bf1bc30ac2","system_id":"levelo_inurba_marseille","lat":43.250009,"lon":5.389195,"is_reserved":false,"is_disabled":false,"rental_uris":{"android":"levelo://app?vid=e0cf06c0-a9ef-467c-b502-e8bf1bc30ac2","ios":"levelo://app?vid=e0cf06c0-a9ef-467c-b502-e8bf1bc30ac2"},"vehicle_type_id":"4","last_reported":1679602054,"current_range_meters":31200,"station_id":"ce4bhgp2rcd13ifvqfd0","pricing_plan_id":"free"},{"bike_id":"d38ca928-af56-42e7-8062-aa8e84df2f66","system_id":"levelo_inurba_marseille","lat":43.25105,"lon":5.3952,"is_reserved":false,"is_disabled":false,"rental_uris":{"android":"levelo://app?vid=d38ca928-af56-42e7-8062-aa8e84df2f66","ios":"levelo://app?vid=d38ca928-af56-42e7-8062-aa8e84df2f66"},"vehicle_type_id":"4","last_reported":1679602054,"current_range_meters":0,"station_id":"ce4bhm12rcd13ifvqgkg","pricing_plan_id":"free"},{"bike_id":"c655bc99-c683-4a27-8647-cfc5bd5a35c4","system_id":"levelo_inurba_marseille","lat":43.25087,"lon":5.3952,"is_reserved":false,"is_disabled":false,"rental_uris":{"android":"levelo://app?vid=c655bc99-c683-4a27-8647-cfc5bd5a35c4","ios":"levelo://app?vid=c655bc99-c683-4a27-8647-cfc5bd5a35c4"},"vehicle_type_id":"4","last_reported":1679602054,"current_range_meters":0,"station_id":"ce4bhm12rcd13ifvqgkg","pricing_plan_id":"free"},{"bike_id":"cfd72baa-5c55-47c2-99ec-a525fc5ae276","system_id":"levelo_inurba_marseille","lat":43.24693,"lon":5.382096,"is_reserved":false,"is_disabled":false,"rental_uris":{"android":"levelo://app?vid=cfd72baa-5c55-47c2-99ec-a525fc5ae276","ios":"levelo://app?vid=cfd72baa-5c55-47c2-99ec-a525fc5ae276"},"vehicle_type_id":"4","last_reported":1679602054,"current_range_meters":31600,"station_id":"ce4bhih2rcd13ifvqfr0","pricing_plan_id":"free"},{"bike_id":"7dede788-5373-4dac-addf-35620684307f","system_id":"levelo_inurba_marseille","lat":43.251207,"lon":5.403254,"is_reserved":false,"is_disabled":false,"rental_uris":{"android":"levelo://app?vid=7dede788-5373-4dac-addf-35620684307f","ios":"levelo://app?vid=7dede788-5373-4dac-addf-35620684307f"},"vehicle_type_id":"4","last_reported":1679602054,"current_range_meters":0,"station_id":"ce4bhlh2rcd13ifvqgig","pricing_plan_id":"free"},{"bike_id":"0a906f03-f8e9-47c9-adca-1d7014609657","system_id":"levelo_inurba_marseille","lat":43.24693,"lon":5.382096,"is_reserved":false,"is_disabled":false,"rental_uris":{"android":"levelo://app?vid=0a906f03-f8e9-47c9-adca-1d7014609657","ios":"levelo://app?vid=0a906f03-f8e9-47c9-adca-1d7014609657"},"vehicle_type_id":"4","last_reported":1679602054,"current_range_meters":31200,"station_id":"ce4bhih2rcd13ifvqfr0","pricing_plan_id":"free"},{"bike_id":"e753a5cd-f6c0-47a7-91f6-566024bdc844","system_id":"levelo_inurba_marseille","lat":43.251081,"lon":5.403265,"is_reserved":false,"is_disabled":false,"rental_uris":{"android":"levelo://app?vid=e753a5cd-f6c0-47a7-91f6-566024bdc844","ios":"levelo://app?vid=e753a5cd-f6c0-47a7-91f6-566024bdc844"},"vehicle_type_id":"4","last_reported":1679602054,"current_range_meters":1600,"station_id":"ce4bhlh2rcd13ifvqgig","pricing_plan_id":"free"},{"bike_id":"c45e906d-3167-4f96-8e99-f357c6a5ee12","system_id":"levelo_inurba_marseille","lat":43.246467,"lon":5.388984,"is_reserved":false,"is_disabled":false,"rental_uris":{"android":"levelo://app?vid=c45e906d-3167-4f96-8e99-f357c6a5ee12","ios":"levelo://app?vid=c45e906d-3167-4f96-8e99-f357c6a5ee12"},"vehicle_type_id":"4","last_reported":1679602054,"current_range_meters":28800,"station_id":"ce4bhg12rcd13ifvqf60","pricing_plan_id":"free"},{"bike_id":"dd378cd8-4305-4d96-905b-64e473f1c1f1","system_id":"levelo_inurba_marseille","lat":43.246467,"lon":5.388984,"is_reserved":false,"is_disabled":false,"rental_uris":{"android":"levelo://app?vid=dd378cd8-4305-4d96-905b-64e473f1c1f1","ios":"levelo://app?vid=dd378cd8-4305-4d96-905b-64e473f1c1f1"},"vehicle_type_id":"4","last_reported":1679602054,"current_range_meters":28800,"station_id":"ce4bhg12rcd13ifvqf60","pricing_plan_id":"free"},{"bike_id":"0718e7ce-8c3a-4034-8e09-03ef369ed3f4","system_id":"levelo_inurba_marseille","lat":43.240623,"lon":5.377642,"is_reserved":false,"is_disabled":false,"rental_uris":{"android":"levelo://app?vid=0718e7ce-8c3a-4034-8e09-03ef369ed3f4","ios":"levelo://app?vid=0718e7ce-8c3a-4034-8e09-03ef369ed3f4"},"vehicle_type_id":"4","last_reported":1679602054,"current_range_meters":26400,"station_id":"ce4bhnp2rcd13ifvqgvg","pricing_plan_id":"free"},{"bike_id":"add51acb-c10d-43ed-8682-a6b846ded1a9","system_id":"levelo_inurba_marseille","lat":43.240623,"lon":5.377642,"is_reserved":false,"is_disabled":false,"rental_uris":{"android":"levelo://app?vid=add51acb-c10d-43ed-8682-a6b846ded1a9","ios":"levelo://app?vid=add51acb-c10d-43ed-8682-a6b846ded1a9"},"vehicle_type_id":"4","last_reported":1679602054,"current_range_meters":20800,"station_id":"ce4bhnp2rcd13ifvqgvg","pricing_plan_id":"free"},{"bike_id":"c6c9149f-abab-489f-b841-60daa32b8d84","system_id":"levelo_inurba_marseille","lat":43.240623,"lon":5.377642,"is_reserved":false,"is_disabled":false,"rental_uris":{"android":"levelo://app?vid=c6c9149f-abab-489f-b841-60daa32b8d84","ios":"levelo://app?vid=c6c9149f-abab-489f-b841-60daa32b8d84"},"vehicle_type_id":"4","last_reported":1679602054,"current_range_meters":28000,"station_id":"ce4bhnp2rcd13ifvqgvg","pricing_plan_id":"free"},{"bike_id":"04e5f9d0-156c-4a30-9c01-60f3c1aff91c","system_id":"levelo_inurba_marseille","lat":43.240623,"lon":5.377642,"is_reserved":false,"is_disabled":false,"rental_uris":{"android":"levelo://app?vid=04e5f9d0-156c-4a30-9c01-60f3c1aff91c","ios":"levelo://app?vid=04e5f9d0-156c-4a30-9c01-60f3c1aff91c"},"vehicle_type_id":"4","last_reported":1679602054,"current_range_meters":22000,"station_id":"ce4bhnp2rcd13ifvqgvg","pricing_plan_id":"free"},{"bike_id":"0ca4b0f1-7f83-42f7-9494-acb70f0b7a9d","system_id":"levelo_inurba_marseille","lat":43.239588,"lon":5.366238,"is_reserved":false,"is_disabled":false,"rental_uris":{"android":"levelo://app?vid=0ca4b0f1-7f83-42f7-9494-acb70f0b7a9d","ios":"levelo://app?vid=0ca4b0f1-7f83-42f7-9494-acb70f0b7a9d"},"vehicle_type_id":"4","last_reported":1679602054,"current_range_meters":31600,"station_id":"ce4bhi12rcd13ifvqfp0","pricing_plan_id":"free"},{"bike_id":"2bdcc2cb-4dca-4a13-93bc-28e17a1d41af","system_id":"levelo_inurba_marseille","lat":43.239588,"lon":5.366238,"is_reserved":false,"is_disabled":false,"rental_uris":{"android":"levelo://app?vid=2bdcc2cb-4dca-4a13-93bc-28e17a1d41af","ios":"levelo://app?vid=2bdcc2cb-4dca-4a13-93bc-28e17a1d41af"},"vehicle_type_id":"4","last_reported":1679602054,"current_range_meters":31200,"station_id":"ce4bhi12rcd13ifvqfp0","pricing_plan_id":"free"},{"bike_id":"0c0cabda-0d8e-4c6c-a9ee-98575b88d360","system_id":"levelo_inurba_marseille","lat":43.241782,"lon":5.397264,"is_reserved":false,"is_disabled":false,"rental_uris":{"android":"levelo://app?vid=0c0cabda-0d8e-4c6c-a9ee-98575b88d360","ios":"levelo://app?vid=0c0cabda-0d8e-4c6c-a9ee-98575b88d360"},"vehicle_type_id":"4","last_reported":1679602054,"current_range_meters":13200,"station_id":"ce4bhn12rcd13ifvqgpg","pricing_plan_id":"free"},{"bike_id":"728d7313-5eca-4ee1-8b28-5816a350da1a","system_id":"levelo_inurba_marseille","lat":43.23196,"lon":5.35556,"is_reserved":false,"is_disabled":false,"rental_uris":{"android":"levelo://app?vid=728d7313-5eca-4ee1-8b28-5816a350da1a","ios":"levelo://app?vid=728d7313-5eca-4ee1-8b28-5816a350da1a"},"vehicle_type_id":"4","last_reported":1679602054,"current_range_meters":31600,"station_id":"","pricing_plan_id":"free"},{"bike_id":"0a8029e0-76c5-4f31-985c-52e866457d76","system_id":"levelo_inurba_marseille","lat":43.23193,"lon":5.35552,"is_reserved":false,"is_disabled":false,"rental_uris":{"android":"levelo://app?vid=0a8029e0-76c5-4f31-985c-52e866457d76","ios":"levelo://app?vid=0a8029e0-76c5-4f31-985c-52e866457d76"},"vehicle_type_id":"4","last_reported":1679602054,"current_range_meters":11600,"station_id":"","pricing_plan_id":"free"},{"bike_id":"837f9af4-a10e-4042-92f6-53c7cd84136e","system_id":"levelo_inurba_marseille","lat":43.23187,"lon":5.3555,"is_reserved":false,"is_disabled":false,"rental_uris":{"android":"levelo://app?vid=837f9af4-a10e-4042-92f6-53c7cd84136e","ios":"levelo://app?vid=837f9af4-a10e-4042-92f6-53c7cd84136e"},"vehicle_type_id":"4","last_reported":1679602054,"current_range_meters":17200,"station_id":"","pricing_plan_id":"free"}]}}