{"last_updated":1726844954,"ttl":30,"version":"2.2","data":{"bikes":[{"bike_id":"998a7484-cc8d-44b0-8248-ca24acac99ae","system_id":"levelo_inurba_marseille","lat":43.29257,"lon":5.40901,"is_reserved":false,"is_disabled":false,"rental_uris":{"android":"levelo://app?vid=998a7484-cc8d-44b0-8248-ca24acac99ae","ios":"levelo://app?vid=998a7484-cc8d-44b0-8248-ca24acac99ae"},"vehicle_type_id":"4","last_reported":1726844954,"current_range_meters":17600,"station_id":"ce4bh192rcd13ifvqdc0","pricing_plan_id":"cebpf4jnsgd1na2vs0mg"},{"bike_id":"4c7d4d35-c2af-4336-ac11-f8d3b1366c2c","system_id":"levelo_inurba_marseille","lat":43.31358,"lon":5.38493,"is_reserved":false,"is_disabled":false,"rental_uris":{"android":"levelo://app?vid=4c7d4d35-c2af-4336-ac11-f8d3b1366c2c","ios":"levelo://app?vid=4c7d4d35-c2af-4336-ac11-f8d3b1366c2c"},"vehicle_type_id":"4","last_reported":1726844954,"current_range_meters":27200,"station_id":"ce4bgt92rcd13ifvqcf0","pricing_plan_id":"cebpf4jnsgd1na2vs0mg"},{"bike_id":"f207cfa9-5026-4c78-a367-70a27a50fa8c","system_id":"levelo_inurba_marseille","lat":43.25867,"lon":5.39896,"is_reserved":false,"is_disabled":false,"rental_uris":{"android":"levelo://app?vid=f207cfa9-5026-4c78-a367-70a27a50fa8c","ios":"levelo://app?vid=f207cfa9-5026-4c78-a367-70a27a50fa8c"},"vehicle_type_id":"4","last_reported":1726844954,"current_range_meters":9600,"station_id":"ce4bhl92rcd13ifvqghg","pricing_plan_id":"cebpf4jnsgd1na2vs0mg"},{"bike_id":"22200897-3ea5-46a1-ade2-7a4b63217806","system_id":"levelo_inurba_marseille","lat":43.29529,"lon":5.38548,"is_reserved":false,"is_disabled":false,"rental_uris":{"android":"levelo://app?vid=22200897-3ea5-46a1-ade2-7a4b63217806","ios":"levelo://app?vid=22200897-3ea5-46a1-ade2-7a4b63217806"},"vehicle_type_id":"4","last_reported":1726844954,"current_range_meters":38000,"station_id":"ce4bgih2rcd13ifvqba0","pricing_plan_id":"cebpf4jnsgd1na2vs0mg"},{"bike_id":"51529061-99bb-4dcd-be2f-769b02aecd7e","system_id":"levelo_inurba_marseille","lat":43.31171,"lon":5.38719,"is_reserved":false,"is_disabled":false,"rental_uris":{"android":"levelo://app?vid=51529061-99bb-4dcd-be2f-769b02aecd7e","ios":"levelo://app?vid=51529061-99bb-4dcd-be2f-769b02aecd7e"},"vehicle_type_id":"4","last_reported":1726844954,"current_range_meters":38800,"station_id":"ce4bgv12rcd13ifvqcp0","pricing_plan_id":"cebpf4jnsgd1na2vs0mg"},{"bike_id":"9148684d-6098-4abd-a0c9-0464ea75970b","system_id":"levelo_inurba_marseille","lat":43.31077,"lon":5.38361,"is_reserved":false,"is_disabled":false,"rental_uris":{"android":"levelo://app?vid=9148684d-6098-4abd-a0c9-0464ea75970b","ios":"levelo://app?vid=9148684d-6098-4abd-a0c9-0464ea75970b"},"vehicle_type_id":"4","last_reported":1726844954,"current_range_meters":24400,"station_id":"ce4bgv92rcd13ifvqcr0","pricing_plan_id":"cebpf4jnsgd1na2vs0mg"},{"bike_id":"caacc5f9-63ca-414d-9124-88e29a835149","system_id":"levelo_inurba_marseille","lat":43.29851,"lon":5.36286,"is_reserved":false,"is_disabled":false,"rental_uris":{"android":"levelo://app?vid=caacc5f9-63ca-414d-9124-88e29a835149","ios":"levelo://app?vid=caacc5f9-63ca-414d-9124-88e29a835149"},"vehicle_type_id":"4","last_reported":1726844954,"current_range_meters":38400,"station_id":"ce4bgpp2rcd13ifvqc3g","pricing_plan_id":"cebpf4jnsgd1na2vs0mg"},{"bike_id":"5eb090ec-2b95-4c94-8161-eff4c8f0e709","system_id":"levelo_inurba_marseille","lat":43.3248,"lon":5.36562,"is_reserved":false,"is_disabled":false,"rental_uris":{"android":"levelo://app?vid=5eb090ec-2b95-4c94-8161-eff4c8f0e709","ios":"levelo://app?vid=5eb090ec-2b95-4c94-8161-eff4c8f0e709"},"vehicle_type_id":"4","last_reported":1726844954,"current_range_meters":12000,"station_id":"ce4bhs12rcd13ifvqhvg","pricing_plan_id":"cebpf4jnsgd1na2vs0mg"},{"bike_id":"adb53714-3a1f-49cb-90f6-b8af8d03700c","system_id":"levelo_inurba_marseille","lat":43.30459,"lon":5.37898,"is_reserved":false,"is_disabled":false,"rental_uris":{"android":"levelo://app?vid=adb53714-3a1f-49cb-90f6-b8af8d03700c","ios":"levelo://app?vid=adb53714-3a1f-49cb-90f6-b8af8d03700c"},"vehicle_type_id":"4","last_reported":1726844954,"current_range_meters":38800,"station_id":"ce4bgup2rcd13ifvqcn0","pricing_plan_id":"cebpf4jnsgd1na2vs0mg"},{"bike_id":"e20247db-24a1-485e-90f0-8f6b682d3667","system_id":"levelo_inurba_marseille","lat":43.32657,"lon":5.41004,"is_reserved":false,"is_disabled":false,"rental_uris":{"android":"levelo://app?vid=e20247db-24a1-485e-90f0-8f6b682d3667","ios":"levelo://app?vid=e20247db-24a1-485e-90f0-8f6b682d3667"},"vehicle_type_id":"4","last_reported":1726844954,"current_range_meters":6800,"station_id":"ce4bhpp2rcd13ifvqhgg","pricing_plan_id":"cebpf4jnsgd1na2vs0mg"},{"bike_id":"3184acb4-599b-4ef1-8527-2d20a16d8a6a","system_id":"levelo_inurba_marseille","lat":43.26567,"lon":5.39004,"is_reserved":false,"is_disabled":false,"rental_uris":{"android":"levelo://app?vid=3184acb4-599b-4ef1-8527-2d20a16d8a6a","ios":"levelo://app?vid=3184acb4-599b-4ef1-8527-2d20a16d8a6a"},"vehicle_type_id":"4","last_reported":1726844954,"current_range_meters":28400,"station_id":"ce4bhe12rcd13ifvqf30","pricing_plan_id":"cebpf4jnsgd1na2vs0mg"},{"bike_id":"85c2dc7a-89e4-4761-a9ab-a953ed802d70","system_id":"levelo_inurba_marseille","lat":43.27068,"lon":5.42278,"is_reserved":false,"is_disabled":false,"rental_uris":{"android":"levelo://app?vid=85c2dc7a-89e4-4761-a9ab-a953ed802d70","ios":"levelo://app?vid=85c2dc7a-89e4-4761-a9ab-a953ed802d70"},"vehicle_type_id":"4","last_reported":1726844954,"current_range_meters":8400,"station_id":"ce4bhk92rcd13ifvqgb0","pricing_plan_id":"cebpf4jnsgd1na2vs0mg"},{"bike_id":"49f16248-18e8-4962-9435-dad9616472e7","system_id":"levelo_inurba_marseille","lat":43.27371,"lon":5.36247,"is_reserved":false,"is_disabled":false,"rental_uris":{"android":"levelo://app?vid=49f16248-18e8-4962-9435-dad9616472e7","ios":"levelo://app?vid=49f16248-18e8-4962-9435-dad9616472e7"},"vehicle_type_id":"4","last_reported":1726844954,"current_range_meters":38800,"station_id":"ce4bhbh2rcd13ifvqeo0","pricing_plan_id":"cebpf4jnsgd1na2vs0mg"},{"bike_id":"ff35890d-b554-4d05-bdf1-94a62004aa36","system_id":"levelo_inurba_marseille","lat":43.29933,"lon":5.36537,"is_reserved":false,"is_disabled":false,"rental_uris":{"android":"levelo://app?vid=ff35890d-b554-4d05-bdf1-94a62004aa36","ios":"levelo://app?vid=ff35890d-b554-4d05-bdf1-94a62004aa36"},"vehicle_type_id":"4","last_reported":1726844954,"current_range_meters":16800,"station_id":"ce4bgm92rcd13ifvqbr0","pricing_plan_id":"cebpf4jnsgd1na2vs0mg"},{"bike_id":"0c727f18-7eb4-479b-a38c-2746903fc6ab","system_id":"levelo_inurba_marseille","lat":43.27366,"lon":5.36243,"is_reserved":false,"is_disabled":false,"rental_uris":{"android":"levelo://app?vid=0c727f18-7eb4-479b-a38c-2746903fc6ab","ios":"levelo://app?vid=0c727f18-7eb4-479b-a38c-2746903fc6ab"},"vehicle_type_id":"4","last_reported":1726844954,"current_range_meters":9600,"station_id":"ce4bhbh2rcd13ifvqeo0","pricing_plan_id":"cebpf4jnsgd1na2vs0mg"},{"bike_id":"2bb2fe92-81e6-4e84-988c-6a71373078f5","system_id":"levelo_inurba_marseille","lat":43.289917,"lon":5.355763,"is_reserved":false,"is_disabled":false,"rental_uris":{"android":"levelo://app?vid=2bb2fe92-81e6-4e84-988c-6a71373078f5","ios":"levelo://app?vid=2bb2fe92-81e6-4e84-988c-6a71373078f5"},"vehicle_type_id":"4","last_reported":1726844954,"current_range_meters":36400,"station_id":"ce4bhb92rcd13ifvqen0","pricing_plan_id":"cebpf4jnsgd1na2vs0mg"},{"bike_id":"d26e0674-4f12-40af-950b-817215364b2a","system_id":"levelo_inurba_marseille","lat":43.30413,"lon":5.3688,"is_reserved":false,"is_disabled":false,"rental_uris":{"android":"levelo://app?vid=d26e0674-4f12-40af-950b-817215364b2a","ios":"levelo://app?vid=d26e0674-4f12-40af-950b-817215364b2a"},"vehicle_type_id":"4","last_reported":1726844954,"current_range_meters":24800,"station_id":"","pricing_plan_id":"cebpf4jnsgd1na2vs0mg"},{"bike_id":"92a6f63b-d184-47a9-95a4-8258a89e21ed","system_id":"levelo_inurba_marseille","lat":43.29002,"lon":5.3561,"is_reserved":false,"is_disabled":false,"rental_uris":{"android":"levelo://app?vid=92a6f63b-d184-47a9-95a4-8258a89e21ed","ios":"levelo://app?vid=92a6f63b-d184-47a9-95a4-8258a89e21ed"},"vehicle_type_id":"4","last_reported":1726844954,"current_range_meters":6400,"station_id":"ce4bhb92rcd13ifvqen0","pricing_plan_id":"cebpf4jnsgd1na2vs0mg"},{"bike_id":"31dfc089-94ca-4ef9-93f3-03766d2171a0","system_id":"levelo_inurba_marseille","lat":43.28082,"lon":5.39662,"is_reserved":false,"is_disabled":false,"rental_uris":{"android":"levelo://app?vid=31dfc089-94ca-4ef9-93f3-03766d2171a0","ios":"levelo://app?vid=31dfc089-94ca-4ef9-93f3-03766d2171a0"},"vehicle_type_id":"4","last_reported":1726844954,"current_range_meters":4800,"station_id":"ce4bho12rcd13ifvqh2g","pricing_plan_id":"cebpf4jnsgd1na2vs0mg"},{"bike_id":"d75e7882-7478-4d49-8559-e4046318e730","system_id":"levelo_inurba_marseille","lat":43.28704,"lon":5.37386,"is_reserved":false,"is_disabled":false,"rental_uris":{"android":"levelo://app?vid=d75e7882-7478-4d49-8559-e4046318e730","ios":"levelo://app?vid=d75e7882-7478-4d49-8559-e4046318e730"},"vehicle_type_id":"4","last_reported":1726844954,"current_range_meters":36800,"station_id":"ce4bh3p2rcd13ifvqdq0","pricing_plan_id":"cebpf4jnsgd1na2vs0mg"},{"bike_id":"525d65ad-c68a-4bc7-81da-ac1570ffba9c","system_id":"levelo_inurba_marseille","lat":43.32365,"lon":5.38885,"is_reserved":false,"is_disabled":false,"rental_uris":{"android":"levelo://app?vid=525d65ad-c68a-4bc7-81da-ac1570ffba9c","ios":"levelo://app?vid=525d65ad-c68a-4bc7-81da-ac1570ffba9c"},"vehicle_type_id":"4","last_reported":1726844954,"current_range_meters":6400,"station_id":"ce4bhqp2rcd13ifvqhog","pricing_plan_id":"cebpf4jnsgd1na2vs0mg"},{"bike_id":"3c8f1d98-83a2-4ee1-806c-b7694a6925f4","system_id":"levelo_inurba_marseille","lat":43.29358,"lon":5.37834,"is_reserved":false,"is_disabled":false,"rental_uris":{"android":"levelo://app?vid=3c8f1d98-83a2-4ee1-806c-b7694a6925f4","ios":"levelo://app?vid=3c8f1d98-83a2-4ee1-806c-b7694a6925f4"},"vehicle_type_id":"4","last_reported":1726844954,"current_range_meters":6800,"station_id":"ce4bgjh2rcd13ifvqbf0","pricing_plan_id":"cebpf4jnsgd1na2vs0mg"},{"bike_id":"68925a1a-2f5c-431f-9b33-d8dddae89e1e","system_id":"levelo_inurba_marseille","lat":43.29256,"lon":5.40919,"is_reserved":false,"is_disabled":false,"rental_uris":{"android":"levelo://app?vid=68925a1a-2f5c-431f-9b33-d8dddae89e1e","ios":"levelo://app?vid=68925a1a-2f5c-431f-9b33-d8dddae89e1e"},"vehicle_type_id":"4","last_reported":1726844954,"current_range_meters":36400,"station_id":"ce4bh192rcd13ifvqdc0","pricing_plan_id":"cebpf4jnsgd1na2vs0mg"},{"bike_id":"29893c38-7ab5-45c3-ae0e-2dbc5c8477fd","system_id":"levelo_inurba_marseille","lat":43.28269,"lon":5.35056,"is_reserved":false,"is_disabled":false,"rental_uris":{"android":"levelo://app?vid=29893c38-7ab5-45c3-ae0e-2dbc5c8477fd","ios":"levelo://app?vid=29893c38-7ab5-45c3-ae0e-2dbc5c8477fd"},"vehicle_type_id":"4","last_reported":1726844954,"current_range_meters":24400,"station_id":"ce4bhbp2rcd13ifvqerg","pricing_plan_id":"cebpf4jnsgd1na2vs0mg"},{"bike_id":"2081ed93-bb5f-4954-b027-3ca7682b6deb","system_id":"levelo_inurba_marseille","lat":43.28036,"lon":5.36951,"is_reserved":false,"is_disabled":false,"rental_uris":{"android":"levelo://app?vid=2081ed93-bb5f-4954-b027-3ca7682b6deb","ios":"levelo://app?vid=2081ed93-bb5f-4954-b027-3ca7682b6deb"},"vehicle_type_id":"4","last_reported":1726844954,"current_range_meters":29600,"station_id":"ce4bha12rcd13ifvqef0","pricing_plan_id":"cebpf4jnsgd1na2vs0mg"},{"bike_id":"6d4e2dc3-7d2c-43bd-96b9-92881bcd370d","system_id":"levelo_inurba_marseille","lat":43.30785,"lon":5.37652,"is_reserved":false,"is_disabled":false,"rental_uris":{"android":"levelo://app?vid=6d4e2dc3-7d2c-43bd-96b9-92881bcd370d","ios":"levelo://app?vid=6d4e2dc3-7d2c-43bd-96b9-92881bcd370d"},"vehicle_type_id":"4","last_reported":1726844954,"current_range_meters":34000,"station_id":"ce4bgv92rcd13ifvqcq0","pricing_plan_id":"cebpf4jnsgd1na2vs0mg"},{"bike_id":"e3157b7d-f63e-4215-9b0b-bec081b31a83","system_id":"levelo_inurba_marseille","lat":43.32478,"lon":5.36567,"is_reserved":false,"is_disabled":false,"rental_uris":{"android":"levelo://app?vid=e3157b7d-f63e-4215-9b0b-bec081b31a83","ios":"levelo://app?vid=e3157b7d-f63e-4215-9b0b-bec081b31a83"},"vehicle_type_id":"4","last_reported":1726844954,"current_range_meters":4800,"station_id":"ce4bhs12rcd13ifvqhvg","pricing_plan_id":"cebpf4jnsgd1na2vs0mg"},{"bike_id":"adb713a6-5233-4d7c-a80b-cd217bb78616","system_id":"levelo_inurba_marseille","lat":43.32114,"lon":5.36767,"is_reserved":false,"is_disabled":false,"rental_uris":{"android":"levelo://app?vid=adb713a6-5233-4d7c-a80b-cd217bb78616","ios":"levelo://app?vid=adb713a6-5233-4d7c-a80b-cd217bb78616"},"vehicle_type_id":"4","last_reported":1726844954,"current_range_meters":22400,"station_id":"","pricing_plan_id":"cebpf4jnsgd1na2vs0mg"},{"bike_id":"41c671e7-0e66-43cb-9530-7ee82056ea98","system_id":"levelo_inurba_marseille","lat":43.30788,"lon":5.37653,"is_reserved":false,"is_disabled":false,"rental_uris":{"android":"levelo://app?vid=41c671e7-0e66-43cb-9530-7ee82056ea98","ios":"levelo://app?vid=41c671e7-0e66-43cb-9530-7ee82056ea98"},"vehicle_type_id":"4","last_reported":1726844954,"current_range_meters":29600,"station_id":"ce4bgv92rcd13ifvqcq0","pricing_plan_id":"cebpf4jnsgd1na2vs0mg"},{"bike_id":"edfb1ff5-b81b-4225-8da9-100a9115b1e3","system_id":"levelo_inurba_marseille","lat":43.29735,"lon":5.36561,"is_reserved":false,"is_disabled":false,"rental_uris":{"android":"levelo://app?vid=edfb1ff5-b81b-4225-8da9-100a9115b1e3","ios":"levelo://app?vid=edfb1ff5-b81b-4225-8da9-100a9115b1e3"},"vehicle_type_id":"4","last_reported":1726844954,"current_range_meters":12400,"station_id":"","pricing_plan_id":"cebpf4jnsgd1na2vs0mg"},{"bike_id":"15e3060d-1cfb-481c-9f48-257a94bd2c2a","system_id":"levelo_inurba_marseille","lat":43.32477,"lon":5.40757,"is_reserved":false,"is_disabled":false,"rental_uris":{"android":"levelo://app?vid=15e3060d-1cfb-481c-9f48-257a94bd2c2a","ios":"levelo://app?vid=15e3060d-1cfb-481c-9f48-257a94bd2c2a"},"vehicle_type_id":"4","last_reported":1726844954,"current_range_meters":36800,"station_id":"","pricing_plan_id":"cebpf4jnsgd1na2vs0mg"},{"bike_id":"c8558a3e-0779-4454-9c3b-d1ee2706fdca","system_id":"levelo_inurba_marseille","lat":43.3171,"lon":5.43706,"is_reserved":false,"is_disabled":false,"rental_uris":{"android":"levelo://app?vid=c8558a3e-0779-4454-9c3b-d1ee2706fdca","ios":"levelo://app?vid=c8558a3e-0779-4454-9c3b-d1ee2706fdca"},"vehicle_type_id":"4","last_reported":1726844954,"current_range_meters":28800,"station_id":"ce4bhp92rcd13ifvqhcg","pricing_plan_id":"cebpf4jnsgd1na2vs0mg"},{"bike_id":"079879f6-c97f-43c2-a9a1-335070207417","system_id":"levelo_inurba_marseille","lat":43.2903,"lon":5.37561,"is_reserved":false,"is_disabled":false,"rental_uris":{"android":"levelo://app?vid=079879f6-c97f-43c2-a9a1-335070207417","ios":"levelo://app?vid=079879f6-c97f-43c2-a9a1-335070207417"},"vehicle_type_id":"4","last_reported":1726844954,"current_range_meters":30000,"station_id":"ce4bh692rcd13ifvqe90","pricing_plan_id":"cebpf4jnsgd1na2vs0mg"},{"bike_id":"e582a5d1-2966-45ba-8384-176440b2fa73","system_id":"levelo_inurba_marseille","lat":43.27946,"lon":5.41048,"is_reserved":false,"is_disabled":false,"rental_uris":{"android":"levelo://app?vid=e582a5d1-2966-45ba-8384-176440b2fa73","ios":"levelo://app?vid=e582a5d1-2966-45ba-8384-176440b2fa73"},"vehicle_type_id":"4","last_reported":1726844954,"current_range_meters":34000,"station_id":"ce4bhnp2rcd13ifvqh0g","pricing_plan_id":"cebpf4jnsgd1na2vs0mg"},{"bike_id":"bcfaceec-fb62-47a8-ad2f-d547fd82bb2b","system_id":"levelo_inurba_marseille","lat":43.31325,"lon":5.39689,"is_reserved":false,"is_disabled":false,"rental_uris":{"android":"levelo://app?vid=bcfaceec-fb62-47a8-ad2f-d547fd82bb2b","ios":"levelo://app?vid=bcfaceec-fb62-47a8-ad2f-d547fd82bb2b"},"vehicle_type_id":"4","last_reported":1726844954,"current_range_meters":5600,"station_id":"ce4bgvp2rcd13ifvqcu0","pricing_plan_id":"cebpf4jnsgd1na2vs0mg"},{"bike_id":"a5e63d65-9123-49ad-81ab-17e5f8e15996","system_id":"levelo_inurba_marseille","lat":43.29857,"lon":5.36287,"is_reserved":false,"is_disabled":false,"rental_uris":{"android":"levelo://app?vid=a5e63d65-9123-49ad-81ab-17e5f8e15996","ios":"levelo://app?vid=a5e63d65-9123-49ad-81ab-17e5f8e15996"},"vehicle_type_id":"4","last_reported":1726844954,"current_range_meters":38800,"station_id":"ce4bgpp2rcd13ifvqc3g","pricing_plan_id":"cebpf4jnsgd1na2vs0mg"},{"bike_id":"f135affe-327c-4f0e-932b-f321d3062cb2","system_id":"levelo_inurba_marseille","lat":43.27173,"lon":5.40995,"is_reserved":false,"is_disabled":false,"rental_uris":{"android":"levelo://app?vid=f135affe-327c-4f0e-932b-f321d3062cb2","ios":"levelo://app?vid=f135affe-327c-4f0e-932b-f321d3062cb2"},"vehicle_type_id":"4","last_reported":1726844954,"current_range_meters":38400,"station_id":"ce4bhl12rcd13ifvqgf0","pricing_plan_id":"cebpf4jnsgd1na2vs0mg"},{"bike_id":"f4cbed7e-0bf4-4a77-8922-021dda175a23","system_id":"levelo_inurba_marseille","lat":43.2396,"lon":5.36621,"is_reserved":false,"is_disabled":false,"rental_uris":{"android":"levelo://app?vid=f4cbed7e-0bf4-4a77-8922-021dda175a23","ios":"levelo://app?vid=f4cbed7e-0bf4-4a77-8922-021dda175a23"},"vehicle_type_id":"4","last_reported":1726844954,"current_range_meters":22000,"station_id":"ce4bhi12rcd13ifvqfp0","pricing_plan_id":"cebpf4jnsgd1na2vs0mg"},{"bike_id":"c86cdcbb-758d-412e-9505-2f06bda56ee1","system_id":"levelo_inurba_marseille","lat":43.27369,"lon":5.36253,"is_reserved":false,"is_disabled":false,"rental_uris":{"android":"levelo://app?vid=c86cdcbb-758d-412e-9505-2f06bda56ee1","ios":"levelo://app?vid=c86cdcbb-758d-412e-9505-2f06bda56ee1"},"vehicle_type_id":"4","last_reported":1726844954,"current_range_meters":24000,"station_id":"ce4bhbh2rcd13ifvqeo0","pricing_plan_id":"cebpf4jnsgd1na2vs0mg"},{"bike_id":"840b79d3-e38a-4640-a966-17a771368a59","system_id":"levelo_inurba_marseille","lat":43.30601,"lon":5.37219,"is_reserved":false,"is_disabled":false,"rental_uris":{"android":"levelo://app?vid=840b79d3-e38a-4640-a966-17a771368a59","ios":"levelo://app?vid=840b79d3-e38a-4640-a966-17a771368a59"},"vehicle_type_id":"4","last_reported":1726844954,"current_range_meters":24000,"station_id":"ce4bgqh2rcd13ifvqc4g","pricing_plan_id":"cebpf4jnsgd1na2vs0mg"},{"bike_id":"c6a7d0d4-9126-4409-9682-2f517f5716c2","system_id":"levelo_inurba_marseille","lat":43.29711,"lon":5.36599,"is_reserved":false,"is_disabled":false,"rental_uris":{"android":"levelo://app?vid=c6a7d0d4-9126-4409-9682-2f517f5716c2","ios":"levelo://app?vid=c6a7d0d4-9126-4409-9682-2f517f5716c2"},"vehicle_type_id":"4","last_reported":1726844954,"current_range_meters":17200,"station_id":"ce4bgn12rcd13ifvqbt0","pricing_plan_id":"cebpf4jnsgd1na2vs0mg"},{"bike_id":"939d8f63-8ae2-41f8-85b5-eafb54fe50cf","system_id":"levelo_inurba_marseille","lat":43.28612,"lon":5.35103,"is_reserved":false,"is_disabled":false,"rental_uris":{"android":"levelo://app?vid=939d8f63-8ae2-41f8-85b5-eafb54fe50cf","ios":"levelo://app?vid=939d8f63-8ae2-41f8-85b5-eafb54fe50cf"},"vehicle_type_id":"4","last_reported":1726844954,"current_range_meters":10800,"station_id":"ce4bhch2rcd13ifvqeug","pricing_plan_id":"cebpf4jnsgd1na2vs0mg"},{"bike_id":"2cb4f251-f35d-4e29-94b8-afc7eae6cd7c","system_id":"levelo_inurba_marseille","lat":43.24386,"lon":5.3706,"is_reserved":false,"is_disabled":false,"rental_uris":{"android":"levelo://app?vid=2cb4f251-f35d-4e29-94b8-afc7eae6cd7c","ios":"levelo://app?vid=2cb4f251-f35d-4e29-94b8-afc7eae6cd7c"},"vehicle_type_id":"4","last_reported":1726844954,"current_range_meters":23200,"station_id":"ce4bhhh2rcd13ifvqfk0","pricing_plan_id":"cebpf4jnsgd1na2vs0mg"},{"bike_id":"259bfa06-4d23-4399-8dd4-bf1e91b042d9","system_id":"levelo_inurba_marseille","lat":43.29578,"lon":5.36734,"is_reserved":false,"is_disabled":false,"rental_uris":{"android":"levelo://app?vid=259bfa06-4d23-4399-8dd4-bf1e91b042d9","ios":"levelo://app?vid=259bfa06-4d23-4399-8dd4-bf1e91b042d9"},"vehicle_type_id":"4","last_reported":1726844954,"current_range_meters":30400,"station_id":"ce4bgph2rcd13ifvqc2g","pricing_plan_id":"cebpf4jnsgd1na2vs0mg"},{"bike_id":"871ad559-06be-41da-9091-3cb14eadaf71","system_id":"levelo_inurba_marseille","lat":43.30548,"lon":5.41793,"is_reserved":false,"is_disabled":false,"rental_uris":{"android":"levelo://app?vid=871ad559-06be-41da-9091-3cb14eadaf71","ios":"levelo://app?vid=871ad559-06be-41da-9091-3cb14eadaf71"},"vehicle_type_id":"4","last_reported":1726844954,"current_range_meters":4400,"station_id":"ce4bhop2rcd13ifvqh8g","pricing_plan_id":"cebpf4jnsgd1na2vs0mg"},{"bike_id":"63982f7e-3958-4f22-8088-e2ab959ba11e","system_id":"levelo_inurba_marseille","lat":43.231837,"lon":5.399843,"is_reserved":false,"is_disabled":false,"rental_uris":{"android":"levelo://app?vid=63982f7e-3958-4f22-8088-e2ab959ba11e","ios":"levelo://app?vid=63982f7e-3958-4f22-8088-e2ab959ba11e"},"vehicle_type_id":"4","last_reported":1726844954,"current_range_meters":38800,"station_id":"ce4bhn12rcd13ifvqgqg","pricing_plan_id":"cebpf4jnsgd1na2vs0mg"},{"bike_id":"f9b2adf8-75ee-4ba7-a703-94f6aeaac232","system_id":"levelo_inurba_marseille","lat":43.29957,"lon":5.41321,"is_reserved":false,"is_disabled":false,"rental_uris":{"android":"levelo://app?vid=f9b2adf8-75ee-4ba7-a703-94f6aeaac232","ios":"levelo://app?vid=f9b2adf8-75ee-4ba7-a703-94f6aeaac232"},"vehicle_type_id":"4","last_reported":1726844954,"current_range_meters":25200,"station_id":"ce4bhp12rcd13ifvqh9g","pricing_plan_id":"cebpf4jnsgd1na2vs0mg"},{"bike_id":"5419b1bf-d37c-4076-a34c-52ede101758e","system_id":"levelo_inurba_marseille","lat":43.337444,"lon":5.374475,"is_reserved":false,"is_disabled":false,"rental_uris":{"android":"levelo://app?vid=5419b1bf-d37c-4076-a34c-52ede101758e","ios":"levelo://app?vid=5419b1bf-d37c-4076-a34c-52ede101758e"},"vehicle_type_id":"4","last_reported":1726844954,"current_range_meters":36400,"station_id":"","pricing_plan_id":"cebpf4jnsgd1na2vs0mg"},{"bike_id":"930df229-a4fc-46c0-980c-29c1519b09ed","system_id":"levelo_inurba_marseille","lat":43.32367,"lon":5.38891,"is_reserved":false,"is_disabled":false,"rental_uris":{"android":"levelo://app?vid=930df229-a4fc-46c0-980c-29c1519b09ed","ios":"levelo://app?vid=930df229-a4fc-46c0-980c-29c1519b09ed"},"vehicle_type_id":"4","last_reported":1726844954,"current_range_meters":20400,"station_id":"ce4bhqp2rcd13ifvqhog","pricing_plan_id":"cebpf4jnsgd1na2vs0mg"},{"bike_id":"d100d433-68bf-4855-90e8-b7aa028c66a6","system_id":"levelo_inurba_marseille","lat":43.25865,"lon":5.39903,"is_reserved":false,"is_disabled":false,"rental_uris":{"android":"levelo://app?vid=d100d433-68bf-4855-90e8-b7aa028c66a6","ios":"levelo://app?vid=d100d433-68bf-4855-90e8-b7aa028c66a6"},"vehicle_type_id":"4","last_reported":1726844954,"current_range_meters":24400,"station_id":"ce4bhl92rcd13ifvqghg","pricing_plan_id":"cebpf4jnsgd1na2vs0mg"},{"bike_id":"024ad3a5-2d37-4e06-9821-c40e175722b3","system_id":"levelo_inurba_marseille","lat":43.2971,"lon":5.36602,"is_reserved":false,"is_disabled":false,"rental_uris":{"android":"levelo://app?vid=024ad3a5-2d37-4e06-9821-c40e175722b3","ios":"levelo://app?vid=024ad3a5-2d37-4e06-9821-c40e175722b3"},"vehicle_type_id":"4","last_reported":1726844954,"current_range_meters":25600,"station_id":"ce4bgn12rcd13ifvqbt0","pricing_plan_id":"cebpf4jnsgd1na2vs0mg"},{"bike_id":"6716c3d1-091d-47b2-aef1-1262452066fc","system_id":"levelo_inurba_marseille","lat":43.29897,"lon":5.43665,"is_reserved":false,"is_disabled":false,"rental_uris":{"android":"levelo://app?vid=6716c3d1-091d-47b2-aef1-1262452066fc","ios":"levelo://app?vid=6716c3d1-091d-47b2-aef1-1262452066fc"},"vehicle_type_id":"4","last_reported":1726844954,"current_range_meters":8400,"station_id":"ce4bhpp2rcd13ifvqhfg","pricing_plan_id":"cebpf4jnsgd1na2vs0mg"},{"bike_id":"3a96d09e-c166-4bfd-bab1-488bac9bb29c","system_id":"levelo_inurba_marseille","lat":43.29907,"lon":5.3747,"is_reserved":false,"is_disabled":false,"rental_uris":{"android":"levelo://app?vid=3a96d09e-c166-4bfd-bab1-488bac9bb29c","ios":"levelo://app?vid=3a96d09e-c166-4bfd-bab1-488bac9bb29c"},"vehicle_type_id":"4","last_reported":1726844954,"current_range_meters":32000,"station_id":"ce4bgjh2rcd13ifvqbg0","pricing_plan_id":"cebpf4jnsgd1na2vs0mg"},{"bike_id":"4d2bd7fd-dfdf-4515-be1e-c257ecc849e2","system_id":"levelo_inurba_marseille","lat":43.30784,"lon":5.37649,"is_reserved":false,"is_disabled":false,"rental_uris":{"android":"levelo://app?vid=4d2bd7fd-dfdf-4515-be1e-c257ecc849e2","ios":"levelo://app?vid=4d2bd7fd-dfdf-4515-be1e-c257ecc849e2"},"vehicle_type_id":"4","last_reported":1726844954,"current_range_meters":38800,"station_id":"ce4bgv92rcd13ifvqcq0","pricing_plan_id":"cebpf4jnsgd1na2vs0mg"},{"bike_id":"67c7c919-c960-4270-9167-08f0b52b0f6e","system_id":"levelo_inurba_marseille","lat":43.28474,"lon":5.35881,"is_reserved":false,"is_disabled":false,"rental_uris":{"android":"levelo://app?vid=67c7c919-c960-4270-9167-08f0b52b0f6e","ios":"levelo://app?vid=67c7c919-c960-4270-9167-08f0b52b0f6e"},"vehicle_type_id":"4","last_reported":1726844954,"current_range_meters":8400,"station_id":"ce4bhah2rcd13ifvqei0","pricing_plan_id":"cebpf4jnsgd1na2vs0mg"},{"bike_id":"96c37ed9-25bf-449a-b417-c8a282ddaa88","system_id":"levelo_inurba_marseille","lat":43.283966,"lon":5.375081,"is_reserved":false,"is_disabled":false,"rental_uris":{"android":"levelo://app?vid=96c37ed9-25bf-449a-b417-c8a282ddaa88","ios":"levelo://app?vid=96c37ed9-25bf-449a-b417-c8a282ddaa88"},"vehicle_type_id":"4","last_reported":1726844954,"current_range_meters":25200,"station_id":"ce4bh412rcd13ifvqds0","pricing_plan_id":"cebpf4jnsgd1na2vs0mg"},{"bike_id":"ff2f17af-2dd2-411a-826e-0697f34df808","system_id":"levelo_inurba_marseille","lat":43.286133,"lon":5.351058,"is_reserved":false,"is_disabled":false,"rental_uris":{"android":"levelo://app?vid=ff2f17af-2dd2-411a-826e-0697f34df808","ios":"levelo://app?vid=ff2f17af-2dd2-411a-826e-0697f34df808"},"vehicle_type_id":"4","last_reported":1726844954,"current_range_meters":34000,"station_id":"ce4bhch2rcd13ifvqeug","pricing_plan_id":"cebpf4jnsgd1na2vs0mg"},{"bike_id":"af42f746-66d2-45b8-9e58-3721ab0e338d","system_id":"levelo_inurba_marseille","lat":43.23195,"lon":5.35565,"is_reserved":false,"is_disabled":false,"rental_uris":{"android":"levelo://app?vid=af42f746-66d2-45b8-9e58-3721ab0e338d","ios":"levelo://app?vid=af42f746-66d2-45b8-9e58-3721ab0e338d"},"vehicle_type_id":"4","last_reported":1726844954,"current_range_meters":8000,"station_id":"ce4bhu92rcd13ifvqi70","pricing_plan_id":"cebpf4jnsgd1na2vs0mg"},{"bike_id":"d06c8ab8-e81c-4035-ae61-9f66221f0cad","system_id":"levelo_inurba_marseille","lat":43.3236,"lon":5.38877,"is_reserved":false,"is_disabled":false,"rental_uris":{"android":"levelo://app?vid=d06c8ab8-e81c-4035-ae61-9f66221f0cad","ios":"levelo://app?vid=d06c8ab8-e81c-4035-ae61-9f66221f0cad"},"vehicle_type_id":"4","last_reported":1726844954,"current_range_meters":38800,"station_id":"ce4bhqp2rcd13ifvqhog","pricing_plan_id":"cebpf4jnsgd1na2vs0mg"},{"bike_id":"f2e30d08-21b9-4ec9-8cdc-bb0f33f2785d","system_id":"levelo_inurba_marseille","lat":43.31356,"lon":5.38489,"is_reserved":false,"is_disabled":false,"rental_uris":{"android":"levelo://app?vid=f2e30d08-21b9-4ec9-8cdc-bb0f33f2785d","ios":"levelo://app?vid=f2e30d08-21b9-4ec9-8cdc-bb0f33f2785d"},"vehicle_type_id":"4","last_reported":1726844954,"current_range_meters":14800,"station_id":"ce4bgt92rcd13ifvqcf0","pricing_plan_id":"cebpf4jnsgd1na2vs0mg"},{"bike_id":"b4d90691-b2ae-447e-84f7-f1a017bf250a","system_id":"levelo_inurba_marseille","lat":43.26555,"lon":5.37286,"is_reserved":false,"is_disabled":false,"rental_uris":{"android":"levelo://app?vid=b4d90691-b2ae-447e-84f7-f1a017bf250a","ios":"levelo://app?vid=b4d90691-b2ae-447e-84f7-f1a017bf250a"},"vehicle_type_id":"4","last_reported":1726844954,"current_range_meters":10800,"station_id":"ce4bhg12rcd13ifvqf70","pricing_plan_id":"cebpf4jnsgd1na2vs0mg"},{"bike_id":"0a8e3b15-a9b5-45e4-89e4-9e5efd9a94d5","system_id":"levelo_inurba_marseille","lat":43.3078,"lon":5.37649,"is_reserved":false,"is_disabled":false,"rental_uris":{"android":"levelo://app?vid=0a8e3b15-a9b5-45e4-89e4-9e5efd9a94d5","ios":"levelo://app?vid=0a8e3b15-a9b5-45e4-89e4-9e5efd9a94d5"},"vehicle_type_id":"4","last_reported":1726844954,"current_range_meters":22800,"station_id":"ce4bgv92rcd13ifvqcq0","pricing_plan_id":"cebpf4jnsgd1na2vs0mg"},{"bike_id":"961f32de-d08e-450b-bc9c-c8214d82bf20","system_id":"levelo_inurba_marseille","lat":43.29621,"lon":5.37722,"is_reserved":false,"is_disabled":false,"rental_uris":{"android":"levelo://app?vid=961f32de-d08e-450b-bc9c-c8214d82bf20","ios":"levelo://app?vid=961f32de-d08e-450b-bc9c-c8214d82bf20"},"vehicle_type_id":"4","last_reported":1726844954,"current_range_meters":16800,"station_id":"ce4bgi92rcd13ifvqb90","pricing_plan_id":"cebpf4jnsgd1na2vs0mg"},{"bike_id":"bd248bc7-a1a6-4c83-92d3-231a636890e1","system_id":"levelo_inurba_marseille","lat":43.308,"lon":5.43523,"is_reserved":false,"is_disabled":false,"rental_uris":{"android":"levelo://app?vid=bd248bc7-a1a6-4c83-92d3-231a636890e1","ios":"levelo://app?vid=bd248bc7-a1a6-4c83-92d3-231a636890e1"},"vehicle_type_id":"4","last_reported":1726844954,"current_range_meters":38800,"station_id":"ce4bhph2rcd13ifvqheg","pricing_plan_id":"cebpf4jnsgd1na2vs0mg"},{"bike_id":"ebf410d1-cb7f-4a63-84bb-1e39657cb4be","system_id":"levelo_inurba_marseille","lat":43.2904,"lon":5.3755,"is_reserved":false,"is_disabled":false,"rental_uris":{"android":"levelo://app?vid=ebf410d1-cb7f-4a63-84bb-1e39657cb4be","ios":"levelo://app?vid=ebf410d1-cb7f-4a63-84bb-1e39657cb4be"},"vehicle_type_id":"4","last_reported":1726844954,"current_range_meters":18000,"station_id":"","pricing_plan_id":"cebpf4jnsgd1na2vs0mg"},{"bike_id":"604c9531-be4f-4974-bfe2-bd7828d7386f","system_id":"levelo_inurba_marseille","lat":43.29896,"lon":5.43673,"is_reserved":false,"is_disabled":false,"rental_uris":{"android":"levelo://app?vid=604c9531-be4f-4974-bfe2-bd7828d7386f","ios":"levelo://app?vid=604c9531-be4f-4974-bfe2-bd7828d7386f"},"vehicle_type_id":"4","last_reported":1726844954,"current_range_meters":27600,"station_id":"ce4bhpp2rcd13ifvqhfg","pricing_plan_id":"cebpf4jnsgd1na2vs0mg"},{"bike_id":"44da3e59-dcf2-4354-910f-f3fece0ed467","system_id":"levelo_inurba_marseille","lat":43.27064,"lon":5.42275,"is_reserved":false,"is_disabled":false,"rental_uris":{"android":"levelo://app?vid=44da3e59-dcf2-4354-910f-f3fece0ed467","ios":"levelo://app?vid=44da3e59-dcf2-4354-910f-f3fece0ed467"},"vehicle_type_id":"4","last_reported":1726844954,"current_range_meters":36800,"station_id":"ce4bhk92rcd13ifvqgb0","pricing_plan_id":"cebpf4jnsgd1na2vs0mg"},{"bike_id":"3fca3dc8-2ad6-4426-ac2c-4336fe7ea757","system_id":"levelo_inurba_marseille","lat":43.30775,"lon":5.37656,"is_reserved":false,"is_disabled":false,"rental_uris":{"android":"levelo://app?vid=3fca3dc8-2ad6-4426-ac2c-4336fe7ea757","ios":"levelo://app?vid=3fca3dc8-2ad6-4426-ac2c-4336fe7ea757"},"vehicle_type_id":"4","last_reported":1726844954,"current_range_meters":33200,"station_id":"ce4bgv92rcd13ifvqcq0","pricing_plan_id":"cebpf4jnsgd1na2vs0mg"},{"bike_id":"5f46c1ea-5c09-4ef3-b524-77a78e8b047e","system_id":"levelo_inurba_marseille","lat":43.29528,"lon":5.38545,"is_reserved":false,"is_disabled":false,"rental_uris":{"android":"levelo://app?vid=5f46c1ea-5c09-4ef3-b524-77a78e8b047e","ios":"levelo://app?vid=5f46c1ea-5c09-4ef3-b524-77a78e8b047e"},"vehicle_type_id":"4","last_reported":1726844954,"current_range_meters":27200,"station_id":"ce4bho92rcd13ifvqh3g","pricing_plan_id":"cebpf4jnsgd1na2vs0mg"},{"bike_id":"65f59255-0952-48e2-9fff-d14d4696f5e0","system_id":"levelo_inurba_marseille","lat":43.29902,"lon":5.38145,"is_reserved":false,"is_disabled":false,"rental_uris":{"android":"levelo://app?vid=65f59255-0952-48e2-9fff-d14d4696f5e0","ios":"levelo://app?vid=65f59255-0952-48e2-9fff-d14d4696f5e0"},"vehicle_type_id":"4","last_reported":1726844954,"current_range_meters":24000,"station_id":"ce4bgj12rcd13ifvqbc0","pricing_plan_id":"cebpf4jnsgd1na2vs0mg"},{"bike_id":"b9cc13e7-39e5-4f2f-962a-fd66b18f1054","system_id":"levelo_inurba_marseille","lat":43.27172,"lon":5.40999,"is_reserved":false,"is_disabled":false,"rental_uris":{"android":"levelo://app?vid=b9cc13e7-39e5-4f2f-962a-fd66b18f1054","ios":"levelo://app?vid=b9cc13e7-39e5-4f2f-962a-fd66b18f1054"},"vehicle_type_id":"4","last_reported":1726844954,"current_range_meters":23200,"station_id":"ce4bhl12rcd13ifvqgf0","pricing_plan_id":"cebpf4jnsgd1na2vs0mg"},{"bike_id":"e81ec6d4-943a-4a46-b986-38c1a79aa03e","system_id":"levelo_inurba_marseille","lat":43.284546,"lon":5.358779,"is_reserved":false,"is_disabled":false,"rental_uris":{"android":"levelo://app?vid=e81ec6d4-943a-4a46-b986-38c1a79aa03e","ios":"levelo://app?vid=e81ec6d4-943a-4a46-b986-38c1a79aa03e"},"vehicle_type_id":"4","last_reported":1726844954,"current_range_meters":22800,"station_id":"ce4bhah2rcd13ifvqei0","pricing_plan_id":"cebpf4jnsgd1na2vs0mg"},{"bike_id":"5ecc346d-9bc6-4734-b315-3abd330b52ee","system_id":"levelo_inurba_marseille","lat":43.29602,"lon":5.3811,"is_reserved":false,"is_disabled":false,"rental_uris":{"android":"levelo://app?vid=5ecc346d-9bc6-4734-b315-3abd330b52ee","ios":"levelo://app?vid=5ecc346d-9bc6-4734-b315-3abd330b52ee"},"vehicle_type_id":"4","last_reported":1726844954,"current_range_meters":35600,"station_id":"ce4bgl12rcd13ifvqbo0","pricing_plan_id":"cebpf4jnsgd1na2vs0mg"},{"bike_id":"9f77b4f3-8fd5-4aa7-bb4c-b849bba28903","system_id":"levelo_inurba_marseille","lat":43.24172,"lon":5.36403,"is_reserved":false,"is_disabled":false,"rental_uris":{"android":"levelo://app?vid=9f77b4f3-8fd5-4aa7-bb4c-b849bba28903","ios":"levelo://app?vid=9f77b4f3-8fd5-4aa7-bb4c-b849bba28903"},"vehicle_type_id":"4","last_reported":1726844954,"current_range_meters":20000,"station_id":"cpo36qri1sfpv3e86is0","pricing_plan_id":"cebpf4jnsgd1na2vs0mg"},{"bike_id":"659890fd-6a72-4167-b006-24594050fcf5","system_id":"levelo_inurba_marseille","lat":43.298988,"lon":5.436714,"is_reserved":false,"is_disabled":false,"rental_uris":{"android":"levelo://app?vid=659890fd-6a72-4167-b006-24594050fcf5","ios":"levelo://app?vid=659890fd-6a72-4167-b006-24594050fcf5"},"vehicle_type_id":"4","last_reported":1726844954,"current_range_meters":36400,"station_id":"ce4bhpp2rcd13ifvqhfg","pricing_plan_id":"cebpf4jnsgd1na2vs0mg"},{"bike_id":"c7fdb6e7-0be7-4cec-809d-2dd794ade93e","system_id":"levelo_inurba_marseille","lat":43.3078,"lon":5.37656,"is_reserved":false,"is_disabled":false,"rental_uris":{"android":"levelo://app?vid=c7fdb6e7-0be7-4cec-809d-2dd794ade93e","ios":"levelo://app?vid=c7fdb6e7-0be7-4cec-809d-2dd794ade93e"},"vehicle_type_id":"4","last_reported":1726844954,"current_range_meters":22800,"station_id":"ce4bgv92rcd13ifvqcq0","pricing_plan_id":"cebpf4jnsgd1na2vs0mg"},{"bike_id":"d0078c61-6065-46d7-8ebc-c9a296897d1e","system_id":"levelo_inurba_marseille","lat":43.29198,"lon":5.358008,"is_reserved":false,"is_disabled":false,"rental_uris":{"android":"levelo://app?vid=d0078c61-6065-46d7-8ebc-c9a296897d1e","ios":"levelo://app?vid=d0078c61-6065-46d7-8ebc-c9a296897d1e"},"vehicle_type_id":"4","last_reported":1726844954,"current_range_meters":21600,"station_id":"ce4bhb12rcd13ifvqel0","pricing_plan_id":"cebpf4jnsgd1na2vs0mg"},{"bike_id":"7d63a438-faa0-4230-88b5-03a590646c9d","system_id":"levelo_inurba_marseille","lat":43.29844,"lon":5.36273,"is_reserved":false,"is_disabled":false,"rental_uris":{"android":"levelo://app?vid=7d63a438-faa0-4230-88b5-03a590646c9d","ios":"levelo://app?vid=7d63a438-faa0-4230-88b5-03a590646c9d"},"vehicle_type_id":"4","last_reported":1726844954,"current_range_meters":33200,"station_id":"ce4bgpp2rcd13ifvqc3g","pricing_plan_id":"cebpf4jnsgd1na2vs0mg"},{"bike_id":"c2c39584-3471-4241-91ef-3f703396bfe3","system_id":"levelo_inurba_marseille","lat":43.255798,"lon":5.38232,"is_reserved":false,"is_disabled":false,"rental_uris":{"android":"levelo://app?vid=c2c39584-3471-4241-91ef-3f703396bfe3","ios":"levelo://app?vid=c2c39584-3471-4241-91ef-3f703396bfe3"},"vehicle_type_id":"4","last_reported":1726844954,"current_range_meters":14800,"station_id":"ce4bhih2rcd13ifvqfs0","pricing_plan_id":"cebpf4jnsgd1na2vs0mg"},{"bike_id":"b91b3806-beb4-4a8e-af21-29139f4a48f9","system_id":"levelo_inurba_marseille","lat":43.33603,"lon":5.41031,"is_reserved":false,"is_disabled":false,"rental_uris":{"android":"levelo://app?vid=b91b3806-beb4-4a8e-af21-29139f4a48f9","ios":"levelo://app?vid=b91b3806-beb4-4a8e-af21-29139f4a48f9"},"vehicle_type_id":"4","last_reported":1726844954,"current_range_meters":38800,"station_id":"ce4bhqh2rcd13ifvqhmg","pricing_plan_id":"cebpf4jnsgd1na2vs0mg"},{"bike_id":"d30b0384-0941-47ef-84b7-4ae297d9f13c","system_id":"levelo_inurba_marseille","lat":43.26804,"lon":5.4027,"is_reserved":false,"is_disabled":false,"rental_uris":{"android":"levelo://app?vid=d30b0384-0941-47ef-84b7-4ae297d9f13c","ios":"levelo://app?vid=d30b0384-0941-47ef-84b7-4ae297d9f13c"},"vehicle_type_id":"4","last_reported":1726844954,"current_range_meters":30400,"station_id":"ce501612rcd8frsf0b60","pricing_plan_id":"cebpf4jnsgd1na2vs0mg"},{"bike_id":"3f3bc638-36e0-4ba8-b20b-5b4a08ca7dbe","system_id":"levelo_inurba_marseille","lat":43.27369,"lon":5.3625,"is_reserved":false,"is_disabled":false,"rental_uris":{"android":"levelo://app?vid=3f3bc638-36e0-4ba8-b20b-5b4a08ca7dbe","ios":"levelo://app?vid=3f3bc638-36e0-4ba8-b20b-5b4a08ca7dbe"},"vehicle_type_id":"4","last_reported":1726844954,"current_range_meters":8800,"station_id":"ce4bhbh2rcd13ifvqeo0","pricing_plan_id":"cebpf4jnsgd1na2vs0mg"},{"bike_id":"eaac63bf-2038-4d65-99c1-6e479bb2bae9","system_id":"levelo_inurba_marseille","lat":43.25001,"lon":5.38921,"is_reserved":false,"is_disabled":false,"rental_uris":{"android":"levelo://app?vid=eaac63bf-2038-4d65-99c1-6e479bb2bae9","ios":"levelo://app?vid=eaac63bf-2038-4d65-99c1-6e479bb2bae9"},"vehicle_type_id":"4","last_reported":1726844954,"current_range_meters":12400,"station_id":"ce4bhgp2rcd13ifvqfd0","pricing_plan_id":"cebpf4jnsgd1na2vs0mg"},{"bike_id":"b6b92c35-f16a-4478-9f19-cf92cf98d7db","system_id":"levelo_inurba_marseille","lat":43.30784,"lon":5.37649,"is_reserved":false,"is_disabled":false,"rental_uris":{"android":"levelo://app?vid=b6b92c35-f16a-4478-9f19-cf92cf98d7db","ios":"levelo://app?vid=b6b92c35-f16a-4478-9f19-cf92cf98d7db"},"vehicle_type_id":"4","last_reported":1726844954,"current_range_meters":39200,"station_id":"ce4bgv92rcd13ifvqcq0","pricing_plan_id":"cebpf4jnsgd1na2vs0mg"},{"bike_id":"4fa0ca0d-342c-4cd6-990b-f5e4ae40db2b","system_id":"levelo_inurba_marseille","lat":43.29963,"lon":5.41325,"is_reserved":false,"is_disabled":false,"rental_uris":{"android":"levelo://app?vid=4fa0ca0d-342c-4cd6-990b-f5e4ae40db2b","ios":"levelo://app?vid=4fa0ca0d-342c-4cd6-990b-f5e4ae40db2b"},"vehicle_type_id":"4","last_reported":1726844954,"current_range_meters":36000,"station_id":"ce4bhp12rcd13ifvqh9g","pricing_plan_id":"cebpf4jnsgd1na2vs0mg"},{"bike_id":"cd3eaafd-9606-46ca-8944-d5f34e2d95c6","system_id":"levelo_inurba_marseille","lat":43.24653,"lon":5.38895,"is_reserved":false,"is_disabled":false,"rental_uris":{"android":"levelo://app?vid=cd3eaafd-9606-46ca-8944-d5f34e2d95c6","ios":"levelo://app?vid=cd3eaafd-9606-46ca-8944-d5f34e2d95c6"},"vehicle_type_id":"4","last_reported":1726844954,"current_range_meters":38800,"station_id":"ce4bhg12rcd13ifvqf60","pricing_plan_id":"cebpf4jnsgd1na2vs0mg"},{"bike_id":"746e9bf3-85e9-4055-815e-ef480b2e8a9f","system_id":"levelo_inurba_marseille","lat":43.28703,"lon":5.3999,"is_reserved":false,"is_disabled":false,"rental_uris":{"android":"levelo://app?vid=746e9bf3-85e9-4055-815e-ef480b2e8a9f","ios":"levelo://app?vid=746e9bf3-85e9-4055-815e-ef480b2e8a9f"},"vehicle_type_id":"4","last_reported":1726844954,"current_range_meters":11600,"station_id":"ce4bho92rcd13ifvqh3g","pricing_plan_id":"cebpf4jnsgd1na2vs0mg"},{"bike_id":"8ded5e46-d83d-4f08-9b91-f37bcb95d7c6","system_id":"levelo_inurba_marseille","lat":43.26202,"lon":5.37929,"is_reserved":false,"is_disabled":false,"rental_uris":{"android":"levelo://app?vid=8ded5e46-d83d-4f08-9b91-f37bcb95d7c6","ios":"levelo://app?vid=8ded5e46-d83d-4f08-9b91-f37bcb95d7c6"},"vehicle_type_id":"4","last_reported":1726844954,"current_range_meters":18800,"station_id":"ce4bhjp2rcd13ifvqg90","pricing_plan_id":"cebpf4jnsgd1na2vs0mg"},{"bike_id":"3b521565-9eae-4500-8230-b4825628c9c9","system_id":"levelo_inurba_marseille","lat":43.31997,"lon":5.38163,"is_reserved":false,"is_disabled":false,"rental_uris":{"android":"levelo://app?vid=3b521565-9eae-4500-8230-b4825628c9c9","ios":"levelo://app?vid=3b521565-9eae-4500-8230-b4825628c9c9"},"vehicle_type_id":"4","last_reported":1726844954,"current_range_meters":38800,"station_id":"ce4bhr12rcd13ifvqhpg","pricing_plan_id":"cebpf4jnsgd1na2vs0mg"},{"bike_id":"686e01d7-4203-4cc2-ab34-b63dc5a76e35","system_id":"levelo_inurba_marseille","lat":43.26552,"lon":5.37284,"is_reserved":false,"is_disabled":false,"rental_uris":{"android":"levelo://app?vid=686e01d7-4203-4cc2-ab34-b63dc5a76e35","ios":"levelo://app?vid=686e01d7-4203-4cc2-ab34-b63dc5a76e35"},"vehicle_type_id":"4","last_reported":1726844954,"current_range_meters":30800,"station_id":"ce4bhg12rcd13ifvqf70","pricing_plan_id":"cebpf4jnsgd1na2vs0mg"},{"bike_id":"5705acbc-d503-4f36-a9f5-13b5f18aa34d","system_id":"levelo_inurba_marseille","lat":43.23959,"lon":5.36621,"is_reserved":false,"is_disabled":false,"rental_uris":{"android":"levelo://app?vid=5705acbc-d503-4f36-a9f5-13b5f18aa34d","ios":"levelo://app?vid=5705acbc-d503-4f36-a9f5-13b5f18aa34d"},"vehicle_type_id":"4","last_reported":1726844954,"current_range_meters":35600,"station_id":"ce4bhi12rcd13ifvqfp0","pricing_plan_id":"cebpf4jnsgd1na2vs0mg"},{"bike_id":"fb047334-856a-4931-b037-2a28362dcde1","system_id":"levelo_inurba_marseille","lat":43.28934,"lon":5.39634,"is_reserved":false,"is_disabled":false,"rental_uris":{"android":"levelo://app?vid=fb047334-856a-4931-b037-2a28362dcde1","ios":"levelo://app?vid=fb047334-856a-4931-b037-2a28362dcde1"},"vehicle_type_id":"4","last_reported":1726844954,"current_range_meters":25200,"station_id":"ce4bh3h2rcd13ifvqdn0","pricing_plan_id":"cebpf4jnsgd1na2vs0mg"},{"bike_id":"8056aa53-c928-4d29-a223-1b6c6fd35978","system_id":"levelo_inurba_marseille","lat":43.31714,"lon":5.43707,"is_reserved":false,"is_disabled":false,"rental_uris":{"android":"levelo://app?vid=8056aa53-c928-4d29-a223-1b6c6fd35978","ios":"levelo://app?vid=8056aa53-c928-4d29-a223-1b6c6fd35978"},"vehicle_type_id":"4","last_reported":1726844954,"current_range_meters":12000,"station_id":"ce4bhp92rcd13ifvqhcg","pricing_plan_id":"cebpf4jnsgd1na2vs0mg"},{"bike_id":"adc42137-b39c-4142-b347-53f30dc29209","system_id":"levelo_inurba_marseille","lat":43.27837,"lon":5.39209,"is_reserved":false,"is_disabled":false,"rental_uris":{"android":"levelo://app?vid=adc42137-b39c-4142-b347-53f30dc29209","ios":"levelo://app?vid=adc42137-b39c-4142-b347-53f30dc29209"},"vehicle_type_id":"4","last_reported":1726844954,"current_range_meters":4800,"station_id":"ce4bhjp2rcd13ifvqga0","pricing_plan_id":"cebpf4jnsgd1na2vs0mg"},{"bike_id":"a75c50af-1c4b-450e-a9ac-5d19162701f0","system_id":"levelo_inurba_marseille","lat":43.26779,"lon":5.39419,"is_reserved":false,"is_disabled":false,"rental_uris":{"android":"levelo://app?vid=a75c50af-1c4b-450e-a9ac-5d19162701f0","ios":"levelo://app?vid=a75c50af-1c4b-450e-a9ac-5d19162701f0"},"vehicle_type_id":"4","last_reported":1726844954,"current_range_meters":26800,"station_id":"ce4bhh12rcd13ifvqfg0","pricing_plan_id":"cebpf4jnsgd1na2vs0mg"},{"bike_id":"7b9dd459-340b-4978-bfb0-6c163a5263e8","system_id":"levelo_inurba_marseille","lat":43.23191,"lon":5.35542,"is_reserved":false,"is_disabled":false,"rental_uris":{"android":"levelo://app?vid=7b9dd459-340b-4978-bfb0-6c163a5263e8","ios":"levelo://app?vid=7b9dd459-340b-4978-bfb0-6c163a5263e8"},"vehicle_type_id":"4","last_reported":1726844954,"current_range_meters":39200,"station_id":"ce4bhu92rcd13ifvqi70","pricing_plan_id":"cebpf4jnsgd1na2vs0mg"},{"bike_id":"0678ba18-be4e-469f-aaad-b24a635b0d88","system_id":"levelo_inurba_marseille","lat":43.26678,"lon":5.38265,"is_reserved":false,"is_disabled":false,"rental_uris":{"android":"levelo://app?vid=0678ba18-be4e-469f-aaad-b24a635b0d88","ios":"levelo://app?vid=0678ba18-be4e-469f-aaad-b24a635b0d88"},"vehicle_type_id":"4","last_reported":1726844954,"current_range_meters":16400,"station_id":"ce4bhg92rcd13ifvqf90","pricing_plan_id":"cebpf4jnsgd1na2vs0mg"},{"bike_id":"d7091bc2-3c09-454d-ab63-d935a5dc75c4","system_id":"levelo_inurba_marseille","lat":43.25002,"lon":5.3892,"is_reserved":false,"is_disabled":false,"rental_uris":{"android":"levelo://app?vid=d7091bc2-3c09-454d-ab63-d935a5dc75c4","ios":"levelo://app?vid=d7091bc2-3c09-454d-ab63-d935a5dc75c4"},"vehicle_type_id":"4","last_reported":1726844954,"current_range_meters":24800,"station_id":"ce4bhgp2rcd13ifvqfd0","pricing_plan_id":"cebpf4jnsgd1na2vs0mg"},{"bike_id":"0f13a5fe-1c59-472e-b139-c66fdd469432","system_id":"levelo_inurba_marseille","lat":43.29888,"lon":5.38884,"is_reserved":false,"is_disabled":false,"rental_uris":{"android":"levelo://app?vid=0f13a5fe-1c59-472e-b139-c66fdd469432","ios":"levelo://app?vid=0f13a5fe-1c59-472e-b139-c66fdd469432"},"vehicle_type_id":"4","last_reported":1726844954,"current_range_meters":19600,"station_id":"ce4bh392rcd13ifvqdl0","pricing_plan_id":"cebpf4jnsgd1na2vs0mg"},{"bike_id":"f724ca56-18c9-4386-87e1-2600b5a7e949","system_id":"levelo_inurba_marseille","lat":43.30603,"lon":5.372261,"is_reserved":false,"is_disabled":false,"rental_uris":{"android":"levelo://app?vid=f724ca56-18c9-4386-87e1-2600b5a7e949","ios":"levelo://app?vid=f724ca56-18c9-4386-87e1-2600b5a7e949"},"vehicle_type_id":"4","last_reported":1726844954,"current_range_meters":19200,"station_id":"ce4bgqh2rcd13ifvqc4g","pricing_plan_id":"cebpf4jnsgd1na2vs0mg"},{"bike_id":"840680f5-7fa5-4c56-8fa5-06ccdd7ad564","system_id":"levelo_inurba_marseille","lat":43.303518,"lon":5.418993,"is_reserved":false,"is_disabled":false,"rental_uris":{"android":"levelo://app?vid=840680f5-7fa5-4c56-8fa5-06ccdd7ad564","ios":"levelo://app?vid=840680f5-7fa5-4c56-8fa5-06ccdd7ad564"},"vehicle_type_id":"4","last_reported":1726844954,"current_range_meters":38800,"station_id":"ce4bhop2rcd13ifvqh7g","pricing_plan_id":"cebpf4jnsgd1na2vs0mg"},{"bike_id":"ce8a654e-5e5c-496e-8433-4b8eba46e362","system_id":"levelo_inurba_marseille","lat":43.28408,"lon":5.34979,"is_reserved":false,"is_disabled":false,"rental_uris":{"android":"levelo://app?vid=ce8a654e-5e5c-496e-8433-4b8eba46e362","ios":"levelo://app?vid=ce8a654e-5e5c-496e-8433-4b8eba46e362"},"vehicle_type_id":"4","last_reported":1726844954,"current_range_meters":8000,"station_id":"ce4bhbh2rcd13ifvqepg","pricing_plan_id":"cebpf4jnsgd1na2vs0mg"},{"bike_id":"4fda4cab-1e87-4171-842e-d7eac6d843e4","system_id":"levelo_inurba_marseille","lat":43.28423,"lon":5.34988,"is_reserved":false,"is_disabled":false,"rental_uris":{"android":"levelo://app?vid=4fda4cab-1e87-4171-842e-d7eac6d843e4","ios":"levelo://app?vid=4fda4cab-1e87-4171-842e-d7eac6d843e4"},"vehicle_type_id":"4","last_reported":1726844954,"current_range_meters":36400,"station_id":"ce4bhbh2rcd13ifvqepg","pricing_plan_id":"cebpf4jnsgd1na2vs0mg"},{"bike_id":"d1aa10ef-e606-4c62-893c-fe3006772a50","system_id":"levelo_inurba_marseille","lat":43.27366,"lon":5.36247,"is_reserved":false,"is_disabled":false,"rental_uris":{"android":"levelo://app?vid=d1aa10ef-e606-4c62-893c-fe3006772a50","ios":"levelo://app?vid=d1aa10ef-e606-4c62-893c-fe3006772a50"},"vehicle_type_id":"4","last_reported":1726844954,"current_range_meters":35200,"station_id":"ce4bhbh2rcd13ifvqeo0","pricing_plan_id":"cebpf4jnsgd1na2vs0mg"},{"bike_id":"732d804e-0cc2-4f38-ad4a-e2786dddfbbe","system_id":"levelo_inurba_marseille","lat":43.28455,"lon":5.35889,"is_reserved":false,"is_disabled":false,"rental_uris":{"android":"levelo://app?vid=732d804e-0cc2-4f38-ad4a-e2786dddfbbe","ios":"levelo://app?vid=732d804e-0cc2-4f38-ad4a-e2786dddfbbe"},"vehicle_type_id":"4","last_reported":1726844954,"current_range_meters":8000,"station_id":"ce4bhah2rcd13ifvqei0","pricing_plan_id":"cebpf4jnsgd1na2vs0mg"},{"bike_id":"cbb8f49a-dbf6-4220-a02f-ca6a1a712f2e","system_id":"levelo_inurba_marseille","lat":43.24809,"lon":5.37456,"is_reserved":false,"is_disabled":false,"rental_uris":{"android":"levelo://app?vid=cbb8f49a-dbf6-4220-a02f-ca6a1a712f2e","ios":"levelo://app?vid=cbb8f49a-dbf6-4220-a02f-ca6a1a712f2e"},"vehicle_type_id":"4","last_reported":1726844954,"current_range_meters":37600,"station_id":"ce4bhgh2rcd13ifvqfb0","pricing_plan_id":"cebpf4jnsgd1na2vs0mg"},{"bike_id":"c2363448-6092-4b67-8c76-145a75b6e592","system_id":"levelo_inurba_marseille","lat":43.278568,"lon":5.388196,"is_reserved":false,"is_disabled":false,"rental_uris":{"android":"levelo://app?vid=c2363448-6092-4b67-8c76-145a75b6e592","ios":"levelo://app?vid=c2363448-6092-4b67-8c76-145a75b6e592"},"vehicle_type_id":"4","last_reported":1726844954,"current_range_meters":22800,"station_id":"ce4bhah2rcd13ifvqej0","pricing_plan_id":"cebpf4jnsgd1na2vs0mg"},{"bike_id":"0acdc0ed-eaea-49b2-ac45-06a4039d3926","system_id":"levelo_inurba_marseille","lat":43.3033,"lon":5.4044,"is_reserved":false,"is_disabled":false,"rental_uris":{"android":"levelo://app?vid=0acdc0ed-eaea-49b2-ac45-06a4039d3926","ios":"levelo://app?vid=0acdc0ed-eaea-49b2-ac45-06a4039d3926"},"vehicle_type_id":"4","last_reported":1726844954,"current_range_meters":31200,"station_id":"ce4bh012rcd13ifvqd10","pricing_plan_id":"cebpf4jnsgd1na2vs0mg"},{"bike_id":"33b57601-47bb-4999-b14d-98827f3b4932","system_id":"levelo_inurba_marseille","lat":43.3263,"lon":5.36185,"is_reserved":false,"is_disabled":false,"rental_uris":{"android":"levelo://app?vid=33b57601-47bb-4999-b14d-98827f3b4932","ios":"levelo://app?vid=33b57601-47bb-4999-b14d-98827f3b4932"},"vehicle_type_id":"4","last_reported":1726844954,"current_range_meters":3600,"station_id":"ce4bgth2rcd13ifvqch0","pricing_plan_id":"cebpf4jnsgd1na2vs0mg"},{"bike_id":"3528d8b8-ae78-4c0f-8c8a-ca063bf5e9f3","system_id":"levelo_inurba_marseille","lat":43.25116,"lon":5.403179,"is_reserved":false,"is_disabled":false,"rental_uris":{"android":"levelo://app?vid=3528d8b8-ae78-4c0f-8c8a-ca063bf5e9f3","ios":"levelo://app?vid=3528d8b8-ae78-4c0f-8c8a-ca063bf5e9f3"},"vehicle_type_id":"4","last_reported":1726844954,"current_range_meters":36800,"station_id":"ce4bhlh2rcd13ifvqgig","pricing_plan_id":"cebpf4jnsgd1na2vs0mg"},{"bike_id":"73510f97-993e-40d5-b44b-bd15841852c2","system_id":"levelo_inurba_marseille","lat":43.28426,"lon":5.34973,"is_reserved":false,"is_disabled":false,"rental_uris":{"android":"levelo://app?vid=73510f97-993e-40d5-b44b-bd15841852c2","ios":"levelo://app?vid=73510f97-993e-40d5-b44b-bd15841852c2"},"vehicle_type_id":"4","last_reported":1726844954,"current_range_meters":31200,"station_id":"ce4bhbh2rcd13ifvqepg","pricing_plan_id":"cebpf4jnsgd1na2vs0mg"},{"bike_id":"4d9190a3-155f-4b3c-8c64-3c1eceee5fa4","system_id":"levelo_inurba_marseille","lat":43.27943,"lon":5.41051,"is_reserved":false,"is_disabled":false,"rental_uris":{"android":"levelo://app?vid=4d9190a3-155f-4b3c-8c64-3c1eceee5fa4","ios":"levelo://app?vid=4d9190a3-155f-4b3c-8c64-3c1eceee5fa4"},"vehicle_type_id":"4","last_reported":1726844954,"current_range_meters":17200,"station_id":"ce4bhnp2rcd13ifvqh0g","pricing_plan_id":"cebpf4jnsgd1na2vs0mg"},{"bike_id":"ba4199b4-90a2-4406-94b0-a03e2267e3bb","system_id":"levelo_inurba_marseille","lat":43.25516,"lon":5.376588,"is_reserved":false,"is_disabled":false,"rental_uris":{"android":"levelo://app?vid=ba4199b4-90a2-4406-94b0-a03e2267e3bb","ios":"levelo://app?vid=ba4199b4-90a2-4406-94b0-a03e2267e3bb"},"vehicle_type_id":"4","last_reported":1726844954,"current_range_meters":8800,"station_id":"ce4bhh12rcd13ifvqff0","pricing_plan_id":"cebpf4jnsgd1na2vs0mg"},{"bike_id":"69986ad1-a140-48b4-8382-ba125a3b6e19","system_id":"levelo_inurba_marseille","lat":43.27614,"lon":5.36123,"is_reserved":false,"is_disabled":false,"rental_uris":{"android":"levelo://app?vid=69986ad1-a140-48b4-8382-ba125a3b6e19","ios":"levelo://app?vid=69986ad1-a140-48b4-8382-ba125a3b6e19"},"vehicle_type_id":"4","last_reported":1726844954,"current_range_meters":19600,"station_id":"ce4bgj92rcd13ifvqbe0","pricing_plan_id":"cebpf4jnsgd1na2vs0mg"},{"bike_id":"5635431d-ac7a-4806-ab94-b1d1b4c73fdc","system_id":"levelo_inurba_marseille","lat":43.2803,"lon":5.36942,"is_reserved":false,"is_disabled":false,"rental_uris":{"android":"levelo://app?vid=5635431d-ac7a-4806-ab94-b1d1b4c73fdc","ios":"levelo://app?vid=5635431d-ac7a-4806-ab94-b1d1b4c73fdc"},"vehicle_type_id":"4","last_reported":1726844954,"current_range_meters":20400,"station_id":"ce4bha12rcd13ifvqef0","pricing_plan_id":"cebpf4jnsgd1na2vs0mg"},{"bike_id":"0b6591fe-80fa-4155-9eea-612db0866f03","system_id":"levelo_inurba_marseille","lat":43.2988,"lon":5.39746,"is_reserved":false,"is_disabled":false,"rental_uris":{"android":"levelo://app?vid=0b6591fe-80fa-4155-9eea-612db0866f03","ios":"levelo://app?vid=0b6591fe-80fa-4155-9eea-612db0866f03"},"vehicle_type_id":"4","last_reported":1726844954,"current_range_meters":21600,"station_id":"ce4bh0h2rcd13ifvqd50","pricing_plan_id":"cebpf4jnsgd1na2vs0mg"},{"bike_id":"4f6cd953-65f5-4d4f-a052-70118d864e1d","system_id":"levelo_inurba_marseille","lat":43.29894,"lon":5.43657,"is_reserved":false,"is_disabled":false,"rental_uris":{"android":"levelo://app?vid=4f6cd953-65f5-4d4f-a052-70118d864e1d","ios":"levelo://app?vid=4f6cd953-65f5-4d4f-a052-70118d864e1d"},"vehicle_type_id":"4","last_reported":1726844954,"current_range_meters":13600,"station_id":"ce4bhpp2rcd13ifvqhfg","pricing_plan_id":"cebpf4jnsgd1na2vs0mg"},{"bike_id":"98b233cf-19ad-4871-a935-509476414ad2","system_id":"levelo_inurba_marseille","lat":43.29979,"lon":5.38488,"is_reserved":false,"is_disabled":false,"rental_uris":{"android":"levelo://app?vid=98b233cf-19ad-4871-a935-509476414ad2","ios":"levelo://app?vid=98b233cf-19ad-4871-a935-509476414ad2"},"vehicle_type_id":"4","last_reported":1726844954,"current_range_meters":36000,"station_id":"ce4bgj92rcd13ifvqbd0","pricing_plan_id":"cebpf4jnsgd1na2vs0mg"},{"bike_id":"f2735bf0-b2cf-4c4b-9648-955879576279","system_id":"levelo_inurba_marseille","lat":43.286072,"lon":5.370654,"is_reserved":false,"is_disabled":false,"rental_uris":{"android":"levelo://app?vid=f2735bf0-b2cf-4c4b-9648-955879576279","ios":"levelo://app?vid=f2735bf0-b2cf-4c4b-9648-955879576279"},"vehicle_type_id":"4","last_reported":1726844954,"current_range_meters":25600,"station_id":"ce4bht12rcd13ifvqi60","pricing_plan_id":"cebpf4jnsgd1na2vs0mg"},{"bike_id":"7308728b-be97-4594-9dfc-7754733d5f74","system_id":"levelo_inurba_marseille","lat":43.27069,"lon":5.42284,"is_reserved":false,"is_disabled":false,"rental_uris":{"android":"levelo://app?vid=7308728b-be97-4594-9dfc-7754733d5f74","ios":"levelo://app?vid=7308728b-be97-4594-9dfc-7754733d5f74"},"vehicle_type_id":"4","last_reported":1726844954,"current_range_meters":21600,"station_id":"ce4bhk92rcd13ifvqgb0","pricing_plan_id":"cebpf4jnsgd1na2vs0mg"},{"bike_id":"404f356b-fd3a-448f-bd89-df4fa0186cfb","system_id":"levelo_inurba_marseille","lat":43.31998,"lon":5.38155,"is_reserved":false,"is_disabled":false,"rental_uris":{"android":"levelo://app?vid=404f356b-fd3a-448f-bd89-df4fa0186cfb","ios":"levelo://app?vid=404f356b-fd3a-448f-bd89-df4fa0186cfb"},"vehicle_type_id":"4","last_reported":1726844954,"current_range_meters":38800,"station_id":"ce4bhr12rcd13ifvqhpg","pricing_plan_id":"cebpf4jnsgd1na2vs0mg"},{"bike_id":"388bc382-745f-4f5b-8921-90bcee4ad0b9","system_id":"levelo_inurba_marseille","lat":43.29429,"lon":5.39764,"is_reserved":false,"is_disabled":false,"rental_uris":{"android":"levelo://app?vid=388bc382-745f-4f5b-8921-90bcee4ad0b9","ios":"levelo://app?vid=388bc382-745f-4f5b-8921-90bcee4ad0b9"},"vehicle_type_id":"4","last_reported":1726844954,"current_range_meters":34000,"station_id":"ce4bh3h2rcd13ifvqdo0","pricing_plan_id":"cebpf4jnsgd1na2vs0mg"},{"bike_id":"dfa25865-d491-4319-ac0d-4a43b0719215","system_id":"levelo_inurba_marseille","lat":43.32481,"lon":5.36566,"is_reserved":false,"is_disabled":false,"rental_uris":{"android":"levelo://app?vid=dfa25865-d491-4319-ac0d-4a43b0719215","ios":"levelo://app?vid=dfa25865-d491-4319-ac0d-4a43b0719215"},"vehicle_type_id":"4","last_reported":1726844954,"current_range_meters":6400,"station_id":"ce4bhs12rcd13ifvqhvg","pricing_plan_id":"cebpf4jnsgd1na2vs0mg"},{"bike_id":"03956b24-95f2-45f8-890a-23c4e7fb23d6","system_id":"levelo_inurba_marseille","lat":43.29973,"lon":5.38492,"is_reserved":false,"is_disabled":false,"rental_uris":{"android":"levelo://app?vid=03956b24-95f2-45f8-890a-23c4e7fb23d6","ios":"levelo://app?vid=03956b24-95f2-45f8-890a-23c4e7fb23d6"},"vehicle_type_id":"4","last_reported":1726844954,"current_range_meters":28000,"station_id":"ce4bgj92rcd13ifvqbd0","pricing_plan_id":"cebpf4jnsgd1na2vs0mg"},{"bike_id":"58014cc6-4f39-4119-a8a0-cdc0e2507820","system_id":"levelo_inurba_marseille","lat":43.32288,"lon":5.38274,"is_reserved":false,"is_disabled":false,"rental_uris":{"android":"levelo://app?vid=58014cc6-4f39-4119-a8a0-cdc0e2507820","ios":"levelo://app?vid=58014cc6-4f39-4119-a8a0-cdc0e2507820"},"vehicle_type_id":"4","last_reported":1726844954,"current_range_meters":39200,"station_id":"ce4bhr12rcd13ifvqhqg","pricing_plan_id":"cebpf4jnsgd1na2vs0mg"},{"bike_id":"ef624d56-a7a7-464b-a94e-cfeccf75702c","system_id":"levelo_inurba_marseille","lat":43.2742,"lon":5.3941,"is_reserved":false,"is_disabled":false,"rental_uris":{"android":"levelo://app?vid=ef624d56-a7a7-464b-a94e-cfeccf75702c","ios":"levelo://app?vid=ef624d56-a7a7-464b-a94e-cfeccf75702c"},"vehicle_type_id":"4","last_reported":1726844954,"current_range_meters":38800,"station_id":"ce4bhdp2rcd13ifvqf20","pricing_plan_id":"cebpf4jnsgd1na2vs0mg"},{"bike_id":"c2f358bf-bb4a-48ad-88a7-ea7a3a4ea551","system_id":"levelo_inurba_marseille","lat":43.30803,"lon":5.38145,"is_reserved":false,"is_disabled":false,"rental_uris":{"android":"levelo://app?vid=c2f358bf-bb4a-48ad-88a7-ea7a3a4ea551","ios":"levelo://app?vid=c2f358bf-bb4a-48ad-88a7-ea7a3a4ea551"},"vehicle_type_id":"4","last_reported":1726844954,"current_range_meters":8400,"station_id":"ce4bgt12rcd13ifvqce0","pricing_plan_id":"cebpf4jnsgd1na2vs0mg"},{"bike_id":"bce83964-771d-421d-a795-c2b376c5b9dc","system_id":"levelo_inurba_marseille","lat":43.23184,"lon":5.3555,"is_reserved":false,"is_disabled":false,"rental_uris":{"android":"levelo://app?vid=bce83964-771d-421d-a795-c2b376c5b9dc","ios":"levelo://app?vid=bce83964-771d-421d-a795-c2b376c5b9dc"},"vehicle_type_id":"4","last_reported":1726844954,"current_range_meters":18800,"station_id":"ce4bhu92rcd13ifvqi70","pricing_plan_id":"cebpf4jnsgd1na2vs0mg"},{"bike_id":"126f251b-95e5-4846-8c99-b5569eaa2bc3","system_id":"levelo_inurba_marseille","lat":43.30636,"lon":5.40101,"is_reserved":false,"is_disabled":false,"rental_uris":{"android":"levelo://app?vid=126f251b-95e5-4846-8c99-b5569eaa2bc3","ios":"levelo://app?vid=126f251b-95e5-4846-8c99-b5569eaa2bc3"},"vehicle_type_id":"4","last_reported":1726844954,"current_range_meters":19200,"station_id":"ce4bh112rcd13ifvqda0","pricing_plan_id":"cebpf4jnsgd1na2vs0mg"},{"bike_id":"5c4bffed-0019-4b39-a45e-d1fccf257ffb","system_id":"levelo_inurba_marseille","lat":43.31322,"lon":5.39691,"is_reserved":false,"is_disabled":false,"rental_uris":{"android":"levelo://app?vid=5c4bffed-0019-4b39-a45e-d1fccf257ffb","ios":"levelo://app?vid=5c4bffed-0019-4b39-a45e-d1fccf257ffb"},"vehicle_type_id":"4","last_reported":1726844954,"current_range_meters":30800,"station_id":"ce4bgvp2rcd13ifvqcu0","pricing_plan_id":"cebpf4jnsgd1na2vs0mg"},{"bike_id":"7d2755c6-2fc0-43eb-bb8b-8b9ecb263a0d","system_id":"levelo_inurba_marseille","lat":43.23179,"lon":5.39975,"is_reserved":false,"is_disabled":false,"rental_uris":{"android":"levelo://app?vid=7d2755c6-2fc0-43eb-bb8b-8b9ecb263a0d","ios":"levelo://app?vid=7d2755c6-2fc0-43eb-bb8b-8b9ecb263a0d"},"vehicle_type_id":"4","last_reported":1726844954,"current_range_meters":27600,"station_id":"ce4bhn12rcd13ifvqgqg","pricing_plan_id":"cebpf4jnsgd1na2vs0mg"},{"bike_id":"34e5113d-35fa-42d1-82fe-ab77a843163f","system_id":"levelo_inurba_marseille","lat":43.29876,"lon":5.38909,"is_reserved":false,"is_disabled":false,"rental_uris":{"android":"levelo://app?vid=34e5113d-35fa-42d1-82fe-ab77a843163f","ios":"levelo://app?vid=34e5113d-35fa-42d1-82fe-ab77a843163f"},"vehicle_type_id":"4","last_reported":1726844954,"current_range_meters":16000,"station_id":"ce4bh392rcd13ifvqdl0","pricing_plan_id":"cebpf4jnsgd1na2vs0mg"},{"bike_id":"2718691f-677b-497e-85f1-cbd0cdb0b568","system_id":"levelo_inurba_marseille","lat":43.31328,"lon":5.39695,"is_reserved":false,"is_disabled":false,"rental_uris":{"android":"levelo://app?vid=2718691f-677b-497e-85f1-cbd0cdb0b568","ios":"levelo://app?vid=2718691f-677b-497e-85f1-cbd0cdb0b568"},"vehicle_type_id":"4","last_reported":1726844954,"current_range_meters":24400,"station_id":"ce4bgvp2rcd13ifvqcu0","pricing_plan_id":"cebpf4jnsgd1na2vs0mg"},{"bike_id":"e186148d-5a6d-4e86-9210-67558c73fc77","system_id":"levelo_inurba_marseille","lat":43.3237,"lon":5.38879,"is_reserved":false,"is_disabled":false,"rental_uris":{"android":"levelo://app?vid=e186148d-5a6d-4e86-9210-67558c73fc77","ios":"levelo://app?vid=e186148d-5a6d-4e86-9210-67558c73fc77"},"vehicle_type_id":"4","last_reported":1726844954,"current_range_meters":38800,"station_id":"ce4bhqp2rcd13ifvqhog","pricing_plan_id":"cebpf4jnsgd1na2vs0mg"},{"bike_id":"72a65385-bba8-48c4-b297-b93a02006969","system_id":"levelo_inurba_marseille","lat":43.254333,"lon":5.412924,"is_reserved":false,"is_disabled":false,"rental_uris":{"android":"levelo://app?vid=72a65385-bba8-48c4-b297-b93a02006969","ios":"levelo://app?vid=72a65385-bba8-48c4-b297-b93a02006969"},"vehicle_type_id":"4","last_reported":1726844954,"current_range_meters":12800,"station_id":"","pricing_plan_id":"cebpf4jnsgd1na2vs0mg"},{"bike_id":"58029bbd-f39b-465d-b9fe-8efc623f24ea","system_id":"levelo_inurba_marseille","lat":43.310699,"lon":5.383669,"is_reserved":false,"is_disabled":false,"rental_uris":{"android":"levelo://app?vid=58029bbd-f39b-465d-b9fe-8efc623f24ea","ios":"levelo://app?vid=58029bbd-f39b-465d-b9fe-8efc623f24ea"},"vehicle_type_id":"4","last_reported":1726844954,"current_range_meters":16400,"station_id":"ce4bgv92rcd13ifvqcr0","pricing_plan_id":"cebpf4jnsgd1na2vs0mg"},{"bike_id":"cc7319a7-e3a5-4272-a760-924a2dc535ef","system_id":"levelo_inurba_marseille","lat":43.30785,"lon":5.37655,"is_reserved":false,"is_disabled":false,"rental_uris":{"android":"levelo://app?vid=cc7319a7-e3a5-4272-a760-924a2dc535ef","ios":"levelo://app?vid=cc7319a7-e3a5-4272-a760-924a2dc535ef"},"vehicle_type_id":"4","last_reported":1726844954,"current_range_meters":39200,"station_id":"ce4bgv92rcd13ifvqcq0","pricing_plan_id":"cebpf4jnsgd1na2vs0mg"},{"bike_id":"09dfc17d-fb02-448d-8ad0-1e719fe3c242","system_id":"levelo_inurba_marseille","lat":43.28608,"lon":5.37067,"is_reserved":false,"is_disabled":false,"rental_uris":{"android":"levelo://app?vid=09dfc17d-fb02-448d-8ad0-1e719fe3c242","ios":"levelo://app?vid=09dfc17d-fb02-448d-8ad0-1e719fe3c242"},"vehicle_type_id":"4","last_reported":1726844954,"current_range_meters":24800,"station_id":"ce4bht12rcd13ifvqi60","pricing_plan_id":"cebpf4jnsgd1na2vs0mg"},{"bike_id":"2123bf2e-ac3c-47a5-88ad-bb349a1a1ba3","system_id":"levelo_inurba_marseille","lat":43.2923,"lon":5.36063,"is_reserved":false,"is_disabled":false,"rental_uris":{"android":"levelo://app?vid=2123bf2e-ac3c-47a5-88ad-bb349a1a1ba3","ios":"levelo://app?vid=2123bf2e-ac3c-47a5-88ad-bb349a1a1ba3"},"vehicle_type_id":"4","last_reported":1726844954,"current_range_meters":30000,"station_id":"ce4bhbh2rcd13ifvqeqg","pricing_plan_id":"cebpf4jnsgd1na2vs0mg"},{"bike_id":"4c6f692a-0d3a-4d1e-870d-52589402c541","system_id":"levelo_inurba_marseille","lat":43.25723,"lon":5.41102,"is_reserved":false,"is_disabled":false,"rental_uris":{"android":"levelo://app?vid=4c6f692a-0d3a-4d1e-870d-52589402c541","ios":"levelo://app?vid=4c6f692a-0d3a-4d1e-870d-52589402c541"},"vehicle_type_id":"4","last_reported":1726844954,"current_range_meters":26000,"station_id":"ce4bhkp2rcd13ifvqgd0","pricing_plan_id":"cebpf4jnsgd1na2vs0mg"},{"bike_id":"4e0985c7-90e8-4a50-8bde-1b1536b994c4","system_id":"levelo_inurba_marseille","lat":43.31754,"lon":5.39028,"is_reserved":false,"is_disabled":false,"rental_uris":{"android":"levelo://app?vid=4e0985c7-90e8-4a50-8bde-1b1536b994c4","ios":"levelo://app?vid=4e0985c7-90e8-4a50-8bde-1b1536b994c4"},"vehicle_type_id":"4","last_reported":1726844954,"current_range_meters":37600,"station_id":"ce4bhqp2rcd13ifvqhng","pricing_plan_id":"cebpf4jnsgd1na2vs0mg"},{"bike_id":"fa2e946d-01fe-4bb4-a2b0-55af60a0bcec","system_id":"levelo_inurba_marseille","lat":43.33724,"lon":5.39179,"is_reserved":false,"is_disabled":false,"rental_uris":{"android":"levelo://app?vid=fa2e946d-01fe-4bb4-a2b0-55af60a0bcec","ios":"levelo://app?vid=fa2e946d-01fe-4bb4-a2b0-55af60a0bcec"},"vehicle_type_id":"4","last_reported":1726844954,"current_range_meters":36000,"station_id":"ce4bhr92rcd13ifvqhsg","pricing_plan_id":"cebpf4jnsgd1na2vs0mg"},{"bike_id":"a5e9ac29-5fbe-4c08-a0a0-0136e656653f","system_id":"levelo_inurba_marseille","lat":43.30546,"lon":5.36709,"is_reserved":false,"is_disabled":false,"rental_uris":{"android":"levelo://app?vid=a5e9ac29-5fbe-4c08-a0a0-0136e656653f","ios":"levelo://app?vid=a5e9ac29-5fbe-4c08-a0a0-0136e656653f"},"vehicle_type_id":"4","last_reported":1726844954,"current_range_meters":16800,"station_id":"ce4bgrp2rcd13ifvqc9g","pricing_plan_id":"cebpf4jnsgd1na2vs0mg"},{"bike_id":"447c5b1a-14d7-4c83-93d2-babd11e0d4aa","system_id":"levelo_inurba_marseille","lat":43.29033,"lon":5.35921,"is_reserved":false,"is_disabled":false,"rental_uris":{"android":"levelo://app?vid=447c5b1a-14d7-4c83-93d2-babd11e0d4aa","ios":"levelo://app?vid=447c5b1a-14d7-4c83-93d2-babd11e0d4aa"},"vehicle_type_id":"4","last_reported":1726844954,"current_range_meters":6000,"station_id":"ce4bha92rcd13ifvqeg0","pricing_plan_id":"cebpf4jnsgd1na2vs0mg"},{"bike_id":"47ba5d81-4f1e-4672-8fae-e808f171faaa","system_id":"levelo_inurba_marseille","lat":43.33028,"lon":5.39039,"is_reserved":false,"is_disabled":false,"rental_uris":{"android":"levelo://app?vid=47ba5d81-4f1e-4672-8fae-e808f171faaa","ios":"levelo://app?vid=47ba5d81-4f1e-4672-8fae-e808f171faaa"},"vehicle_type_id":"4","last_reported":1726844954,"current_range_meters":38800,"station_id":"ce4bhr92rcd13ifvqhrg","pricing_plan_id":"cebpf4jnsgd1na2vs0mg"},{"bike_id":"4e1f9844-542a-4e41-8660-9fe15475883a","system_id":"levelo_inurba_marseille","lat":43.32365,"lon":5.38887,"is_reserved":false,"is_disabled":false,"rental_uris":{"android":"levelo://app?vid=4e1f9844-542a-4e41-8660-9fe15475883a","ios":"levelo://app?vid=4e1f9844-542a-4e41-8660-9fe15475883a"},"vehicle_type_id":"4","last_reported":1726844954,"current_range_meters":31200,"station_id":"ce4bhqp2rcd13ifvqhog","pricing_plan_id":"cebpf4jnsgd1na2vs0mg"},{"bike_id":"6ac026ab-4e60-4022-8002-089f19698a6a","system_id":"levelo_inurba_marseille","lat":43.29035,"lon":5.37565,"is_reserved":false,"is_disabled":false,"rental_uris":{"android":"levelo://app?vid=6ac026ab-4e60-4022-8002-089f19698a6a","ios":"levelo://app?vid=6ac026ab-4e60-4022-8002-089f19698a6a"},"vehicle_type_id":"4","last_reported":1726844954,"current_range_meters":4400,"station_id":"ce4bh692rcd13ifvqe90","pricing_plan_id":"cebpf4jnsgd1na2vs0mg"},{"bike_id":"12a619f7-a343-4130-9c74-d3ffa4a21bcc","system_id":"levelo_inurba_marseille","lat":43.295264,"lon":5.390456,"is_reserved":false,"is_disabled":false,"rental_uris":{"android":"levelo://app?vid=12a619f7-a343-4130-9c74-d3ffa4a21bcc","ios":"levelo://app?vid=12a619f7-a343-4130-9c74-d3ffa4a21bcc"},"vehicle_type_id":"4","last_reported":1726844954,"current_range_meters":14800,"station_id":"ce4bh0h2rcd13ifvqd60","pricing_plan_id":"cebpf4jnsgd1na2vs0mg"},{"bike_id":"1c2cce06-887b-4d78-85ec-80fd3ecaf55f","system_id":"levelo_inurba_marseille","lat":43.31329,"lon":5.3969,"is_reserved":false,"is_disabled":false,"rental_uris":{"android":"levelo://app?vid=1c2cce06-887b-4d78-85ec-80fd3ecaf55f","ios":"levelo://app?vid=1c2cce06-887b-4d78-85ec-80fd3ecaf55f"},"vehicle_type_id":"4","last_reported":1726844954,"current_range_meters":33600,"station_id":"ce4bgvp2rcd13ifvqcu0","pricing_plan_id":"cebpf4jnsgd1na2vs0mg"},{"bike_id":"f4ee7195-c0d9-4635-aaa0-873d324a7092","system_id":"levelo_inurba_marseille","lat":43.32659,"lon":5.40993,"is_reserved":false,"is_disabled":false,"rental_uris":{"android":"levelo://app?vid=f4ee7195-c0d9-4635-aaa0-873d324a7092","ios":"levelo://app?vid=f4ee7195-c0d9-4635-aaa0-873d324a7092"},"vehicle_type_id":"4","last_reported":1726844954,"current_range_meters":7200,"station_id":"ce4bhpp2rcd13ifvqhgg","pricing_plan_id":"cebpf4jnsgd1na2vs0mg"},{"bike_id":"be094ae1-eedc-4a48-80d9-a162bf980a49","system_id":"levelo_inurba_marseille","lat":43.30135,"lon":5.39862,"is_reserved":false,"is_disabled":false,"rental_uris":{"android":"levelo://app?vid=be094ae1-eedc-4a48-80d9-a162bf980a49","ios":"levelo://app?vid=be094ae1-eedc-4a48-80d9-a162bf980a49"},"vehicle_type_id":"4","last_reported":1726844954,"current_range_meters":16400,"station_id":"ce4bh0h2rcd13ifvqd40","pricing_plan_id":"cebpf4jnsgd1na2vs0mg"},{"bike_id":"6eaf8cf1-efe8-490a-b272-079c14b7fbda","system_id":"levelo_inurba_marseille","lat":43.28422,"lon":5.34999,"is_reserved":false,"is_disabled":false,"rental_uris":{"android":"levelo://app?vid=6eaf8cf1-efe8-490a-b272-079c14b7fbda","ios":"levelo://app?vid=6eaf8cf1-efe8-490a-b272-079c14b7fbda"},"vehicle_type_id":"4","last_reported":1726844954,"current_range_meters":12400,"station_id":"ce4bhbh2rcd13ifvqepg","pricing_plan_id":"cebpf4jnsgd1na2vs0mg"},{"bike_id":"aa29200f-5d7f-4d1e-a8b2-98561eb30973","system_id":"levelo_inurba_marseille","lat":43.31712,"lon":5.43706,"is_reserved":false,"is_disabled":false,"rental_uris":{"android":"levelo://app?vid=aa29200f-5d7f-4d1e-a8b2-98561eb30973","ios":"levelo://app?vid=aa29200f-5d7f-4d1e-a8b2-98561eb30973"},"vehicle_type_id":"4","last_reported":1726844954,"current_range_meters":30400,"station_id":"ce4bhp92rcd13ifvqhcg","pricing_plan_id":"cebpf4jnsgd1na2vs0mg"},{"bike_id":"faf36cd9-2bff-4685-8fb9-ab4ff9c35eba","system_id":"levelo_inurba_marseille","lat":43.31164,"lon":5.38722,"is_reserved":false,"is_disabled":false,"rental_uris":{"android":"levelo://app?vid=faf36cd9-2bff-4685-8fb9-ab4ff9c35eba","ios":"levelo://app?vid=faf36cd9-2bff-4685-8fb9-ab4ff9c35eba"},"vehicle_type_id":"4","last_reported":1726844954,"current_range_meters":18800,"station_id":"ce4bgv12rcd13ifvqcp0","pricing_plan_id":"cebpf4jnsgd1na2vs0mg"},{"bike_id":"fa690805-233a-4a70-a9f3-33f1b67cdb1f","system_id":"levelo_inurba_marseille","lat":43.32284,"lon":5.3826,"is_reserved":false,"is_disabled":false,"rental_uris":{"android":"levelo://app?vid=fa690805-233a-4a70-a9f3-33f1b67cdb1f","ios":"levelo://app?vid=fa690805-233a-4a70-a9f3-33f1b67cdb1f"},"vehicle_type_id":"4","last_reported":1726844954,"current_range_meters":17200,"station_id":"ce4bhr12rcd13ifvqhqg","pricing_plan_id":"cebpf4jnsgd1na2vs0mg"},{"bike_id":"728a6da4-dd0c-42ed-bc4c-72c30d202825","system_id":"levelo_inurba_marseille","lat":43.3248,"lon":5.36558,"is_reserved":false,"is_disabled":false,"rental_uris":{"android":"levelo://app?vid=728a6da4-dd0c-42ed-bc4c-72c30d202825","ios":"levelo://app?vid=728a6da4-dd0c-42ed-bc4c-72c30d202825"},"vehicle_type_id":"4","last_reported":1726844954,"current_range_meters":26800,"station_id":"ce4bhs12rcd13ifvqhvg","pricing_plan_id":"cebpf4jnsgd1na2vs0mg"},{"bike_id":"74c4797f-d4f5-40cb-b93b-7c39426cd71e","system_id":"levelo_inurba_marseille","lat":43.29853,"lon":5.36286,"is_reserved":false,"is_disabled":false,"rental_uris":{"android":"levelo://app?vid=74c4797f-d4f5-40cb-b93b-7c39426cd71e","ios":"levelo://app?vid=74c4797f-d4f5-40cb-b93b-7c39426cd71e"},"vehicle_type_id":"4","last_reported":1726844954,"current_range_meters":34000,"station_id":"ce4bgpp2rcd13ifvqc3g","pricing_plan_id":"cebpf4jnsgd1na2vs0mg"},{"bike_id":"c621998b-6aa3-40f1-905d-20214a17de6a","system_id":"levelo_inurba_marseille","lat":43.33699,"lon":5.37408,"is_reserved":false,"is_disabled":false,"rental_uris":{"android":"levelo://app?vid=c621998b-6aa3-40f1-905d-20214a17de6a","ios":"levelo://app?vid=c621998b-6aa3-40f1-905d-20214a17de6a"},"vehicle_type_id":"4","last_reported":1726844954,"current_range_meters":36800,"station_id":"","pricing_plan_id":"cebpf4jnsgd1na2vs0mg"},{"bike_id":"b2763354-ec6c-4733-8de6-6c4493759ae9","system_id":"levelo_inurba_marseille","lat":43.29091,"lon":5.4017,"is_reserved":false,"is_disabled":false,"rental_uris":{"android":"levelo://app?vid=b2763354-ec6c-4733-8de6-6c4493759ae9","ios":"levelo://app?vid=b2763354-ec6c-4733-8de6-6c4493759ae9"},"vehicle_type_id":"4","last_reported":1726844954,"current_range_meters":19600,"station_id":"","pricing_plan_id":"cebpf4jnsgd1na2vs0mg"},{"bike_id":"f0dbfc44-0bb0-4639-ac5a-cf1dd1572021","system_id":"levelo_inurba_marseille","lat":43.29096,"lon":5.38148,"is_reserved":false,"is_disabled":false,"rental_uris":{"android":"levelo://app?vid=f0dbfc44-0bb0-4639-ac5a-cf1dd1572021","ios":"levelo://app?vid=f0dbfc44-0bb0-4639-ac5a-cf1dd1572021"},"vehicle_type_id":"4","last_reported":1726844954,"current_range_meters":2000,"station_id":"ce4bh512rcd13ifvqe2g","pricing_plan_id":"cebpf4jnsgd1na2vs0mg"},{"bike_id":"e3c019e3-15f9-4909-8f78-17a7eb7f962b","system_id":"levelo_inurba_marseille","lat":43.305335,"lon":5.366938,"is_reserved":false,"is_disabled":false,"rental_uris":{"android":"levelo://app?vid=e3c019e3-15f9-4909-8f78-17a7eb7f962b","ios":"levelo://app?vid=e3c019e3-15f9-4909-8f78-17a7eb7f962b"},"vehicle_type_id":"4","last_reported":1726844954,"current_range_meters":35600,"station_id":"ce4bgv92rcd13ifvqcq0","pricing_plan_id":"cebpf4jnsgd1na2vs0mg"},{"bike_id":"fe780c9c-7e13-4b38-81ce-ea43f071d76c","system_id":"levelo_inurba_marseille","lat":43.23066,"lon":5.35497,"is_reserved":false,"is_disabled":false,"rental_uris":{"android":"levelo://app?vid=fe780c9c-7e13-4b38-81ce-ea43f071d76c","ios":"levelo://app?vid=fe780c9c-7e13-4b38-81ce-ea43f071d76c"},"vehicle_type_id":"4","last_reported":1726844954,"current_range_meters":30000,"station_id":"cpo3342slgdg3j2ifvpg","pricing_plan_id":"cebpf4jnsgd1na2vs0mg"},{"bike_id":"0653cb10-c12e-4c27-af75-8f3495a98f89","system_id":"levelo_inurba_marseille","lat":43.32289,"lon":5.3827,"is_reserved":false,"is_disabled":false,"rental_uris":{"android":"levelo://app?vid=0653cb10-c12e-4c27-af75-8f3495a98f89","ios":"levelo://app?vid=0653cb10-c12e-4c27-af75-8f3495a98f89"},"vehicle_type_id":"4","last_reported":1726844954,"current_range_meters":38800,"station_id":"ce4bhr12rcd13ifvqhqg","pricing_plan_id":"cebpf4jnsgd1na2vs0mg"},{"bike_id":"90326666-17b2-48b9-9b73-bd78af6cdfa2","system_id":"levelo_inurba_marseille","lat":43.29697,"lon":5.366005,"is_reserved":false,"is_disabled":false,"rental_uris":{"android":"levelo://app?vid=90326666-17b2-48b9-9b73-bd78af6cdfa2","ios":"levelo://app?vid=90326666-17b2-48b9-9b73-bd78af6cdfa2"},"vehicle_type_id":"4","last_reported":1726844954,"current_range_meters":27600,"station_id":"ce4bgn12rcd13ifvqbt0","pricing_plan_id":"cebpf4jnsgd1na2vs0mg"},{"bike_id":"542f3989-a9c1-426a-acb3-13a89074c889","system_id":"levelo_inurba_marseille","lat":43.323384,"lon":5.406272,"is_reserved":false,"is_disabled":false,"rental_uris":{"android":"levelo://app?vid=542f3989-a9c1-426a-acb3-13a89074c889","ios":"levelo://app?vid=542f3989-a9c1-426a-acb3-13a89074c889"},"vehicle_type_id":"4","last_reported":1726844954,"current_range_meters":36000,"station_id":"ce4bhq92rcd13ifvqhjg","pricing_plan_id":"cebpf4jnsgd1na2vs0mg"},{"bike_id":"667dcb1e-82c9-4808-af86-f738f1852fe5","system_id":"levelo_inurba_marseille","lat":43.32486,"lon":5.36581,"is_reserved":false,"is_disabled":false,"rental_uris":{"android":"levelo://app?vid=667dcb1e-82c9-4808-af86-f738f1852fe5","ios":"levelo://app?vid=667dcb1e-82c9-4808-af86-f738f1852fe5"},"vehicle_type_id":"4","last_reported":1726844954,"current_range_meters":32000,"station_id":"ce4bhs12rcd13ifvqhvg","pricing_plan_id":"cebpf4jnsgd1na2vs0mg"},{"bike_id":"c2c9a555-6ec8-4b92-b33e-073571605c93","system_id":"levelo_inurba_marseille","lat":43.23191,"lon":5.35551,"is_reserved":false,"is_disabled":false,"rental_uris":{"android":"levelo://app?vid=c2c9a555-6ec8-4b92-b33e-073571605c93","ios":"levelo://app?vid=c2c9a555-6ec8-4b92-b33e-073571605c93"},"vehicle_type_id":"4","last_reported":1726844954,"current_range_meters":26800,"station_id":"ce4bhu92rcd13ifvqi70","pricing_plan_id":"cebpf4jnsgd1na2vs0mg"},{"bike_id":"87e1473d-66e5-4117-a7df-c18c4c936ded","system_id":"levelo_inurba_marseille","lat":43.328796,"lon":5.410229,"is_reserved":false,"is_disabled":false,"rental_uris":{"android":"levelo://app?vid=87e1473d-66e5-4117-a7df-c18c4c936ded","ios":"levelo://app?vid=87e1473d-66e5-4117-a7df-c18c4c936ded"},"vehicle_type_id":"4","last_reported":1726844954,"current_range_meters":28800,"station_id":"ce4bhpp2rcd13ifvqhgg","pricing_plan_id":"cebpf4jnsgd1na2vs0mg"},{"bike_id":"c05dbee0-0b2e-4f10-88ca-eca51658a650","system_id":"levelo_inurba_marseille","lat":43.29005,"lon":5.356173,"is_reserved":false,"is_disabled":false,"rental_uris":{"android":"levelo://app?vid=c05dbee0-0b2e-4f10-88ca-eca51658a650","ios":"levelo://app?vid=c05dbee0-0b2e-4f10-88ca-eca51658a650"},"vehicle_type_id":"4","last_reported":1726844954,"current_range_meters":22400,"station_id":"ce4bhb92rcd13ifvqen0","pricing_plan_id":"cebpf4jnsgd1na2vs0mg"},{"bike_id":"62997862-0566-49dc-92c6-a8477c05ade8","system_id":"levelo_inurba_marseille","lat":43.27073,"lon":5.42277,"is_reserved":false,"is_disabled":false,"rental_uris":{"android":"levelo://app?vid=62997862-0566-49dc-92c6-a8477c05ade8","ios":"levelo://app?vid=62997862-0566-49dc-92c6-a8477c05ade8"},"vehicle_type_id":"4","last_reported":1726844954,"current_range_meters":38800,"station_id":"ce4bhk92rcd13ifvqgb0","pricing_plan_id":"cebpf4jnsgd1na2vs0mg"},{"bike_id":"3ea8f54f-9145-4e7d-b8dd-375864b1fadc","system_id":"levelo_inurba_marseille","lat":43.31991,"lon":5.37198,"is_reserved":false,"is_disabled":false,"rental_uris":{"android":"levelo://app?vid=3ea8f54f-9145-4e7d-b8dd-375864b1fadc","ios":"levelo://app?vid=3ea8f54f-9145-4e7d-b8dd-375864b1fadc"},"vehicle_type_id":"4","last_reported":1726844954,"current_range_meters":12800,"station_id":"","pricing_plan_id":"cebpf4jnsgd1na2vs0mg"},{"bike_id":"0961768a-a3f2-434f-beef-74dff68d140a","system_id":"levelo_inurba_marseille","lat":43.29784,"lon":5.393418,"is_reserved":false,"is_disabled":false,"rental_uris":{"android":"levelo://app?vid=0961768a-a3f2-434f-beef-74dff68d140a","ios":"levelo://app?vid=0961768a-a3f2-434f-beef-74dff68d140a"},"vehicle_type_id":"4","last_reported":1726844954,"current_range_meters":11200,"station_id":"chh1huq6cuj3fo74tm60","pricing_plan_id":"cebpf4jnsgd1na2vs0mg"},{"bike_id":"2500863d-3121-4e2c-a24e-2049144f8e69","system_id":"levelo_inurba_marseille","lat":43.28615,"lon":5.35103,"is_reserved":false,"is_disabled":false,"rental_uris":{"android":"levelo://app?vid=2500863d-3121-4e2c-a24e-2049144f8e69","ios":"levelo://app?vid=2500863d-3121-4e2c-a24e-2049144f8e69"},"vehicle_type_id":"4","last_reported":1726844954,"current_range_meters":38800,"station_id":"ce4bhch2rcd13ifvqeug","pricing_plan_id":"cebpf4jnsgd1na2vs0mg"},{"bike_id":"5dbf763e-c0f2-452b-8768-19f29c48a9f7","system_id":"levelo_inurba_marseille","lat":43.27179,"lon":5.40996,"is_reserved":false,"is_disabled":false,"rental_uris":{"android":"levelo://app?vid=5dbf763e-c0f2-452b-8768-19f29c48a9f7","ios":"levelo://app?vid=5dbf763e-c0f2-452b-8768-19f29c48a9f7"},"vehicle_type_id":"4","last_reported":1726844954,"current_range_meters":35200,"station_id":"ce4bhl12rcd13ifvqgf0","pricing_plan_id":"cebpf4jnsgd1na2vs0mg"},{"bike_id":"025f3f66-dbc0-4c16-a665-9b2c18e26f2e","system_id":"levelo_inurba_marseille","lat":43.27371,"lon":5.42717,"is_reserved":false,"is_disabled":false,"rental_uris":{"android":"levelo://app?vid=025f3f66-dbc0-4c16-a665-9b2c18e26f2e","ios":"levelo://app?vid=025f3f66-dbc0-4c16-a665-9b2c18e26f2e"},"vehicle_type_id":"4","last_reported":1726844954,"current_range_meters":16800,"station_id":"","pricing_plan_id":"cebpf4jnsgd1na2vs0mg"},{"bike_id":"868878fe-5bc6-43aa-ad49-5cca9ccaee6e","system_id":"levelo_inurba_marseille","lat":43.28409,"lon":5.34987,"is_reserved":false,"is_disabled":false,"rental_uris":{"android":"levelo://app?vid=868878fe-5bc6-43aa-ad49-5cca9ccaee6e","ios":"levelo://app?vid=868878fe-5bc6-43aa-ad49-5cca9ccaee6e"},"vehicle_type_id":"4","last_reported":1726844954,"current_range_meters":5600,"station_id":"ce4bhbh2rcd13ifvqepg","pricing_plan_id":"cebpf4jnsgd1na2vs0mg"},{"bike_id":"ac213151-032c-466c-8579-50ba5f77c8ad","system_id":"levelo_inurba_marseille","lat":43.30327,"lon":5.40443,"is_reserved":false,"is_disabled":false,"rental_uris":{"android":"levelo://app?vid=ac213151-032c-466c-8579-50ba5f77c8ad","ios":"levelo://app?vid=ac213151-032c-466c-8579-50ba5f77c8ad"},"vehicle_type_id":"4","last_reported":1726844954,"current_range_meters":33600,"station_id":"ce4bh012rcd13ifvqd10","pricing_plan_id":"cebpf4jnsgd1na2vs0mg"},{"bike_id":"af3d81eb-8250-4f05-bb17-35fc1f8b48c0","system_id":"levelo_inurba_marseille","lat":43.323639,"lon":5.38868,"is_reserved":false,"is_disabled":false,"rental_uris":{"android":"levelo://app?vid=af3d81eb-8250-4f05-bb17-35fc1f8b48c0","ios":"levelo://app?vid=af3d81eb-8250-4f05-bb17-35fc1f8b48c0"},"vehicle_type_id":"4","last_reported":1726844954,"current_range_meters":12000,"station_id":"ce4bhqp2rcd13ifvqhog","pricing_plan_id":"cebpf4jnsgd1na2vs0mg"},{"bike_id":"68159eba-e301-4077-943e-46befe1273f0","system_id":"levelo_inurba_marseille","lat":43.23195,"lon":5.35554,"is_reserved":false,"is_disabled":false,"rental_uris":{"android":"levelo://app?vid=68159eba-e301-4077-943e-46befe1273f0","ios":"levelo://app?vid=68159eba-e301-4077-943e-46befe1273f0"},"vehicle_type_id":"4","last_reported":1726844954,"current_range_meters":32800,"station_id":"ce4bhu92rcd13ifvqi70","pricing_plan_id":"cebpf4jnsgd1na2vs0mg"},{"bike_id":"7d66f339-e9a1-4deb-8e88-576eebb910a0","system_id":"levelo_inurba_marseille","lat":43.31756,"lon":5.39025,"is_reserved":false,"is_disabled":false,"rental_uris":{"android":"levelo://app?vid=7d66f339-e9a1-4deb-8e88-576eebb910a0","ios":"levelo://app?vid=7d66f339-e9a1-4deb-8e88-576eebb910a0"},"vehicle_type_id":"4","last_reported":1726844954,"current_range_meters":6400,"station_id":"ce4bhqp2rcd13ifvqhng","pricing_plan_id":"cebpf4jnsgd1na2vs0mg"},{"bike_id":"f5150aa5-a951-414c-93b7-a3813eb70dc7","system_id":"levelo_inurba_marseille","lat":43.24647,"lon":5.38896,"is_reserved":false,"is_disabled":false,"rental_uris":{"android":"levelo://app?vid=f5150aa5-a951-414c-93b7-a3813eb70dc7","ios":"levelo://app?vid=f5150aa5-a951-414c-93b7-a3813eb70dc7"},"vehicle_type_id":"4","last_reported":1726844954,"current_range_meters":6800,"station_id":"ce4bhg12rcd13ifvqf60","pricing_plan_id":"cebpf4jnsgd1na2vs0mg"},{"bike_id":"59a0c8c0-9169-44e8-8b48-db3fea55318f","system_id":"levelo_inurba_marseille","lat":43.31328,"lon":5.39696,"is_reserved":false,"is_disabled":false,"rental_uris":{"android":"levelo://app?vid=59a0c8c0-9169-44e8-8b48-db3fea55318f","ios":"levelo://app?vid=59a0c8c0-9169-44e8-8b48-db3fea55318f"},"vehicle_type_id":"4","last_reported":1726844954,"current_range_meters":2800,"station_id":"ce4bgvp2rcd13ifvqcu0","pricing_plan_id":"cebpf4jnsgd1na2vs0mg"},{"bike_id":"a29344e5-4aa4-47f2-b35a-f74d059a7d86","system_id":"levelo_inurba_marseille","lat":43.24171,"lon":5.36402,"is_reserved":false,"is_disabled":false,"rental_uris":{"android":"levelo://app?vid=a29344e5-4aa4-47f2-b35a-f74d059a7d86","ios":"levelo://app?vid=a29344e5-4aa4-47f2-b35a-f74d059a7d86"},"vehicle_type_id":"4","last_reported":1726844954,"current_range_meters":10000,"station_id":"cpo36qri1sfpv3e86is0","pricing_plan_id":"cebpf4jnsgd1na2vs0mg"},{"bike_id":"0d04abff-7c21-4a2d-af7b-d192624cdecb","system_id":"levelo_inurba_marseille","lat":43.31274,"lon":5.40171,"is_reserved":false,"is_disabled":false,"rental_uris":{"android":"levelo://app?vid=0d04abff-7c21-4a2d-af7b-d192624cdecb","ios":"levelo://app?vid=0d04abff-7c21-4a2d-af7b-d192624cdecb"},"vehicle_type_id":"4","last_reported":1726844954,"current_range_meters":30000,"station_id":"ce4bh092rcd13ifvqd30","pricing_plan_id":"cebpf4jnsgd1na2vs0mg"},{"bike_id":"e692e5bc-bd12-4d53-9862-9d646dc6564a","system_id":"levelo_inurba_marseille","lat":43.29843,"lon":5.36277,"is_reserved":false,"is_disabled":false,"rental_uris":{"android":"levelo://app?vid=e692e5bc-bd12-4d53-9862-9d646dc6564a","ios":"levelo://app?vid=e692e5bc-bd12-4d53-9862-9d646dc6564a"},"vehicle_type_id":"4","last_reported":1726844954,"current_range_meters":38800,"station_id":"ce4bgpp2rcd13ifvqc3g","pricing_plan_id":"cebpf4jnsgd1na2vs0mg"},{"bike_id":"105b7d49-ac79-4cb1-9a1c-aba841630723","system_id":"levelo_inurba_marseille","lat":43.29934,"lon":5.36532,"is_reserved":false,"is_disabled":false,"rental_uris":{"android":"levelo://app?vid=105b7d49-ac79-4cb1-9a1c-aba841630723","ios":"levelo://app?vid=105b7d49-ac79-4cb1-9a1c-aba841630723"},"vehicle_type_id":"4","last_reported":1726844954,"current_range_meters":37600,"station_id":"ce4bgm92rcd13ifvqbr0","pricing_plan_id":"cebpf4jnsgd1na2vs0mg"},{"bike_id":"0f9e353b-34be-4131-bc94-f528c8afe4b7","system_id":"levelo_inurba_marseille","lat":43.32482,"lon":5.36565,"is_reserved":false,"is_disabled":false,"rental_uris":{"android":"levelo://app?vid=0f9e353b-34be-4131-bc94-f528c8afe4b7","ios":"levelo://app?vid=0f9e353b-34be-4131-bc94-f528c8afe4b7"},"vehicle_type_id":"4","last_reported":1726844954,"current_range_meters":15200,"station_id":"ce4bhs12rcd13ifvqhvg","pricing_plan_id":"cebpf4jnsgd1na2vs0mg"},{"bike_id":"0c5d6fef-c13a-4549-b52f-550435ab4ea4","system_id":"levelo_inurba_marseille","lat":43.27569,"lon":5.38416,"is_reserved":false,"is_disabled":false,"rental_uris":{"android":"levelo://app?vid=0c5d6fef-c13a-4549-b52f-550435ab4ea4","ios":"levelo://app?vid=0c5d6fef-c13a-4549-b52f-550435ab4ea4"},"vehicle_type_id":"4","last_reported":1726844954,"current_range_meters":16000,"station_id":"ce4bhh92rcd13ifvqfi0","pricing_plan_id":"cebpf4jnsgd1na2vs0mg"},{"bike_id":"2720f93e-f1c4-4e05-bacc-e5a538495f21","system_id":"levelo_inurba_marseille","lat":43.31169,"lon":5.38708,"is_reserved":false,"is_disabled":false,"rental_uris":{"android":"levelo://app?vid=2720f93e-f1c4-4e05-bacc-e5a538495f21","ios":"levelo://app?vid=2720f93e-f1c4-4e05-bacc-e5a538495f21"},"vehicle_type_id":"4","last_reported":1726844954,"current_range_meters":27200,"station_id":"ce4bgv12rcd13ifvqcp0","pricing_plan_id":"cebpf4jnsgd1na2vs0mg"},{"bike_id":"ca7d7c1d-e2aa-4b85-b80f-70b13211b285","system_id":"levelo_inurba_marseille","lat":43.31322,"lon":5.39702,"is_reserved":false,"is_disabled":false,"rental_uris":{"android":"levelo://app?vid=ca7d7c1d-e2aa-4b85-b80f-70b13211b285","ios":"levelo://app?vid=ca7d7c1d-e2aa-4b85-b80f-70b13211b285"},"vehicle_type_id":"4","last_reported":1726844954,"current_range_meters":6800,"station_id":"ce4bgvp2rcd13ifvqcu0","pricing_plan_id":"cebpf4jnsgd1na2vs0mg"},{"bike_id":"9f47d2cf-bab0-4251-9429-0a993c391c89","system_id":"levelo_inurba_marseille","lat":43.292272,"lon":5.360595,"is_reserved":false,"is_disabled":false,"rental_uris":{"android":"levelo://app?vid=9f47d2cf-bab0-4251-9429-0a993c391c89","ios":"levelo://app?vid=9f47d2cf-bab0-4251-9429-0a993c391c89"},"vehicle_type_id":"4","last_reported":1726844954,"current_range_meters":14000,"station_id":"ce4bhbh2rcd13ifvqeqg","pricing_plan_id":"cebpf4jnsgd1na2vs0mg"},{"bike_id":"09bccdcc-0a8e-46c1-88a4-ddb857f16e33","system_id":"levelo_inurba_marseille","lat":43.27368,"lon":5.36251,"is_reserved":false,"is_disabled":false,"rental_uris":{"android":"levelo://app?vid=09bccdcc-0a8e-46c1-88a4-ddb857f16e33","ios":"levelo://app?vid=09bccdcc-0a8e-46c1-88a4-ddb857f16e33"},"vehicle_type_id":"4","last_reported":1726844954,"current_range_meters":30000,"station_id":"ce4bhbh2rcd13ifvqeo0","pricing_plan_id":"cebpf4jnsgd1na2vs0mg"},{"bike_id":"acf44b62-d8c8-47a7-a8d1-9161d6244362","system_id":"levelo_inurba_marseille","lat":43.23192,"lon":5.35557,"is_reserved":false,"is_disabled":false,"rental_uris":{"android":"levelo://app?vid=acf44b62-d8c8-47a7-a8d1-9161d6244362","ios":"levelo://app?vid=acf44b62-d8c8-47a7-a8d1-9161d6244362"},"vehicle_type_id":"4","last_reported":1726844954,"current_range_meters":8000,"station_id":"ce4bhu92rcd13ifvqi70","pricing_plan_id":"cebpf4jnsgd1na2vs0mg"},{"bike_id":"8fd48f37-be62-459d-a9cb-73bf4c9ece1b","system_id":"levelo_inurba_marseille","lat":43.31071,"lon":5.38354,"is_reserved":false,"is_disabled":false,"rental_uris":{"android":"levelo://app?vid=8fd48f37-be62-459d-a9cb-73bf4c9ece1b","ios":"levelo://app?vid=8fd48f37-be62-459d-a9cb-73bf4c9ece1b"},"vehicle_type_id":"4","last_reported":1726844954,"current_range_meters":11200,"station_id":"ce4bgv92rcd13ifvqcr0","pricing_plan_id":"cebpf4jnsgd1na2vs0mg"},{"bike_id":"5560db48-30a5-4b2d-99ed-adfa4cc39538","system_id":"levelo_inurba_marseille","lat":43.29883,"lon":5.389,"is_reserved":false,"is_disabled":false,"rental_uris":{"android":"levelo://app?vid=5560db48-30a5-4b2d-99ed-adfa4cc39538","ios":"levelo://app?vid=5560db48-30a5-4b2d-99ed-adfa4cc39538"},"vehicle_type_id":"4","last_reported":1726844954,"current_range_meters":3200,"station_id":"ce4bh392rcd13ifvqdl0","pricing_plan_id":"cebpf4jnsgd1na2vs0mg"},{"bike_id":"715ff12f-943a-4f59-bfe1-5b024d990894","system_id":"levelo_inurba_marseille","lat":43.30155,"lon":5.38087,"is_reserved":false,"is_disabled":false,"rental_uris":{"android":"levelo://app?vid=715ff12f-943a-4f59-bfe1-5b024d990894","ios":"levelo://app?vid=715ff12f-943a-4f59-bfe1-5b024d990894"},"vehicle_type_id":"4","last_reported":1726844954,"current_range_meters":10800,"station_id":"ce4bgjp2rcd13ifvqbh0","pricing_plan_id":"cebpf4jnsgd1na2vs0mg"},{"bike_id":"3116efbd-d4fc-433f-b257-0e332b404325","system_id":"levelo_inurba_marseille","lat":43.27905,"lon":5.38015,"is_reserved":false,"is_disabled":false,"rental_uris":{"android":"levelo://app?vid=3116efbd-d4fc-433f-b257-0e332b404325","ios":"levelo://app?vid=3116efbd-d4fc-433f-b257-0e332b404325"},"vehicle_type_id":"4","last_reported":1726844954,"current_range_meters":22000,"station_id":"ce4bhf92rcd13ifvqf50","pricing_plan_id":"cebpf4jnsgd1na2vs0mg"},{"bike_id":"13180a02-3370-4bc3-894c-bf0c64447f89","system_id":"levelo_inurba_marseille","lat":43.26569,"lon":5.39009,"is_reserved":false,"is_disabled":false,"rental_uris":{"android":"levelo://app?vid=13180a02-3370-4bc3-894c-bf0c64447f89","ios":"levelo://app?vid=13180a02-3370-4bc3-894c-bf0c64447f89"},"vehicle_type_id":"4","last_reported":1726844954,"current_range_meters":38800,"station_id":"ce4bhe12rcd13ifvqf30","pricing_plan_id":"cebpf4jnsgd1na2vs0mg"},{"bike_id":"f5ed64a0-5652-46f2-b969-ccf40efc8441","system_id":"levelo_inurba_marseille","lat":43.30551,"lon":5.36703,"is_reserved":false,"is_disabled":false,"rental_uris":{"android":"levelo://app?vid=f5ed64a0-5652-46f2-b969-ccf40efc8441","ios":"levelo://app?vid=f5ed64a0-5652-46f2-b969-ccf40efc8441"},"vehicle_type_id":"4","last_reported":1726844954,"current_range_meters":29600,"station_id":"ce4bgrp2rcd13ifvqc9g","pricing_plan_id":"cebpf4jnsgd1na2vs0mg"},{"bike_id":"117897e2-3bfa-487f-953c-af7be4fd5b58","system_id":"levelo_inurba_marseille","lat":43.24386,"lon":5.37057,"is_reserved":false,"is_disabled":false,"rental_uris":{"android":"levelo://app?vid=117897e2-3bfa-487f-953c-af7be4fd5b58","ios":"levelo://app?vid=117897e2-3bfa-487f-953c-af7be4fd5b58"},"vehicle_type_id":"4","last_reported":1726844954,"current_range_meters":36800,"station_id":"ce4bhhh2rcd13ifvqfk0","pricing_plan_id":"cebpf4jnsgd1na2vs0mg"},{"bike_id":"3fbc477c-ec0a-47c1-ba03-cc29c2d5eefd","system_id":"levelo_inurba_marseille","lat":43.28416,"lon":5.34972,"is_reserved":false,"is_disabled":false,"rental_uris":{"android":"levelo://app?vid=3fbc477c-ec0a-47c1-ba03-cc29c2d5eefd","ios":"levelo://app?vid=3fbc477c-ec0a-47c1-ba03-cc29c2d5eefd"},"vehicle_type_id":"4","last_reported":1726844954,"current_range_meters":20800,"station_id":"ce4bhbh2rcd13ifvqepg","pricing_plan_id":"cebpf4jnsgd1na2vs0mg"},{"bike_id":"04f3f906-217b-4acd-b788-3d42ee1e083a","system_id":"levelo_inurba_marseille","lat":43.28713,"lon":5.39994,"is_reserved":false,"is_disabled":false,"rental_uris":{"android":"levelo://app?vid=04f3f906-217b-4acd-b788-3d42ee1e083a","ios":"levelo://app?vid=04f3f906-217b-4acd-b788-3d42ee1e083a"},"vehicle_type_id":"4","last_reported":1726844954,"current_range_meters":37600,"station_id":"ce4bho92rcd13ifvqh3g","pricing_plan_id":"cebpf4jnsgd1na2vs0mg"},{"bike_id":"57820118-01ad-48e0-a115-73679483bad4","system_id":"levelo_inurba_marseille","lat":43.32366,"lon":5.38872,"is_reserved":false,"is_disabled":false,"rental_uris":{"android":"levelo://app?vid=57820118-01ad-48e0-a115-73679483bad4","ios":"levelo://app?vid=57820118-01ad-48e0-a115-73679483bad4"},"vehicle_type_id":"4","last_reported":1726844954,"current_range_meters":9600,"station_id":"ce4bhqp2rcd13ifvqhog","pricing_plan_id":"cebpf4jnsgd1na2vs0mg"},{"bike_id":"06c9d63f-9f9f-413f-8939-25497cb483aa","system_id":"levelo_inurba_marseille","lat":43.2842,"lon":5.34998,"is_reserved":false,"is_disabled":false,"rental_uris":{"android":"levelo://app?vid=06c9d63f-9f9f-413f-8939-25497cb483aa","ios":"levelo://app?vid=06c9d63f-9f9f-413f-8939-25497cb483aa"},"vehicle_type_id":"4","last_reported":1726844954,"current_range_meters":28400,"station_id":"ce4bhbh2rcd13ifvqepg","pricing_plan_id":"cebpf4jnsgd1na2vs0mg"},{"bike_id":"1a9b55c7-b51a-4a51-a1cc-3a8367ed9f7b","system_id":"levelo_inurba_marseille","lat":43.28421,"lon":5.34987,"is_reserved":false,"is_disabled":false,"rental_uris":{"android":"levelo://app?vid=1a9b55c7-b51a-4a51-a1cc-3a8367ed9f7b","ios":"levelo://app?vid=1a9b55c7-b51a-4a51-a1cc-3a8367ed9f7b"},"vehicle_type_id":"4","last_reported":1726844954,"current_range_meters":20000,"station_id":"ce4bhbh2rcd13ifvqepg","pricing_plan_id":"cebpf4jnsgd1na2vs0mg"},{"bike_id":"e460a94a-5dda-433d-bec4-86aaad92ed5d","system_id":"levelo_inurba_marseille","lat":43.291522,"lon":5.371687,"is_reserved":false,"is_disabled":false,"rental_uris":{"android":"levelo://app?vid=e460a94a-5dda-433d-bec4-86aaad92ed5d","ios":"levelo://app?vid=e460a94a-5dda-433d-bec4-86aaad92ed5d"},"vehicle_type_id":"4","last_reported":1726844954,"current_range_meters":38800,"station_id":"ce4bha92rcd13ifvqeh0","pricing_plan_id":"cebpf4jnsgd1na2vs0mg"},{"bike_id":"6a6dea82-938f-4ca3-8c34-959987ab219a","system_id":"levelo_inurba_marseille","lat":43.27057,"lon":5.40256,"is_reserved":false,"is_disabled":false,"rental_uris":{"android":"levelo://app?vid=6a6dea82-938f-4ca3-8c34-959987ab219a","ios":"levelo://app?vid=6a6dea82-938f-4ca3-8c34-959987ab219a"},"vehicle_type_id":"4","last_reported":1726844954,"current_range_meters":14400,"station_id":"ce4bhk92rcd13ifvqgc0","pricing_plan_id":"cebpf4jnsgd1na2vs0mg"},{"bike_id":"f60df558-f4be-40ae-92d2-542697817646","system_id":"levelo_inurba_marseille","lat":43.30307,"lon":5.36903,"is_reserved":false,"is_disabled":false,"rental_uris":{"android":"levelo://app?vid=f60df558-f4be-40ae-92d2-542697817646","ios":"levelo://app?vid=f60df558-f4be-40ae-92d2-542697817646"},"vehicle_type_id":"4","last_reported":1726844954,"current_range_meters":4000,"station_id":"ce4bgqh2rcd13ifvqc5g","pricing_plan_id":"cebpf4jnsgd1na2vs0mg"},{"bike_id":"95cb09e1-ff69-40dc-8d51-85af11f0be17","system_id":"levelo_inurba_marseille","lat":43.27366,"lon":5.36252,"is_reserved":false,"is_disabled":false,"rental_uris":{"android":"levelo://app?vid=95cb09e1-ff69-40dc-8d51-85af11f0be17","ios":"levelo://app?vid=95cb09e1-ff69-40dc-8d51-85af11f0be17"},"vehicle_type_id":"4","last_reported":1726844954,"current_range_meters":6800,"station_id":"ce4bhbh2rcd13ifvqeo0","pricing_plan_id":"cebpf4jnsgd1na2vs0mg"},{"bike_id":"f1a5eaf8-aa9c-4eaf-bc05-c736f292300f","system_id":"levelo_inurba_marseille","lat":43.2417,"lon":5.36402,"is_reserved":false,"is_disabled":false,"rental_uris":{"android":"levelo://app?vid=f1a5eaf8-aa9c-4eaf-bc05-c736f292300f","ios":"levelo://app?vid=f1a5eaf8-aa9c-4eaf-bc05-c736f292300f"},"vehicle_type_id":"4","last_reported":1726844954,"current_range_meters":16000,"station_id":"cpo36qri1sfpv3e86is0","pricing_plan_id":"cebpf4jnsgd1na2vs0mg"},{"bike_id":"78cbd715-9cc6-4b46-b303-874708b49f41","system_id":"levelo_inurba_marseille","lat":43.25864,"lon":5.39895,"is_reserved":false,"is_disabled":false,"rental_uris":{"android":"levelo://app?vid=78cbd715-9cc6-4b46-b303-874708b49f41","ios":"levelo://app?vid=78cbd715-9cc6-4b46-b303-874708b49f41"},"vehicle_type_id":"4","last_reported":1726844954,"current_range_meters":19600,"station_id":"ce4bhl92rcd13ifvqghg","pricing_plan_id":"cebpf4jnsgd1na2vs0mg"},{"bike_id":"a2820925-caf5-41e1-8143-fffb2f84f019","system_id":"levelo_inurba_marseille","lat":43.29253,"lon":5.40904,"is_reserved":false,"is_disabled":false,"rental_uris":{"android":"levelo://app?vid=a2820925-caf5-41e1-8143-fffb2f84f019","ios":"levelo://app?vid=a2820925-caf5-41e1-8143-fffb2f84f019"},"vehicle_type_id":"4","last_reported":1726844954,"current_range_meters":28000,"station_id":"ce4bh192rcd13ifvqdc0","pricing_plan_id":"cebpf4jnsgd1na2vs0mg"},{"bike_id":"e43e2092-dbf6-47c4-bba1-789768a81dcf","system_id":"levelo_inurba_marseille","lat":43.32477,"lon":5.36558,"is_reserved":false,"is_disabled":false,"rental_uris":{"android":"levelo://app?vid=e43e2092-dbf6-47c4-bba1-789768a81dcf","ios":"levelo://app?vid=e43e2092-dbf6-47c4-bba1-789768a81dcf"},"vehicle_type_id":"4","last_reported":1726844954,"current_range_meters":34800,"station_id":"ce4bhs12rcd13ifvqhvg","pricing_plan_id":"cebpf4jnsgd1na2vs0mg"},{"bike_id":"802df24c-10ed-4726-80b3-49aed32757ec","system_id":"levelo_inurba_marseille","lat":43.2439,"lon":5.37064,"is_reserved":false,"is_disabled":false,"rental_uris":{"android":"levelo://app?vid=802df24c-10ed-4726-80b3-49aed32757ec","ios":"levelo://app?vid=802df24c-10ed-4726-80b3-49aed32757ec"},"vehicle_type_id":"4","last_reported":1726844954,"current_range_meters":16800,"station_id":"ce4bhhh2rcd13ifvqfk0","pricing_plan_id":"cebpf4jnsgd1na2vs0mg"},{"bike_id":"4b374a49-0722-409c-862c-fce9d6d9fe70","system_id":"levelo_inurba_marseille","lat":43.24164,"lon":5.36398,"is_reserved":false,"is_disabled":false,"rental_uris":{"android":"levelo://app?vid=4b374a49-0722-409c-862c-fce9d6d9fe70","ios":"levelo://app?vid=4b374a49-0722-409c-862c-fce9d6d9fe70"},"vehicle_type_id":"4","last_reported":1726844954,"current_range_meters":6800,"station_id":"cpo36qri1sfpv3e86is0","pricing_plan_id":"cebpf4jnsgd1na2vs0mg"},{"bike_id":"45333d86-f0c3-44b1-9547-d659d0157bb9","system_id":"levelo_inurba_marseille","lat":43.31759,"lon":5.39017,"is_reserved":false,"is_disabled":false,"rental_uris":{"android":"levelo://app?vid=45333d86-f0c3-44b1-9547-d659d0157bb9","ios":"levelo://app?vid=45333d86-f0c3-44b1-9547-d659d0157bb9"},"vehicle_type_id":"4","last_reported":1726844954,"current_range_meters":6800,"station_id":"ce4bhqp2rcd13ifvqhng","pricing_plan_id":"cebpf4jnsgd1na2vs0mg"},{"bike_id":"0a4c4e44-979b-47be-ada1-535cc9c803c3","system_id":"levelo_inurba_marseille","lat":43.30949,"lon":5.39028,"is_reserved":false,"is_disabled":false,"rental_uris":{"android":"levelo://app?vid=0a4c4e44-979b-47be-ada1-535cc9c803c3","ios":"levelo://app?vid=0a4c4e44-979b-47be-ada1-535cc9c803c3"},"vehicle_type_id":"4","last_reported":1726844954,"current_range_meters":24800,"station_id":"ce4bgup2rcd13ifvqco0","pricing_plan_id":"cebpf4jnsgd1na2vs0mg"},{"bike_id":"2a096d90-78f9-4370-820b-853aeb5251f2","system_id":"levelo_inurba_marseille","lat":43.28485,"lon":5.38561,"is_reserved":false,"is_disabled":false,"rental_uris":{"android":"levelo://app?vid=2a096d90-78f9-4370-820b-853aeb5251f2","ios":"levelo://app?vid=2a096d90-78f9-4370-820b-853aeb5251f2"},"vehicle_type_id":"4","last_reported":1726844954,"current_range_meters":22800,"station_id":"ce4bh8p2rcd13ifvqeb0","pricing_plan_id":"cebpf4jnsgd1na2vs0mg"},{"bike_id":"0c97c25d-5870-4230-9891-bfffc3ca04f3","system_id":"levelo_inurba_marseille","lat":43.31333,"lon":5.39699,"is_reserved":false,"is_disabled":false,"rental_uris":{"android":"levelo://app?vid=0c97c25d-5870-4230-9891-bfffc3ca04f3","ios":"levelo://app?vid=0c97c25d-5870-4230-9891-bfffc3ca04f3"},"vehicle_type_id":"4","last_reported":1726844954,"current_range_meters":20000,"station_id":"ce4bgvp2rcd13ifvqcu0","pricing_plan_id":"cebpf4jnsgd1na2vs0mg"},