{"last_updated":1753567828,"ttl":60,"version":"2.2","data":{"bikes":[{"bike_id":"bf158499-abf4-4716-ad20-df229fb20126","system_id":"levelo_inurba_marseille","lat":43.22499,"lon":5.34786,"is_reserved":false,"is_disabled":true,"rental_uris":{"android":"levelo://app?vid=bf158499-abf4-4716-ad20-df229fb20126","ios":"levelo://app?vid=bf158499-abf4-4716-ad20-df229fb20126"},"vehicle_type_id":"4","last_reported":1753567829,"current_range_meters":2800,"station_id":"st_cvj5dfep6f1abm77gieg","pricing_plan_id":"cebpf4jnsgd1na2vs0mg"},{"bike_id":"e8fbe1e0-a8be-42a5-9db7-cae606f8e27c","system_id":"levelo_inurba_marseille","lat":43.34779,"lon":5.35319,"is_reserved":false,"is_disabled":false,"rental_uris":{"android":"levelo://app?vid=e8fbe1e0-a8be-42a5-9db7-cae606f8e27c","ios":"levelo://app?vid=e8fbe1e0-a8be-42a5-9db7-cae606f8e27c"},"vehicle_type_id":"4","last_reported":1753567829,"current_range_meters":3600,"station_id":"","pricing_plan_id":"cebpf4jnsgd1na2vs0mg"},{"bike_id":"a9bcff15-70d8-4922-b020-1a5b437dd9fd","system_id":"levelo_inurba_marseille","lat":43.21368,"lon":5.35016,"is_reserved":false,"is_disabled":false,"rental_uris":{"android":"levelo://app?vid=a9bcff15-70d8-4922-b020-1a5b437dd9fd","ios":"levelo://app?vid=a9bcff15-70d8-4922-b020-1a5b437dd9fd"},"vehicle_type_id":"4","last_reported":1753567829,"current_range_meters":3200,"station_id":"","pricing_plan_id":"cebpf4jnsgd1na2vs0mg"},{"bike_id":"9d149c1b-cf20-4b08-a08a-5e287c5b355e","system_id":"levelo_inurba_marseille","lat":43.28406,"lon":5.37511,"is_reserved":false,"is_disabled":false,"rental_uris":{"android":"levelo://app?vid=9d149c1b-cf20-4b08-a08a-5e287c5b355e","ios":"levelo://app?vid=9d149c1b-cf20-4b08-a08a-5e287c5b355e"},"vehicle_type_id":"4","last_reported":1753567829,"current_range_meters":3200,"station_id":"ce4bh412rcd13ifvqds0","pricing_plan_id":"cebpf4jnsgd1na2vs0mg"},{"bike_id":"fe1e01f8-d4ce-40a3-9bef-dc35d4f0ebf5","system_id":"levelo_inurba_marseille","lat":43.28431,"lon":5.34984,"is_reserved":false,"is_disabled":true,"rental_uris":{"android":"levelo://app?vid=fe1e01f8-d4ce-40a3-9bef-dc35d4f0ebf5","ios":"levelo://app?vid=fe1e01f8-d4ce-40a3-9bef-dc35d4f0ebf5"},"vehicle_type_id":"4","last_reported":1753567829,"current_range_meters":3600,"station_id":"ce4bhbh2rcd13ifvqepg","pricing_plan_id":"cebpf4jnsgd1na2vs0mg"},{"bike_id":"97f2ecd0-5683-4b9c-8266-7d26df87b1e6","system_id":"levelo_inurba_marseille","lat":43.28697,"lon":5.37387,"is_reserved":false,"is_disabled":false,"rental_uris":{"android":"levelo://app?vid=97f2ecd0-5683-4b9c-8266-7d26df87b1e6","ios":"levelo://app?vid=97f2ecd0-5683-4b9c-8266-7d26df87b1e6"},"vehicle_type_id":"4","last_reported":1753567829,"current_range_meters":4000,"station_id":"ce4bh3p2rcd13ifvqdq0","pricing_plan_id":"cebpf4jnsgd1na2vs0mg"},{"bike_id":"97964cb5-e8cb-4bd4-afe9-deb908bbeddb","system_id":"levelo_inurba_marseille","lat":43.27051,"lon":5.40257,"is_reserved":false,"is_disabled":false,"rental_uris":{"android":"levelo://app?vid=97964cb5-e8cb-4bd4-afe9-deb908bbeddb","ios":"levelo://app?vid=97964cb5-e8cb-4bd4-afe9-deb908bbeddb"},"vehicle_type_id":"4","last_reported":1753567829,"current_range_meters":4400,"station_id":"ce4bhk92rcd13ifvqgc0","pricing_plan_id":"cebpf4jnsgd1na2vs0mg"},{"bike_id":"23fc62d3-efd6-470b-a69b-b943cc6df83c","system_id":"levelo_inurba_marseille","lat":43.32107,"lon":5.36781,"is_reserved":false,"is_disabled":false,"rental_uris":{"android":"levelo://app?vid=23fc62d3-efd6-470b-a69b-b943cc6df83c","ios":"levelo://app?vid=23fc62d3-efd6-470b-a69b-b943cc6df83c"},"vehicle_type_id":"4","last_reported":1753567829,"current_range_meters":4400,"station_id":"ce4bhrh2rcd13ifvqhug","pricing_plan_id":"cebpf4jnsgd1na2vs0mg"},{"bike_id":"c9c136c4-286c-415e-a837-a99a3353947f","system_id":"levelo_inurba_marseille","lat":43.23964,"lon":5.36636,"is_reserved":false,"is_disabled":false,"rental_uris":{"android":"levelo://app?vid=c9c136c4-286c-415e-a837-a99a3353947f","ios":"levelo://app?vid=c9c136c4-286c-415e-a837-a99a3353947f"},"vehicle_type_id":"4","last_reported":1753567829,"current_range_meters":4400,"station_id":"ce4bhi12rcd13ifvqfp0","pricing_plan_id":"cebpf4jnsgd1na2vs0mg"},{"bike_id":"fe165cbd-2aa7-40d4-b28e-c33848c088c9","system_id":"levelo_inurba_marseille","lat":43.29645,"lon":5.36955,"is_reserved":false,"is_disabled":false,"rental_uris":{"android":"levelo://app?vid=fe165cbd-2aa7-40d4-b28e-c33848c088c9","ios":"levelo://app?vid=fe165cbd-2aa7-40d4-b28e-c33848c088c9"},"vehicle_type_id":"4","last_reported":1753567829,"current_range_meters":4400,"station_id":"","pricing_plan_id":"cebpf4jnsgd1na2vs0mg"},{"bike_id":"704cc7cb-6a85-4714-a0d8-3259ee1f4f6b","system_id":"levelo_inurba_marseille","lat":43.29264,"lon":5.38395,"is_reserved":false,"is_disabled":false,"rental_uris":{"android":"levelo://app?vid=704cc7cb-6a85-4714-a0d8-3259ee1f4f6b","ios":"levelo://app?vid=704cc7cb-6a85-4714-a0d8-3259ee1f4f6b"},"vehicle_type_id":"4","last_reported":1753567829,"current_range_meters":4400,"station_id":"ce4bh692rcd13ifvqea0","pricing_plan_id":"cebpf4jnsgd1na2vs0mg"},{"bike_id":"c82cb832-4003-436b-b8ad-2f9963141ae0","system_id":"levelo_inurba_marseille","lat":43.29705,"lon":5.3772,"is_reserved":false,"is_disabled":false,"rental_uris":{"android":"levelo://app?vid=c82cb832-4003-436b-b8ad-2f9963141ae0","ios":"levelo://app?vid=c82cb832-4003-436b-b8ad-2f9963141ae0"},"vehicle_type_id":"4","last_reported":1753567829,"current_range_meters":4400,"station_id":"ce4bgkh2rcd13ifvqbl0","pricing_plan_id":"cebpf4jnsgd1na2vs0mg"},{"bike_id":"ddb41611-b336-4121-ad5c-d2ee92e95b9c","system_id":"levelo_inurba_marseille","lat":43.30733,"lon":5.42453,"is_reserved":false,"is_disabled":false,"rental_uris":{"android":"levelo://app?vid=ddb41611-b336-4121-ad5c-d2ee92e95b9c","ios":"levelo://app?vid=ddb41611-b336-4121-ad5c-d2ee92e95b9c"},"vehicle_type_id":"4","last_reported":1753567829,"current_range_meters":4800,"station_id":"st_cvj6ca6bvosntc0bfgr0","pricing_plan_id":"cebpf4jnsgd1na2vs0mg"},{"bike_id":"98cbd6d2-b826-4978-a22b-e4b8d1027634","system_id":"levelo_inurba_marseille","lat":43.3044,"lon":5.38888,"is_reserved":false,"is_disabled":false,"rental_uris":{"android":"levelo://app?vid=98cbd6d2-b826-4978-a22b-e4b8d1027634","ios":"levelo://app?vid=98cbd6d2-b826-4978-a22b-e4b8d1027634"},"vehicle_type_id":"4","last_reported":1753567829,"current_range_meters":4800,"station_id":"ce4bgk12rcd13ifvqbi0","pricing_plan_id":"cebpf4jnsgd1na2vs0mg"},{"bike_id":"6af7a72a-189c-4dbc-9282-a956426542ba","system_id":"levelo_inurba_marseille","lat":43.22512,"lon":5.34779,"is_reserved":false,"is_disabled":false,"rental_uris":{"android":"levelo://app?vid=6af7a72a-189c-4dbc-9282-a956426542ba","ios":"levelo://app?vid=6af7a72a-189c-4dbc-9282-a956426542ba"},"vehicle_type_id":"4","last_reported":1753567829,"current_range_meters":4800,"station_id":"","pricing_plan_id":"cebpf4jnsgd1na2vs0mg"},{"bike_id":"ff30a5ee-0e9d-4bfa-a593-c7beaf9df463","system_id":"levelo_inurba_marseille","lat":43.33531,"lon":5.36204,"is_reserved":false,"is_disabled":false,"rental_uris":{"android":"levelo://app?vid=ff30a5ee-0e9d-4bfa-a593-c7beaf9df463","ios":"levelo://app?vid=ff30a5ee-0e9d-4bfa-a593-c7beaf9df463"},"vehicle_type_id":"4","last_reported":1753567829,"current_range_meters":4800,"station_id":"","pricing_plan_id":"cebpf4jnsgd1na2vs0mg"},{"bike_id":"89dcea3a-f7f7-44b2-9d2c-a3300861829d","system_id":"levelo_inurba_marseille","lat":43.27865,"lon":5.3969,"is_reserved":false,"is_disabled":false,"rental_uris":{"android":"levelo://app?vid=89dcea3a-f7f7-44b2-9d2c-a3300861829d","ios":"levelo://app?vid=89dcea3a-f7f7-44b2-9d2c-a3300861829d"},"vehicle_type_id":"4","last_reported":1753567829,"current_range_meters":5600,"station_id":"","pricing_plan_id":"cebpf4jnsgd1na2vs0mg"},{"bike_id":"4a12b5a2-e9f0-4ab7-9dcd-d91be8d5e3b0","system_id":"levelo_inurba_marseille","lat":43.30559,"lon":5.36549,"is_reserved":false,"is_disabled":true,"rental_uris":{"android":"levelo://app?vid=4a12b5a2-e9f0-4ab7-9dcd-d91be8d5e3b0","ios":"levelo://app?vid=4a12b5a2-e9f0-4ab7-9dcd-d91be8d5e3b0"},"vehicle_type_id":"4","last_reported":1753567829,"current_range_meters":5600,"station_id":"ce4bgs12rcd13ifvqcag","pricing_plan_id":"cebpf4jnsgd1na2vs0mg"},{"bike_id":"3373b990-855a-4413-88e1-982f325228bc","system_id":"levelo_inurba_marseille","lat":43.29643,"lon":5.3695,"is_reserved":false,"is_disabled":false,"rental_uris":{"android":"levelo://app?vid=3373b990-855a-4413-88e1-982f325228bc","ios":"levelo://app?vid=3373b990-855a-4413-88e1-982f325228bc"},"vehicle_type_id":"4","last_reported":1753567829,"current_range_meters":5600,"station_id":"","pricing_plan_id":"cebpf4jnsgd1na2vs0mg"},{"bike_id":"5a690032-7efd-48cf-8114-359e228c6fe6","system_id":"levelo_inurba_marseille","lat":43.3234,"lon":5.4062,"is_reserved":false,"is_disabled":false,"rental_uris":{"android":"levelo://app?vid=5a690032-7efd-48cf-8114-359e228c6fe6","ios":"levelo://app?vid=5a690032-7efd-48cf-8114-359e228c6fe6"},"vehicle_type_id":"4","last_reported":1753567829,"current_range_meters":6000,"station_id":"ce4bhq92rcd13ifvqhjg","pricing_plan_id":"cebpf4jnsgd1na2vs0mg"},{"bike_id":"be1f46e1-b208-4477-ac0e-0e8346ce7117","system_id":"levelo_inurba_marseille","lat":43.22496,"lon":5.34781,"is_reserved":false,"is_disabled":false,"rental_uris":{"android":"levelo://app?vid=be1f46e1-b208-4477-ac0e-0e8346ce7117","ios":"levelo://app?vid=be1f46e1-b208-4477-ac0e-0e8346ce7117"},"vehicle_type_id":"4","last_reported":1753567829,"current_range_meters":6400,"station_id":"st_cvj5dfep6f1abm77gieg","pricing_plan_id":"cebpf4jnsgd1na2vs0mg"},{"bike_id":"da2dca42-f134-4e4a-82a2-b995476c594c","system_id":"levelo_inurba_marseille","lat":43.3013,"lon":5.3879,"is_reserved":false,"is_disabled":false,"rental_uris":{"android":"levelo://app?vid=da2dca42-f134-4e4a-82a2-b995476c594c","ios":"levelo://app?vid=da2dca42-f134-4e4a-82a2-b995476c594c"},"vehicle_type_id":"4","last_reported":1753567829,"current_range_meters":6400,"station_id":"ce4bghh2rcd13ifvqb60","pricing_plan_id":"cebpf4jnsgd1na2vs0mg"},{"bike_id":"9556f6fd-cc42-4cc7-b77f-6b0d5c6d9408","system_id":"levelo_inurba_marseille","lat":43.260315,"lon":5.375416,"is_reserved":false,"is_disabled":false,"rental_uris":{"android":"levelo://app?vid=9556f6fd-cc42-4cc7-b77f-6b0d5c6d9408","ios":"levelo://app?vid=9556f6fd-cc42-4cc7-b77f-6b0d5c6d9408"},"vehicle_type_id":"4","last_reported":1753567829,"current_range_meters":6400,"station_id":"cpo3532slgdg3j2ikp40","pricing_plan_id":"cebpf4jnsgd1na2vs0mg"},{"bike_id":"bc38db49-3cf0-4f24-98b8-7c13cf60a7ff","system_id":"levelo_inurba_marseille","lat":43.31372,"lon":5.38494,"is_reserved":false,"is_disabled":false,"rental_uris":{"android":"levelo://app?vid=bc38db49-3cf0-4f24-98b8-7c13cf60a7ff","ios":"levelo://app?vid=bc38db49-3cf0-4f24-98b8-7c13cf60a7ff"},"vehicle_type_id":"4","last_reported":1753567829,"current_range_meters":6800,"station_id":"ce4bgt92rcd13ifvqcf0","pricing_plan_id":"cebpf4jnsgd1na2vs0mg"},{"bike_id":"659696a2-3854-4019-bdd0-5ad56ba4750d","system_id":"levelo_inurba_marseille","lat":43.28159,"lon":5.42632,"is_reserved":false,"is_disabled":true,"rental_uris":{"android":"levelo://app?vid=659696a2-3854-4019-bdd0-5ad56ba4750d","ios":"levelo://app?vid=659696a2-3854-4019-bdd0-5ad56ba4750d"},"vehicle_type_id":"4","last_reported":1753567829,"current_range_meters":6800,"station_id":"ce4bhnh2rcd13ifvqgug","pricing_plan_id":"cebpf4jnsgd1na2vs0mg"},{"bike_id":"5117f46d-badd-4a8c-9198-02e24c275571","system_id":"levelo_inurba_marseille","lat":43.26502,"lon":5.39537,"is_reserved":false,"is_disabled":false,"rental_uris":{"android":"levelo://app?vid=5117f46d-badd-4a8c-9198-02e24c275571","ios":"levelo://app?vid=5117f46d-badd-4a8c-9198-02e24c275571"},"vehicle_type_id":"4","last_reported":1753567829,"current_range_meters":6800,"station_id":"ce4bhi12rcd13ifvqfq0","pricing_plan_id":"cebpf4jnsgd1na2vs0mg"},{"bike_id":"3a8d32ce-4933-49d7-9bd0-be167cbf0dc2","system_id":"levelo_inurba_marseille","lat":43.30308,"lon":5.36902,"is_reserved":false,"is_disabled":false,"rental_uris":{"android":"levelo://app?vid=3a8d32ce-4933-49d7-9bd0-be167cbf0dc2","ios":"levelo://app?vid=3a8d32ce-4933-49d7-9bd0-be167cbf0dc2"},"vehicle_type_id":"4","last_reported":1753567829,"current_range_meters":6400,"station_id":"ce4bgqh2rcd13ifvqc5g","pricing_plan_id":"cebpf4jnsgd1na2vs0mg"},{"bike_id":"4d59e1de-b26d-45e9-93ba-2895a9a1ffbd","system_id":"levelo_inurba_marseille","lat":43.29517,"lon":5.38653,"is_reserved":false,"is_disabled":false,"rental_uris":{"android":"levelo://app?vid=4d59e1de-b26d-45e9-93ba-2895a9a1ffbd","ios":"levelo://app?vid=4d59e1de-b26d-45e9-93ba-2895a9a1ffbd"},"vehicle_type_id":"4","last_reported":1753567829,"current_range_meters":7200,"station_id":"","pricing_plan_id":"cebpf4jnsgd1na2vs0mg"},{"bike_id":"078febbd-6d49-4abf-8b46-d33f87f8da46","system_id":"levelo_inurba_marseille","lat":43.25452,"lon":5.38007,"is_reserved":false,"is_disabled":false,"rental_uris":{"android":"levelo://app?vid=078febbd-6d49-4abf-8b46-d33f87f8da46","ios":"levelo://app?vid=078febbd-6d49-4abf-8b46-d33f87f8da46"},"vehicle_type_id":"4","last_reported":1753567829,"current_range_meters":7200,"station_id":"","pricing_plan_id":"cebpf4jnsgd1na2vs0mg"},{"bike_id":"3046ae23-d6fe-4547-b114-d7e29e657001","system_id":"levelo_inurba_marseille","lat":43.26182,"lon":5.37475,"is_reserved":false,"is_disabled":true,"rental_uris":{"android":"levelo://app?vid=3046ae23-d6fe-4547-b114-d7e29e657001","ios":"levelo://app?vid=3046ae23-d6fe-4547-b114-d7e29e657001"},"vehicle_type_id":"4","last_reported":1753567829,"current_range_meters":7200,"station_id":"ce4bhgp2rcd13ifvqfc0","pricing_plan_id":"cebpf4jnsgd1na2vs0mg"},{"bike_id":"8b454f8e-a2cc-4f8a-9b75-defe6a01169e","system_id":"levelo_inurba_marseille","lat":43.28716,"lon":5.37512,"is_reserved":false,"is_disabled":false,"rental_uris":{"android":"levelo://app?vid=8b454f8e-a2cc-4f8a-9b75-defe6a01169e","ios":"levelo://app?vid=8b454f8e-a2cc-4f8a-9b75-defe6a01169e"},"vehicle_type_id":"4","last_reported":1753567829,"current_range_meters":7200,"station_id":"","pricing_plan_id":"cebpf4jnsgd1na2vs0mg"},{"bike_id":"9f2c2b2f-63ef-43ea-a99e-b086901fbdc7","system_id":"levelo_inurba_marseille","lat":43.28342,"lon":5.38104,"is_reserved":false,"is_disabled":false,"rental_uris":{"android":"levelo://app?vid=9f2c2b2f-63ef-43ea-a99e-b086901fbdc7","ios":"levelo://app?vid=9f2c2b2f-63ef-43ea-a99e-b086901fbdc7"},"vehicle_type_id":"4","last_reported":1753567829,"current_range_meters":7200,"station_id":"ce4bh412rcd13ifvqdr0","pricing_plan_id":"cebpf4jnsgd1na2vs0mg"},{"bike_id":"c1dcf064-7633-4f3e-9c7d-cf25342fb85f","system_id":"levelo_inurba_marseille","lat":43.2721,"lon":5.39194,"is_reserved":false,"is_disabled":true,"rental_uris":{"android":"levelo://app?vid=c1dcf064-7633-4f3e-9c7d-cf25342fb85f","ios":"levelo://app?vid=c1dcf064-7633-4f3e-9c7d-cf25342fb85f"},"vehicle_type_id":"4","last_reported":1753567829,"current_range_meters":7200,"station_id":"ce4bhhp2rcd13ifvqfm0","pricing_plan_id":"cebpf4jnsgd1na2vs0mg"},{"bike_id":"f123af25-f5e1-4535-bf9a-e453fb7322cc","system_id":"levelo_inurba_marseille","lat":43.27524,"lon":5.40908,"is_reserved":false,"is_disabled":false,"rental_uris":{"android":"levelo://app?vid=f123af25-f5e1-4535-bf9a-e453fb7322cc","ios":"levelo://app?vid=f123af25-f5e1-4535-bf9a-e453fb7322cc"},"vehicle_type_id":"4","last_reported":1753567829,"current_range_meters":8000,"station_id":"","pricing_plan_id":"cebpf4jnsgd1na2vs0mg"},{"bike_id":"aaf2441e-75c5-461e-a359-18972189fcdb","system_id":"levelo_inurba_marseille","lat":43.29786,"lon":5.38111,"is_reserved":false,"is_disabled":false,"rental_uris":{"android":"levelo://app?vid=aaf2441e-75c5-461e-a359-18972189fcdb","ios":"levelo://app?vid=aaf2441e-75c5-461e-a359-18972189fcdb"},"vehicle_type_id":"4","last_reported":1753567829,"current_range_meters":8000,"station_id":"ce4bgip2rcd13ifvqbb0","pricing_plan_id":"cebpf4jnsgd1na2vs0mg"},{"bike_id":"68efc304-0d41-4c98-a023-943580f46380","system_id":"levelo_inurba_marseille","lat":43.22505,"lon":5.3479,"is_reserved":false,"is_disabled":true,"rental_uris":{"android":"levelo://app?vid=68efc304-0d41-4c98-a023-943580f46380","ios":"levelo://app?vid=68efc304-0d41-4c98-a023-943580f46380"},"vehicle_type_id":"4","last_reported":1753567829,"current_range_meters":8000,"station_id":"st_cvj5dfep6f1abm77gieg","pricing_plan_id":"cebpf4jnsgd1na2vs0mg"},{"bike_id":"ad8fd6e0-e124-442a-9216-0866f0d19467","system_id":"levelo_inurba_marseille","lat":43.28464,"lon":5.3588,"is_reserved":false,"is_disabled":false,"rental_uris":{"android":"levelo://app?vid=ad8fd6e0-e124-442a-9216-0866f0d19467","ios":"levelo://app?vid=ad8fd6e0-e124-442a-9216-0866f0d19467"},"vehicle_type_id":"4","last_reported":1753567829,"current_range_meters":8400,"station_id":"ce4bhah2rcd13ifvqei0","pricing_plan_id":"cebpf4jnsgd1na2vs0mg"},{"bike_id":"02ad9c89-0406-4b96-a530-c10fdce1f041","system_id":"levelo_inurba_marseille","lat":43.25422,"lon":5.41647,"is_reserved":false,"is_disabled":false,"rental_uris":{"android":"levelo://app?vid=02ad9c89-0406-4b96-a530-c10fdce1f041","ios":"levelo://app?vid=02ad9c89-0406-4b96-a530-c10fdce1f041"},"vehicle_type_id":"4","last_reported":1753567829,"current_range_meters":8400,"station_id":"","pricing_plan_id":"cebpf4jnsgd1na2vs0mg"},{"bike_id":"acdc15f3-f881-4795-bd43-7b1b297ebaa4","system_id":"levelo_inurba_marseille","lat":43.27066,"lon":5.42275,"is_reserved":false,"is_disabled":true,"rental_uris":{"android":"levelo://app?vid=acdc15f3-f881-4795-bd43-7b1b297ebaa4","ios":"levelo://app?vid=acdc15f3-f881-4795-bd43-7b1b297ebaa4"},"vehicle_type_id":"4","last_reported":1753567829,"current_range_meters":8400,"station_id":"ce4bhk92rcd13ifvqgb0","pricing_plan_id":"cebpf4jnsgd1na2vs0mg"},{"bike_id":"03ff9f69-e6db-4536-8232-227cec9c2de3","system_id":"levelo_inurba_marseille","lat":43.300865,"lon":5.390741,"is_reserved":false,"is_disabled":false,"rental_uris":{"android":"levelo://app?vid=03ff9f69-e6db-4536-8232-227cec9c2de3","ios":"levelo://app?vid=03ff9f69-e6db-4536-8232-227cec9c2de3"},"vehicle_type_id":"4","last_reported":1753567829,"current_range_meters":8400,"station_id":"ce4bh192rcd13ifvqdb0","pricing_plan_id":"cebpf4jnsgd1na2vs0mg"},{"bike_id":"edc4f741-80cf-4b57-be16-0f120fdcf34a","system_id":"levelo_inurba_marseille","lat":43.29529,"lon":5.38549,"is_reserved":false,"is_disabled":false,"rental_uris":{"android":"levelo://app?vid=edc4f741-80cf-4b57-be16-0f120fdcf34a","ios":"levelo://app?vid=edc4f741-80cf-4b57-be16-0f120fdcf34a"},"vehicle_type_id":"4","last_reported":1753567829,"current_range_meters":8400,"station_id":"ce4bgih2rcd13ifvqba0","pricing_plan_id":"cebpf4jnsgd1na2vs0mg"},{"bike_id":"3ef72bb7-fe1e-4de0-993a-abe70d469f2a","system_id":"levelo_inurba_marseille","lat":43.29892,"lon":5.37628,"is_reserved":false,"is_disabled":false,"rental_uris":{"android":"levelo://app?vid=3ef72bb7-fe1e-4de0-993a-abe70d469f2a","ios":"levelo://app?vid=3ef72bb7-fe1e-4de0-993a-abe70d469f2a"},"vehicle_type_id":"4","last_reported":1753567829,"current_range_meters":8400,"station_id":"","pricing_plan_id":"cebpf4jnsgd1na2vs0mg"},{"bike_id":"a0d60e44-246d-4cc0-aef3-dc664879b373","system_id":"levelo_inurba_marseille","lat":43.21743,"lon":5.34611,"is_reserved":false,"is_disabled":true,"rental_uris":{"android":"levelo://app?vid=a0d60e44-246d-4cc0-aef3-dc664879b373","ios":"levelo://app?vid=a0d60e44-246d-4cc0-aef3-dc664879b373"},"vehicle_type_id":"4","last_reported":1753567829,"current_range_meters":8800,"station_id":"st_cvj6r9ubvosntc0bgbag","pricing_plan_id":"cebpf4jnsgd1na2vs0mg"},{"bike_id":"d2d6cb76-9c13-4419-8ead-4bcc6e2a698a","system_id":"levelo_inurba_marseille","lat":43.29258,"lon":5.38434,"is_reserved":false,"is_disabled":false,"rental_uris":{"android":"levelo://app?vid=d2d6cb76-9c13-4419-8ead-4bcc6e2a698a","ios":"levelo://app?vid=d2d6cb76-9c13-4419-8ead-4bcc6e2a698a"},"vehicle_type_id":"4","last_reported":1753567829,"current_range_meters":9200,"station_id":"ce4bh692rcd13ifvqea0","pricing_plan_id":"cebpf4jnsgd1na2vs0mg"},{"bike_id":"f9ef873a-94ba-40b9-82f5-1191bbd44d8f","system_id":"levelo_inurba_marseille","lat":43.30972,"lon":5.39058,"is_reserved":false,"is_disabled":false,"rental_uris":{"android":"levelo://app?vid=f9ef873a-94ba-40b9-82f5-1191bbd44d8f","ios":"levelo://app?vid=f9ef873a-94ba-40b9-82f5-1191bbd44d8f"},"vehicle_type_id":"4","last_reported":1753567829,"current_range_meters":9200,"station_id":"ce4bgup2rcd13ifvqco0","pricing_plan_id":"cebpf4jnsgd1na2vs0mg"},{"bike_id":"2dbb4b57-7f88-41c9-9f40-75e9c29ad4ee","system_id":"levelo_inurba_marseille","lat":43.29447,"lon":5.39732,"is_reserved":false,"is_disabled":false,"rental_uris":{"android":"levelo://app?vid=2dbb4b57-7f88-41c9-9f40-75e9c29ad4ee","ios":"levelo://app?vid=2dbb4b57-7f88-41c9-9f40-75e9c29ad4ee"},"vehicle_type_id":"4","last_reported":1753567829,"current_range_meters":9200,"station_id":"ce4bh3h2rcd13ifvqdo0","pricing_plan_id":"cebpf4jnsgd1na2vs0mg"},{"bike_id":"d497f12f-5992-41a8-98c2-97b5a77e0468","system_id":"levelo_inurba_marseille","lat":43.28437,"lon":5.37523,"is_reserved":false,"is_disabled":false,"rental_uris":{"android":"levelo://app?vid=d497f12f-5992-41a8-98c2-97b5a77e0468","ios":"levelo://app?vid=d497f12f-5992-41a8-98c2-97b5a77e0468"},"vehicle_type_id":"4","last_reported":1753567829,"current_range_meters":9200,"station_id":"ce4bh412rcd13ifvqds0","pricing_plan_id":"cebpf4jnsgd1na2vs0mg"},{"bike_id":"ab991371-506a-411d-b1d8-1efc5ac7cde6","system_id":"levelo_inurba_marseille","lat":43.22798,"lon":5.35198,"is_reserved":false,"is_disabled":false,"rental_uris":{"android":"levelo://app?vid=ab991371-506a-411d-b1d8-1efc5ac7cde6","ios":"levelo://app?vid=ab991371-506a-411d-b1d8-1efc5ac7cde6"},"vehicle_type_id":"4","last_reported":1753567829,"current_range_meters":9200,"station_id":"","pricing_plan_id":"cebpf4jnsgd1na2vs0mg"},{"bike_id":"75a52d90-a84e-49e8-9197-7fd3f8d0259a","system_id":"levelo_inurba_marseille","lat":43.26237,"lon":5.37466,"is_reserved":false,"is_disabled":true,"rental_uris":{"android":"levelo://app?vid=75a52d90-a84e-49e8-9197-7fd3f8d0259a","ios":"levelo://app?vid=75a52d90-a84e-49e8-9197-7fd3f8d0259a"},"vehicle_type_id":"4","last_reported":1753567829,"current_range_meters":9200,"station_id":"","pricing_plan_id":"cebpf4jnsgd1na2vs0mg"},{"bike_id":"a3fe9995-2e3e-423b-9540-429a92fa997e","system_id":"levelo_inurba_marseille","lat":43.30067,"lon":5.37306,"is_reserved":false,"is_disabled":false,"rental_uris":{"android":"levelo://app?vid=a3fe9995-2e3e-423b-9540-429a92fa997e","ios":"levelo://app?vid=a3fe9995-2e3e-423b-9540-429a92fa997e"},"vehicle_type_id":"4","last_reported":1753567829,"current_range_meters":9200,"station_id":"","pricing_plan_id":"cebpf4jnsgd1na2vs0mg"},{"bike_id":"1aa9d0b8-351a-43ce-a43b-52de780558c7","system_id":"levelo_inurba_marseille","lat":43.27813,"lon":5.40713,"is_reserved":false,"is_disabled":false,"rental_uris":{"android":"levelo://app?vid=1aa9d0b8-351a-43ce-a43b-52de780558c7","ios":"levelo://app?vid=1aa9d0b8-351a-43ce-a43b-52de780558c7"},"vehicle_type_id":"4","last_reported":1753567829,"current_range_meters":9200,"station_id":"ce4bhnh2rcd13ifvqgtg","pricing_plan_id":"cebpf4jnsgd1na2vs0mg"},{"bike_id":"d8d65e4e-10ea-466b-a979-48567a8cd853","system_id":"levelo_inurba_marseille","lat":43.25496,"lon":5.3765,"is_reserved":false,"is_disabled":false,"rental_uris":{"android":"levelo://app?vid=d8d65e4e-10ea-466b-a979-48567a8cd853","ios":"levelo://app?vid=d8d65e4e-10ea-466b-a979-48567a8cd853"},"vehicle_type_id":"4","last_reported":1753567829,"current_range_meters":9600,"station_id":"ce4bhh12rcd13ifvqff0","pricing_plan_id":"cebpf4jnsgd1na2vs0mg"},{"bike_id":"2941745c-2a27-434c-82df-93571b8f94f5","system_id":"levelo_inurba_marseille","lat":43.27373,"lon":5.36261,"is_reserved":false,"is_disabled":false,"rental_uris":{"android":"levelo://app?vid=2941745c-2a27-434c-82df-93571b8f94f5","ios":"levelo://app?vid=2941745c-2a27-434c-82df-93571b8f94f5"},"vehicle_type_id":"4","last_reported":1753567829,"current_range_meters":9600,"station_id":"ce4bhbh2rcd13ifvqeo0","pricing_plan_id":"cebpf4jnsgd1na2vs0mg"},{"bike_id":"22dca147-1260-44d8-822d-d9d1d50cce31","system_id":"levelo_inurba_marseille","lat":43.27463,"lon":5.39574,"is_reserved":false,"is_disabled":false,"rental_uris":{"android":"levelo://app?vid=22dca147-1260-44d8-822d-d9d1d50cce31","ios":"levelo://app?vid=22dca147-1260-44d8-822d-d9d1d50cce31"},"vehicle_type_id":"4","last_reported":1753567829,"current_range_meters":9600,"station_id":"","pricing_plan_id":"cebpf4jnsgd1na2vs0mg"},{"bike_id":"84882a31-1213-47e0-b12d-766f8e07ac9b","system_id":"levelo_inurba_marseille","lat":43.301896,"lon":5.397588,"is_reserved":false,"is_disabled":false,"rental_uris":{"android":"levelo://app?vid=84882a31-1213-47e0-b12d-766f8e07ac9b","ios":"levelo://app?vid=84882a31-1213-47e0-b12d-766f8e07ac9b"},"vehicle_type_id":"4","last_reported":1753567829,"current_range_meters":9600,"station_id":"ce4bh0h2rcd13ifvqd40","pricing_plan_id":"cebpf4jnsgd1na2vs0mg"},{"bike_id":"11f90f91-795d-4e4c-8acd-ca86fec62210","system_id":"levelo_inurba_marseille","lat":43.2706,"lon":5.40261,"is_reserved":false,"is_disabled":false,"rental_uris":{"android":"levelo://app?vid=11f90f91-795d-4e4c-8acd-ca86fec62210","ios":"levelo://app?vid=11f90f91-795d-4e4c-8acd-ca86fec62210"},"vehicle_type_id":"4","last_reported":1753567829,"current_range_meters":9600,"station_id":"ce4bhk92rcd13ifvqgc0","pricing_plan_id":"cebpf4jnsgd1na2vs0mg"},{"bike_id":"65a8ad05-f522-4873-a934-26463edb271a","system_id":"levelo_inurba_marseille","lat":43.2924,"lon":5.38444,"is_reserved":false,"is_disabled":false,"rental_uris":{"android":"levelo://app?vid=65a8ad05-f522-4873-a934-26463edb271a","ios":"levelo://app?vid=65a8ad05-f522-4873-a934-26463edb271a"},"vehicle_type_id":"4","last_reported":1753567829,"current_range_meters":9600,"station_id":"ce4bh692rcd13ifvqea0","pricing_plan_id":"cebpf4jnsgd1na2vs0mg"},{"bike_id":"295de28f-5469-421c-873e-076d2fbd1d95","system_id":"levelo_inurba_marseille","lat":43.28607,"lon":5.37063,"is_reserved":false,"is_disabled":false,"rental_uris":{"android":"levelo://app?vid=295de28f-5469-421c-873e-076d2fbd1d95","ios":"levelo://app?vid=295de28f-5469-421c-873e-076d2fbd1d95"},"vehicle_type_id":"4","last_reported":1753567829,"current_range_meters":9600,"station_id":"ce4bht12rcd13ifvqi60","pricing_plan_id":"cebpf4jnsgd1na2vs0mg"},{"bike_id":"6ab0b13c-2ff1-417a-acfd-489d6800d4c9","system_id":"levelo_inurba_marseille","lat":43.27395,"lon":5.36239,"is_reserved":false,"is_disabled":true,"rental_uris":{"android":"levelo://app?vid=6ab0b13c-2ff1-417a-acfd-489d6800d4c9","ios":"levelo://app?vid=6ab0b13c-2ff1-417a-acfd-489d6800d4c9"},"vehicle_type_id":"4","last_reported":1753567829,"current_range_meters":9600,"station_id":"ce4bhbh2rcd13ifvqeo0","pricing_plan_id":"cebpf4jnsgd1na2vs0mg"},{"bike_id":"865c8135-1809-4abe-99ce-df01e79154b7","system_id":"levelo_inurba_marseille","lat":43.25821,"lon":5.39436,"is_reserved":false,"is_disabled":false,"rental_uris":{"android":"levelo://app?vid=865c8135-1809-4abe-99ce-df01e79154b7","ios":"levelo://app?vid=865c8135-1809-4abe-99ce-df01e79154b7"},"vehicle_type_id":"4","last_reported":1753567829,"current_range_meters":10000,"station_id":"ce4bhip2rcd13ifvqft0","pricing_plan_id":"cebpf4jnsgd1na2vs0mg"},{"bike_id":"754f55fa-9cec-441a-8b6d-fedcd1f0cfca","system_id":"levelo_inurba_marseille","lat":43.29527,"lon":5.38535,"is_reserved":false,"is_disabled":false,"rental_uris":{"android":"levelo://app?vid=754f55fa-9cec-441a-8b6d-fedcd1f0cfca","ios":"levelo://app?vid=754f55fa-9cec-441a-8b6d-fedcd1f0cfca"},"vehicle_type_id":"4","last_reported":1753567829,"current_range_meters":10000,"station_id":"ce4bgih2rcd13ifvqba0","pricing_plan_id":"cebpf4jnsgd1na2vs0mg"},{"bike_id":"8aec49e9-2a7c-473f-936a-01f180d46c56","system_id":"levelo_inurba_marseille","lat":43.225044,"lon":5.347839,"is_reserved":false,"is_disabled":false,"rental_uris":{"android":"levelo://app?vid=8aec49e9-2a7c-473f-936a-01f180d46c56","ios":"levelo://app?vid=8aec49e9-2a7c-473f-936a-01f180d46c56"},"vehicle_type_id":"4","last_reported":1753567829,"current_range_meters":10000,"station_id":"st_cvj5dfep6f1abm77gieg","pricing_plan_id":"cebpf4jnsgd1na2vs0mg"},{"bike_id":"ef592710-f4a1-404c-9095-9497f4271d1e","system_id":"levelo_inurba_marseille","lat":43.29521,"lon":5.38535,"is_reserved":false,"is_disabled":false,"rental_uris":{"android":"levelo://app?vid=ef592710-f4a1-404c-9095-9497f4271d1e","ios":"levelo://app?vid=ef592710-f4a1-404c-9095-9497f4271d1e"},"vehicle_type_id":"4","last_reported":1753567829,"current_range_meters":10000,"station_id":"ce4bgih2rcd13ifvqba0","pricing_plan_id":"cebpf4jnsgd1na2vs0mg"},{"bike_id":"4ec2ea85-cdae-4090-8b53-dd38eb6bc485","system_id":"levelo_inurba_marseille","lat":43.29019,"lon":5.38627,"is_reserved":false,"is_disabled":false,"rental_uris":{"android":"levelo://app?vid=4ec2ea85-cdae-4090-8b53-dd38eb6bc485","ios":"levelo://app?vid=4ec2ea85-cdae-4090-8b53-dd38eb6bc485"},"vehicle_type_id":"4","last_reported":1753567829,"current_range_meters":10000,"station_id":"ce4bh4p2rcd13ifvqe0g","pricing_plan_id":"cebpf4jnsgd1na2vs0mg"},{"bike_id":"fdf57b75-c995-47bc-85be-a80ab580e036","system_id":"levelo_inurba_marseille","lat":43.27942,"lon":5.41049,"is_reserved":false,"is_disabled":false,"rental_uris":{"android":"levelo://app?vid=fdf57b75-c995-47bc-85be-a80ab580e036","ios":"levelo://app?vid=fdf57b75-c995-47bc-85be-a80ab580e036"},"vehicle_type_id":"4","last_reported":1753567829,"current_range_meters":10800,"station_id":"ce4bhnp2rcd13ifvqh0g","pricing_plan_id":"cebpf4jnsgd1na2vs0mg"},{"bike_id":"d1e9c7dd-91b8-4bbe-bf19-375f97a76459","system_id":"levelo_inurba_marseille","lat":43.31727,"lon":5.37283,"is_reserved":false,"is_disabled":false,"rental_uris":{"android":"levelo://app?vid=d1e9c7dd-91b8-4bbe-bf19-375f97a76459","ios":"levelo://app?vid=d1e9c7dd-91b8-4bbe-bf19-375f97a76459"},"vehicle_type_id":"4","last_reported":1753567829,"current_range_meters":11200,"station_id":"","pricing_plan_id":"cebpf4jnsgd1na2vs0mg"},{"bike_id":"b5bdf37f-0ab4-441a-844f-e51dbfb5b2a3","system_id":"levelo_inurba_marseille","lat":43.27946,"lon":5.41045,"is_reserved":false,"is_disabled":false,"rental_uris":{"android":"levelo://app?vid=b5bdf37f-0ab4-441a-844f-e51dbfb5b2a3","ios":"levelo://app?vid=b5bdf37f-0ab4-441a-844f-e51dbfb5b2a3"},"vehicle_type_id":"4","last_reported":1753567829,"current_range_meters":10800,"station_id":"ce4bhnp2rcd13ifvqh0g","pricing_plan_id":"cebpf4jnsgd1na2vs0mg"},{"bike_id":"de99b14c-9afd-4bdd-bc56-50354c110c3d","system_id":"levelo_inurba_marseille","lat":43.25467,"lon":5.37687,"is_reserved":false,"is_disabled":false,"rental_uris":{"android":"levelo://app?vid=de99b14c-9afd-4bdd-bc56-50354c110c3d","ios":"levelo://app?vid=de99b14c-9afd-4bdd-bc56-50354c110c3d"},"vehicle_type_id":"4","last_reported":1753567829,"current_range_meters":10800,"station_id":"","pricing_plan_id":"cebpf4jnsgd1na2vs0mg"},{"bike_id":"9bff4c30-7d52-4173-88ba-afd3702b54f6","system_id":"levelo_inurba_marseille","lat":43.27965,"lon":5.41672,"is_reserved":false,"is_disabled":false,"rental_uris":{"android":"levelo://app?vid=9bff4c30-7d52-4173-88ba-afd3702b54f6","ios":"levelo://app?vid=9bff4c30-7d52-4173-88ba-afd3702b54f6"},"vehicle_type_id":"4","last_reported":1753567829,"current_range_meters":10800,"station_id":"ce4bho12rcd13ifvqh1g","pricing_plan_id":"cebpf4jnsgd1na2vs0mg"},{"bike_id":"01919711-51c0-4b9e-863e-584f9a31b4ec","system_id":"levelo_inurba_marseille","lat":43.29907,"lon":5.3976,"is_reserved":false,"is_disabled":true,"rental_uris":{"android":"levelo://app?vid=01919711-51c0-4b9e-863e-584f9a31b4ec","ios":"levelo://app?vid=01919711-51c0-4b9e-863e-584f9a31b4ec"},"vehicle_type_id":"4","last_reported":1753567829,"current_range_meters":10800,"station_id":"ce4bh0h2rcd13ifvqd50","pricing_plan_id":"cebpf4jnsgd1na2vs0mg"},{"bike_id":"49745255-e461-4259-a8da-aac100b677a5","system_id":"levelo_inurba_marseille","lat":43.29364,"lon":5.37178,"is_reserved":false,"is_disabled":false,"rental_uris":{"android":"levelo://app?vid=49745255-e461-4259-a8da-aac100b677a5","ios":"levelo://app?vid=49745255-e461-4259-a8da-aac100b677a5"},"vehicle_type_id":"4","last_reported":1753567829,"current_range_meters":10800,"station_id":"","pricing_plan_id":"cebpf4jnsgd1na2vs0mg"},{"bike_id":"57755280-973c-4ff3-9c25-8f15e2c5b510","system_id":"levelo_inurba_marseille","lat":43.31872,"lon":5.37373,"is_reserved":false,"is_disabled":false,"rental_uris":{"android":"levelo://app?vid=57755280-973c-4ff3-9c25-8f15e2c5b510","ios":"levelo://app?vid=57755280-973c-4ff3-9c25-8f15e2c5b510"},"vehicle_type_id":"4","last_reported":1753567829,"current_range_meters":10800,"station_id":"","pricing_plan_id":"cebpf4jnsgd1na2vs0mg"},{"bike_id":"73925dde-7d42-48d8-a0ff-958907b37938","system_id":"levelo_inurba_marseille","lat":43.29583,"lon":5.38114,"is_reserved":false,"is_disabled":false,"rental_uris":{"android":"levelo://app?vid=73925dde-7d42-48d8-a0ff-958907b37938","ios":"levelo://app?vid=73925dde-7d42-48d8-a0ff-958907b37938"},"vehicle_type_id":"4","last_reported":1753567829,"current_range_meters":10800,"station_id":"ce4bgl12rcd13ifvqbo0","pricing_plan_id":"cebpf4jnsgd1na2vs0mg"},{"bike_id":"f2c0d178-a474-46a0-b002-379a7a30c411","system_id":"levelo_inurba_marseille","lat":43.29419,"lon":5.37632,"is_reserved":false,"is_disabled":false,"rental_uris":{"android":"levelo://app?vid=f2c0d178-a474-46a0-b002-379a7a30c411","ios":"levelo://app?vid=f2c0d178-a474-46a0-b002-379a7a30c411"},"vehicle_type_id":"4","last_reported":1753567829,"current_range_meters":11200,"station_id":"","pricing_plan_id":"cebpf4jnsgd1na2vs0mg"},{"bike_id":"de80e1f8-f338-4fdf-a46a-fb5d0e7700ed","system_id":"levelo_inurba_marseille","lat":43.23969,"lon":5.36625,"is_reserved":false,"is_disabled":false,"rental_uris":{"android":"levelo://app?vid=de80e1f8-f338-4fdf-a46a-fb5d0e7700ed","ios":"levelo://app?vid=de80e1f8-f338-4fdf-a46a-fb5d0e7700ed"},"vehicle_type_id":"4","last_reported":1753567829,"current_range_meters":11200,"station_id":"ce4bhi12rcd13ifvqfp0","pricing_plan_id":"cebpf4jnsgd1na2vs0mg"},{"bike_id":"1bd499a3-561d-4879-8ab0-5f538c66a5f1","system_id":"levelo_inurba_marseille","lat":43.25101,"lon":5.40326,"is_reserved":false,"is_disabled":false,"rental_uris":{"android":"levelo://app?vid=1bd499a3-561d-4879-8ab0-5f538c66a5f1","ios":"levelo://app?vid=1bd499a3-561d-4879-8ab0-5f538c66a5f1"},"vehicle_type_id":"4","last_reported":1753567829,"current_range_meters":11200,"station_id":"ce4bhlh2rcd13ifvqgig","pricing_plan_id":"cebpf4jnsgd1na2vs0mg"},{"bike_id":"22c18818-21ba-4c9a-84b8-e03ade2dba42","system_id":"levelo_inurba_marseille","lat":43.29512,"lon":5.38506,"is_reserved":false,"is_disabled":false,"rental_uris":{"android":"levelo://app?vid=22c18818-21ba-4c9a-84b8-e03ade2dba42","ios":"levelo://app?vid=22c18818-21ba-4c9a-84b8-e03ade2dba42"},"vehicle_type_id":"4","last_reported":1753567829,"current_range_meters":11600,"station_id":"ce4bgih2rcd13ifvqba0","pricing_plan_id":"cebpf4jnsgd1na2vs0mg"},{"bike_id":"c5a641a7-8dad-4962-9605-1730f12704c9","system_id":"levelo_inurba_marseille","lat":43.30432,"lon":5.37928,"is_reserved":false,"is_disabled":false,"rental_uris":{"android":"levelo://app?vid=c5a641a7-8dad-4962-9605-1730f12704c9","ios":"levelo://app?vid=c5a641a7-8dad-4962-9605-1730f12704c9"},"vehicle_type_id":"4","last_reported":1753567829,"current_range_meters":11600,"station_id":"ce4bgup2rcd13ifvqcn0","pricing_plan_id":"cebpf4jnsgd1na2vs0mg"},{"bike_id":"f9e6af26-1559-4cde-ac52-3776b606948c","system_id":"levelo_inurba_marseille","lat":43.28692,"lon":5.39988,"is_reserved":false,"is_disabled":false,"rental_uris":{"android":"levelo://app?vid=f9e6af26-1559-4cde-ac52-3776b606948c","ios":"levelo://app?vid=f9e6af26-1559-4cde-ac52-3776b606948c"},"vehicle_type_id":"4","last_reported":1753567829,"current_range_meters":12000,"station_id":"ce4bho92rcd13ifvqh3g","pricing_plan_id":"cebpf4jnsgd1na2vs0mg"},{"bike_id":"d00b6abc-174d-48a1-8e37-47955a519e3f","system_id":"levelo_inurba_marseille","lat":43.22964,"lon":5.35365,"is_reserved":false,"is_disabled":false,"rental_uris":{"android":"levelo://app?vid=d00b6abc-174d-48a1-8e37-47955a519e3f","ios":"levelo://app?vid=d00b6abc-174d-48a1-8e37-47955a519e3f"},"vehicle_type_id":"4","last_reported":1753567829,"current_range_meters":12000,"station_id":"cpo3532slgdg3j2ikp40","pricing_plan_id":"cebpf4jnsgd1na2vs0mg"},{"bike_id":"43cf4049-15dd-4e8c-88a8-61cd8dc10bf5","system_id":"levelo_inurba_marseille","lat":43.33236,"lon":5.37879,"is_reserved":false,"is_disabled":true,"rental_uris":{"android":"levelo://app?vid=43cf4049-15dd-4e8c-88a8-61cd8dc10bf5","ios":"levelo://app?vid=43cf4049-15dd-4e8c-88a8-61cd8dc10bf5"},"vehicle_type_id":"4","last_reported":1753567829,"current_range_meters":12000,"station_id":"","pricing_plan_id":"cebpf4jnsgd1na2vs0mg"},{"bike_id":"e3f8b6df-e1da-4c2a-a4c6-c6e3b3ae3a41","system_id":"levelo_inurba_marseille","lat":43.26505,"lon":5.39561,"is_reserved":false,"is_disabled":false,"rental_uris":{"android":"levelo://app?vid=e3f8b6df-e1da-4c2a-a4c6-c6e3b3ae3a41","ios":"levelo://app?vid=e3f8b6df-e1da-4c2a-a4c6-c6e3b3ae3a41"},"vehicle_type_id":"4","last_reported":1753567829,"current_range_meters":12000,"station_id":"ce4bhi12rcd13ifvqfq0","pricing_plan_id":"cebpf4jnsgd1na2vs0mg"},{"bike_id":"80cda384-a0de-4854-88d7-81c5eb0a10d1","system_id":"levelo_inurba_marseille","lat":43.2895,"lon":5.36392,"is_reserved":false,"is_disabled":true,"rental_uris":{"android":"levelo://app?vid=80cda384-a0de-4854-88d7-81c5eb0a10d1","ios":"levelo://app?vid=80cda384-a0de-4854-88d7-81c5eb0a10d1"},"vehicle_type_id":"4","last_reported":1753567829,"current_range_meters":12000,"station_id":"ce4bhc92rcd13ifvqetg","pricing_plan_id":"cebpf4jnsgd1na2vs0mg"},{"bike_id":"2775626c-eec0-4ebd-9cb2-7098626bd825","system_id":"levelo_inurba_marseille","lat":43.29948,"lon":5.36543,"is_reserved":false,"is_disabled":false,"rental_uris":{"android":"levelo://app?vid=2775626c-eec0-4ebd-9cb2-7098626bd825","ios":"levelo://app?vid=2775626c-eec0-4ebd-9cb2-7098626bd825"},"vehicle_type_id":"4","last_reported":1753567829,"current_range_meters":12400,"station_id":"ce4bgm92rcd13ifvqbr0","pricing_plan_id":"cebpf4jnsgd1na2vs0mg"},{"bike_id":"c3c2652b-f2d7-4ed4-89ec-9559feb01451","system_id":"levelo_inurba_marseille","lat":43.29226,"lon":5.360481,"is_reserved":false,"is_disabled":true,"rental_uris":{"android":"levelo://app?vid=c3c2652b-f2d7-4ed4-89ec-9559feb01451","ios":"levelo://app?vid=c3c2652b-f2d7-4ed4-89ec-9559feb01451"},"vehicle_type_id":"4","last_reported":1753567829,"current_range_meters":12400,"station_id":"ce4bhbh2rcd13ifvqeqg","pricing_plan_id":"cebpf4jnsgd1na2vs0mg"},{"bike_id":"1b4f060d-024e-4b5b-a67b-2d78d44d6edb","system_id":"levelo_inurba_marseille","lat":43.22511,"lon":5.34773,"is_reserved":false,"is_disabled":true,"rental_uris":{"android":"levelo://app?vid=1b4f060d-024e-4b5b-a67b-2d78d44d6edb","ios":"levelo://app?vid=1b4f060d-024e-4b5b-a67b-2d78d44d6edb"},"vehicle_type_id":"4","last_reported":1753567829,"current_range_meters":12400,"station_id":"st_cvj5dfep6f1abm77gieg","pricing_plan_id":"cebpf4jnsgd1na2vs0mg"},{"bike_id":"0c8a95ee-b778-4943-94d5-cc97657b7aeb","system_id":"levelo_inurba_marseille","lat":43.28506,"lon":5.3856,"is_reserved":false,"is_disabled":false,"rental_uris":{"android":"levelo://app?vid=0c8a95ee-b778-4943-94d5-cc97657b7aeb","ios":"levelo://app?vid=0c8a95ee-b778-4943-94d5-cc97657b7aeb"},"vehicle_type_id":"4","last_reported":1753567829,"current_range_meters":12400,"station_id":"ce4bh8p2rcd13ifvqeb0","pricing_plan_id":"cebpf4jnsgd1na2vs0mg"},{"bike_id":"4fb944f4-df89-4c8e-8dea-e95b2a7ae9af","system_id":"levelo_inurba_marseille","lat":43.295987,"lon":5.381018,"is_reserved":false,"is_disabled":false,"rental_uris":{"android":"levelo://app?vid=4fb944f4-df89-4c8e-8dea-e95b2a7ae9af","ios":"levelo://app?vid=4fb944f4-df89-4c8e-8dea-e95b2a7ae9af"},"vehicle_type_id":"4","last_reported":1753567829,"current_range_meters":12400,"station_id":"ce4bgl12rcd13ifvqbo0","pricing_plan_id":"cebpf4jnsgd1na2vs0mg"},{"bike_id":"527f9dd1-96a3-440c-a8fc-5e1e197563f1","system_id":"levelo_inurba_marseille","lat":43.30542,"lon":5.38442,"is_reserved":false,"is_disabled":false,"rental_uris":{"android":"levelo://app?vid=527f9dd1-96a3-440c-a8fc-5e1e197563f1","ios":"levelo://app?vid=527f9dd1-96a3-440c-a8fc-5e1e197563f1"},"vehicle_type_id":"4","last_reported":1753567829,"current_range_meters":12400,"station_id":"ce4bgg92rcd13ifvqb30","pricing_plan_id":"cebpf4jnsgd1na2vs0mg"},{"bike_id":"c579ff75-cd9b-45c6-a6dc-35ac53a5f916","system_id":"levelo_inurba_marseille","lat":43.27939,"lon":5.41047,"is_reserved":false,"is_disabled":false,"rental_uris":{"android":"levelo://app?vid=c579ff75-cd9b-45c6-a6dc-35ac53a5f916","ios":"levelo://app?vid=c579ff75-cd9b-45c6-a6dc-35ac53a5f916"},"vehicle_type_id":"4","last_reported":1753567829,"current_range_meters":12400,"station_id":"ce4bhnp2rcd13ifvqh0g","pricing_plan_id":"cebpf4jnsgd1na2vs0mg"},{"bike_id":"0f05bf57-11bc-4119-ae6c-2617b99d6882","system_id":"levelo_inurba_marseille","lat":43.2846,"lon":5.35898,"is_reserved":false,"is_disabled":false,"rental_uris":{"android":"levelo://app?vid=0f05bf57-11bc-4119-ae6c-2617b99d6882","ios":"levelo://app?vid=0f05bf57-11bc-4119-ae6c-2617b99d6882"},"vehicle_type_id":"4","last_reported":1753567829,"current_range_meters":12400,"station_id":"ce4bhah2rcd13ifvqei0","pricing_plan_id":"cebpf4jnsgd1na2vs0mg"},{"bike_id":"dd5b3db2-62f9-4716-992d-435138b6493d","system_id":"levelo_inurba_marseille","lat":43.308251,"lon":5.381212,"is_reserved":false,"is_disabled":true,"rental_uris":{"android":"levelo://app?vid=dd5b3db2-62f9-4716-992d-435138b6493d","ios":"levelo://app?vid=dd5b3db2-62f9-4716-992d-435138b6493d"},"vehicle_type_id":"4","last_reported":1753567829,"current_range_meters":12400,"station_id":"ce4bgt12rcd13ifvqce0","pricing_plan_id":"cebpf4jnsgd1na2vs0mg"},{"bike_id":"ea761412-1eeb-4678-b313-5e00a37595da","system_id":"levelo_inurba_marseille","lat":43.29528,"lon":5.38528,"is_reserved":false,"is_disabled":false,"rental_uris":{"android":"levelo://app?vid=ea761412-1eeb-4678-b313-5e00a37595da","ios":"levelo://app?vid=ea761412-1eeb-4678-b313-5e00a37595da"},"vehicle_type_id":"4","last_reported":1753567829,"current_range_meters":12400,"station_id":"ce4bgih2rcd13ifvqba0","pricing_plan_id":"cebpf4jnsgd1na2vs0mg"},{"bike_id":"2fa9dd39-7ea8-42db-9ead-ca5e3675e815","system_id":"levelo_inurba_marseille","lat":43.30198,"lon":5.39463,"is_reserved":false,"is_disabled":true,"rental_uris":{"android":"levelo://app?vid=2fa9dd39-7ea8-42db-9ead-ca5e3675e815","ios":"levelo://app?vid=2fa9dd39-7ea8-42db-9ead-ca5e3675e815"},"vehicle_type_id":"4","last_reported":1753567829,"current_range_meters":12400,"station_id":"ce4bh0p2rcd13ifvqd70","pricing_plan_id":"cebpf4jnsgd1na2vs0mg"},{"bike_id":"13c84c05-9f32-45f5-a834-4d810195b9e8","system_id":"levelo_inurba_marseille","lat":43.26028,"lon":5.37547,"is_reserved":false,"is_disabled":false,"rental_uris":{"android":"levelo://app?vid=13c84c05-9f32-45f5-a834-4d810195b9e8","ios":"levelo://app?vid=13c84c05-9f32-45f5-a834-4d810195b9e8"},"vehicle_type_id":"4","last_reported":1753567829,"current_range_meters":12400,"station_id":"ce4bhgh2rcd13ifvqfa0","pricing_plan_id":"cebpf4jnsgd1na2vs0mg"},{"bike_id":"8aaee75d-7ea8-43e0-8a73-b78122e45eaa","system_id":"levelo_inurba_marseille","lat":43.26525,"lon":5.37348,"is_reserved":false,"is_disabled":false,"rental_uris":{"android":"levelo://app?vid=8aaee75d-7ea8-43e0-8a73-b78122e45eaa","ios":"levelo://app?vid=8aaee75d-7ea8-43e0-8a73-b78122e45eaa"},"vehicle_type_id":"4","last_reported":1753567829,"current_range_meters":12400,"station_id":"","pricing_plan_id":"cebpf4jnsgd1na2vs0mg"},{"bike_id":"5a8df025-714a-4b91-8571-6aa756c0b712","system_id":"levelo_inurba_marseille","lat":43.304314,"lon":5.389014,"is_reserved":false,"is_disabled":false,"rental_uris":{"android":"levelo://app?vid=5a8df025-714a-4b91-8571-6aa756c0b712","ios":"levelo://app?vid=5a8df025-714a-4b91-8571-6aa756c0b712"},"vehicle_type_id":"4","last_reported":1753567829,"current_range_meters":12800,"station_id":"ce4bgk12rcd13ifvqbi0","pricing_plan_id":"cebpf4jnsgd1na2vs0mg"},{"bike_id":"d8ede7a6-2370-4585-9b4e-834634539090","system_id":"levelo_inurba_marseille","lat":43.224953,"lon":5.347939,"is_reserved":false,"is_disabled":false,"rental_uris":{"android":"levelo://app?vid=d8ede7a6-2370-4585-9b4e-834634539090","ios":"levelo://app?vid=d8ede7a6-2370-4585-9b4e-834634539090"},"vehicle_type_id":"4","last_reported":1753567829,"current_range_meters":12800,"station_id":"st_cvj5dfep6f1abm77gieg","pricing_plan_id":"cebpf4jnsgd1na2vs0mg"},{"bike_id":"4f069cb2-e85f-44ab-8659-b3444c19b657","system_id":"levelo_inurba_marseille","lat":43.23163,"lon":5.356,"is_reserved":false,"is_disabled":false,"rental_uris":{"android":"levelo://app?vid=4f069cb2-e85f-44ab-8659-b3444c19b657","ios":"levelo://app?vid=4f069cb2-e85f-44ab-8659-b3444c19b657"},"vehicle_type_id":"4","last_reported":1753567829,"current_range_meters":12800,"station_id":"","pricing_plan_id":"cebpf4jnsgd1na2vs0mg"},{"bike_id":"c151f0ea-151e-40ef-85ad-03da6ea95fb7","system_id":"levelo_inurba_marseille","lat":43.29521,"lon":5.38533,"is_reserved":false,"is_disabled":false,"rental_uris":{"android":"levelo://app?vid=c151f0ea-151e-40ef-85ad-03da6ea95fb7","ios":"levelo://app?vid=c151f0ea-151e-40ef-85ad-03da6ea95fb7"},"vehicle_type_id":"4","last_reported":1753567829,"current_range_meters":12800,"station_id":"ce4bgih2rcd13ifvqba0","pricing_plan_id":"cebpf4jnsgd1na2vs0mg"},{"bike_id":"3e7f512d-c1e0-49b1-a237-1dd2b80e25e7","system_id":"levelo_inurba_marseille","lat":43.24068,"lon":5.37787,"is_reserved":false,"is_disabled":false,"rental_uris":{"android":"levelo://app?vid=3e7f512d-c1e0-49b1-a237-1dd2b80e25e7","ios":"levelo://app?vid=3e7f512d-c1e0-49b1-a237-1dd2b80e25e7"},"vehicle_type_id":"4","last_reported":1753567829,"current_range_meters":12800,"station_id":"ce4bhnp2rcd13ifvqgvg","pricing_plan_id":"cebpf4jnsgd1na2vs0mg"},{"bike_id":"b1183898-0b5d-4964-95ba-ed719a1a948a","system_id":"levelo_inurba_marseille","lat":43.29246,"lon":5.38444,"is_reserved":false,"is_disabled":false,"rental_uris":{"android":"levelo://app?vid=b1183898-0b5d-4964-95ba-ed719a1a948a","ios":"levelo://app?vid=b1183898-0b5d-4964-95ba-ed719a1a948a"},"vehicle_type_id":"4","last_reported":1753567829,"current_range_meters":12800,"station_id":"ce4bh692rcd13ifvqea0","pricing_plan_id":"cebpf4jnsgd1na2vs0mg"},{"bike_id":"ccceff92-72aa-4eb3-a467-85a2bd8173fd","system_id":"levelo_inurba_marseille","lat":43.26207,"lon":5.37428,"is_reserved":false,"is_disabled":false,"rental_uris":{"android":"levelo://app?vid=ccceff92-72aa-4eb3-a467-85a2bd8173fd","ios":"levelo://app?vid=ccceff92-72aa-4eb3-a467-85a2bd8173fd"},"vehicle_type_id":"4","last_reported":1753567829,"current_range_meters":12800,"station_id":"ce4bhgp2rcd13ifvqfc0","pricing_plan_id":"cebpf4jnsgd1na2vs0mg"},{"bike_id":"9377d52d-7c04-4205-81e5-05265b3eabff","system_id":"levelo_inurba_marseille","lat":43.28698,"lon":5.3797,"is_reserved":false,"is_disabled":true,"rental_uris":{"android":"levelo://app?vid=9377d52d-7c04-4205-81e5-05265b3eabff","ios":"levelo://app?vid=9377d52d-7c04-4205-81e5-05265b3eabff"},"vehicle_type_id":"4","last_reported":1753567829,"current_range_meters":13600,"station_id":"ce4bh9p2rcd13ifvqec0","pricing_plan_id":"cebpf4jnsgd1na2vs0mg"},{"bike_id":"d5a63dee-a415-40f6-88a8-f1d25d6ddaa1","system_id":"levelo_inurba_marseille","lat":43.290311,"lon":5.399895,"is_reserved":false,"is_disabled":true,"rental_uris":{"android":"levelo://app?vid=d5a63dee-a415-40f6-88a8-f1d25d6ddaa1","ios":"levelo://app?vid=d5a63dee-a415-40f6-88a8-f1d25d6ddaa1"},"vehicle_type_id":"4","last_reported":1753567829,"current_range_meters":13600,"station_id":"ce4bh392rcd13ifvqdm0","pricing_plan_id":"cebpf4jnsgd1na2vs0mg"},{"bike_id":"61cd7fe3-237f-4708-afc7-dd8a81b4454c","system_id":"levelo_inurba_marseille","lat":43.22943,"lon":5.35367,"is_reserved":false,"is_disabled":false,"rental_uris":{"android":"levelo://app?vid=61cd7fe3-237f-4708-afc7-dd8a81b4454c","ios":"levelo://app?vid=61cd7fe3-237f-4708-afc7-dd8a81b4454c"},"vehicle_type_id":"4","last_reported":1753567829,"current_range_meters":13600,"station_id":"cpo3532slgdg3j2ikp40","pricing_plan_id":"cebpf4jnsgd1na2vs0mg"},{"bike_id":"f778c0a1-3246-45ae-a168-b3d10c020e5d","system_id":"levelo_inurba_marseille","lat":43.29528,"lon":5.38528,"is_reserved":false,"is_disabled":false,"rental_uris":{"android":"levelo://app?vid=f778c0a1-3246-45ae-a168-b3d10c020e5d","ios":"levelo://app?vid=f778c0a1-3246-45ae-a168-b3d10c020e5d"},"vehicle_type_id":"4","last_reported":1753567829,"current_range_meters":13600,"station_id":"ce4bgih2rcd13ifvqba0","pricing_plan_id":"cebpf4jnsgd1na2vs0mg"},{"bike_id":"a1d5115b-997f-44a5-8b4b-21cb29757407","system_id":"levelo_inurba_marseille","lat":43.31192,"lon":5.37351,"is_reserved":false,"is_disabled":false,"rental_uris":{"android":"levelo://app?vid=a1d5115b-997f-44a5-8b4b-21cb29757407","ios":"levelo://app?vid=a1d5115b-997f-44a5-8b4b-21cb29757407"},"vehicle_type_id":"4","last_reported":1753567829,"current_range_meters":14000,"station_id":"","pricing_plan_id":"cebpf4jnsgd1na2vs0mg"},{"bike_id":"73745872-0a21-4db0-b330-8e0de96feed8","system_id":"levelo_inurba_marseille","lat":43.261944,"lon":5.374511,"is_reserved":false,"is_disabled":false,"rental_uris":{"android":"levelo://app?vid=73745872-0a21-4db0-b330-8e0de96feed8","ios":"levelo://app?vid=73745872-0a21-4db0-b330-8e0de96feed8"},"vehicle_type_id":"4","last_reported":1753567829,"current_range_meters":13600,"station_id":"ce4bhgp2rcd13ifvqfc0","pricing_plan_id":"cebpf4jnsgd1na2vs0mg"},{"bike_id":"c34587a8-a019-4b34-8b52-b2a04d65fdd5","system_id":"levelo_inurba_marseille","lat":43.26021,"lon":5.37557,"is_reserved":false,"is_disabled":false,"rental_uris":{"android":"levelo://app?vid=c34587a8-a019-4b34-8b52-b2a04d65fdd5","ios":"levelo://app?vid=c34587a8-a019-4b34-8b52-b2a04d65fdd5"},"vehicle_type_id":"4","last_reported":1753567829,"current_range_meters":13600,"station_id":"ce4bhgh2rcd13ifvqfa0","pricing_plan_id":"cebpf4jnsgd1na2vs0mg"},{"bike_id":"df0f791d-69db-4d83-b453-7bc2067da214","system_id":"levelo_inurba_marseille","lat":43.23057,"lon":5.35499,"is_reserved":false,"is_disabled":false,"rental_uris":{"android":"levelo://app?vid=df0f791d-69db-4d83-b453-7bc2067da214","ios":"levelo://app?vid=df0f791d-69db-4d83-b453-7bc2067da214"},"vehicle_type_id":"4","last_reported":1753567829,"current_range_meters":13600,"station_id":"cpo3342slgdg3j2ifvpg","pricing_plan_id":"cebpf4jnsgd1na2vs0mg"},{"bike_id":"7e65c5ea-0429-45f5-a396-bd32e67f0744","system_id":"levelo_inurba_marseille","lat":43.33437,"lon":5.40039,"is_reserved":false,"is_disabled":false,"rental_uris":{"android":"levelo://app?vid=7e65c5ea-0429-45f5-a396-bd32e67f0744","ios":"levelo://app?vid=7e65c5ea-0429-45f5-a396-bd32e67f0744"},"vehicle_type_id":"4","last_reported":1753567829,"current_range_meters":13600,"station_id":"","pricing_plan_id":"cebpf4jnsgd1na2vs0mg"},{"bike_id":"481ac0fb-00e6-4499-98db-12144824b27f","system_id":"levelo_inurba_marseille","lat":43.26195,"lon":5.37453,"is_reserved":false,"is_disabled":false,"rental_uris":{"android":"levelo://app?vid=481ac0fb-00e6-4499-98db-12144824b27f","ios":"levelo://app?vid=481ac0fb-00e6-4499-98db-12144824b27f"},"vehicle_type_id":"4","last_reported":1753567829,"current_range_meters":13600,"station_id":"ce4bhgp2rcd13ifvqfc0","pricing_plan_id":"cebpf4jnsgd1na2vs0mg"},{"bike_id":"898d1f8e-e261-4f25-9386-a6825028d102","system_id":"levelo_inurba_marseille","lat":43.29072,"lon":5.47357,"is_reserved":false,"is_disabled":false,"rental_uris":{"android":"levelo://app?vid=898d1f8e-e261-4f25-9386-a6825028d102","ios":"levelo://app?vid=898d1f8e-e261-4f25-9386-a6825028d102"},"vehicle_type_id":"4","last_reported":1753567829,"current_range_meters":14000,"station_id":"","pricing_plan_id":"cebpf4jnsgd1na2vs0mg"},{"bike_id":"b895b54e-07d8-473e-85aa-63378254c806","system_id":"levelo_inurba_marseille","lat":43.22938,"lon":5.35363,"is_reserved":false,"is_disabled":false,"rental_uris":{"android":"levelo://app?vid=b895b54e-07d8-473e-85aa-63378254c806","ios":"levelo://app?vid=b895b54e-07d8-473e-85aa-63378254c806"},"vehicle_type_id":"4","last_reported":1753567829,"current_range_meters":14000,"station_id":"cpo3532slgdg3j2ikp40","pricing_plan_id":"cebpf4jnsgd1na2vs0mg"},{"bike_id":"d0baa8b1-b99a-47f3-ae48-567215ce63aa","system_id":"levelo_inurba_marseille","lat":43.29092,"lon":5.38143,"is_reserved":false,"is_disabled":true,"rental_uris":{"android":"levelo://app?vid=d0baa8b1-b99a-47f3-ae48-567215ce63aa","ios":"levelo://app?vid=d0baa8b1-b99a-47f3-ae48-567215ce63aa"},"vehicle_type_id":"4","last_reported":1753567829,"current_range_meters":14000,"station_id":"ce4bh512rcd13ifvqe2g","pricing_plan_id":"cebpf4jnsgd1na2vs0mg"},{"bike_id":"a05343f6-5345-451e-92c9-8d14b4ec04eb","system_id":"levelo_inurba_marseille","lat":43.314919,"lon":5.373082,"is_reserved":false,"is_disabled":false,"rental_uris":{"android":"levelo://app?vid=a05343f6-5345-451e-92c9-8d14b4ec04eb","ios":"levelo://app?vid=a05343f6-5345-451e-92c9-8d14b4ec04eb"},"vehicle_type_id":"4","last_reported":1753567829,"current_range_meters":14000,"station_id":"","pricing_plan_id":"cebpf4jnsgd1na2vs0mg"},{"bike_id":"f3d9f4e3-18e1-46b0-943e-1414afeca2da","system_id":"levelo_inurba_marseille","lat":43.229325,"lon":5.353836,"is_reserved":false,"is_disabled":false,"rental_uris":{"android":"levelo://app?vid=f3d9f4e3-18e1-46b0-943e-1414afeca2da","ios":"levelo://app?vid=f3d9f4e3-18e1-46b0-943e-1414afeca2da"},"vehicle_type_id":"4","last_reported":1753567829,"current_range_meters":14000,"station_id":"cpo3532slgdg3j2ikp40","pricing_plan_id":"cebpf4jnsgd1na2vs0mg"},{"bike_id":"1e5c96a6-9d0f-4d5f-85ef-5a5f8ac0317a","system_id":"levelo_inurba_marseille","lat":43.3345,"lon":5.39095,"is_reserved":false,"is_disabled":false,"rental_uris":{"android":"levelo://app?vid=1e5c96a6-9d0f-4d5f-85ef-5a5f8ac0317a","ios":"levelo://app?vid=1e5c96a6-9d0f-4d5f-85ef-5a5f8ac0317a"},"vehicle_type_id":"4","last_reported":1753567829,"current_range_meters":14000,"station_id":"","pricing_plan_id":"cebpf4jnsgd1na2vs0mg"},{"bike_id":"a076b3b3-5869-4ffa-9443-ce10a2ca7d85","system_id":"levelo_inurba_marseille","lat":43.304603,"lon":5.379166,"is_reserved":false,"is_disabled":false,"rental_uris":{"android":"levelo://app?vid=a076b3b3-5869-4ffa-9443-ce10a2ca7d85","ios":"levelo://app?vid=a076b3b3-5869-4ffa-9443-ce10a2ca7d85"},"vehicle_type_id":"4","last_reported":1753567829,"current_range_meters":14000,"station_id":"ce4bgup2rcd13ifvqcn0","pricing_plan_id":"cebpf4jnsgd1na2vs0mg"},{"bike_id":"c5794c7a-bb35-409f-9175-7d8933c8fd68","system_id":"levelo_inurba_marseille","lat":43.311129,"lon":5.396297,"is_reserved":false,"is_disabled":false,"rental_uris":{"android":"levelo://app?vid=c5794c7a-bb35-409f-9175-7d8933c8fd68","ios":"levelo://app?vid=c5794c7a-bb35-409f-9175-7d8933c8fd68"},"vehicle_type_id":"4","last_reported":1753567829,"current_range_meters":14000,"station_id":"","pricing_plan_id":"cebpf4jnsgd1na2vs0mg"},{"bike_id":"a7d896f9-ed90-400f-b521-60f094bf2ab7","system_id":"levelo_inurba_marseille","lat":43.21173,"lon":5.35042,"is_reserved":false,"is_disabled":false,"rental_uris":{"android":"levelo://app?vid=a7d896f9-ed90-400f-b521-60f094bf2ab7","ios":"levelo://app?vid=a7d896f9-ed90-400f-b521-60f094bf2ab7"},"vehicle_type_id":"4","last_reported":1753567829,"current_range_meters":14400,"station_id":"st_cvj6sg6p6f1abm77japg","pricing_plan_id":"cebpf4jnsgd1na2vs0mg"},{"bike_id":"a5daf9f6-1d0d-4ab8-a8b3-e80457dec96e","system_id":"levelo_inurba_marseille","lat":43.28079,"lon":5.39664,"is_reserved":false,"is_disabled":false,"rental_uris":{"android":"levelo://app?vid=a5daf9f6-1d0d-4ab8-a8b3-e80457dec96e","ios":"levelo://app?vid=a5daf9f6-1d0d-4ab8-a8b3-e80457dec96e"},"vehicle_type_id":"4","last_reported":1753567829,"current_range_meters":14400,"station_id":"ce4bho12rcd13ifvqh2g","pricing_plan_id":"cebpf4jnsgd1na2vs0mg"},{"bike_id":"bdc8ef21-146d-46ff-9c91-249dba0037c7","system_id":"levelo_inurba_marseille","lat":43.22918,"lon":5.35384,"is_reserved":false,"is_disabled":false,"rental_uris":{"android":"levelo://app?vid=bdc8ef21-146d-46ff-9c91-249dba0037c7","ios":"levelo://app?vid=bdc8ef21-146d-46ff-9c91-249dba0037c7"},"vehicle_type_id":"4","last_reported":1753567829,"current_range_meters":14400,"station_id":"cpo3532slgdg3j2ikp40","pricing_plan_id":"cebpf4jnsgd1na2vs0mg"},{"bike_id":"5b0fd53b-e2e8-4712-8ae1-12dc1280b452","system_id":"levelo_inurba_marseille","lat":43.29526,"lon":5.38535,"is_reserved":false,"is_disabled":false,"rental_uris":{"android":"levelo://app?vid=5b0fd53b-e2e8-4712-8ae1-12dc1280b452","ios":"levelo://app?vid=5b0fd53b-e2e8-4712-8ae1-12dc1280b452"},"vehicle_type_id":"4","last_reported":1753567829,"current_range_meters":14400,"station_id":"ce4bgih2rcd13ifvqba0","pricing_plan_id":"cebpf4jnsgd1na2vs0mg"},{"bike_id":"93edfebe-3d64-4f42-bb7d-14244296c803","system_id":"levelo_inurba_marseille","lat":43.27062,"lon":5.40255,"is_reserved":false,"is_disabled":false,"rental_uris":{"android":"levelo://app?vid=93edfebe-3d64-4f42-bb7d-14244296c803","ios":"levelo://app?vid=93edfebe-3d64-4f42-bb7d-14244296c803"},"vehicle_type_id":"4","last_reported":1753567829,"current_range_meters":14400,"station_id":"ce4bhk92rcd13ifvqgc0","pricing_plan_id":"cebpf4jnsgd1na2vs0mg"},{"bike_id":"43dbc09e-d0e4-4ddb-bafe-4f55874d23a9","system_id":"levelo_inurba_marseille","lat":43.30234,"lon":5.38215,"is_reserved":false,"is_disabled":false,"rental_uris":{"android":"levelo://app?vid=43dbc09e-d0e4-4ddb-bafe-4f55874d23a9","ios":"levelo://app?vid=43dbc09e-d0e4-4ddb-bafe-4f55874d23a9"},"vehicle_type_id":"4","last_reported":1753567829,"current_range_meters":14400,"station_id":"","pricing_plan_id":"cebpf4jnsgd1na2vs0mg"},{"bike_id":"a358290d-d571-468c-a890-3954a657c6fc","system_id":"levelo_inurba_marseille","lat":43.27495,"lon":5.42464,"is_reserved":false,"is_disabled":false,"rental_uris":{"android":"levelo://app?vid=a358290d-d571-468c-a890-3954a657c6fc","ios":"levelo://app?vid=a358290d-d571-468c-a890-3954a657c6fc"},"vehicle_type_id":"4","last_reported":1753567829,"current_range_meters":14400,"station_id":"ce4bhn92rcd13ifvqgrg","pricing_plan_id":"cebpf4jnsgd1na2vs0mg"},{"bike_id":"90d2c11a-697c-4baf-a40a-fad0d4551ffb","system_id":"levelo_inurba_marseille","lat":43.292714,"lon":5.384323,"is_reserved":false,"is_disabled":false,"rental_uris":{"android":"levelo://app?vid=90d2c11a-697c-4baf-a40a-fad0d4551ffb","ios":"levelo://app?vid=90d2c11a-697c-4baf-a40a-fad0d4551ffb"},"vehicle_type_id":"4","last_reported":1753567829,"current_range_meters":14400,"station_id":"ce4bh292rcd13ifvqdg0","pricing_plan_id":"cebpf4jnsgd1na2vs0mg"},{"bike_id":"8d801f83-3686-49fa-a7fd-3701c57be20d","system_id":"levelo_inurba_marseille","lat":43.24071,"lon":5.3776,"is_reserved":false,"is_disabled":false,"rental_uris":{"android":"levelo://app?vid=8d801f83-3686-49fa-a7fd-3701c57be20d","ios":"levelo://app?vid=8d801f83-3686-49fa-a7fd-3701c57be20d"},"vehicle_type_id":"4","last_reported":1753567829,"current_range_meters":14400,"station_id":"ce4bhnp2rcd13ifvqgvg","pricing_plan_id":"cebpf4jnsgd1na2vs0mg"},{"bike_id":"76874c93-4196-48c1-b4ce-9dc79e3034f2","system_id":"levelo_inurba_marseille","lat":43.317612,"lon":5.390257,"is_reserved":false,"is_disabled":false,"rental_uris":{"android":"levelo://app?vid=76874c93-4196-48c1-b4ce-9dc79e3034f2","ios":"levelo://app?vid=76874c93-4196-48c1-b4ce-9dc79e3034f2"},"vehicle_type_id":"4","last_reported":1753567829,"current_range_meters":14800,"station_id":"ce4bhqp2rcd13ifvqhng","pricing_plan_id":"cebpf4jnsgd1na2vs0mg"},{"bike_id":"0c11f6c1-8064-42f4-a9d5-3b25c443f052","system_id":"levelo_inurba_marseille","lat":43.22918,"lon":5.35388,"is_reserved":false,"is_disabled":false,"rental_uris":{"android":"levelo://app?vid=0c11f6c1-8064-42f4-a9d5-3b25c443f052","ios":"levelo://app?vid=0c11f6c1-8064-42f4-a9d5-3b25c443f052"},"vehicle_type_id":"4","last_reported":1753567829,"current_range_meters":14800,"station_id":"cpo3532slgdg3j2ikp40","pricing_plan_id":"cebpf4jnsgd1na2vs0mg"},{"bike_id":"9dfdeb8a-ee13-4931-94b4-ad2b5f23aa4b","system_id":"levelo_inurba_marseille","lat":43.23189,"lon":5.399878,"is_reserved":false,"is_disabled":true,"rental_uris":{"android":"levelo://app?vid=9dfdeb8a-ee13-4931-94b4-ad2b5f23aa4b","ios":"levelo://app?vid=9dfdeb8a-ee13-4931-94b4-ad2b5f23aa4b"},"vehicle_type_id":"4","last_reported":1753567829,"current_range_meters":14800,"station_id":"ce4bhn12rcd13ifvqgqg","pricing_plan_id":"cebpf4jnsgd1na2vs0mg"},{"bike_id":"2f987197-bf6f-47d9-a927-3b48d2a2ec67","system_id":"levelo_inurba_marseille","lat":43.29528,"lon":5.38528,"is_reserved":false,"is_disabled":false,"rental_uris":{"android":"levelo://app?vid=2f987197-bf6f-47d9-a927-3b48d2a2ec67","ios":"levelo://app?vid=2f987197-bf6f-47d9-a927-3b48d2a2ec67"},"vehicle_type_id":"4","last_reported":1753567829,"current_range_meters":14800,"station_id":"ce4bgih2rcd13ifvqba0","pricing_plan_id":"cebpf4jnsgd1na2vs0mg"},{"bike_id":"34e576b0-08df-48bd-a565-bfd4db197df8","system_id":"levelo_inurba_marseille","lat":43.29526,"lon":5.38537,"is_reserved":false,"is_disabled":false,"rental_uris":{"android":"levelo://app?vid=34e576b0-08df-48bd-a565-bfd4db197df8","ios":"levelo://app?vid=34e576b0-08df-48bd-a565-bfd4db197df8"},"vehicle_type_id":"4","last_reported":1753567829,"current_range_meters":14800,"station_id":"ce4bgih2rcd13ifvqba0","pricing_plan_id":"cebpf4jnsgd1na2vs0mg"},{"bike_id":"02cab979-ccb2-40ce-bd89-cd624415fc04","system_id":"levelo_inurba_marseille","lat":43.277795,"lon":5.3994,"is_reserved":false,"is_disabled":false,"rental_uris":{"android":"levelo://app?vid=02cab979-ccb2-40ce-bd89-cd624415fc04","ios":"levelo://app?vid=02cab979-ccb2-40ce-bd89-cd624415fc04"},"vehicle_type_id":"4","last_reported":1753567829,"current_range_meters":14800,"station_id":"","pricing_plan_id":"cebpf4jnsgd1na2vs0mg"},{"bike_id":"ec370b31-cc55-499b-a9ad-82a32cff8b80","system_id":"levelo_inurba_marseille","lat":43.30327,"lon":5.4043,"is_reserved":false,"is_disabled":false,"rental_uris":{"android":"levelo://app?vid=ec370b31-cc55-499b-a9ad-82a32cff8b80","ios":"levelo://app?vid=ec370b31-cc55-499b-a9ad-82a32cff8b80"},"vehicle_type_id":"4","last_reported":1753567829,"current_range_meters":14800,"station_id":"ce4bh012rcd13ifvqd10","pricing_plan_id":"cebpf4jnsgd1na2vs0mg"},{"bike_id":"6818cf1b-50c4-4b71-b819-2df704a1cd22","system_id":"levelo_inurba_marseille","lat":43.29447,"lon":5.39743,"is_reserved":false,"is_disabled":false,"rental_uris":{"android":"levelo://app?vid=6818cf1b-50c4-4b71-b819-2df704a1cd22","ios":"levelo://app?vid=6818cf1b-50c4-4b71-b819-2df704a1cd22"},"vehicle_type_id":"4","last_reported":1753567829,"current_range_meters":15200,"station_id":"ce4bh3h2rcd13ifvqdo0","pricing_plan_id":"cebpf4jnsgd1na2vs0mg"},{"bike_id":"54405b04-0f04-4c64-af8f-9ccbb34ae9ba","system_id":"levelo_inurba_marseille","lat":43.28038,"lon":5.36948,"is_reserved":false,"is_disabled":false,"rental_uris":{"android":"levelo://app?vid=54405b04-0f04-4c64-af8f-9ccbb34ae9ba","ios":"levelo://app?vid=54405b04-0f04-4c64-af8f-9ccbb34ae9ba"},"vehicle_type_id":"4","last_reported":1753567829,"current_range_meters":16000,"station_id":"ce4bha12rcd13ifvqef0","pricing_plan_id":"cebpf4jnsgd1na2vs0mg"},{"bike_id":"17afab94-9a0b-4339-98a7-091f30864451","system_id":"levelo_inurba_marseille","lat":43.23964,"lon":5.36634,"is_reserved":false,"is_disabled":false,"rental_uris":{"android":"levelo://app?vid=17afab94-9a0b-4339-98a7-091f30864451","ios":"levelo://app?vid=17afab94-9a0b-4339-98a7-091f30864451"},"vehicle_type_id":"4","last_reported":1753567829,"current_range_meters":15200,"station_id":"ce4bhi12rcd13ifvqfp0","pricing_plan_id":"cebpf4jnsgd1na2vs0mg"},{"bike_id":"ce312317-0481-4cf8-8c3c-97e61b23550b","system_id":"levelo_inurba_marseille","lat":43.3134,"lon":5.36722,"is_reserved":false,"is_disabled":false,"rental_uris":{"android":"levelo://app?vid=ce312317-0481-4cf8-8c3c-97e61b23550b","ios":"levelo://app?vid=ce312317-0481-4cf8-8c3c-97e61b23550b"},"vehicle_type_id":"4","last_reported":1753567829,"current_range_meters":14800,"station_id":"ce4bgr92rcd13ifvqc6g","pricing_plan_id":"cebpf4jnsgd1na2vs0mg"},{"bike_id":"69200c84-081f-4b97-a6de-909915e72026","system_id":"levelo_inurba_marseille","lat":43.295352,"lon":5.38534,"is_reserved":false,"is_disabled":false,"rental_uris":{"android":"levelo://app?vid=69200c84-081f-4b97-a6de-909915e72026","ios":"levelo://app?vid=69200c84-081f-4b97-a6de-909915e72026"},"vehicle_type_id":"4","last_reported":1753567829,"current_range_meters":15200,"station_id":"ce4bgih2rcd13ifvqba0","pricing_plan_id":"cebpf4jnsgd1na2vs0mg"},{"bike_id":"aec321da-0838-47fd-a8bc-2c63699a76d0","system_id":"levelo_inurba_marseille","lat":43.303,"lon":5.39219,"is_reserved":false,"is_disabled":false,"rental_uris":{"android":"levelo://app?vid=aec321da-0838-47fd-a8bc-2c63699a76d0","ios":"levelo://app?vid=aec321da-0838-47fd-a8bc-2c63699a76d0"},"vehicle_type_id":"4","last_reported":1753567829,"current_range_meters":15200,"station_id":"","pricing_plan_id":"cebpf4jnsgd1na2vs0mg"},{"bike_id":"b9d90a33-242e-4108-916f-926fe59baba6","system_id":"levelo_inurba_marseille","lat":43.261942,"lon":5.374459,"is_reserved":false,"is_disabled":false,"rental_uris":{"android":"levelo://app?vid=b9d90a33-242e-4108-916f-926fe59baba6","ios":"levelo://app?vid=b9d90a33-242e-4108-916f-926fe59baba6"},"vehicle_type_id":"4","last_reported":1753567829,"current_range_meters":15200,"station_id":"ce4bhgp2rcd13ifvqfc0","pricing_plan_id":"cebpf4jnsgd1na2vs0mg"},{"bike_id":"1533361c-c8b0-46c4-bb07-47847e110ffc","system_id":"levelo_inurba_marseille","lat":43.28143,"lon":5.42646,"is_reserved":false,"is_disabled":false,"rental_uris":{"android":"levelo://app?vid=1533361c-c8b0-46c4-bb07-47847e110ffc","ios":"levelo://app?vid=1533361c-c8b0-46c4-bb07-47847e110ffc"},"vehicle_type_id":"4","last_reported":1753567829,"current_range_meters":15200,"station_id":"ce4bhnh2rcd13ifvqgug","pricing_plan_id":"cebpf4jnsgd1na2vs0mg"},{"bike_id":"1cfb8d42-035f-446c-9d41-2a1a0d542aba","system_id":"levelo_inurba_marseille","lat":43.284712,"lon":5.39145,"is_reserved":false,"is_disabled":false,"rental_uris":{"android":"levelo://app?vid=1cfb8d42-035f-446c-9d41-2a1a0d542aba","ios":"levelo://app?vid=1cfb8d42-035f-446c-9d41-2a1a0d542aba"},"vehicle_type_id":"4","last_reported":1753567829,"current_range_meters":15200,"station_id":"ce4bh292rcd13ifvqdg0","pricing_plan_id":"cebpf4jnsgd1na2vs0mg"},{"bike_id":"6a98125e-45a9-4823-a753-8c4730e4de7d","system_id":"levelo_inurba_marseille","lat":43.30537,"lon":5.36585,"is_reserved":false,"is_disabled":false,"rental_uris":{"android":"levelo://app?vid=6a98125e-45a9-4823-a753-8c4730e4de7d","ios":"levelo://app?vid=6a98125e-45a9-4823-a753-8c4730e4de7d"},"vehicle_type_id":"4","last_reported":1753567829,"current_range_meters":16000,"station_id":"ce4bgs12rcd13ifvqcag","pricing_plan_id":"cebpf4jnsgd1na2vs0mg"},{"bike_id":"32210a98-2fc1-4bcc-ab69-d0d22c81c933","system_id":"levelo_inurba_marseille","lat":43.29757,"lon":5.37714,"is_reserved":false,"is_disabled":false,"rental_uris":{"android":"levelo://app?vid=32210a98-2fc1-4bcc-ab69-d0d22c81c933","ios":"levelo://app?vid=32210a98-2fc1-4bcc-ab69-d0d22c81c933"},"vehicle_type_id":"4","last_reported":1753567829,"current_range_meters":16400,"station_id":"","pricing_plan_id":"cebpf4jnsgd1na2vs0mg"},{"bike_id":"c7957f31-349c-4ba9-8a0c-fbd1d10b692d","system_id":"levelo_inurba_marseille","lat":43.292666,"lon":5.384355,"is_reserved":false,"is_disabled":false,"rental_uris":{"android":"levelo://app?vid=c7957f31-349c-4ba9-8a0c-fbd1d10b692d","ios":"levelo://app?vid=c7957f31-349c-4ba9-8a0c-fbd1d10b692d"},"vehicle_type_id":"4","last_reported":1753567829,"current_range_meters":16000,"station_id":"","pricing_plan_id":"cebpf4jnsgd1na2vs0mg"},{"bike_id":"05aa8176-1c8c-4ae8-ac3a-11e087a3eba6","system_id":"levelo_inurba_marseille","lat":43.30304,"lon":5.369,"is_reserved":false,"is_disabled":false,"rental_uris":{"android":"levelo://app?vid=05aa8176-1c8c-4ae8-ac3a-11e087a3eba6","ios":"levelo://app?vid=05aa8176-1c8c-4ae8-ac3a-11e087a3eba6"},"vehicle_type_id":"4","last_reported":1753567829,"current_range_meters":16000,"station_id":"ce4bgqh2rcd13ifvqc5g","pricing_plan_id":"cebpf4jnsgd1na2vs0mg"},{"bike_id":"dd27a6d4-f3cb-4562-9085-cd42d970ad1d","system_id":"levelo_inurba_marseille","lat":43.28416,"lon":5.37525,"is_reserved":false,"is_disabled":false,"rental_uris":{"android":"levelo://app?vid=dd27a6d4-f3cb-4562-9085-cd42d970ad1d","ios":"levelo://app?vid=dd27a6d4-f3cb-4562-9085-cd42d970ad1d"},"vehicle_type_id":"4","last_reported":1753567829,"current_range_meters":16000,"station_id":"ce4bh412rcd13ifvqds0","pricing_plan_id":"cebpf4jnsgd1na2vs0mg"},{"bike_id":"34a06ca1-6ed0-4d6c-b5e5-b429f450161e","system_id":"levelo_inurba_marseille","lat":43.29474,"lon":5.37915,"is_reserved":false,"is_disabled":false,"rental_uris":{"android":"levelo://app?vid=34a06ca1-6ed0-4d6c-b5e5-b429f450161e","ios":"levelo://app?vid=34a06ca1-6ed0-4d6c-b5e5-b429f450161e"},"vehicle_type_id":"4","last_reported":1753567829,"current_range_meters":16000,"station_id":"","pricing_plan_id":"cebpf4jnsgd1na2vs0mg"},{"bike_id":"957e7b45-0490-4fcf-af4e-ef2a5915bf5e","system_id":"levelo_inurba_marseille","lat":43.26223,"lon":5.37438,"is_reserved":false,"is_disabled":false,"rental_uris":{"android":"levelo://app?vid=957e7b45-0490-4fcf-af4e-ef2a5915bf5e","ios":"levelo://app?vid=957e7b45-0490-4fcf-af4e-ef2a5915bf5e"},"vehicle_type_id":"4","last_reported":1753567829,"current_range_meters":16000,"station_id":"","pricing_plan_id":"cebpf4jnsgd1na2vs0mg"},{"bike_id":"c86df9d0-9af0-4154-99d4-454f00587857","system_id":"levelo_inurba_marseille","lat":43.2953,"lon":5.38538,"is_reserved":false,"is_disabled":false,"rental_uris":{"android":"levelo://app?vid=c86df9d0-9af0-4154-99d4-454f00587857","ios":"levelo://app?vid=c86df9d0-9af0-4154-99d4-454f00587857"},"vehicle_type_id":"4","last_reported":1753567829,"current_range_meters":16000,"station_id":"ce4bgih2rcd13ifvqba0","pricing_plan_id":"cebpf4jnsgd1na2vs0mg"},{"bike_id":"c3f920a0-181a-4f3b-8bbe-5050b7e98056","system_id":"levelo_inurba_marseille","lat":43.29247,"lon":5.38449,"is_reserved":false,"is_disabled":false,"rental_uris":{"android":"levelo://app?vid=c3f920a0-181a-4f3b-8bbe-5050b7e98056","ios":"levelo://app?vid=c3f920a0-181a-4f3b-8bbe-5050b7e98056"},"vehicle_type_id":"4","last_reported":1753567829,"current_range_meters":16000,"station_id":"ce4bh692rcd13ifvqea0","pricing_plan_id":"cebpf4jnsgd1na2vs0mg"},{"bike_id":"9188366a-c6a3-4354-b558-553177316347","system_id":"levelo_inurba_marseille","lat":43.26186,"lon":5.37455,"is_reserved":false,"is_disabled":true,"rental_uris":{"android":"levelo://app?vid=9188366a-c6a3-4354-b558-553177316347","ios":"levelo://app?vid=9188366a-c6a3-4354-b558-553177316347"},"vehicle_type_id":"4","last_reported":1753567829,"current_range_meters":16000,"station_id":"ce4bhgp2rcd13ifvqfc0","pricing_plan_id":"cebpf4jnsgd1na2vs0mg"},{"bike_id":"90b0ef2d-fda9-41b1-8f39-20fc5c736165","system_id":"levelo_inurba_marseille","lat":43.27067,"lon":5.40255,"is_reserved":false,"is_disabled":false,"rental_uris":{"android":"levelo://app?vid=90b0ef2d-fda9-41b1-8f39-20fc5c736165","ios":"levelo://app?vid=90b0ef2d-fda9-41b1-8f39-20fc5c736165"},"vehicle_type_id":"4","last_reported":1753567829,"current_range_meters":16000,"station_id":"ce4bhk92rcd13ifvqgc0","pricing_plan_id":"cebpf4jnsgd1na2vs0mg"},{"bike_id":"da0dea9a-07a2-4249-aa7c-2489e28d40de","system_id":"levelo_inurba_marseille","lat":43.2968,"lon":5.36215,"is_reserved":false,"is_disabled":false,"rental_uris":{"android":"levelo://app?vid=da0dea9a-07a2-4249-aa7c-2489e28d40de","ios":"levelo://app?vid=da0dea9a-07a2-4249-aa7c-2489e28d40de"},"vehicle_type_id":"4","last_reported":1753567829,"current_range_meters":16400,"station_id":"","pricing_plan_id":"cebpf4jnsgd1na2vs0mg"},{"bike_id":"6fd2bcce-f0dc-474a-a021-ae27f53d6eea","system_id":"levelo_inurba_marseille","lat":43.30893,"lon":5.37188,"is_reserved":false,"is_disabled":false,"rental_uris":{"android":"levelo://app?vid=6fd2bcce-f0dc-474a-a021-ae27f53d6eea","ios":"levelo://app?vid=6fd2bcce-f0dc-474a-a021-ae27f53d6eea"},"vehicle_type_id":"4","last_reported":1753567829,"current_range_meters":16000,"station_id":"ce4bguh2rcd13ifvqckg","pricing_plan_id":"cebpf4jnsgd1na2vs0mg"},{"bike_id":"7bbfaa2d-c1c3-425c-bc52-d79e792eba71","system_id":"levelo_inurba_marseille","lat":43.29015,"lon":5.38643,"is_reserved":false,"is_disabled":false,"rental_uris":{"android":"levelo://app?vid=7bbfaa2d-c1c3-425c-bc52-d79e792eba71","ios":"levelo://app?vid=7bbfaa2d-c1c3-425c-bc52-d79e792eba71"},"vehicle_type_id":"4","last_reported":1753567829,"current_range_meters":16400,"station_id":"ce4bh4p2rcd13ifvqe0g","pricing_plan_id":"cebpf4jnsgd1na2vs0mg"},{"bike_id":"b3e573da-2e2c-48b3-a491-5f2ef167040c","system_id":"levelo_inurba_marseille","lat":43.29799,"lon":5.39344,"is_reserved":false,"is_disabled":false,"rental_uris":{"android":"levelo://app?vid=b3e573da-2e2c-48b3-a491-5f2ef167040c","ios":"levelo://app?vid=b3e573da-2e2c-48b3-a491-5f2ef167040c"},"vehicle_type_id":"4","last_reported":1753567829,"current_range_meters":16400,"station_id":"chh1huq6cuj3fo74tm60","pricing_plan_id":"cebpf4jnsgd1na2vs0mg"},{"bike_id":"9106f4a3-0d86-4897-abcd-79d70c5a09e4","system_id":"levelo_inurba_marseille","lat":43.29529,"lon":5.38534,"is_reserved":false,"is_disabled":false,"rental_uris":{"android":"levelo://app?vid=9106f4a3-0d86-4897-abcd-79d70c5a09e4","ios":"levelo://app?vid=9106f4a3-0d86-4897-abcd-79d70c5a09e4"},"vehicle_type_id":"4","last_reported":1753567829,"current_range_meters":16400,"station_id":"ce4bgih2rcd13ifvqba0","pricing_plan_id":"cebpf4jnsgd1na2vs0mg"},{"bike_id":"adbc006e-c51d-4434-863c-610344ea30cd","system_id":"levelo_inurba_marseille","lat":43.21776,"lon":5.3459,"is_reserved":false,"is_disabled":true,"rental_uris":{"android":"levelo://app?vid=adbc006e-c51d-4434-863c-610344ea30cd","ios":"levelo://app?vid=adbc006e-c51d-4434-863c-610344ea30cd"},"vehicle_type_id":"4","last_reported":1753567829,"current_range_meters":16400,"station_id":"st_cvj6r9ubvosntc0bgbag","pricing_plan_id":"cebpf4jnsgd1na2vs0mg"},{"bike_id":"e1ba2b3f-cb1f-4c28-a14d-522be6840eeb","system_id":"levelo_inurba_marseille","lat":43.27811,"lon":5.40709,"is_reserved":false,"is_disabled":false,"rental_uris":{"android":"levelo://app?vid=e1ba2b3f-cb1f-4c28-a14d-522be6840eeb","ios":"levelo://app?vid=e1ba2b3f-cb1f-4c28-a14d-522be6840eeb"},"vehicle_type_id":"4","last_reported":1753567829,"current_range_meters":16400,"station_id":"ce4bhnh2rcd13ifvqgtg","pricing_plan_id":"cebpf4jnsgd1na2vs0mg"},{"bike_id":"07bdf7f4-31e3-4166-8507-4452a98400cb","system_id":"levelo_inurba_marseille","lat":43.26191,"lon":5.37484,"is_reserved":false,"is_disabled":false,"rental_uris":{"android":"levelo://app?vid=07bdf7f4-31e3-4166-8507-4452a98400cb","ios":"levelo://app?vid=07bdf7f4-31e3-4166-8507-4452a98400cb"},"vehicle_type_id":"4","last_reported":1753567829,"current_range_meters":16400,"station_id":"ce4bhgp2rcd13ifvqfc0","pricing_plan_id":"cebpf4jnsgd1na2vs0mg"},{"bike_id":"e6be1da3-6807-4df9-b9c8-1514eb05b9f9","system_id":"levelo_inurba_marseille","lat":43.30882,"lon":5.37083,"is_reserved":false,"is_disabled":false,"rental_uris":{"android":"levelo://app?vid=e6be1da3-6807-4df9-b9c8-1514eb05b9f9","ios":"levelo://app?vid=e6be1da3-6807-4df9-b9c8-1514eb05b9f9"},"vehicle_type_id":"4","last_reported":1753567829,"current_range_meters":17200,"station_id":"","pricing_plan_id":"cebpf4jnsgd1na2vs0mg"},{"bike_id":"62e4f384-a69f-4285-9553-29178195efe4","system_id":"levelo_inurba_marseille","lat":43.31069,"lon":5.38358,"is_reserved":false,"is_disabled":false,"rental_uris":{"android":"levelo://app?vid=62e4f384-a69f-4285-9553-29178195efe4","ios":"levelo://app?vid=62e4f384-a69f-4285-9553-29178195efe4"},"vehicle_type_id":"4","last_reported":1753567829,"current_range_meters":16800,"station_id":"ce4bgv92rcd13ifvqcr0","pricing_plan_id":"cebpf4jnsgd1na2vs0mg"},{"bike_id":"d2f2ecd2-8fe9-46fa-90d2-70b7311a3a6e","system_id":"levelo_inurba_marseille","lat":43.2826,"lon":5.35071,"is_reserved":false,"is_disabled":false,"rental_uris":{"android":"levelo://app?vid=d2f2ecd2-8fe9-46fa-90d2-70b7311a3a6e","ios":"levelo://app?vid=d2f2ecd2-8fe9-46fa-90d2-70b7311a3a6e"},"vehicle_type_id":"4","last_reported":1753567829,"current_range_meters":16800,"station_id":"","pricing_plan_id":"cebpf4jnsgd1na2vs0mg"},{"bike_id":"484ce80f-12be-41fa-9586-784b84db2ffe","system_id":"levelo_inurba_marseille","lat":43.24807,"lon":5.37458,"is_reserved":false,"is_disabled":false,"rental_uris":{"android":"levelo://app?vid=484ce80f-12be-41fa-9586-784b84db2ffe","ios":"levelo://app?vid=484ce80f-12be-41fa-9586-784b84db2ffe"},"vehicle_type_id":"4","last_reported":1753567829,"current_range_meters":16800,"station_id":"ce4bhgh2rcd13ifvqfb0","pricing_plan_id":"cebpf4jnsgd1na2vs0mg"},{"bike_id":"25bae460-a8be-463f-b248-e2f9e2a11e6a","system_id":"levelo_inurba_marseille","lat":43.29023,"lon":5.3865,"is_reserved":false,"is_disabled":false,"rental_uris":{"android":"levelo://app?vid=25bae460-a8be-463f-b248-e2f9e2a11e6a","ios":"levelo://app?vid=25bae460-a8be-463f-b248-e2f9e2a11e6a"},"vehicle_type_id":"4","last_reported":1753567829,"current_range_meters":16800,"station_id":"ce4bh4p2rcd13ifvqe0g","pricing_plan_id":"cebpf4jnsgd1na2vs0mg"},{"bike_id":"6f968528-8399-44aa-a228-43d2766658a1","system_id":"levelo_inurba_marseille","lat":43.29177,"lon":5.37148,"is_reserved":false,"is_disabled":false,"rental_uris":{"android":"levelo://app?vid=6f968528-8399-44aa-a228-43d2766658a1","ios":"levelo://app?vid=6f968528-8399-44aa-a228-43d2766658a1"},"vehicle_type_id":"4","last_reported":1753567829,"current_range_meters":16400,"station_id":"ce4bha92rcd13ifvqeh0","pricing_plan_id":"cebpf4jnsgd1na2vs0mg"},{"bike_id":"e666153e-0d94-49fc-a285-a6a2347ef6ad","system_id":"levelo_inurba_marseille","lat":43.26945,"lon":5.38633,"is_reserved":false,"is_disabled":true,"rental_uris":{"android":"levelo://app?vid=e666153e-0d94-49fc-a285-a6a2347ef6ad","ios":"levelo://app?vid=e666153e-0d94-49fc-a285-a6a2347ef6ad"},"vehicle_type_id":"4","last_reported":1753567829,"current_range_meters":16800,"station_id":"ce4bhh92rcd13ifvqfh0","pricing_plan_id":"cebpf4jnsgd1na2vs0mg"},{"bike_id":"e38d01e0-1ddf-49b7-9598-f39cc301a401","system_id":"levelo_inurba_marseille","lat":43.2869,"lon":5.3998,"is_reserved":false,"is_disabled":false,"rental_uris":{"android":"levelo://app?vid=e38d01e0-1ddf-49b7-9598-f39cc301a401","ios":"levelo://app?vid=e38d01e0-1ddf-49b7-9598-f39cc301a401"},"vehicle_type_id":"4","last_reported":1753567829,"current_range_meters":16800,"station_id":"ce4bho92rcd13ifvqh3g","pricing_plan_id":"cebpf4jnsgd1na2vs0mg"},{"bike_id":"b19249d8-f386-4307-afb8-c3fceb1d300d","system_id":"levelo_inurba_marseille","lat":43.31269,"lon":5.40166,"is_reserved":false,"is_disabled":false,"rental_uris":{"android":"levelo://app?vid=b19249d8-f386-4307-afb8-c3fceb1d300d","ios":"levelo://app?vid=b19249d8-f386-4307-afb8-c3fceb1d300d"},"vehicle_type_id":"4","last_reported":1753567829,"current_range_meters":16800,"station_id":"ce4bh092rcd13ifvqd30","pricing_plan_id":"cebpf4jnsgd1na2vs0mg"},{"bike_id":"092445da-6c69-438d-914a-76950a2eb10d","system_id":"levelo_inurba_marseille","lat":43.32326,"lon":5.38897,"is_reserved":false,"is_disabled":false,"rental_uris":{"android":"levelo://app?vid=092445da-6c69-438d-914a-76950a2eb10d","ios":"levelo://app?vid=092445da-6c69-438d-914a-76950a2eb10d"},"vehicle_type_id":"4","last_reported":1753567829,"current_range_meters":16800,"station_id":"ce4bhqp2rcd13ifvqhog","pricing_plan_id":"cebpf4jnsgd1na2vs0mg"},{"bike_id":"d89f77b8-cdf2-4512-bbb7-e244c7ade203","system_id":"levelo_inurba_marseille","lat":43.26559,"lon":5.37276,"is_reserved":false,"is_disabled":false,"rental_uris":{"android":"levelo://app?vid=d89f77b8-cdf2-4512-bbb7-e244c7ade203","ios":"levelo://app?vid=d89f77b8-cdf2-4512-bbb7-e244c7ade203"},"vehicle_type_id":"4","last_reported":1753567829,"current_range_meters":16800,"station_id":"ce4bhg12rcd13ifvqf70","pricing_plan_id":"cebpf4jnsgd1na2vs0mg"},{"bike_id":"1338b06b-6ab9-4341-b70c-7da41cfe446d","system_id":"levelo_inurba_marseille","lat":43.27058,"lon":5.40258,"is_reserved":false,"is_disabled":false,"rental_uris":{"android":"levelo://app?vid=1338b06b-6ab9-4341-b70c-7da41cfe446d","ios":"levelo://app?vid=1338b06b-6ab9-4341-b70c-7da41cfe446d"},"vehicle_type_id":"4","last_reported":1753567829,"current_range_meters":16800,"station_id":"ce4bhk92rcd13ifvqgc0","pricing_plan_id":"cebpf4jnsgd1na2vs0mg"},{"bike_id":"8512b265-75e1-49d7-bb7d-bd988c357d7c","system_id":"levelo_inurba_marseille","lat":43.28712,"lon":5.3998,"is_reserved":false,"is_disabled":true,"rental_uris":{"android":"levelo://app?vid=8512b265-75e1-49d7-bb7d-bd988c357d7c","ios":"levelo://app?vid=8512b265-75e1-49d7-bb7d-bd988c357d7c"},"vehicle_type_id":"4","last_reported":1753567829,"current_range_meters":16800,"station_id":"ce4bho92rcd13ifvqh3g","pricing_plan_id":"cebpf4jnsgd1na2vs0mg"},{"bike_id":"295c9f40-ca7e-484c-8f1d-8e8d40a1416a","system_id":"levelo_inurba_marseille","lat":43.29527,"lon":5.38533,"is_reserved":false,"is_disabled":false,"rental_uris":{"android":"levelo://app?vid=295c9f40-ca7e-484c-8f1d-8e8d40a1416a","ios":"levelo://app?vid=295c9f40-ca7e-484c-8f1d-8e8d40a1416a"},"vehicle_type_id":"4","last_reported":1753567829,"current_range_meters":16800,"station_id":"ce4bgih2rcd13ifvqba0","pricing_plan_id":"cebpf4jnsgd1na2vs0mg"},{"bike_id":"2d3c8f18-a1f1-4e52-9db5-8b774a548037","system_id":"levelo_inurba_marseille","lat":43.29261,"lon":5.38426,"is_reserved":false,"is_disabled":false,"rental_uris":{"android":"levelo://app?vid=2d3c8f18-a1f1-4e52-9db5-8b774a548037","ios":"levelo://app?vid=2d3c8f18-a1f1-4e52-9db5-8b774a548037"},"vehicle_type_id":"4","last_reported":1753567829,"current_range_meters":16800,"station_id":"ce4bh692rcd13ifvqea0","pricing_plan_id":"cebpf4jnsgd1na2vs0mg"},{"bike_id":"3e5bab92-0440-47d7-9b39-bfd9a1391a9c","system_id":"levelo_inurba_marseille","lat":43.28706,"lon":5.39996,"is_reserved":false,"is_disabled":false,"rental_uris":{"android":"levelo://app?vid=3e5bab92-0440-47d7-9b39-bfd9a1391a9c","ios":"levelo://app?vid=3e5bab92-0440-47d7-9b39-bfd9a1391a9c"},"vehicle_type_id":"4","last_reported":1753567829,"current_range_meters":16800,"station_id":"ce4bho92rcd13ifvqh3g","pricing_plan_id":"cebpf4jnsgd1na2vs0mg"},{"bike_id":"d4fb13b1-3328-4ea9-98da-c9743c282a19","system_id":"levelo_inurba_marseille","lat":43.29247,"lon":5.38453,"is_reserved":false,"is_disabled":false,"rental_uris":{"android":"levelo://app?vid=d4fb13b1-3328-4ea9-98da-c9743c282a19","ios":"levelo://app?vid=d4fb13b1-3328-4ea9-98da-c9743c282a19"},"vehicle_type_id":"4","last_reported":1753567829,"current_range_meters":17200,"station_id":"ce4bh692rcd13ifvqea0","pricing_plan_id":"cebpf4jnsgd1na2vs0mg"},{"bike_id":"4ebdf2e0-5529-4884-ab35-f0ede835515d","system_id":"levelo_inurba_marseille","lat":43.30643,"lon":5.40102,"is_reserved":false,"is_disabled":false,"rental_uris":{"android":"levelo://app?vid=4ebdf2e0-5529-4884-ab35-f0ede835515d","ios":"levelo://app?vid=4ebdf2e0-5529-4884-ab35-f0ede835515d"},"vehicle_type_id":"4","last_reported":1753567829,"current_range_meters":16800,"station_id":"ce4bh112rcd13ifvqda0","pricing_plan_id":"cebpf4jnsgd1na2vs0mg"},{"bike_id":"0ad81f6f-aba9-4eda-a6b2-5c2924b0657d","system_id":"levelo_inurba_marseille","lat":43.28103,"lon":5.37838,"is_reserved":false,"is_disabled":false,"rental_uris":{"android":"levelo://app?vid=0ad81f6f-aba9-4eda-a6b2-5c2924b0657d","ios":"levelo://app?vid=0ad81f6f-aba9-4eda-a6b2-5c2924b0657d"},"vehicle_type_id":"4","last_reported":1753567829,"current_range_meters":17200,"station_id":"ce4bha12rcd13ifvqee0","pricing_plan_id":"cebpf4jnsgd1na2vs0mg"},{"bike_id":"32ec7568-b371-45c2-97d0-0fdb8db5c32c","system_id":"levelo_inurba_marseille","lat":43.26536,"lon":5.37327,"is_reserved":false,"is_disabled":false,"rental_uris":{"android":"levelo://app?vid=32ec7568-b371-45c2-97d0-0fdb8db5c32c","ios":"levelo://app?vid=32ec7568-b371-45c2-97d0-0fdb8db5c32c"},"vehicle_type_id":"4","last_reported":1753567829,"current_range_meters":17200,"station_id":"ce4bhg12rcd13ifvqf70","pricing_plan_id":"cebpf4jnsgd1na2vs0mg"},{"bike_id":"a7e4a6c3-ad45-4ba6-91d2-4ec56a92fe4c","system_id":"levelo_inurba_marseille","lat":43.29515,"lon":5.3752,"is_reserved":false,"is_disabled":true,"rental_uris":{"android":"levelo://app?vid=a7e4a6c3-ad45-4ba6-91d2-4ec56a92fe4c","ios":"levelo://app?vid=a7e4a6c3-ad45-4ba6-91d2-4ec56a92fe4c"},"vehicle_type_id":"4","last_reported":1753567829,"current_range_meters":17200,"station_id":"ce4bgkp2rcd13ifvqbmg","pricing_plan_id":"cebpf4jnsgd1na2vs0mg"},{"bike_id":"918e5c9a-e2be-4cb6-8032-45811f3d77c7","system_id":"levelo_inurba_marseille","lat":43.284891,"lon":5.359251,"is_reserved":false,"is_disabled":false,"rental_uris":{"android":"levelo://app?vid=918e5c9a-e2be-4cb6-8032-45811f3d77c7","ios":"levelo://app?vid=918e5c9a-e2be-4cb6-8032-45811f3d77c7"},"vehicle_type_id":"4","last_reported":1753567829,"current_range_meters":16800,"station_id":"ce4bhah2rcd13ifvqei0","pricing_plan_id":"cebpf4jnsgd1na2vs0mg"},{"bike_id":"0b6e37e1-db39-4d64-9941-7e484c9ea038","system_id":"levelo_inurba_marseille","lat":43.29614,"lon":5.37716,"is_reserved":false,"is_disabled":true,"rental_uris":{"android":"levelo://app?vid=0b6e37e1-db39-4d64-9941-7e484c9ea038","ios":"levelo://app?vid=0b6e37e1-db39-4d64-9941-7e484c9ea038"},"vehicle_type_id":"4","last_reported":1753567829,"current_range_meters":17200,"station_id":"","pricing_plan_id":"cebpf4jnsgd1na2vs0mg"},{"bike_id":"0cf4166d-fc45-4e28-8e82-8bb1e727d791","system_id":"levelo_inurba_marseille","lat":43.299683,"lon":5.386239,"is_reserved":false,"is_disabled":false,"rental_uris":{"android":"levelo://app?vid=0cf4166d-fc45-4e28-8e82-8bb1e727d791","ios":"levelo://app?vid=0cf4166d-fc45-4e28-8e82-8bb1e727d791"},"vehicle_type_id":"4","last_reported":1753567829,"current_range_meters":17600,"station_id":"","pricing_plan_id":"cebpf4jnsgd1na2vs0mg"},{"bike_id":"cf588fc4-9007-493c-a207-c6b63bf11a2d","system_id":"levelo_inurba_marseille","lat":43.30346,"lon":5.41882,"is_reserved":false,"is_disabled":false,"rental_uris":{"android":"levelo://app?vid=cf588fc4-9007-493c-a207-c6b63bf11a2d","ios":"levelo://app?vid=cf588fc4-9007-493c-a207-c6b63bf11a2d"},"vehicle_type_id":"4","last_reported":1753567829,"current_range_meters":17600,"station_id":"ce4bhop2rcd13ifvqh7g","pricing_plan_id":"cebpf4jnsgd1na2vs0mg"},{"bike_id":"70381b97-b2ee-4f26-8f16-caf046608e7f","system_id":"levelo_inurba_marseille","lat":43.27983,"lon":5.40024,"is_reserved":false,"is_disabled":true,"rental_uris":{"android":"levelo://app?vid=70381b97-b2ee-4f26-8f16-caf046608e7f","ios":"levelo://app?vid=70381b97-b2ee-4f26-8f16-caf046608e7f"},"vehicle_type_id":"4","last_reported":1753567829,"current_range_meters":17600,"station_id":"ce4bho92rcd13ifvqh4g","pricing_plan_id":"cebpf4jnsgd1na2vs0mg"},{"bike_id":"01b9152b-1fb2-4f06-a370-771644f3e0dc","system_id":"levelo_inurba_marseille","lat":43.31369,"lon":5.38516,"is_reserved":false,"is_disabled":false,"rental_uris":{"android":"levelo://app?vid=01b9152b-1fb2-4f06-a370-771644f3e0dc","ios":"levelo://app?vid=01b9152b-1fb2-4f06-a370-771644f3e0dc"},"vehicle_type_id":"4","last_reported":1753567829,"current_range_meters":17600,"station_id":"ce4bgt92rcd13ifvqcf0","pricing_plan_id":"cebpf4jnsgd1na2vs0mg"},{"bike_id":"b64dad25-8e0d-4258-bfd2-304c64c6d313","system_id":"levelo_inurba_marseille","lat":43.31745,"lon":5.37742,"is_reserved":false,"is_disabled":false,"rental_uris":{"android":"levelo://app?vid=b64dad25-8e0d-4258-bfd2-304c64c6d313","ios":"levelo://app?vid=b64dad25-8e0d-4258-bfd2-304c64c6d313"},"vehicle_type_id":"4","last_reported":1753567829,"current_range_meters":17600,"station_id":"ce4bgth2rcd13ifvqch0","pricing_plan_id":"cebpf4jnsgd1na2vs0mg"},{"bike_id":"f9666092-9473-434c-98ab-188985dc04c7","system_id":"levelo_inurba_marseille","lat":43.29538,"lon":5.38549,"is_reserved":false,"is_disabled":false,"rental_uris":{"android":"levelo://app?vid=f9666092-9473-434c-98ab-188985dc04c7","ios":"levelo://app?vid=f9666092-9473-434c-98ab-188985dc04c7"},"vehicle_type_id":"4","last_reported":1753567829,"current_range_meters":17600,"station_id":"ce4bgih2rcd13ifvqba0","pricing_plan_id":"cebpf4jnsgd1na2vs0mg"},{"bike_id":"55661540-733b-4bd0-ad5d-bb688398f06e","system_id":"levelo_inurba_marseille","lat":43.22511,"lon":5.34783,"is_reserved":false,"is_disabled":false,"rental_uris":{"android":"levelo://app?vid=55661540-733b-4bd0-ad5d-bb688398f06e","ios":"levelo://app?vid=55661540-733b-4bd0-ad5d-bb688398f06e"},"vehicle_type_id":"4","last_reported":1753567829,"current_range_meters":17600,"station_id":"st_cvj5dfep6f1abm77gieg","pricing_plan_id":"cebpf4jnsgd1na2vs0mg"},{"bike_id":"6d05cf26-8c5f-4586-9434-f1fbd305319d","system_id":"levelo_inurba_marseille","lat":43.29522,"lon":5.38527,"is_reserved":false,"is_disabled":false,"rental_uris":{"android":"levelo://app?vid=6d05cf26-8c5f-4586-9434-f1fbd305319d","ios":"levelo://app?vid=6d05cf26-8c5f-4586-9434-f1fbd305319d"},"vehicle_type_id":"4","last_reported":1753567829,"current_range_meters":17600,"station_id":"ce4bgih2rcd13ifvqba0","pricing_plan_id":"cebpf4jnsgd1na2vs0mg"},{"bike_id":"aadf9297-a9f6-4ad3-bf1c-c65124771379","system_id":"levelo_inurba_marseille","lat":43.29291,"lon":5.37458,"is_reserved":false,"is_disabled":false,"rental_uris":{"android":"levelo://app?vid=aadf9297-a9f6-4ad3-bf1c-c65124771379","ios":"levelo://app?vid=aadf9297-a9f6-4ad3-bf1c-c65124771379"},"vehicle_type_id":"4","last_reported":1753567829,"current_range_meters":17600,"station_id":"ce4bgi12rcd13ifvqb70","pricing_plan_id":"cebpf4jnsgd1na2vs0mg"},{"bike_id":"6d7d5bd3-ab74-40f4-9d4c-379e652302db","system_id":"levelo_inurba_marseille","lat":43.27896,"lon":5.38014,"is_reserved":false,"is_disabled":false,"rental_uris":{"android":"levelo://app?vid=6d7d5bd3-ab74-40f4-9d4c-379e652302db","ios":"levelo://app?vid=6d7d5bd3-ab74-40f4-9d4c-379e652302db"},"vehicle_type_id":"4","last_reported":1753567829,"current_range_meters":18000,"station_id":"ce4bhf92rcd13ifvqf50","pricing_plan_id":"cebpf4jnsgd1na2vs0mg"},{"bike_id":"84c7f504-1a18-44cf-9e73-7ea481cfbe9d","system_id":"levelo_inurba_marseille","lat":43.26211,"lon":5.37444,"is_reserved":false,"is_disabled":false,"rental_uris":{"android":"levelo://app?vid=84c7f504-1a18-44cf-9e73-7ea481cfbe9d","ios":"levelo://app?vid=84c7f504-1a18-44cf-9e73-7ea481cfbe9d"},"vehicle_type_id":"4","last_reported":1753567829,"current_range_meters":18000,"station_id":"ce4bhgp2rcd13ifvqfc0","pricing_plan_id":"cebpf4jnsgd1na2vs0mg"},{"bike_id":"28591454-0b48-49da-b7f4-27327b8949f4","system_id":"levelo_inurba_marseille","lat":43.29524,"lon":5.38544,"is_reserved":false,"is_disabled":false,"rental_uris":{"android":"levelo://app?vid=28591454-0b48-49da-b7f4-27327b8949f4","ios":"levelo://app?vid=28591454-0b48-49da-b7f4-27327b8949f4"},"vehicle_type_id":"4","last_reported":1753567829,"current_range_meters":18000,"station_id":"ce4bgih2rcd13ifvqba0","pricing_plan_id":"cebpf4jnsgd1na2vs0mg"},{"bike_id":"5de4d1ff-47cd-40a5-ad2e-4b1052508ef8","system_id":"levelo_inurba_marseille","lat":43.32304,"lon":5.40657,"is_reserved":false,"is_disabled":false,"rental_uris":{"android":"levelo://app?vid=5de4d1ff-47cd-40a5-ad2e-4b1052508ef8","ios":"levelo://app?vid=5de4d1ff-47cd-40a5-ad2e-4b1052508ef8"},"vehicle_type_id":"4","last_reported":1753567829,"current_range_meters":18000,"station_id":"ce4bhq92rcd13ifvqhjg","pricing_plan_id":"cebpf4jnsgd1na2vs0mg"},{"bike_id":"48538135-5d0a-49ee-9320-155fbd091354","system_id":"levelo_inurba_marseille","lat":43.2592,"lon":5.40873,"is_reserved":false,"is_disabled":false,"rental_uris":{"android":"levelo://app?vid=48538135-5d0a-49ee-9320-155fbd091354","ios":"levelo://app?vid=48538135-5d0a-49ee-9320-155fbd091354"},"vehicle_type_id":"4","last_reported":1753567829,"current_range_meters":18000,"station_id":"ce4bhm92rcd13ifvqglg","pricing_plan_id":"cebpf4jnsgd1na2vs0mg"},{"bike_id":"a3e908de-42a5-428e-8346-b0c3b72ae0a0","system_id":"levelo_inurba_marseille","lat":43.28933,"lon":5.36629,"is_reserved":false,"is_disabled":false,"rental_uris":{"android":"levelo://app?vid=a3e908de-42a5-428e-8346-b0c3b72ae0a0","ios":"levelo://app?vid=a3e908de-42a5-428e-8346-b0c3b72ae0a0"},"vehicle_type_id":"4","last_reported":1753567829,"current_range_meters":18000,"station_id":"ce4bhap2rcd13ifvqek0","pricing_plan_id":"cebpf4jnsgd1na2vs0mg"},{"bike_id":"a9504c9d-7518-4bac-b2a8-fec9ea3d9cd0","system_id":"levelo_inurba_marseille","lat":43.23073,"lon":5.35472,"is_reserved":false,"is_disabled":false,"rental_uris":{"android":"levelo://app?vid=a9504c9d-7518-4bac-b2a8-fec9ea3d9cd0","ios":"levelo://app?vid=a9504c9d-7518-4bac-b2a8-fec9ea3d9cd0"},"vehicle_type_id":"4","last_reported":1753567829,"current_range_meters":18000,"station_id":"cpo3342slgdg3j2ifvpg","pricing_plan_id":"cebpf4jnsgd1na2vs0mg"},{"bike_id":"fc7d470e-01f5-4c0e-baee-2c0abc3f9341","system_id":"levelo_inurba_marseille","lat":43.30796,"lon":5.3816,"is_reserved":false,"is_disabled":false,"rental_uris":{"android":"levelo://app?vid=fc7d470e-01f5-4c0e-baee-2c0abc3f9341","ios":"levelo://app?vid=fc7d470e-01f5-4c0e-baee-2c0abc3f9341"},"vehicle_type_id":"4","last_reported":1753567829,"current_range_meters":18000,"station_id":"ce4bgt12rcd13ifvqce0","pricing_plan_id":"cebpf4jnsgd1na2vs0mg"},{"bike_id":"309a48eb-b2c3-4058-b271-526a78829cf8","system_id":"levelo_inurba_marseille","lat":43.26199,"lon":5.37553,"is_reserved":false,"is_disabled":false,"rental_uris":{"android":"levelo://app?vid=309a48eb-b2c3-4058-b271-526a78829cf8","ios":"levelo://app?vid=309a48eb-b2c3-4058-b271-526a78829cf8"},"vehicle_type_id":"4","last_reported":1753567829,"current_range_meters":18000,"station_id":"","pricing_plan_id":"cebpf4jnsgd1na2vs0mg"},{"bike_id":"9aab028a-a92b-4f94-be1e-68f242328efa","system_id":"levelo_inurba_marseille","lat":43.29916,"lon":5.38141,"is_reserved":false,"is_disabled":false,"rental_uris":{"android":"levelo://app?vid=9aab028a-a92b-4f94-be1e-68f242328efa","ios":"levelo://app?vid=9aab028a-a92b-4f94-be1e-68f242328efa"},"vehicle_type_id":"4","last_reported":1753567829,"current_range_meters":18000,"station_id":"ce4bgj12rcd13ifvqbc0","pricing_plan_id":"cebpf4jnsgd1na2vs0mg"},{"bike_id":"3152576e-d602-4c3f-980e-717f41aed773","system_id":"levelo_inurba_marseille","lat":43.33737,"lon":5.37465,"is_reserved":false,"is_disabled":false,"rental_uris":{"android":"levelo://app?vid=3152576e-d602-4c3f-980e-717f41aed773","ios":"levelo://app?vid=3152576e-d602-4c3f-980e-717f41aed773"},"vehicle_type_id":"4","last_reported":1753567829,"current_range_meters":18000,"station_id":"","pricing_plan_id":"cebpf4jnsgd1na2vs0mg"},{"bike_id":"2532ebb9-5235-4429-937b-647cefe2a37b","system_id":"levelo_inurba_marseille","lat":43.24813,"lon":5.37399,"is_reserved":false,"is_disabled":false,"rental_uris":{"android":"levelo://app?vid=2532ebb9-5235-4429-937b-647cefe2a37b","ios":"levelo://app?vid=2532ebb9-5235-4429-937b-647cefe2a37b"},"vehicle_type_id":"4","last_reported":1753567829,"current_range_meters":18800,"station_id":"ce4bhgh2rcd13ifvqfb0","pricing_plan_id":"cebpf4jnsgd1na2vs0mg"},{"bike_id":"df599520-42d0-40ee-acf1-fc8bec6cd856","system_id":"levelo_inurba_marseille","lat":43.31266,"lon":5.40179,"is_reserved":false,"is_disabled":false,"rental_uris":{"android":"levelo://app?vid=df599520-42d0-40ee-acf1-fc8bec6cd856","ios":"levelo://app?vid=df599520-42d0-40ee-acf1-fc8bec6cd856"},"vehicle_type_id":"4","last_reported":1753567829,"current_range_meters":18800,"station_id":"ce4bh092rcd13ifvqd30","pricing_plan_id":"cebpf4jnsgd1na2vs0mg"},{"bike_id":"ede5cbf7-b854-42a4-aa77-014127c0446c","system_id":"levelo_inurba_marseille","lat":43.26239,"lon":5.37447,"is_reserved":false,"is_disabled":false,"rental_uris":{"android":"levelo://app?vid=ede5cbf7-b854-42a4-aa77-014127c0446c","ios":"levelo://app?vid=ede5cbf7-b854-42a4-aa77-014127c0446c"},"vehicle_type_id":"4","last_reported":1753567829,"current_range_meters":18800,"station_id":"","pricing_plan_id":"cebpf4jnsgd1na2vs0mg"},{"bike_id":"b65f4e3b-a4f8-4bac-b64a-9a35477c4f80","system_id":"levelo_inurba_marseille","lat":43.26207,"lon":5.37432,"is_reserved":false,"is_disabled":false,"rental_uris":{"android":"levelo://app?vid=b65f4e3b-a4f8-4bac-b64a-9a35477c4f80","ios":"levelo://app?vid=b65f4e3b-a4f8-4bac-b64a-9a35477c4f80"},"vehicle_type_id":"4","last_reported":1753567829,"current_range_meters":18800,"station_id":"ce4bhgp2rcd13ifvqfc0","pricing_plan_id":"cebpf4jnsgd1na2vs0mg"},{"bike_id":"d8cd6055-23c8-4622-a5bf-68f9b9ebfe53","system_id":"levelo_inurba_marseille","lat":43.27072,"lon":5.42328,"is_reserved":false,"is_disabled":true,"rental_uris":{"android":"levelo://app?vid=d8cd6055-23c8-4622-a5bf-68f9b9ebfe53","ios":"levelo://app?vid=d8cd6055-23c8-4622-a5bf-68f9b9ebfe53"},"vehicle_type_id":"4","last_reported":1753567829,"current_range_meters":18800,"station_id":"ce4bhk92rcd13ifvqgb0","pricing_plan_id":"cebpf4jnsgd1na2vs0mg"},{"bike_id":"9e2722f5-8f23-4a0a-8b90-dcc5ca4975f8","system_id":"levelo_inurba_marseille","lat":43.22496,"lon":5.34788,"is_reserved":false,"is_disabled":false,"rental_uris":{"android":"levelo://app?vid=9e2722f5-8f23-4a0a-8b90-dcc5ca4975f8","ios":"levelo://app?vid=9e2722f5-8f23-4a0a-8b90-dcc5ca4975f8"},"vehicle_type_id":"4","last_reported":1753567829,"current_range_meters":18800,"station_id":"st_cvj5dfep6f1abm77gieg","pricing_plan_id":"cebpf4jnsgd1na2vs0mg"},{"bike_id":"7a9df7ca-fd72-4fbf-9529-1fd092790fdc","system_id":"levelo_inurba_marseille","lat":43.27993,"lon":5.41656,"is_reserved":false,"is_disabled":false,"rental_uris":{"android":"levelo://app?vid=7a9df7ca-fd72-4fbf-9529-1fd092790fdc","ios":"levelo://app?vid=7a9df7ca-fd72-4fbf-9529-1fd092790fdc"},"vehicle_type_id":"4","last_reported":1753567829,"current_range_meters":18800,"station_id":"ce4bho12rcd13ifvqh1g","pricing_plan_id":"cebpf4jnsgd1na2vs0mg"},{"bike_id":"56ec8761-dee0-49c1-aba7-a69ac65d386f","system_id":"levelo_inurba_marseille","lat":43.22921,"lon":5.35402,"is_reserved":false,"is_disabled":false,"rental_uris":{"android":"levelo://app?vid=56ec8761-dee0-49c1-aba7-a69ac65d386f","ios":"levelo://app?vid=56ec8761-dee0-49c1-aba7-a69ac65d386f"},"vehicle_type_id":"4","last_reported":1753567829,"current_range_meters":18800,"station_id":"cpo3532slgdg3j2ikp40","pricing_plan_id":"cebpf4jnsgd1na2vs0mg"},{"bike_id":"94cd5104-a952-4e36-b3f4-ab0b998877f1","system_id":"levelo_inurba_marseille","lat":43.31181,"lon":5.38712,"is_reserved":false,"is_disabled":false,"rental_uris":{"android":"levelo://app?vid=94cd5104-a952-4e36-b3f4-ab0b998877f1","ios":"levelo://app?vid=94cd5104-a952-4e36-b3f4-ab0b998877f1"},"vehicle_type_id":"4","last_reported":1753567829,"current_range_meters":18800,"station_id":"ce4bgv12rcd13ifvqcp0","pricing_plan_id":"cebpf4jnsgd1na2vs0mg"},{"bike_id":"6c17f6f6-a8d8-4559-a952-a479db4a8339","system_id":"levelo_inurba_marseille","lat":43.232,"lon":5.35537,"is_reserved":false,"is_disabled":false,"rental_uris":{"android":"levelo://app?vid=6c17f6f6-a8d8-4559-a952-a479db4a8339","ios":"levelo://app?vid=6c17f6f6-a8d8-4559-a952-a479db4a8339"},"vehicle_type_id":"4","last_reported":1753567829,"current_range_meters":18800,"station_id":"ce4bhu92rcd13ifvqi70","pricing_plan_id":"cebpf4jnsgd1na2vs0mg"},{"bike_id":"a719a71d-e7ac-446f-9262-98830fec614f","system_id":"levelo_inurba_marseille","lat":43.2926,"lon":5.38431,"is_reserved":false,"is_disabled":false,"rental_uris":{"android":"levelo://app?vid=a719a71d-e7ac-446f-9262-98830fec614f","ios":"levelo://app?vid=a719a71d-e7ac-446f-9262-98830fec614f"},"vehicle_type_id":"4","last_reported":1753567829,"current_range_meters":18800,"station_id":"ce4bh692rcd13ifvqea0","pricing_plan_id":"cebpf4jnsgd1na2vs0mg"},{"bike_id":"f923e173-535a-4066-952e-2df1ba8b6c6e","system_id":"levelo_inurba_marseille","lat":43.27507,"lon":5.40934,"is_reserved":false,"is_disabled":false,"rental_uris":{"android":"levelo://app?vid=f923e173-535a-4066-952e-2df1ba8b6c6e","ios":"levelo://app?vid=f923e173-535a-4066-952e-2df1ba8b6c6e"},"vehicle_type_id":"4","last_reported":1753567829,"current_range_meters":18800,"station_id":"","pricing_plan_id":"cebpf4jnsgd1na2vs0mg"},{"bike_id":"220cf17f-9c61-468f-af88-f24ca56003a4","system_id":"levelo_inurba_marseille","lat":43.30574,"lon":5.37246,"is_reserved":false,"is_disabled":false,"rental_uris":{"android":"levelo://app?vid=220cf17f-9c61-468f-af88-f24ca56003a4","ios":"levelo://app?vid=220cf17f-9c61-468f-af88-f24ca56003a4"},