{"last_updated":1748535189,"ttl":60,"version":"2.2","data":{"bikes":[{"bike_id":"55d42eeb-6b71-4987-a0f2-3d758b10d43e","system_id":"levelo_inurba_marseille","lat":43.33771,"lon":5.37424,"is_reserved":false,"is_disabled":true,"rental_uris":{"android":"levelo://app?vid=55d42eeb-6b71-4987-a0f2-3d758b10d43e","ios":"levelo://app?vid=55d42eeb-6b71-4987-a0f2-3d758b10d43e"},"vehicle_type_id":"4","last_reported":1748535189,"current_range_meters":0,"station_id":"","pricing_plan_id":"cebpf4jnsgd1na2vs0mg"},{"bike_id":"b7fe4621-b706-42f0-9085-4811142f84e8","system_id":"levelo_inurba_marseille","lat":43.337499,"lon":5.374469,"is_reserved":false,"is_disabled":true,"rental_uris":{"android":"levelo://app?vid=b7fe4621-b706-42f0-9085-4811142f84e8","ios":"levelo://app?vid=b7fe4621-b706-42f0-9085-4811142f84e8"},"vehicle_type_id":"4","last_reported":1748535189,"current_range_meters":0,"station_id":"","pricing_plan_id":"cebpf4jnsgd1na2vs0mg"},{"bike_id":"6ab9c10e-fc8d-4533-8fed-920d56796583","system_id":"levelo_inurba_marseille","lat":43.25493,"lon":5.37718,"is_reserved":false,"is_disabled":true,"rental_uris":{"android":"levelo://app?vid=6ab9c10e-fc8d-4533-8fed-920d56796583","ios":"levelo://app?vid=6ab9c10e-fc8d-4533-8fed-920d56796583"},"vehicle_type_id":"4","last_reported":1748535189,"current_range_meters":0,"station_id":"","pricing_plan_id":"cebpf4jnsgd1na2vs0mg"},{"bike_id":"ad402f0f-3192-410c-afac-8cf064a40c6d","system_id":"levelo_inurba_marseille","lat":43.337444,"lon":5.374475,"is_reserved":false,"is_disabled":true,"rental_uris":{"android":"levelo://app?vid=ad402f0f-3192-410c-afac-8cf064a40c6d","ios":"levelo://app?vid=ad402f0f-3192-410c-afac-8cf064a40c6d"},"vehicle_type_id":"4","last_reported":1748535189,"current_range_meters":0,"station_id":"","pricing_plan_id":"cebpf4jnsgd1na2vs0mg"},{"bike_id":"8c7291be-ed63-4533-9817-ac4e5bc6776f","system_id":"levelo_inurba_marseille","lat":43.29187,"lon":5.35578,"is_reserved":false,"is_disabled":true,"rental_uris":{"android":"levelo://app?vid=8c7291be-ed63-4533-9817-ac4e5bc6776f","ios":"levelo://app?vid=8c7291be-ed63-4533-9817-ac4e5bc6776f"},"vehicle_type_id":"4","last_reported":1748535189,"current_range_meters":0,"station_id":"","pricing_plan_id":"cebpf4jnsgd1na2vs0mg"},{"bike_id":"06938951-e273-452e-94b8-4a2eaf56a0de","system_id":"levelo_inurba_marseille","lat":43.31979,"lon":5.37115,"is_reserved":false,"is_disabled":true,"rental_uris":{"android":"levelo://app?vid=06938951-e273-452e-94b8-4a2eaf56a0de","ios":"levelo://app?vid=06938951-e273-452e-94b8-4a2eaf56a0de"},"vehicle_type_id":"4","last_reported":1748535189,"current_range_meters":0,"station_id":"","pricing_plan_id":"cebpf4jnsgd1na2vs0mg"},{"bike_id":"52d5fac3-b8b2-412f-9940-ac0c06f6478f","system_id":"levelo_inurba_marseille","lat":43.269,"lon":5.36791,"is_reserved":false,"is_disabled":true,"rental_uris":{"android":"levelo://app?vid=52d5fac3-b8b2-412f-9940-ac0c06f6478f","ios":"levelo://app?vid=52d5fac3-b8b2-412f-9940-ac0c06f6478f"},"vehicle_type_id":"4","last_reported":1748535189,"current_range_meters":0,"station_id":"","pricing_plan_id":"cebpf4jnsgd1na2vs0mg"},{"bike_id":"80dc1064-d63f-4a22-ad21-d8abd70986c0","system_id":"levelo_inurba_marseille","lat":43.337459,"lon":5.374913,"is_reserved":false,"is_disabled":true,"rental_uris":{"android":"levelo://app?vid=80dc1064-d63f-4a22-ad21-d8abd70986c0","ios":"levelo://app?vid=80dc1064-d63f-4a22-ad21-d8abd70986c0"},"vehicle_type_id":"4","last_reported":1748535189,"current_range_meters":0,"station_id":"","pricing_plan_id":"cebpf4jnsgd1na2vs0mg"},{"bike_id":"7f9bdcaf-4217-4932-be91-52b5120d5ca8","system_id":"levelo_inurba_marseille","lat":43.26347,"lon":5.40106,"is_reserved":false,"is_disabled":true,"rental_uris":{"android":"levelo://app?vid=7f9bdcaf-4217-4932-be91-52b5120d5ca8","ios":"levelo://app?vid=7f9bdcaf-4217-4932-be91-52b5120d5ca8"},"vehicle_type_id":"4","last_reported":1748535189,"current_range_meters":0,"station_id":"","pricing_plan_id":"cebpf4jnsgd1na2vs0mg"},{"bike_id":"2fd7e160-685c-4858-b57b-dcaef27a8e94","system_id":"levelo_inurba_marseille","lat":43.230331,"lon":5.401847,"is_reserved":false,"is_disabled":true,"rental_uris":{"android":"levelo://app?vid=2fd7e160-685c-4858-b57b-dcaef27a8e94","ios":"levelo://app?vid=2fd7e160-685c-4858-b57b-dcaef27a8e94"},"vehicle_type_id":"4","last_reported":1748535189,"current_range_meters":0,"station_id":"","pricing_plan_id":"cebpf4jnsgd1na2vs0mg"},{"bike_id":"3f02aa1b-cb34-4661-bab7-6de170dec7ac","system_id":"levelo_inurba_marseille","lat":43.30135,"lon":5.38785,"is_reserved":false,"is_disabled":true,"rental_uris":{"android":"levelo://app?vid=3f02aa1b-cb34-4661-bab7-6de170dec7ac","ios":"levelo://app?vid=3f02aa1b-cb34-4661-bab7-6de170dec7ac"},"vehicle_type_id":"4","last_reported":1748535189,"current_range_meters":0,"station_id":"ce4bghh2rcd13ifvqb60","pricing_plan_id":"cebpf4jnsgd1na2vs0mg"},{"bike_id":"71262be2-c30b-4803-bedf-3a0ad91da8a6","system_id":"levelo_inurba_marseille","lat":43.29964,"lon":5.38499,"is_reserved":false,"is_disabled":true,"rental_uris":{"android":"levelo://app?vid=71262be2-c30b-4803-bedf-3a0ad91da8a6","ios":"levelo://app?vid=71262be2-c30b-4803-bedf-3a0ad91da8a6"},"vehicle_type_id":"4","last_reported":1748535189,"current_range_meters":0,"station_id":"ce4bgj92rcd13ifvqbd0","pricing_plan_id":"cebpf4jnsgd1na2vs0mg"},{"bike_id":"487c3306-0c65-48c0-9934-83f329774726","system_id":"levelo_inurba_marseille","lat":43.2936,"lon":5.37858,"is_reserved":false,"is_disabled":true,"rental_uris":{"android":"levelo://app?vid=487c3306-0c65-48c0-9934-83f329774726","ios":"levelo://app?vid=487c3306-0c65-48c0-9934-83f329774726"},"vehicle_type_id":"4","last_reported":1748535189,"current_range_meters":0,"station_id":"ce4bgjh2rcd13ifvqbf0","pricing_plan_id":"cebpf4jnsgd1na2vs0mg"},{"bike_id":"c5c57cc3-e548-4a0e-a51c-e1fe8ef76d11","system_id":"levelo_inurba_marseille","lat":43.29596,"lon":5.381,"is_reserved":false,"is_disabled":true,"rental_uris":{"android":"levelo://app?vid=c5c57cc3-e548-4a0e-a51c-e1fe8ef76d11","ios":"levelo://app?vid=c5c57cc3-e548-4a0e-a51c-e1fe8ef76d11"},"vehicle_type_id":"4","last_reported":1748535189,"current_range_meters":0,"station_id":"ce4bgl12rcd13ifvqbo0","pricing_plan_id":"cebpf4jnsgd1na2vs0mg"},{"bike_id":"4c8e7299-4c0d-4da5-b419-274cd7d545fc","system_id":"levelo_inurba_marseille","lat":43.30807,"lon":5.38138,"is_reserved":false,"is_disabled":true,"rental_uris":{"android":"levelo://app?vid=4c8e7299-4c0d-4da5-b419-274cd7d545fc","ios":"levelo://app?vid=4c8e7299-4c0d-4da5-b419-274cd7d545fc"},"vehicle_type_id":"4","last_reported":1748535189,"current_range_meters":0,"station_id":"ce4bgt12rcd13ifvqce0","pricing_plan_id":"cebpf4jnsgd1na2vs0mg"},{"bike_id":"c0871290-d2b5-4aff-9937-de6bd1a7e6e8","system_id":"levelo_inurba_marseille","lat":43.30952,"lon":5.39032,"is_reserved":false,"is_disabled":true,"rental_uris":{"android":"levelo://app?vid=c0871290-d2b5-4aff-9937-de6bd1a7e6e8","ios":"levelo://app?vid=c0871290-d2b5-4aff-9937-de6bd1a7e6e8"},"vehicle_type_id":"4","last_reported":1748535189,"current_range_meters":0,"station_id":"ce4bgup2rcd13ifvqco0","pricing_plan_id":"cebpf4jnsgd1na2vs0mg"},{"bike_id":"f1a9a0df-04aa-4081-92cf-a32891f374d4","system_id":"levelo_inurba_marseille","lat":43.2804,"lon":5.3694,"is_reserved":false,"is_disabled":true,"rental_uris":{"android":"levelo://app?vid=f1a9a0df-04aa-4081-92cf-a32891f374d4","ios":"levelo://app?vid=f1a9a0df-04aa-4081-92cf-a32891f374d4"},"vehicle_type_id":"4","last_reported":1748535189,"current_range_meters":0,"station_id":"ce4bha12rcd13ifvqef0","pricing_plan_id":"cebpf4jnsgd1na2vs0mg"},{"bike_id":"f62c1917-c09a-47cb-ad77-c4ea80c91f8a","system_id":"levelo_inurba_marseille","lat":43.273788,"lon":5.362639,"is_reserved":false,"is_disabled":true,"rental_uris":{"android":"levelo://app?vid=f62c1917-c09a-47cb-ad77-c4ea80c91f8a","ios":"levelo://app?vid=f62c1917-c09a-47cb-ad77-c4ea80c91f8a"},"vehicle_type_id":"4","last_reported":1748535189,"current_range_meters":0,"station_id":"ce4bhbh2rcd13ifvqeo0","pricing_plan_id":"cebpf4jnsgd1na2vs0mg"},{"bike_id":"2b60f355-6d0f-45fd-8606-c42f6c5d62cc","system_id":"levelo_inurba_marseille","lat":43.27368,"lon":5.36249,"is_reserved":false,"is_disabled":true,"rental_uris":{"android":"levelo://app?vid=2b60f355-6d0f-45fd-8606-c42f6c5d62cc","ios":"levelo://app?vid=2b60f355-6d0f-45fd-8606-c42f6c5d62cc"},"vehicle_type_id":"4","last_reported":1748535189,"current_range_meters":0,"station_id":"ce4bhbh2rcd13ifvqeo0","pricing_plan_id":"cebpf4jnsgd1na2vs0mg"},{"bike_id":"cdeb5e56-6299-4306-8ed5-0d6c4ae7cf1d","system_id":"levelo_inurba_marseille","lat":43.29224,"lon":5.36056,"is_reserved":false,"is_disabled":true,"rental_uris":{"android":"levelo://app?vid=cdeb5e56-6299-4306-8ed5-0d6c4ae7cf1d","ios":"levelo://app?vid=cdeb5e56-6299-4306-8ed5-0d6c4ae7cf1d"},"vehicle_type_id":"4","last_reported":1748535189,"current_range_meters":0,"station_id":"ce4bhbh2rcd13ifvqeqg","pricing_plan_id":"cebpf4jnsgd1na2vs0mg"},{"bike_id":"25fcff03-6706-4bfa-b18a-9fe7040fcb8f","system_id":"levelo_inurba_marseille","lat":43.282699,"lon":5.350586,"is_reserved":false,"is_disabled":true,"rental_uris":{"android":"levelo://app?vid=25fcff03-6706-4bfa-b18a-9fe7040fcb8f","ios":"levelo://app?vid=25fcff03-6706-4bfa-b18a-9fe7040fcb8f"},"vehicle_type_id":"4","last_reported":1748535189,"current_range_meters":0,"station_id":"ce4bhbp2rcd13ifvqerg","pricing_plan_id":"cebpf4jnsgd1na2vs0mg"},{"bike_id":"45c53660-4cb9-4245-954a-de0a1c7312cf","system_id":"levelo_inurba_marseille","lat":43.29268,"lon":5.36845,"is_reserved":false,"is_disabled":true,"rental_uris":{"android":"levelo://app?vid=45c53660-4cb9-4245-954a-de0a1c7312cf","ios":"levelo://app?vid=45c53660-4cb9-4245-954a-de0a1c7312cf"},"vehicle_type_id":"4","last_reported":1748535189,"current_range_meters":0,"station_id":"ce4bhbp2rcd13ifvqesg","pricing_plan_id":"cebpf4jnsgd1na2vs0mg"},{"bike_id":"10922916-3d65-45e6-aef3-7acf04097e6b","system_id":"levelo_inurba_marseille","lat":43.26563,"lon":5.3902,"is_reserved":false,"is_disabled":true,"rental_uris":{"android":"levelo://app?vid=10922916-3d65-45e6-aef3-7acf04097e6b","ios":"levelo://app?vid=10922916-3d65-45e6-aef3-7acf04097e6b"},"vehicle_type_id":"4","last_reported":1748535189,"current_range_meters":0,"station_id":"ce4bhe12rcd13ifvqf30","pricing_plan_id":"cebpf4jnsgd1na2vs0mg"},{"bike_id":"e43c1063-5c36-4b97-a802-b895378bbdf8","system_id":"levelo_inurba_marseille","lat":43.26024,"lon":5.37548,"is_reserved":false,"is_disabled":true,"rental_uris":{"android":"levelo://app?vid=e43c1063-5c36-4b97-a802-b895378bbdf8","ios":"levelo://app?vid=e43c1063-5c36-4b97-a802-b895378bbdf8"},"vehicle_type_id":"4","last_reported":1748535189,"current_range_meters":0,"station_id":"ce4bhgh2rcd13ifvqfa0","pricing_plan_id":"cebpf4jnsgd1na2vs0mg"},{"bike_id":"0f3f2576-fd20-4ab1-93d1-d13c76f6b983","system_id":"levelo_inurba_marseille","lat":43.24805,"lon":5.37447,"is_reserved":false,"is_disabled":true,"rental_uris":{"android":"levelo://app?vid=0f3f2576-fd20-4ab1-93d1-d13c76f6b983","ios":"levelo://app?vid=0f3f2576-fd20-4ab1-93d1-d13c76f6b983"},"vehicle_type_id":"4","last_reported":1748535189,"current_range_meters":0,"station_id":"ce4bhgh2rcd13ifvqfb0","pricing_plan_id":"cebpf4jnsgd1na2vs0mg"},{"bike_id":"eb5f4c75-eac4-4fe9-aabf-247d93cc1eae","system_id":"levelo_inurba_marseille","lat":43.24378,"lon":5.37073,"is_reserved":false,"is_disabled":true,"rental_uris":{"android":"levelo://app?vid=eb5f4c75-eac4-4fe9-aabf-247d93cc1eae","ios":"levelo://app?vid=eb5f4c75-eac4-4fe9-aabf-247d93cc1eae"},"vehicle_type_id":"4","last_reported":1748535189,"current_range_meters":0,"station_id":"ce4bhhh2rcd13ifvqfk0","pricing_plan_id":"cebpf4jnsgd1na2vs0mg"},{"bike_id":"65a81118-47be-47e2-b26d-9baf54bf5e68","system_id":"levelo_inurba_marseille","lat":43.27206,"lon":5.39198,"is_reserved":false,"is_disabled":true,"rental_uris":{"android":"levelo://app?vid=65a81118-47be-47e2-b26d-9baf54bf5e68","ios":"levelo://app?vid=65a81118-47be-47e2-b26d-9baf54bf5e68"},"vehicle_type_id":"4","last_reported":1748535189,"current_range_meters":0,"station_id":"ce4bhhp2rcd13ifvqfm0","pricing_plan_id":"cebpf4jnsgd1na2vs0mg"},{"bike_id":"68fbca69-6c1d-434c-8546-5363b266d8c5","system_id":"levelo_inurba_marseille","lat":43.27673,"lon":5.38867,"is_reserved":false,"is_disabled":true,"rental_uris":{"android":"levelo://app?vid=68fbca69-6c1d-434c-8546-5363b266d8c5","ios":"levelo://app?vid=68fbca69-6c1d-434c-8546-5363b266d8c5"},"vehicle_type_id":"4","last_reported":1748535189,"current_range_meters":0,"station_id":"ce4bhi12rcd13ifvqfo0","pricing_plan_id":"cebpf4jnsgd1na2vs0mg"},{"bike_id":"c159a264-2548-4fae-91b7-724a40cef837","system_id":"levelo_inurba_marseille","lat":43.23956,"lon":5.36635,"is_reserved":false,"is_disabled":true,"rental_uris":{"android":"levelo://app?vid=c159a264-2548-4fae-91b7-724a40cef837","ios":"levelo://app?vid=c159a264-2548-4fae-91b7-724a40cef837"},"vehicle_type_id":"4","last_reported":1748535189,"current_range_meters":0,"station_id":"ce4bhi12rcd13ifvqfp0","pricing_plan_id":"cebpf4jnsgd1na2vs0mg"},{"bike_id":"0d76e503-0427-40b1-9eb7-acadbf88563e","system_id":"levelo_inurba_marseille","lat":43.2706,"lon":5.42286,"is_reserved":false,"is_disabled":true,"rental_uris":{"android":"levelo://app?vid=0d76e503-0427-40b1-9eb7-acadbf88563e","ios":"levelo://app?vid=0d76e503-0427-40b1-9eb7-acadbf88563e"},"vehicle_type_id":"4","last_reported":1748535189,"current_range_meters":0,"station_id":"ce4bhk92rcd13ifvqgb0","pricing_plan_id":"cebpf4jnsgd1na2vs0mg"},{"bike_id":"7fdc5093-ce1a-462a-9029-e9bb58107012","system_id":"levelo_inurba_marseille","lat":43.2707,"lon":5.42278,"is_reserved":false,"is_disabled":true,"rental_uris":{"android":"levelo://app?vid=7fdc5093-ce1a-462a-9029-e9bb58107012","ios":"levelo://app?vid=7fdc5093-ce1a-462a-9029-e9bb58107012"},"vehicle_type_id":"4","last_reported":1748535189,"current_range_meters":0,"station_id":"ce4bhk92rcd13ifvqgb0","pricing_plan_id":"cebpf4jnsgd1na2vs0mg"},{"bike_id":"6b409d41-fbab-4db8-926f-32a54ab75f10","system_id":"levelo_inurba_marseille","lat":43.2315,"lon":5.43709,"is_reserved":false,"is_disabled":true,"rental_uris":{"android":"levelo://app?vid=6b409d41-fbab-4db8-926f-32a54ab75f10","ios":"levelo://app?vid=6b409d41-fbab-4db8-926f-32a54ab75f10"},"vehicle_type_id":"4","last_reported":1748535189,"current_range_meters":0,"station_id":"ce4bhmp2rcd13ifvqgog","pricing_plan_id":"cebpf4jnsgd1na2vs0mg"},{"bike_id":"f3e14184-5a23-4e34-8a32-feae8e7b1750","system_id":"levelo_inurba_marseille","lat":43.27942,"lon":5.41039,"is_reserved":false,"is_disabled":true,"rental_uris":{"android":"levelo://app?vid=f3e14184-5a23-4e34-8a32-feae8e7b1750","ios":"levelo://app?vid=f3e14184-5a23-4e34-8a32-feae8e7b1750"},"vehicle_type_id":"4","last_reported":1748535189,"current_range_meters":0,"station_id":"ce4bhnp2rcd13ifvqh0g","pricing_plan_id":"cebpf4jnsgd1na2vs0mg"},{"bike_id":"89eea1e4-60f7-4cc8-b25a-d670929e85db","system_id":"levelo_inurba_marseille","lat":43.27938,"lon":5.4104,"is_reserved":false,"is_disabled":true,"rental_uris":{"android":"levelo://app?vid=89eea1e4-60f7-4cc8-b25a-d670929e85db","ios":"levelo://app?vid=89eea1e4-60f7-4cc8-b25a-d670929e85db"},"vehicle_type_id":"4","last_reported":1748535189,"current_range_meters":0,"station_id":"ce4bhnp2rcd13ifvqh0g","pricing_plan_id":"cebpf4jnsgd1na2vs0mg"},{"bike_id":"1e5dad32-b1df-4cef-88b5-8d9c7d326fc9","system_id":"levelo_inurba_marseille","lat":43.23197,"lon":5.35557,"is_reserved":false,"is_disabled":true,"rental_uris":{"android":"levelo://app?vid=1e5dad32-b1df-4cef-88b5-8d9c7d326fc9","ios":"levelo://app?vid=1e5dad32-b1df-4cef-88b5-8d9c7d326fc9"},"vehicle_type_id":"4","last_reported":1748535189,"current_range_meters":0,"station_id":"ce4bhu92rcd13ifvqi70","pricing_plan_id":"cebpf4jnsgd1na2vs0mg"},{"bike_id":"e0f3f54d-4e6e-4cd8-8266-0d35d27db2bb","system_id":"levelo_inurba_marseille","lat":43.231916,"lon":5.355668,"is_reserved":false,"is_disabled":true,"rental_uris":{"android":"levelo://app?vid=e0f3f54d-4e6e-4cd8-8266-0d35d27db2bb","ios":"levelo://app?vid=e0f3f54d-4e6e-4cd8-8266-0d35d27db2bb"},"vehicle_type_id":"4","last_reported":1748535189,"current_range_meters":0,"station_id":"ce4bhu92rcd13ifvqi70","pricing_plan_id":"cebpf4jnsgd1na2vs0mg"},{"bike_id":"2ea91a97-fb76-4527-b1a7-856ef6802055","system_id":"levelo_inurba_marseille","lat":43.22927,"lon":5.35376,"is_reserved":false,"is_disabled":true,"rental_uris":{"android":"levelo://app?vid=2ea91a97-fb76-4527-b1a7-856ef6802055","ios":"levelo://app?vid=2ea91a97-fb76-4527-b1a7-856ef6802055"},"vehicle_type_id":"4","last_reported":1748535189,"current_range_meters":0,"station_id":"cpo3532slgdg3j2ikp40","pricing_plan_id":"cebpf4jnsgd1na2vs0mg"},{"bike_id":"324df3a1-1395-4c2d-8002-df14e2a966b6","system_id":"levelo_inurba_marseille","lat":43.24163,"lon":5.36423,"is_reserved":false,"is_disabled":true,"rental_uris":{"android":"levelo://app?vid=324df3a1-1395-4c2d-8002-df14e2a966b6","ios":"levelo://app?vid=324df3a1-1395-4c2d-8002-df14e2a966b6"},"vehicle_type_id":"4","last_reported":1748535189,"current_range_meters":0,"station_id":"cpo36qri1sfpv3e86is0","pricing_plan_id":"cebpf4jnsgd1na2vs0mg"},{"bike_id":"cd018a14-e83d-4d40-ac42-b66ab9d8e9cc","system_id":"levelo_inurba_marseille","lat":43.22502,"lon":5.34784,"is_reserved":false,"is_disabled":true,"rental_uris":{"android":"levelo://app?vid=cd018a14-e83d-4d40-ac42-b66ab9d8e9cc","ios":"levelo://app?vid=cd018a14-e83d-4d40-ac42-b66ab9d8e9cc"},"vehicle_type_id":"4","last_reported":1748535189,"current_range_meters":0,"station_id":"st_cvj5dfep6f1abm77gieg","pricing_plan_id":"cebpf4jnsgd1na2vs0mg"},{"bike_id":"da5c0d7c-a0f7-4309-9147-7e75efd6f413","system_id":"levelo_inurba_marseille","lat":43.2385,"lon":5.36547,"is_reserved":false,"is_disabled":true,"rental_uris":{"android":"levelo://app?vid=da5c0d7c-a0f7-4309-9147-7e75efd6f413","ios":"levelo://app?vid=da5c0d7c-a0f7-4309-9147-7e75efd6f413"},"vehicle_type_id":"4","last_reported":1748535189,"current_range_meters":400,"station_id":"","pricing_plan_id":"cebpf4jnsgd1na2vs0mg"},{"bike_id":"5fe9c3ab-5f98-4d55-ad2c-c202f775581b","system_id":"levelo_inurba_marseille","lat":43.3095,"lon":5.3903,"is_reserved":false,"is_disabled":true,"rental_uris":{"android":"levelo://app?vid=5fe9c3ab-5f98-4d55-ad2c-c202f775581b","ios":"levelo://app?vid=5fe9c3ab-5f98-4d55-ad2c-c202f775581b"},"vehicle_type_id":"4","last_reported":1748535189,"current_range_meters":400,"station_id":"ce4bgup2rcd13ifvqco0","pricing_plan_id":"cebpf4jnsgd1na2vs0mg"},{"bike_id":"ad1f42dc-835a-4e3f-b384-799956be43e1","system_id":"levelo_inurba_marseille","lat":43.31684,"lon":5.40478,"is_reserved":false,"is_disabled":true,"rental_uris":{"android":"levelo://app?vid=ad1f42dc-835a-4e3f-b384-799956be43e1","ios":"levelo://app?vid=ad1f42dc-835a-4e3f-b384-799956be43e1"},"vehicle_type_id":"4","last_reported":1748535189,"current_range_meters":400,"station_id":"ce4bh012rcd13ifvqd00","pricing_plan_id":"cebpf4jnsgd1na2vs0mg"},{"bike_id":"d3412c0a-d0e9-4dce-b88d-8aa2b524ffc7","system_id":"levelo_inurba_marseille","lat":43.298806,"lon":5.389069,"is_reserved":false,"is_disabled":true,"rental_uris":{"android":"levelo://app?vid=d3412c0a-d0e9-4dce-b88d-8aa2b524ffc7","ios":"levelo://app?vid=d3412c0a-d0e9-4dce-b88d-8aa2b524ffc7"},"vehicle_type_id":"4","last_reported":1748535189,"current_range_meters":400,"station_id":"ce4bh392rcd13ifvqdl0","pricing_plan_id":"cebpf4jnsgd1na2vs0mg"},{"bike_id":"05ed7e29-7131-4523-8db3-efcd302d3a7d","system_id":"levelo_inurba_marseille","lat":43.28356,"lon":5.3863,"is_reserved":false,"is_disabled":true,"rental_uris":{"android":"levelo://app?vid=05ed7e29-7131-4523-8db3-efcd302d3a7d","ios":"levelo://app?vid=05ed7e29-7131-4523-8db3-efcd302d3a7d"},"vehicle_type_id":"4","last_reported":1748535189,"current_range_meters":400,"station_id":"ce4bh492rcd13ifvqdvg","pricing_plan_id":"cebpf4jnsgd1na2vs0mg"},{"bike_id":"0ca390ba-b847-4f7b-943b-0757b6a45127","system_id":"levelo_inurba_marseille","lat":43.24169,"lon":5.36402,"is_reserved":false,"is_disabled":true,"rental_uris":{"android":"levelo://app?vid=0ca390ba-b847-4f7b-943b-0757b6a45127","ios":"levelo://app?vid=0ca390ba-b847-4f7b-943b-0757b6a45127"},"vehicle_type_id":"4","last_reported":1748535189,"current_range_meters":400,"station_id":"cpo36qri1sfpv3e86is0","pricing_plan_id":"cebpf4jnsgd1na2vs0mg"},{"bike_id":"e9e76f4f-1e46-43f8-b91a-7ba164c82940","system_id":"levelo_inurba_marseille","lat":43.29884,"lon":5.39734,"is_reserved":false,"is_disabled":true,"rental_uris":{"android":"levelo://app?vid=e9e76f4f-1e46-43f8-b91a-7ba164c82940","ios":"levelo://app?vid=e9e76f4f-1e46-43f8-b91a-7ba164c82940"},"vehicle_type_id":"4","last_reported":1748535189,"current_range_meters":800,"station_id":"ce4bh0h2rcd13ifvqd50","pricing_plan_id":"cebpf4jnsgd1na2vs0mg"},{"bike_id":"a2bfea14-5883-4110-901e-ddff2e1e7dde","system_id":"levelo_inurba_marseille","lat":43.27913,"lon":5.39584,"is_reserved":false,"is_disabled":true,"rental_uris":{"android":"levelo://app?vid=a2bfea14-5883-4110-901e-ddff2e1e7dde","ios":"levelo://app?vid=a2bfea14-5883-4110-901e-ddff2e1e7dde"},"vehicle_type_id":"4","last_reported":1748535189,"current_range_meters":800,"station_id":"ce4bhf92rcd13ifvqf40","pricing_plan_id":"cebpf4jnsgd1na2vs0mg"},{"bike_id":"397615b6-f695-4e12-97a7-b97d738e1d02","system_id":"levelo_inurba_marseille","lat":43.2798,"lon":5.38748,"is_reserved":false,"is_disabled":true,"rental_uris":{"android":"levelo://app?vid=397615b6-f695-4e12-97a7-b97d738e1d02","ios":"levelo://app?vid=397615b6-f695-4e12-97a7-b97d738e1d02"},"vehicle_type_id":"4","last_reported":1748535189,"current_range_meters":800,"station_id":"ce4bhg12rcd13ifvqf80","pricing_plan_id":"cebpf4jnsgd1na2vs0mg"},{"bike_id":"aa65ca4f-c082-4513-bd14-2e984aa1f5f9","system_id":"levelo_inurba_marseille","lat":43.25919,"lon":5.40919,"is_reserved":false,"is_disabled":true,"rental_uris":{"android":"levelo://app?vid=aa65ca4f-c082-4513-bd14-2e984aa1f5f9","ios":"levelo://app?vid=aa65ca4f-c082-4513-bd14-2e984aa1f5f9"},"vehicle_type_id":"4","last_reported":1748535189,"current_range_meters":800,"station_id":"ce4bhm92rcd13ifvqglg","pricing_plan_id":"cebpf4jnsgd1na2vs0mg"},{"bike_id":"8e171b84-792c-420b-b223-89090267e3b9","system_id":"levelo_inurba_marseille","lat":43.23156,"lon":5.43702,"is_reserved":false,"is_disabled":true,"rental_uris":{"android":"levelo://app?vid=8e171b84-792c-420b-b223-89090267e3b9","ios":"levelo://app?vid=8e171b84-792c-420b-b223-89090267e3b9"},"vehicle_type_id":"4","last_reported":1748535189,"current_range_meters":800,"station_id":"ce4bhmp2rcd13ifvqgog","pricing_plan_id":"cebpf4jnsgd1na2vs0mg"},{"bike_id":"499f9533-7014-47bd-8528-c1ec359e1f89","system_id":"levelo_inurba_marseille","lat":43.241645,"lon":5.363896,"is_reserved":false,"is_disabled":true,"rental_uris":{"android":"levelo://app?vid=499f9533-7014-47bd-8528-c1ec359e1f89","ios":"levelo://app?vid=499f9533-7014-47bd-8528-c1ec359e1f89"},"vehicle_type_id":"4","last_reported":1748535189,"current_range_meters":1200,"station_id":"","pricing_plan_id":"cebpf4jnsgd1na2vs0mg"},{"bike_id":"432eef5d-9ab8-4992-85fa-7fefc1d24756","system_id":"levelo_inurba_marseille","lat":43.3251,"lon":5.42455,"is_reserved":false,"is_disabled":true,"rental_uris":{"android":"levelo://app?vid=432eef5d-9ab8-4992-85fa-7fefc1d24756","ios":"levelo://app?vid=432eef5d-9ab8-4992-85fa-7fefc1d24756"},"vehicle_type_id":"4","last_reported":1748535189,"current_range_meters":1200,"station_id":"","pricing_plan_id":"cebpf4jnsgd1na2vs0mg"},{"bike_id":"63ec274a-3253-4b43-a770-1e02bee16154","system_id":"levelo_inurba_marseille","lat":43.29934,"lon":5.36554,"is_reserved":false,"is_disabled":true,"rental_uris":{"android":"levelo://app?vid=63ec274a-3253-4b43-a770-1e02bee16154","ios":"levelo://app?vid=63ec274a-3253-4b43-a770-1e02bee16154"},"vehicle_type_id":"4","last_reported":1748535189,"current_range_meters":1200,"station_id":"ce4bgm92rcd13ifvqbr0","pricing_plan_id":"cebpf4jnsgd1na2vs0mg"},{"bike_id":"95aa6be9-171e-4d5c-9902-09ca8cd6c55f","system_id":"levelo_inurba_marseille","lat":43.313265,"lon":5.39695,"is_reserved":false,"is_disabled":true,"rental_uris":{"android":"levelo://app?vid=95aa6be9-171e-4d5c-9902-09ca8cd6c55f","ios":"levelo://app?vid=95aa6be9-171e-4d5c-9902-09ca8cd6c55f"},"vehicle_type_id":"4","last_reported":1748535189,"current_range_meters":1200,"station_id":"ce4bgvp2rcd13ifvqcu0","pricing_plan_id":"cebpf4jnsgd1na2vs0mg"},{"bike_id":"f3f9eb1a-759e-4f20-a986-1bc2c995f345","system_id":"levelo_inurba_marseille","lat":43.29038,"lon":5.37564,"is_reserved":false,"is_disabled":true,"rental_uris":{"android":"levelo://app?vid=f3f9eb1a-759e-4f20-a986-1bc2c995f345","ios":"levelo://app?vid=f3f9eb1a-759e-4f20-a986-1bc2c995f345"},"vehicle_type_id":"4","last_reported":1748535189,"current_range_meters":1200,"station_id":"ce4bh692rcd13ifvqe90","pricing_plan_id":"cebpf4jnsgd1na2vs0mg"},{"bike_id":"4adc5412-4f43-454e-a27a-309475fcd202","system_id":"levelo_inurba_marseille","lat":43.27988,"lon":5.38713,"is_reserved":false,"is_disabled":true,"rental_uris":{"android":"levelo://app?vid=4adc5412-4f43-454e-a27a-309475fcd202","ios":"levelo://app?vid=4adc5412-4f43-454e-a27a-309475fcd202"},"vehicle_type_id":"4","last_reported":1748535189,"current_range_meters":1200,"station_id":"ce4bhg12rcd13ifvqf80","pricing_plan_id":"cebpf4jnsgd1na2vs0mg"},{"bike_id":"705d85fb-1ecf-41cc-ae1c-04f54e922f86","system_id":"levelo_inurba_marseille","lat":43.23191,"lon":5.35554,"is_reserved":false,"is_disabled":true,"rental_uris":{"android":"levelo://app?vid=705d85fb-1ecf-41cc-ae1c-04f54e922f86","ios":"levelo://app?vid=705d85fb-1ecf-41cc-ae1c-04f54e922f86"},"vehicle_type_id":"4","last_reported":1748535189,"current_range_meters":1200,"station_id":"ce4bhu92rcd13ifvqi70","pricing_plan_id":"cebpf4jnsgd1na2vs0mg"},{"bike_id":"180e4da0-00a9-4461-bfd1-11630824fb3b","system_id":"levelo_inurba_marseille","lat":43.24332,"lon":5.40167,"is_reserved":false,"is_disabled":true,"rental_uris":{"android":"levelo://app?vid=180e4da0-00a9-4461-bfd1-11630824fb3b","ios":"levelo://app?vid=180e4da0-00a9-4461-bfd1-11630824fb3b"},"vehicle_type_id":"4","last_reported":1748535189,"current_range_meters":1600,"station_id":"","pricing_plan_id":"cebpf4jnsgd1na2vs0mg"},{"bike_id":"e7e48719-ecc0-4e9b-a77e-6044bfa81e80","system_id":"levelo_inurba_marseille","lat":43.231427,"lon":5.437172,"is_reserved":false,"is_disabled":true,"rental_uris":{"android":"levelo://app?vid=e7e48719-ecc0-4e9b-a77e-6044bfa81e80","ios":"levelo://app?vid=e7e48719-ecc0-4e9b-a77e-6044bfa81e80"},"vehicle_type_id":"4","last_reported":1748535189,"current_range_meters":1600,"station_id":"ce4bhmp2rcd13ifvqgog","pricing_plan_id":"cebpf4jnsgd1na2vs0mg"},{"bike_id":"e56e6c26-9fd9-4d0c-a32f-b78af9413c49","system_id":"levelo_inurba_marseille","lat":43.29554,"lon":5.42292,"is_reserved":false,"is_disabled":true,"rental_uris":{"android":"levelo://app?vid=e56e6c26-9fd9-4d0c-a32f-b78af9413c49","ios":"levelo://app?vid=e56e6c26-9fd9-4d0c-a32f-b78af9413c49"},"vehicle_type_id":"4","last_reported":1748535189,"current_range_meters":1600,"station_id":"ce4bhph2rcd13ifvqhdg","pricing_plan_id":"cebpf4jnsgd1na2vs0mg"},{"bike_id":"659b9108-9340-497a-b682-7d4730a6dd93","system_id":"levelo_inurba_marseille","lat":43.30275,"lon":5.37715,"is_reserved":false,"is_disabled":false,"rental_uris":{"android":"levelo://app?vid=659b9108-9340-497a-b682-7d4730a6dd93","ios":"levelo://app?vid=659b9108-9340-497a-b682-7d4730a6dd93"},"vehicle_type_id":"4","last_reported":1748535189,"current_range_meters":2000,"station_id":"ce4bguh2rcd13ifvqcj0","pricing_plan_id":"cebpf4jnsgd1na2vs0mg"},{"bike_id":"66f2fb24-f35f-46bb-8208-52ece735255f","system_id":"levelo_inurba_marseille","lat":43.258107,"lon":5.382995,"is_reserved":false,"is_disabled":true,"rental_uris":{"android":"levelo://app?vid=66f2fb24-f35f-46bb-8208-52ece735255f","ios":"levelo://app?vid=66f2fb24-f35f-46bb-8208-52ece735255f"},"vehicle_type_id":"4","last_reported":1748535189,"current_range_meters":2000,"station_id":"ce4bhjp2rcd13ifvqg90","pricing_plan_id":"cebpf4jnsgd1na2vs0mg"},{"bike_id":"9c8ddcba-42d3-4830-a972-8247484b5cfe","system_id":"levelo_inurba_marseille","lat":43.2512,"lon":5.40315,"is_reserved":false,"is_disabled":true,"rental_uris":{"android":"levelo://app?vid=9c8ddcba-42d3-4830-a972-8247484b5cfe","ios":"levelo://app?vid=9c8ddcba-42d3-4830-a972-8247484b5cfe"},"vehicle_type_id":"4","last_reported":1748535189,"current_range_meters":2000,"station_id":"ce4bhlh2rcd13ifvqgig","pricing_plan_id":"cebpf4jnsgd1na2vs0mg"},{"bike_id":"90047ad6-4206-4489-92fb-c4c9f8bc2261","system_id":"levelo_inurba_marseille","lat":43.23178,"lon":5.39986,"is_reserved":false,"is_disabled":true,"rental_uris":{"android":"levelo://app?vid=90047ad6-4206-4489-92fb-c4c9f8bc2261","ios":"levelo://app?vid=90047ad6-4206-4489-92fb-c4c9f8bc2261"},"vehicle_type_id":"4","last_reported":1748535189,"current_range_meters":2000,"station_id":"ce4bhn12rcd13ifvqgqg","pricing_plan_id":"cebpf4jnsgd1na2vs0mg"},{"bike_id":"80b8ff9c-7722-4881-b966-4de10e6a2fb3","system_id":"levelo_inurba_marseille","lat":43.30421,"lon":5.41286,"is_reserved":false,"is_disabled":true,"rental_uris":{"android":"levelo://app?vid=80b8ff9c-7722-4881-b966-4de10e6a2fb3","ios":"levelo://app?vid=80b8ff9c-7722-4881-b966-4de10e6a2fb3"},"vehicle_type_id":"4","last_reported":1748535189,"current_range_meters":2000,"station_id":"ce4bhop2rcd13ifvqh8g","pricing_plan_id":"cebpf4jnsgd1na2vs0mg"},{"bike_id":"a825ca66-0155-482b-ba57-da25292791c6","system_id":"levelo_inurba_marseille","lat":43.30416,"lon":5.41282,"is_reserved":false,"is_disabled":true,"rental_uris":{"android":"levelo://app?vid=a825ca66-0155-482b-ba57-da25292791c6","ios":"levelo://app?vid=a825ca66-0155-482b-ba57-da25292791c6"},"vehicle_type_id":"4","last_reported":1748535189,"current_range_meters":2000,"station_id":"ce4bhop2rcd13ifvqh8g","pricing_plan_id":"cebpf4jnsgd1na2vs0mg"},{"bike_id":"656d92c7-0b63-4a54-afbf-6dc8f200ef6e","system_id":"levelo_inurba_marseille","lat":43.23194,"lon":5.35558,"is_reserved":false,"is_disabled":true,"rental_uris":{"android":"levelo://app?vid=656d92c7-0b63-4a54-afbf-6dc8f200ef6e","ios":"levelo://app?vid=656d92c7-0b63-4a54-afbf-6dc8f200ef6e"},"vehicle_type_id":"4","last_reported":1748535189,"current_range_meters":2000,"station_id":"ce4bhu92rcd13ifvqi70","pricing_plan_id":"cebpf4jnsgd1na2vs0mg"},{"bike_id":"de9db47c-7e63-42ac-be04-662c1fec771c","system_id":"levelo_inurba_marseille","lat":43.29308,"lon":5.3716,"is_reserved":false,"is_disabled":false,"rental_uris":{"android":"levelo://app?vid=de9db47c-7e63-42ac-be04-662c1fec771c","ios":"levelo://app?vid=de9db47c-7e63-42ac-be04-662c1fec771c"},"vehicle_type_id":"4","last_reported":1748535189,"current_range_meters":2800,"station_id":"ce4bgh92rcd13ifvqb40","pricing_plan_id":"cebpf4jnsgd1na2vs0mg"},{"bike_id":"3392d1fe-38d5-4500-8614-9822a741b3ba","system_id":"levelo_inurba_marseille","lat":43.30252,"lon":5.40082,"is_reserved":false,"is_disabled":false,"rental_uris":{"android":"levelo://app?vid=3392d1fe-38d5-4500-8614-9822a741b3ba","ios":"levelo://app?vid=3392d1fe-38d5-4500-8614-9822a741b3ba"},"vehicle_type_id":"4","last_reported":1748535189,"current_range_meters":2800,"station_id":"ce4bgvh2rcd13ifvqcs0","pricing_plan_id":"cebpf4jnsgd1na2vs0mg"},{"bike_id":"c252212a-9220-41d9-a01d-4951cb8bc609","system_id":"levelo_inurba_marseille","lat":43.28456,"lon":5.35894,"is_reserved":false,"is_disabled":false,"rental_uris":{"android":"levelo://app?vid=c252212a-9220-41d9-a01d-4951cb8bc609","ios":"levelo://app?vid=c252212a-9220-41d9-a01d-4951cb8bc609"},"vehicle_type_id":"4","last_reported":1748535189,"current_range_meters":2800,"station_id":"ce4bhah2rcd13ifvqei0","pricing_plan_id":"cebpf4jnsgd1na2vs0mg"},{"bike_id":"b7156b5e-2859-4d7c-ad40-ca018573370e","system_id":"levelo_inurba_marseille","lat":43.24824,"lon":5.37472,"is_reserved":false,"is_disabled":false,"rental_uris":{"android":"levelo://app?vid=b7156b5e-2859-4d7c-ad40-ca018573370e","ios":"levelo://app?vid=b7156b5e-2859-4d7c-ad40-ca018573370e"},"vehicle_type_id":"4","last_reported":1748535189,"current_range_meters":2800,"station_id":"ce4bhgh2rcd13ifvqfb0","pricing_plan_id":"cebpf4jnsgd1na2vs0mg"},{"bike_id":"512ed212-3af1-4bee-aee6-f15bc5164d7e","system_id":"levelo_inurba_marseille","lat":43.25105,"lon":5.40327,"is_reserved":false,"is_disabled":false,"rental_uris":{"android":"levelo://app?vid=512ed212-3af1-4bee-aee6-f15bc5164d7e","ios":"levelo://app?vid=512ed212-3af1-4bee-aee6-f15bc5164d7e"},"vehicle_type_id":"4","last_reported":1748535189,"current_range_meters":2800,"station_id":"ce4bhlh2rcd13ifvqgig","pricing_plan_id":"cebpf4jnsgd1na2vs0mg"},{"bike_id":"e0d85841-495e-4e0c-99d2-7c82af5665ee","system_id":"levelo_inurba_marseille","lat":43.23183,"lon":5.3556,"is_reserved":false,"is_disabled":false,"rental_uris":{"android":"levelo://app?vid=e0d85841-495e-4e0c-99d2-7c82af5665ee","ios":"levelo://app?vid=e0d85841-495e-4e0c-99d2-7c82af5665ee"},"vehicle_type_id":"4","last_reported":1748535189,"current_range_meters":2800,"station_id":"ce4bhu92rcd13ifvqi70","pricing_plan_id":"cebpf4jnsgd1na2vs0mg"},{"bike_id":"c3a0bd73-5813-47f0-a5c8-27701041c8ba","system_id":"levelo_inurba_marseille","lat":43.2725,"lon":5.42426,"is_reserved":false,"is_disabled":false,"rental_uris":{"android":"levelo://app?vid=c3a0bd73-5813-47f0-a5c8-27701041c8ba","ios":"levelo://app?vid=c3a0bd73-5813-47f0-a5c8-27701041c8ba"},"vehicle_type_id":"4","last_reported":1748535189,"current_range_meters":3200,"station_id":"","pricing_plan_id":"cebpf4jnsgd1na2vs0mg"},{"bike_id":"e88b474d-d8de-4750-b5af-3d5cce2d298c","system_id":"levelo_inurba_marseille","lat":43.31681,"lon":5.40477,"is_reserved":false,"is_disabled":false,"rental_uris":{"android":"levelo://app?vid=e88b474d-d8de-4750-b5af-3d5cce2d298c","ios":"levelo://app?vid=e88b474d-d8de-4750-b5af-3d5cce2d298c"},"vehicle_type_id":"4","last_reported":1748535189,"current_range_meters":3200,"station_id":"ce4bh012rcd13ifvqd00","pricing_plan_id":"cebpf4jnsgd1na2vs0mg"},{"bike_id":"66f450a3-35bb-4dec-85be-3968f9f1cd22","system_id":"levelo_inurba_marseille","lat":43.26948,"lon":5.38624,"is_reserved":false,"is_disabled":false,"rental_uris":{"android":"levelo://app?vid=66f450a3-35bb-4dec-85be-3968f9f1cd22","ios":"levelo://app?vid=66f450a3-35bb-4dec-85be-3968f9f1cd22"},"vehicle_type_id":"4","last_reported":1748535189,"current_range_meters":3200,"station_id":"ce4bhh92rcd13ifvqfh0","pricing_plan_id":"cebpf4jnsgd1na2vs0mg"},{"bike_id":"88a9d511-0858-40b5-99ab-3bb720cd8f88","system_id":"levelo_inurba_marseille","lat":43.23965,"lon":5.36644,"is_reserved":false,"is_disabled":false,"rental_uris":{"android":"levelo://app?vid=88a9d511-0858-40b5-99ab-3bb720cd8f88","ios":"levelo://app?vid=88a9d511-0858-40b5-99ab-3bb720cd8f88"},"vehicle_type_id":"4","last_reported":1748535189,"current_range_meters":3200,"station_id":"ce4bhi12rcd13ifvqfp0","pricing_plan_id":"cebpf4jnsgd1na2vs0mg"},{"bike_id":"b070f2fe-01a7-4f91-a61f-73e1688025c1","system_id":"levelo_inurba_marseille","lat":43.25503,"lon":5.3765,"is_reserved":false,"is_disabled":false,"rental_uris":{"android":"levelo://app?vid=b070f2fe-01a7-4f91-a61f-73e1688025c1","ios":"levelo://app?vid=b070f2fe-01a7-4f91-a61f-73e1688025c1"},"vehicle_type_id":"4","last_reported":1748535189,"current_range_meters":3600,"station_id":"ce4bhh12rcd13ifvqff0","pricing_plan_id":"cebpf4jnsgd1na2vs0mg"},{"bike_id":"9b82530d-def9-4dc7-a3bf-5324a922f3ec","system_id":"levelo_inurba_marseille","lat":43.24079,"lon":5.37751,"is_reserved":false,"is_disabled":false,"rental_uris":{"android":"levelo://app?vid=9b82530d-def9-4dc7-a3bf-5324a922f3ec","ios":"levelo://app?vid=9b82530d-def9-4dc7-a3bf-5324a922f3ec"},"vehicle_type_id":"4","last_reported":1748535189,"current_range_meters":3600,"station_id":"ce4bhnp2rcd13ifvqgvg","pricing_plan_id":"cebpf4jnsgd1na2vs0mg"},{"bike_id":"3c43a4b3-c7ca-4ebe-bf3d-c2b4a1bb3f73","system_id":"levelo_inurba_marseille","lat":43.24163,"lon":5.36399,"is_reserved":false,"is_disabled":false,"rental_uris":{"android":"levelo://app?vid=3c43a4b3-c7ca-4ebe-bf3d-c2b4a1bb3f73","ios":"levelo://app?vid=3c43a4b3-c7ca-4ebe-bf3d-c2b4a1bb3f73"},"vehicle_type_id":"4","last_reported":1748535189,"current_range_meters":3600,"station_id":"cpo36qri1sfpv3e86is0","pricing_plan_id":"cebpf4jnsgd1na2vs0mg"},{"bike_id":"b80ee325-09b2-4724-993d-4f8d3707c41c","system_id":"levelo_inurba_marseille","lat":43.25862,"lon":5.39902,"is_reserved":false,"is_disabled":false,"rental_uris":{"android":"levelo://app?vid=b80ee325-09b2-4724-993d-4f8d3707c41c","ios":"levelo://app?vid=b80ee325-09b2-4724-993d-4f8d3707c41c"},"vehicle_type_id":"4","last_reported":1748535189,"current_range_meters":4000,"station_id":"ce4bhl92rcd13ifvqghg","pricing_plan_id":"cebpf4jnsgd1na2vs0mg"},{"bike_id":"a92f5bd4-a65e-4649-99da-6a3b2cb51193","system_id":"levelo_inurba_marseille","lat":43.299356,"lon":5.365574,"is_reserved":false,"is_disabled":false,"rental_uris":{"android":"levelo://app?vid=a92f5bd4-a65e-4649-99da-6a3b2cb51193","ios":"levelo://app?vid=a92f5bd4-a65e-4649-99da-6a3b2cb51193"},"vehicle_type_id":"4","last_reported":1748535189,"current_range_meters":4400,"station_id":"","pricing_plan_id":"cebpf4jnsgd1na2vs0mg"},{"bike_id":"4681dfcd-d151-4e9e-88ea-4f530e9084dc","system_id":"levelo_inurba_marseille","lat":43.312354,"lon":5.368974,"is_reserved":false,"is_disabled":false,"rental_uris":{"android":"levelo://app?vid=4681dfcd-d151-4e9e-88ea-4f530e9084dc","ios":"levelo://app?vid=4681dfcd-d151-4e9e-88ea-4f530e9084dc"},"vehicle_type_id":"4","last_reported":1748535189,"current_range_meters":4400,"station_id":"ce4bgl92rcd13ifvqbq0","pricing_plan_id":"cebpf4jnsgd1na2vs0mg"},{"bike_id":"1b9c44ac-969a-4768-a1a3-21c86e0814fc","system_id":"levelo_inurba_marseille","lat":43.24196,"lon":5.36401,"is_reserved":false,"is_disabled":false,"rental_uris":{"android":"levelo://app?vid=1b9c44ac-969a-4768-a1a3-21c86e0814fc","ios":"levelo://app?vid=1b9c44ac-969a-4768-a1a3-21c86e0814fc"},"vehicle_type_id":"4","last_reported":1748535189,"current_range_meters":4400,"station_id":"cpo36qri1sfpv3e86is0","pricing_plan_id":"cebpf4jnsgd1na2vs0mg"},{"bike_id":"ee4805fc-08cd-4377-be04-3721b1f97d83","system_id":"levelo_inurba_marseille","lat":43.24172,"lon":5.363924,"is_reserved":false,"is_disabled":false,"rental_uris":{"android":"levelo://app?vid=ee4805fc-08cd-4377-be04-3721b1f97d83","ios":"levelo://app?vid=ee4805fc-08cd-4377-be04-3721b1f97d83"},"vehicle_type_id":"4","last_reported":1748535189,"current_range_meters":4400,"station_id":"cpo36qri1sfpv3e86is0","pricing_plan_id":"cebpf4jnsgd1na2vs0mg"},{"bike_id":"e86a59b0-0eec-44bb-872c-b1f3433ce605","system_id":"levelo_inurba_marseille","lat":43.272051,"lon":5.391865,"is_reserved":false,"is_disabled":false,"rental_uris":{"android":"levelo://app?vid=e86a59b0-0eec-44bb-872c-b1f3433ce605","ios":"levelo://app?vid=e86a59b0-0eec-44bb-872c-b1f3433ce605"},"vehicle_type_id":"4","last_reported":1748535189,"current_range_meters":4800,"station_id":"ce4bhhp2rcd13ifvqfm0","pricing_plan_id":"cebpf4jnsgd1na2vs0mg"},{"bike_id":"6d7cfdcd-f061-4eee-b4e5-78d9b6729328","system_id":"levelo_inurba_marseille","lat":43.33005,"lon":5.43852,"is_reserved":false,"is_disabled":false,"rental_uris":{"android":"levelo://app?vid=6d7cfdcd-f061-4eee-b4e5-78d9b6729328","ios":"levelo://app?vid=6d7cfdcd-f061-4eee-b4e5-78d9b6729328"},"vehicle_type_id":"4","last_reported":1748535189,"current_range_meters":5600,"station_id":"","pricing_plan_id":"cebpf4jnsgd1na2vs0mg"},{"bike_id":"029e18db-c1b1-4c8e-b44c-5af589bfccb9","system_id":"levelo_inurba_marseille","lat":43.286994,"lon":5.399799,"is_reserved":false,"is_disabled":false,"rental_uris":{"android":"levelo://app?vid=029e18db-c1b1-4c8e-b44c-5af589bfccb9","ios":"levelo://app?vid=029e18db-c1b1-4c8e-b44c-5af589bfccb9"},"vehicle_type_id":"4","last_reported":1748535189,"current_range_meters":5600,"station_id":"","pricing_plan_id":"cebpf4jnsgd1na2vs0mg"},{"bike_id":"0e38c33c-688d-42bf-9448-6ed7e13b1b4e","system_id":"levelo_inurba_marseille","lat":43.30145,"lon":5.38077,"is_reserved":false,"is_disabled":false,"rental_uris":{"android":"levelo://app?vid=0e38c33c-688d-42bf-9448-6ed7e13b1b4e","ios":"levelo://app?vid=0e38c33c-688d-42bf-9448-6ed7e13b1b4e"},"vehicle_type_id":"4","last_reported":1748535189,"current_range_meters":5600,"station_id":"ce4bgjp2rcd13ifvqbh0","pricing_plan_id":"cebpf4jnsgd1na2vs0mg"},{"bike_id":"67faa85a-9056-489e-9b04-0fef25d3980a","system_id":"levelo_inurba_marseille","lat":43.269513,"lon":5.386241,"is_reserved":false,"is_disabled":false,"rental_uris":{"android":"levelo://app?vid=67faa85a-9056-489e-9b04-0fef25d3980a","ios":"levelo://app?vid=67faa85a-9056-489e-9b04-0fef25d3980a"},"vehicle_type_id":"4","last_reported":1748535189,"current_range_meters":5600,"station_id":"ce4bhh92rcd13ifvqfh0","pricing_plan_id":"cebpf4jnsgd1na2vs0mg"},{"bike_id":"f68c6a7c-d9c8-4a66-8b34-14297c3aea5e","system_id":"levelo_inurba_marseille","lat":43.271719,"lon":5.409958,"is_reserved":false,"is_disabled":false,"rental_uris":{"android":"levelo://app?vid=f68c6a7c-d9c8-4a66-8b34-14297c3aea5e","ios":"levelo://app?vid=f68c6a7c-d9c8-4a66-8b34-14297c3aea5e"},"vehicle_type_id":"4","last_reported":1748535189,"current_range_meters":5600,"station_id":"ce4bhl12rcd13ifvqgf0","pricing_plan_id":"cebpf4jnsgd1na2vs0mg"},{"bike_id":"239bf04b-0680-495d-8d39-eaee10a4004d","system_id":"levelo_inurba_marseille","lat":43.24168,"lon":5.36381,"is_reserved":false,"is_disabled":false,"rental_uris":{"android":"levelo://app?vid=239bf04b-0680-495d-8d39-eaee10a4004d","ios":"levelo://app?vid=239bf04b-0680-495d-8d39-eaee10a4004d"},"vehicle_type_id":"4","last_reported":1748535189,"current_range_meters":6000,"station_id":"cpo36qri1sfpv3e86is0","pricing_plan_id":"cebpf4jnsgd1na2vs0mg"},{"bike_id":"c0c5027f-c041-4b12-acfa-e6b17680071b","system_id":"levelo_inurba_marseille","lat":43.238017,"lon":5.435743,"is_reserved":false,"is_disabled":false,"rental_uris":{"android":"levelo://app?vid=c0c5027f-c041-4b12-acfa-e6b17680071b","ios":"levelo://app?vid=c0c5027f-c041-4b12-acfa-e6b17680071b"},"vehicle_type_id":"4","last_reported":1748535189,"current_range_meters":6400,"station_id":"","pricing_plan_id":"cebpf4jnsgd1na2vs0mg"},{"bike_id":"f6a47009-c675-4b06-8efe-f673cb9fe3e8","system_id":"levelo_inurba_marseille","lat":43.265532,"lon":5.372883,"is_reserved":false,"is_disabled":false,"rental_uris":{"android":"levelo://app?vid=f6a47009-c675-4b06-8efe-f673cb9fe3e8","ios":"levelo://app?vid=f6a47009-c675-4b06-8efe-f673cb9fe3e8"},"vehicle_type_id":"4","last_reported":1748535189,"current_range_meters":6400,"station_id":"ce4bhg12rcd13ifvqf70","pricing_plan_id":"cebpf4jnsgd1na2vs0mg"},{"bike_id":"02a2bfbf-cc07-4582-b620-94b325ff67d5","system_id":"levelo_inurba_marseille","lat":43.27324,"lon":5.39105,"is_reserved":false,"is_disabled":false,"rental_uris":{"android":"levelo://app?vid=02a2bfbf-cc07-4582-b620-94b325ff67d5","ios":"levelo://app?vid=02a2bfbf-cc07-4582-b620-94b325ff67d5"},"vehicle_type_id":"4","last_reported":1748535189,"current_range_meters":6400,"station_id":"ce4bhgp2rcd13ifvqfe0","pricing_plan_id":"cebpf4jnsgd1na2vs0mg"},{"bike_id":"f4bed4c6-892a-48f8-ada1-cf13c1766675","system_id":"levelo_inurba_marseille","lat":43.25501,"lon":5.37654,"is_reserved":false,"is_disabled":false,"rental_uris":{"android":"levelo://app?vid=f4bed4c6-892a-48f8-ada1-cf13c1766675","ios":"levelo://app?vid=f4bed4c6-892a-48f8-ada1-cf13c1766675"},"vehicle_type_id":"4","last_reported":1748535189,"current_range_meters":6400,"station_id":"ce4bhh12rcd13ifvqff0","pricing_plan_id":"cebpf4jnsgd1na2vs0mg"},{"bike_id":"b6194222-a80b-43bc-b765-fba2143e9c5c","system_id":"levelo_inurba_marseille","lat":43.23194,"lon":5.35554,"is_reserved":false,"is_disabled":false,"rental_uris":{"android":"levelo://app?vid=b6194222-a80b-43bc-b765-fba2143e9c5c","ios":"levelo://app?vid=b6194222-a80b-43bc-b765-fba2143e9c5c"},"vehicle_type_id":"4","last_reported":1748535189,"current_range_meters":6400,"station_id":"ce4bhu92rcd13ifvqi70","pricing_plan_id":"cebpf4jnsgd1na2vs0mg"},{"bike_id":"1eed49fb-ce64-4ebd-9903-7d87835a2ccf","system_id":"levelo_inurba_marseille","lat":43.29765,"lon":5.4599,"is_reserved":false,"is_disabled":false,"rental_uris":{"android":"levelo://app?vid=1eed49fb-ce64-4ebd-9903-7d87835a2ccf","ios":"levelo://app?vid=1eed49fb-ce64-4ebd-9903-7d87835a2ccf"},"vehicle_type_id":"4","last_reported":1748535189,"current_range_meters":6800,"station_id":"","pricing_plan_id":"cebpf4jnsgd1na2vs0mg"},{"bike_id":"c7185157-efc5-4a6b-8b62-05717dc65a04","system_id":"levelo_inurba_marseille","lat":43.25473,"lon":5.37715,"is_reserved":false,"is_disabled":false,"rental_uris":{"android":"levelo://app?vid=c7185157-efc5-4a6b-8b62-05717dc65a04","ios":"levelo://app?vid=c7185157-efc5-4a6b-8b62-05717dc65a04"},"vehicle_type_id":"4","last_reported":1748535189,"current_range_meters":6800,"station_id":"","pricing_plan_id":"cebpf4jnsgd1na2vs0mg"},{"bike_id":"50e10798-e69f-4872-a9ec-390e5a89cab6","system_id":"levelo_inurba_marseille","lat":43.29364,"lon":5.3786,"is_reserved":false,"is_disabled":false,"rental_uris":{"android":"levelo://app?vid=50e10798-e69f-4872-a9ec-390e5a89cab6","ios":"levelo://app?vid=50e10798-e69f-4872-a9ec-390e5a89cab6"},"vehicle_type_id":"4","last_reported":1748535189,"current_range_meters":6800,"station_id":"ce4bgjh2rcd13ifvqbf0","pricing_plan_id":"cebpf4jnsgd1na2vs0mg"},{"bike_id":"d16a5ded-e90c-477b-be5a-0d74e01bf078","system_id":"levelo_inurba_marseille","lat":43.30278,"lon":5.40052,"is_reserved":false,"is_disabled":false,"rental_uris":{"android":"levelo://app?vid=d16a5ded-e90c-477b-be5a-0d74e01bf078","ios":"levelo://app?vid=d16a5ded-e90c-477b-be5a-0d74e01bf078"},"vehicle_type_id":"4","last_reported":1748535189,"current_range_meters":6800,"station_id":"ce4bgvh2rcd13ifvqcs0","pricing_plan_id":"cebpf4jnsgd1na2vs0mg"},{"bike_id":"249a1795-441d-4915-b46e-4eb025c35e1e","system_id":"levelo_inurba_marseille","lat":43.27918,"lon":5.39578,"is_reserved":false,"is_disabled":false,"rental_uris":{"android":"levelo://app?vid=249a1795-441d-4915-b46e-4eb025c35e1e","ios":"levelo://app?vid=249a1795-441d-4915-b46e-4eb025c35e1e"},"vehicle_type_id":"4","last_reported":1748535189,"current_range_meters":6800,"station_id":"ce4bhf92rcd13ifvqf40","pricing_plan_id":"cebpf4jnsgd1na2vs0mg"},{"bike_id":"033bc839-f7e6-4b07-b34d-140eecfce297","system_id":"levelo_inurba_marseille","lat":43.28692,"lon":5.37381,"is_reserved":false,"is_disabled":false,"rental_uris":{"android":"levelo://app?vid=033bc839-f7e6-4b07-b34d-140eecfce297","ios":"levelo://app?vid=033bc839-f7e6-4b07-b34d-140eecfce297"},"vehicle_type_id":"4","last_reported":1748535189,"current_range_meters":7200,"station_id":"ce4bh3p2rcd13ifvqdq0","pricing_plan_id":"cebpf4jnsgd1na2vs0mg"},{"bike_id":"bf106879-ecde-48b6-8ced-379454d46ddc","system_id":"levelo_inurba_marseille","lat":43.2655,"lon":5.37283,"is_reserved":false,"is_disabled":false,"rental_uris":{"android":"levelo://app?vid=bf106879-ecde-48b6-8ced-379454d46ddc","ios":"levelo://app?vid=bf106879-ecde-48b6-8ced-379454d46ddc"},"vehicle_type_id":"4","last_reported":1748535189,"current_range_meters":7200,"station_id":"ce4bhg12rcd13ifvqf70","pricing_plan_id":"cebpf4jnsgd1na2vs0mg"},{"bike_id":"a40afdb4-f8b4-42a2-b970-14fbfd2c8e95","system_id":"levelo_inurba_marseille","lat":43.25864,"lon":5.39902,"is_reserved":false,"is_disabled":false,"rental_uris":{"android":"levelo://app?vid=a40afdb4-f8b4-42a2-b970-14fbfd2c8e95","ios":"levelo://app?vid=a40afdb4-f8b4-42a2-b970-14fbfd2c8e95"},"vehicle_type_id":"4","last_reported":1748535189,"current_range_meters":7200,"station_id":"ce4bhl92rcd13ifvqghg","pricing_plan_id":"cebpf4jnsgd1na2vs0mg"},{"bike_id":"f0e12869-ccfc-49f7-8bf1-87de5389d98e","system_id":"levelo_inurba_marseille","lat":43.27489,"lon":5.42445,"is_reserved":false,"is_disabled":false,"rental_uris":{"android":"levelo://app?vid=f0e12869-ccfc-49f7-8bf1-87de5389d98e","ios":"levelo://app?vid=f0e12869-ccfc-49f7-8bf1-87de5389d98e"},"vehicle_type_id":"4","last_reported":1748535189,"current_range_meters":7200,"station_id":"ce4bhn92rcd13ifvqgrg","pricing_plan_id":"cebpf4jnsgd1na2vs0mg"},{"bike_id":"522184cf-f0c5-4fc8-99bc-7daea548b561","system_id":"levelo_inurba_marseille","lat":43.28606,"lon":5.37068,"is_reserved":false,"is_disabled":false,"rental_uris":{"android":"levelo://app?vid=522184cf-f0c5-4fc8-99bc-7daea548b561","ios":"levelo://app?vid=522184cf-f0c5-4fc8-99bc-7daea548b561"},"vehicle_type_id":"4","last_reported":1748535189,"current_range_meters":7200,"station_id":"ce4bht12rcd13ifvqi60","pricing_plan_id":"cebpf4jnsgd1na2vs0mg"},{"bike_id":"7ad6fa5f-df46-4408-be3a-66a4244a5a34","system_id":"levelo_inurba_marseille","lat":43.26565,"lon":5.40323,"is_reserved":false,"is_disabled":false,"rental_uris":{"android":"levelo://app?vid=7ad6fa5f-df46-4408-be3a-66a4244a5a34","ios":"levelo://app?vid=7ad6fa5f-df46-4408-be3a-66a4244a5a34"},"vehicle_type_id":"4","last_reported":1748535189,"current_range_meters":8000,"station_id":"","pricing_plan_id":"cebpf4jnsgd1na2vs0mg"},{"bike_id":"2f650bb1-6027-4191-83d2-16315820a0a7","system_id":"levelo_inurba_marseille","lat":43.29994,"lon":5.37389,"is_reserved":false,"is_disabled":false,"rental_uris":{"android":"levelo://app?vid=2f650bb1-6027-4191-83d2-16315820a0a7","ios":"levelo://app?vid=2f650bb1-6027-4191-83d2-16315820a0a7"},"vehicle_type_id":"4","last_reported":1748535189,"current_range_meters":8000,"station_id":"","pricing_plan_id":"cebpf4jnsgd1na2vs0mg"},{"bike_id":"2670db84-f2fb-4d4f-ae93-d4e0b6845be0","system_id":"levelo_inurba_marseille","lat":43.29307,"lon":5.37473,"is_reserved":false,"is_disabled":false,"rental_uris":{"android":"levelo://app?vid=2670db84-f2fb-4d4f-ae93-d4e0b6845be0","ios":"levelo://app?vid=2670db84-f2fb-4d4f-ae93-d4e0b6845be0"},"vehicle_type_id":"4","last_reported":1748535189,"current_range_meters":8000,"station_id":"ce4bgi12rcd13ifvqb70","pricing_plan_id":"cebpf4jnsgd1na2vs0mg"},{"bike_id":"301286ac-a779-42ab-bc8a-84d01a196468","system_id":"levelo_inurba_marseille","lat":43.30543,"lon":5.36539,"is_reserved":false,"is_disabled":false,"rental_uris":{"android":"levelo://app?vid=301286ac-a779-42ab-bc8a-84d01a196468","ios":"levelo://app?vid=301286ac-a779-42ab-bc8a-84d01a196468"},"vehicle_type_id":"4","last_reported":1748535189,"current_range_meters":8000,"station_id":"ce4bgs12rcd13ifvqcag","pricing_plan_id":"cebpf4jnsgd1na2vs0mg"},{"bike_id":"54e34ff2-e7fb-4260-9364-37e218e6e51f","system_id":"levelo_inurba_marseille","lat":43.26552,"lon":5.37287,"is_reserved":false,"is_disabled":false,"rental_uris":{"android":"levelo://app?vid=54e34ff2-e7fb-4260-9364-37e218e6e51f","ios":"levelo://app?vid=54e34ff2-e7fb-4260-9364-37e218e6e51f"},"vehicle_type_id":"4","last_reported":1748535189,"current_range_meters":8000,"station_id":"ce4bhg12rcd13ifvqf70","pricing_plan_id":"cebpf4jnsgd1na2vs0mg"},{"bike_id":"688f098c-04c6-4085-8802-2468a85aa176","system_id":"levelo_inurba_marseille","lat":43.25818,"lon":5.39437,"is_reserved":false,"is_disabled":false,"rental_uris":{"android":"levelo://app?vid=688f098c-04c6-4085-8802-2468a85aa176","ios":"levelo://app?vid=688f098c-04c6-4085-8802-2468a85aa176"},"vehicle_type_id":"4","last_reported":1748535189,"current_range_meters":8000,"station_id":"ce4bhip2rcd13ifvqft0","pricing_plan_id":"cebpf4jnsgd1na2vs0mg"},{"bike_id":"bd7dab58-3d69-4b3a-aa6b-e9d1aec46233","system_id":"levelo_inurba_marseille","lat":43.284424,"lon":5.391907,"is_reserved":false,"is_disabled":false,"rental_uris":{"android":"levelo://app?vid=bd7dab58-3d69-4b3a-aa6b-e9d1aec46233","ios":"levelo://app?vid=bd7dab58-3d69-4b3a-aa6b-e9d1aec46233"},"vehicle_type_id":"4","last_reported":1748535189,"current_range_meters":8000,"station_id":"ce4bhoh2rcd13ifvqh5g","pricing_plan_id":"cebpf4jnsgd1na2vs0mg"},{"bike_id":"84adab0f-96c1-4426-bc86-147d47e6151b","system_id":"levelo_inurba_marseille","lat":43.231898,"lon":5.355545,"is_reserved":false,"is_disabled":false,"rental_uris":{"android":"levelo://app?vid=84adab0f-96c1-4426-bc86-147d47e6151b","ios":"levelo://app?vid=84adab0f-96c1-4426-bc86-147d47e6151b"},"vehicle_type_id":"4","last_reported":1748535189,"current_range_meters":8000,"station_id":"ce4bhu92rcd13ifvqi70","pricing_plan_id":"cebpf4jnsgd1na2vs0mg"},{"bike_id":"5bd3ce51-859f-4097-9d8f-a1bd1da3b466","system_id":"levelo_inurba_marseille","lat":43.28662,"lon":5.38657,"is_reserved":false,"is_disabled":false,"rental_uris":{"android":"levelo://app?vid=5bd3ce51-859f-4097-9d8f-a1bd1da3b466","ios":"levelo://app?vid=5bd3ce51-859f-4097-9d8f-a1bd1da3b466"},"vehicle_type_id":"4","last_reported":1748535189,"current_range_meters":8400,"station_id":"ce4bh492rcd13ifvqdug","pricing_plan_id":"cebpf4jnsgd1na2vs0mg"},{"bike_id":"443e64e8-d4ef-4f3a-bdf0-2af1bc200e02","system_id":"levelo_inurba_marseille","lat":43.24803,"lon":5.37457,"is_reserved":false,"is_disabled":false,"rental_uris":{"android":"levelo://app?vid=443e64e8-d4ef-4f3a-bdf0-2af1bc200e02","ios":"levelo://app?vid=443e64e8-d4ef-4f3a-bdf0-2af1bc200e02"},"vehicle_type_id":"4","last_reported":1748535189,"current_range_meters":8400,"station_id":"ce4bhgh2rcd13ifvqfb0","pricing_plan_id":"cebpf4jnsgd1na2vs0mg"},{"bike_id":"8472c6ba-4097-4b01-afcd-c81b98519f37","system_id":"levelo_inurba_marseille","lat":43.24999,"lon":5.3893,"is_reserved":false,"is_disabled":false,"rental_uris":{"android":"levelo://app?vid=8472c6ba-4097-4b01-afcd-c81b98519f37","ios":"levelo://app?vid=8472c6ba-4097-4b01-afcd-c81b98519f37"},"vehicle_type_id":"4","last_reported":1748535189,"current_range_meters":8400,"station_id":"ce4bhgp2rcd13ifvqfd0","pricing_plan_id":"cebpf4jnsgd1na2vs0mg"},{"bike_id":"c5d6b04f-4394-46cd-ab8f-fc126adab2d4","system_id":"levelo_inurba_marseille","lat":43.23961,"lon":5.36638,"is_reserved":false,"is_disabled":false,"rental_uris":{"android":"levelo://app?vid=c5d6b04f-4394-46cd-ab8f-fc126adab2d4","ios":"levelo://app?vid=c5d6b04f-4394-46cd-ab8f-fc126adab2d4"},"vehicle_type_id":"4","last_reported":1748535189,"current_range_meters":8400,"station_id":"ce4bhi12rcd13ifvqfp0","pricing_plan_id":"cebpf4jnsgd1na2vs0mg"},{"bike_id":"7a76773a-6bcb-4794-a638-fd2c46d89bd6","system_id":"levelo_inurba_marseille","lat":43.25583,"lon":5.38234,"is_reserved":false,"is_disabled":false,"rental_uris":{"android":"levelo://app?vid=7a76773a-6bcb-4794-a638-fd2c46d89bd6","ios":"levelo://app?vid=7a76773a-6bcb-4794-a638-fd2c46d89bd6"},"vehicle_type_id":"4","last_reported":1748535189,"current_range_meters":8400,"station_id":"ce4bhih2rcd13ifvqfs0","pricing_plan_id":"cebpf4jnsgd1na2vs0mg"},{"bike_id":"43587390-0436-473c-ab4f-3ae5eadc1e2a","system_id":"levelo_inurba_marseille","lat":43.27073,"lon":5.4228,"is_reserved":false,"is_disabled":false,"rental_uris":{"android":"levelo://app?vid=43587390-0436-473c-ab4f-3ae5eadc1e2a","ios":"levelo://app?vid=43587390-0436-473c-ab4f-3ae5eadc1e2a"},"vehicle_type_id":"4","last_reported":1748535189,"current_range_meters":8400,"station_id":"ce4bhk92rcd13ifvqgb0","pricing_plan_id":"cebpf4jnsgd1na2vs0mg"},{"bike_id":"c61d6114-7cc3-4956-bb3c-b4a6743a6b7b","system_id":"levelo_inurba_marseille","lat":43.26206,"lon":5.40428,"is_reserved":false,"is_disabled":false,"rental_uris":{"android":"levelo://app?vid=c61d6114-7cc3-4956-bb3c-b4a6743a6b7b","ios":"levelo://app?vid=c61d6114-7cc3-4956-bb3c-b4a6743a6b7b"},"vehicle_type_id":"4","last_reported":1748535189,"current_range_meters":8400,"station_id":"ce4bhmh2rcd13ifvqgmg","pricing_plan_id":"cebpf4jnsgd1na2vs0mg"},{"bike_id":"86f11208-7f90-4009-a976-cc81e2c7825f","system_id":"levelo_inurba_marseille","lat":43.241696,"lon":5.364029,"is_reserved":false,"is_disabled":false,"rental_uris":{"android":"levelo://app?vid=86f11208-7f90-4009-a976-cc81e2c7825f","ios":"levelo://app?vid=86f11208-7f90-4009-a976-cc81e2c7825f"},"vehicle_type_id":"4","last_reported":1748535189,"current_range_meters":8400,"station_id":"cpo36qri1sfpv3e86is0","pricing_plan_id":"cebpf4jnsgd1na2vs0mg"},{"bike_id":"22771043-09b1-43eb-91e0-5c845144e1e3","system_id":"levelo_inurba_marseille","lat":43.27695,"lon":5.40863,"is_reserved":false,"is_disabled":false,"rental_uris":{"android":"levelo://app?vid=22771043-09b1-43eb-91e0-5c845144e1e3","ios":"levelo://app?vid=22771043-09b1-43eb-91e0-5c845144e1e3"},"vehicle_type_id":"4","last_reported":1748535189,"current_range_meters":8800,"station_id":"","pricing_plan_id":"cebpf4jnsgd1na2vs0mg"},{"bike_id":"5e10b369-b2c4-4665-bd89-d22a3dedd9e4","system_id":"levelo_inurba_marseille","lat":43.29027,"lon":5.38652,"is_reserved":false,"is_disabled":false,"rental_uris":{"android":"levelo://app?vid=5e10b369-b2c4-4665-bd89-d22a3dedd9e4","ios":"levelo://app?vid=5e10b369-b2c4-4665-bd89-d22a3dedd9e4"},"vehicle_type_id":"4","last_reported":1748535189,"current_range_meters":8800,"station_id":"ce4bh4p2rcd13ifvqe0g","pricing_plan_id":"cebpf4jnsgd1na2vs0mg"},{"bike_id":"f5e9528b-1c66-4e1a-b608-fa29a7022faa","system_id":"levelo_inurba_marseille","lat":43.26028,"lon":5.37548,"is_reserved":false,"is_disabled":false,"rental_uris":{"android":"levelo://app?vid=f5e9528b-1c66-4e1a-b608-fa29a7022faa","ios":"levelo://app?vid=f5e9528b-1c66-4e1a-b608-fa29a7022faa"},"vehicle_type_id":"4","last_reported":1748535189,"current_range_meters":8800,"station_id":"ce4bhgh2rcd13ifvqfa0","pricing_plan_id":"cebpf4jnsgd1na2vs0mg"},{"bike_id":"a853e1c2-8d75-493a-840b-aaba88d28284","system_id":"levelo_inurba_marseille","lat":43.26188,"lon":5.3746,"is_reserved":false,"is_disabled":false,"rental_uris":{"android":"levelo://app?vid=a853e1c2-8d75-493a-840b-aaba88d28284","ios":"levelo://app?vid=a853e1c2-8d75-493a-840b-aaba88d28284"},"vehicle_type_id":"4","last_reported":1748535189,"current_range_meters":8800,"station_id":"ce4bhgp2rcd13ifvqfc0","pricing_plan_id":"cebpf4jnsgd1na2vs0mg"},{"bike_id":"24cd34e1-bb74-4352-90f7-805b9231f525","system_id":"levelo_inurba_marseille","lat":43.26381,"lon":5.42014,"is_reserved":false,"is_disabled":false,"rental_uris":{"android":"levelo://app?vid=24cd34e1-bb74-4352-90f7-805b9231f525","ios":"levelo://app?vid=24cd34e1-bb74-4352-90f7-805b9231f525"},"vehicle_type_id":"4","last_reported":1748535189,"current_range_meters":9200,"station_id":"","pricing_plan_id":"cebpf4jnsgd1na2vs0mg"},{"bike_id":"d2b8276f-3321-48cf-8bc0-643ca735efe4","system_id":"levelo_inurba_marseille","lat":43.29909,"lon":5.38138,"is_reserved":false,"is_disabled":false,"rental_uris":{"android":"levelo://app?vid=d2b8276f-3321-48cf-8bc0-643ca735efe4","ios":"levelo://app?vid=d2b8276f-3321-48cf-8bc0-643ca735efe4"},"vehicle_type_id":"4","last_reported":1748535189,"current_range_meters":9200,"station_id":"ce4bgj12rcd13ifvqbc0","pricing_plan_id":"cebpf4jnsgd1na2vs0mg"},{"bike_id":"01cf23ec-7611-4ef3-9d44-e54d87cca868","system_id":"levelo_inurba_marseille","lat":43.29417,"lon":5.38627,"is_reserved":false,"is_disabled":false,"rental_uris":{"android":"levelo://app?vid=01cf23ec-7611-4ef3-9d44-e54d87cca868","ios":"levelo://app?vid=01cf23ec-7611-4ef3-9d44-e54d87cca868"},"vehicle_type_id":"4","last_reported":1748535189,"current_range_meters":9200,"station_id":"ce4bh2h2rcd13ifvqdh0","pricing_plan_id":"cebpf4jnsgd1na2vs0mg"},{"bike_id":"1ce452d1-c051-4c88-b3ed-437fc7c61880","system_id":"levelo_inurba_marseille","lat":43.26064,"lon":5.37509,"is_reserved":false,"is_disabled":false,"rental_uris":{"android":"levelo://app?vid=1ce452d1-c051-4c88-b3ed-437fc7c61880","ios":"levelo://app?vid=1ce452d1-c051-4c88-b3ed-437fc7c61880"},"vehicle_type_id":"4","last_reported":1748535189,"current_range_meters":9200,"station_id":"ce4bhah2rcd13ifvqei0","pricing_plan_id":"cebpf4jnsgd1na2vs0mg"},{"bike_id":"f8228bea-a117-4d99-8014-1ab46e8f2ada","system_id":"levelo_inurba_marseille","lat":43.29005,"lon":5.35614,"is_reserved":false,"is_disabled":false,"rental_uris":{"android":"levelo://app?vid=f8228bea-a117-4d99-8014-1ab46e8f2ada","ios":"levelo://app?vid=f8228bea-a117-4d99-8014-1ab46e8f2ada"},"vehicle_type_id":"4","last_reported":1748535189,"current_range_meters":9200,"station_id":"ce4bhb92rcd13ifvqen0","pricing_plan_id":"cebpf4jnsgd1na2vs0mg"},{"bike_id":"6af3c224-0761-4800-a562-e06feca0d455","system_id":"levelo_inurba_marseille","lat":43.24998,"lon":5.3893,"is_reserved":false,"is_disabled":false,"rental_uris":{"android":"levelo://app?vid=6af3c224-0761-4800-a562-e06feca0d455","ios":"levelo://app?vid=6af3c224-0761-4800-a562-e06feca0d455"},"vehicle_type_id":"4","last_reported":1748535189,"current_range_meters":9200,"station_id":"ce4bhgp2rcd13ifvqfd0","pricing_plan_id":"cebpf4jnsgd1na2vs0mg"},{"bike_id":"2a4c12b9-20f8-4a57-9dbe-920bc253b604","system_id":"levelo_inurba_marseille","lat":43.33023,"lon":5.39039,"is_reserved":false,"is_disabled":false,"rental_uris":{"android":"levelo://app?vid=2a4c12b9-20f8-4a57-9dbe-920bc253b604","ios":"levelo://app?vid=2a4c12b9-20f8-4a57-9dbe-920bc253b604"},"vehicle_type_id":"4","last_reported":1748535189,"current_range_meters":9200,"station_id":"ce4bhr92rcd13ifvqhrg","pricing_plan_id":"cebpf4jnsgd1na2vs0mg"},{"bike_id":"56572f38-bf84-48ab-9d9a-8ce1d39fd9fa","system_id":"levelo_inurba_marseille","lat":43.32476,"lon":5.36563,"is_reserved":false,"is_disabled":false,"rental_uris":{"android":"levelo://app?vid=56572f38-bf84-48ab-9d9a-8ce1d39fd9fa","ios":"levelo://app?vid=56572f38-bf84-48ab-9d9a-8ce1d39fd9fa"},"vehicle_type_id":"4","last_reported":1748535189,"current_range_meters":9200,"station_id":"ce4bhs12rcd13ifvqhvg","pricing_plan_id":"cebpf4jnsgd1na2vs0mg"},{"bike_id":"af1dc9b2-164b-4021-88df-830111ab755c","system_id":"levelo_inurba_marseille","lat":43.32375,"lon":5.36904,"is_reserved":false,"is_disabled":false,"rental_uris":{"android":"levelo://app?vid=af1dc9b2-164b-4021-88df-830111ab755c","ios":"levelo://app?vid=af1dc9b2-164b-4021-88df-830111ab755c"},"vehicle_type_id":"4","last_reported":1748535189,"current_range_meters":9600,"station_id":"","pricing_plan_id":"cebpf4jnsgd1na2vs0mg"},{"bike_id":"adbef1fe-ea16-4ae6-b355-a1c1a47fd036","system_id":"levelo_inurba_marseille","lat":43.29699,"lon":5.36614,"is_reserved":false,"is_disabled":false,"rental_uris":{"android":"levelo://app?vid=adbef1fe-ea16-4ae6-b355-a1c1a47fd036","ios":"levelo://app?vid=adbef1fe-ea16-4ae6-b355-a1c1a47fd036"},"vehicle_type_id":"4","last_reported":1748535189,"current_range_meters":9600,"station_id":"ce4bgn12rcd13ifvqbt0","pricing_plan_id":"cebpf4jnsgd1na2vs0mg"},{"bike_id":"48d689ba-1776-48e9-b9b8-2206a6b00fc7","system_id":"levelo_inurba_marseille","lat":43.28608,"lon":5.37065,"is_reserved":false,"is_disabled":false,"rental_uris":{"android":"levelo://app?vid=48d689ba-1776-48e9-b9b8-2206a6b00fc7","ios":"levelo://app?vid=48d689ba-1776-48e9-b9b8-2206a6b00fc7"},"vehicle_type_id":"4","last_reported":1748535189,"current_range_meters":9600,"station_id":"ce4bht12rcd13ifvqi60","pricing_plan_id":"cebpf4jnsgd1na2vs0mg"},{"bike_id":"dc009045-7aef-4d17-bcae-67daeb608dc6","system_id":"levelo_inurba_marseille","lat":43.24179,"lon":5.36401,"is_reserved":false,"is_disabled":false,"rental_uris":{"android":"levelo://app?vid=dc009045-7aef-4d17-bcae-67daeb608dc6","ios":"levelo://app?vid=dc009045-7aef-4d17-bcae-67daeb608dc6"},"vehicle_type_id":"4","last_reported":1748535189,"current_range_meters":9600,"station_id":"cpo36qri1sfpv3e86is0","pricing_plan_id":"cebpf4jnsgd1na2vs0mg"},{"bike_id":"f293ba09-4b7e-4261-9c45-5e8e5f6ff81c","system_id":"levelo_inurba_marseille","lat":43.303743,"lon":5.42486,"is_reserved":false,"is_disabled":false,"rental_uris":{"android":"levelo://app?vid=f293ba09-4b7e-4261-9c45-5e8e5f6ff81c","ios":"levelo://app?vid=f293ba09-4b7e-4261-9c45-5e8e5f6ff81c"},"vehicle_type_id":"4","last_reported":1748535189,"current_range_meters":10000,"station_id":"ce4bhoh2rcd13ifvqh6g","pricing_plan_id":"cebpf4jnsgd1na2vs0mg"},{"bike_id":"5ba7cc17-7fb6-4b72-b355-ccf541739e32","system_id":"levelo_inurba_marseille","lat":43.29518,"lon":5.37505,"is_reserved":false,"is_disabled":false,"rental_uris":{"android":"levelo://app?vid=5ba7cc17-7fb6-4b72-b355-ccf541739e32","ios":"levelo://app?vid=5ba7cc17-7fb6-4b72-b355-ccf541739e32"},"vehicle_type_id":"4","last_reported":1748535189,"current_range_meters":10800,"station_id":"ce4bgkp2rcd13ifvqbmg","pricing_plan_id":"cebpf4jnsgd1na2vs0mg"},{"bike_id":"e48cb21c-0449-4d75-a054-f94f6f19578b","system_id":"levelo_inurba_marseille","lat":43.28926,"lon":5.36638,"is_reserved":false,"is_disabled":false,"rental_uris":{"android":"levelo://app?vid=e48cb21c-0449-4d75-a054-f94f6f19578b","ios":"levelo://app?vid=e48cb21c-0449-4d75-a054-f94f6f19578b"},"vehicle_type_id":"4","last_reported":1748535189,"current_range_meters":10800,"station_id":"ce4bhap2rcd13ifvqek0","pricing_plan_id":"cebpf4jnsgd1na2vs0mg"},{"bike_id":"991ae9a2-e883-4941-b375-286f92dbc3bd","system_id":"levelo_inurba_marseille","lat":43.28414,"lon":5.34983,"is_reserved":false,"is_disabled":false,"rental_uris":{"android":"levelo://app?vid=991ae9a2-e883-4941-b375-286f92dbc3bd","ios":"levelo://app?vid=991ae9a2-e883-4941-b375-286f92dbc3bd"},"vehicle_type_id":"4","last_reported":1748535189,"current_range_meters":10800,"station_id":"ce4bhbh2rcd13ifvqepg","pricing_plan_id":"cebpf4jnsgd1na2vs0mg"},{"bike_id":"11b196b0-bb2f-42a1-b9d1-f3db9a1a163c","system_id":"levelo_inurba_marseille","lat":43.28419,"lon":5.34996,"is_reserved":false,"is_disabled":false,"rental_uris":{"android":"levelo://app?vid=11b196b0-bb2f-42a1-b9d1-f3db9a1a163c","ios":"levelo://app?vid=11b196b0-bb2f-42a1-b9d1-f3db9a1a163c"},"vehicle_type_id":"4","last_reported":1748535189,"current_range_meters":10800,"station_id":"ce4bhbh2rcd13ifvqepg","pricing_plan_id":"cebpf4jnsgd1na2vs0mg"},{"bike_id":"6b8fcb4d-59a2-4393-93aa-3446f52231b1","system_id":"levelo_inurba_marseille","lat":43.24802,"lon":5.37453,"is_reserved":false,"is_disabled":false,"rental_uris":{"android":"levelo://app?vid=6b8fcb4d-59a2-4393-93aa-3446f52231b1","ios":"levelo://app?vid=6b8fcb4d-59a2-4393-93aa-3446f52231b1"},"vehicle_type_id":"4","last_reported":1748535189,"current_range_meters":10800,"station_id":"ce4bhgh2rcd13ifvqfb0","pricing_plan_id":"cebpf4jnsgd1na2vs0mg"},{"bike_id":"a2870b79-8f19-46f6-b98e-8d7c07acfcda","system_id":"levelo_inurba_marseille","lat":43.27204,"lon":5.39183,"is_reserved":false,"is_disabled":false,"rental_uris":{"android":"levelo://app?vid=a2870b79-8f19-46f6-b98e-8d7c07acfcda","ios":"levelo://app?vid=a2870b79-8f19-46f6-b98e-8d7c07acfcda"},"vehicle_type_id":"4","last_reported":1748535189,"current_range_meters":10800,"station_id":"ce4bhhp2rcd13ifvqfm0","pricing_plan_id":"cebpf4jnsgd1na2vs0mg"},{"bike_id":"0e009545-9acc-491d-b143-22cbd0096db4","system_id":"levelo_inurba_marseille","lat":43.33829,"lon":5.39257,"is_reserved":false,"is_disabled":false,"rental_uris":{"android":"levelo://app?vid=0e009545-9acc-491d-b143-22cbd0096db4","ios":"levelo://app?vid=0e009545-9acc-491d-b143-22cbd0096db4"},"vehicle_type_id":"4","last_reported":1748535189,"current_range_meters":11200,"station_id":"","pricing_plan_id":"cebpf4jnsgd1na2vs0mg"},{"bike_id":"42dca157-bdb0-4361-8022-7979135f94aa","system_id":"levelo_inurba_marseille","lat":43.285677,"lon":5.365613,"is_reserved":false,"is_disabled":false,"rental_uris":{"android":"levelo://app?vid=42dca157-bdb0-4361-8022-7979135f94aa","ios":"levelo://app?vid=42dca157-bdb0-4361-8022-7979135f94aa"},"vehicle_type_id":"4","last_reported":1748535189,"current_range_meters":11200,"station_id":"","pricing_plan_id":"cebpf4jnsgd1na2vs0mg"},{"bike_id":"05efe5ae-4077-4f62-8af3-09e12615e64e","system_id":"levelo_inurba_marseille","lat":43.28715,"lon":5.37948,"is_reserved":false,"is_disabled":false,"rental_uris":{"android":"levelo://app?vid=05efe5ae-4077-4f62-8af3-09e12615e64e","ios":"levelo://app?vid=05efe5ae-4077-4f62-8af3-09e12615e64e"},"vehicle_type_id":"4","last_reported":1748535189,"current_range_meters":11200,"station_id":"ce4bh9p2rcd13ifvqec0","pricing_plan_id":"cebpf4jnsgd1na2vs0mg"},{"bike_id":"bf913537-4db0-4907-8b44-ed13c908ebab","system_id":"levelo_inurba_marseille","lat":43.29058,"lon":5.35929,"is_reserved":false,"is_disabled":false,"rental_uris":{"android":"levelo://app?vid=bf913537-4db0-4907-8b44-ed13c908ebab","ios":"levelo://app?vid=bf913537-4db0-4907-8b44-ed13c908ebab"},"vehicle_type_id":"4","last_reported":1748535189,"current_range_meters":11200,"station_id":"ce4bha92rcd13ifvqeg0","pricing_plan_id":"cebpf4jnsgd1na2vs0mg"},{"bike_id":"4636e341-d65c-4c22-b229-3fd57f965919","system_id":"levelo_inurba_marseille","lat":43.29002,"lon":5.35613,"is_reserved":false,"is_disabled":false,"rental_uris":{"android":"levelo://app?vid=4636e341-d65c-4c22-b229-3fd57f965919","ios":"levelo://app?vid=4636e341-d65c-4c22-b229-3fd57f965919"},"vehicle_type_id":"4","last_reported":1748535189,"current_range_meters":11200,"station_id":"ce4bhb92rcd13ifvqen0","pricing_plan_id":"cebpf4jnsgd1na2vs0mg"},{"bike_id":"e7fdb900-6ed4-4235-8085-3e784a3ac6c2","system_id":"levelo_inurba_marseille","lat":43.28412,"lon":5.34976,"is_reserved":false,"is_disabled":false,"rental_uris":{"android":"levelo://app?vid=e7fdb900-6ed4-4235-8085-3e784a3ac6c2","ios":"levelo://app?vid=e7fdb900-6ed4-4235-8085-3e784a3ac6c2"},"vehicle_type_id":"4","last_reported":1748535189,"current_range_meters":11200,"station_id":"ce4bhbh2rcd13ifvqepg","pricing_plan_id":"cebpf4jnsgd1na2vs0mg"},{"bike_id":"3ea3ecce-622c-477b-97fb-8c92fdde9e2c","system_id":"levelo_inurba_marseille","lat":43.28652,"lon":5.35087,"is_reserved":false,"is_disabled":false,"rental_uris":{"android":"levelo://app?vid=3ea3ecce-622c-477b-97fb-8c92fdde9e2c","ios":"levelo://app?vid=3ea3ecce-622c-477b-97fb-8c92fdde9e2c"},"vehicle_type_id":"4","last_reported":1748535189,"current_range_meters":11200,"station_id":"ce4bhch2rcd13ifvqeug","pricing_plan_id":"cebpf4jnsgd1na2vs0mg"},{"bike_id":"4b512bb3-bd41-4ef3-862f-c5a79ad17f1a","system_id":"levelo_inurba_marseille","lat":43.25495,"lon":5.37638,"is_reserved":false,"is_disabled":false,"rental_uris":{"android":"levelo://app?vid=4b512bb3-bd41-4ef3-862f-c5a79ad17f1a","ios":"levelo://app?vid=4b512bb3-bd41-4ef3-862f-c5a79ad17f1a"},"vehicle_type_id":"4","last_reported":1748535189,"current_range_meters":11200,"station_id":"ce4bhh12rcd13ifvqff0","pricing_plan_id":"cebpf4jnsgd1na2vs0mg"},{"bike_id":"891e6af9-e87c-4bf5-82b0-a5b8829f7c48","system_id":"levelo_inurba_marseille","lat":43.30327,"lon":5.40441,"is_reserved":false,"is_disabled":false,"rental_uris":{"android":"levelo://app?vid=891e6af9-e87c-4bf5-82b0-a5b8829f7c48","ios":"levelo://app?vid=891e6af9-e87c-4bf5-82b0-a5b8829f7c48"},"vehicle_type_id":"4","last_reported":1748535189,"current_range_meters":11600,"station_id":"ce4bh012rcd13ifvqd10","pricing_plan_id":"cebpf4jnsgd1na2vs0mg"},{"bike_id":"3b523edd-d384-406b-83c0-d584e89a359d","system_id":"levelo_inurba_marseille","lat":43.231494,"lon":5.437088,"is_reserved":false,"is_disabled":false,"rental_uris":{"android":"levelo://app?vid=3b523edd-d384-406b-83c0-d584e89a359d","ios":"levelo://app?vid=3b523edd-d384-406b-83c0-d584e89a359d"},"vehicle_type_id":"4","last_reported":1748535189,"current_range_meters":11600,"station_id":"ce4bhmp2rcd13ifvqgog","pricing_plan_id":"cebpf4jnsgd1na2vs0mg"},{"bike_id":"cfb6d932-3c57-4de0-82a8-ad6436afe994","system_id":"levelo_inurba_marseille","lat":43.29707,"lon":5.3661,"is_reserved":false,"is_disabled":false,"rental_uris":{"android":"levelo://app?vid=cfb6d932-3c57-4de0-82a8-ad6436afe994","ios":"levelo://app?vid=cfb6d932-3c57-4de0-82a8-ad6436afe994"},"vehicle_type_id":"4","last_reported":1748535189,"current_range_meters":12000,"station_id":"ce4bgn12rcd13ifvqbt0","pricing_plan_id":"cebpf4jnsgd1na2vs0mg"},{"bike_id":"e3bad3fb-ec83-4a5d-b44a-6b6cc695416b","system_id":"levelo_inurba_marseille","lat":43.28411,"lon":5.34999,"is_reserved":false,"is_disabled":false,"rental_uris":{"android":"levelo://app?vid=e3bad3fb-ec83-4a5d-b44a-6b6cc695416b","ios":"levelo://app?vid=e3bad3fb-ec83-4a5d-b44a-6b6cc695416b"},"vehicle_type_id":"4","last_reported":1748535189,"current_range_meters":12000,"station_id":"ce4bhbh2rcd13ifvqepg","pricing_plan_id":"cebpf4jnsgd1na2vs0mg"},{"bike_id":"bcb2d9a9-133e-44ad-af7d-7eed5bc448c6","system_id":"levelo_inurba_marseille","lat":43.28408,"lon":5.35006,"is_reserved":false,"is_disabled":false,"rental_uris":{"android":"levelo://app?vid=bcb2d9a9-133e-44ad-af7d-7eed5bc448c6","ios":"levelo://app?vid=bcb2d9a9-133e-44ad-af7d-7eed5bc448c6"},"vehicle_type_id":"4","last_reported":1748535189,"current_range_meters":12000,"station_id":"ce4bhbh2rcd13ifvqepg","pricing_plan_id":"cebpf4jnsgd1na2vs0mg"},{"bike_id":"c86c4109-a9ff-4e39-a8b0-2e0a757d94ac","system_id":"levelo_inurba_marseille","lat":43.25581,"lon":5.38246,"is_reserved":false,"is_disabled":false,"rental_uris":{"android":"levelo://app?vid=c86c4109-a9ff-4e39-a8b0-2e0a757d94ac","ios":"levelo://app?vid=c86c4109-a9ff-4e39-a8b0-2e0a757d94ac"},"vehicle_type_id":"4","last_reported":1748535189,"current_range_meters":12000,"station_id":"ce4bhih2rcd13ifvqfs0","pricing_plan_id":"cebpf4jnsgd1na2vs0mg"},{"bike_id":"5f411f71-41f3-487d-aced-b1365ad0f0d9","system_id":"levelo_inurba_marseille","lat":43.21748,"lon":5.34601,"is_reserved":false,"is_disabled":false,"rental_uris":{"android":"levelo://app?vid=5f411f71-41f3-487d-aced-b1365ad0f0d9","ios":"levelo://app?vid=5f411f71-41f3-487d-aced-b1365ad0f0d9"},"vehicle_type_id":"4","last_reported":1748535189,"current_range_meters":12400,"station_id":"","pricing_plan_id":"cebpf4jnsgd1na2vs0mg"},{"bike_id":"d021dfdd-0647-4801-bc66-4de6bcaf75be","system_id":"levelo_inurba_marseille","lat":43.29569,"lon":5.37522,"is_reserved":false,"is_disabled":false,"rental_uris":{"android":"levelo://app?vid=d021dfdd-0647-4801-bc66-4de6bcaf75be","ios":"levelo://app?vid=d021dfdd-0647-4801-bc66-4de6bcaf75be"},"vehicle_type_id":"4","last_reported":1748535189,"current_range_meters":12400,"station_id":"ce4bgh92rcd13ifvqb50","pricing_plan_id":"cebpf4jnsgd1na2vs0mg"},{"bike_id":"a258fe07-5954-47c8-9858-76142334cdc0","system_id":"levelo_inurba_marseille","lat":43.29704,"lon":5.36613,"is_reserved":false,"is_disabled":false,"rental_uris":{"android":"levelo://app?vid=a258fe07-5954-47c8-9858-76142334cdc0","ios":"levelo://app?vid=a258fe07-5954-47c8-9858-76142334cdc0"},"vehicle_type_id":"4","last_reported":1748535189,"current_range_meters":12400,"station_id":"ce4bgn12rcd13ifvqbt0","pricing_plan_id":"cebpf4jnsgd1na2vs0mg"},{"bike_id":"584c682b-0b80-4b3a-a733-9b94b64baddf","system_id":"levelo_inurba_marseille","lat":43.28405,"lon":5.35002,"is_reserved":false,"is_disabled":false,"rental_uris":{"android":"levelo://app?vid=584c682b-0b80-4b3a-a733-9b94b64baddf","ios":"levelo://app?vid=584c682b-0b80-4b3a-a733-9b94b64baddf"},"vehicle_type_id":"4","last_reported":1748535189,"current_range_meters":12400,"station_id":"ce4bhbh2rcd13ifvqepg","pricing_plan_id":"cebpf4jnsgd1na2vs0mg"},{"bike_id":"06aac526-3354-4f5e-b021-6caed8aef4fb","system_id":"levelo_inurba_marseille","lat":43.28415,"lon":5.34981,"is_reserved":false,"is_disabled":false,"rental_uris":{"android":"levelo://app?vid=06aac526-3354-4f5e-b021-6caed8aef4fb","ios":"levelo://app?vid=06aac526-3354-4f5e-b021-6caed8aef4fb"},"vehicle_type_id":"4","last_reported":1748535189,"current_range_meters":12400,"station_id":"ce4bhbh2rcd13ifvqepg","pricing_plan_id":"cebpf4jnsgd1na2vs0mg"},{"bike_id":"f1095dbf-eecb-436c-a822-a985c7e42668","system_id":"levelo_inurba_marseille","lat":43.26555,"lon":5.37287,"is_reserved":false,"is_disabled":false,"rental_uris":{"android":"levelo://app?vid=f1095dbf-eecb-436c-a822-a985c7e42668","ios":"levelo://app?vid=f1095dbf-eecb-436c-a822-a985c7e42668"},"vehicle_type_id":"4","last_reported":1748535189,"current_range_meters":12400,"station_id":"ce4bhg12rcd13ifvqf70","pricing_plan_id":"cebpf4jnsgd1na2vs0mg"},{"bike_id":"d83bc391-0718-49ae-9b9b-2595c3b5c7eb","system_id":"levelo_inurba_marseille","lat":43.262143,"lon":5.374378,"is_reserved":false,"is_disabled":false,"rental_uris":{"android":"levelo://app?vid=d83bc391-0718-49ae-9b9b-2595c3b5c7eb","ios":"levelo://app?vid=d83bc391-0718-49ae-9b9b-2595c3b5c7eb"},"vehicle_type_id":"4","last_reported":1748535189,"current_range_meters":12400,"station_id":"ce4bhgp2rcd13ifvqfc0","pricing_plan_id":"cebpf4jnsgd1na2vs0mg"},{"bike_id":"541d2f0a-b5f7-4ef1-8894-52b2843bac73","system_id":"levelo_inurba_marseille","lat":43.26232,"lon":5.37433,"is_reserved":false,"is_disabled":false,"rental_uris":{"android":"levelo://app?vid=541d2f0a-b5f7-4ef1-8894-52b2843bac73","ios":"levelo://app?vid=541d2f0a-b5f7-4ef1-8894-52b2843bac73"},"vehicle_type_id":"4","last_reported":1748535189,"current_range_meters":12400,"station_id":"ce4bhgp2rcd13ifvqfc0","pricing_plan_id":"cebpf4jnsgd1na2vs0mg"},{"bike_id":"2a4463a2-5e35-4ba6-b2a0-f4ba53016fd6","system_id":"levelo_inurba_marseille","lat":43.250005,"lon":5.389335,"is_reserved":false,"is_disabled":false,"rental_uris":{"android":"levelo://app?vid=2a4463a2-5e35-4ba6-b2a0-f4ba53016fd6","ios":"levelo://app?vid=2a4463a2-5e35-4ba6-b2a0-f4ba53016fd6"},"vehicle_type_id":"4","last_reported":1748535189,"current_range_meters":12400,"station_id":"ce4bhgp2rcd13ifvqfd0","pricing_plan_id":"cebpf4jnsgd1na2vs0mg"},{"bike_id":"f376d412-3c92-49aa-9f73-832ae5ce399e","system_id":"levelo_inurba_marseille","lat":43.27071,"lon":5.42283,"is_reserved":false,"is_disabled":false,"rental_uris":{"android":"levelo://app?vid=f376d412-3c92-49aa-9f73-832ae5ce399e","ios":"levelo://app?vid=f376d412-3c92-49aa-9f73-832ae5ce399e"},"vehicle_type_id":"4","last_reported":1748535189,"current_range_meters":12400,"station_id":"ce4bhk92rcd13ifvqgb0","pricing_plan_id":"cebpf4jnsgd1na2vs0mg"},{"bike_id":"da279776-c099-4cdd-acd3-f802ffed4965","system_id":"levelo_inurba_marseille","lat":43.29566,"lon":5.42294,"is_reserved":false,"is_disabled":false,"rental_uris":{"android":"levelo://app?vid=da279776-c099-4cdd-acd3-f802ffed4965","ios":"levelo://app?vid=da279776-c099-4cdd-acd3-f802ffed4965"},"vehicle_type_id":"4","last_reported":1748535189,"current_range_meters":12400,"station_id":"ce4bhph2rcd13ifvqhdg","pricing_plan_id":"cebpf4jnsgd1na2vs0mg"},{"bike_id":"d10d29f7-70e6-4be8-bfb3-1f95c76520b4","system_id":"levelo_inurba_marseille","lat":43.24161,"lon":5.36403,"is_reserved":false,"is_disabled":false,"rental_uris":{"android":"levelo://app?vid=d10d29f7-70e6-4be8-bfb3-1f95c76520b4","ios":"levelo://app?vid=d10d29f7-70e6-4be8-bfb3-1f95c76520b4"},"vehicle_type_id":"4","last_reported":1748535189,"current_range_meters":12400,"station_id":"cpo36qri1sfpv3e86is0","pricing_plan_id":"cebpf4jnsgd1na2vs0mg"},{"bike_id":"f5733814-9732-4748-bcc9-3b2fac8e1564","system_id":"levelo_inurba_marseille","lat":43.31256,"lon":5.37829,"is_reserved":false,"is_disabled":false,"rental_uris":{"android":"levelo://app?vid=f5733814-9732-4748-bcc9-3b2fac8e1564","ios":"levelo://app?vid=f5733814-9732-4748-bcc9-3b2fac8e1564"},"vehicle_type_id":"4","last_reported":1748535189,"current_range_meters":12800,"station_id":"","pricing_plan_id":"cebpf4jnsgd1na2vs0mg"},{"bike_id":"adf13505-143a-4021-9e56-666cda8ee242","system_id":"levelo_inurba_marseille","lat":43.27607,"lon":5.36115,"is_reserved":false,"is_disabled":false,"rental_uris":{"android":"levelo://app?vid=adf13505-143a-4021-9e56-666cda8ee242","ios":"levelo://app?vid=adf13505-143a-4021-9e56-666cda8ee242"},"vehicle_type_id":"4","last_reported":1748535189,"current_range_meters":12800,"station_id":"ce4bgj92rcd13ifvqbe0","pricing_plan_id":"cebpf4jnsgd1na2vs0mg"},{"bike_id":"f96d3350-c5bf-4b21-add4-93ecfdb5e9e5","system_id":"levelo_inurba_marseille","lat":43.265574,"lon":5.372831,"is_reserved":false,"is_disabled":false,"rental_uris":{"android":"levelo://app?vid=f96d3350-c5bf-4b21-add4-93ecfdb5e9e5","ios":"levelo://app?vid=f96d3350-c5bf-4b21-add4-93ecfdb5e9e5"},"vehicle_type_id":"4","last_reported":1748535189,"current_range_meters":12800,"station_id":"ce4bhg12rcd13ifvqf70","pricing_plan_id":"cebpf4jnsgd1na2vs0mg"},{"bike_id":"6dffeb34-97d3-48b2-9dd2-685857251cb1","system_id":"levelo_inurba_marseille","lat":43.25823,"lon":5.39437,"is_reserved":false,"is_disabled":false,"rental_uris":{"android":"levelo://app?vid=6dffeb34-97d3-48b2-9dd2-685857251cb1","ios":"levelo://app?vid=6dffeb34-97d3-48b2-9dd2-685857251cb1"},"vehicle_type_id":"4","last_reported":1748535189,"current_range_meters":12800,"station_id":"ce4bhip2rcd13ifvqft0","pricing_plan_id":"cebpf4jnsgd1na2vs0mg"},{"bike_id":"a426f99b-d34a-41bf-bbda-59f7dfd6939b","system_id":"levelo_inurba_marseille","lat":43.255796,"lon":5.382262,"is_reserved":false,"is_disabled":false,"rental_uris":{"android":"levelo://app?vid=a426f99b-d34a-41bf-bbda-59f7dfd6939b","ios":"levelo://app?vid=a426f99b-d34a-41bf-bbda-59f7dfd6939b"},"vehicle_type_id":"4","last_reported":1748535189,"current_range_meters":12800,"station_id":"ce501612rcd8frsf0b60","pricing_plan_id":"cebpf4jnsgd1na2vs0mg"},{"bike_id":"e9cda520-c6f4-465d-ad7f-8c059b3dc45a","system_id":"levelo_inurba_marseille","lat":43.313967,"lon":5.383993,"is_reserved":false,"is_disabled":false,"rental_uris":{"android":"levelo://app?vid=e9cda520-c6f4-465d-ad7f-8c059b3dc45a","ios":"levelo://app?vid=e9cda520-c6f4-465d-ad7f-8c059b3dc45a"},"vehicle_type_id":"4","last_reported":1748535189,"current_range_meters":13600,"station_id":"","pricing_plan_id":"cebpf4jnsgd1na2vs0mg"},{"bike_id":"97cfd08b-cffe-471a-a2b4-8516286ee636","system_id":"levelo_inurba_marseille","lat":43.27425,"lon":5.39419,"is_reserved":false,"is_disabled":false,"rental_uris":{"android":"levelo://app?vid=97cfd08b-cffe-471a-a2b4-8516286ee636","ios":"levelo://app?vid=97cfd08b-cffe-471a-a2b4-8516286ee636"},"vehicle_type_id":"4","last_reported":1748535189,"current_range_meters":13600,"station_id":"ce4bhdp2rcd13ifvqf20","pricing_plan_id":"cebpf4jnsgd1na2vs0mg"},{"bike_id":"2da2cd27-0e66-49b5-9000-c50a8c90d5cd","system_id":"levelo_inurba_marseille","lat":43.26549,"lon":5.37291,"is_reserved":false,"is_disabled":false,"rental_uris":{"android":"levelo://app?vid=2da2cd27-0e66-49b5-9000-c50a8c90d5cd","ios":"levelo://app?vid=2da2cd27-0e66-49b5-9000-c50a8c90d5cd"},"vehicle_type_id":"4","last_reported":1748535189,"current_range_meters":13600,"station_id":"ce4bhg12rcd13ifvqf70","pricing_plan_id":"cebpf4jnsgd1na2vs0mg"},{"bike_id":"8c65a594-86c3-4a53-9d26-03d55a815cae","system_id":"levelo_inurba_marseille","lat":43.26033,"lon":5.37549,"is_reserved":false,"is_disabled":false,"rental_uris":{"android":"levelo://app?vid=8c65a594-86c3-4a53-9d26-03d55a815cae","ios":"levelo://app?vid=8c65a594-86c3-4a53-9d26-03d55a815cae"},"vehicle_type_id":"4","last_reported":1748535189,"current_range_meters":13600,"station_id":"ce4bhgh2rcd13ifvqfa0","pricing_plan_id":"cebpf4jnsgd1na2vs0mg"},{"bike_id":"d481b48a-92d4-493b-bf57-03803c371a5d","system_id":"levelo_inurba_marseille","lat":43.241597,"lon":5.36401,"is_reserved":false,"is_disabled":false,"rental_uris":{"android":"levelo://app?vid=d481b48a-92d4-493b-bf57-03803c371a5d","ios":"levelo://app?vid=d481b48a-92d4-493b-bf57-03803c371a5d"},"vehicle_type_id":"4","last_reported":1748535189,"current_range_meters":13600,"station_id":"cpo36qri1sfpv3e86is0","pricing_plan_id":"cebpf4jnsgd1na2vs0mg"},{"bike_id":"cbd6659d-8ced-4aae-aa6d-6525518f0395","system_id":"levelo_inurba_marseille","lat":43.29934,"lon":5.36543,"is_reserved":false,"is_disabled":false,"rental_uris":{"android":"levelo://app?vid=cbd6659d-8ced-4aae-aa6d-6525518f0395","ios":"levelo://app?vid=cbd6659d-8ced-4aae-aa6d-6525518f0395"},"vehicle_type_id":"4","last_reported":1748535189,"current_range_meters":14000,"station_id":"ce4bgm92rcd13ifvqbr0","pricing_plan_id":"cebpf4jnsgd1na2vs0mg"},{"bike_id":"bcb5f74e-9dd0-4985-b414-732f19015f6a","system_id":"levelo_inurba_marseille","lat":43.28408,"lon":5.35004,"is_reserved":false,"is_disabled":false,"rental_uris":{"android":"levelo://app?vid=bcb5f74e-9dd0-4985-b414-732f19015f6a","ios":"levelo://app?vid=bcb5f74e-9dd0-4985-b414-732f19015f6a"},"vehicle_type_id":"4","last_reported":1748535189,"current_range_meters":14000,"station_id":"ce4bhbh2rcd13ifvqepg","pricing_plan_id":"cebpf4jnsgd1na2vs0mg"},{"bike_id":"243329ec-61f4-47d0-ac7f-0dbb82dc38af","system_id":"levelo_inurba_marseille","lat":43.26038,"lon":5.37561,"is_reserved":false,"is_disabled":false,"rental_uris":{"android":"levelo://app?vid=243329ec-61f4-47d0-ac7f-0dbb82dc38af","ios":"levelo://app?vid=243329ec-61f4-47d0-ac7f-0dbb82dc38af"},"vehicle_type_id":"4","last_reported":1748535189,"current_range_meters":14000,"station_id":"ce4bhgh2rcd13ifvqfa0","pricing_plan_id":"cebpf4jnsgd1na2vs0mg"},{"bike_id":"94ae23e9-32f3-4b59-920d-52703380f570","system_id":"levelo_inurba_marseille","lat":43.32108,"lon":5.36767,"is_reserved":false,"is_disabled":false,"rental_uris":{"android":"levelo://app?vid=94ae23e9-32f3-4b59-920d-52703380f570","ios":"levelo://app?vid=94ae23e9-32f3-4b59-920d-52703380f570"},"vehicle_type_id":"4","last_reported":1748535189,"current_range_meters":14000,"station_id":"ce4bhrh2rcd13ifvqhug","pricing_plan_id":"cebpf4jnsgd1na2vs0mg"},{"bike_id":"76272955-8ce7-4ef0-8669-08edefa5d915","system_id":"levelo_inurba_marseille","lat":43.30785,"lon":5.37652,"is_reserved":false,"is_disabled":false,"rental_uris":{"android":"levelo://app?vid=76272955-8ce7-4ef0-8669-08edefa5d915","ios":"levelo://app?vid=76272955-8ce7-4ef0-8669-08edefa5d915"},"vehicle_type_id":"4","last_reported":1748535189,"current_range_meters":14400,"station_id":"ce4bgv92rcd13ifvqcq0","pricing_plan_id":"cebpf4jnsgd1na2vs0mg"},{"bike_id":"bb44d196-d9e0-4306-be2a-c6bc58dafccc","system_id":"levelo_inurba_marseille","lat":43.27051,"lon":5.40259,"is_reserved":false,"is_disabled":false,"rental_uris":{"android":"levelo://app?vid=bb44d196-d9e0-4306-be2a-c6bc58dafccc","ios":"levelo://app?vid=bb44d196-d9e0-4306-be2a-c6bc58dafccc"},"vehicle_type_id":"4","last_reported":1748535189,"current_range_meters":14400,"station_id":"ce4bhk92rcd13ifvqgc0","pricing_plan_id":"cebpf4jnsgd1na2vs0mg"},{"bike_id":"747224c9-7e52-4c58-9390-d943c4f5446c","system_id":"levelo_inurba_marseille","lat":43.27191,"lon":5.40997,"is_reserved":false,"is_disabled":false,"rental_uris":{"android":"levelo://app?vid=747224c9-7e52-4c58-9390-d943c4f5446c","ios":"levelo://app?vid=747224c9-7e52-4c58-9390-d943c4f5446c"},"vehicle_type_id":"4","last_reported":1748535189,"current_range_meters":14400,"station_id":"ce4bhl12rcd13ifvqgf0","pricing_plan_id":"cebpf4jnsgd1na2vs0mg"},{"bike_id":"d68c3a76-3f62-48c5-8e8c-dc921c539438","system_id":"levelo_inurba_marseille","lat":43.24074,"lon":5.37763,"is_reserved":false,"is_disabled":false,"rental_uris":{"android":"levelo://app?vid=d68c3a76-3f62-48c5-8e8c-dc921c539438","ios":"levelo://app?vid=d68c3a76-3f62-48c5-8e8c-dc921c539438"},"vehicle_type_id":"4","last_reported":1748535189,"current_range_meters":14400,"station_id":"ce4bhnp2rcd13ifvqgvg","pricing_plan_id":"cebpf4jnsgd1na2vs0mg"},{"bike_id":"3427bb18-0eae-42d3-859b-d317a3a02d7c","system_id":"levelo_inurba_marseille","lat":43.30385,"lon":5.42492,"is_reserved":false,"is_disabled":false,"rental_uris":{"android":"levelo://app?vid=3427bb18-0eae-42d3-859b-d317a3a02d7c","ios":"levelo://app?vid=3427bb18-0eae-42d3-859b-d317a3a02d7c"},"vehicle_type_id":"4","last_reported":1748535189,"current_range_meters":14400,"station_id":"ce4bhoh2rcd13ifvqh6g","pricing_plan_id":"cebpf4jnsgd1na2vs0mg"},{"bike_id":"993d392c-2a4a-4350-b8d2-69517094cc7c","system_id":"levelo_inurba_marseille","lat":43.31993,"lon":5.38166,"is_reserved":false,"is_disabled":false,"rental_uris":{"android":"levelo://app?vid=993d392c-2a4a-4350-b8d2-69517094cc7c","ios":"levelo://app?vid=993d392c-2a4a-4350-b8d2-69517094cc7c"},"vehicle_type_id":"4","last_reported":1748535189,"current_range_meters":14400,"station_id":"ce4bhr12rcd13ifvqhpg","pricing_plan_id":"cebpf4jnsgd1na2vs0mg"},{"bike_id":"57c17b2e-2aa5-41cb-948d-8a317f7a83e1","system_id":"levelo_inurba_marseille","lat":43.31703,"lon":5.376945,"is_reserved":false,"is_disabled":false,"rental_uris":{"android":"levelo://app?vid=57c17b2e-2aa5-41cb-948d-8a317f7a83e1","ios":"levelo://app?vid=57c17b2e-2aa5-41cb-948d-8a317f7a83e1"},"vehicle_type_id":"4","last_reported":1748535189,"current_range_meters":14800,"station_id":"ce4bgth2rcd13ifvqch0","pricing_plan_id":"cebpf4jnsgd1na2vs0mg"},{"bike_id":"517c5907-c92e-4b88-8b70-46e89413c8c5","system_id":"levelo_inurba_marseille","lat":43.23145,"lon":5.43708,"is_reserved":false,"is_disabled":false,"rental_uris":{"android":"levelo://app?vid=517c5907-c92e-4b88-8b70-46e89413c8c5","ios":"levelo://app?vid=517c5907-c92e-4b88-8b70-46e89413c8c5"},"vehicle_type_id":"4","last_reported":1748535189,"current_range_meters":14800,"station_id":"ce4bhmp2rcd13ifvqgog","pricing_plan_id":"cebpf4jnsgd1na2vs0mg"},{"bike_id":"ca886f51-2d3b-491b-b373-b4de0267be94","system_id":"levelo_inurba_marseille","lat":43.23066,"lon":5.35489,"is_reserved":false,"is_disabled":false,"rental_uris":{"android":"levelo://app?vid=ca886f51-2d3b-491b-b373-b4de0267be94","ios":"levelo://app?vid=ca886f51-2d3b-491b-b373-b4de0267be94"},"vehicle_type_id":"4","last_reported":1748535189,"current_range_meters":14800,"station_id":"cpo3342slgdg3j2ifvpg","pricing_plan_id":"cebpf4jnsgd1na2vs0mg"},{"bike_id":"5c081b87-4dc4-49fd-bf3f-9a171b0fd8bd","system_id":"levelo_inurba_marseille","lat":43.31348,"lon":5.40229,"is_reserved":false,"is_disabled":false,"rental_uris":{"android":"levelo://app?vid=5c081b87-4dc4-49fd-bf3f-9a171b0fd8bd","ios":"levelo://app?vid=5c081b87-4dc4-49fd-bf3f-9a171b0fd8bd"},"vehicle_type_id":"4","last_reported":1748535189,"current_range_meters":15200,"station_id":"","pricing_plan_id":"cebpf4jnsgd1na2vs0mg"},{"bike_id":"4054560e-ca1e-42b4-9618-092e49ab8236","system_id":"levelo_inurba_marseille","lat":43.287079,"lon":5.379491,"is_reserved":false,"is_disabled":false,"rental_uris":{"android":"levelo://app?vid=4054560e-ca1e-42b4-9618-092e49ab8236","ios":"levelo://app?vid=4054560e-ca1e-42b4-9618-092e49ab8236"},"vehicle_type_id":"4","last_reported":1748535189,"current_range_meters":15200,"station_id":"ce4bh9p2rcd13ifvqec0","pricing_plan_id":"cebpf4jnsgd1na2vs0mg"},{"bike_id":"48e26ea8-1795-4299-a1c4-724bbc46d8d5","system_id":"levelo_inurba_marseille","lat":43.2893,"lon":5.36635,"is_reserved":false,"is_disabled":false,"rental_uris":{"android":"levelo://app?vid=48e26ea8-1795-4299-a1c4-724bbc46d8d5","ios":"levelo://app?vid=48e26ea8-1795-4299-a1c4-724bbc46d8d5"},"vehicle_type_id":"4","last_reported":1748535189,"current_range_meters":15200,"station_id":"ce4bhap2rcd13ifvqek0","pricing_plan_id":"cebpf4jnsgd1na2vs0mg"},{"bike_id":"6f66e993-82ab-4253-9f55-65123c7c5c76","system_id":"levelo_inurba_marseille","lat":43.29193,"lon":5.35796,"is_reserved":false,"is_disabled":false,"rental_uris":{"android":"levelo://app?vid=6f66e993-82ab-4253-9f55-65123c7c5c76","ios":"levelo://app?vid=6f66e993-82ab-4253-9f55-65123c7c5c76"},"vehicle_type_id":"4","last_reported":1748535189,"current_range_meters":15200,"station_id":"ce4bhb12rcd13ifvqel0","pricing_plan_id":"cebpf4jnsgd1na2vs0mg"},{"bike_id":"b96c15de-05db-4daa-89c1-f32501676f10","system_id":"levelo_inurba_marseille","lat":43.284238,"lon":5.349872,"is_reserved":false,"is_disabled":false,"rental_uris":{"android":"levelo://app?vid=b96c15de-05db-4daa-89c1-f32501676f10","ios":"levelo://app?vid=b96c15de-05db-4daa-89c1-f32501676f10"},"vehicle_type_id":"4","last_reported":1748535189,"current_range_meters":15200,"station_id":"ce4bhbh2rcd13ifvqepg","pricing_plan_id":"cebpf4jnsgd1na2vs0mg"},{"bike_id":"de25b0d0-513c-4a40-8689-89fcd7528d59","system_id":"levelo_inurba_marseille","lat":43.29225,"lon":5.36061,"is_reserved":false,"is_disabled":false,"rental_uris":{"android":"levelo://app?vid=de25b0d0-513c-4a40-8689-89fcd7528d59","ios":"levelo://app?vid=de25b0d0-513c-4a40-8689-89fcd7528d59"},"vehicle_type_id":"4","last_reported":1748535189,"current_range_meters":15200,"station_id":"ce4bhbh2rcd13ifvqeqg","pricing_plan_id":"cebpf4jnsgd1na2vs0mg"},{"bike_id":"6b77d8e2-6914-4f74-b37c-4eb29bd3731c","system_id":"levelo_inurba_marseille","lat":43.25954,"lon":5.40856,"is_reserved":false,"is_disabled":false,"rental_uris":{"android":"levelo://app?vid=6b77d8e2-6914-4f74-b37c-4eb29bd3731c","ios":"levelo://app?vid=6b77d8e2-6914-4f74-b37c-4eb29bd3731c"},"vehicle_type_id":"4","last_reported":1748535189,"current_range_meters":15200,"station_id":"ce4bhm92rcd13ifvqglg","pricing_plan_id":"cebpf4jnsgd1na2vs0mg"},{"bike_id":"9a86381f-51bc-4d54-858d-d27c0e51d901","system_id":"levelo_inurba_marseille","lat":43.30752,"lon":5.42425,"is_reserved":false,"is_disabled":false,"rental_uris":{"android":"levelo://app?vid=9a86381f-51bc-4d54-858d-d27c0e51d901","ios":"levelo://app?vid=9a86381f-51bc-4d54-858d-d27c0e51d901"},"vehicle_type_id":"4","last_reported":1748535189,"current_range_meters":15200,"station_id":"st_cvj6ca6bvosntc0bfgr0","pricing_plan_id":"cebpf4jnsgd1na2vs0mg"},{"bike_id":"1f85e3d4-6087-4036-bd56-6f4f27027ffa","system_id":"levelo_inurba_marseille","lat":43.29975,"lon":5.37169,"is_reserved":false,"is_disabled":false,"rental_uris":{"android":"levelo://app?vid=1f85e3d4-6087-4036-bd56-6f4f27027ffa","ios":"levelo://app?vid=1f85e3d4-6087-4036-bd56-6f4f27027ffa"},"vehicle_type_id":"4","last_reported":1748535189,"current_range_meters":16000,"station_id":"ce4bgr92rcd13ifvqc7g","pricing_plan_id":"cebpf4jnsgd1na2vs0mg"},{"bike_id":"47a78c80-c781-4287-9e08-b74206bf7ff6","system_id":"levelo_inurba_marseille","lat":43.24643,"lon":5.38925,"is_reserved":false,"is_disabled":false,"rental_uris":{"android":"levelo://app?vid=47a78c80-c781-4287-9e08-b74206bf7ff6","ios":"levelo://app?vid=47a78c80-c781-4287-9e08-b74206bf7ff6"},"vehicle_type_id":"4","last_reported":1748535189,"current_range_meters":16000,"station_id":"ce4bhg12rcd13ifvqf60","pricing_plan_id":"cebpf4jnsgd1na2vs0mg"},{"bike_id":"4e4573c6-ce83-4f4a-8ae1-ec879b83bb17","system_id":"levelo_inurba_marseille","lat":43.2549,"lon":5.37653,"is_reserved":false,"is_disabled":false,"rental_uris":{"android":"levelo://app?vid=4e4573c6-ce83-4f4a-8ae1-ec879b83bb17","ios":"levelo://app?vid=4e4573c6-ce83-4f4a-8ae1-ec879b83bb17"},"vehicle_type_id":"4","last_reported":1748535189,"current_range_meters":16000,"station_id":"ce4bhh12rcd13ifvqff0","pricing_plan_id":"cebpf4jnsgd1na2vs0mg"},{"bike_id":"caac217f-7292-4c57-bfce-76d9beeb04c4","system_id":"levelo_inurba_marseille","lat":43.25523,"lon":5.37622,"is_reserved":false,"is_disabled":false,"rental_uris":{"android":"levelo://app?vid=caac217f-7292-4c57-bfce-76d9beeb04c4","ios":"levelo://app?vid=caac217f-7292-4c57-bfce-76d9beeb04c4"},"vehicle_type_id":"4","last_reported":1748535189,"current_range_meters":16000,"station_id":"ce4bhh12rcd13ifvqff0","pricing_plan_id":"cebpf4jnsgd1na2vs0mg"},{"bike_id":"e044c9db-ce02-4ecf-bf86-8eaa46f9c414","system_id":"levelo_inurba_marseille","lat":43.258116,"lon":5.394365,"is_reserved":false,"is_disabled":false,"rental_uris":{"android":"levelo://app?vid=e044c9db-ce02-4ecf-bf86-8eaa46f9c414","ios":"levelo://app?vid=e044c9db-ce02-4ecf-bf86-8eaa46f9c414"},"vehicle_type_id":"4","last_reported":1748535189,"current_range_meters":16000,"station_id":"ce4bhip2rcd13ifvqft0","pricing_plan_id":"cebpf4jnsgd1na2vs0mg"},{"bike_id":"cf1b93d9-5c39-43ee-979f-c4aab2340c58","system_id":"levelo_inurba_marseille","lat":43.27495,"lon":5.42453,"is_reserved":false,"is_disabled":false,"rental_uris":{"android":"levelo://app?vid=cf1b93d9-5c39-43ee-979f-c4aab2340c58","ios":"levelo://app?vid=cf1b93d9-5c39-43ee-979f-c4aab2340c58"},"vehicle_type_id":"4","last_reported":1748535189,"current_range_meters":16000,"station_id":"ce4bhn92rcd13ifvqgrg","pricing_plan_id":"cebpf4jnsgd1na2vs0mg"},{"bike_id":"0fb2042e-c469-4720-ac0d-b92d0565ad26","system_id":"levelo_inurba_marseille","lat":43.21745,"lon":5.34606,"is_reserved":false,"is_disabled":false,"rental_uris":{"android":"levelo://app?vid=0fb2042e-c469-4720-ac0d-b92d0565ad26","ios":"levelo://app?vid=0fb2042e-c469-4720-ac0d-b92d0565ad26"},"vehicle_type_id":"4","last_reported":1748535189,"current_range_meters":16000,"station_id":"st_cvj6r9ubvosntc0bgbag","pricing_plan_id":"cebpf4jnsgd1na2vs0mg"},{"bike_id":"18af6d42-730a-4f0a-a44a-24dfc9ee2fad","system_id":"levelo_inurba_marseille","lat":43.30258,"lon":5.40056,"is_reserved":false,"is_disabled":false,"rental_uris":{"android":"levelo://app?vid=18af6d42-730a-4f0a-a44a-24dfc9ee2fad","ios":"levelo://app?vid=18af6d42-730a-4f0a-a44a-24dfc9ee2fad"},"vehicle_type_id":"4","last_reported":1748535189,"current_range_meters":16400,"station_id":"ce4bgvh2rcd13ifvqcs0","pricing_plan_id":"cebpf4jnsgd1na2vs0mg"},{"bike_id":"3ccfefeb-b5a3-4150-8cd7-fef26f5cc798","system_id":"levelo_inurba_marseille","lat":43.28414,"lon":5.35009,"is_reserved":false,"is_disabled":false,"rental_uris":{"android":"levelo://app?vid=3ccfefeb-b5a3-4150-8cd7-fef26f5cc798","ios":"levelo://app?vid=3ccfefeb-b5a3-4150-8cd7-fef26f5cc798"},"vehicle_type_id":"4","last_reported":1748535189,"current_range_meters":16400,"station_id":"ce4bhbh2rcd13ifvqepg","pricing_plan_id":"cebpf4jnsgd1na2vs0mg"},{"bike_id":"aceae681-c577-47eb-81e0-0c36e829f6d5","system_id":"levelo_inurba_marseille","lat":43.28404,"lon":5.35019,"is_reserved":false,"is_disabled":false,"rental_uris":{"android":"levelo://app?vid=aceae681-c577-47eb-81e0-0c36e829f6d5","ios":"levelo://app?vid=aceae681-c577-47eb-81e0-0c36e829f6d5"},"vehicle_type_id":"4","last_reported":1748535189,"current_range_meters":16400,"station_id":"ce4bhbh2rcd13ifvqepg","pricing_plan_id":"cebpf4jnsgd1na2vs0mg"},{"bike_id":"7243d7c8-02f5-4392-89cf-8c360e846d55","system_id":"levelo_inurba_marseille","lat":43.25277,"lon":5.37829,"is_reserved":false,"is_disabled":false,"rental_uris":{"android":"levelo://app?vid=7243d7c8-02f5-4392-89cf-8c360e846d55","ios":"levelo://app?vid=7243d7c8-02f5-4392-89cf-8c360e846d55"},"vehicle_type_id":"4","last_reported":1748535189,"current_range_meters":16800,"station_id":"","pricing_plan_id":"cebpf4jnsgd1na2vs0mg"},{"bike_id":"7190414d-81cf-453d-81bf-69c4cdaa0b28","system_id":"levelo_inurba_marseille","lat":43.21739,"lon":5.34629,"is_reserved":false,"is_disabled":false,"rental_uris":{"android":"levelo://app?vid=7190414d-81cf-453d-81bf-69c4cdaa0b28","ios":"levelo://app?vid=7190414d-81cf-453d-81bf-69c4cdaa0b28"},"vehicle_type_id":"4","last_reported":1748535189,"current_range_meters":16800,"station_id":"","pricing_plan_id":"cebpf4jnsgd1na2vs0mg"},{"bike_id":"076c051d-749a-414d-9e44-f58b512856cd","system_id":"levelo_inurba_marseille","lat":43.28418,"lon":5.35004,"is_reserved":false,"is_disabled":false,"rental_uris":{"android":"levelo://app?vid=076c051d-749a-414d-9e44-f58b512856cd","ios":"levelo://app?vid=076c051d-749a-414d-9e44-f58b512856cd"},"vehicle_type_id":"4","last_reported":1748535189,"current_range_meters":16800,"station_id":"ce4bhbh2rcd13ifvqepg","pricing_plan_id":"cebpf4jnsgd1na2vs0mg"},{"bike_id":"82966609-3192-47c2-8fa6-ec59b937d1ab","system_id":"levelo_inurba_marseille","lat":43.26548,"lon":5.37288,"is_reserved":false,"is_disabled":false,"rental_uris":{"android":"levelo://app?vid=82966609-3192-47c2-8fa6-ec59b937d1ab","ios":"levelo://app?vid=82966609-3192-47c2-8fa6-ec59b937d1ab"},"vehicle_type_id":"4","last_reported":1748535189,"current_range_meters":16800,"station_id":"ce4bhg12rcd13ifvqf70","pricing_plan_id":"cebpf4jnsgd1na2vs0mg"},{"bike_id":"0c8c98cb-5b1f-4a58-a8cc-6dc1b128315e","system_id":"levelo_inurba_marseille","lat":43.25576,"lon":5.38231,"is_reserved":false,"is_disabled":false,"rental_uris":{"android":"levelo://app?vid=0c8c98cb-5b1f-4a58-a8cc-6dc1b128315e","ios":"levelo://app?vid=0c8c98cb-5b1f-4a58-a8cc-6dc1b128315e"},"vehicle_type_id":"4","last_reported":1748535189,"current_range_meters":16800,"station_id":"ce4bhih2rcd13ifvqfs0","pricing_plan_id":"cebpf4jnsgd1na2vs0mg"},{"bike_id":"cd27f641-3dc2-4176-9c5d-ffa8d02ef5f7","system_id":"levelo_inurba_marseille","lat":43.28001,"lon":5.41661,"is_reserved":false,"is_disabled":false,"rental_uris":{"android":"levelo://app?vid=cd27f641-3dc2-4176-9c5d-ffa8d02ef5f7","ios":"levelo://app?vid=cd27f641-3dc2-4176-9c5d-ffa8d02ef5f7"},"vehicle_type_id":"4","last_reported":1748535189,"current_range_meters":16800,"station_id":"ce4bho12rcd13ifvqh1g","pricing_plan_id":"cebpf4jnsgd1na2vs0mg"},{"bike_id":"ecbdbf46-9056-4a5f-bf09-cefcb2d2cd53","system_id":"levelo_inurba_marseille","lat":43.23194,"lon":5.35545,"is_reserved":false,"is_disabled":false,"rental_uris":{"android":"levelo://app?vid=ecbdbf46-9056-4a5f-bf09-cefcb2d2cd53","ios":"levelo://app?vid=ecbdbf46-9056-4a5f-bf09-cefcb2d2cd53"},"vehicle_type_id":"4","last_reported":1748535189,"current_range_meters":16800,"station_id":"ce4bhu92rcd13ifvqi70","pricing_plan_id":"cebpf4jnsgd1na2vs0mg"},{"bike_id":"062ff17d-183d-42c7-851f-6f5c81dc90fc","system_id":"levelo_inurba_marseille","lat":43.212,"lon":5.35063,"is_reserved":false,"is_disabled":false,"rental_uris":{"android":"levelo://app?vid=062ff17d-183d-42c7-851f-6f5c81dc90fc","ios":"levelo://app?vid=062ff17d-183d-42c7-851f-6f5c81dc90fc"},