{"last_updated":1704107167,"ttl":30,"version":"2.2","data":{"bikes":[{"bike_id":"19681d20-0e94-4d95-bd6e-75843e212133","system_id":"levelo_inurba_marseille","lat":43.313391,"lon":5.36706,"is_reserved":false,"is_disabled":false,"rental_uris":{"android":"levelo://app?vid=19681d20-0e94-4d95-bd6e-75843e212133","ios":"levelo://app?vid=19681d20-0e94-4d95-bd6e-75843e212133"},"vehicle_type_id":"4","last_reported":1704107167,"current_range_meters":29600,"station_id":"ce4bgr92rcd13ifvqc6g","pricing_plan_id":"free"},{"bike_id":"ba3aba46-f07f-46b5-a5d6-23b5891b61b4","system_id":"levelo_inurba_marseille","lat":43.31341,"lon":5.367098,"is_reserved":false,"is_disabled":false,"rental_uris":{"android":"levelo://app?vid=ba3aba46-f07f-46b5-a5d6-23b5891b61b4","ios":"levelo://app?vid=ba3aba46-f07f-46b5-a5d6-23b5891b61b4"},"vehicle_type_id":"4","last_reported":1704107167,"current_range_meters":24800,"station_id":"ce4bgr92rcd13ifvqc6g","pricing_plan_id":"free"},{"bike_id":"1862bd8e-99d5-4a12-9621-aed23de87e43","system_id":"levelo_inurba_marseille","lat":43.31341,"lon":5.367098,"is_reserved":false,"is_disabled":false,"rental_uris":{"android":"levelo://app?vid=1862bd8e-99d5-4a12-9621-aed23de87e43","ios":"levelo://app?vid=1862bd8e-99d5-4a12-9621-aed23de87e43"},"vehicle_type_id":"4","last_reported":1704107167,"current_range_meters":31600,"station_id":"ce4bgr92rcd13ifvqc6g","pricing_plan_id":"free"},{"bike_id":"3d0c4403-5c9c-41f7-b424-8f0b0b359a4c","system_id":"levelo_inurba_marseille","lat":43.31341,"lon":5.367098,"is_reserved":false,"is_disabled":false,"rental_uris":{"android":"levelo://app?vid=3d0c4403-5c9c-41f7-b424-8f0b0b359a4c","ios":"levelo://app?vid=3d0c4403-5c9c-41f7-b424-8f0b0b359a4c"},"vehicle_type_id":"4","last_reported":1704107167,"current_range_meters":21200,"station_id":"ce4bgr92rcd13ifvqc6g","pricing_plan_id":"free"},{"bike_id":"c8db761f-a274-4a11-905d-fd913fd3fbe4","system_id":"levelo_inurba_marseille","lat":43.309039,"lon":5.371797,"is_reserved":false,"is_disabled":false,"rental_uris":{"android":"levelo://app?vid=c8db761f-a274-4a11-905d-fd913fd3fbe4","ios":"levelo://app?vid=c8db761f-a274-4a11-905d-fd913fd3fbe4"},"vehicle_type_id":"4","last_reported":1704107167,"current_range_meters":28000,"station_id":"ce4bguh2rcd13ifvqckg","pricing_plan_id":"free"},{"bike_id":"42450fe8-f2b8-4fb9-b545-2a9a74f93631","system_id":"levelo_inurba_marseille","lat":43.30547,"lon":5.36696,"is_reserved":false,"is_disabled":false,"rental_uris":{"android":"levelo://app?vid=42450fe8-f2b8-4fb9-b545-2a9a74f93631","ios":"levelo://app?vid=42450fe8-f2b8-4fb9-b545-2a9a74f93631"},"vehicle_type_id":"4","last_reported":1704107167,"current_range_meters":30800,"station_id":"ce4bgrp2rcd13ifvqc9g","pricing_plan_id":"free"},{"bike_id":"6cc10ba3-514e-4b87-b859-081a0f2df958","system_id":"levelo_inurba_marseille","lat":43.305706,"lon":5.365654,"is_reserved":false,"is_disabled":false,"rental_uris":{"android":"levelo://app?vid=6cc10ba3-514e-4b87-b859-081a0f2df958","ios":"levelo://app?vid=6cc10ba3-514e-4b87-b859-081a0f2df958"},"vehicle_type_id":"4","last_reported":1704107167,"current_range_meters":24000,"station_id":"ce4bgs12rcd13ifvqcag","pricing_plan_id":"free"},{"bike_id":"b70fb076-a113-4290-9e16-3c036d19d828","system_id":"levelo_inurba_marseille","lat":43.305989,"lon":5.37225,"is_reserved":false,"is_disabled":false,"rental_uris":{"android":"levelo://app?vid=b70fb076-a113-4290-9e16-3c036d19d828","ios":"levelo://app?vid=b70fb076-a113-4290-9e16-3c036d19d828"},"vehicle_type_id":"4","last_reported":1704107167,"current_range_meters":31600,"station_id":"ce4bgqh2rcd13ifvqc4g","pricing_plan_id":"free"},{"bike_id":"b1168300-4048-42a1-90db-b6bcec8558b6","system_id":"levelo_inurba_marseille","lat":43.305989,"lon":5.37225,"is_reserved":false,"is_disabled":false,"rental_uris":{"android":"levelo://app?vid=b1168300-4048-42a1-90db-b6bcec8558b6","ios":"levelo://app?vid=b1168300-4048-42a1-90db-b6bcec8558b6"},"vehicle_type_id":"4","last_reported":1704107167,"current_range_meters":31200,"station_id":"ce4bgqh2rcd13ifvqc4g","pricing_plan_id":"free"},{"bike_id":"5a35c6dd-93b2-49f7-9a6e-ea28ee09d459","system_id":"levelo_inurba_marseille","lat":43.311131,"lon":5.377651,"is_reserved":false,"is_disabled":false,"rental_uris":{"android":"levelo://app?vid=5a35c6dd-93b2-49f7-9a6e-ea28ee09d459","ios":"levelo://app?vid=5a35c6dd-93b2-49f7-9a6e-ea28ee09d459"},"vehicle_type_id":"4","last_reported":1704107167,"current_range_meters":24000,"station_id":"ce4bgt92rcd13ifvqcg0","pricing_plan_id":"free"},{"bike_id":"d14979d8-4199-447e-94f6-8c249d32fc0b","system_id":"levelo_inurba_marseille","lat":43.311131,"lon":5.377651,"is_reserved":false,"is_disabled":false,"rental_uris":{"android":"levelo://app?vid=d14979d8-4199-447e-94f6-8c249d32fc0b","ios":"levelo://app?vid=d14979d8-4199-447e-94f6-8c249d32fc0b"},"vehicle_type_id":"4","last_reported":1704107167,"current_range_meters":26400,"station_id":"ce4bgt92rcd13ifvqcg0","pricing_plan_id":"free"},{"bike_id":"0b78ac09-40ec-4bd0-8be1-a0849b591374","system_id":"levelo_inurba_marseille","lat":43.311131,"lon":5.377651,"is_reserved":false,"is_disabled":false,"rental_uris":{"android":"levelo://app?vid=0b78ac09-40ec-4bd0-8be1-a0849b591374","ios":"levelo://app?vid=0b78ac09-40ec-4bd0-8be1-a0849b591374"},"vehicle_type_id":"4","last_reported":1704107167,"current_range_meters":27200,"station_id":"ce4bgt92rcd13ifvqcg0","pricing_plan_id":"free"},{"bike_id":"08f4b888-e127-4e24-a106-7f2420b25c4e","system_id":"levelo_inurba_marseille","lat":43.311131,"lon":5.377651,"is_reserved":false,"is_disabled":false,"rental_uris":{"android":"levelo://app?vid=08f4b888-e127-4e24-a106-7f2420b25c4e","ios":"levelo://app?vid=08f4b888-e127-4e24-a106-7f2420b25c4e"},"vehicle_type_id":"4","last_reported":1704107167,"current_range_meters":25200,"station_id":"ce4bgt92rcd13ifvqcg0","pricing_plan_id":"free"},{"bike_id":"25af9e1c-886c-4f64-92f2-5ca68e46ae4a","system_id":"levelo_inurba_marseille","lat":43.31722,"lon":5.37668,"is_reserved":false,"is_disabled":false,"rental_uris":{"android":"levelo://app?vid=25af9e1c-886c-4f64-92f2-5ca68e46ae4a","ios":"levelo://app?vid=25af9e1c-886c-4f64-92f2-5ca68e46ae4a"},"vehicle_type_id":"4","last_reported":1704107167,"current_range_meters":18400,"station_id":"","pricing_plan_id":"free"},{"bike_id":"12361c67-a6ab-4df2-b2ff-ecdb1599267d","system_id":"levelo_inurba_marseille","lat":43.307945,"lon":5.376487,"is_reserved":false,"is_disabled":false,"rental_uris":{"android":"levelo://app?vid=12361c67-a6ab-4df2-b2ff-ecdb1599267d","ios":"levelo://app?vid=12361c67-a6ab-4df2-b2ff-ecdb1599267d"},"vehicle_type_id":"4","last_reported":1704107167,"current_range_meters":30400,"station_id":"ce4bgv92rcd13ifvqcq0","pricing_plan_id":"free"},{"bike_id":"64a93320-b6f7-4f00-82e1-5c71938933c4","system_id":"levelo_inurba_marseille","lat":43.31648,"lon":5.37786,"is_reserved":false,"is_disabled":false,"rental_uris":{"android":"levelo://app?vid=64a93320-b6f7-4f00-82e1-5c71938933c4","ios":"levelo://app?vid=64a93320-b6f7-4f00-82e1-5c71938933c4"},"vehicle_type_id":"4","last_reported":1704107167,"current_range_meters":19200,"station_id":"","pricing_plan_id":"free"},{"bike_id":"c750d365-3247-411d-836f-4d697ad14eb9","system_id":"levelo_inurba_marseille","lat":43.317075,"lon":5.377367,"is_reserved":false,"is_disabled":false,"rental_uris":{"android":"levelo://app?vid=c750d365-3247-411d-836f-4d697ad14eb9","ios":"levelo://app?vid=c750d365-3247-411d-836f-4d697ad14eb9"},"vehicle_type_id":"4","last_reported":1704107167,"current_range_meters":19200,"station_id":"ce4bgth2rcd13ifvqch0","pricing_plan_id":"free"},{"bike_id":"9a87456a-48d3-4f09-bd7a-eb01fc3b6c77","system_id":"levelo_inurba_marseille","lat":43.30304,"lon":5.368987,"is_reserved":false,"is_disabled":false,"rental_uris":{"android":"levelo://app?vid=9a87456a-48d3-4f09-bd7a-eb01fc3b6c77","ios":"levelo://app?vid=9a87456a-48d3-4f09-bd7a-eb01fc3b6c77"},"vehicle_type_id":"4","last_reported":1704107167,"current_range_meters":22800,"station_id":"ce4bgqh2rcd13ifvqc5g","pricing_plan_id":"free"},{"bike_id":"2eee3bee-8a58-4598-b69c-08fea2289695","system_id":"levelo_inurba_marseille","lat":43.315293,"lon":5.380349,"is_reserved":false,"is_disabled":false,"rental_uris":{"android":"levelo://app?vid=2eee3bee-8a58-4598-b69c-08fea2289695","ios":"levelo://app?vid=2eee3bee-8a58-4598-b69c-08fea2289695"},"vehicle_type_id":"4","last_reported":1704107167,"current_range_meters":800,"station_id":"ce4bhsp2rcd13ifvqi50","pricing_plan_id":"free"},{"bike_id":"e77494bc-cb4d-4f22-ae92-97358310ba6c","system_id":"levelo_inurba_marseille","lat":43.301939,"lon":5.366286,"is_reserved":false,"is_disabled":false,"rental_uris":{"android":"levelo://app?vid=e77494bc-cb4d-4f22-ae92-97358310ba6c","ios":"levelo://app?vid=e77494bc-cb4d-4f22-ae92-97358310ba6c"},"vehicle_type_id":"4","last_reported":1704107167,"current_range_meters":26000,"station_id":"ce4bgrh2rcd13ifvqc8g","pricing_plan_id":"free"},{"bike_id":"d719e38e-bdab-435e-b50d-ec73b9c76d97","system_id":"levelo_inurba_marseille","lat":43.301939,"lon":5.366286,"is_reserved":false,"is_disabled":false,"rental_uris":{"android":"levelo://app?vid=d719e38e-bdab-435e-b50d-ec73b9c76d97","ios":"levelo://app?vid=d719e38e-bdab-435e-b50d-ec73b9c76d97"},"vehicle_type_id":"4","last_reported":1704107167,"current_range_meters":28400,"station_id":"ce4bgrh2rcd13ifvqc8g","pricing_plan_id":"free"},{"bike_id":"a5291874-f635-43ed-9c4e-b592f5564ee1","system_id":"levelo_inurba_marseille","lat":43.328371,"lon":5.366912,"is_reserved":false,"is_disabled":false,"rental_uris":{"android":"levelo://app?vid=a5291874-f635-43ed-9c4e-b592f5564ee1","ios":"levelo://app?vid=a5291874-f635-43ed-9c4e-b592f5564ee1"},"vehicle_type_id":"4","last_reported":1704107167,"current_range_meters":5200,"station_id":"ce4bhs92rcd13ifvqi0g","pricing_plan_id":"free"},{"bike_id":"b09a4daa-bde5-4038-b0b0-98560ef34a42","system_id":"levelo_inurba_marseille","lat":43.30792,"lon":5.38181,"is_reserved":false,"is_disabled":false,"rental_uris":{"android":"levelo://app?vid=b09a4daa-bde5-4038-b0b0-98560ef34a42","ios":"levelo://app?vid=b09a4daa-bde5-4038-b0b0-98560ef34a42"},"vehicle_type_id":"4","last_reported":1704107167,"current_range_meters":22800,"station_id":"ce4bgt12rcd13ifvqce0","pricing_plan_id":"free"},{"bike_id":"dffc2115-7fb4-446b-a125-f242d4063b8a","system_id":"levelo_inurba_marseille","lat":43.304708,"lon":5.379039,"is_reserved":false,"is_disabled":false,"rental_uris":{"android":"levelo://app?vid=dffc2115-7fb4-446b-a125-f242d4063b8a","ios":"levelo://app?vid=dffc2115-7fb4-446b-a125-f242d4063b8a"},"vehicle_type_id":"4","last_reported":1704107167,"current_range_meters":15200,"station_id":"","pricing_plan_id":"free"},{"bike_id":"8733e2c2-141e-42b8-b3ce-c4f64081ca75","system_id":"levelo_inurba_marseille","lat":43.304606,"lon":5.379026,"is_reserved":false,"is_disabled":false,"rental_uris":{"android":"levelo://app?vid=8733e2c2-141e-42b8-b3ce-c4f64081ca75","ios":"levelo://app?vid=8733e2c2-141e-42b8-b3ce-c4f64081ca75"},"vehicle_type_id":"4","last_reported":1704107167,"current_range_meters":31600,"station_id":"ce4bgup2rcd13ifvqcn0","pricing_plan_id":"free"},{"bike_id":"d9ecba81-12d9-4cb5-8abb-2165b37c600e","system_id":"levelo_inurba_marseille","lat":43.304606,"lon":5.379026,"is_reserved":false,"is_disabled":false,"rental_uris":{"android":"levelo://app?vid=d9ecba81-12d9-4cb5-8abb-2165b37c600e","ios":"levelo://app?vid=d9ecba81-12d9-4cb5-8abb-2165b37c600e"},"vehicle_type_id":"4","last_reported":1704107167,"current_range_meters":25600,"station_id":"ce4bgup2rcd13ifvqcn0","pricing_plan_id":"free"},{"bike_id":"79f0d8a4-334f-4f3c-a8df-bf0b7ddfd4c9","system_id":"levelo_inurba_marseille","lat":43.32477,"lon":5.3656,"is_reserved":false,"is_disabled":false,"rental_uris":{"android":"levelo://app?vid=79f0d8a4-334f-4f3c-a8df-bf0b7ddfd4c9","ios":"levelo://app?vid=79f0d8a4-334f-4f3c-a8df-bf0b7ddfd4c9"},"vehicle_type_id":"4","last_reported":1704107167,"current_range_meters":6800,"station_id":"ce4bhs12rcd13ifvqhvg","pricing_plan_id":"free"},{"bike_id":"37654fee-c31e-4e93-a13c-b8fb11c15bab","system_id":"levelo_inurba_marseille","lat":43.302802,"lon":5.377005,"is_reserved":false,"is_disabled":false,"rental_uris":{"android":"levelo://app?vid=37654fee-c31e-4e93-a13c-b8fb11c15bab","ios":"levelo://app?vid=37654fee-c31e-4e93-a13c-b8fb11c15bab"},"vehicle_type_id":"4","last_reported":1704107167,"current_range_meters":30000,"station_id":"ce4bguh2rcd13ifvqcj0","pricing_plan_id":"free"},{"bike_id":"92ee0dcb-b929-4f63-994f-6a3bf0d92887","system_id":"levelo_inurba_marseille","lat":43.30275,"lon":5.376946,"is_reserved":false,"is_disabled":false,"rental_uris":{"android":"levelo://app?vid=92ee0dcb-b929-4f63-994f-6a3bf0d92887","ios":"levelo://app?vid=92ee0dcb-b929-4f63-994f-6a3bf0d92887"},"vehicle_type_id":"4","last_reported":1704107167,"current_range_meters":20400,"station_id":"ce4bguh2rcd13ifvqcj0","pricing_plan_id":"free"},{"bike_id":"12cc3e03-e48b-4f30-bfc9-f1b37a6da005","system_id":"levelo_inurba_marseille","lat":43.302776,"lon":5.377035,"is_reserved":false,"is_disabled":false,"rental_uris":{"android":"levelo://app?vid=12cc3e03-e48b-4f30-bfc9-f1b37a6da005","ios":"levelo://app?vid=12cc3e03-e48b-4f30-bfc9-f1b37a6da005"},"vehicle_type_id":"4","last_reported":1704107167,"current_range_meters":31200,"station_id":"ce4bguh2rcd13ifvqcj0","pricing_plan_id":"free"},{"bike_id":"cfb2809c-3c47-4f5c-8162-b420c80fc7f2","system_id":"levelo_inurba_marseille","lat":43.301429,"lon":5.37413,"is_reserved":false,"is_disabled":false,"rental_uris":{"android":"levelo://app?vid=cfb2809c-3c47-4f5c-8162-b420c80fc7f2","ios":"levelo://app?vid=cfb2809c-3c47-4f5c-8162-b420c80fc7f2"},"vehicle_type_id":"4","last_reported":1704107167,"current_range_meters":22000,"station_id":"ce4bgs92rcd13ifvqcc0","pricing_plan_id":"free"},{"bike_id":"f1c4a9f6-f95e-4244-be32-9b3daec9f8d4","system_id":"levelo_inurba_marseille","lat":43.319935,"lon":5.381699,"is_reserved":false,"is_disabled":false,"rental_uris":{"android":"levelo://app?vid=f1c4a9f6-f95e-4244-be32-9b3daec9f8d4","ios":"levelo://app?vid=f1c4a9f6-f95e-4244-be32-9b3daec9f8d4"},"vehicle_type_id":"4","last_reported":1704107167,"current_range_meters":26000,"station_id":"ce4bhr12rcd13ifvqhpg","pricing_plan_id":"free"},{"bike_id":"5a7b6f71-2a1a-475e-9087-fdbf7ac8818b","system_id":"levelo_inurba_marseille","lat":43.299963,"lon":5.374467,"is_reserved":false,"is_disabled":false,"rental_uris":{"android":"levelo://app?vid=5a7b6f71-2a1a-475e-9087-fdbf7ac8818b","ios":"levelo://app?vid=5a7b6f71-2a1a-475e-9087-fdbf7ac8818b"},"vehicle_type_id":"4","last_reported":1704107167,"current_range_meters":23200,"station_id":"","pricing_plan_id":"free"},{"bike_id":"7045c35e-0632-4d73-a659-cc386cc313a4","system_id":"levelo_inurba_marseille","lat":43.298433,"lon":5.362774,"is_reserved":false,"is_disabled":false,"rental_uris":{"android":"levelo://app?vid=7045c35e-0632-4d73-a659-cc386cc313a4","ios":"levelo://app?vid=7045c35e-0632-4d73-a659-cc386cc313a4"},"vehicle_type_id":"4","last_reported":1704107167,"current_range_meters":20400,"station_id":"ce4bgpp2rcd13ifvqc3g","pricing_plan_id":"free"},{"bike_id":"23b5dc86-74c1-4572-8431-af3cc5d3d326","system_id":"levelo_inurba_marseille","lat":43.298433,"lon":5.362774,"is_reserved":false,"is_disabled":false,"rental_uris":{"android":"levelo://app?vid=23b5dc86-74c1-4572-8431-af3cc5d3d326","ios":"levelo://app?vid=23b5dc86-74c1-4572-8431-af3cc5d3d326"},"vehicle_type_id":"4","last_reported":1704107167,"current_range_meters":25200,"station_id":"ce4bgpp2rcd13ifvqc3g","pricing_plan_id":"free"},{"bike_id":"6be8a0c7-3598-4c6d-a184-ed416c2296f0","system_id":"levelo_inurba_marseille","lat":43.298433,"lon":5.362774,"is_reserved":false,"is_disabled":false,"rental_uris":{"android":"levelo://app?vid=6be8a0c7-3598-4c6d-a184-ed416c2296f0","ios":"levelo://app?vid=6be8a0c7-3598-4c6d-a184-ed416c2296f0"},"vehicle_type_id":"4","last_reported":1704107167,"current_range_meters":29200,"station_id":"ce4bgpp2rcd13ifvqc3g","pricing_plan_id":"free"},{"bike_id":"bac6aeba-f6b8-4d91-9bd2-79b64b135e9c","system_id":"levelo_inurba_marseille","lat":43.299243,"lon":5.37481,"is_reserved":false,"is_disabled":false,"rental_uris":{"android":"levelo://app?vid=bac6aeba-f6b8-4d91-9bd2-79b64b135e9c","ios":"levelo://app?vid=bac6aeba-f6b8-4d91-9bd2-79b64b135e9c"},"vehicle_type_id":"4","last_reported":1704107167,"current_range_meters":3200,"station_id":"ce4bgjh2rcd13ifvqbg0","pricing_plan_id":"free"},{"bike_id":"7f067864-f15b-4fb6-93dd-72ac7fd033cf","system_id":"levelo_inurba_marseille","lat":43.299243,"lon":5.374807,"is_reserved":false,"is_disabled":false,"rental_uris":{"android":"levelo://app?vid=7f067864-f15b-4fb6-93dd-72ac7fd033cf","ios":"levelo://app?vid=7f067864-f15b-4fb6-93dd-72ac7fd033cf"},"vehicle_type_id":"4","last_reported":1704107167,"current_range_meters":2000,"station_id":"ce4bgjh2rcd13ifvqbg0","pricing_plan_id":"free"},{"bike_id":"e5b50afb-65cc-4da8-b29b-670c0e765452","system_id":"levelo_inurba_marseille","lat":43.299243,"lon":5.374807,"is_reserved":false,"is_disabled":false,"rental_uris":{"android":"levelo://app?vid=e5b50afb-65cc-4da8-b29b-670c0e765452","ios":"levelo://app?vid=e5b50afb-65cc-4da8-b29b-670c0e765452"},"vehicle_type_id":"4","last_reported":1704107167,"current_range_meters":30000,"station_id":"ce4bgjh2rcd13ifvqbg0","pricing_plan_id":"free"},{"bike_id":"ea7074d7-b7c9-4941-82c2-dff391bae9cb","system_id":"levelo_inurba_marseille","lat":43.32792,"lon":5.36691,"is_reserved":false,"is_disabled":false,"rental_uris":{"android":"levelo://app?vid=ea7074d7-b7c9-4941-82c2-dff391bae9cb","ios":"levelo://app?vid=ea7074d7-b7c9-4941-82c2-dff391bae9cb"},"vehicle_type_id":"4","last_reported":1704107167,"current_range_meters":21200,"station_id":"","pricing_plan_id":"free"},{"bike_id":"6a8e3a70-e518-45d4-8380-ef4f70e7cff3","system_id":"levelo_inurba_marseille","lat":43.308012,"lon":5.381511,"is_reserved":false,"is_disabled":false,"rental_uris":{"android":"levelo://app?vid=6a8e3a70-e518-45d4-8380-ef4f70e7cff3","ios":"levelo://app?vid=6a8e3a70-e518-45d4-8380-ef4f70e7cff3"},"vehicle_type_id":"4","last_reported":1704107167,"current_range_meters":10800,"station_id":"ce4bgt12rcd13ifvqce0","pricing_plan_id":"free"},{"bike_id":"ae1a334f-34c4-413e-b897-8b7e99b8f031","system_id":"levelo_inurba_marseille","lat":43.322872,"lon":5.382756,"is_reserved":false,"is_disabled":false,"rental_uris":{"android":"levelo://app?vid=ae1a334f-34c4-413e-b897-8b7e99b8f031","ios":"levelo://app?vid=ae1a334f-34c4-413e-b897-8b7e99b8f031"},"vehicle_type_id":"4","last_reported":1704107167,"current_range_meters":30400,"station_id":"ce4bhr12rcd13ifvqhqg","pricing_plan_id":"free"},{"bike_id":"7dacb968-7456-46f9-98a4-1c1aa118f5e2","system_id":"levelo_inurba_marseille","lat":43.322822,"lon":5.382716,"is_reserved":false,"is_disabled":false,"rental_uris":{"android":"levelo://app?vid=7dacb968-7456-46f9-98a4-1c1aa118f5e2","ios":"levelo://app?vid=7dacb968-7456-46f9-98a4-1c1aa118f5e2"},"vehicle_type_id":"4","last_reported":1704107167,"current_range_meters":22000,"station_id":"ce4bhr12rcd13ifvqhqg","pricing_plan_id":"free"},{"bike_id":"7892f7ad-391a-4b01-9629-9863c77731a1","system_id":"levelo_inurba_marseille","lat":43.32288,"lon":5.38273,"is_reserved":false,"is_disabled":false,"rental_uris":{"android":"levelo://app?vid=7892f7ad-391a-4b01-9629-9863c77731a1","ios":"levelo://app?vid=7892f7ad-391a-4b01-9629-9863c77731a1"},"vehicle_type_id":"4","last_reported":1704107167,"current_range_meters":30400,"station_id":"ce4bhr12rcd13ifvqhqg","pricing_plan_id":"free"},{"bike_id":"a814d147-e775-45a2-b5cb-60efdd10d17b","system_id":"levelo_inurba_marseille","lat":43.322872,"lon":5.382756,"is_reserved":false,"is_disabled":false,"rental_uris":{"android":"levelo://app?vid=a814d147-e775-45a2-b5cb-60efdd10d17b","ios":"levelo://app?vid=a814d147-e775-45a2-b5cb-60efdd10d17b"},"vehicle_type_id":"4","last_reported":1704107167,"current_range_meters":31200,"station_id":"ce4bhr12rcd13ifvqhqg","pricing_plan_id":"free"},{"bike_id":"a677cd10-a09b-4b2e-bffd-45b05d2c9229","system_id":"levelo_inurba_marseille","lat":43.32823,"lon":5.36677,"is_reserved":false,"is_disabled":false,"rental_uris":{"android":"levelo://app?vid=a677cd10-a09b-4b2e-bffd-45b05d2c9229","ios":"levelo://app?vid=a677cd10-a09b-4b2e-bffd-45b05d2c9229"},"vehicle_type_id":"4","last_reported":1704107167,"current_range_meters":8800,"station_id":"ce4bhs92rcd13ifvqi0g","pricing_plan_id":"free"},{"bike_id":"3406ac08-144e-419c-8a8c-9c89910b5b78","system_id":"levelo_inurba_marseille","lat":43.328248,"lon":5.36683,"is_reserved":false,"is_disabled":false,"rental_uris":{"android":"levelo://app?vid=3406ac08-144e-419c-8a8c-9c89910b5b78","ios":"levelo://app?vid=3406ac08-144e-419c-8a8c-9c89910b5b78"},"vehicle_type_id":"4","last_reported":1704107167,"current_range_meters":23200,"station_id":"","pricing_plan_id":"free"},{"bike_id":"904f83aa-e9ab-401d-84c1-9edfed82b884","system_id":"levelo_inurba_marseille","lat":43.32829,"lon":5.36683,"is_reserved":false,"is_disabled":false,"rental_uris":{"android":"levelo://app?vid=904f83aa-e9ab-401d-84c1-9edfed82b884","ios":"levelo://app?vid=904f83aa-e9ab-401d-84c1-9edfed82b884"},"vehicle_type_id":"4","last_reported":1704107167,"current_range_meters":18800,"station_id":"ce4bhs92rcd13ifvqi0g","pricing_plan_id":"free"},{"bike_id":"8233d320-3015-483d-9317-9f5ea8045c87","system_id":"levelo_inurba_marseille","lat":43.3283,"lon":5.36692,"is_reserved":false,"is_disabled":false,"rental_uris":{"android":"levelo://app?vid=8233d320-3015-483d-9317-9f5ea8045c87","ios":"levelo://app?vid=8233d320-3015-483d-9317-9f5ea8045c87"},"vehicle_type_id":"4","last_reported":1704107167,"current_range_meters":7600,"station_id":"ce4bhs92rcd13ifvqi0g","pricing_plan_id":"free"},{"bike_id":"370cccf7-c9ba-46c2-819b-c8e8cacc4c21","system_id":"levelo_inurba_marseille","lat":43.3277,"lon":5.37458,"is_reserved":false,"is_disabled":false,"rental_uris":{"android":"levelo://app?vid=370cccf7-c9ba-46c2-819b-c8e8cacc4c21","ios":"levelo://app?vid=370cccf7-c9ba-46c2-819b-c8e8cacc4c21"},"vehicle_type_id":"4","last_reported":1704107167,"current_range_meters":12800,"station_id":"","pricing_plan_id":"free"},{"bike_id":"449e9906-109c-453f-9f02-a8a720e972c3","system_id":"levelo_inurba_marseille","lat":43.2968,"lon":5.37291,"is_reserved":false,"is_disabled":false,"rental_uris":{"android":"levelo://app?vid=449e9906-109c-453f-9f02-a8a720e972c3","ios":"levelo://app?vid=449e9906-109c-453f-9f02-a8a720e972c3"},"vehicle_type_id":"4","last_reported":1704107167,"current_range_meters":26800,"station_id":"ce4bgk12rcd13ifvqbj0","pricing_plan_id":"free"},{"bike_id":"921b424d-ad0d-4c7a-9d74-66e3a49bfa19","system_id":"levelo_inurba_marseille","lat":43.32934,"lon":5.36612,"is_reserved":false,"is_disabled":false,"rental_uris":{"android":"levelo://app?vid=921b424d-ad0d-4c7a-9d74-66e3a49bfa19","ios":"levelo://app?vid=921b424d-ad0d-4c7a-9d74-66e3a49bfa19"},"vehicle_type_id":"4","last_reported":1704107167,"current_range_meters":0,"station_id":"","pricing_plan_id":"free"},{"bike_id":"e389eb11-80d3-408f-8ecf-1a84d7445c55","system_id":"levelo_inurba_marseille","lat":43.295869,"lon":5.367446,"is_reserved":false,"is_disabled":false,"rental_uris":{"android":"levelo://app?vid=e389eb11-80d3-408f-8ecf-1a84d7445c55","ios":"levelo://app?vid=e389eb11-80d3-408f-8ecf-1a84d7445c55"},"vehicle_type_id":"4","last_reported":1704107167,"current_range_meters":21200,"station_id":"ce4bgph2rcd13ifvqc2g","pricing_plan_id":"free"},{"bike_id":"e129a4f6-4f6e-4309-a9a3-790331bfb2f0","system_id":"levelo_inurba_marseille","lat":43.272116,"lon":5.391763,"is_reserved":false,"is_disabled":false,"rental_uris":{"android":"levelo://app?vid=e129a4f6-4f6e-4309-a9a3-790331bfb2f0","ios":"levelo://app?vid=e129a4f6-4f6e-4309-a9a3-790331bfb2f0"},"vehicle_type_id":"4","last_reported":1704107167,"current_range_meters":6800,"station_id":"ce4bhhp2rcd13ifvqfm0","pricing_plan_id":"free"},{"bike_id":"e2b5aecd-a17d-4e06-a4c3-10afec069ab8","system_id":"levelo_inurba_marseille","lat":43.299028,"lon":5.381509,"is_reserved":false,"is_disabled":false,"rental_uris":{"android":"levelo://app?vid=e2b5aecd-a17d-4e06-a4c3-10afec069ab8","ios":"levelo://app?vid=e2b5aecd-a17d-4e06-a4c3-10afec069ab8"},"vehicle_type_id":"4","last_reported":1704107167,"current_range_meters":22400,"station_id":"ce4bgj12rcd13ifvqbc0","pricing_plan_id":"free"},{"bike_id":"58ca5f8e-aeb6-454c-98e1-d32c210925e2","system_id":"levelo_inurba_marseille","lat":43.295748,"lon":5.37522,"is_reserved":false,"is_disabled":false,"rental_uris":{"android":"levelo://app?vid=58ca5f8e-aeb6-454c-98e1-d32c210925e2","ios":"levelo://app?vid=58ca5f8e-aeb6-454c-98e1-d32c210925e2"},"vehicle_type_id":"4","last_reported":1704107167,"current_range_meters":14800,"station_id":"ce4bgh92rcd13ifvqb50","pricing_plan_id":"free"},{"bike_id":"a0ca3959-dcd5-4a6d-86c3-558004528330","system_id":"levelo_inurba_marseille","lat":43.304278,"lon":5.388868,"is_reserved":false,"is_disabled":false,"rental_uris":{"android":"levelo://app?vid=a0ca3959-dcd5-4a6d-86c3-558004528330","ios":"levelo://app?vid=a0ca3959-dcd5-4a6d-86c3-558004528330"},"vehicle_type_id":"4","last_reported":1704107167,"current_range_meters":31200,"station_id":"ce4bgk12rcd13ifvqbi0","pricing_plan_id":"free"},{"bike_id":"d60802d6-4f47-444a-b234-883690eec05b","system_id":"levelo_inurba_marseille","lat":43.33062,"lon":5.3627,"is_reserved":false,"is_disabled":false,"rental_uris":{"android":"levelo://app?vid=d60802d6-4f47-444a-b234-883690eec05b","ios":"levelo://app?vid=d60802d6-4f47-444a-b234-883690eec05b"},"vehicle_type_id":"4","last_reported":1704107167,"current_range_meters":20000,"station_id":"","pricing_plan_id":"free"},{"bike_id":"01d95ce3-bf22-4d3c-b645-baa6c339c37e","system_id":"levelo_inurba_marseille","lat":43.304278,"lon":5.388868,"is_reserved":false,"is_disabled":false,"rental_uris":{"android":"levelo://app?vid=01d95ce3-bf22-4d3c-b645-baa6c339c37e","ios":"levelo://app?vid=01d95ce3-bf22-4d3c-b645-baa6c339c37e"},"vehicle_type_id":"4","last_reported":1704107167,"current_range_meters":22800,"station_id":"ce4bgk12rcd13ifvqbi0","pricing_plan_id":"free"},{"bike_id":"7119845d-00aa-4d9f-be8c-fc97d41f1380","system_id":"levelo_inurba_marseille","lat":43.297594,"lon":5.381134,"is_reserved":false,"is_disabled":false,"rental_uris":{"android":"levelo://app?vid=7119845d-00aa-4d9f-be8c-fc97d41f1380","ios":"levelo://app?vid=7119845d-00aa-4d9f-be8c-fc97d41f1380"},"vehicle_type_id":"4","last_reported":1704107167,"current_range_meters":8400,"station_id":"ce4bgip2rcd13ifvqbb0","pricing_plan_id":"free"},{"bike_id":"fb64b198-2a57-4dbc-a2a6-55bc6bb760f2","system_id":"levelo_inurba_marseille","lat":43.32367,"lon":5.388836,"is_reserved":false,"is_disabled":false,"rental_uris":{"android":"levelo://app?vid=fb64b198-2a57-4dbc-a2a6-55bc6bb760f2","ios":"levelo://app?vid=fb64b198-2a57-4dbc-a2a6-55bc6bb760f2"},"vehicle_type_id":"4","last_reported":1704107167,"current_range_meters":30000,"station_id":"ce4bhqp2rcd13ifvqhog","pricing_plan_id":"free"},{"bike_id":"545ffa0b-32c2-45c2-b00c-94e9432aecc7","system_id":"levelo_inurba_marseille","lat":43.32367,"lon":5.388836,"is_reserved":false,"is_disabled":false,"rental_uris":{"android":"levelo://app?vid=545ffa0b-32c2-45c2-b00c-94e9432aecc7","ios":"levelo://app?vid=545ffa0b-32c2-45c2-b00c-94e9432aecc7"},"vehicle_type_id":"4","last_reported":1704107167,"current_range_meters":30000,"station_id":"ce4bhqp2rcd13ifvqhog","pricing_plan_id":"free"},{"bike_id":"fbe9cf4d-5756-4294-b6ea-069aba55d2fb","system_id":"levelo_inurba_marseille","lat":43.32367,"lon":5.388836,"is_reserved":false,"is_disabled":false,"rental_uris":{"android":"levelo://app?vid=fbe9cf4d-5756-4294-b6ea-069aba55d2fb","ios":"levelo://app?vid=fbe9cf4d-5756-4294-b6ea-069aba55d2fb"},"vehicle_type_id":"4","last_reported":1704107167,"current_range_meters":30400,"station_id":"ce4bhqp2rcd13ifvqhog","pricing_plan_id":"free"},{"bike_id":"1637d5e1-5845-41f9-b066-4023124c0ebf","system_id":"levelo_inurba_marseille","lat":43.293009,"lon":5.374584,"is_reserved":false,"is_disabled":false,"rental_uris":{"android":"levelo://app?vid=1637d5e1-5845-41f9-b066-4023124c0ebf","ios":"levelo://app?vid=1637d5e1-5845-41f9-b066-4023124c0ebf"},"vehicle_type_id":"4","last_reported":1704107167,"current_range_meters":30000,"station_id":"ce4bgi12rcd13ifvqb70","pricing_plan_id":"free"},{"bike_id":"08e21ec3-1140-440c-820e-38d32b5c427f","system_id":"levelo_inurba_marseille","lat":43.2936,"lon":5.37835,"is_reserved":false,"is_disabled":false,"rental_uris":{"android":"levelo://app?vid=08e21ec3-1140-440c-820e-38d32b5c427f","ios":"levelo://app?vid=08e21ec3-1140-440c-820e-38d32b5c427f"},"vehicle_type_id":"4","last_reported":1704107167,"current_range_meters":23200,"station_id":"ce4bgjh2rcd13ifvqbf0","pricing_plan_id":"free"},{"bike_id":"d1a81558-5e2b-42c4-9c2e-366cb66892b9","system_id":"levelo_inurba_marseille","lat":43.292311,"lon":5.360731,"is_reserved":false,"is_disabled":false,"rental_uris":{"android":"levelo://app?vid=d1a81558-5e2b-42c4-9c2e-366cb66892b9","ios":"levelo://app?vid=d1a81558-5e2b-42c4-9c2e-366cb66892b9"},"vehicle_type_id":"4","last_reported":1704107167,"current_range_meters":27600,"station_id":"ce4bhbh2rcd13ifvqeqg","pricing_plan_id":"free"},{"bike_id":"044725cd-7e51-447b-8f52-120027858a3c","system_id":"levelo_inurba_marseille","lat":43.292311,"lon":5.360731,"is_reserved":false,"is_disabled":false,"rental_uris":{"android":"levelo://app?vid=044725cd-7e51-447b-8f52-120027858a3c","ios":"levelo://app?vid=044725cd-7e51-447b-8f52-120027858a3c"},"vehicle_type_id":"4","last_reported":1704107167,"current_range_meters":28800,"station_id":"ce4bhbh2rcd13ifvqeqg","pricing_plan_id":"free"},{"bike_id":"954fea3f-e741-495e-8b19-eb915a164db0","system_id":"levelo_inurba_marseille","lat":43.300852,"lon":5.390859,"is_reserved":false,"is_disabled":false,"rental_uris":{"android":"levelo://app?vid=954fea3f-e741-495e-8b19-eb915a164db0","ios":"levelo://app?vid=954fea3f-e741-495e-8b19-eb915a164db0"},"vehicle_type_id":"4","last_reported":1704107167,"current_range_meters":30800,"station_id":"ce4bh192rcd13ifvqdb0","pricing_plan_id":"free"},{"bike_id":"6cf282af-f015-416e-ae8e-36842ec1d2f2","system_id":"levelo_inurba_marseille","lat":43.309047,"lon":5.396551,"is_reserved":false,"is_disabled":false,"rental_uris":{"android":"levelo://app?vid=6cf282af-f015-416e-ae8e-36842ec1d2f2","ios":"levelo://app?vid=6cf282af-f015-416e-ae8e-36842ec1d2f2"},"vehicle_type_id":"4","last_reported":1704107167,"current_range_meters":28400,"station_id":"ce4bh012rcd13ifvqcv0","pricing_plan_id":"free"},{"bike_id":"668942d6-33c2-433a-a4c3-8da233302454","system_id":"levelo_inurba_marseille","lat":43.313291,"lon":5.396838,"is_reserved":false,"is_disabled":false,"rental_uris":{"android":"levelo://app?vid=668942d6-33c2-433a-a4c3-8da233302454","ios":"levelo://app?vid=668942d6-33c2-433a-a4c3-8da233302454"},"vehicle_type_id":"4","last_reported":1704107167,"current_range_meters":30800,"station_id":"ce4bgvp2rcd13ifvqcu0","pricing_plan_id":"free"},{"bike_id":"eec4920b-c6c9-4653-9aed-f0a93cdeafbc","system_id":"levelo_inurba_marseille","lat":43.309047,"lon":5.396551,"is_reserved":false,"is_disabled":false,"rental_uris":{"android":"levelo://app?vid=eec4920b-c6c9-4653-9aed-f0a93cdeafbc","ios":"levelo://app?vid=eec4920b-c6c9-4653-9aed-f0a93cdeafbc"},"vehicle_type_id":"4","last_reported":1704107167,"current_range_meters":23200,"station_id":"ce4bh012rcd13ifvqcv0","pricing_plan_id":"free"},{"bike_id":"c2f6919e-221e-4b20-9859-b3c688c2423c","system_id":"levelo_inurba_marseille","lat":43.302008,"lon":5.394694,"is_reserved":false,"is_disabled":false,"rental_uris":{"android":"levelo://app?vid=c2f6919e-221e-4b20-9859-b3c688c2423c","ios":"levelo://app?vid=c2f6919e-221e-4b20-9859-b3c688c2423c"},"vehicle_type_id":"4","last_reported":1704107167,"current_range_meters":30400,"station_id":"ce4bh0p2rcd13ifvqd70","pricing_plan_id":"free"},{"bike_id":"6af5d335-5cd1-4585-a6f0-a6e99c645196","system_id":"levelo_inurba_marseille","lat":43.289468,"lon":5.363719,"is_reserved":false,"is_disabled":false,"rental_uris":{"android":"levelo://app?vid=6af5d335-5cd1-4585-a6f0-a6e99c645196","ios":"levelo://app?vid=6af5d335-5cd1-4585-a6f0-a6e99c645196"},"vehicle_type_id":"4","last_reported":1704107167,"current_range_meters":30000,"station_id":"ce4bhc92rcd13ifvqetg","pricing_plan_id":"free"},{"bike_id":"2ac0e261-7b91-4268-ba70-025e127ee117","system_id":"levelo_inurba_marseille","lat":43.304293,"lon":5.397403,"is_reserved":false,"is_disabled":false,"rental_uris":{"android":"levelo://app?vid=2ac0e261-7b91-4268-ba70-025e127ee117","ios":"levelo://app?vid=2ac0e261-7b91-4268-ba70-025e127ee117"},"vehicle_type_id":"4","last_reported":1704107167,"current_range_meters":29600,"station_id":"ce4bh092rcd13ifvqd20","pricing_plan_id":"free"},{"bike_id":"df7848f8-31ab-473f-9a21-20a54afe0084","system_id":"levelo_inurba_marseille","lat":43.304283,"lon":5.397488,"is_reserved":false,"is_disabled":false,"rental_uris":{"android":"levelo://app?vid=df7848f8-31ab-473f-9a21-20a54afe0084","ios":"levelo://app?vid=df7848f8-31ab-473f-9a21-20a54afe0084"},"vehicle_type_id":"4","last_reported":1704107167,"current_range_meters":12800,"station_id":"","pricing_plan_id":"free"},{"bike_id":"767cef46-22ff-472f-b11f-0056258947cd","system_id":"levelo_inurba_marseille","lat":43.304285,"lon":5.397505,"is_reserved":false,"is_disabled":false,"rental_uris":{"android":"levelo://app?vid=767cef46-22ff-472f-b11f-0056258947cd","ios":"levelo://app?vid=767cef46-22ff-472f-b11f-0056258947cd"},"vehicle_type_id":"4","last_reported":1704107167,"current_range_meters":8000,"station_id":"","pricing_plan_id":"free"},{"bike_id":"9d832f49-b330-492c-bca5-26b211dfab4e","system_id":"levelo_inurba_marseille","lat":43.30431,"lon":5.39754,"is_reserved":false,"is_disabled":false,"rental_uris":{"android":"levelo://app?vid=9d832f49-b330-492c-bca5-26b211dfab4e","ios":"levelo://app?vid=9d832f49-b330-492c-bca5-26b211dfab4e"},"vehicle_type_id":"4","last_reported":1704107167,"current_range_meters":12000,"station_id":"ce4bh092rcd13ifvqd20","pricing_plan_id":"free"},{"bike_id":"35d6b702-99e8-4543-9032-540953805b24","system_id":"levelo_inurba_marseille","lat":43.302759,"lon":5.400793,"is_reserved":false,"is_disabled":false,"rental_uris":{"android":"levelo://app?vid=35d6b702-99e8-4543-9032-540953805b24","ios":"levelo://app?vid=35d6b702-99e8-4543-9032-540953805b24"},"vehicle_type_id":"4","last_reported":1704107167,"current_range_meters":18800,"station_id":"ce4bgvh2rcd13ifvqcs0","pricing_plan_id":"free"},{"bike_id":"063d79c4-5717-41b9-8324-853db99889ec","system_id":"levelo_inurba_marseille","lat":43.30422,"lon":5.39753,"is_reserved":false,"is_disabled":false,"rental_uris":{"android":"levelo://app?vid=063d79c4-5717-41b9-8324-853db99889ec","ios":"levelo://app?vid=063d79c4-5717-41b9-8324-853db99889ec"},"vehicle_type_id":"4","last_reported":1704107167,"current_range_meters":20800,"station_id":"ce4bh092rcd13ifvqd20","pricing_plan_id":"free"},{"bike_id":"31a6626c-39fa-468c-851a-2f305d7308d6","system_id":"levelo_inurba_marseille","lat":43.304227,"lon":5.397563,"is_reserved":false,"is_disabled":false,"rental_uris":{"android":"levelo://app?vid=31a6626c-39fa-468c-851a-2f305d7308d6","ios":"levelo://app?vid=31a6626c-39fa-468c-851a-2f305d7308d6"},"vehicle_type_id":"4","last_reported":1704107167,"current_range_meters":2000,"station_id":"ce4bh092rcd13ifvqd20","pricing_plan_id":"free"},{"bike_id":"85d8f827-c38e-4df5-892c-08e850ce0512","system_id":"levelo_inurba_marseille","lat":43.290103,"lon":5.356114,"is_reserved":false,"is_disabled":false,"rental_uris":{"android":"levelo://app?vid=85d8f827-c38e-4df5-892c-08e850ce0512","ios":"levelo://app?vid=85d8f827-c38e-4df5-892c-08e850ce0512"},"vehicle_type_id":"4","last_reported":1704107167,"current_range_meters":14800,"station_id":"ce4bhb92rcd13ifvqen0","pricing_plan_id":"free"},{"bike_id":"2b7df1ba-d4c7-47bd-ad62-4d6e0668f1a4","system_id":"levelo_inurba_marseille","lat":43.29794,"lon":5.39339,"is_reserved":false,"is_disabled":false,"rental_uris":{"android":"levelo://app?vid=2b7df1ba-d4c7-47bd-ad62-4d6e0668f1a4","ios":"levelo://app?vid=2b7df1ba-d4c7-47bd-ad62-4d6e0668f1a4"},"vehicle_type_id":"4","last_reported":1704107167,"current_range_meters":24000,"station_id":"chh1huq6cuj3fo74tm60","pricing_plan_id":"free"},{"bike_id":"fdfb70d8-9890-422e-9251-12e030bcfb72","system_id":"levelo_inurba_marseille","lat":43.330442,"lon":5.389148,"is_reserved":false,"is_disabled":false,"rental_uris":{"android":"levelo://app?vid=fdfb70d8-9890-422e-9251-12e030bcfb72","ios":"levelo://app?vid=fdfb70d8-9890-422e-9251-12e030bcfb72"},"vehicle_type_id":"4","last_reported":1704107167,"current_range_meters":18000,"station_id":"ce4bhr92rcd13ifvqhrg","pricing_plan_id":"free"},{"bike_id":"13d41c86-d361-4b17-ae49-6b5491dd4e85","system_id":"levelo_inurba_marseille","lat":43.330442,"lon":5.389148,"is_reserved":false,"is_disabled":false,"rental_uris":{"android":"levelo://app?vid=13d41c86-d361-4b17-ae49-6b5491dd4e85","ios":"levelo://app?vid=13d41c86-d361-4b17-ae49-6b5491dd4e85"},"vehicle_type_id":"4","last_reported":1704107167,"current_range_meters":29200,"station_id":"ce4bhr92rcd13ifvqhrg","pricing_plan_id":"free"},{"bike_id":"7d3f0707-26fc-41d0-8f63-88674e57e19c","system_id":"levelo_inurba_marseille","lat":43.330442,"lon":5.389148,"is_reserved":false,"is_disabled":false,"rental_uris":{"android":"levelo://app?vid=7d3f0707-26fc-41d0-8f63-88674e57e19c","ios":"levelo://app?vid=7d3f0707-26fc-41d0-8f63-88674e57e19c"},"vehicle_type_id":"4","last_reported":1704107167,"current_range_meters":12000,"station_id":"ce4bhr92rcd13ifvqhrg","pricing_plan_id":"free"},{"bike_id":"983ae15b-e6ac-4e63-857d-b1c023399b7b","system_id":"levelo_inurba_marseille","lat":43.330442,"lon":5.389148,"is_reserved":false,"is_disabled":false,"rental_uris":{"android":"levelo://app?vid=983ae15b-e6ac-4e63-857d-b1c023399b7b","ios":"levelo://app?vid=983ae15b-e6ac-4e63-857d-b1c023399b7b"},"vehicle_type_id":"4","last_reported":1704107167,"current_range_meters":28000,"station_id":"ce4bhr92rcd13ifvqhrg","pricing_plan_id":"free"},{"bike_id":"0c935c71-1d3d-4657-9e09-4d7b4c04e8a6","system_id":"levelo_inurba_marseille","lat":43.290094,"lon":5.381264,"is_reserved":false,"is_disabled":false,"rental_uris":{"android":"levelo://app?vid=0c935c71-1d3d-4657-9e09-4d7b4c04e8a6","ios":"levelo://app?vid=0c935c71-1d3d-4657-9e09-4d7b4c04e8a6"},"vehicle_type_id":"4","last_reported":1704107167,"current_range_meters":16800,"station_id":"ce4bh4p2rcd13ifvqe1g","pricing_plan_id":"free"},{"bike_id":"4281d230-8c6f-4d78-8148-9d01f308b6c9","system_id":"levelo_inurba_marseille","lat":43.303837,"lon":5.418724,"is_reserved":false,"is_disabled":false,"rental_uris":{"android":"levelo://app?vid=4281d230-8c6f-4d78-8148-9d01f308b6c9","ios":"levelo://app?vid=4281d230-8c6f-4d78-8148-9d01f308b6c9"},"vehicle_type_id":"4","last_reported":1704107167,"current_range_meters":22000,"station_id":"ce4bhop2rcd13ifvqh7g","pricing_plan_id":"free"},{"bike_id":"847fd9f7-26a3-4e89-b060-88498a4c5875","system_id":"levelo_inurba_marseille","lat":43.312609,"lon":5.401662,"is_reserved":false,"is_disabled":false,"rental_uris":{"android":"levelo://app?vid=847fd9f7-26a3-4e89-b060-88498a4c5875","ios":"levelo://app?vid=847fd9f7-26a3-4e89-b060-88498a4c5875"},"vehicle_type_id":"4","last_reported":1704107167,"current_range_meters":0,"station_id":"ce4bh092rcd13ifvqd30","pricing_plan_id":"free"},{"bike_id":"0a4ff4c2-5407-45a7-8bd8-681bae981765","system_id":"levelo_inurba_marseille","lat":43.312609,"lon":5.401662,"is_reserved":false,"is_disabled":false,"rental_uris":{"android":"levelo://app?vid=0a4ff4c2-5407-45a7-8bd8-681bae981765","ios":"levelo://app?vid=0a4ff4c2-5407-45a7-8bd8-681bae981765"},"vehicle_type_id":"4","last_reported":1704107167,"current_range_meters":0,"station_id":"ce4bh092rcd13ifvqd30","pricing_plan_id":"free"},{"bike_id":"1e6cd83d-4fe0-4cdc-947a-8662212d826a","system_id":"levelo_inurba_marseille","lat":43.312674,"lon":5.401712,"is_reserved":false,"is_disabled":false,"rental_uris":{"android":"levelo://app?vid=1e6cd83d-4fe0-4cdc-947a-8662212d826a","ios":"levelo://app?vid=1e6cd83d-4fe0-4cdc-947a-8662212d826a"},"vehicle_type_id":"4","last_reported":1704107167,"current_range_meters":13200,"station_id":"","pricing_plan_id":"free"},{"bike_id":"ad16626a-eded-4ccd-8a7d-60418570e591","system_id":"levelo_inurba_marseille","lat":43.309371,"lon":5.401449,"is_reserved":false,"is_disabled":false,"rental_uris":{"android":"levelo://app?vid=ad16626a-eded-4ccd-8a7d-60418570e591","ios":"levelo://app?vid=ad16626a-eded-4ccd-8a7d-60418570e591"},"vehicle_type_id":"4","last_reported":1704107167,"current_range_meters":28400,"station_id":"ce4bgvp2rcd13ifvqct0","pricing_plan_id":"free"},{"bike_id":"50e0d16c-cd20-400f-9694-08ea7fe19be8","system_id":"levelo_inurba_marseille","lat":43.309371,"lon":5.401449,"is_reserved":false,"is_disabled":false,"rental_uris":{"android":"levelo://app?vid=50e0d16c-cd20-400f-9694-08ea7fe19be8","ios":"levelo://app?vid=50e0d16c-cd20-400f-9694-08ea7fe19be8"},"vehicle_type_id":"4","last_reported":1704107167,"current_range_meters":4800,"station_id":"ce4bgvp2rcd13ifvqct0","pricing_plan_id":"free"},{"bike_id":"d628ee32-1c50-4c11-9b99-9f24a97552ff","system_id":"levelo_inurba_marseille","lat":43.309371,"lon":5.401449,"is_reserved":false,"is_disabled":false,"rental_uris":{"android":"levelo://app?vid=d628ee32-1c50-4c11-9b99-9f24a97552ff","ios":"levelo://app?vid=d628ee32-1c50-4c11-9b99-9f24a97552ff"},"vehicle_type_id":"4","last_reported":1704107167,"current_range_meters":22800,"station_id":"ce4bgvp2rcd13ifvqct0","pricing_plan_id":"free"},{"bike_id":"bf36012b-cd70-4675-a60b-613d398ab376","system_id":"levelo_inurba_marseille","lat":43.30642,"lon":5.401031,"is_reserved":false,"is_disabled":false,"rental_uris":{"android":"levelo://app?vid=bf36012b-cd70-4675-a60b-613d398ab376","ios":"levelo://app?vid=bf36012b-cd70-4675-a60b-613d398ab376"},"vehicle_type_id":"4","last_reported":1704107167,"current_range_meters":26000,"station_id":"ce4bh112rcd13ifvqda0","pricing_plan_id":"free"},{"bike_id":"f09fffb6-ee31-429c-a7ad-f797d27668ca","system_id":"levelo_inurba_marseille","lat":43.309371,"lon":5.401449,"is_reserved":false,"is_disabled":false,"rental_uris":{"android":"levelo://app?vid=f09fffb6-ee31-429c-a7ad-f797d27668ca","ios":"levelo://app?vid=f09fffb6-ee31-429c-a7ad-f797d27668ca"},"vehicle_type_id":"4","last_reported":1704107167,"current_range_meters":29200,"station_id":"ce4bgvp2rcd13ifvqct0","pricing_plan_id":"free"},{"bike_id":"9f8f02b9-36a0-4b54-9f5d-0f068de7859b","system_id":"levelo_inurba_marseille","lat":43.286039,"lon":5.370679,"is_reserved":false,"is_disabled":false,"rental_uris":{"android":"levelo://app?vid=9f8f02b9-36a0-4b54-9f5d-0f068de7859b","ios":"levelo://app?vid=9f8f02b9-36a0-4b54-9f5d-0f068de7859b"},"vehicle_type_id":"4","last_reported":1704107167,"current_range_meters":28000,"station_id":"ce4bht12rcd13ifvqi60","pricing_plan_id":"free"},{"bike_id":"eb3ae86c-2054-4803-a383-f0a5e653abd9","system_id":"levelo_inurba_marseille","lat":43.301117,"lon":5.398795,"is_reserved":false,"is_disabled":false,"rental_uris":{"android":"levelo://app?vid=eb3ae86c-2054-4803-a383-f0a5e653abd9","ios":"levelo://app?vid=eb3ae86c-2054-4803-a383-f0a5e653abd9"},"vehicle_type_id":"4","last_reported":1704107167,"current_range_meters":27600,"station_id":"ce4bh0h2rcd13ifvqd40","pricing_plan_id":"free"},{"bike_id":"508fa877-a34e-423f-b623-9d0ea57e89c5","system_id":"levelo_inurba_marseille","lat":43.301117,"lon":5.398795,"is_reserved":false,"is_disabled":false,"rental_uris":{"android":"levelo://app?vid=508fa877-a34e-423f-b623-9d0ea57e89c5","ios":"levelo://app?vid=508fa877-a34e-423f-b623-9d0ea57e89c5"},"vehicle_type_id":"4","last_reported":1704107167,"current_range_meters":25600,"station_id":"ce4bh0h2rcd13ifvqd40","pricing_plan_id":"free"},{"bike_id":"7cc9b232-52c7-48a3-b9d5-f140585cfb51","system_id":"levelo_inurba_marseille","lat":43.301117,"lon":5.398795,"is_reserved":false,"is_disabled":false,"rental_uris":{"android":"levelo://app?vid=7cc9b232-52c7-48a3-b9d5-f140585cfb51","ios":"levelo://app?vid=7cc9b232-52c7-48a3-b9d5-f140585cfb51"},"vehicle_type_id":"4","last_reported":1704107167,"current_range_meters":23200,"station_id":"ce4bh0h2rcd13ifvqd40","pricing_plan_id":"free"},{"bike_id":"c413e498-0c47-424d-9d25-de39a67200ca","system_id":"levelo_inurba_marseille","lat":43.298681,"lon":5.397225,"is_reserved":false,"is_disabled":false,"rental_uris":{"android":"levelo://app?vid=c413e498-0c47-424d-9d25-de39a67200ca","ios":"levelo://app?vid=c413e498-0c47-424d-9d25-de39a67200ca"},"vehicle_type_id":"4","last_reported":1704107167,"current_range_meters":20800,"station_id":"ce4bh0h2rcd13ifvqd50","pricing_plan_id":"free"},{"bike_id":"753348a2-941d-4b13-9aea-1f3b95c16e3c","system_id":"levelo_inurba_marseille","lat":43.286593,"lon":5.363346,"is_reserved":false,"is_disabled":false,"rental_uris":{"android":"levelo://app?vid=753348a2-941d-4b13-9aea-1f3b95c16e3c","ios":"levelo://app?vid=753348a2-941d-4b13-9aea-1f3b95c16e3c"},"vehicle_type_id":"4","last_reported":1704107167,"current_range_meters":31200,"station_id":"ce4bhah2rcd13ifvqej0","pricing_plan_id":"free"},{"bike_id":"12eb869d-7aa7-49cd-b610-46ac47dafd6d","system_id":"levelo_inurba_marseille","lat":43.286961,"lon":5.373785,"is_reserved":false,"is_disabled":false,"rental_uris":{"android":"levelo://app?vid=12eb869d-7aa7-49cd-b610-46ac47dafd6d","ios":"levelo://app?vid=12eb869d-7aa7-49cd-b610-46ac47dafd6d"},"vehicle_type_id":"4","last_reported":1704107167,"current_range_meters":26400,"station_id":"ce4bh3p2rcd13ifvqdq0","pricing_plan_id":"free"},{"bike_id":"5d25e26e-3e35-4c55-8efc-5274d0f2b30c","system_id":"levelo_inurba_marseille","lat":43.298681,"lon":5.397225,"is_reserved":false,"is_disabled":false,"rental_uris":{"android":"levelo://app?vid=5d25e26e-3e35-4c55-8efc-5274d0f2b30c","ios":"levelo://app?vid=5d25e26e-3e35-4c55-8efc-5274d0f2b30c"},"vehicle_type_id":"4","last_reported":1704107167,"current_range_meters":28800,"station_id":"ce4bh0h2rcd13ifvqd50","pricing_plan_id":"free"},{"bike_id":"8f86b6e9-fc13-4a10-84aa-29b2d74c7608","system_id":"levelo_inurba_marseille","lat":43.286591,"lon":5.363346,"is_reserved":false,"is_disabled":false,"rental_uris":{"android":"levelo://app?vid=8f86b6e9-fc13-4a10-84aa-29b2d74c7608","ios":"levelo://app?vid=8f86b6e9-fc13-4a10-84aa-29b2d74c7608"},"vehicle_type_id":"4","last_reported":1704107167,"current_range_meters":26400,"station_id":"ce4bhah2rcd13ifvqej0","pricing_plan_id":"free"},{"bike_id":"7579dc41-0633-40c0-a880-6516b59072db","system_id":"levelo_inurba_marseille","lat":43.295194,"lon":5.39397,"is_reserved":false,"is_disabled":false,"rental_uris":{"android":"levelo://app?vid=7579dc41-0633-40c0-a880-6516b59072db","ios":"levelo://app?vid=7579dc41-0633-40c0-a880-6516b59072db"},"vehicle_type_id":"4","last_reported":1704107167,"current_range_meters":24000,"station_id":"ce4bh292rcd13ifvqdf0","pricing_plan_id":"free"},{"bike_id":"a3f9ceb0-d612-4ad8-ad0e-a5c6eaa484ee","system_id":"levelo_inurba_marseille","lat":43.302759,"lon":5.400793,"is_reserved":false,"is_disabled":false,"rental_uris":{"android":"levelo://app?vid=a3f9ceb0-d612-4ad8-ad0e-a5c6eaa484ee","ios":"levelo://app?vid=a3f9ceb0-d612-4ad8-ad0e-a5c6eaa484ee"},"vehicle_type_id":"4","last_reported":1704107167,"current_range_meters":28000,"station_id":"ce4bgvh2rcd13ifvqcs0","pricing_plan_id":"free"},{"bike_id":"8a1efb44-dcea-456e-80f5-3fecc89f9b02","system_id":"levelo_inurba_marseille","lat":43.290345,"lon":5.38646,"is_reserved":false,"is_disabled":false,"rental_uris":{"android":"levelo://app?vid=8a1efb44-dcea-456e-80f5-3fecc89f9b02","ios":"levelo://app?vid=8a1efb44-dcea-456e-80f5-3fecc89f9b02"},"vehicle_type_id":"4","last_reported":1704107167,"current_range_meters":6000,"station_id":"ce4bh4p2rcd13ifvqe0g","pricing_plan_id":"free"},{"bike_id":"6f0c9979-bf42-47f1-8407-329ad1d4c2e0","system_id":"levelo_inurba_marseille","lat":43.302759,"lon":5.400793,"is_reserved":false,"is_disabled":false,"rental_uris":{"android":"levelo://app?vid=6f0c9979-bf42-47f1-8407-329ad1d4c2e0","ios":"levelo://app?vid=6f0c9979-bf42-47f1-8407-329ad1d4c2e0"},"vehicle_type_id":"4","last_reported":1704107167,"current_range_meters":20800,"station_id":"ce4bgvh2rcd13ifvqcs0","pricing_plan_id":"free"},{"bike_id":"133140b9-2d9b-44d4-927b-6b4e2588f628","system_id":"levelo_inurba_marseille","lat":43.298681,"lon":5.397225,"is_reserved":false,"is_disabled":false,"rental_uris":{"android":"levelo://app?vid=133140b9-2d9b-44d4-927b-6b4e2588f628","ios":"levelo://app?vid=133140b9-2d9b-44d4-927b-6b4e2588f628"},"vehicle_type_id":"4","last_reported":1704107167,"current_range_meters":27200,"station_id":"ce4bh0h2rcd13ifvqd50","pricing_plan_id":"free"},{"bike_id":"a32f45e5-7b35-4e4c-b435-e11c51b0e22a","system_id":"levelo_inurba_marseille","lat":43.284214,"lon":5.349706,"is_reserved":false,"is_disabled":false,"rental_uris":{"android":"levelo://app?vid=a32f45e5-7b35-4e4c-b435-e11c51b0e22a","ios":"levelo://app?vid=a32f45e5-7b35-4e4c-b435-e11c51b0e22a"},"vehicle_type_id":"4","last_reported":1704107167,"current_range_meters":18400,"station_id":"ce4bhbh2rcd13ifvqepg","pricing_plan_id":"free"},{"bike_id":"5a04d507-8919-4dc3-a7b6-de5b848a6c92","system_id":"levelo_inurba_marseille","lat":43.316828,"lon":5.404723,"is_reserved":false,"is_disabled":false,"rental_uris":{"android":"levelo://app?vid=5a04d507-8919-4dc3-a7b6-de5b848a6c92","ios":"levelo://app?vid=5a04d507-8919-4dc3-a7b6-de5b848a6c92"},"vehicle_type_id":"4","last_reported":1704107167,"current_range_meters":27200,"station_id":"ce4bh012rcd13ifvqd00","pricing_plan_id":"free"},{"bike_id":"ae0fd938-f7c5-4c2b-a600-cbfe2628e765","system_id":"levelo_inurba_marseille","lat":43.29197,"lon":5.39329,"is_reserved":false,"is_disabled":false,"rental_uris":{"android":"levelo://app?vid=ae0fd938-f7c5-4c2b-a600-cbfe2628e765","ios":"levelo://app?vid=ae0fd938-f7c5-4c2b-a600-cbfe2628e765"},"vehicle_type_id":"4","last_reported":1704107167,"current_range_meters":26000,"station_id":"ce4bh192rcd13ifvqdd0","pricing_plan_id":"free"},{"bike_id":"483053b6-4b08-4692-aee4-bfd1846d4d3d","system_id":"levelo_inurba_marseille","lat":43.286348,"lon":5.352578,"is_reserved":false,"is_disabled":false,"rental_uris":{"android":"levelo://app?vid=483053b6-4b08-4692-aee4-bfd1846d4d3d","ios":"levelo://app?vid=483053b6-4b08-4692-aee4-bfd1846d4d3d"},"vehicle_type_id":"4","last_reported":1704107167,"current_range_meters":24800,"station_id":"ce4bhch2rcd13ifvqeug","pricing_plan_id":"free"},{"bike_id":"5b773cda-79f7-4fb5-ba58-152543e8d999","system_id":"levelo_inurba_marseille","lat":43.294314,"lon":5.397498,"is_reserved":false,"is_disabled":false,"rental_uris":{"android":"levelo://app?vid=5b773cda-79f7-4fb5-ba58-152543e8d999","ios":"levelo://app?vid=5b773cda-79f7-4fb5-ba58-152543e8d999"},"vehicle_type_id":"4","last_reported":1704107167,"current_range_meters":27200,"station_id":"ce4bh3h2rcd13ifvqdo0","pricing_plan_id":"free"},{"bike_id":"2e9e36c0-6122-4cfe-bac7-03161815aaa3","system_id":"levelo_inurba_marseille","lat":43.285856,"lon":5.350771,"is_reserved":false,"is_disabled":false,"rental_uris":{"android":"levelo://app?vid=2e9e36c0-6122-4cfe-bac7-03161815aaa3","ios":"levelo://app?vid=2e9e36c0-6122-4cfe-bac7-03161815aaa3"},"vehicle_type_id":"4","last_reported":1704107167,"current_range_meters":29200,"station_id":"ce4bhch2rcd13ifvqeug","pricing_plan_id":"free"},{"bike_id":"6d6fe783-1222-4da5-8869-6556a448e627","system_id":"levelo_inurba_marseille","lat":43.285856,"lon":5.350771,"is_reserved":false,"is_disabled":false,"rental_uris":{"android":"levelo://app?vid=6d6fe783-1222-4da5-8869-6556a448e627","ios":"levelo://app?vid=6d6fe783-1222-4da5-8869-6556a448e627"},"vehicle_type_id":"4","last_reported":1704107167,"current_range_meters":30800,"station_id":"ce4bhch2rcd13ifvqeug","pricing_plan_id":"free"},{"bike_id":"8ce42364-53e0-4787-8477-4abf7958daaa","system_id":"levelo_inurba_marseille","lat":43.286154,"lon":5.3511,"is_reserved":false,"is_disabled":false,"rental_uris":{"android":"levelo://app?vid=8ce42364-53e0-4787-8477-4abf7958daaa","ios":"levelo://app?vid=8ce42364-53e0-4787-8477-4abf7958daaa"},"vehicle_type_id":"4","last_reported":1704107167,"current_range_meters":22400,"station_id":"","pricing_plan_id":"free"},{"bike_id":"93f1d54e-ba6c-4f06-a606-3a080313111d","system_id":"levelo_inurba_marseille","lat":43.285856,"lon":5.350771,"is_reserved":false,"is_disabled":false,"rental_uris":{"android":"levelo://app?vid=93f1d54e-ba6c-4f06-a606-3a080313111d","ios":"levelo://app?vid=93f1d54e-ba6c-4f06-a606-3a080313111d"},"vehicle_type_id":"4","last_reported":1704107167,"current_range_meters":20800,"station_id":"ce4bhch2rcd13ifvqeug","pricing_plan_id":"free"},{"bike_id":"483d05e9-94e2-4fd3-b55a-84b8972f23be","system_id":"levelo_inurba_marseille","lat":43.285848,"lon":5.350787,"is_reserved":false,"is_disabled":false,"rental_uris":{"android":"levelo://app?vid=483d05e9-94e2-4fd3-b55a-84b8972f23be","ios":"levelo://app?vid=483d05e9-94e2-4fd3-b55a-84b8972f23be"},"vehicle_type_id":"4","last_reported":1704107167,"current_range_meters":20800,"station_id":"ce4bhch2rcd13ifvqeug","pricing_plan_id":"free"},{"bike_id":"1b114ff4-acf6-4ea3-a5f5-1f9d854ad175","system_id":"levelo_inurba_marseille","lat":43.285856,"lon":5.350771,"is_reserved":false,"is_disabled":false,"rental_uris":{"android":"levelo://app?vid=1b114ff4-acf6-4ea3-a5f5-1f9d854ad175","ios":"levelo://app?vid=1b114ff4-acf6-4ea3-a5f5-1f9d854ad175"},"vehicle_type_id":"4","last_reported":1704107167,"current_range_meters":27600,"station_id":"ce4bhch2rcd13ifvqeug","pricing_plan_id":"free"},{"bike_id":"cb2ee55a-ee57-41e5-b85f-bae49a78399d","system_id":"levelo_inurba_marseille","lat":43.28614,"lon":5.351,"is_reserved":false,"is_disabled":false,"rental_uris":{"android":"levelo://app?vid=cb2ee55a-ee57-41e5-b85f-bae49a78399d","ios":"levelo://app?vid=cb2ee55a-ee57-41e5-b85f-bae49a78399d"},"vehicle_type_id":"4","last_reported":1704107167,"current_range_meters":21200,"station_id":"ce4bhch2rcd13ifvqeug","pricing_plan_id":"free"},{"bike_id":"9712f9d9-d7ea-4e92-a7aa-c97565ad50a6","system_id":"levelo_inurba_marseille","lat":43.28613,"lon":5.35099,"is_reserved":false,"is_disabled":false,"rental_uris":{"android":"levelo://app?vid=9712f9d9-d7ea-4e92-a7aa-c97565ad50a6","ios":"levelo://app?vid=9712f9d9-d7ea-4e92-a7aa-c97565ad50a6"},"vehicle_type_id":"4","last_reported":1704107167,"current_range_meters":24000,"station_id":"ce4bhch2rcd13ifvqeug","pricing_plan_id":"free"},{"bike_id":"3ebce117-dcb3-4440-b9ce-07470832ba75","system_id":"levelo_inurba_marseille","lat":43.28611,"lon":5.35103,"is_reserved":false,"is_disabled":false,"rental_uris":{"android":"levelo://app?vid=3ebce117-dcb3-4440-b9ce-07470832ba75","ios":"levelo://app?vid=3ebce117-dcb3-4440-b9ce-07470832ba75"},"vehicle_type_id":"4","last_reported":1704107167,"current_range_meters":800,"station_id":"ce4bhch2rcd13ifvqeug","pricing_plan_id":"free"},{"bike_id":"e92ccb1f-1d93-460f-8975-030d0d54d887","system_id":"levelo_inurba_marseille","lat":43.286053,"lon":5.351145,"is_reserved":false,"is_disabled":false,"rental_uris":{"android":"levelo://app?vid=e92ccb1f-1d93-460f-8975-030d0d54d887","ios":"levelo://app?vid=e92ccb1f-1d93-460f-8975-030d0d54d887"},"vehicle_type_id":"4","last_reported":1704107167,"current_range_meters":26000,"station_id":"ce4bhch2rcd13ifvqeug","pricing_plan_id":"free"},{"bike_id":"c183a73d-a524-4337-b676-43f7789a3af5","system_id":"levelo_inurba_marseille","lat":43.283998,"lon":5.375062,"is_reserved":false,"is_disabled":false,"rental_uris":{"android":"levelo://app?vid=c183a73d-a524-4337-b676-43f7789a3af5","ios":"levelo://app?vid=c183a73d-a524-4337-b676-43f7789a3af5"},"vehicle_type_id":"4","last_reported":1704107167,"current_range_meters":28800,"station_id":"ce4bh412rcd13ifvqds0","pricing_plan_id":"free"},{"bike_id":"4c1e0d8e-f42a-4ff2-82be-eb70e1c68140","system_id":"levelo_inurba_marseille","lat":43.29569,"lon":5.39969,"is_reserved":false,"is_disabled":false,"rental_uris":{"android":"levelo://app?vid=4c1e0d8e-f42a-4ff2-82be-eb70e1c68140","ios":"levelo://app?vid=4c1e0d8e-f42a-4ff2-82be-eb70e1c68140"},"vehicle_type_id":"4","last_reported":1704107167,"current_range_meters":30400,"station_id":"ce4bh312rcd13ifvqdj0","pricing_plan_id":"free"},{"bike_id":"1dae2da8-6641-4146-9fe7-69b5011f2426","system_id":"levelo_inurba_marseille","lat":43.295687,"lon":5.399743,"is_reserved":false,"is_disabled":false,"rental_uris":{"android":"levelo://app?vid=1dae2da8-6641-4146-9fe7-69b5011f2426","ios":"levelo://app?vid=1dae2da8-6641-4146-9fe7-69b5011f2426"},"vehicle_type_id":"4","last_reported":1704107167,"current_range_meters":30400,"station_id":"ce4bh312rcd13ifvqdj0","pricing_plan_id":"free"},{"bike_id":"fe5e9184-0079-45ef-8e10-4eace9743de4","system_id":"levelo_inurba_marseille","lat":43.295713,"lon":5.399639,"is_reserved":false,"is_disabled":false,"rental_uris":{"android":"levelo://app?vid=fe5e9184-0079-45ef-8e10-4eace9743de4","ios":"levelo://app?vid=fe5e9184-0079-45ef-8e10-4eace9743de4"},"vehicle_type_id":"4","last_reported":1704107167,"current_range_meters":28000,"station_id":"ce4bh312rcd13ifvqdj0","pricing_plan_id":"free"},{"bike_id":"88802ce1-4454-4534-b7c2-0d86344015ce","system_id":"levelo_inurba_marseille","lat":43.295713,"lon":5.399639,"is_reserved":false,"is_disabled":false,"rental_uris":{"android":"levelo://app?vid=88802ce1-4454-4534-b7c2-0d86344015ce","ios":"levelo://app?vid=88802ce1-4454-4534-b7c2-0d86344015ce"},"vehicle_type_id":"4","last_reported":1704107167,"current_range_meters":30400,"station_id":"ce4bh312rcd13ifvqdj0","pricing_plan_id":"free"},{"bike_id":"bebf3d47-a756-4c10-b4f3-0e9cff044cbf","system_id":"levelo_inurba_marseille","lat":43.286836,"lon":5.386638,"is_reserved":false,"is_disabled":false,"rental_uris":{"android":"levelo://app?vid=bebf3d47-a756-4c10-b4f3-0e9cff044cbf","ios":"levelo://app?vid=bebf3d47-a756-4c10-b4f3-0e9cff044cbf"},"vehicle_type_id":"4","last_reported":1704107167,"current_range_meters":29600,"station_id":"ce4bh492rcd13ifvqdug","pricing_plan_id":"free"},{"bike_id":"0248343b-f815-4373-8902-881f323eac7c","system_id":"levelo_inurba_marseille","lat":43.28675,"lon":5.38659,"is_reserved":false,"is_disabled":false,"rental_uris":{"android":"levelo://app?vid=0248343b-f815-4373-8902-881f323eac7c","ios":"levelo://app?vid=0248343b-f815-4373-8902-881f323eac7c"},"vehicle_type_id":"4","last_reported":1704107167,"current_range_meters":29200,"station_id":"ce4bh492rcd13ifvqdug","pricing_plan_id":"free"},{"bike_id":"1104ccd1-9157-49ab-841b-de621b8c2554","system_id":"levelo_inurba_marseille","lat":43.286725,"lon":5.38658,"is_reserved":false,"is_disabled":false,"rental_uris":{"android":"levelo://app?vid=1104ccd1-9157-49ab-841b-de621b8c2554","ios":"levelo://app?vid=1104ccd1-9157-49ab-841b-de621b8c2554"},"vehicle_type_id":"4","last_reported":1704107167,"current_range_meters":14000,"station_id":"ce4bh492rcd13ifvqdug","pricing_plan_id":"free"},{"bike_id":"1ee156fe-044f-4acd-8531-38303b9ca20d","system_id":"levelo_inurba_marseille","lat":43.286595,"lon":5.386795,"is_reserved":false,"is_disabled":false,"rental_uris":{"android":"levelo://app?vid=1ee156fe-044f-4acd-8531-38303b9ca20d","ios":"levelo://app?vid=1ee156fe-044f-4acd-8531-38303b9ca20d"},"vehicle_type_id":"4","last_reported":1704107167,"current_range_meters":22800,"station_id":"ce4bh492rcd13ifvqdug","pricing_plan_id":"free"},{"bike_id":"9c89ccbb-1205-42f3-9670-7f7c8e469aa6","system_id":"levelo_inurba_marseille","lat":43.323464,"lon":5.406297,"is_reserved":false,"is_disabled":false,"rental_uris":{"android":"levelo://app?vid=9c89ccbb-1205-42f3-9670-7f7c8e469aa6","ios":"levelo://app?vid=9c89ccbb-1205-42f3-9670-7f7c8e469aa6"},"vehicle_type_id":"4","last_reported":1704107167,"current_range_meters":28000,"station_id":"ce4bhq92rcd13ifvqhjg","pricing_plan_id":"free"},{"bike_id":"8af6642b-e526-4770-8a06-6b115e68c32b","system_id":"levelo_inurba_marseille","lat":43.33728,"lon":5.39177,"is_reserved":false,"is_disabled":false,"rental_uris":{"android":"levelo://app?vid=8af6642b-e526-4770-8a06-6b115e68c32b","ios":"levelo://app?vid=8af6642b-e526-4770-8a06-6b115e68c32b"},"vehicle_type_id":"4","last_reported":1704107167,"current_range_meters":25600,"station_id":"ce4bhr92rcd13ifvqhsg","pricing_plan_id":"free"},{"bike_id":"1860c054-e673-4084-804e-8832a59aeb53","system_id":"levelo_inurba_marseille","lat":43.337168,"lon":5.391825,"is_reserved":false,"is_disabled":false,"rental_uris":{"android":"levelo://app?vid=1860c054-e673-4084-804e-8832a59aeb53","ios":"levelo://app?vid=1860c054-e673-4084-804e-8832a59aeb53"},"vehicle_type_id":"4","last_reported":1704107167,"current_range_meters":28800,"station_id":"ce4bhr92rcd13ifvqhsg","pricing_plan_id":"free"},{"bike_id":"cd40f12f-969d-4461-bb26-5730689c65fa","system_id":"levelo_inurba_marseille","lat":43.297946,"lon":5.404063,"is_reserved":false,"is_disabled":false,"rental_uris":{"android":"levelo://app?vid=cd40f12f-969d-4461-bb26-5730689c65fa","ios":"levelo://app?vid=cd40f12f-969d-4461-bb26-5730689c65fa"},"vehicle_type_id":"4","last_reported":1704107167,"current_range_meters":27600,"station_id":"ce4bh112rcd13ifvqd90","pricing_plan_id":"free"},{"bike_id":"73baccf2-2f35-40cb-b44e-6d50cd41c007","system_id":"levelo_inurba_marseille","lat":43.29795,"lon":5.404086,"is_reserved":false,"is_disabled":false,"rental_uris":{"android":"levelo://app?vid=73baccf2-2f35-40cb-b44e-6d50cd41c007","ios":"levelo://app?vid=73baccf2-2f35-40cb-b44e-6d50cd41c007"},"vehicle_type_id":"4","last_reported":1704107167,"current_range_meters":23200,"station_id":"ce4bh112rcd13ifvqd90","pricing_plan_id":"free"},{"bike_id":"4d596014-02c1-43ee-b3e0-efc2b6f1b029","system_id":"levelo_inurba_marseille","lat":43.275625,"lon":5.384392,"is_reserved":false,"is_disabled":false,"rental_uris":{"android":"levelo://app?vid=4d596014-02c1-43ee-b3e0-efc2b6f1b029","ios":"levelo://app?vid=4d596014-02c1-43ee-b3e0-efc2b6f1b029"},"vehicle_type_id":"4","last_reported":1704107167,"current_range_meters":21200,"station_id":"ce4bhh92rcd13ifvqfi0","pricing_plan_id":"free"},{"bike_id":"120d5a9a-a624-4c06-b2f5-9ced509a93d8","system_id":"levelo_inurba_marseille","lat":43.288501,"lon":5.393087,"is_reserved":false,"is_disabled":false,"rental_uris":{"android":"levelo://app?vid=120d5a9a-a624-4c06-b2f5-9ced509a93d8","ios":"levelo://app?vid=120d5a9a-a624-4c06-b2f5-9ced509a93d8"},"vehicle_type_id":"4","last_reported":1704107167,"current_range_meters":23200,"station_id":"ce4bh2p2rcd13ifvqdi0","pricing_plan_id":"free"},{"bike_id":"6e2658c3-ee1d-4a87-bc80-9fc40d9c8421","system_id":"levelo_inurba_marseille","lat":43.284219,"lon":5.3497,"is_reserved":false,"is_disabled":false,"rental_uris":{"android":"levelo://app?vid=6e2658c3-ee1d-4a87-bc80-9fc40d9c8421","ios":"levelo://app?vid=6e2658c3-ee1d-4a87-bc80-9fc40d9c8421"},"vehicle_type_id":"4","last_reported":1704107167,"current_range_meters":27200,"station_id":"ce4bhbh2rcd13ifvqepg","pricing_plan_id":"free"},{"bike_id":"07ce3283-9bab-40bf-8b26-72b3cfef7452","system_id":"levelo_inurba_marseille","lat":43.284219,"lon":5.3497,"is_reserved":false,"is_disabled":false,"rental_uris":{"android":"levelo://app?vid=07ce3283-9bab-40bf-8b26-72b3cfef7452","ios":"levelo://app?vid=07ce3283-9bab-40bf-8b26-72b3cfef7452"},"vehicle_type_id":"4","last_reported":1704107167,"current_range_meters":31600,"station_id":"ce4bhbh2rcd13ifvqepg","pricing_plan_id":"free"},{"bike_id":"fddd2611-feab-4620-876b-52cc1e62e134","system_id":"levelo_inurba_marseille","lat":43.284219,"lon":5.3497,"is_reserved":false,"is_disabled":false,"rental_uris":{"android":"levelo://app?vid=fddd2611-feab-4620-876b-52cc1e62e134","ios":"levelo://app?vid=fddd2611-feab-4620-876b-52cc1e62e134"},"vehicle_type_id":"4","last_reported":1704107167,"current_range_meters":31600,"station_id":"ce4bhbh2rcd13ifvqepg","pricing_plan_id":"free"},{"bike_id":"815df7b1-eb70-49f9-9b93-bdef005a1639","system_id":"levelo_inurba_marseille","lat":43.284219,"lon":5.3497,"is_reserved":false,"is_disabled":false,"rental_uris":{"android":"levelo://app?vid=815df7b1-eb70-49f9-9b93-bdef005a1639","ios":"levelo://app?vid=815df7b1-eb70-49f9-9b93-bdef005a1639"},"vehicle_type_id":"4","last_reported":1704107167,"current_range_meters":30800,"station_id":"ce4bhbh2rcd13ifvqepg","pricing_plan_id":"free"},{"bike_id":"d731d671-a3f5-4243-ac4b-1201edd40e88","system_id":"levelo_inurba_marseille","lat":43.284217,"lon":5.349697,"is_reserved":false,"is_disabled":false,"rental_uris":{"android":"levelo://app?vid=d731d671-a3f5-4243-ac4b-1201edd40e88","ios":"levelo://app?vid=d731d671-a3f5-4243-ac4b-1201edd40e88"},"vehicle_type_id":"4","last_reported":1704107167,"current_range_meters":31600,"station_id":"ce4bhbh2rcd13ifvqepg","pricing_plan_id":"free"},{"bike_id":"6e0c86f5-363f-4caf-8f4f-af8be23e909b","system_id":"levelo_inurba_marseille","lat":43.284217,"lon":5.349697,"is_reserved":false,"is_disabled":false,"rental_uris":{"android":"levelo://app?vid=6e0c86f5-363f-4caf-8f4f-af8be23e909b","ios":"levelo://app?vid=6e0c86f5-363f-4caf-8f4f-af8be23e909b"},"vehicle_type_id":"4","last_reported":1704107167,"current_range_meters":24800,"station_id":"ce4bhbh2rcd13ifvqepg","pricing_plan_id":"free"},{"bike_id":"bf484915-3c31-461f-a9d2-7ffde0d90705","system_id":"levelo_inurba_marseille","lat":43.284217,"lon":5.349697,"is_reserved":false,"is_disabled":false,"rental_uris":{"android":"levelo://app?vid=bf484915-3c31-461f-a9d2-7ffde0d90705","ios":"levelo://app?vid=bf484915-3c31-461f-a9d2-7ffde0d90705"},"vehicle_type_id":"4","last_reported":1704107167,"current_range_meters":20000,"station_id":"ce4bhbh2rcd13ifvqepg","pricing_plan_id":"free"},{"bike_id":"ca15616b-bc32-4f31-a472-8a68ce715a48","system_id":"levelo_inurba_marseille","lat":43.284219,"lon":5.3497,"is_reserved":false,"is_disabled":false,"rental_uris":{"android":"levelo://app?vid=ca15616b-bc32-4f31-a472-8a68ce715a48","ios":"levelo://app?vid=ca15616b-bc32-4f31-a472-8a68ce715a48"},"vehicle_type_id":"4","last_reported":1704107167,"current_range_meters":4400,"station_id":"ce4bhbh2rcd13ifvqepg","pricing_plan_id":"free"},{"bike_id":"c4842957-daa2-4150-9acd-bbbe2df74d61","system_id":"levelo_inurba_marseille","lat":43.28414,"lon":5.34989,"is_reserved":false,"is_disabled":false,"rental_uris":{"android":"levelo://app?vid=c4842957-daa2-4150-9acd-bbbe2df74d61","ios":"levelo://app?vid=c4842957-daa2-4150-9acd-bbbe2df74d61"},"vehicle_type_id":"4","last_reported":1704107167,"current_range_meters":25200,"station_id":"ce4bhbh2rcd13ifvqepg","pricing_plan_id":"free"},{"bike_id":"c20779b9-7757-4192-8380-00e6cdf94e68","system_id":"levelo_inurba_marseille","lat":43.282754,"lon":5.350519,"is_reserved":false,"is_disabled":false,"rental_uris":{"android":"levelo://app?vid=c20779b9-7757-4192-8380-00e6cdf94e68","ios":"levelo://app?vid=c20779b9-7757-4192-8380-00e6cdf94e68"},"vehicle_type_id":"4","last_reported":1704107167,"current_range_meters":22400,"station_id":"ce4bhbp2rcd13ifvqerg","pricing_plan_id":"free"},{"bike_id":"ae9b5b7b-7d95-4d4e-8fff-463092812ce8","system_id":"levelo_inurba_marseille","lat":43.2828,"lon":5.35064,"is_reserved":false,"is_disabled":false,"rental_uris":{"android":"levelo://app?vid=ae9b5b7b-7d95-4d4e-8fff-463092812ce8","ios":"levelo://app?vid=ae9b5b7b-7d95-4d4e-8fff-463092812ce8"},"vehicle_type_id":"4","last_reported":1704107167,"current_range_meters":23200,"station_id":"ce4bhbp2rcd13ifvqerg","pricing_plan_id":"free"},{"bike_id":"0e6a5223-be83-4b35-9f82-cfa0e4e2eec5","system_id":"levelo_inurba_marseille","lat":43.282754,"lon":5.350519,"is_reserved":false,"is_disabled":false,"rental_uris":{"android":"levelo://app?vid=0e6a5223-be83-4b35-9f82-cfa0e4e2eec5","ios":"levelo://app?vid=0e6a5223-be83-4b35-9f82-cfa0e4e2eec5"},"vehicle_type_id":"4","last_reported":1704107167,"current_range_meters":29600,"station_id":"ce4bhbp2rcd13ifvqerg","pricing_plan_id":"free"},{"bike_id":"bdf49905-920b-42a7-b34a-4afd69b8e0b3","system_id":"levelo_inurba_marseille","lat":43.28271,"lon":5.35065,"is_reserved":false,"is_disabled":false,"rental_uris":{"android":"levelo://app?vid=bdf49905-920b-42a7-b34a-4afd69b8e0b3","ios":"levelo://app?vid=bdf49905-920b-42a7-b34a-4afd69b8e0b3"},"vehicle_type_id":"4","last_reported":1704107167,"current_range_meters":16000,"station_id":"ce4bhbp2rcd13ifvqerg","pricing_plan_id":"free"},{"bike_id":"906badcf-d8c0-4cd9-9d8a-e48749822c0c","system_id":"levelo_inurba_marseille","lat":43.283502,"lon":5.386471,"is_reserved":false,"is_disabled":false,"rental_uris":{"android":"levelo://app?vid=906badcf-d8c0-4cd9-9d8a-e48749822c0c","ios":"levelo://app?vid=906badcf-d8c0-4cd9-9d8a-e48749822c0c"},"vehicle_type_id":"4","last_reported":1704107167,"current_range_meters":27600,"station_id":"ce4bh492rcd13ifvqdvg","pricing_plan_id":"free"},{"bike_id":"478ea88e-c405-403d-a627-8dfc8e2d7cbc","system_id":"levelo_inurba_marseille","lat":43.280369,"lon":5.369379,"is_reserved":false,"is_disabled":false,"rental_uris":{"android":"levelo://app?vid=478ea88e-c405-403d-a627-8dfc8e2d7cbc","ios":"levelo://app?vid=478ea88e-c405-403d-a627-8dfc8e2d7cbc"},"vehicle_type_id":"4","last_reported":1704107167,"current_range_meters":31200,"station_id":"ce4bha12rcd13ifvqef0","pricing_plan_id":"free"},{"bike_id":"784d0d32-a607-4226-b336-1b61e44b43e3","system_id":"levelo_inurba_marseille","lat":43.28036,"lon":5.369396,"is_reserved":false,"is_disabled":false,"rental_uris":{"android":"levelo://app?vid=784d0d32-a607-4226-b336-1b61e44b43e3","ios":"levelo://app?vid=784d0d32-a607-4226-b336-1b61e44b43e3"},"vehicle_type_id":"4","last_reported":1704107167,"current_range_meters":29600,"station_id":"ce4bha12rcd13ifvqef0","pricing_plan_id":"free"},{"bike_id":"add29ff1-aa73-43c8-8d1c-bee5e397b96d","system_id":"levelo_inurba_marseille","lat":43.280382,"lon":5.369291,"is_reserved":false,"is_disabled":false,"rental_uris":{"android":"levelo://app?vid=add29ff1-aa73-43c8-8d1c-bee5e397b96d","ios":"levelo://app?vid=add29ff1-aa73-43c8-8d1c-bee5e397b96d"},"vehicle_type_id":"4","last_reported":1704107167,"current_range_meters":29200,"station_id":"ce4bha12rcd13ifvqef0","pricing_plan_id":"free"},{"bike_id":"90ec1a9d-ccff-4a21-9cfc-32fb0df34b6c","system_id":"levelo_inurba_marseille","lat":43.280382,"lon":5.369291,"is_reserved":false,"is_disabled":false,"rental_uris":{"android":"levelo://app?vid=90ec1a9d-ccff-4a21-9cfc-32fb0df34b6c","ios":"levelo://app?vid=90ec1a9d-ccff-4a21-9cfc-32fb0df34b6c"},"vehicle_type_id":"4","last_reported":1704107167,"current_range_meters":30800,"station_id":"ce4bha12rcd13ifvqef0","pricing_plan_id":"free"},{"bike_id":"92b4fd33-3133-4c8a-b8e7-7c2f680a9df5","system_id":"levelo_inurba_marseille","lat":43.292571,"lon":5.409107,"is_reserved":false,"is_disabled":false,"rental_uris":{"android":"levelo://app?vid=92b4fd33-3133-4c8a-b8e7-7c2f680a9df5","ios":"levelo://app?vid=92b4fd33-3133-4c8a-b8e7-7c2f680a9df5"},"vehicle_type_id":"4","last_reported":1704107167,"current_range_meters":18000,"station_id":"ce4bh192rcd13ifvqdc0","pricing_plan_id":"free"},{"bike_id":"d44eda0b-0f63-4d7c-9c13-e6a878faef2e","system_id":"levelo_inurba_marseille","lat":43.281044,"lon":5.378308,"is_reserved":false,"is_disabled":false,"rental_uris":{"android":"levelo://app?vid=d44eda0b-0f63-4d7c-9c13-e6a878faef2e","ios":"levelo://app?vid=d44eda0b-0f63-4d7c-9c13-e6a878faef2e"},"vehicle_type_id":"4","last_reported":1704107167,"current_range_meters":23200,"station_id":"ce4bha12rcd13ifvqee0","pricing_plan_id":"free"},{"bike_id":"f5cfc57c-9449-420f-a4b5-3b9f1b89e3ad","system_id":"levelo_inurba_marseille","lat":43.284462,"lon":5.392121,"is_reserved":false,"is_disabled":false,"rental_uris":{"android":"levelo://app?vid=f5cfc57c-9449-420f-a4b5-3b9f1b89e3ad","ios":"levelo://app?vid=f5cfc57c-9449-420f-a4b5-3b9f1b89e3ad"},"vehicle_type_id":"4","last_reported":1704107167,"current_range_meters":28000,"station_id":"ce4bhoh2rcd13ifvqh5g","pricing_plan_id":"free"},{"bike_id":"f182ad30-578d-439a-b895-037c49f93cbb","system_id":"levelo_inurba_marseille","lat":43.28573,"lon":5.394992,"is_reserved":false,"is_disabled":false,"rental_uris":{"android":"levelo://app?vid=f182ad30-578d-439a-b895-037c49f93cbb","ios":"levelo://app?vid=f182ad30-578d-439a-b895-037c49f93cbb"},"vehicle_type_id":"4","last_reported":1704107167,"current_range_meters":28400,"station_id":"ce4bh292rcd13ifvqdg0","pricing_plan_id":"free"},{"bike_id":"f9b0a9c8-24c1-4156-a225-5ec62d466306","system_id":"levelo_inurba_marseille","lat":43.326605,"lon":5.409903,"is_reserved":false,"is_disabled":false,"rental_uris":{"android":"levelo://app?vid=f9b0a9c8-24c1-4156-a225-5ec62d466306","ios":"levelo://app?vid=f9b0a9c8-24c1-4156-a225-5ec62d466306"},"vehicle_type_id":"4","last_reported":1704107167,"current_range_meters":22000,"station_id":"ce4bhpp2rcd13ifvqhgg","pricing_plan_id":"free"},{"bike_id":"a5c78c94-ab80-4491-a55e-a6986d3c83d7","system_id":"levelo_inurba_marseille","lat":43.326605,"lon":5.409903,"is_reserved":false,"is_disabled":false,"rental_uris":{"android":"levelo://app?vid=a5c78c94-ab80-4491-a55e-a6986d3c83d7","ios":"levelo://app?vid=a5c78c94-ab80-4491-a55e-a6986d3c83d7"},"vehicle_type_id":"4","last_reported":1704107167,"current_range_meters":24000,"station_id":"ce4bhpp2rcd13ifvqhgg","pricing_plan_id":"free"},{"bike_id":"a62a7b57-6cf1-4018-8ab6-aed877c112fd","system_id":"levelo_inurba_marseille","lat":43.299579,"lon":5.413255,"is_reserved":false,"is_disabled":false,"rental_uris":{"android":"levelo://app?vid=a62a7b57-6cf1-4018-8ab6-aed877c112fd","ios":"levelo://app?vid=a62a7b57-6cf1-4018-8ab6-aed877c112fd"},"vehicle_type_id":"4","last_reported":1704107167,"current_range_meters":30000,"station_id":"ce4bhp12rcd13ifvqh9g","pricing_plan_id":"free"},{"bike_id":"f563e24c-50a7-4d61-87ca-a61665f61479","system_id":"levelo_inurba_marseille","lat":43.320045,"lon":5.415048,"is_reserved":false,"is_disabled":false,"rental_uris":{"android":"levelo://app?vid=f563e24c-50a7-4d61-87ca-a61665f61479","ios":"levelo://app?vid=f563e24c-50a7-4d61-87ca-a61665f61479"},"vehicle_type_id":"4","last_reported":1704107167,"current_range_meters":28000,"station_id":"ce4bhq92rcd13ifvqhkg","pricing_plan_id":"free"},{"bike_id":"1fb8b3d9-4f81-41b4-a93b-bbd0cee0edb7","system_id":"levelo_inurba_marseille","lat":43.279742,"lon":5.38744,"is_reserved":false,"is_disabled":false,"rental_uris":{"android":"levelo://app?vid=1fb8b3d9-4f81-41b4-a93b-bbd0cee0edb7","ios":"levelo://app?vid=1fb8b3d9-4f81-41b4-a93b-bbd0cee0edb7"},"vehicle_type_id":"4","last_reported":1704107167,"current_range_meters":27600,"station_id":"ce4bhg12rcd13ifvqf80","pricing_plan_id":"free"},{"bike_id":"3b58789a-b344-4ae4-ba73-fa3de2c62c54","system_id":"levelo_inurba_marseille","lat":43.279742,"lon":5.38744,"is_reserved":false,"is_disabled":false,"rental_uris":{"android":"levelo://app?vid=3b58789a-b344-4ae4-ba73-fa3de2c62c54","ios":"levelo://app?vid=3b58789a-b344-4ae4-ba73-fa3de2c62c54"},"vehicle_type_id":"4","last_reported":1704107167,"current_range_meters":31200,"station_id":"ce4bhg12rcd13ifvqf80","pricing_plan_id":"free"},{"bike_id":"4b647f7c-7637-4d83-9c3a-3a9ed3b89804","system_id":"levelo_inurba_marseille","lat":43.336134,"lon":5.410341,"is_reserved":false,"is_disabled":false,"rental_uris":{"android":"levelo://app?vid=4b647f7c-7637-4d83-9c3a-3a9ed3b89804","ios":"levelo://app?vid=4b647f7c-7637-4d83-9c3a-3a9ed3b89804"},"vehicle_type_id":"4","last_reported":1704107167,"current_range_meters":30400,"station_id":"ce4bhqh2rcd13ifvqhmg","pricing_plan_id":"free"},{"bike_id":"d7b74a6d-0877-49d9-9407-79f632a404ca","system_id":"levelo_inurba_marseille","lat":43.27618,"lon":5.361009,"is_reserved":false,"is_disabled":false,"rental_uris":{"android":"levelo://app?vid=d7b74a6d-0877-49d9-9407-79f632a404ca","ios":"levelo://app?vid=d7b74a6d-0877-49d9-9407-79f632a404ca"},"vehicle_type_id":"4","last_reported":1704107167,"current_range_meters":30400,"station_id":"ce4bgj92rcd13ifvqbe0","pricing_plan_id":"free"},{"bike_id":"c058b825-6b65-409c-8371-7d381cccaa9f","system_id":"levelo_inurba_marseille","lat":43.276179,"lon":5.361009,"is_reserved":false,"is_disabled":false,"rental_uris":{"android":"levelo://app?vid=c058b825-6b65-409c-8371-7d381cccaa9f","ios":"levelo://app?vid=c058b825-6b65-409c-8371-7d381cccaa9f"},"vehicle_type_id":"4","last_reported":1704107167,"current_range_meters":22400,"station_id":"ce4bgj92rcd13ifvqbe0","pricing_plan_id":"free"},{"bike_id":"52710c2c-e727-4072-b4b3-43bca13f4228","system_id":"levelo_inurba_marseille","lat":43.280784,"lon":5.396622,"is_reserved":false,"is_disabled":false,"rental_uris":{"android":"levelo://app?vid=52710c2c-e727-4072-b4b3-43bca13f4228","ios":"levelo://app?vid=52710c2c-e727-4072-b4b3-43bca13f4228"},"vehicle_type_id":"4","last_reported":1704107167,"current_range_meters":23600,"station_id":"ce4bho12rcd13ifvqh2g","pricing_plan_id":"free"},{"bike_id":"e1838f9f-299f-437d-abd8-4f286644fe17","system_id":"levelo_inurba_marseille","lat":43.280784,"lon":5.396622,"is_reserved":false,"is_disabled":false,"rental_uris":{"android":"levelo://app?vid=e1838f9f-299f-437d-abd8-4f286644fe17","ios":"levelo://app?vid=e1838f9f-299f-437d-abd8-4f286644fe17"},"vehicle_type_id":"4","last_reported":1704107167,"current_range_meters":26800,"station_id":"ce4bho12rcd13ifvqh2g","pricing_plan_id":"free"},{"bike_id":"be3ec271-7530-4ff6-b953-1818862c2710","system_id":"levelo_inurba_marseille","lat":43.303837,"lon":5.418724,"is_reserved":false,"is_disabled":false,"rental_uris":{"android":"levelo://app?vid=be3ec271-7530-4ff6-b953-1818862c2710","ios":"levelo://app?vid=be3ec271-7530-4ff6-b953-1818862c2710"},"vehicle_type_id":"4","last_reported":1704107167,"current_range_meters":29200,"station_id":"ce4bhop2rcd13ifvqh7g","pricing_plan_id":"free"},{"bike_id":"34daea28-8992-4678-a245-7adf6c2df2f0","system_id":"levelo_inurba_marseille","lat":43.278401,"lon":5.392152,"is_reserved":false,"is_disabled":false,"rental_uris":{"android":"levelo://app?vid=34daea28-8992-4678-a245-7adf6c2df2f0","ios":"levelo://app?vid=34daea28-8992-4678-a245-7adf6c2df2f0"},"vehicle_type_id":"4","last_reported":1704107167,"current_range_meters":26400,"station_id":"ce4bhjp2rcd13ifvqga0","pricing_plan_id":"free"},{"bike_id":"368ee7d7-ca1c-486e-8d04-99e33067d674","system_id":"levelo_inurba_marseille","lat":43.278399,"lon":5.392139,"is_reserved":false,"is_disabled":false,"rental_uris":{"android":"levelo://app?vid=368ee7d7-ca1c-486e-8d04-99e33067d674","ios":"levelo://app?vid=368ee7d7-ca1c-486e-8d04-99e33067d674"},"vehicle_type_id":"4","last_reported":1704107167,"current_range_meters":26000,"station_id":"ce4bhjp2rcd13ifvqga0","pricing_plan_id":"free"},{"bike_id":"4717b55e-7de6-48c5-9744-3b221756249e","system_id":"levelo_inurba_marseille","lat":43.273613,"lon":5.362705,"is_reserved":false,"is_disabled":false,"rental_uris":{"android":"levelo://app?vid=4717b55e-7de6-48c5-9744-3b221756249e","ios":"levelo://app?vid=4717b55e-7de6-48c5-9744-3b221756249e"},"vehicle_type_id":"4","last_reported":1704107167,"current_range_meters":24800,"station_id":"ce4bhbh2rcd13ifvqeo0","pricing_plan_id":"free"},{"bike_id":"6062380a-6af2-4bc6-9057-30fe66edd11a","system_id":"levelo_inurba_marseille","lat":43.275625,"lon":5.384392,"is_reserved":false,"is_disabled":false,"rental_uris":{"android":"levelo://app?vid=6062380a-6af2-4bc6-9057-30fe66edd11a","ios":"levelo://app?vid=6062380a-6af2-4bc6-9057-30fe66edd11a"},"vehicle_type_id":"4","last_reported":1704107167,"current_range_meters":24800,"station_id":"ce4bhh92rcd13ifvqfi0","pricing_plan_id":"free"},{"bike_id":"44fea3e7-1f36-4452-9530-2d42c71f56e8","system_id":"levelo_inurba_marseille","lat":43.273609,"lon":5.362708,"is_reserved":false,"is_disabled":false,"rental_uris":{"android":"levelo://app?vid=44fea3e7-1f36-4452-9530-2d42c71f56e8","ios":"levelo://app?vid=44fea3e7-1f36-4452-9530-2d42c71f56e8"},"vehicle_type_id":"4","last_reported":1704107167,"current_range_meters":30400,"station_id":"ce4bhbh2rcd13ifvqeo0","pricing_plan_id":"free"},{"bike_id":"824ef797-2a4e-4785-bf6d-29e20bce20dc","system_id":"levelo_inurba_marseille","lat":43.273613,"lon":5.362705,"is_reserved":false,"is_disabled":false,"rental_uris":{"android":"levelo://app?vid=824ef797-2a4e-4785-bf6d-29e20bce20dc","ios":"levelo://app?vid=824ef797-2a4e-4785-bf6d-29e20bce20dc"},"vehicle_type_id":"4","last_reported":1704107167,"current_range_meters":30000,"station_id":"ce4bhbh2rcd13ifvqeo0","pricing_plan_id":"free"},{"bike_id":"8588751c-146b-43e8-9cef-4436cc04a621","system_id":"levelo_inurba_marseille","lat":43.275625,"lon":5.384392,"is_reserved":false,"is_disabled":false,"rental_uris":{"android":"levelo://app?vid=8588751c-146b-43e8-9cef-4436cc04a621","ios":"levelo://app?vid=8588751c-146b-43e8-9cef-4436cc04a621"},"vehicle_type_id":"4","last_reported":1704107167,"current_range_meters":28000,"station_id":"ce4bhh92rcd13ifvqfi0","pricing_plan_id":"free"},{"bike_id":"397158e4-4280-4303-9c12-7481d5f0dd18","system_id":"levelo_inurba_marseille","lat":43.336134,"lon":5.410341,"is_reserved":false,"is_disabled":false,"rental_uris":{"android":"levelo://app?vid=397158e4-4280-4303-9c12-7481d5f0dd18","ios":"levelo://app?vid=397158e4-4280-4303-9c12-7481d5f0dd18"},"vehicle_type_id":"4","last_reported":1704107167,"current_range_meters":31200,"station_id":"ce4bhqh2rcd13ifvqhmg","pricing_plan_id":"free"},{"bike_id":"4d05d184-fbc7-459b-9155-c27fc2b76dab","system_id":"levelo_inurba_marseille","lat":43.340804,"lon":5.410219,"is_reserved":false,"is_disabled":false,"rental_uris":{"android":"levelo://app?vid=4d05d184-fbc7-459b-9155-c27fc2b76dab","ios":"levelo://app?vid=4d05d184-fbc7-459b-9155-c27fc2b76dab"},"vehicle_type_id":"4","last_reported":1704107167,"current_range_meters":24400,"station_id":"ce4bhqh2rcd13ifvqhlg","pricing_plan_id":"free"},{"bike_id":"d28334e4-340b-403b-a4f9-6cf4990a38be","system_id":"levelo_inurba_marseille","lat":43.276771,"lon":5.388799,"is_reserved":false,"is_disabled":false,"rental_uris":{"android":"levelo://app?vid=d28334e4-340b-403b-a4f9-6cf4990a38be","ios":"levelo://app?vid=d28334e4-340b-403b-a4f9-6cf4990a38be"},"vehicle_type_id":"4","last_reported":1704107167,"current_range_meters":22800,"station_id":"ce4bhi12rcd13ifvqfo0","pricing_plan_id":"free"},{"bike_id":"838e390a-0d2f-44c2-87a4-d40aabcd8ccc","system_id":"levelo_inurba_marseille","lat":43.27671,"lon":5.389198,"is_reserved":false,"is_disabled":false,"rental_uris":{"android":"levelo://app?vid=838e390a-0d2f-44c2-87a4-d40aabcd8ccc","ios":"levelo://app?vid=838e390a-0d2f-44c2-87a4-d40aabcd8ccc"},"vehicle_type_id":"4","last_reported":1704107167,"current_range_meters":1200,"station_id":"","pricing_plan_id":"free"},{"bike_id":"ad8ead7b-2150-462d-9ff1-f4303c6e32bd","system_id":"levelo_inurba_marseille","lat":43.279952,"lon":5.400085,"is_reserved":false,"is_disabled":false,"rental_uris":{"android":"levelo://app?vid=ad8ead7b-2150-462d-9ff1-f4303c6e32bd","ios":"levelo://app?vid=ad8ead7b-2150-462d-9ff1-f4303c6e32bd"},"vehicle_type_id":"4","last_reported":1704107167,"current_range_meters":25200,"station_id":"ce4bho92rcd13ifvqh4g","pricing_plan_id":"free"},{"bike_id":"9538348d-498b-442e-aa22-ec1eec7d72dc","system_id":"levelo_inurba_marseille","lat":43.310785,"lon":5.424305,"is_reserved":false,"is_disabled":false,"rental_uris":{"android":"levelo://app?vid=9538348d-498b-442e-aa22-ec1eec7d72dc","ios":"levelo://app?vid=9538348d-498b-442e-aa22-ec1eec7d72dc"},"vehicle_type_id":"4","last_reported":1704107167,"current_range_meters":19200,"station_id":"ce4bhp92rcd13ifvqhag","pricing_plan_id":"free"},{"bike_id":"5285e27f-da4f-4726-9ead-ee955e24ad2a","system_id":"levelo_inurba_marseille","lat":43.310785,"lon":5.424305,"is_reserved":false,"is_disabled":false,"rental_uris":{"android":"levelo://app?vid=5285e27f-da4f-4726-9ead-ee955e24ad2a","ios":"levelo://app?vid=5285e27f-da4f-4726-9ead-ee955e24ad2a"},"vehicle_type_id":"4","last_reported":1704107167,"current_range_meters":31600,"station_id":"ce4bhp92rcd13ifvqhag","pricing_plan_id":"free"},{"bike_id":"d4aca6bd-0ba7-4333-9668-35edaf7e8bb8","system_id":"levelo_inurba_marseille","lat":43.274103,"lon":5.394016,"is_reserved":false,"is_disabled":false,"rental_uris":{"android":"levelo://app?vid=d4aca6bd-0ba7-4333-9668-35edaf7e8bb8","ios":"levelo://app?vid=d4aca6bd-0ba7-4333-9668-35edaf7e8bb8"},"vehicle_type_id":"4","last_reported":1704107167,"current_range_meters":30000,"station_id":"ce4bhdp2rcd13ifvqf20","pricing_plan_id":"free"},{"bike_id":"cdfa6dd1-e517-46ca-b0db-875a041abec8","system_id":"levelo_inurba_marseille","lat":43.304096,"lon":5.425385,"is_reserved":false,"is_disabled":false,"rental_uris":{"android":"levelo://app?vid=cdfa6dd1-e517-46ca-b0db-875a041abec8","ios":"levelo://app?vid=cdfa6dd1-e517-46ca-b0db-875a041abec8"},"vehicle_type_id":"4","last_reported":1704107167,"current_range_meters":24800,"station_id":"ce4bhoh2rcd13ifvqh6g","pricing_plan_id":"free"},{"bike_id":"b19e697b-5ca1-4ee7-b81f-ccc785c0b784","system_id":"levelo_inurba_marseille","lat":43.295523,"lon":5.422926,"is_reserved":false,"is_disabled":false,"rental_uris":{"android":"levelo://app?vid=b19e697b-5ca1-4ee7-b81f-ccc785c0b784","ios":"levelo://app?vid=b19e697b-5ca1-4ee7-b81f-ccc785c0b784"},"vehicle_type_id":"4","last_reported":1704107167,"current_range_meters":30400,"station_id":"ce4bhph2rcd13ifvqhdg","pricing_plan_id":"free"},{"bike_id":"306afd85-beb4-4f6c-b611-066e0436e9ba","system_id":"levelo_inurba_marseille","lat":43.29551,"lon":5.42284,"is_reserved":false,"is_disabled":false,"rental_uris":{"android":"levelo://app?vid=306afd85-beb4-4f6c-b611-066e0436e9ba","ios":"levelo://app?vid=306afd85-beb4-4f6c-b611-066e0436e9ba"},"vehicle_type_id":"4","last_reported":1704107167,"current_range_meters":30800,"station_id":"ce4bhph2rcd13ifvqhdg","pricing_plan_id":"free"},{"bike_id":"d548d66b-88c9-49f9-867c-e26df10c9510","system_id":"levelo_inurba_marseille","lat":43.29553,"lon":5.42286,"is_reserved":false,"is_disabled":false,"rental_uris":{"android":"levelo://app?vid=d548d66b-88c9-49f9-867c-e26df10c9510","ios":"levelo://app?vid=d548d66b-88c9-49f9-867c-e26df10c9510"},"vehicle_type_id":"4","last_reported":1704107167,"current_range_meters":28400,"station_id":"ce4bhph2rcd13ifvqhdg","pricing_plan_id":"free"},{"bike_id":"926e2c6a-f6fc-4efb-862c-83f5befd1c16","system_id":"levelo_inurba_marseille","lat":43.29555,"lon":5.42288,"is_reserved":false,"is_disabled":false,"rental_uris":{"android":"levelo://app?vid=926e2c6a-f6fc-4efb-862c-83f5befd1c16","ios":"levelo://app?vid=926e2c6a-f6fc-4efb-862c-83f5befd1c16"},"vehicle_type_id":"4","last_reported":1704107167,"current_range_meters":30000,"station_id":"ce4bhph2rcd13ifvqhdg","pricing_plan_id":"free"},{"bike_id":"a6ae6745-cc2a-4641-91d5-cd1a5dfadc84","system_id":"levelo_inurba_marseille","lat":43.295511,"lon":5.422926,"is_reserved":false,"is_disabled":false,"rental_uris":{"android":"levelo://app?vid=a6ae6745-cc2a-4641-91d5-cd1a5dfadc84","ios":"levelo://app?vid=a6ae6745-cc2a-4641-91d5-cd1a5dfadc84"},"vehicle_type_id":"4","last_reported":1704107167,"current_range_meters":29600,"station_id":"ce4bhph2rcd13ifvqhdg","pricing_plan_id":"free"},{"bike_id":"57ed1803-b1a8-4454-a0ff-896efa27aec5","system_id":"levelo_inurba_marseille","lat":43.2721,"lon":5.39188,"is_reserved":false,"is_disabled":false,"rental_uris":{"android":"levelo://app?vid=57ed1803-b1a8-4454-a0ff-896efa27aec5","ios":"levelo://app?vid=57ed1803-b1a8-4454-a0ff-896efa27aec5"},"vehicle_type_id":"4","last_reported":1704107167,"current_range_meters":26800,"station_id":"ce4bhhp2rcd13ifvqfm0","pricing_plan_id":"free"},{"bike_id":"49ed539d-a525-408e-a3e9-48585140e904","system_id":"levelo_inurba_marseille","lat":43.278128,"lon":5.407195,"is_reserved":false,"is_disabled":false,"rental_uris":{"android":"levelo://app?vid=49ed539d-a525-408e-a3e9-48585140e904","ios":"levelo://app?vid=49ed539d-a525-408e-a3e9-48585140e904"},"vehicle_type_id":"4","last_reported":1704107167,"current_range_meters":31200,"station_id":"ce4bhnh2rcd13ifvqgtg","pricing_plan_id":"free"},{"bike_id":"5a56cf51-2f32-419b-81fd-bc35c7d8ef9d","system_id":"levelo_inurba_marseille","lat":43.269467,"lon":5.386439,"is_reserved":false,"is_disabled":false,"rental_uris":{"android":"levelo://app?vid=5a56cf51-2f32-419b-81fd-bc35c7d8ef9d","ios":"levelo://app?vid=5a56cf51-2f32-419b-81fd-bc35c7d8ef9d"},"vehicle_type_id":"4","last_reported":1704107167,"current_range_meters":26800,"station_id":"ce4bhh92rcd13ifvqfh0","pricing_plan_id":"free"},{"bike_id":"ce9af740-b6f6-4d36-b727-80a14c223ef9","system_id":"levelo_inurba_marseille","lat":43.279465,"lon":5.410561,"is_reserved":false,"is_disabled":false,"rental_uris":{"android":"levelo://app?vid=ce9af740-b6f6-4d36-b727-80a14c223ef9","ios":"levelo://app?vid=ce9af740-b6f6-4d36-b727-80a14c223ef9"},"vehicle_type_id":"4","last_reported":1704107167,"current_range_meters":3200,"station_id":"ce4bhnp2rcd13ifvqh0g","pricing_plan_id":"free"},{"bike_id":"0f431921-4dd9-4037-a211-457cf805d9f2","system_id":"levelo_inurba_marseille","lat":43.279465,"lon":5.410561,"is_reserved":false,"is_disabled":false,"rental_uris":{"android":"levelo://app?vid=0f431921-4dd9-4037-a211-457cf805d9f2","ios":"levelo://app?vid=0f431921-4dd9-4037-a211-457cf805d9f2"},"vehicle_type_id":"4","last_reported":1704107167,"current_range_meters":26000,"station_id":"ce4bhnp2rcd13ifvqh0g","pricing_plan_id":"free"},{"bike_id":"ce403709-2f16-4f5a-a066-da504759b4c6","system_id":"levelo_inurba_marseille","lat":43.265714,"lon":5.372891,"is_reserved":false,"is_disabled":false,"rental_uris":{"android":"levelo://app?vid=ce403709-2f16-4f5a-a066-da504759b4c6","ios":"levelo://app?vid=ce403709-2f16-4f5a-a066-da504759b4c6"},"vehicle_type_id":"4","last_reported":1704107167,"current_range_meters":21200,"station_id":"ce4bhg12rcd13ifvqf70","pricing_plan_id":"free"},{"bike_id":"dfa1e88c-5bb4-46f5-8a85-c42711a6d903","system_id":"levelo_inurba_marseille","lat":43.265714,"lon":5.372891,"is_reserved":false,"is_disabled":false,"rental_uris":{"android":"levelo://app?vid=dfa1e88c-5bb4-46f5-8a85-c42711a6d903","ios":"levelo://app?vid=dfa1e88c-5bb4-46f5-8a85-c42711a6d903"},"vehicle_type_id":"4","last_reported":1704107167,"current_range_meters":17600,"station_id":"ce4bhg12rcd13ifvqf70","pricing_plan_id":"free"},{"bike_id":"4e7b82a4-f271-4a72-bdbd-460d1cfbd58d","system_id":"levelo_inurba_marseille","lat":43.27181,"lon":5.404997,"is_reserved":false,"is_disabled":false,"rental_uris":{"android":"levelo://app?vid=4e7b82a4-f271-4a72-bdbd-460d1cfbd58d","ios":"levelo://app?vid=4e7b82a4-f271-4a72-bdbd-460d1cfbd58d"},"vehicle_type_id":"4","last_reported":1704107167,"current_range_meters":11200,"station_id":"","pricing_plan_id":"free"},{"bike_id":"3ed4222d-3eb5-439b-8911-728f19db683e","system_id":"levelo_inurba_marseille","lat":43.308051,"lon":5.43527,"is_reserved":false,"is_disabled":false,"rental_uris":{"android":"levelo://app?vid=3ed4222d-3eb5-439b-8911-728f19db683e","ios":"levelo://app?vid=3ed4222d-3eb5-439b-8911-728f19db683e"},"vehicle_type_id":"4","last_reported":1704107167,"current_range_meters":27200,"station_id":"ce4bhph2rcd13ifvqheg","pricing_plan_id":"free"},{"bike_id":"ffd9d5f4-068a-43d8-ba67-361efa2ca645","system_id":"levelo_inurba_marseille","lat":43.271368,"lon":5.40928,"is_reserved":false,"is_disabled":false,"rental_uris":{"android":"levelo://app?vid=ffd9d5f4-068a-43d8-ba67-361efa2ca645","ios":"levelo://app?vid=ffd9d5f4-068a-43d8-ba67-361efa2ca645"},"vehicle_type_id":"4","last_reported":1704107167,"current_range_meters":25600,"station_id":"ce4bhl12rcd13ifvqgf0","pricing_plan_id":"free"},{"bike_id":"dac5ea74-92f7-462e-b536-31f322bb01c0","system_id":"levelo_inurba_marseille","lat":43.331893,"lon":5.431791,"is_reserved":false,"is_disabled":false,"rental_uris":{"android":"levelo://app?vid=dac5ea74-92f7-462e-b536-31f322bb01c0","ios":"levelo://app?vid=dac5ea74-92f7-462e-b536-31f322bb01c0"},"vehicle_type_id":"4","last_reported":1704107167,"current_range_meters":7600,"station_id":"","pricing_plan_id":"free"},{"bike_id":"1462c9a7-3d14-4dd6-82f9-e9bb21b1f3dc","system_id":"levelo_inurba_marseille","lat":43.317104,"lon":5.436818,"is_reserved":false,"is_disabled":false,"rental_uris":{"android":"levelo://app?vid=1462c9a7-3d14-4dd6-82f9-e9bb21b1f3dc","ios":"levelo://app?vid=1462c9a7-3d14-4dd6-82f9-e9bb21b1f3dc"},"vehicle_type_id":"4","last_reported":1704107167,"current_range_meters":22400,"station_id":"ce4bhp92rcd13ifvqhcg","pricing_plan_id":"free"},{"bike_id":"8c7df74b-a509-49f1-af95-b0a69adf8f56","system_id":"levelo_inurba_marseille","lat":43.31707,"lon":5.43707,"is_reserved":false,"is_disabled":false,"rental_uris":{"android":"levelo://app?vid=8c7df74b-a509-49f1-af95-b0a69adf8f56","ios":"levelo://app?vid=8c7df74b-a509-49f1-af95-b0a69adf8f56"},"vehicle_type_id":"4","last_reported":1704107167,"current_range_meters":23200,"station_id":"ce4bhp92rcd13ifvqhcg","pricing_plan_id":"free"},{"bike_id":"09f009bd-9e78-4a83-b2bb-05fc1c2bb7eb","system_id":"levelo_inurba_marseille","lat":43.317104,"lon":5.436818,"is_reserved":false,"is_disabled":false,"rental_uris":{"android":"levelo://app?vid=09f009bd-9e78-4a83-b2bb-05fc1c2bb7eb","ios":"levelo://app?vid=09f009bd-9e78-4a83-b2bb-05fc1c2bb7eb"},"vehicle_type_id":"4","last_reported":1704107167,"current_range_meters":31200,"station_id":"ce4bhp92rcd13ifvqhcg","pricing_plan_id":"free"},{"bike_id":"7ab49f30-fd85-49f4-95e7-1e2a0fdc3451","system_id":"levelo_inurba_marseille","lat":43.271368,"lon":5.40928,"is_reserved":false,"is_disabled":false,"rental_uris":{"android":"levelo://app?vid=7ab49f30-fd85-49f4-95e7-1e2a0fdc3451","ios":"levelo://app?vid=7ab49f30-fd85-49f4-95e7-1e2a0fdc3451"},"vehicle_type_id":"4","last_reported":1704107167,"current_range_meters":28800,"station_id":"ce4bhl12rcd13ifvqgf0","pricing_plan_id":"free"},{"bike_id":"55604137-bd77-4fcf-aa5a-2e972bfc81cb","system_id":"levelo_inurba_marseille","lat":43.267959,"lon":5.402687,"is_reserved":false,"is_disabled":false,"rental_uris":{"android":"levelo://app?vid=55604137-bd77-4fcf-aa5a-2e972bfc81cb","ios":"levelo://app?vid=55604137-bd77-4fcf-aa5a-2e972bfc81cb"},"vehicle_type_id":"4","last_reported":1704107167,"current_range_meters":23600,"station_id":"ce501612rcd8frsf0b60","pricing_plan_id":"free"},{"bike_id":"24a8f553-12c1-4d7b-acf9-7cb382e5158b","system_id":"levelo_inurba_marseille","lat":43.26802,"lon":5.40265,"is_reserved":false,"is_disabled":false,"rental_uris":{"android":"levelo://app?vid=24a8f553-12c1-4d7b-acf9-7cb382e5158b","ios":"levelo://app?vid=24a8f553-12c1-4d7b-acf9-7cb382e5158b"},"vehicle_type_id":"4","last_reported":1704107167,"current_range_meters":26800,"station_id":"ce501612rcd8frsf0b60","pricing_plan_id":"free"},{"bike_id":"998cbe97-b23d-4803-8a45-4e42215098ea","system_id":"levelo_inurba_marseille","lat":43.2651,"lon":5.39469,"is_reserved":false,"is_disabled":false,"rental_uris":{"android":"levelo://app?vid=998cbe97-b23d-4803-8a45-4e42215098ea","ios":"levelo://app?vid=998cbe97-b23d-4803-8a45-4e42215098ea"},"vehicle_type_id":"4","last_reported":1704107167,"current_range_meters":26400,"station_id":"ce4bhi12rcd13ifvqfq0","pricing_plan_id":"free"},{"bike_id":"f359195f-f069-42a0-b818-68741f0dae01","system_id":"levelo_inurba_marseille","lat":43.298768,"lon":5.43643,"is_reserved":false,"is_disabled":false,"rental_uris":{"android":"levelo://app?vid=f359195f-f069-42a0-b818-68741f0dae01","ios":"levelo://app?vid=f359195f-f069-42a0-b818-68741f0dae01"},"vehicle_type_id":"4","last_reported":1704107167,"current_range_meters":30000,"station_id":"ce4bhpp2rcd13ifvqhfg","pricing_plan_id":"free"},{"bike_id":"2aef17d2-5e1a-42db-a1a2-eebc4e3d678f","system_id":"levelo_inurba_marseille","lat":43.298768,"lon":5.43643,"is_reserved":false,"is_disabled":false,"rental_uris":{"android":"levelo://app?vid=2aef17d2-5e1a-42db-a1a2-eebc4e3d678f","ios":"levelo://app?vid=2aef17d2-5e1a-42db-a1a2-eebc4e3d678f"},"vehicle_type_id":"4","last_reported":1704107167,"current_range_meters":10000,"station_id":"ce4bhpp2rcd13ifvqhfg","pricing_plan_id":"free"},{"bike_id":"ec17f12b-76f2-4e38-bdf0-2f3dcd905333","system_id":"levelo_inurba_marseille","lat":43.298768,"lon":5.43643,"is_reserved":false,"is_disabled":false,"rental_uris":{"android":"levelo://app?vid=ec17f12b-76f2-4e38-bdf0-2f3dcd905333","ios":"levelo://app?vid=ec17f12b-76f2-4e38-bdf0-2f3dcd905333"},"vehicle_type_id":"4","last_reported":1704107167,"current_range_meters":28800,"station_id":"ce4bhpp2rcd13ifvqhfg","pricing_plan_id":"free"},{"bike_id":"58756083-15be-4646-af48-7193c5c7ed73","system_id":"levelo_inurba_marseille","lat":43.26024,"lon":5.37554,"is_reserved":false,"is_disabled":false,"rental_uris":{"android":"levelo://app?vid=58756083-15be-4646-af48-7193c5c7ed73","ios":"levelo://app?vid=58756083-15be-4646-af48-7193c5c7ed73"},"vehicle_type_id":"4","last_reported":1704107167,"current_range_meters":16000,"station_id":"ce4bhgh2rcd13ifvqfa0","pricing_plan_id":"free"},{"bike_id":"51b307ad-3e03-4c88-8cbb-3669bbc8a1ad","system_id":"levelo_inurba_marseille","lat":43.281548,"lon":5.42643,"is_reserved":false,"is_disabled":false,"rental_uris":{"android":"levelo://app?vid=51b307ad-3e03-4c88-8cbb-3669bbc8a1ad","ios":"levelo://app?vid=51b307ad-3e03-4c88-8cbb-3669bbc8a1ad"},"vehicle_type_id":"4","last_reported":1704107167,"current_range_meters":31600,"station_id":"ce4bhnh2rcd13ifvqgug","pricing_plan_id":"free"},{"bike_id":"5a04ea17-eb41-4e08-b828-ac0858829f65","system_id":"levelo_inurba_marseille","lat":43.281548,"lon":5.42643,"is_reserved":false,"is_disabled":false,"rental_uris":{"android":"levelo://app?vid=5a04ea17-eb41-4e08-b828-ac0858829f65","ios":"levelo://app?vid=5a04ea17-eb41-4e08-b828-ac0858829f65"},"vehicle_type_id":"4","last_reported":1704107167,"current_range_meters":19200,"station_id":"ce4bhnh2rcd13ifvqgug","pricing_plan_id":"free"},{"bike_id":"239866bf-d593-439b-8f00-008a123dffd7","system_id":"levelo_inurba_marseille","lat":43.281548,"lon":5.42643,"is_reserved":false,"is_disabled":false,"rental_uris":{"android":"levelo://app?vid=239866bf-d593-439b-8f00-008a123dffd7","ios":"levelo://app?vid=239866bf-d593-439b-8f00-008a123dffd7"},"vehicle_type_id":"4","last_reported":1704107167,"current_range_meters":31200,"station_id":"ce4bhnh2rcd13ifvqgug","pricing_plan_id":"free"},{"bike_id":"20f457aa-21b0-4254-bd2f-8b6f31ce302e","system_id":"levelo_inurba_marseille","lat":43.281548,"lon":5.42643,"is_reserved":false,"is_disabled":false,"rental_uris":{"android":"levelo://app?vid=20f457aa-21b0-4254-bd2f-8b6f31ce302e","ios":"levelo://app?vid=20f457aa-21b0-4254-bd2f-8b6f31ce302e"},"vehicle_type_id":"4","last_reported":1704107167,"current_range_meters":29200,"station_id":"ce4bhnh2rcd13ifvqgug","pricing_plan_id":"free"},{"bike_id":"e32e8b2f-227a-41f1-a651-f92b4e26dae8","system_id":"levelo_inurba_marseille","lat":43.281548,"lon":5.42643,"is_reserved":false,"is_disabled":false,"rental_uris":{"android":"levelo://app?vid=e32e8b2f-227a-41f1-a651-f92b4e26dae8","ios":"levelo://app?vid=e32e8b2f-227a-41f1-a651-f92b4e26dae8"},"vehicle_type_id":"4","last_reported":1704107167,"current_range_meters":800,"station_id":"ce4bhnh2rcd13ifvqgug","pricing_plan_id":"free"},{"bike_id":"cbacfc50-ef99-4401-a564-38d281228e5a","system_id":"levelo_inurba_marseille","lat":43.2607,"lon":5.393983,"is_reserved":false,"is_disabled":false,"rental_uris":{"android":"levelo://app?vid=cbacfc50-ef99-4401-a564-38d281228e5a","ios":"levelo://app?vid=cbacfc50-ef99-4401-a564-38d281228e5a"},"vehicle_type_id":"4","last_reported":1704107167,"current_range_meters":31200,"station_id":"ce4bhh92rcd13ifvqfj0","pricing_plan_id":"free"},{"bike_id":"a06ec287-2a56-41b0-9658-83b9e37bbbe8","system_id":"levelo_inurba_marseille","lat":43.275028,"lon":5.424534,"is_reserved":false,"is_disabled":false,"rental_uris":{"android":"levelo://app?vid=a06ec287-2a56-41b0-9658-83b9e37bbbe8","ios":"levelo://app?vid=a06ec287-2a56-41b0-9658-83b9e37bbbe8"},"vehicle_type_id":"4","last_reported":1704107167,"current_range_meters":31200,"station_id":"ce4bhn92rcd13ifvqgrg","pricing_plan_id":"free"},{"bike_id":"9179f49f-3670-4ecd-bc3e-4f831f422d67","system_id":"levelo_inurba_marseille","lat":43.27495,"lon":5.42458,"is_reserved":false,"is_disabled":false,"rental_uris":{"android":"levelo://app?vid=9179f49f-3670-4ecd-bc3e-4f831f422d67","ios":"levelo://app?vid=9179f49f-3670-4ecd-bc3e-4f831f422d67"},"vehicle_type_id":"4","last_reported":1704107167,"current_range_meters":3600,"station_id":"ce4bhn92rcd13ifvqgrg","pricing_plan_id":"free"},{"bike_id":"bda89174-3cab-44c1-874d-f33cf9bd1902","system_id":"levelo_inurba_marseille","lat":43.27492,"lon":5.42462,"is_reserved":false,"is_disabled":false,"rental_uris":{"android":"levelo://app?vid=bda89174-3cab-44c1-874d-f33cf9bd1902","ios":"levelo://app?vid=bda89174-3cab-44c1-874d-f33cf9bd1902"},