{"last_updated":1687295143,"ttl":30,"version":"2.2","data":{"bikes":[{"bike_id":"e434870f-62cf-4105-ab58-270b20f1eace","system_id":"levelo_inurba_marseille","lat":43.31348,"lon":5.36711,"is_reserved":false,"is_disabled":false,"rental_uris":{"android":"levelo://app?vid=e434870f-62cf-4105-ab58-270b20f1eace","ios":"levelo://app?vid=e434870f-62cf-4105-ab58-270b20f1eace"},"vehicle_type_id":"4","last_reported":1687295143,"current_range_meters":17600,"station_id":"","pricing_plan_id":"free"},{"bike_id":"32704eba-c8a7-40ea-af7f-866a1a1d7593","system_id":"levelo_inurba_marseille","lat":43.313705,"lon":5.367206,"is_reserved":false,"is_disabled":false,"rental_uris":{"android":"levelo://app?vid=32704eba-c8a7-40ea-af7f-866a1a1d7593","ios":"levelo://app?vid=32704eba-c8a7-40ea-af7f-866a1a1d7593"},"vehicle_type_id":"4","last_reported":1687295143,"current_range_meters":21600,"station_id":"ce4bgr92rcd13ifvqc6g","pricing_plan_id":"free"},{"bike_id":"d5ea9482-4a13-47d5-97a3-b937cd827066","system_id":"levelo_inurba_marseille","lat":43.312239,"lon":5.368562,"is_reserved":false,"is_disabled":false,"rental_uris":{"android":"levelo://app?vid=d5ea9482-4a13-47d5-97a3-b937cd827066","ios":"levelo://app?vid=d5ea9482-4a13-47d5-97a3-b937cd827066"},"vehicle_type_id":"4","last_reported":1687295143,"current_range_meters":31200,"station_id":"ce4bgl92rcd13ifvqbq0","pricing_plan_id":"free"},{"bike_id":"e4bd07dd-cbb3-46b7-85bf-d857c926cdd5","system_id":"levelo_inurba_marseille","lat":43.312239,"lon":5.368562,"is_reserved":false,"is_disabled":false,"rental_uris":{"android":"levelo://app?vid=e4bd07dd-cbb3-46b7-85bf-d857c926cdd5","ios":"levelo://app?vid=e4bd07dd-cbb3-46b7-85bf-d857c926cdd5"},"vehicle_type_id":"4","last_reported":1687295143,"current_range_meters":5200,"station_id":"ce4bgl92rcd13ifvqbq0","pricing_plan_id":"free"},{"bike_id":"6e4fd040-1866-4783-872c-dd21a7ae18af","system_id":"levelo_inurba_marseille","lat":43.31371,"lon":5.37066,"is_reserved":false,"is_disabled":false,"rental_uris":{"android":"levelo://app?vid=6e4fd040-1866-4783-872c-dd21a7ae18af","ios":"levelo://app?vid=6e4fd040-1866-4783-872c-dd21a7ae18af"},"vehicle_type_id":"4","last_reported":1687295143,"current_range_meters":13200,"station_id":"","pricing_plan_id":"free"},{"bike_id":"3da540aa-5929-4d4a-8397-46574265df24","system_id":"levelo_inurba_marseille","lat":43.30782,"lon":5.36681,"is_reserved":false,"is_disabled":false,"rental_uris":{"android":"levelo://app?vid=3da540aa-5929-4d4a-8397-46574265df24","ios":"levelo://app?vid=3da540aa-5929-4d4a-8397-46574265df24"},"vehicle_type_id":"4","last_reported":1687295143,"current_range_meters":16400,"station_id":"","pricing_plan_id":"free"},{"bike_id":"bffff291-8774-47f4-be53-4fc2bdf1286e","system_id":"levelo_inurba_marseille","lat":43.308606,"lon":5.372099,"is_reserved":false,"is_disabled":false,"rental_uris":{"android":"levelo://app?vid=bffff291-8774-47f4-be53-4fc2bdf1286e","ios":"levelo://app?vid=bffff291-8774-47f4-be53-4fc2bdf1286e"},"vehicle_type_id":"4","last_reported":1687295143,"current_range_meters":24000,"station_id":"ce4bguh2rcd13ifvqckg","pricing_plan_id":"free"},{"bike_id":"24e6b313-cf22-4bd2-a4c1-78da4886e33f","system_id":"levelo_inurba_marseille","lat":43.308606,"lon":5.372099,"is_reserved":false,"is_disabled":false,"rental_uris":{"android":"levelo://app?vid=24e6b313-cf22-4bd2-a4c1-78da4886e33f","ios":"levelo://app?vid=24e6b313-cf22-4bd2-a4c1-78da4886e33f"},"vehicle_type_id":"4","last_reported":1687295143,"current_range_meters":14400,"station_id":"ce4bguh2rcd13ifvqckg","pricing_plan_id":"free"},{"bike_id":"b191eb05-94f2-402f-a7f1-041cc7d6f30f","system_id":"levelo_inurba_marseille","lat":43.308614,"lon":5.372098,"is_reserved":false,"is_disabled":false,"rental_uris":{"android":"levelo://app?vid=b191eb05-94f2-402f-a7f1-041cc7d6f30f","ios":"levelo://app?vid=b191eb05-94f2-402f-a7f1-041cc7d6f30f"},"vehicle_type_id":"4","last_reported":1687295143,"current_range_meters":0,"station_id":"ce4bguh2rcd13ifvqckg","pricing_plan_id":"free"},{"bike_id":"5fbdbe65-e141-4473-b7c7-3ca166ee6d1f","system_id":"levelo_inurba_marseille","lat":43.30828,"lon":5.37159,"is_reserved":false,"is_disabled":false,"rental_uris":{"android":"levelo://app?vid=5fbdbe65-e141-4473-b7c7-3ca166ee6d1f","ios":"levelo://app?vid=5fbdbe65-e141-4473-b7c7-3ca166ee6d1f"},"vehicle_type_id":"4","last_reported":1687295143,"current_range_meters":7600,"station_id":"","pricing_plan_id":"free"},{"bike_id":"890f8faa-909c-44ec-ba9b-4e9f8bdef3b2","system_id":"levelo_inurba_marseille","lat":43.305989,"lon":5.37225,"is_reserved":false,"is_disabled":false,"rental_uris":{"android":"levelo://app?vid=890f8faa-909c-44ec-ba9b-4e9f8bdef3b2","ios":"levelo://app?vid=890f8faa-909c-44ec-ba9b-4e9f8bdef3b2"},"vehicle_type_id":"4","last_reported":1687295143,"current_range_meters":2800,"station_id":"ce4bgqh2rcd13ifvqc4g","pricing_plan_id":"free"},{"bike_id":"949771ca-ce30-418e-a74a-c0fa392b3707","system_id":"levelo_inurba_marseille","lat":43.305989,"lon":5.37225,"is_reserved":false,"is_disabled":false,"rental_uris":{"android":"levelo://app?vid=949771ca-ce30-418e-a74a-c0fa392b3707","ios":"levelo://app?vid=949771ca-ce30-418e-a74a-c0fa392b3707"},"vehicle_type_id":"4","last_reported":1687295143,"current_range_meters":29600,"station_id":"ce4bgqh2rcd13ifvqc4g","pricing_plan_id":"free"},{"bike_id":"0d54750f-5aed-4c21-bd11-052fb6dad56c","system_id":"levelo_inurba_marseille","lat":43.305989,"lon":5.37225,"is_reserved":false,"is_disabled":false,"rental_uris":{"android":"levelo://app?vid=0d54750f-5aed-4c21-bd11-052fb6dad56c","ios":"levelo://app?vid=0d54750f-5aed-4c21-bd11-052fb6dad56c"},"vehicle_type_id":"4","last_reported":1687295143,"current_range_meters":2800,"station_id":"ce4bgqh2rcd13ifvqc4g","pricing_plan_id":"free"},{"bike_id":"39778638-1c87-4637-9aba-ca6de6c37343","system_id":"levelo_inurba_marseille","lat":43.305989,"lon":5.37225,"is_reserved":false,"is_disabled":false,"rental_uris":{"android":"levelo://app?vid=39778638-1c87-4637-9aba-ca6de6c37343","ios":"levelo://app?vid=39778638-1c87-4637-9aba-ca6de6c37343"},"vehicle_type_id":"4","last_reported":1687295143,"current_range_meters":8000,"station_id":"ce4bgqh2rcd13ifvqc4g","pricing_plan_id":"free"},{"bike_id":"a6d00662-36f7-4e0b-9bd6-28b6254b1f0a","system_id":"levelo_inurba_marseille","lat":43.315289,"lon":5.380349,"is_reserved":false,"is_disabled":false,"rental_uris":{"android":"levelo://app?vid=a6d00662-36f7-4e0b-9bd6-28b6254b1f0a","ios":"levelo://app?vid=a6d00662-36f7-4e0b-9bd6-28b6254b1f0a"},"vehicle_type_id":"4","last_reported":1687295143,"current_range_meters":15200,"station_id":"ce4bhsp2rcd13ifvqi50","pricing_plan_id":"free"},{"bike_id":"dcbbab82-690e-4e5c-be69-d438d8e9e6ff","system_id":"levelo_inurba_marseille","lat":43.301939,"lon":5.366286,"is_reserved":false,"is_disabled":false,"rental_uris":{"android":"levelo://app?vid=dcbbab82-690e-4e5c-be69-d438d8e9e6ff","ios":"levelo://app?vid=dcbbab82-690e-4e5c-be69-d438d8e9e6ff"},"vehicle_type_id":"4","last_reported":1687295143,"current_range_meters":4400,"station_id":"ce4bgrh2rcd13ifvqc8g","pricing_plan_id":"free"},{"bike_id":"06925ee8-f249-40f7-ba7e-dcfa69aa7e3b","system_id":"levelo_inurba_marseille","lat":43.301939,"lon":5.366286,"is_reserved":false,"is_disabled":false,"rental_uris":{"android":"levelo://app?vid=06925ee8-f249-40f7-ba7e-dcfa69aa7e3b","ios":"levelo://app?vid=06925ee8-f249-40f7-ba7e-dcfa69aa7e3b"},"vehicle_type_id":"4","last_reported":1687295143,"current_range_meters":24400,"station_id":"ce4bgrh2rcd13ifvqc8g","pricing_plan_id":"free"},{"bike_id":"ae33307b-fcd5-479b-9ae1-9002ed226c6e","system_id":"levelo_inurba_marseille","lat":43.308012,"lon":5.381511,"is_reserved":false,"is_disabled":false,"rental_uris":{"android":"levelo://app?vid=ae33307b-fcd5-479b-9ae1-9002ed226c6e","ios":"levelo://app?vid=ae33307b-fcd5-479b-9ae1-9002ed226c6e"},"vehicle_type_id":"4","last_reported":1687295143,"current_range_meters":18800,"station_id":"ce4bgt12rcd13ifvqce0","pricing_plan_id":"free"},{"bike_id":"7a3cc0c8-a92c-4275-a9cf-c2288b5d9dc7","system_id":"levelo_inurba_marseille","lat":43.308012,"lon":5.381511,"is_reserved":false,"is_disabled":false,"rental_uris":{"android":"levelo://app?vid=7a3cc0c8-a92c-4275-a9cf-c2288b5d9dc7","ios":"levelo://app?vid=7a3cc0c8-a92c-4275-a9cf-c2288b5d9dc7"},"vehicle_type_id":"4","last_reported":1687295143,"current_range_meters":16400,"station_id":"ce4bgt12rcd13ifvqce0","pricing_plan_id":"free"},{"bike_id":"e8e50549-4f14-4a79-8e01-73f4b2c3ac89","system_id":"levelo_inurba_marseille","lat":43.30228,"lon":5.37494,"is_reserved":false,"is_disabled":false,"rental_uris":{"android":"levelo://app?vid=e8e50549-4f14-4a79-8e01-73f4b2c3ac89","ios":"levelo://app?vid=e8e50549-4f14-4a79-8e01-73f4b2c3ac89"},"vehicle_type_id":"4","last_reported":1687295143,"current_range_meters":3200,"station_id":"","pricing_plan_id":"free"},{"bike_id":"d4e74f3f-4eba-4d8c-9608-1d7134c412c2","system_id":"levelo_inurba_marseille","lat":43.304606,"lon":5.379026,"is_reserved":false,"is_disabled":false,"rental_uris":{"android":"levelo://app?vid=d4e74f3f-4eba-4d8c-9608-1d7134c412c2","ios":"levelo://app?vid=d4e74f3f-4eba-4d8c-9608-1d7134c412c2"},"vehicle_type_id":"4","last_reported":1687295143,"current_range_meters":23600,"station_id":"ce4bgup2rcd13ifvqcn0","pricing_plan_id":"free"},{"bike_id":"0d17fe95-07f3-4c9d-b57d-7279d8e35e2d","system_id":"levelo_inurba_marseille","lat":43.304606,"lon":5.379026,"is_reserved":false,"is_disabled":false,"rental_uris":{"android":"levelo://app?vid=0d17fe95-07f3-4c9d-b57d-7279d8e35e2d","ios":"levelo://app?vid=0d17fe95-07f3-4c9d-b57d-7279d8e35e2d"},"vehicle_type_id":"4","last_reported":1687295143,"current_range_meters":25600,"station_id":"ce4bgup2rcd13ifvqcn0","pricing_plan_id":"free"},{"bike_id":"43fc693e-f2a9-4aec-8fd9-d094bb02cb70","system_id":"levelo_inurba_marseille","lat":43.304606,"lon":5.379026,"is_reserved":false,"is_disabled":false,"rental_uris":{"android":"levelo://app?vid=43fc693e-f2a9-4aec-8fd9-d094bb02cb70","ios":"levelo://app?vid=43fc693e-f2a9-4aec-8fd9-d094bb02cb70"},"vehicle_type_id":"4","last_reported":1687295143,"current_range_meters":8400,"station_id":"ce4bgup2rcd13ifvqcn0","pricing_plan_id":"free"},{"bike_id":"34396de0-2e76-4b97-9a44-510632e1d46f","system_id":"levelo_inurba_marseille","lat":43.302784,"lon":5.377158,"is_reserved":false,"is_disabled":false,"rental_uris":{"android":"levelo://app?vid=34396de0-2e76-4b97-9a44-510632e1d46f","ios":"levelo://app?vid=34396de0-2e76-4b97-9a44-510632e1d46f"},"vehicle_type_id":"4","last_reported":1687295143,"current_range_meters":25600,"station_id":"ce4bguh2rcd13ifvqcj0","pricing_plan_id":"free"},{"bike_id":"baae757c-8f10-49be-a4dd-bb0ca67b7e95","system_id":"levelo_inurba_marseille","lat":43.319935,"lon":5.381699,"is_reserved":false,"is_disabled":false,"rental_uris":{"android":"levelo://app?vid=baae757c-8f10-49be-a4dd-bb0ca67b7e95","ios":"levelo://app?vid=baae757c-8f10-49be-a4dd-bb0ca67b7e95"},"vehicle_type_id":"4","last_reported":1687295143,"current_range_meters":31200,"station_id":"ce4bhr12rcd13ifvqhpg","pricing_plan_id":"free"},{"bike_id":"ac78f4c7-6fc5-44eb-9cd4-13675f3f5d1e","system_id":"levelo_inurba_marseille","lat":43.31994,"lon":5.38146,"is_reserved":false,"is_disabled":false,"rental_uris":{"android":"levelo://app?vid=ac78f4c7-6fc5-44eb-9cd4-13675f3f5d1e","ios":"levelo://app?vid=ac78f4c7-6fc5-44eb-9cd4-13675f3f5d1e"},"vehicle_type_id":"4","last_reported":1687295143,"current_range_meters":29200,"station_id":"ce4bhr12rcd13ifvqhpg","pricing_plan_id":"free"},{"bike_id":"c7c64f8e-4e44-485d-80ef-c29f6be6f29a","system_id":"levelo_inurba_marseille","lat":43.319935,"lon":5.381699,"is_reserved":false,"is_disabled":false,"rental_uris":{"android":"levelo://app?vid=c7c64f8e-4e44-485d-80ef-c29f6be6f29a","ios":"levelo://app?vid=c7c64f8e-4e44-485d-80ef-c29f6be6f29a"},"vehicle_type_id":"4","last_reported":1687295143,"current_range_meters":31200,"station_id":"ce4bhr12rcd13ifvqhpg","pricing_plan_id":"free"},{"bike_id":"45a8ae92-ac61-4a4e-9264-b5a07f565915","system_id":"levelo_inurba_marseille","lat":43.313571,"lon":5.384829,"is_reserved":false,"is_disabled":false,"rental_uris":{"android":"levelo://app?vid=45a8ae92-ac61-4a4e-9264-b5a07f565915","ios":"levelo://app?vid=45a8ae92-ac61-4a4e-9264-b5a07f565915"},"vehicle_type_id":"4","last_reported":1687295143,"current_range_meters":6000,"station_id":"ce4bgt92rcd13ifvqcf0","pricing_plan_id":"free"},{"bike_id":"d057949d-ce75-4990-9145-a4652eeb481d","system_id":"levelo_inurba_marseille","lat":43.31361,"lon":5.38488,"is_reserved":false,"is_disabled":false,"rental_uris":{"android":"levelo://app?vid=d057949d-ce75-4990-9145-a4652eeb481d","ios":"levelo://app?vid=d057949d-ce75-4990-9145-a4652eeb481d"},"vehicle_type_id":"4","last_reported":1687295143,"current_range_meters":8400,"station_id":"ce4bgt92rcd13ifvqcf0","pricing_plan_id":"free"},{"bike_id":"59794caa-6c9d-4705-9e00-5c35c6f65166","system_id":"levelo_inurba_marseille","lat":43.29943,"lon":5.36559,"is_reserved":false,"is_disabled":false,"rental_uris":{"android":"levelo://app?vid=59794caa-6c9d-4705-9e00-5c35c6f65166","ios":"levelo://app?vid=59794caa-6c9d-4705-9e00-5c35c6f65166"},"vehicle_type_id":"4","last_reported":1687295143,"current_range_meters":13600,"station_id":"ce4bgm92rcd13ifvqbr0","pricing_plan_id":"free"},{"bike_id":"2d42b842-37f7-4fbb-86b1-5e7c027934de","system_id":"levelo_inurba_marseille","lat":43.299222,"lon":5.365554,"is_reserved":false,"is_disabled":false,"rental_uris":{"android":"levelo://app?vid=2d42b842-37f7-4fbb-86b1-5e7c027934de","ios":"levelo://app?vid=2d42b842-37f7-4fbb-86b1-5e7c027934de"},"vehicle_type_id":"4","last_reported":1687295143,"current_range_meters":4800,"station_id":"ce4bgm92rcd13ifvqbr0","pricing_plan_id":"free"},{"bike_id":"0d2ccdb9-7632-4027-b709-c8f850e314c8","system_id":"levelo_inurba_marseille","lat":43.299222,"lon":5.365554,"is_reserved":false,"is_disabled":false,"rental_uris":{"android":"levelo://app?vid=0d2ccdb9-7632-4027-b709-c8f850e314c8","ios":"levelo://app?vid=0d2ccdb9-7632-4027-b709-c8f850e314c8"},"vehicle_type_id":"4","last_reported":1687295143,"current_range_meters":10800,"station_id":"ce4bgm92rcd13ifvqbr0","pricing_plan_id":"free"},{"bike_id":"476af4cc-6d1e-47ac-9d00-55e5bd6e9ba9","system_id":"levelo_inurba_marseille","lat":43.299222,"lon":5.365554,"is_reserved":false,"is_disabled":false,"rental_uris":{"android":"levelo://app?vid=476af4cc-6d1e-47ac-9d00-55e5bd6e9ba9","ios":"levelo://app?vid=476af4cc-6d1e-47ac-9d00-55e5bd6e9ba9"},"vehicle_type_id":"4","last_reported":1687295143,"current_range_meters":17600,"station_id":"ce4bgm92rcd13ifvqbr0","pricing_plan_id":"free"},{"bike_id":"a1cd1c4d-3127-4247-b2ce-98d59746076e","system_id":"levelo_inurba_marseille","lat":43.30002,"lon":5.37344,"is_reserved":false,"is_disabled":false,"rental_uris":{"android":"levelo://app?vid=a1cd1c4d-3127-4247-b2ce-98d59746076e","ios":"levelo://app?vid=a1cd1c4d-3127-4247-b2ce-98d59746076e"},"vehicle_type_id":"4","last_reported":1687295143,"current_range_meters":6800,"station_id":"","pricing_plan_id":"free"},{"bike_id":"9ff6fce7-fda0-4eaa-aca8-e7d2ee5cb9c8","system_id":"levelo_inurba_marseille","lat":43.299243,"lon":5.374807,"is_reserved":false,"is_disabled":false,"rental_uris":{"android":"levelo://app?vid=9ff6fce7-fda0-4eaa-aca8-e7d2ee5cb9c8","ios":"levelo://app?vid=9ff6fce7-fda0-4eaa-aca8-e7d2ee5cb9c8"},"vehicle_type_id":"4","last_reported":1687295143,"current_range_meters":20400,"station_id":"ce4bgjh2rcd13ifvqbg0","pricing_plan_id":"free"},{"bike_id":"429af25e-d07f-4069-a2a6-cca1850be77c","system_id":"levelo_inurba_marseille","lat":43.311722,"lon":5.387247,"is_reserved":false,"is_disabled":false,"rental_uris":{"android":"levelo://app?vid=429af25e-d07f-4069-a2a6-cca1850be77c","ios":"levelo://app?vid=429af25e-d07f-4069-a2a6-cca1850be77c"},"vehicle_type_id":"4","last_reported":1687295143,"current_range_meters":26400,"station_id":"ce4bgv12rcd13ifvqcp0","pricing_plan_id":"free"},{"bike_id":"fe18f46b-930d-499a-8124-877720636275","system_id":"levelo_inurba_marseille","lat":43.311722,"lon":5.387247,"is_reserved":false,"is_disabled":false,"rental_uris":{"android":"levelo://app?vid=fe18f46b-930d-499a-8124-877720636275","ios":"levelo://app?vid=fe18f46b-930d-499a-8124-877720636275"},"vehicle_type_id":"4","last_reported":1687295143,"current_range_meters":21600,"station_id":"ce4bgv12rcd13ifvqcp0","pricing_plan_id":"free"},{"bike_id":"730a0cfa-697d-4b9a-805f-dcd528a35c99","system_id":"levelo_inurba_marseille","lat":43.299243,"lon":5.374807,"is_reserved":false,"is_disabled":false,"rental_uris":{"android":"levelo://app?vid=730a0cfa-697d-4b9a-805f-dcd528a35c99","ios":"levelo://app?vid=730a0cfa-697d-4b9a-805f-dcd528a35c99"},"vehicle_type_id":"4","last_reported":1687295143,"current_range_meters":13200,"station_id":"ce4bgjh2rcd13ifvqbg0","pricing_plan_id":"free"},{"bike_id":"cb35fc24-ae00-4082-8144-607ecfd6db33","system_id":"levelo_inurba_marseille","lat":43.311722,"lon":5.387247,"is_reserved":false,"is_disabled":false,"rental_uris":{"android":"levelo://app?vid=cb35fc24-ae00-4082-8144-607ecfd6db33","ios":"levelo://app?vid=cb35fc24-ae00-4082-8144-607ecfd6db33"},"vehicle_type_id":"4","last_reported":1687295143,"current_range_meters":14800,"station_id":"ce4bgv12rcd13ifvqcp0","pricing_plan_id":"free"},{"bike_id":"70460eed-4903-4460-98b4-a3951706d096","system_id":"levelo_inurba_marseille","lat":43.31181,"lon":5.38715,"is_reserved":false,"is_disabled":false,"rental_uris":{"android":"levelo://app?vid=70460eed-4903-4460-98b4-a3951706d096","ios":"levelo://app?vid=70460eed-4903-4460-98b4-a3951706d096"},"vehicle_type_id":"4","last_reported":1687295143,"current_range_meters":1600,"station_id":"ce4bgv12rcd13ifvqcp0","pricing_plan_id":"free"},{"bike_id":"0511c128-3169-40b3-b630-9b308e2983b0","system_id":"levelo_inurba_marseille","lat":43.311722,"lon":5.387247,"is_reserved":false,"is_disabled":false,"rental_uris":{"android":"levelo://app?vid=0511c128-3169-40b3-b630-9b308e2983b0","ios":"levelo://app?vid=0511c128-3169-40b3-b630-9b308e2983b0"},"vehicle_type_id":"4","last_reported":1687295143,"current_range_meters":6800,"station_id":"ce4bgv12rcd13ifvqcp0","pricing_plan_id":"free"},{"bike_id":"8a7a071f-edc9-4207-bcdd-2f489686e23b","system_id":"levelo_inurba_marseille","lat":43.311722,"lon":5.387247,"is_reserved":false,"is_disabled":false,"rental_uris":{"android":"levelo://app?vid=8a7a071f-edc9-4207-bcdd-2f489686e23b","ios":"levelo://app?vid=8a7a071f-edc9-4207-bcdd-2f489686e23b"},"vehicle_type_id":"4","last_reported":1687295143,"current_range_meters":24000,"station_id":"ce4bgv12rcd13ifvqcp0","pricing_plan_id":"free"},{"bike_id":"6d92055e-71ea-4dd5-915f-38510e27aba3","system_id":"levelo_inurba_marseille","lat":43.311722,"lon":5.387247,"is_reserved":false,"is_disabled":false,"rental_uris":{"android":"levelo://app?vid=6d92055e-71ea-4dd5-915f-38510e27aba3","ios":"levelo://app?vid=6d92055e-71ea-4dd5-915f-38510e27aba3"},"vehicle_type_id":"4","last_reported":1687295143,"current_range_meters":27600,"station_id":"ce4bgv12rcd13ifvqcp0","pricing_plan_id":"free"},{"bike_id":"408cdbd3-920b-45b4-ab4e-0217d7cee4ab","system_id":"levelo_inurba_marseille","lat":43.32816,"lon":5.36679,"is_reserved":false,"is_disabled":false,"rental_uris":{"android":"levelo://app?vid=408cdbd3-920b-45b4-ab4e-0217d7cee4ab","ios":"levelo://app?vid=408cdbd3-920b-45b4-ab4e-0217d7cee4ab"},"vehicle_type_id":"4","last_reported":1687295143,"current_range_meters":9600,"station_id":"ce4bhs92rcd13ifvqi0g","pricing_plan_id":"free"},{"bike_id":"b1cefdc1-cb43-4d92-b826-9bcd0efebf8e","system_id":"levelo_inurba_marseille","lat":43.32829,"lon":5.36691,"is_reserved":false,"is_disabled":false,"rental_uris":{"android":"levelo://app?vid=b1cefdc1-cb43-4d92-b826-9bcd0efebf8e","ios":"levelo://app?vid=b1cefdc1-cb43-4d92-b826-9bcd0efebf8e"},"vehicle_type_id":"4","last_reported":1687295143,"current_range_meters":4000,"station_id":"ce4bhs92rcd13ifvqi0g","pricing_plan_id":"free"},{"bike_id":"db4e72b2-ad08-4787-8cc1-d917696a4d8b","system_id":"levelo_inurba_marseille","lat":43.328371,"lon":5.366909,"is_reserved":false,"is_disabled":false,"rental_uris":{"android":"levelo://app?vid=db4e72b2-ad08-4787-8cc1-d917696a4d8b","ios":"levelo://app?vid=db4e72b2-ad08-4787-8cc1-d917696a4d8b"},"vehicle_type_id":"4","last_reported":1687295143,"current_range_meters":29200,"station_id":"ce4bhs92rcd13ifvqi0g","pricing_plan_id":"free"},{"bike_id":"b4ea75e9-eca7-4ccc-91f9-d0cb06a4a0a6","system_id":"levelo_inurba_marseille","lat":43.328371,"lon":5.366912,"is_reserved":false,"is_disabled":false,"rental_uris":{"android":"levelo://app?vid=b4ea75e9-eca7-4ccc-91f9-d0cb06a4a0a6","ios":"levelo://app?vid=b4ea75e9-eca7-4ccc-91f9-d0cb06a4a0a6"},"vehicle_type_id":"4","last_reported":1687295143,"current_range_meters":29200,"station_id":"ce4bhs92rcd13ifvqi0g","pricing_plan_id":"free"},{"bike_id":"2cf06a1f-9ef8-4d9f-8035-c1b30609b264","system_id":"levelo_inurba_marseille","lat":43.29717,"lon":5.366042,"is_reserved":false,"is_disabled":false,"rental_uris":{"android":"levelo://app?vid=2cf06a1f-9ef8-4d9f-8035-c1b30609b264","ios":"levelo://app?vid=2cf06a1f-9ef8-4d9f-8035-c1b30609b264"},"vehicle_type_id":"4","last_reported":1687295143,"current_range_meters":31200,"station_id":"ce4bgn12rcd13ifvqbt0","pricing_plan_id":"free"},{"bike_id":"4b95fa6a-8af4-43e0-8690-e2ad31ff4cd4","system_id":"levelo_inurba_marseille","lat":43.29716,"lon":5.36611,"is_reserved":false,"is_disabled":false,"rental_uris":{"android":"levelo://app?vid=4b95fa6a-8af4-43e0-8690-e2ad31ff4cd4","ios":"levelo://app?vid=4b95fa6a-8af4-43e0-8690-e2ad31ff4cd4"},"vehicle_type_id":"4","last_reported":1687295143,"current_range_meters":31200,"station_id":"ce4bgn12rcd13ifvqbt0","pricing_plan_id":"free"},{"bike_id":"832e1273-fa14-42aa-b411-4f520f45589b","system_id":"levelo_inurba_marseille","lat":43.328371,"lon":5.366912,"is_reserved":false,"is_disabled":false,"rental_uris":{"android":"levelo://app?vid=832e1273-fa14-42aa-b411-4f520f45589b","ios":"levelo://app?vid=832e1273-fa14-42aa-b411-4f520f45589b"},"vehicle_type_id":"4","last_reported":1687295143,"current_range_meters":31600,"station_id":"ce4bhs92rcd13ifvqi0g","pricing_plan_id":"free"},{"bike_id":"a82952c7-28b0-41eb-8b49-6ffaa86f573e","system_id":"levelo_inurba_marseille","lat":43.297127,"lon":5.365966,"is_reserved":false,"is_disabled":false,"rental_uris":{"android":"levelo://app?vid=a82952c7-28b0-41eb-8b49-6ffaa86f573e","ios":"levelo://app?vid=a82952c7-28b0-41eb-8b49-6ffaa86f573e"},"vehicle_type_id":"4","last_reported":1687295143,"current_range_meters":17200,"station_id":"ce4bgn12rcd13ifvqbt0","pricing_plan_id":"free"},{"bike_id":"6fd6d30a-ab69-4096-be51-d7cfa34b8ccc","system_id":"levelo_inurba_marseille","lat":43.29712,"lon":5.36605,"is_reserved":false,"is_disabled":false,"rental_uris":{"android":"levelo://app?vid=6fd6d30a-ab69-4096-be51-d7cfa34b8ccc","ios":"levelo://app?vid=6fd6d30a-ab69-4096-be51-d7cfa34b8ccc"},"vehicle_type_id":"4","last_reported":1687295143,"current_range_meters":31200,"station_id":"ce4bgn12rcd13ifvqbt0","pricing_plan_id":"free"},{"bike_id":"176f4894-d7fc-460e-aa5d-7c8c1e206dc3","system_id":"levelo_inurba_marseille","lat":43.297113,"lon":5.36612,"is_reserved":false,"is_disabled":false,"rental_uris":{"android":"levelo://app?vid=176f4894-d7fc-460e-aa5d-7c8c1e206dc3","ios":"levelo://app?vid=176f4894-d7fc-460e-aa5d-7c8c1e206dc3"},"vehicle_type_id":"4","last_reported":1687295143,"current_range_meters":22800,"station_id":"ce4bgn12rcd13ifvqbt0","pricing_plan_id":"free"},{"bike_id":"2581b2cf-2a49-41d4-80ce-082486a9973a","system_id":"levelo_inurba_marseille","lat":43.29573,"lon":5.367355,"is_reserved":false,"is_disabled":false,"rental_uris":{"android":"levelo://app?vid=2581b2cf-2a49-41d4-80ce-082486a9973a","ios":"levelo://app?vid=2581b2cf-2a49-41d4-80ce-082486a9973a"},"vehicle_type_id":"4","last_reported":1687295143,"current_range_meters":7600,"station_id":"ce4bgph2rcd13ifvqc2g","pricing_plan_id":"free"},{"bike_id":"c6e10bef-229b-478e-8a4e-0d913758e7e9","system_id":"levelo_inurba_marseille","lat":43.29573,"lon":5.367355,"is_reserved":false,"is_disabled":false,"rental_uris":{"android":"levelo://app?vid=c6e10bef-229b-478e-8a4e-0d913758e7e9","ios":"levelo://app?vid=c6e10bef-229b-478e-8a4e-0d913758e7e9"},"vehicle_type_id":"4","last_reported":1687295143,"current_range_meters":13600,"station_id":"ce4bgph2rcd13ifvqc2g","pricing_plan_id":"free"},{"bike_id":"24f41ca5-b432-4feb-a0c8-a15026b97306","system_id":"levelo_inurba_marseille","lat":43.296131,"lon":5.370773,"is_reserved":false,"is_disabled":false,"rental_uris":{"android":"levelo://app?vid=24f41ca5-b432-4feb-a0c8-a15026b97306","ios":"levelo://app?vid=24f41ca5-b432-4feb-a0c8-a15026b97306"},"vehicle_type_id":"4","last_reported":1687295143,"current_range_meters":3200,"station_id":"ce4bgnh2rcd13ifvqc0g","pricing_plan_id":"free"},{"bike_id":"f94156c3-9f6c-4eda-a8c4-3001b37a9527","system_id":"levelo_inurba_marseille","lat":43.29749,"lon":5.37735,"is_reserved":false,"is_disabled":false,"rental_uris":{"android":"levelo://app?vid=f94156c3-9f6c-4eda-a8c4-3001b37a9527","ios":"levelo://app?vid=f94156c3-9f6c-4eda-a8c4-3001b37a9527"},"vehicle_type_id":"4","last_reported":1687295143,"current_range_meters":400,"station_id":"","pricing_plan_id":"free"},{"bike_id":"3408d165-42b0-4cbe-8c04-b329f9bd5b93","system_id":"levelo_inurba_marseille","lat":43.29915,"lon":5.3814,"is_reserved":false,"is_disabled":false,"rental_uris":{"android":"levelo://app?vid=3408d165-42b0-4cbe-8c04-b329f9bd5b93","ios":"levelo://app?vid=3408d165-42b0-4cbe-8c04-b329f9bd5b93"},"vehicle_type_id":"4","last_reported":1687295143,"current_range_meters":29200,"station_id":"ce4bgj12rcd13ifvqbc0","pricing_plan_id":"free"},{"bike_id":"041bc147-ef2f-419b-bb81-deca3bdf89e2","system_id":"levelo_inurba_marseille","lat":43.29611,"lon":5.36046,"is_reserved":false,"is_disabled":false,"rental_uris":{"android":"levelo://app?vid=041bc147-ef2f-419b-bb81-deca3bdf89e2","ios":"levelo://app?vid=041bc147-ef2f-419b-bb81-deca3bdf89e2"},"vehicle_type_id":"4","last_reported":1687295143,"current_range_meters":20800,"station_id":"","pricing_plan_id":"free"},{"bike_id":"af8ea858-6c1e-4734-be23-6556f5c81f6b","system_id":"levelo_inurba_marseille","lat":43.31758,"lon":5.39011,"is_reserved":false,"is_disabled":false,"rental_uris":{"android":"levelo://app?vid=af8ea858-6c1e-4734-be23-6556f5c81f6b","ios":"levelo://app?vid=af8ea858-6c1e-4734-be23-6556f5c81f6b"},"vehicle_type_id":"4","last_reported":1687295143,"current_range_meters":31200,"station_id":"ce4bhqp2rcd13ifvqhng","pricing_plan_id":"free"},{"bike_id":"f38ebc4d-313b-41fa-90d1-ba716c998cb4","system_id":"levelo_inurba_marseille","lat":43.317557,"lon":5.390173,"is_reserved":false,"is_disabled":false,"rental_uris":{"android":"levelo://app?vid=f38ebc4d-313b-41fa-90d1-ba716c998cb4","ios":"levelo://app?vid=f38ebc4d-313b-41fa-90d1-ba716c998cb4"},"vehicle_type_id":"4","last_reported":1687295143,"current_range_meters":31200,"station_id":"ce4bhqp2rcd13ifvqhng","pricing_plan_id":"free"},{"bike_id":"85994c95-c9ca-4a71-907d-9ab406c442cc","system_id":"levelo_inurba_marseille","lat":43.298037,"lon":5.381066,"is_reserved":false,"is_disabled":false,"rental_uris":{"android":"levelo://app?vid=85994c95-c9ca-4a71-907d-9ab406c442cc","ios":"levelo://app?vid=85994c95-c9ca-4a71-907d-9ab406c442cc"},"vehicle_type_id":"4","last_reported":1687295143,"current_range_meters":20000,"station_id":"ce4bgip2rcd13ifvqbb0","pricing_plan_id":"free"},{"bike_id":"250c8a96-8498-4211-b8f3-1b00a8d1fbaf","system_id":"levelo_inurba_marseille","lat":43.296477,"lon":5.37768,"is_reserved":false,"is_disabled":false,"rental_uris":{"android":"levelo://app?vid=250c8a96-8498-4211-b8f3-1b00a8d1fbaf","ios":"levelo://app?vid=250c8a96-8498-4211-b8f3-1b00a8d1fbaf"},"vehicle_type_id":"4","last_reported":1687295143,"current_range_meters":3600,"station_id":"","pricing_plan_id":"free"},{"bike_id":"ad73e1b0-9b45-432c-8e02-1bcffdac4a00","system_id":"levelo_inurba_marseille","lat":43.298037,"lon":5.381066,"is_reserved":false,"is_disabled":false,"rental_uris":{"android":"levelo://app?vid=ad73e1b0-9b45-432c-8e02-1bcffdac4a00","ios":"levelo://app?vid=ad73e1b0-9b45-432c-8e02-1bcffdac4a00"},"vehicle_type_id":"4","last_reported":1687295143,"current_range_meters":28000,"station_id":"ce4bgip2rcd13ifvqbb0","pricing_plan_id":"free"},{"bike_id":"d4e5cd3a-de80-4089-a4ca-4f735fd08f4c","system_id":"levelo_inurba_marseille","lat":43.304274,"lon":5.388873,"is_reserved":false,"is_disabled":false,"rental_uris":{"android":"levelo://app?vid=d4e5cd3a-de80-4089-a4ca-4f735fd08f4c","ios":"levelo://app?vid=d4e5cd3a-de80-4089-a4ca-4f735fd08f4c"},"vehicle_type_id":"4","last_reported":1687295143,"current_range_meters":1600,"station_id":"ce4bgk12rcd13ifvqbi0","pricing_plan_id":"free"},{"bike_id":"7398ffd5-6465-4905-872a-848f4414625c","system_id":"levelo_inurba_marseille","lat":43.309589,"lon":5.390258,"is_reserved":false,"is_disabled":false,"rental_uris":{"android":"levelo://app?vid=7398ffd5-6465-4905-872a-848f4414625c","ios":"levelo://app?vid=7398ffd5-6465-4905-872a-848f4414625c"},"vehicle_type_id":"4","last_reported":1687295143,"current_range_meters":12400,"station_id":"ce4bgup2rcd13ifvqco0","pricing_plan_id":"free"},{"bike_id":"eb56f040-d7e3-440c-9d05-82afe187dd21","system_id":"levelo_inurba_marseille","lat":43.299717,"lon":5.384845,"is_reserved":false,"is_disabled":false,"rental_uris":{"android":"levelo://app?vid=eb56f040-d7e3-440c-9d05-82afe187dd21","ios":"levelo://app?vid=eb56f040-d7e3-440c-9d05-82afe187dd21"},"vehicle_type_id":"4","last_reported":1687295143,"current_range_meters":30000,"station_id":"ce4bgj92rcd13ifvqbd0","pricing_plan_id":"free"},{"bike_id":"b13cbc77-d957-4984-bb84-2727bfd4ea96","system_id":"levelo_inurba_marseille","lat":43.32367,"lon":5.388836,"is_reserved":false,"is_disabled":false,"rental_uris":{"android":"levelo://app?vid=b13cbc77-d957-4984-bb84-2727bfd4ea96","ios":"levelo://app?vid=b13cbc77-d957-4984-bb84-2727bfd4ea96"},"vehicle_type_id":"4","last_reported":1687295143,"current_range_meters":3600,"station_id":"ce4bhqp2rcd13ifvqhog","pricing_plan_id":"free"},{"bike_id":"9e9ce588-c5b6-4d8b-a77b-26a827af3b2c","system_id":"levelo_inurba_marseille","lat":43.32367,"lon":5.388836,"is_reserved":false,"is_disabled":false,"rental_uris":{"android":"levelo://app?vid=9e9ce588-c5b6-4d8b-a77b-26a827af3b2c","ios":"levelo://app?vid=9e9ce588-c5b6-4d8b-a77b-26a827af3b2c"},"vehicle_type_id":"4","last_reported":1687295143,"current_range_meters":0,"station_id":"ce4bhqp2rcd13ifvqhog","pricing_plan_id":"free"},{"bike_id":"79f940be-328f-478d-aa00-a57517d9bda5","system_id":"levelo_inurba_marseille","lat":43.32367,"lon":5.388836,"is_reserved":false,"is_disabled":false,"rental_uris":{"android":"levelo://app?vid=79f940be-328f-478d-aa00-a57517d9bda5","ios":"levelo://app?vid=79f940be-328f-478d-aa00-a57517d9bda5"},"vehicle_type_id":"4","last_reported":1687295143,"current_range_meters":8800,"station_id":"ce4bhqp2rcd13ifvqhog","pricing_plan_id":"free"},{"bike_id":"924f5e2c-3798-48c5-a26b-4aa840da3bf3","system_id":"levelo_inurba_marseille","lat":43.323729,"lon":5.388839,"is_reserved":false,"is_disabled":false,"rental_uris":{"android":"levelo://app?vid=924f5e2c-3798-48c5-a26b-4aa840da3bf3","ios":"levelo://app?vid=924f5e2c-3798-48c5-a26b-4aa840da3bf3"},"vehicle_type_id":"4","last_reported":1687295143,"current_range_meters":24400,"station_id":"","pricing_plan_id":"free"},{"bike_id":"b1088a24-d5d6-4458-b1c6-7789038554fd","system_id":"levelo_inurba_marseille","lat":43.29601,"lon":5.381084,"is_reserved":false,"is_disabled":false,"rental_uris":{"android":"levelo://app?vid=b1088a24-d5d6-4458-b1c6-7789038554fd","ios":"levelo://app?vid=b1088a24-d5d6-4458-b1c6-7789038554fd"},"vehicle_type_id":"4","last_reported":1687295143,"current_range_meters":400,"station_id":"ce4bgl12rcd13ifvqbo0","pricing_plan_id":"free"},{"bike_id":"66b480a6-9947-4496-98e2-93e61a3244b4","system_id":"levelo_inurba_marseille","lat":43.305994,"lon":5.393687,"is_reserved":false,"is_disabled":false,"rental_uris":{"android":"levelo://app?vid=66b480a6-9947-4496-98e2-93e61a3244b4","ios":"levelo://app?vid=66b480a6-9947-4496-98e2-93e61a3244b4"},"vehicle_type_id":"4","last_reported":1687295143,"current_range_meters":31200,"station_id":"ce4bh0p2rcd13ifvqd80","pricing_plan_id":"free"},{"bike_id":"f96bc5ef-773a-4c29-b818-b40707fecfaa","system_id":"levelo_inurba_marseille","lat":43.3059,"lon":5.3935,"is_reserved":false,"is_disabled":false,"rental_uris":{"android":"levelo://app?vid=f96bc5ef-773a-4c29-b818-b40707fecfaa","ios":"levelo://app?vid=f96bc5ef-773a-4c29-b818-b40707fecfaa"},"vehicle_type_id":"4","last_reported":1687295143,"current_range_meters":31200,"station_id":"ce4bh0p2rcd13ifvqd80","pricing_plan_id":"free"},{"bike_id":"ded7a504-8bf4-44c8-b142-8c13b0c8c2e2","system_id":"levelo_inurba_marseille","lat":43.305994,"lon":5.393687,"is_reserved":false,"is_disabled":false,"rental_uris":{"android":"levelo://app?vid=ded7a504-8bf4-44c8-b142-8c13b0c8c2e2","ios":"levelo://app?vid=ded7a504-8bf4-44c8-b142-8c13b0c8c2e2"},"vehicle_type_id":"4","last_reported":1687295143,"current_range_meters":21600,"station_id":"ce4bh0p2rcd13ifvqd80","pricing_plan_id":"free"},{"bike_id":"8c9fbe30-e832-4580-8b23-0023138ed52b","system_id":"levelo_inurba_marseille","lat":43.305994,"lon":5.393687,"is_reserved":false,"is_disabled":false,"rental_uris":{"android":"levelo://app?vid=8c9fbe30-e832-4580-8b23-0023138ed52b","ios":"levelo://app?vid=8c9fbe30-e832-4580-8b23-0023138ed52b"},"vehicle_type_id":"4","last_reported":1687295143,"current_range_meters":1600,"station_id":"ce4bh0p2rcd13ifvqd80","pricing_plan_id":"free"},{"bike_id":"7ee8e857-e58f-4d0f-9ec8-cf55d6494b29","system_id":"levelo_inurba_marseille","lat":43.29268,"lon":5.35967,"is_reserved":false,"is_disabled":false,"rental_uris":{"android":"levelo://app?vid=7ee8e857-e58f-4d0f-9ec8-cf55d6494b29","ios":"levelo://app?vid=7ee8e857-e58f-4d0f-9ec8-cf55d6494b29"},"vehicle_type_id":"4","last_reported":1687295143,"current_range_meters":800,"station_id":"","pricing_plan_id":"free"},{"bike_id":"aed8adaf-5d26-40ad-af55-b42d9bcf8fe7","system_id":"levelo_inurba_marseille","lat":43.302992,"lon":5.392136,"is_reserved":false,"is_disabled":false,"rental_uris":{"android":"levelo://app?vid=aed8adaf-5d26-40ad-af55-b42d9bcf8fe7","ios":"levelo://app?vid=aed8adaf-5d26-40ad-af55-b42d9bcf8fe7"},"vehicle_type_id":"4","last_reported":1687295143,"current_range_meters":0,"station_id":"ce4bgkh2rcd13ifvqbk0","pricing_plan_id":"free"},{"bike_id":"3988aae0-c4fa-4230-8c64-4c54ef8bfd24","system_id":"levelo_inurba_marseille","lat":43.2936,"lon":5.37835,"is_reserved":false,"is_disabled":false,"rental_uris":{"android":"levelo://app?vid=3988aae0-c4fa-4230-8c64-4c54ef8bfd24","ios":"levelo://app?vid=3988aae0-c4fa-4230-8c64-4c54ef8bfd24"},"vehicle_type_id":"4","last_reported":1687295143,"current_range_meters":800,"station_id":"ce4bgjh2rcd13ifvqbf0","pricing_plan_id":"free"},{"bike_id":"4da32e45-20ba-4ab6-af8e-f19abf3430e9","system_id":"levelo_inurba_marseille","lat":43.292311,"lon":5.360731,"is_reserved":false,"is_disabled":false,"rental_uris":{"android":"levelo://app?vid=4da32e45-20ba-4ab6-af8e-f19abf3430e9","ios":"levelo://app?vid=4da32e45-20ba-4ab6-af8e-f19abf3430e9"},"vehicle_type_id":"4","last_reported":1687295143,"current_range_meters":31200,"station_id":"ce4bhbh2rcd13ifvqeqg","pricing_plan_id":"free"},{"bike_id":"fb67f71e-9a74-46d1-a789-ccb1c382dd54","system_id":"levelo_inurba_marseille","lat":43.292311,"lon":5.360731,"is_reserved":false,"is_disabled":false,"rental_uris":{"android":"levelo://app?vid=fb67f71e-9a74-46d1-a789-ccb1c382dd54","ios":"levelo://app?vid=fb67f71e-9a74-46d1-a789-ccb1c382dd54"},"vehicle_type_id":"4","last_reported":1687295143,"current_range_meters":31200,"station_id":"ce4bhbh2rcd13ifvqeqg","pricing_plan_id":"free"},{"bike_id":"d7572432-df50-40e6-8466-ac2b98aa4e8c","system_id":"levelo_inurba_marseille","lat":43.292311,"lon":5.360731,"is_reserved":false,"is_disabled":false,"rental_uris":{"android":"levelo://app?vid=d7572432-df50-40e6-8466-ac2b98aa4e8c","ios":"levelo://app?vid=d7572432-df50-40e6-8466-ac2b98aa4e8c"},"vehicle_type_id":"4","last_reported":1687295143,"current_range_meters":31200,"station_id":"ce4bhbh2rcd13ifvqeqg","pricing_plan_id":"free"},{"bike_id":"e2fd2067-6e51-4f47-b239-0db90125fde6","system_id":"levelo_inurba_marseille","lat":43.298764,"lon":5.388973,"is_reserved":false,"is_disabled":false,"rental_uris":{"android":"levelo://app?vid=e2fd2067-6e51-4f47-b239-0db90125fde6","ios":"levelo://app?vid=e2fd2067-6e51-4f47-b239-0db90125fde6"},"vehicle_type_id":"4","last_reported":1687295143,"current_range_meters":15200,"station_id":"ce4bh392rcd13ifvqdl0","pricing_plan_id":"free"},{"bike_id":"1c412f54-761e-43a5-b09b-89b29e108064","system_id":"levelo_inurba_marseille","lat":43.298764,"lon":5.388973,"is_reserved":false,"is_disabled":false,"rental_uris":{"android":"levelo://app?vid=1c412f54-761e-43a5-b09b-89b29e108064","ios":"levelo://app?vid=1c412f54-761e-43a5-b09b-89b29e108064"},"vehicle_type_id":"4","last_reported":1687295143,"current_range_meters":23600,"station_id":"ce4bh392rcd13ifvqdl0","pricing_plan_id":"free"},{"bike_id":"748c1ecd-f42f-473a-a13b-ca7191525740","system_id":"levelo_inurba_marseille","lat":43.298764,"lon":5.388973,"is_reserved":false,"is_disabled":false,"rental_uris":{"android":"levelo://app?vid=748c1ecd-f42f-473a-a13b-ca7191525740","ios":"levelo://app?vid=748c1ecd-f42f-473a-a13b-ca7191525740"},"vehicle_type_id":"4","last_reported":1687295143,"current_range_meters":0,"station_id":"ce4bh392rcd13ifvqdl0","pricing_plan_id":"free"},{"bike_id":"3d2f0f76-3088-4456-9663-2afb7577fa88","system_id":"levelo_inurba_marseille","lat":43.309038,"lon":5.396546,"is_reserved":false,"is_disabled":false,"rental_uris":{"android":"levelo://app?vid=3d2f0f76-3088-4456-9663-2afb7577fa88","ios":"levelo://app?vid=3d2f0f76-3088-4456-9663-2afb7577fa88"},"vehicle_type_id":"4","last_reported":1687295143,"current_range_meters":31200,"station_id":"ce4bh012rcd13ifvqcv0","pricing_plan_id":"free"},{"bike_id":"92bc4c97-a749-4d83-b240-7bc82eba853f","system_id":"levelo_inurba_marseille","lat":43.29394,"lon":5.38131,"is_reserved":false,"is_disabled":false,"rental_uris":{"android":"levelo://app?vid=92bc4c97-a749-4d83-b240-7bc82eba853f","ios":"levelo://app?vid=92bc4c97-a749-4d83-b240-7bc82eba853f"},"vehicle_type_id":"4","last_reported":1687295143,"current_range_meters":4800,"station_id":"ce4bgl12rcd13ifvqbo0","pricing_plan_id":"free"},{"bike_id":"91f27ca4-b1d4-4b07-bbb6-4e3add10a601","system_id":"levelo_inurba_marseille","lat":43.309038,"lon":5.396546,"is_reserved":false,"is_disabled":false,"rental_uris":{"android":"levelo://app?vid=91f27ca4-b1d4-4b07-bbb6-4e3add10a601","ios":"levelo://app?vid=91f27ca4-b1d4-4b07-bbb6-4e3add10a601"},"vehicle_type_id":"4","last_reported":1687295143,"current_range_meters":31200,"station_id":"ce4bh012rcd13ifvqcv0","pricing_plan_id":"free"},{"bike_id":"3ab8eaba-da7b-4776-86b0-5d390c3508d9","system_id":"levelo_inurba_marseille","lat":43.309038,"lon":5.396546,"is_reserved":false,"is_disabled":false,"rental_uris":{"android":"levelo://app?vid=3ab8eaba-da7b-4776-86b0-5d390c3508d9","ios":"levelo://app?vid=3ab8eaba-da7b-4776-86b0-5d390c3508d9"},"vehicle_type_id":"4","last_reported":1687295143,"current_range_meters":31200,"station_id":"ce4bh012rcd13ifvqcv0","pricing_plan_id":"free"},{"bike_id":"cfe4423a-4e9d-4a2b-83c3-2838fc848d96","system_id":"levelo_inurba_marseille","lat":43.309038,"lon":5.396546,"is_reserved":false,"is_disabled":false,"rental_uris":{"android":"levelo://app?vid=cfe4423a-4e9d-4a2b-83c3-2838fc848d96","ios":"levelo://app?vid=cfe4423a-4e9d-4a2b-83c3-2838fc848d96"},"vehicle_type_id":"4","last_reported":1687295143,"current_range_meters":26000,"station_id":"ce4bh012rcd13ifvqcv0","pricing_plan_id":"free"},{"bike_id":"b859ee65-8c3d-420a-925c-1e111b8afe8f","system_id":"levelo_inurba_marseille","lat":43.309038,"lon":5.396546,"is_reserved":false,"is_disabled":false,"rental_uris":{"android":"levelo://app?vid=b859ee65-8c3d-420a-925c-1e111b8afe8f","ios":"levelo://app?vid=b859ee65-8c3d-420a-925c-1e111b8afe8f"},"vehicle_type_id":"4","last_reported":1687295143,"current_range_meters":26800,"station_id":"ce4bh012rcd13ifvqcv0","pricing_plan_id":"free"},{"bike_id":"7367c022-5355-4bab-b5a6-2a7d1c6f947e","system_id":"levelo_inurba_marseille","lat":43.309038,"lon":5.396546,"is_reserved":false,"is_disabled":false,"rental_uris":{"android":"levelo://app?vid=7367c022-5355-4bab-b5a6-2a7d1c6f947e","ios":"levelo://app?vid=7367c022-5355-4bab-b5a6-2a7d1c6f947e"},"vehicle_type_id":"4","last_reported":1687295143,"current_range_meters":31200,"station_id":"ce4bh012rcd13ifvqcv0","pricing_plan_id":"free"},{"bike_id":"44d81b50-8e77-4afb-bb64-bef15549b486","system_id":"levelo_inurba_marseille","lat":43.309038,"lon":5.396546,"is_reserved":false,"is_disabled":false,"rental_uris":{"android":"levelo://app?vid=44d81b50-8e77-4afb-bb64-bef15549b486","ios":"levelo://app?vid=44d81b50-8e77-4afb-bb64-bef15549b486"},"vehicle_type_id":"4","last_reported":1687295143,"current_range_meters":20400,"station_id":"ce4bh012rcd13ifvqcv0","pricing_plan_id":"free"},{"bike_id":"d38c5de4-1b75-44fb-88b5-eb30bcdcd7d0","system_id":"levelo_inurba_marseille","lat":43.313243,"lon":5.396843,"is_reserved":false,"is_disabled":false,"rental_uris":{"android":"levelo://app?vid=d38c5de4-1b75-44fb-88b5-eb30bcdcd7d0","ios":"levelo://app?vid=d38c5de4-1b75-44fb-88b5-eb30bcdcd7d0"},"vehicle_type_id":"4","last_reported":1687295143,"current_range_meters":21200,"station_id":"","pricing_plan_id":"free"},{"bike_id":"522b8a82-5251-429a-981a-15ca22e57cb0","system_id":"levelo_inurba_marseille","lat":43.313291,"lon":5.396838,"is_reserved":false,"is_disabled":false,"rental_uris":{"android":"levelo://app?vid=522b8a82-5251-429a-981a-15ca22e57cb0","ios":"levelo://app?vid=522b8a82-5251-429a-981a-15ca22e57cb0"},"vehicle_type_id":"4","last_reported":1687295143,"current_range_meters":31200,"station_id":"ce4bgvp2rcd13ifvqcu0","pricing_plan_id":"free"},{"bike_id":"15c5178f-5561-4295-8c7c-94b581c4621a","system_id":"levelo_inurba_marseille","lat":43.313291,"lon":5.396838,"is_reserved":false,"is_disabled":false,"rental_uris":{"android":"levelo://app?vid=15c5178f-5561-4295-8c7c-94b581c4621a","ios":"levelo://app?vid=15c5178f-5561-4295-8c7c-94b581c4621a"},"vehicle_type_id":"4","last_reported":1687295143,"current_range_meters":8800,"station_id":"ce4bgvp2rcd13ifvqcu0","pricing_plan_id":"free"},{"bike_id":"ef6b5d3a-977c-4692-8cc3-ebe2cdbd99fd","system_id":"levelo_inurba_marseille","lat":43.313291,"lon":5.396838,"is_reserved":false,"is_disabled":false,"rental_uris":{"android":"levelo://app?vid=ef6b5d3a-977c-4692-8cc3-ebe2cdbd99fd","ios":"levelo://app?vid=ef6b5d3a-977c-4692-8cc3-ebe2cdbd99fd"},"vehicle_type_id":"4","last_reported":1687295143,"current_range_meters":400,"station_id":"ce4bgvp2rcd13ifvqcu0","pricing_plan_id":"free"},{"bike_id":"efdb368b-6b7d-4502-80bc-a37b5b15d153","system_id":"levelo_inurba_marseille","lat":43.313291,"lon":5.396838,"is_reserved":false,"is_disabled":false,"rental_uris":{"android":"levelo://app?vid=efdb368b-6b7d-4502-80bc-a37b5b15d153","ios":"levelo://app?vid=efdb368b-6b7d-4502-80bc-a37b5b15d153"},"vehicle_type_id":"4","last_reported":1687295143,"current_range_meters":24400,"station_id":"ce4bgvp2rcd13ifvqcu0","pricing_plan_id":"free"},{"bike_id":"fb9fbaed-5d69-4a64-a3bc-f40695100982","system_id":"levelo_inurba_marseille","lat":43.3132,"lon":5.39691,"is_reserved":false,"is_disabled":false,"rental_uris":{"android":"levelo://app?vid=fb9fbaed-5d69-4a64-a3bc-f40695100982","ios":"levelo://app?vid=fb9fbaed-5d69-4a64-a3bc-f40695100982"},"vehicle_type_id":"4","last_reported":1687295143,"current_range_meters":23600,"station_id":"ce4bgvp2rcd13ifvqcu0","pricing_plan_id":"free"},{"bike_id":"cce40203-1d8e-41e8-a9fd-763d2f677c68","system_id":"levelo_inurba_marseille","lat":43.31333,"lon":5.39691,"is_reserved":false,"is_disabled":false,"rental_uris":{"android":"levelo://app?vid=cce40203-1d8e-41e8-a9fd-763d2f677c68","ios":"levelo://app?vid=cce40203-1d8e-41e8-a9fd-763d2f677c68"},"vehicle_type_id":"4","last_reported":1687295143,"current_range_meters":14000,"station_id":"ce4bgvp2rcd13ifvqcu0","pricing_plan_id":"free"},{"bike_id":"7a87f340-ac4b-47c8-ac5c-b336014b0809","system_id":"levelo_inurba_marseille","lat":43.309038,"lon":5.396546,"is_reserved":false,"is_disabled":false,"rental_uris":{"android":"levelo://app?vid=7a87f340-ac4b-47c8-ac5c-b336014b0809","ios":"levelo://app?vid=7a87f340-ac4b-47c8-ac5c-b336014b0809"},"vehicle_type_id":"4","last_reported":1687295143,"current_range_meters":17200,"station_id":"ce4bh012rcd13ifvqcv0","pricing_plan_id":"free"},{"bike_id":"4a4f54b4-b64a-425e-a820-e56c7df62da5","system_id":"levelo_inurba_marseille","lat":43.309038,"lon":5.396546,"is_reserved":false,"is_disabled":false,"rental_uris":{"android":"levelo://app?vid=4a4f54b4-b64a-425e-a820-e56c7df62da5","ios":"levelo://app?vid=4a4f54b4-b64a-425e-a820-e56c7df62da5"},"vehicle_type_id":"4","last_reported":1687295143,"current_range_meters":24800,"station_id":"ce4bh012rcd13ifvqcv0","pricing_plan_id":"free"},{"bike_id":"b08b8144-f559-46ba-b3ed-768fb92145f2","system_id":"levelo_inurba_marseille","lat":43.3089,"lon":5.39654,"is_reserved":false,"is_disabled":false,"rental_uris":{"android":"levelo://app?vid=b08b8144-f559-46ba-b3ed-768fb92145f2","ios":"levelo://app?vid=b08b8144-f559-46ba-b3ed-768fb92145f2"},"vehicle_type_id":"4","last_reported":1687295143,"current_range_meters":8800,"station_id":"ce4bh012rcd13ifvqcv0","pricing_plan_id":"free"},{"bike_id":"b72739af-7d15-4451-89a6-ac1874f77f79","system_id":"levelo_inurba_marseille","lat":43.31328,"lon":5.397,"is_reserved":false,"is_disabled":false,"rental_uris":{"android":"levelo://app?vid=b72739af-7d15-4451-89a6-ac1874f77f79","ios":"levelo://app?vid=b72739af-7d15-4451-89a6-ac1874f77f79"},"vehicle_type_id":"4","last_reported":1687295143,"current_range_meters":16000,"station_id":"ce4bgvp2rcd13ifvqcu0","pricing_plan_id":"free"},{"bike_id":"128fd267-fa88-49a9-bd57-e1a2cef2d582","system_id":"levelo_inurba_marseille","lat":43.309038,"lon":5.396546,"is_reserved":false,"is_disabled":false,"rental_uris":{"android":"levelo://app?vid=128fd267-fa88-49a9-bd57-e1a2cef2d582","ios":"levelo://app?vid=128fd267-fa88-49a9-bd57-e1a2cef2d582"},"vehicle_type_id":"4","last_reported":1687295143,"current_range_meters":12000,"station_id":"ce4bh012rcd13ifvqcv0","pricing_plan_id":"free"},{"bike_id":"71adf10d-2a55-45fc-adf9-28c46d0517aa","system_id":"levelo_inurba_marseille","lat":43.309038,"lon":5.396546,"is_reserved":false,"is_disabled":false,"rental_uris":{"android":"levelo://app?vid=71adf10d-2a55-45fc-adf9-28c46d0517aa","ios":"levelo://app?vid=71adf10d-2a55-45fc-adf9-28c46d0517aa"},"vehicle_type_id":"4","last_reported":1687295143,"current_range_meters":27200,"station_id":"ce4bh012rcd13ifvqcv0","pricing_plan_id":"free"},{"bike_id":"49d555fc-6a73-4f7b-bccb-ef44d6db76b7","system_id":"levelo_inurba_marseille","lat":43.29538,"lon":5.38541,"is_reserved":false,"is_disabled":false,"rental_uris":{"android":"levelo://app?vid=49d555fc-6a73-4f7b-bccb-ef44d6db76b7","ios":"levelo://app?vid=49d555fc-6a73-4f7b-bccb-ef44d6db76b7"},"vehicle_type_id":"4","last_reported":1687295143,"current_range_meters":5600,"station_id":"ce4bgih2rcd13ifvqba0","pricing_plan_id":"free"},{"bike_id":"58dc27bf-3f2b-4c64-9b28-93922fd799e9","system_id":"levelo_inurba_marseille","lat":43.29534,"lon":5.38536,"is_reserved":false,"is_disabled":false,"rental_uris":{"android":"levelo://app?vid=58dc27bf-3f2b-4c64-9b28-93922fd799e9","ios":"levelo://app?vid=58dc27bf-3f2b-4c64-9b28-93922fd799e9"},"vehicle_type_id":"4","last_reported":1687295143,"current_range_meters":30000,"station_id":"ce4bgih2rcd13ifvqba0","pricing_plan_id":"free"},{"bike_id":"063c1778-b9ff-429d-9126-5f02a79de0e2","system_id":"levelo_inurba_marseille","lat":43.29529,"lon":5.385581,"is_reserved":false,"is_disabled":false,"rental_uris":{"android":"levelo://app?vid=063c1778-b9ff-429d-9126-5f02a79de0e2","ios":"levelo://app?vid=063c1778-b9ff-429d-9126-5f02a79de0e2"},"vehicle_type_id":"4","last_reported":1687295143,"current_range_meters":16800,"station_id":"ce4bgih2rcd13ifvqba0","pricing_plan_id":"free"},{"bike_id":"2f17d935-c409-4379-8e7d-ec4f2b021837","system_id":"levelo_inurba_marseille","lat":43.290624,"lon":5.359245,"is_reserved":false,"is_disabled":false,"rental_uris":{"android":"levelo://app?vid=2f17d935-c409-4379-8e7d-ec4f2b021837","ios":"levelo://app?vid=2f17d935-c409-4379-8e7d-ec4f2b021837"},"vehicle_type_id":"4","last_reported":1687295143,"current_range_meters":1600,"station_id":"ce4bha92rcd13ifvqeg0","pricing_plan_id":"free"},{"bike_id":"01eb0812-4558-4aea-bf50-ad066f363f38","system_id":"levelo_inurba_marseille","lat":43.28961,"lon":5.36436,"is_reserved":false,"is_disabled":false,"rental_uris":{"android":"levelo://app?vid=01eb0812-4558-4aea-bf50-ad066f363f38","ios":"levelo://app?vid=01eb0812-4558-4aea-bf50-ad066f363f38"},"vehicle_type_id":"4","last_reported":1687295143,"current_range_meters":5600,"station_id":"","pricing_plan_id":"free"},{"bike_id":"3f8a925a-6a54-4259-a38f-9cf091aab246","system_id":"levelo_inurba_marseille","lat":43.294162,"lon":5.386292,"is_reserved":false,"is_disabled":false,"rental_uris":{"android":"levelo://app?vid=3f8a925a-6a54-4259-a38f-9cf091aab246","ios":"levelo://app?vid=3f8a925a-6a54-4259-a38f-9cf091aab246"},"vehicle_type_id":"4","last_reported":1687295143,"current_range_meters":31200,"station_id":"ce4bh2h2rcd13ifvqdh0","pricing_plan_id":"free"},{"bike_id":"0609f09b-61e5-40d1-a057-3a5b9409ddd1","system_id":"levelo_inurba_marseille","lat":43.294153,"lon":5.386305,"is_reserved":false,"is_disabled":false,"rental_uris":{"android":"levelo://app?vid=0609f09b-61e5-40d1-a057-3a5b9409ddd1","ios":"levelo://app?vid=0609f09b-61e5-40d1-a057-3a5b9409ddd1"},"vehicle_type_id":"4","last_reported":1687295143,"current_range_meters":23200,"station_id":"ce4bh2h2rcd13ifvqdh0","pricing_plan_id":"free"},{"bike_id":"19bfb2df-e200-4894-9008-a3b4f8cb0e02","system_id":"levelo_inurba_marseille","lat":43.28938,"lon":5.3664,"is_reserved":false,"is_disabled":false,"rental_uris":{"android":"levelo://app?vid=19bfb2df-e200-4894-9008-a3b4f8cb0e02","ios":"levelo://app?vid=19bfb2df-e200-4894-9008-a3b4f8cb0e02"},"vehicle_type_id":"4","last_reported":1687295143,"current_range_meters":28000,"station_id":"ce4bhap2rcd13ifvqek0","pricing_plan_id":"free"},{"bike_id":"c0b312df-1fd2-48dd-b6bf-06fcc1089027","system_id":"levelo_inurba_marseille","lat":43.289468,"lon":5.363719,"is_reserved":false,"is_disabled":false,"rental_uris":{"android":"levelo://app?vid=c0b312df-1fd2-48dd-b6bf-06fcc1089027","ios":"levelo://app?vid=c0b312df-1fd2-48dd-b6bf-06fcc1089027"},"vehicle_type_id":"4","last_reported":1687295143,"current_range_meters":3600,"station_id":"ce4bhc92rcd13ifvqetg","pricing_plan_id":"free"},{"bike_id":"cf16cb8a-3cc9-4a79-a05e-7abb06f2505e","system_id":"levelo_inurba_marseille","lat":43.289468,"lon":5.363719,"is_reserved":false,"is_disabled":false,"rental_uris":{"android":"levelo://app?vid=cf16cb8a-3cc9-4a79-a05e-7abb06f2505e","ios":"levelo://app?vid=cf16cb8a-3cc9-4a79-a05e-7abb06f2505e"},"vehicle_type_id":"4","last_reported":1687295143,"current_range_meters":5600,"station_id":"ce4bhc92rcd13ifvqetg","pricing_plan_id":"free"},{"bike_id":"2bbae65c-4fab-4ff0-80b0-4aa236f95d87","system_id":"levelo_inurba_marseille","lat":43.29059,"lon":5.37802,"is_reserved":false,"is_disabled":false,"rental_uris":{"android":"levelo://app?vid=2bbae65c-4fab-4ff0-80b0-4aa236f95d87","ios":"levelo://app?vid=2bbae65c-4fab-4ff0-80b0-4aa236f95d87"},"vehicle_type_id":"4","last_reported":1687295143,"current_range_meters":28800,"station_id":"ce4bh9p2rcd13ifvqed0","pricing_plan_id":"free"},{"bike_id":"f8513c32-11c3-4680-b591-2be6f83fd0cb","system_id":"levelo_inurba_marseille","lat":43.28923,"lon":5.36395,"is_reserved":false,"is_disabled":false,"rental_uris":{"android":"levelo://app?vid=f8513c32-11c3-4680-b591-2be6f83fd0cb","ios":"levelo://app?vid=f8513c32-11c3-4680-b591-2be6f83fd0cb"},"vehicle_type_id":"4","last_reported":1687295143,"current_range_meters":22400,"station_id":"","pricing_plan_id":"free"},{"bike_id":"b2b177ab-2d62-4a6a-8c09-be97b4f36154","system_id":"levelo_inurba_marseille","lat":43.299028,"lon":5.381509,"is_reserved":false,"is_disabled":false,"rental_uris":{"android":"levelo://app?vid=b2b177ab-2d62-4a6a-8c09-be97b4f36154","ios":"levelo://app?vid=b2b177ab-2d62-4a6a-8c09-be97b4f36154"},"vehicle_type_id":"4","last_reported":1687295143,"current_range_meters":12400,"station_id":"ce4bgj12rcd13ifvqbc0","pricing_plan_id":"free"},{"bike_id":"4718bf10-e145-4d4d-86b8-c32451cd8a70","system_id":"levelo_inurba_marseille","lat":43.304274,"lon":5.397513,"is_reserved":false,"is_disabled":false,"rental_uris":{"android":"levelo://app?vid=4718bf10-e145-4d4d-86b8-c32451cd8a70","ios":"levelo://app?vid=4718bf10-e145-4d4d-86b8-c32451cd8a70"},"vehicle_type_id":"4","last_reported":1687295143,"current_range_meters":24800,"station_id":"ce4bh092rcd13ifvqd20","pricing_plan_id":"free"},{"bike_id":"38eb09af-7166-42b9-865e-84246929498f","system_id":"levelo_inurba_marseille","lat":43.292642,"lon":5.384254,"is_reserved":false,"is_disabled":false,"rental_uris":{"android":"levelo://app?vid=38eb09af-7166-42b9-865e-84246929498f","ios":"levelo://app?vid=38eb09af-7166-42b9-865e-84246929498f"},"vehicle_type_id":"4","last_reported":1687295143,"current_range_meters":31200,"station_id":"ce4bh692rcd13ifvqea0","pricing_plan_id":"free"},{"bike_id":"1e5ace30-f5f2-4e15-9f68-d2439db95d7e","system_id":"levelo_inurba_marseille","lat":43.290104,"lon":5.356111,"is_reserved":false,"is_disabled":false,"rental_uris":{"android":"levelo://app?vid=1e5ace30-f5f2-4e15-9f68-d2439db95d7e","ios":"levelo://app?vid=1e5ace30-f5f2-4e15-9f68-d2439db95d7e"},"vehicle_type_id":"4","last_reported":1687295143,"current_range_meters":25200,"station_id":"ce4bhb92rcd13ifvqen0","pricing_plan_id":"free"},{"bike_id":"2056c363-e280-41e8-a341-ad6102433602","system_id":"levelo_inurba_marseille","lat":43.290104,"lon":5.356111,"is_reserved":false,"is_disabled":false,"rental_uris":{"android":"levelo://app?vid=2056c363-e280-41e8-a341-ad6102433602","ios":"levelo://app?vid=2056c363-e280-41e8-a341-ad6102433602"},"vehicle_type_id":"4","last_reported":1687295143,"current_range_meters":10800,"station_id":"ce4bhb92rcd13ifvqen0","pricing_plan_id":"free"},{"bike_id":"10a7d9a6-4519-4e0c-a4f3-5f477d2db8b6","system_id":"levelo_inurba_marseille","lat":43.28856,"lon":5.358371,"is_reserved":false,"is_disabled":false,"rental_uris":{"android":"levelo://app?vid=10a7d9a6-4519-4e0c-a4f3-5f477d2db8b6","ios":"levelo://app?vid=10a7d9a6-4519-4e0c-a4f3-5f477d2db8b6"},"vehicle_type_id":"4","last_reported":1687295143,"current_range_meters":4800,"station_id":"ce4bhb12rcd13ifvqem0","pricing_plan_id":"free"},{"bike_id":"ecacb7ce-0584-4b68-8777-2624e58d3bf9","system_id":"levelo_inurba_marseille","lat":43.309371,"lon":5.401449,"is_reserved":false,"is_disabled":false,"rental_uris":{"android":"levelo://app?vid=ecacb7ce-0584-4b68-8777-2624e58d3bf9","ios":"levelo://app?vid=ecacb7ce-0584-4b68-8777-2624e58d3bf9"},"vehicle_type_id":"4","last_reported":1687295143,"current_range_meters":21200,"station_id":"ce4bgvp2rcd13ifvqct0","pricing_plan_id":"free"},{"bike_id":"1a96309c-81e2-4ae5-b1e5-50a152990c97","system_id":"levelo_inurba_marseille","lat":43.309371,"lon":5.401449,"is_reserved":false,"is_disabled":false,"rental_uris":{"android":"levelo://app?vid=1a96309c-81e2-4ae5-b1e5-50a152990c97","ios":"levelo://app?vid=1a96309c-81e2-4ae5-b1e5-50a152990c97"},"vehicle_type_id":"4","last_reported":1687295143,"current_range_meters":11200,"station_id":"ce4bgvp2rcd13ifvqct0","pricing_plan_id":"free"},{"bike_id":"940eb5fd-a40c-4968-9cd7-07bbe46cdbed","system_id":"levelo_inurba_marseille","lat":43.30642,"lon":5.401031,"is_reserved":false,"is_disabled":false,"rental_uris":{"android":"levelo://app?vid=940eb5fd-a40c-4968-9cd7-07bbe46cdbed","ios":"levelo://app?vid=940eb5fd-a40c-4968-9cd7-07bbe46cdbed"},"vehicle_type_id":"4","last_reported":1687295143,"current_range_meters":31200,"station_id":"ce4bh112rcd13ifvqda0","pricing_plan_id":"free"},{"bike_id":"0837c508-2542-4215-b985-78178c1c8c6d","system_id":"levelo_inurba_marseille","lat":43.30642,"lon":5.401031,"is_reserved":false,"is_disabled":false,"rental_uris":{"android":"levelo://app?vid=0837c508-2542-4215-b985-78178c1c8c6d","ios":"levelo://app?vid=0837c508-2542-4215-b985-78178c1c8c6d"},"vehicle_type_id":"4","last_reported":1687295143,"current_range_meters":17600,"station_id":"ce4bh112rcd13ifvqda0","pricing_plan_id":"free"},{"bike_id":"47d79625-7346-4993-858b-b5ec094757af","system_id":"levelo_inurba_marseille","lat":43.301117,"lon":5.398795,"is_reserved":false,"is_disabled":false,"rental_uris":{"android":"levelo://app?vid=47d79625-7346-4993-858b-b5ec094757af","ios":"levelo://app?vid=47d79625-7346-4993-858b-b5ec094757af"},"vehicle_type_id":"4","last_reported":1687295143,"current_range_meters":8400,"station_id":"ce4bh0h2rcd13ifvqd40","pricing_plan_id":"free"},{"bike_id":"e4d02b92-332b-4014-a37d-368ee8c64f11","system_id":"levelo_inurba_marseille","lat":43.337791,"lon":5.37425,"is_reserved":false,"is_disabled":false,"rental_uris":{"android":"levelo://app?vid=e4d02b92-332b-4014-a37d-368ee8c64f11","ios":"levelo://app?vid=e4d02b92-332b-4014-a37d-368ee8c64f11"},"vehicle_type_id":"4","last_reported":1687295143,"current_range_meters":30400,"station_id":"","pricing_plan_id":"free"},{"bike_id":"fa020c06-37eb-41fb-9859-3646690505db","system_id":"levelo_inurba_marseille","lat":43.286961,"lon":5.373785,"is_reserved":false,"is_disabled":false,"rental_uris":{"android":"levelo://app?vid=fa020c06-37eb-41fb-9859-3646690505db","ios":"levelo://app?vid=fa020c06-37eb-41fb-9859-3646690505db"},"vehicle_type_id":"4","last_reported":1687295143,"current_range_meters":24400,"station_id":"ce4bh3p2rcd13ifvqdq0","pricing_plan_id":"free"},{"bike_id":"c76037a2-c80a-4d84-90f5-00474b839724","system_id":"levelo_inurba_marseille","lat":43.28706,"lon":5.3738,"is_reserved":false,"is_disabled":false,"rental_uris":{"android":"levelo://app?vid=c76037a2-c80a-4d84-90f5-00474b839724","ios":"levelo://app?vid=c76037a2-c80a-4d84-90f5-00474b839724"},"vehicle_type_id":"4","last_reported":1687295143,"current_range_meters":28400,"station_id":"ce4bh3p2rcd13ifvqdq0","pricing_plan_id":"free"},{"bike_id":"5054e3ca-0890-4b45-969a-d7115d72bb9a","system_id":"levelo_inurba_marseille","lat":43.286961,"lon":5.373785,"is_reserved":false,"is_disabled":false,"rental_uris":{"android":"levelo://app?vid=5054e3ca-0890-4b45-969a-d7115d72bb9a","ios":"levelo://app?vid=5054e3ca-0890-4b45-969a-d7115d72bb9a"},"vehicle_type_id":"4","last_reported":1687295143,"current_range_meters":30400,"station_id":"ce4bh3p2rcd13ifvqdq0","pricing_plan_id":"free"},{"bike_id":"bf299a06-a6d6-4840-8104-eca6e24c5375","system_id":"levelo_inurba_marseille","lat":43.298681,"lon":5.397225,"is_reserved":false,"is_disabled":false,"rental_uris":{"android":"levelo://app?vid=bf299a06-a6d6-4840-8104-eca6e24c5375","ios":"levelo://app?vid=bf299a06-a6d6-4840-8104-eca6e24c5375"},"vehicle_type_id":"4","last_reported":1687295143,"current_range_meters":13600,"station_id":"ce4bh0h2rcd13ifvqd50","pricing_plan_id":"free"},{"bike_id":"5d577373-5845-4442-b3e9-7d982cfd5d6e","system_id":"levelo_inurba_marseille","lat":43.298681,"lon":5.397225,"is_reserved":false,"is_disabled":false,"rental_uris":{"android":"levelo://app?vid=5d577373-5845-4442-b3e9-7d982cfd5d6e","ios":"levelo://app?vid=5d577373-5845-4442-b3e9-7d982cfd5d6e"},"vehicle_type_id":"4","last_reported":1687295143,"current_range_meters":27600,"station_id":"ce4bh0h2rcd13ifvqd50","pricing_plan_id":"free"},{"bike_id":"bd2ee7eb-7fa8-40be-a24b-26778be6e827","system_id":"levelo_inurba_marseille","lat":43.286591,"lon":5.363346,"is_reserved":false,"is_disabled":false,"rental_uris":{"android":"levelo://app?vid=bd2ee7eb-7fa8-40be-a24b-26778be6e827","ios":"levelo://app?vid=bd2ee7eb-7fa8-40be-a24b-26778be6e827"},"vehicle_type_id":"4","last_reported":1687295143,"current_range_meters":31200,"station_id":"ce4bhah2rcd13ifvqej0","pricing_plan_id":"free"},{"bike_id":"7f41f036-3ccb-444f-b454-812dfe0a32a0","system_id":"levelo_inurba_marseille","lat":43.28845,"lon":5.35336,"is_reserved":false,"is_disabled":false,"rental_uris":{"android":"levelo://app?vid=7f41f036-3ccb-444f-b454-812dfe0a32a0","ios":"levelo://app?vid=7f41f036-3ccb-444f-b454-812dfe0a32a0"},"vehicle_type_id":"4","last_reported":1687295143,"current_range_meters":16000,"station_id":"","pricing_plan_id":"free"},{"bike_id":"26a78582-e2ee-4495-bc9e-2daf0c692872","system_id":"levelo_inurba_marseille","lat":43.286593,"lon":5.363346,"is_reserved":false,"is_disabled":false,"rental_uris":{"android":"levelo://app?vid=26a78582-e2ee-4495-bc9e-2daf0c692872","ios":"levelo://app?vid=26a78582-e2ee-4495-bc9e-2daf0c692872"},"vehicle_type_id":"4","last_reported":1687295143,"current_range_meters":22000,"station_id":"ce4bhah2rcd13ifvqej0","pricing_plan_id":"free"},{"bike_id":"121785df-6b6a-4fbe-9eb3-c500b96f287f","system_id":"levelo_inurba_marseille","lat":43.286591,"lon":5.363346,"is_reserved":false,"is_disabled":false,"rental_uris":{"android":"levelo://app?vid=121785df-6b6a-4fbe-9eb3-c500b96f287f","ios":"levelo://app?vid=121785df-6b6a-4fbe-9eb3-c500b96f287f"},"vehicle_type_id":"4","last_reported":1687295143,"current_range_meters":9600,"station_id":"ce4bhah2rcd13ifvqej0","pricing_plan_id":"free"},{"bike_id":"222cbce9-7315-4a61-b40e-40b441f1422a","system_id":"levelo_inurba_marseille","lat":43.286591,"lon":5.363346,"is_reserved":false,"is_disabled":false,"rental_uris":{"android":"levelo://app?vid=222cbce9-7315-4a61-b40e-40b441f1422a","ios":"levelo://app?vid=222cbce9-7315-4a61-b40e-40b441f1422a"},"vehicle_type_id":"4","last_reported":1687295143,"current_range_meters":23200,"station_id":"ce4bhah2rcd13ifvqej0","pricing_plan_id":"free"},{"bike_id":"56c74675-01a4-45e4-bce8-c5c7335a422d","system_id":"levelo_inurba_marseille","lat":43.286593,"lon":5.363346,"is_reserved":false,"is_disabled":false,"rental_uris":{"android":"levelo://app?vid=56c74675-01a4-45e4-bce8-c5c7335a422d","ios":"levelo://app?vid=56c74675-01a4-45e4-bce8-c5c7335a422d"},"vehicle_type_id":"4","last_reported":1687295143,"current_range_meters":31200,"station_id":"ce4bhah2rcd13ifvqej0","pricing_plan_id":"free"},{"bike_id":"e3ec115b-dc29-4a3f-b07f-92adf2051303","system_id":"levelo_inurba_marseille","lat":43.286961,"lon":5.373785,"is_reserved":false,"is_disabled":false,"rental_uris":{"android":"levelo://app?vid=e3ec115b-dc29-4a3f-b07f-92adf2051303","ios":"levelo://app?vid=e3ec115b-dc29-4a3f-b07f-92adf2051303"},"vehicle_type_id":"4","last_reported":1687295143,"current_range_meters":26000,"station_id":"ce4bh3p2rcd13ifvqdq0","pricing_plan_id":"free"},{"bike_id":"ed532805-0529-4365-baea-a48e11d50e21","system_id":"levelo_inurba_marseille","lat":43.290336,"lon":5.386425,"is_reserved":false,"is_disabled":false,"rental_uris":{"android":"levelo://app?vid=ed532805-0529-4365-baea-a48e11d50e21","ios":"levelo://app?vid=ed532805-0529-4365-baea-a48e11d50e21"},"vehicle_type_id":"4","last_reported":1687295143,"current_range_meters":22400,"station_id":"ce4bh4p2rcd13ifvqe0g","pricing_plan_id":"free"},{"bike_id":"42ff472a-8f10-40eb-8a7e-ffbe871e34ce","system_id":"levelo_inurba_marseille","lat":43.290336,"lon":5.386425,"is_reserved":false,"is_disabled":false,"rental_uris":{"android":"levelo://app?vid=42ff472a-8f10-40eb-8a7e-ffbe871e34ce","ios":"levelo://app?vid=42ff472a-8f10-40eb-8a7e-ffbe871e34ce"},"vehicle_type_id":"4","last_reported":1687295143,"current_range_meters":21200,"station_id":"ce4bh4p2rcd13ifvqe0g","pricing_plan_id":"free"},{"bike_id":"41cf7df6-5bbd-43ad-9f9d-8a1279a06449","system_id":"levelo_inurba_marseille","lat":43.290336,"lon":5.386425,"is_reserved":false,"is_disabled":false,"rental_uris":{"android":"levelo://app?vid=41cf7df6-5bbd-43ad-9f9d-8a1279a06449","ios":"levelo://app?vid=41cf7df6-5bbd-43ad-9f9d-8a1279a06449"},"vehicle_type_id":"4","last_reported":1687295143,"current_range_meters":0,"station_id":"ce4bh4p2rcd13ifvqe0g","pricing_plan_id":"free"},{"bike_id":"a28910c4-e313-4837-bda9-c0d593d61a7f","system_id":"levelo_inurba_marseille","lat":43.290336,"lon":5.386425,"is_reserved":false,"is_disabled":false,"rental_uris":{"android":"levelo://app?vid=a28910c4-e313-4837-bda9-c0d593d61a7f","ios":"levelo://app?vid=a28910c4-e313-4837-bda9-c0d593d61a7f"},"vehicle_type_id":"4","last_reported":1687295143,"current_range_meters":31600,"station_id":"ce4bh4p2rcd13ifvqe0g","pricing_plan_id":"free"},{"bike_id":"ce339ec3-7c8d-420a-b9b1-9dcaec9306f0","system_id":"levelo_inurba_marseille","lat":43.290336,"lon":5.386425,"is_reserved":false,"is_disabled":false,"rental_uris":{"android":"levelo://app?vid=ce339ec3-7c8d-420a-b9b1-9dcaec9306f0","ios":"levelo://app?vid=ce339ec3-7c8d-420a-b9b1-9dcaec9306f0"},"vehicle_type_id":"4","last_reported":1687295143,"current_range_meters":13200,"station_id":"ce4bh4p2rcd13ifvqe0g","pricing_plan_id":"free"},{"bike_id":"e9bfbcd4-ff0c-4a60-a7fe-f90d864174f3","system_id":"levelo_inurba_marseille","lat":43.286039,"lon":5.370679,"is_reserved":false,"is_disabled":false,"rental_uris":{"android":"levelo://app?vid=e9bfbcd4-ff0c-4a60-a7fe-f90d864174f3","ios":"levelo://app?vid=e9bfbcd4-ff0c-4a60-a7fe-f90d864174f3"},"vehicle_type_id":"4","last_reported":1687295143,"current_range_meters":28400,"station_id":"ce4bht12rcd13ifvqi60","pricing_plan_id":"free"},{"bike_id":"4232d5fe-82a1-4c28-afbc-72298c2b50c4","system_id":"levelo_inurba_marseille","lat":43.290336,"lon":5.386425,"is_reserved":false,"is_disabled":false,"rental_uris":{"android":"levelo://app?vid=4232d5fe-82a1-4c28-afbc-72298c2b50c4","ios":"levelo://app?vid=4232d5fe-82a1-4c28-afbc-72298c2b50c4"},"vehicle_type_id":"4","last_reported":1687295143,"current_range_meters":30400,"station_id":"ce4bh4p2rcd13ifvqe0g","pricing_plan_id":"free"},{"bike_id":"c5b3dfcf-7545-4dd0-af2c-140a135ff17b","system_id":"levelo_inurba_marseille","lat":43.286039,"lon":5.370679,"is_reserved":false,"is_disabled":false,"rental_uris":{"android":"levelo://app?vid=c5b3dfcf-7545-4dd0-af2c-140a135ff17b","ios":"levelo://app?vid=c5b3dfcf-7545-4dd0-af2c-140a135ff17b"},"vehicle_type_id":"4","last_reported":1687295143,"current_range_meters":13600,"station_id":"ce4bht12rcd13ifvqi60","pricing_plan_id":"free"},{"bike_id":"1d0a8ea2-5351-4bdc-846d-0bf7335c6eef","system_id":"levelo_inurba_marseille","lat":43.286039,"lon":5.370679,"is_reserved":false,"is_disabled":false,"rental_uris":{"android":"levelo://app?vid=1d0a8ea2-5351-4bdc-846d-0bf7335c6eef","ios":"levelo://app?vid=1d0a8ea2-5351-4bdc-846d-0bf7335c6eef"},"vehicle_type_id":"4","last_reported":1687295143,"current_range_meters":21200,"station_id":"ce4bht12rcd13ifvqi60","pricing_plan_id":"free"},{"bike_id":"8a3358ae-a67f-4726-b298-ac8eb95c1c53","system_id":"levelo_inurba_marseille","lat":43.28637,"lon":5.37336,"is_reserved":false,"is_disabled":false,"rental_uris":{"android":"levelo://app?vid=8a3358ae-a67f-4726-b298-ac8eb95c1c53","ios":"levelo://app?vid=8a3358ae-a67f-4726-b298-ac8eb95c1c53"},"vehicle_type_id":"4","last_reported":1687295143,"current_range_meters":22400,"station_id":"","pricing_plan_id":"free"},{"bike_id":"e98b1d69-bde9-457a-9287-1b24b6f85e96","system_id":"levelo_inurba_marseille","lat":43.286039,"lon":5.370679,"is_reserved":false,"is_disabled":false,"rental_uris":{"android":"levelo://app?vid=e98b1d69-bde9-457a-9287-1b24b6f85e96","ios":"levelo://app?vid=e98b1d69-bde9-457a-9287-1b24b6f85e96"},"vehicle_type_id":"4","last_reported":1687295143,"current_range_meters":28400,"station_id":"ce4bht12rcd13ifvqi60","pricing_plan_id":"free"},{"bike_id":"5626af29-9ded-4339-8a4f-ae5eb09432c3","system_id":"levelo_inurba_marseille","lat":43.286039,"lon":5.370679,"is_reserved":false,"is_disabled":false,"rental_uris":{"android":"levelo://app?vid=5626af29-9ded-4339-8a4f-ae5eb09432c3","ios":"levelo://app?vid=5626af29-9ded-4339-8a4f-ae5eb09432c3"},"vehicle_type_id":"4","last_reported":1687295143,"current_range_meters":31200,"station_id":"ce4bht12rcd13ifvqi60","pricing_plan_id":"free"},{"bike_id":"d1d40392-0170-4db9-a2ae-8d0f9a061771","system_id":"levelo_inurba_marseille","lat":43.287184,"lon":5.37937,"is_reserved":false,"is_disabled":false,"rental_uris":{"android":"levelo://app?vid=d1d40392-0170-4db9-a2ae-8d0f9a061771","ios":"levelo://app?vid=d1d40392-0170-4db9-a2ae-8d0f9a061771"},"vehicle_type_id":"4","last_reported":1687295143,"current_range_meters":24800,"station_id":"ce4bh9p2rcd13ifvqec0","pricing_plan_id":"free"},{"bike_id":"a27d1bbd-f280-4acf-bc5c-caebb034e014","system_id":"levelo_inurba_marseille","lat":43.287184,"lon":5.37937,"is_reserved":false,"is_disabled":false,"rental_uris":{"android":"levelo://app?vid=a27d1bbd-f280-4acf-bc5c-caebb034e014","ios":"levelo://app?vid=a27d1bbd-f280-4acf-bc5c-caebb034e014"},"vehicle_type_id":"4","last_reported":1687295143,"current_range_meters":0,"station_id":"ce4bh9p2rcd13ifvqec0","pricing_plan_id":"free"},{"bike_id":"86549a6f-8609-4025-ba42-8c02f728877b","system_id":"levelo_inurba_marseille","lat":43.287184,"lon":5.37937,"is_reserved":false,"is_disabled":false,"rental_uris":{"android":"levelo://app?vid=86549a6f-8609-4025-ba42-8c02f728877b","ios":"levelo://app?vid=86549a6f-8609-4025-ba42-8c02f728877b"},"vehicle_type_id":"4","last_reported":1687295143,"current_range_meters":30800,"station_id":"ce4bh9p2rcd13ifvqec0","pricing_plan_id":"free"},{"bike_id":"7fcda8f7-a34e-4c9e-aea9-952595232152","system_id":"levelo_inurba_marseille","lat":43.287185,"lon":5.379373,"is_reserved":false,"is_disabled":false,"rental_uris":{"android":"levelo://app?vid=7fcda8f7-a34e-4c9e-aea9-952595232152","ios":"levelo://app?vid=7fcda8f7-a34e-4c9e-aea9-952595232152"},"vehicle_type_id":"4","last_reported":1687295143,"current_range_meters":1600,"station_id":"ce4bh9p2rcd13ifvqec0","pricing_plan_id":"free"},{"bike_id":"0d78731c-4958-412c-b8cb-4b6e0d2acd93","system_id":"levelo_inurba_marseille","lat":43.28725,"lon":5.37941,"is_reserved":false,"is_disabled":false,"rental_uris":{"android":"levelo://app?vid=0d78731c-4958-412c-b8cb-4b6e0d2acd93","ios":"levelo://app?vid=0d78731c-4958-412c-b8cb-4b6e0d2acd93"},"vehicle_type_id":"4","last_reported":1687295143,"current_range_meters":20400,"station_id":"ce4bh9p2rcd13ifvqec0","pricing_plan_id":"free"},{"bike_id":"c050a06d-2966-4981-ab84-274d645d1f95","system_id":"levelo_inurba_marseille","lat":43.287185,"lon":5.379373,"is_reserved":false,"is_disabled":false,"rental_uris":{"android":"levelo://app?vid=c050a06d-2966-4981-ab84-274d645d1f95","ios":"levelo://app?vid=c050a06d-2966-4981-ab84-274d645d1f95"},"vehicle_type_id":"4","last_reported":1687295143,"current_range_meters":17600,"station_id":"ce4bh9p2rcd13ifvqec0","pricing_plan_id":"free"},{"bike_id":"51d029d5-41ff-49a3-a951-eb022aa7328d","system_id":"levelo_inurba_marseille","lat":43.287185,"lon":5.379373,"is_reserved":false,"is_disabled":false,"rental_uris":{"android":"levelo://app?vid=51d029d5-41ff-49a3-a951-eb022aa7328d","ios":"levelo://app?vid=51d029d5-41ff-49a3-a951-eb022aa7328d"},"vehicle_type_id":"4","last_reported":1687295143,"current_range_meters":0,"station_id":"ce4bh9p2rcd13ifvqec0","pricing_plan_id":"free"},{"bike_id":"445b90ad-2356-4548-ac3c-fc8d3701e05e","system_id":"levelo_inurba_marseille","lat":43.287185,"lon":5.379373,"is_reserved":false,"is_disabled":false,"rental_uris":{"android":"levelo://app?vid=445b90ad-2356-4548-ac3c-fc8d3701e05e","ios":"levelo://app?vid=445b90ad-2356-4548-ac3c-fc8d3701e05e"},"vehicle_type_id":"4","last_reported":1687295143,"current_range_meters":28800,"station_id":"ce4bh9p2rcd13ifvqec0","pricing_plan_id":"free"},{"bike_id":"131d8996-5e35-441c-a8f1-dbeaae016096","system_id":"levelo_inurba_marseille","lat":43.287185,"lon":5.379373,"is_reserved":false,"is_disabled":false,"rental_uris":{"android":"levelo://app?vid=131d8996-5e35-441c-a8f1-dbeaae016096","ios":"levelo://app?vid=131d8996-5e35-441c-a8f1-dbeaae016096"},"vehicle_type_id":"4","last_reported":1687295143,"current_range_meters":8000,"station_id":"ce4bh9p2rcd13ifvqec0","pricing_plan_id":"free"},{"bike_id":"2a2a4594-1a48-4c4d-a4bf-30f640d25d6c","system_id":"levelo_inurba_marseille","lat":43.287185,"lon":5.379373,"is_reserved":false,"is_disabled":false,"rental_uris":{"android":"levelo://app?vid=2a2a4594-1a48-4c4d-a4bf-30f640d25d6c","ios":"levelo://app?vid=2a2a4594-1a48-4c4d-a4bf-30f640d25d6c"},"vehicle_type_id":"4","last_reported":1687295143,"current_range_meters":14000,"station_id":"ce4bh9p2rcd13ifvqec0","pricing_plan_id":"free"},{"bike_id":"83efae36-a328-40fb-959c-fe2cc4e6efb6","system_id":"levelo_inurba_marseille","lat":43.316517,"lon":5.404375,"is_reserved":false,"is_disabled":false,"rental_uris":{"android":"levelo://app?vid=83efae36-a328-40fb-959c-fe2cc4e6efb6","ios":"levelo://app?vid=83efae36-a328-40fb-959c-fe2cc4e6efb6"},"vehicle_type_id":"4","last_reported":1687295143,"current_range_meters":2800,"station_id":"ce4bh012rcd13ifvqd00","pricing_plan_id":"free"},{"bike_id":"ac23a2fe-d4b3-4702-8441-b7ed9f4f0ee2","system_id":"levelo_inurba_marseille","lat":43.316517,"lon":5.404375,"is_reserved":false,"is_disabled":false,"rental_uris":{"android":"levelo://app?vid=ac23a2fe-d4b3-4702-8441-b7ed9f4f0ee2","ios":"levelo://app?vid=ac23a2fe-d4b3-4702-8441-b7ed9f4f0ee2"},"vehicle_type_id":"4","last_reported":1687295143,"current_range_meters":3200,"station_id":"ce4bh012rcd13ifvqd00","pricing_plan_id":"free"},{"bike_id":"4c1a61a6-96b4-4329-80dd-11df3c2e496c","system_id":"levelo_inurba_marseille","lat":43.316517,"lon":5.404375,"is_reserved":false,"is_disabled":false,"rental_uris":{"android":"levelo://app?vid=4c1a61a6-96b4-4329-80dd-11df3c2e496c","ios":"levelo://app?vid=4c1a61a6-96b4-4329-80dd-11df3c2e496c"},"vehicle_type_id":"4","last_reported":1687295143,"current_range_meters":31200,"station_id":"ce4bh012rcd13ifvqd00","pricing_plan_id":"free"},{"bike_id":"4abea754-0f18-4956-95da-39d148da046e","system_id":"levelo_inurba_marseille","lat":43.316517,"lon":5.404375,"is_reserved":false,"is_disabled":false,"rental_uris":{"android":"levelo://app?vid=4abea754-0f18-4956-95da-39d148da046e","ios":"levelo://app?vid=4abea754-0f18-4956-95da-39d148da046e"},"vehicle_type_id":"4","last_reported":1687295143,"current_range_meters":31200,"station_id":"ce4bh012rcd13ifvqd00","pricing_plan_id":"free"},{"bike_id":"42e53e8a-cb68-4246-ad90-cd31cd93bee4","system_id":"levelo_inurba_marseille","lat":43.31638,"lon":5.40447,"is_reserved":false,"is_disabled":false,"rental_uris":{"android":"levelo://app?vid=42e53e8a-cb68-4246-ad90-cd31cd93bee4","ios":"levelo://app?vid=42e53e8a-cb68-4246-ad90-cd31cd93bee4"},"vehicle_type_id":"4","last_reported":1687295143,"current_range_meters":31200,"station_id":"ce4bh012rcd13ifvqd00","pricing_plan_id":"free"},{"bike_id":"2b64fdd5-1677-4d8c-b743-f129f3a6d392","system_id":"levelo_inurba_marseille","lat":43.31651,"lon":5.40445,"is_reserved":false,"is_disabled":false,"rental_uris":{"android":"levelo://app?vid=2b64fdd5-1677-4d8c-b743-f129f3a6d392","ios":"levelo://app?vid=2b64fdd5-1677-4d8c-b743-f129f3a6d392"},"vehicle_type_id":"4","last_reported":1687295143,"current_range_meters":27600,"station_id":"ce4bh012rcd13ifvqd00","pricing_plan_id":"free"},{"bike_id":"8f54d320-cbea-4117-8aa0-1d7c4c1076ae","system_id":"levelo_inurba_marseille","lat":43.291994,"lon":5.392907,"is_reserved":false,"is_disabled":false,"rental_uris":{"android":"levelo://app?vid=8f54d320-cbea-4117-8aa0-1d7c4c1076ae","ios":"levelo://app?vid=8f54d320-cbea-4117-8aa0-1d7c4c1076ae"},"vehicle_type_id":"4","last_reported":1687295143,"current_range_meters":19600,"station_id":"ce4bh192rcd13ifvqdd0","pricing_plan_id":"free"},{"bike_id":"977ca164-b874-4cd1-b7a4-044a420377d1","system_id":"levelo_inurba_marseille","lat":43.29203,"lon":5.39316,"is_reserved":false,"is_disabled":false,"rental_uris":{"android":"levelo://app?vid=977ca164-b874-4cd1-b7a4-044a420377d1","ios":"levelo://app?vid=977ca164-b874-4cd1-b7a4-044a420377d1"},"vehicle_type_id":"4","last_reported":1687295143,"current_range_meters":25600,"station_id":"ce4bh192rcd13ifvqdd0","pricing_plan_id":"free"},{"bike_id":"f8e8a8f6-8f97-4b48-a547-24eba9468ec5","system_id":"levelo_inurba_marseille","lat":43.291994,"lon":5.392907,"is_reserved":false,"is_disabled":false,"rental_uris":{"android":"levelo://app?vid=f8e8a8f6-8f97-4b48-a547-24eba9468ec5","ios":"levelo://app?vid=f8e8a8f6-8f97-4b48-a547-24eba9468ec5"},"vehicle_type_id":"4","last_reported":1687295143,"current_range_meters":28400,"station_id":"ce4bh192rcd13ifvqdd0","pricing_plan_id":"free"},{"bike_id":"0f55c3cb-1ae0-42b4-a61a-6ff08e997cee","system_id":"levelo_inurba_marseille","lat":43.291994,"lon":5.392907,"is_reserved":false,"is_disabled":false,"rental_uris":{"android":"levelo://app?vid=0f55c3cb-1ae0-42b4-a61a-6ff08e997cee","ios":"levelo://app?vid=0f55c3cb-1ae0-42b4-a61a-6ff08e997cee"},"vehicle_type_id":"4","last_reported":1687295143,"current_range_meters":16400,"station_id":"ce4bh192rcd13ifvqdd0","pricing_plan_id":"free"},{"bike_id":"aaa6c642-961e-4394-a11c-1e020f3b51cb","system_id":"levelo_inurba_marseille","lat":43.291994,"lon":5.392907,"is_reserved":false,"is_disabled":false,"rental_uris":{"android":"levelo://app?vid=aaa6c642-961e-4394-a11c-1e020f3b51cb","ios":"levelo://app?vid=aaa6c642-961e-4394-a11c-1e020f3b51cb"},"vehicle_type_id":"4","last_reported":1687295143,"current_range_meters":30400,"station_id":"ce4bh192rcd13ifvqdd0","pricing_plan_id":"free"},{"bike_id":"a7fc1897-79df-49f5-b5a0-3a86b7ed938b","system_id":"levelo_inurba_marseille","lat":43.33348,"lon":5.39375,"is_reserved":false,"is_disabled":false,"rental_uris":{"android":"levelo://app?vid=a7fc1897-79df-49f5-b5a0-3a86b7ed938b","ios":"levelo://app?vid=a7fc1897-79df-49f5-b5a0-3a86b7ed938b"},"vehicle_type_id":"4","last_reported":1687295143,"current_range_meters":0,"station_id":"","pricing_plan_id":"free"},{"bike_id":"d2ee41f7-506f-45d6-81a9-b4b3e31a5812","system_id":"levelo_inurba_marseille","lat":43.28461,"lon":5.35894,"is_reserved":false,"is_disabled":false,"rental_uris":{"android":"levelo://app?vid=d2ee41f7-506f-45d6-81a9-b4b3e31a5812","ios":"levelo://app?vid=d2ee41f7-506f-45d6-81a9-b4b3e31a5812"},"vehicle_type_id":"4","last_reported":1687295143,"current_range_meters":26800,"station_id":"ce4bhah2rcd13ifvqei0","pricing_plan_id":"free"},{"bike_id":"c45c133c-7e18-4892-ad2a-838c1064d748","system_id":"levelo_inurba_marseille","lat":43.28458,"lon":5.35891,"is_reserved":false,"is_disabled":false,"rental_uris":{"android":"levelo://app?vid=c45c133c-7e18-4892-ad2a-838c1064d748","ios":"levelo://app?vid=c45c133c-7e18-4892-ad2a-838c1064d748"},"vehicle_type_id":"4","last_reported":1687295143,"current_range_meters":18000,"station_id":"ce4bhah2rcd13ifvqei0","pricing_plan_id":"free"},{"bike_id":"06803be0-9b72-4d0b-a2b6-390e6a5c9ee3","system_id":"levelo_inurba_marseille","lat":43.28458,"lon":5.35889,"is_reserved":false,"is_disabled":false,"rental_uris":{"android":"levelo://app?vid=06803be0-9b72-4d0b-a2b6-390e6a5c9ee3","ios":"levelo://app?vid=06803be0-9b72-4d0b-a2b6-390e6a5c9ee3"},"vehicle_type_id":"4","last_reported":1687295143,"current_range_meters":20800,"station_id":"ce4bhah2rcd13ifvqei0","pricing_plan_id":"free"},{"bike_id":"1745f31a-b642-4dd7-bed1-b132ffa08912","system_id":"levelo_inurba_marseille","lat":43.28458,"lon":5.35887,"is_reserved":false,"is_disabled":false,"rental_uris":{"android":"levelo://app?vid=1745f31a-b642-4dd7-bed1-b132ffa08912","ios":"levelo://app?vid=1745f31a-b642-4dd7-bed1-b132ffa08912"},"vehicle_type_id":"4","last_reported":1687295143,"current_range_meters":12400,"station_id":"ce4bhah2rcd13ifvqei0","pricing_plan_id":"free"},{"bike_id":"d647fc1f-ba57-4927-b2d6-f4aac7f53f35","system_id":"levelo_inurba_marseille","lat":43.28455,"lon":5.35888,"is_reserved":false,"is_disabled":false,"rental_uris":{"android":"levelo://app?vid=d647fc1f-ba57-4927-b2d6-f4aac7f53f35","ios":"levelo://app?vid=d647fc1f-ba57-4927-b2d6-f4aac7f53f35"},"vehicle_type_id":"4","last_reported":1687295143,"current_range_meters":31200,"station_id":"ce4bhah2rcd13ifvqei0","pricing_plan_id":"free"},{"bike_id":"78e17254-29a2-4b88-9cf1-ae8e54ec40d5","system_id":"levelo_inurba_marseille","lat":43.284534,"lon":5.358662,"is_reserved":false,"is_disabled":false,"rental_uris":{"android":"levelo://app?vid=78e17254-29a2-4b88-9cf1-ae8e54ec40d5","ios":"levelo://app?vid=78e17254-29a2-4b88-9cf1-ae8e54ec40d5"},"vehicle_type_id":"4","last_reported":1687295143,"current_range_meters":26800,"station_id":"ce4bhah2rcd13ifvqei0","pricing_plan_id":"free"},{"bike_id":"e145ee82-b278-441b-a5e7-00c4b1ffcf19","system_id":"levelo_inurba_marseille","lat":43.283998,"lon":5.375062,"is_reserved":false,"is_disabled":false,"rental_uris":{"android":"levelo://app?vid=e145ee82-b278-441b-a5e7-00c4b1ffcf19","ios":"levelo://app?vid=e145ee82-b278-441b-a5e7-00c4b1ffcf19"},"vehicle_type_id":"4","last_reported":1687295143,"current_range_meters":31200,"station_id":"ce4bh412rcd13ifvqds0","pricing_plan_id":"free"},{"bike_id":"13bde7d5-8435-4740-9afa-696bbe4a2916","system_id":"levelo_inurba_marseille","lat":43.283998,"lon":5.375062,"is_reserved":false,"is_disabled":false,"rental_uris":{"android":"levelo://app?vid=13bde7d5-8435-4740-9afa-696bbe4a2916","ios":"levelo://app?vid=13bde7d5-8435-4740-9afa-696bbe4a2916"},"vehicle_type_id":"4","last_reported":1687295143,"current_range_meters":4800,"station_id":"ce4bh412rcd13ifvqds0","pricing_plan_id":"free"},{"bike_id":"48ddc696-db94-402e-9a2d-6dd4324d67dc","system_id":"levelo_inurba_marseille","lat":43.28422,"lon":5.37516,"is_reserved":false,"is_disabled":false,"rental_uris":{"android":"levelo://app?vid=48ddc696-db94-402e-9a2d-6dd4324d67dc","ios":"levelo://app?vid=48ddc696-db94-402e-9a2d-6dd4324d67dc"},"vehicle_type_id":"4","last_reported":1687295143,"current_range_meters":5600,"station_id":"ce4bh412rcd13ifvqds0","pricing_plan_id":"free"},{"bike_id":"05d09213-c085-4458-bbe4-964304b7d429","system_id":"levelo_inurba_marseille","lat":43.28412,"lon":5.37504,"is_reserved":false,"is_disabled":false,"rental_uris":{"android":"levelo://app?vid=05d09213-c085-4458-bbe4-964304b7d429","ios":"levelo://app?vid=05d09213-c085-4458-bbe4-964304b7d429"},"vehicle_type_id":"4","last_reported":1687295143,"current_range_meters":15200,"station_id":"ce4bh412rcd13ifvqds0","pricing_plan_id":"free"},{"bike_id":"78f38f1d-4140-453f-b5b3-5b07a77e99b6","system_id":"levelo_inurba_marseille","lat":43.295713,"lon":5.399639,"is_reserved":false,"is_disabled":false,"rental_uris":{"android":"levelo://app?vid=78f38f1d-4140-453f-b5b3-5b07a77e99b6","ios":"levelo://app?vid=78f38f1d-4140-453f-b5b3-5b07a77e99b6"},"vehicle_type_id":"4","last_reported":1687295143,"current_range_meters":1200,"station_id":"ce4bh312rcd13ifvqdj0","pricing_plan_id":"free"},{"bike_id":"a0294cbe-ddff-445e-81c2-60a75d245509","system_id":"levelo_inurba_marseille","lat":43.322,"lon":5.40577,"is_reserved":false,"is_disabled":false,"rental_uris":{"android":"levelo://app?vid=a0294cbe-ddff-445e-81c2-60a75d245509","ios":"levelo://app?vid=a0294cbe-ddff-445e-81c2-60a75d245509"},"vehicle_type_id":"4","last_reported":1687295143,"current_range_meters":16800,"station_id":"","pricing_plan_id":"free"},{"bike_id":"f6fda2f2-04f1-4377-bae3-2fc212d95c47","system_id":"levelo_inurba_marseille","lat":43.34237,"lon":5.36184,"is_reserved":false,"is_disabled":false,"rental_uris":{"android":"levelo://app?vid=f6fda2f2-04f1-4377-bae3-2fc212d95c47","ios":"levelo://app?vid=f6fda2f2-04f1-4377-bae3-2fc212d95c47"},"vehicle_type_id":"4","last_reported":1687295143,"current_range_meters":9200,"station_id":"","pricing_plan_id":"free"},{"bike_id":"1b5cab66-590b-460a-9914-864900fba592","system_id":"levelo_inurba_marseille","lat":43.33725,"lon":5.39179,"is_reserved":false,"is_disabled":false,"rental_uris":{"android":"levelo://app?vid=1b5cab66-590b-460a-9914-864900fba592","ios":"levelo://app?vid=1b5cab66-590b-460a-9914-864900fba592"},"vehicle_type_id":"4","last_reported":1687295143,"current_range_meters":7200,"station_id":"","pricing_plan_id":"free"},{"bike_id":"d7b29256-fc07-4272-a85c-ecffd4d1832a","system_id":"levelo_inurba_marseille","lat":43.33725,"lon":5.39189,"is_reserved":false,"is_disabled":false,"rental_uris":{"android":"levelo://app?vid=d7b29256-fc07-4272-a85c-ecffd4d1832a","ios":"levelo://app?vid=d7b29256-fc07-4272-a85c-ecffd4d1832a"},"vehicle_type_id":"4","last_reported":1687295143,"current_range_meters":10800,"station_id":"","pricing_plan_id":"free"},{"bike_id":"64766038-4d37-4bbb-8324-fdd09852a999","system_id":"levelo_inurba_marseille","lat":43.33725,"lon":5.39193,"is_reserved":false,"is_disabled":false,"rental_uris":{"android":"levelo://app?vid=64766038-4d37-4bbb-8324-fdd09852a999","ios":"levelo://app?vid=64766038-4d37-4bbb-8324-fdd09852a999"},"vehicle_type_id":"4","last_reported":1687295143,"current_range_meters":16400,"station_id":"","pricing_plan_id":"free"},{"bike_id":"d4025ea1-f6c2-4b93-9940-8380dfaf410e","system_id":"levelo_inurba_marseille","lat":43.284787,"lon":5.384116,"is_reserved":false,"is_disabled":false,"rental_uris":{"android":"levelo://app?vid=d4025ea1-f6c2-4b93-9940-8380dfaf410e","ios":"levelo://app?vid=d4025ea1-f6c2-4b93-9940-8380dfaf410e"},"vehicle_type_id":"4","last_reported":1687295143,"current_range_meters":14400,"station_id":"ce4bh512rcd13ifvqe3g","pricing_plan_id":"free"},{"bike_id":"80ff7286-f7ff-4410-80d4-2d890c218cb0","system_id":"levelo_inurba_marseille","lat":43.288497,"lon":5.393089,"is_reserved":false,"is_disabled":false,"rental_uris":{"android":"levelo://app?vid=80ff7286-f7ff-4410-80d4-2d890c218cb0","ios":"levelo://app?vid=80ff7286-f7ff-4410-80d4-2d890c218cb0"},"vehicle_type_id":"4","last_reported":1687295143,"current_range_meters":17200,"station_id":"ce4bh2p2rcd13ifvqdi0","pricing_plan_id":"free"},{"bike_id":"00b4d942-d645-4a17-a320-9c02b5ecca68","system_id":"levelo_inurba_marseille","lat":43.288501,"lon":5.393087,"is_reserved":false,"is_disabled":false,"rental_uris":{"android":"levelo://app?vid=00b4d942-d645-4a17-a320-9c02b5ecca68","ios":"levelo://app?vid=00b4d942-d645-4a17-a320-9c02b5ecca68"},"vehicle_type_id":"4","last_reported":1687295143,"current_range_meters":12800,"station_id":"ce4bh2p2rcd13ifvqdi0","pricing_plan_id":"free"},{"bike_id":"c20988c7-8ac1-4781-8fb7-5e468ba66e37","system_id":"levelo_inurba_marseille","lat":43.28847,"lon":5.39313,"is_reserved":false,"is_disabled":false,"rental_uris":{"android":"levelo://app?vid=c20988c7-8ac1-4781-8fb7-5e468ba66e37","ios":"levelo://app?vid=c20988c7-8ac1-4781-8fb7-5e468ba66e37"},"vehicle_type_id":"4","last_reported":1687295143,"current_range_meters":800,"station_id":"ce4bh2p2rcd13ifvqdi0","pricing_plan_id":"free"},{"bike_id":"2eae0dbd-6c63-460c-9ba2-c173497daf8f","system_id":"levelo_inurba_marseille","lat":43.288497,"lon":5.393089,"is_reserved":false,"is_disabled":false,"rental_uris":{"android":"levelo://app?vid=2eae0dbd-6c63-460c-9ba2-c173497daf8f","ios":"levelo://app?vid=2eae0dbd-6c63-460c-9ba2-c173497daf8f"},"vehicle_type_id":"4","last_reported":1687295143,"current_range_meters":12000,"station_id":"ce4bh2p2rcd13ifvqdi0","pricing_plan_id":"free"},{"bike_id":"475b6568-0f90-4add-a6be-0ca00a4dbb4f","system_id":"levelo_inurba_marseille","lat":43.283498,"lon":5.380948,"is_reserved":false,"is_disabled":false,"rental_uris":{"android":"levelo://app?vid=475b6568-0f90-4add-a6be-0ca00a4dbb4f","ios":"levelo://app?vid=475b6568-0f90-4add-a6be-0ca00a4dbb4f"},"vehicle_type_id":"4","last_reported":1687295143,"current_range_meters":24800,"station_id":"ce4bh412rcd13ifvqdr0","pricing_plan_id":"free"},{"bike_id":"e9e2d1ba-de81-40b5-8285-9e3d6d18de7b","system_id":"levelo_inurba_marseille","lat":43.284217,"lon":5.349697,"is_reserved":false,"is_disabled":false,"rental_uris":{"android":"levelo://app?vid=e9e2d1ba-de81-40b5-8285-9e3d6d18de7b","ios":"levelo://app?vid=e9e2d1ba-de81-40b5-8285-9e3d6d18de7b"},"vehicle_type_id":"4","last_reported":1687295143,"current_range_meters":0,"station_id":"ce4bhbh2rcd13ifvqepg","pricing_plan_id":"free"},{"bike_id":"16e5fedd-6e86-436a-a0a2-72c7cd60a6ea","system_id":"levelo_inurba_marseille","lat":43.32182,"lon":5.40797,"is_reserved":false,"is_disabled":false,"rental_uris":{"android":"levelo://app?vid=16e5fedd-6e86-436a-a0a2-72c7cd60a6ea","ios":"levelo://app?vid=16e5fedd-6e86-436a-a0a2-72c7cd60a6ea"},"vehicle_type_id":"4","last_reported":1687295143,"current_range_meters":22400,"station_id":"","pricing_plan_id":"free"},{"bike_id":"9f79c3ac-6142-4e39-9c5f-2f6daf1cafac","system_id":"levelo_inurba_marseille","lat":43.292724,"lon":5.401131,"is_reserved":false,"is_disabled":false,"rental_uris":{"android":"levelo://app?vid=9f79c3ac-6142-4e39-9c5f-2f6daf1cafac","ios":"levelo://app?vid=9f79c3ac-6142-4e39-9c5f-2f6daf1cafac"},"vehicle_type_id":"4","last_reported":1687295143,"current_range_meters":22400,"station_id":"ce4bh312rcd13ifvqdk0","pricing_plan_id":"free"},{"bike_id":"2a5b428c-799b-4687-bd2e-82a1736b5abb","system_id":"levelo_inurba_marseille","lat":43.29278,"lon":5.40118,"is_reserved":false,"is_disabled":false,"rental_uris":{"android":"levelo://app?vid=2a5b428c-799b-4687-bd2e-82a1736b5abb","ios":"levelo://app?vid=2a5b428c-799b-4687-bd2e-82a1736b5abb"},"vehicle_type_id":"4","last_reported":1687295143,"current_range_meters":24800,"station_id":"ce4bh312rcd13ifvqdk0","pricing_plan_id":"free"},{"bike_id":"c068aede-2c1a-4724-9849-2d42f3595acc","system_id":"levelo_inurba_marseille","lat":43.283502,"lon":5.386471,"is_reserved":false,"is_disabled":false,"rental_uris":{"android":"levelo://app?vid=c068aede-2c1a-4724-9849-2d42f3595acc","ios":"levelo://app?vid=c068aede-2c1a-4724-9849-2d42f3595acc"},"vehicle_type_id":"4","last_reported":1687295143,"current_range_meters":5200,"station_id":"ce4bh492rcd13ifvqdvg","pricing_plan_id":"free"},{"bike_id":"afcb7aa7-9e57-407f-a0bd-2ff4165a75cf","system_id":"levelo_inurba_marseille","lat":43.283502,"lon":5.386471,"is_reserved":false,"is_disabled":false,"rental_uris":{"android":"levelo://app?vid=afcb7aa7-9e57-407f-a0bd-2ff4165a75cf","ios":"levelo://app?vid=afcb7aa7-9e57-407f-a0bd-2ff4165a75cf"},"vehicle_type_id":"4","last_reported":1687295143,"current_range_meters":4800,"station_id":"ce4bh492rcd13ifvqdvg","pricing_plan_id":"free"},{"bike_id":"834443dd-956c-4b7d-8226-d80a093682d4","system_id":"levelo_inurba_marseille","lat":43.283502,"lon":5.386471,"is_reserved":false,"is_disabled":false,"rental_uris":{"android":"levelo://app?vid=834443dd-956c-4b7d-8226-d80a093682d4","ios":"levelo://app?vid=834443dd-956c-4b7d-8226-d80a093682d4"},"vehicle_type_id":"4","last_reported":1687295143,"current_range_meters":24400,"station_id":"ce4bh492rcd13ifvqdvg","pricing_plan_id":"free"},{"bike_id":"19e1824e-7611-40c3-8d14-b85613ca2aa3","system_id":"levelo_inurba_marseille","lat":43.2827,"lon":5.3506,"is_reserved":false,"is_disabled":false,"rental_uris":{"android":"levelo://app?vid=19e1824e-7611-40c3-8d14-b85613ca2aa3","ios":"levelo://app?vid=19e1824e-7611-40c3-8d14-b85613ca2aa3"},"vehicle_type_id":"4","last_reported":1687295143,"current_range_meters":16000,"station_id":"ce4bhbp2rcd13ifvqerg","pricing_plan_id":"free"},{"bike_id":"5cb8a53d-0188-4d40-8c25-7b0a83790b34","system_id":"levelo_inurba_marseille","lat":43.282754,"lon":5.350519,"is_reserved":false,"is_disabled":false,"rental_uris":{"android":"levelo://app?vid=5cb8a53d-0188-4d40-8c25-7b0a83790b34","ios":"levelo://app?vid=5cb8a53d-0188-4d40-8c25-7b0a83790b34"},"vehicle_type_id":"4","last_reported":1687295143,"current_range_meters":29200,"station_id":"ce4bhbp2rcd13ifvqerg","pricing_plan_id":"free"},{"bike_id":"89b9cae9-9606-4bbf-8de2-484f0b073f26","system_id":"levelo_inurba_marseille","lat":43.28039,"lon":5.369297,"is_reserved":false,"is_disabled":false,"rental_uris":{"android":"levelo://app?vid=89b9cae9-9606-4bbf-8de2-484f0b073f26","ios":"levelo://app?vid=89b9cae9-9606-4bbf-8de2-484f0b073f26"},"vehicle_type_id":"4","last_reported":1687295143,"current_range_meters":20400,"station_id":"ce4bha12rcd13ifvqef0","pricing_plan_id":"free"},{"bike_id":"d5379d0e-b137-448f-9713-918d2065ac04","system_id":"levelo_inurba_marseille","lat":43.28039,"lon":5.369297,"is_reserved":false,"is_disabled":false,"rental_uris":{"android":"levelo://app?vid=d5379d0e-b137-448f-9713-918d2065ac04","ios":"levelo://app?vid=d5379d0e-b137-448f-9713-918d2065ac04"},"vehicle_type_id":"4","last_reported":1687295143,"current_range_meters":12000,"station_id":"ce4bha12rcd13ifvqef0","pricing_plan_id":"free"},{"bike_id":"434eff29-018c-411d-a07a-2e0ac2da6102","system_id":"levelo_inurba_marseille","lat":43.28039,"lon":5.369297,"is_reserved":false,"is_disabled":false,"rental_uris":{"android":"levelo://app?vid=434eff29-018c-411d-a07a-2e0ac2da6102","ios":"levelo://app?vid=434eff29-018c-411d-a07a-2e0ac2da6102"},"vehicle_type_id":"4","last_reported":1687295143,"current_range_meters":12000,"station_id":"ce4bha12rcd13ifvqef0","pricing_plan_id":"free"},{"bike_id":"4247feba-0ebb-479b-8028-5eb176dce8c5","system_id":"levelo_inurba_marseille","lat":43.28039,"lon":5.369297,"is_reserved":false,"is_disabled":false,"rental_uris":{"android":"levelo://app?vid=4247feba-0ebb-479b-8028-5eb176dce8c5","ios":"levelo://app?vid=4247feba-0ebb-479b-8028-5eb176dce8c5"},"vehicle_type_id":"4","last_reported":1687295143,"current_range_meters":23200,"station_id":"ce4bha12rcd13ifvqef0","pricing_plan_id":"free"},{"bike_id":"3c61871c-bd65-4380-8b62-f2187458c6cf","system_id":"levelo_inurba_marseille","lat":43.28035,"lon":5.36936,"is_reserved":false,"is_disabled":false,"rental_uris":{"android":"levelo://app?vid=3c61871c-bd65-4380-8b62-f2187458c6cf","ios":"levelo://app?vid=3c61871c-bd65-4380-8b62-f2187458c6cf"},"vehicle_type_id":"4","last_reported":1687295143,"current_range_meters":18800,"station_id":"ce4bha12rcd13ifvqef0","pricing_plan_id":"free"},{"bike_id":"a0b29f5d-9167-42dd-bbc4-6e80ed59a6ce","system_id":"levelo_inurba_marseille","lat":43.28039,"lon":5.369297,"is_reserved":false,"is_disabled":false,"rental_uris":{"android":"levelo://app?vid=a0b29f5d-9167-42dd-bbc4-6e80ed59a6ce","ios":"levelo://app?vid=a0b29f5d-9167-42dd-bbc4-6e80ed59a6ce"},"vehicle_type_id":"4","last_reported":1687295143,"current_range_meters":28800,"station_id":"ce4bha12rcd13ifvqef0","pricing_plan_id":"free"},{"bike_id":"7cf8e26e-c727-41af-88e5-f57da0423090","system_id":"levelo_inurba_marseille","lat":43.28039,"lon":5.369297,"is_reserved":false,"is_disabled":false,"rental_uris":{"android":"levelo://app?vid=7cf8e26e-c727-41af-88e5-f57da0423090","ios":"levelo://app?vid=7cf8e26e-c727-41af-88e5-f57da0423090"},"vehicle_type_id":"4","last_reported":1687295143,"current_range_meters":29200,"station_id":"ce4bha12rcd13ifvqef0","pricing_plan_id":"free"},{"bike_id":"9064fe79-f0b6-4203-84f4-698fe07fd37e","system_id":"levelo_inurba_marseille","lat":43.28031,"lon":5.36943,"is_reserved":false,"is_disabled":false,"rental_uris":{"android":"levelo://app?vid=9064fe79-f0b6-4203-84f4-698fe07fd37e","ios":"levelo://app?vid=9064fe79-f0b6-4203-84f4-698fe07fd37e"},"vehicle_type_id":"4","last_reported":1687295143,"current_range_meters":17200,"station_id":"ce4bha12rcd13ifvqef0","pricing_plan_id":"free"},{"bike_id":"4989b521-664d-4a8e-af69-f942665c60c0","system_id":"levelo_inurba_marseille","lat":43.280382,"lon":5.369291,"is_reserved":false,"is_disabled":false,"rental_uris":{"android":"levelo://app?vid=4989b521-664d-4a8e-af69-f942665c60c0","ios":"levelo://app?vid=4989b521-664d-4a8e-af69-f942665c60c0"},"vehicle_type_id":"4","last_reported":1687295143,"current_range_meters":30400,"station_id":"ce4bha12rcd13ifvqef0","pricing_plan_id":"free"},{"bike_id":"b6013f3b-d0b8-485c-ab5b-dcefd2e7a15d","system_id":"levelo_inurba_marseille","lat":43.28039,"lon":5.369297,"is_reserved":false,"is_disabled":false,"rental_uris":{"android":"levelo://app?vid=b6013f3b-d0b8-485c-ab5b-dcefd2e7a15d","ios":"levelo://app?vid=b6013f3b-d0b8-485c-ab5b-dcefd2e7a15d"},"vehicle_type_id":"4","last_reported":1687295143,"current_range_meters":19600,"station_id":"ce4bha12rcd13ifvqef0","pricing_plan_id":"free"},{"bike_id":"6489e7e3-d34f-49e8-999e-49aeabad95fc","system_id":"levelo_inurba_marseille","lat":43.28039,"lon":5.369297,"is_reserved":false,"is_disabled":false,"rental_uris":{"android":"levelo://app?vid=6489e7e3-d34f-49e8-999e-49aeabad95fc","ios":"levelo://app?vid=6489e7e3-d34f-49e8-999e-49aeabad95fc"},"vehicle_type_id":"4","last_reported":1687295143,"current_range_meters":32000,"station_id":"ce4bha12rcd13ifvqef0","pricing_plan_id":"free"},{"bike_id":"b56869d9-cbaa-435c-8bf5-76c108000e3c","system_id":"levelo_inurba_marseille","lat":43.280382,"lon":5.369291,"is_reserved":false,"is_disabled":false,"rental_uris":{"android":"levelo://app?vid=b56869d9-cbaa-435c-8bf5-76c108000e3c","ios":"levelo://app?vid=b56869d9-cbaa-435c-8bf5-76c108000e3c"},"vehicle_type_id":"4","last_reported":1687295143,"current_range_meters":21200,"station_id":"ce4bha12rcd13ifvqef0","pricing_plan_id":"free"},{"bike_id":"8e623b92-1627-482e-bed6-92ec5672f75c","system_id":"levelo_inurba_marseille","lat":43.290412,"lon":5.399633,"is_reserved":false,"is_disabled":false,"rental_uris":{"android":"levelo://app?vid=8e623b92-1627-482e-bed6-92ec5672f75c","ios":"levelo://app?vid=8e623b92-1627-482e-bed6-92ec5672f75c"},"vehicle_type_id":"4","last_reported":1687295143,"current_range_meters":20800,"station_id":"ce4bh392rcd13ifvqdm0","pricing_plan_id":"free"},{"bike_id":"311355d7-8c31-4c8b-9abd-bce71e92fd36","system_id":"levelo_inurba_marseille","lat":43.290426,"lon":5.399584,"is_reserved":false,"is_disabled":false,"rental_uris":{"android":"levelo://app?vid=311355d7-8c31-4c8b-9abd-bce71e92fd36","ios":"levelo://app?vid=311355d7-8c31-4c8b-9abd-bce71e92fd36"},"vehicle_type_id":"4","last_reported":1687295143,"current_range_meters":6400,"station_id":"","pricing_plan_id":"free"},{"bike_id":"c27bbb83-0ede-4c27-933b-9378afbc4be0","system_id":"levelo_inurba_marseille","lat":43.290412,"lon":5.399633,"is_reserved":false,"is_disabled":false,"rental_uris":{"android":"levelo://app?vid=c27bbb83-0ede-4c27-933b-9378afbc4be0","ios":"levelo://app?vid=c27bbb83-0ede-4c27-933b-9378afbc4be0"},"vehicle_type_id":"4","last_reported":1687295143,"current_range_meters":1600,"station_id":"ce4bh392rcd13ifvqdm0","pricing_plan_id":"free"},{"bike_id":"5b05db69-a141-45ac-b10f-501be5caa5de","system_id":"levelo_inurba_marseille","lat":43.281044,"lon":5.378308,"is_reserved":false,"is_disabled":false,"rental_uris":{"android":"levelo://app?vid=5b05db69-a141-45ac-b10f-501be5caa5de","ios":"levelo://app?vid=5b05db69-a141-45ac-b10f-501be5caa5de"},"vehicle_type_id":"4","last_reported":1687295143,"current_range_meters":31200,"station_id":"ce4bha12rcd13ifvqee0","pricing_plan_id":"free"},{"bike_id":"02a56d39-9758-4a2d-ac1c-41f404e77c51","system_id":"levelo_inurba_marseille","lat":43.281044,"lon":5.378308,"is_reserved":false,"is_disabled":false,"rental_uris":{"android":"levelo://app?vid=02a56d39-9758-4a2d-ac1c-41f404e77c51","ios":"levelo://app?vid=02a56d39-9758-4a2d-ac1c-41f404e77c51"},"vehicle_type_id":"4","last_reported":1687295143,"current_range_meters":19200,"station_id":"ce4bha12rcd13ifvqee0","pricing_plan_id":"free"},{"bike_id":"13ec3c5b-5728-4d1b-b7be-83597b52f0e3","system_id":"levelo_inurba_marseille","lat":43.281044,"lon":5.378308,"is_reserved":false,"is_disabled":false,"rental_uris":{"android":"levelo://app?vid=13ec3c5b-5728-4d1b-b7be-83597b52f0e3","ios":"levelo://app?vid=13ec3c5b-5728-4d1b-b7be-83597b52f0e3"},"vehicle_type_id":"4","last_reported":1687295143,"current_range_meters":31200,"station_id":"ce4bha12rcd13ifvqee0","pricing_plan_id":"free"},{"bike_id":"635948ee-0851-426c-8973-0a44d6357ae6","system_id":"levelo_inurba_marseille","lat":43.28107,"lon":5.3784,"is_reserved":false,"is_disabled":false,"rental_uris":{"android":"levelo://app?vid=635948ee-0851-426c-8973-0a44d6357ae6","ios":"levelo://app?vid=635948ee-0851-426c-8973-0a44d6357ae6"},"vehicle_type_id":"4","last_reported":1687295143,"current_range_meters":28400,"station_id":"ce4bha12rcd13ifvqee0","pricing_plan_id":"free"},{"bike_id":"669b2558-ae85-4e14-8d22-e3772842ac43","system_id":"levelo_inurba_marseille","lat":43.281044,"lon":5.378308,"is_reserved":false,"is_disabled":false,"rental_uris":{"android":"levelo://app?vid=669b2558-ae85-4e14-8d22-e3772842ac43","ios":"levelo://app?vid=669b2558-ae85-4e14-8d22-e3772842ac43"},"vehicle_type_id":"4","last_reported":1687295143,"current_range_meters":31200,"station_id":"ce4bha12rcd13ifvqee0","pricing_plan_id":"free"},