{"last_updated":1731334193,"ttl":60,"version":"2.2","data":{"bikes":[{"bike_id":"721fbd53-b0c5-4b4d-8347-51c88d10df20","system_id":"levelo_inurba_marseille","lat":43.24807,"lon":5.37451,"is_reserved":false,"is_disabled":false,"rental_uris":{"android":"levelo://app?vid=721fbd53-b0c5-4b4d-8347-51c88d10df20","ios":"levelo://app?vid=721fbd53-b0c5-4b4d-8347-51c88d10df20"},"vehicle_type_id":"4","last_reported":1731334193,"current_range_meters":36000,"station_id":"ce4bhgh2rcd13ifvqfb0","pricing_plan_id":"cebpf4jnsgd1na2vs0mg"},{"bike_id":"55f338da-564d-4339-bcb5-5d0a4b68c4e6","system_id":"levelo_inurba_marseille","lat":43.31059,"lon":5.40116,"is_reserved":false,"is_disabled":false,"rental_uris":{"android":"levelo://app?vid=55f338da-564d-4339-bcb5-5d0a4b68c4e6","ios":"levelo://app?vid=55f338da-564d-4339-bcb5-5d0a4b68c4e6"},"vehicle_type_id":"4","last_reported":1731334193,"current_range_meters":4800,"station_id":"","pricing_plan_id":"cebpf4jnsgd1na2vs0mg"},{"bike_id":"14069bce-6417-49f7-b40f-b87dc86e751d","system_id":"levelo_inurba_marseille","lat":43.25081,"lon":5.39522,"is_reserved":false,"is_disabled":false,"rental_uris":{"android":"levelo://app?vid=14069bce-6417-49f7-b40f-b87dc86e751d","ios":"levelo://app?vid=14069bce-6417-49f7-b40f-b87dc86e751d"},"vehicle_type_id":"4","last_reported":1731334193,"current_range_meters":8400,"station_id":"ce4bhm12rcd13ifvqgkg","pricing_plan_id":"cebpf4jnsgd1na2vs0mg"},{"bike_id":"3667125f-e3cf-46ce-b9d8-ab96d967e229","system_id":"levelo_inurba_marseille","lat":43.3054,"lon":5.36559,"is_reserved":false,"is_disabled":false,"rental_uris":{"android":"levelo://app?vid=3667125f-e3cf-46ce-b9d8-ab96d967e229","ios":"levelo://app?vid=3667125f-e3cf-46ce-b9d8-ab96d967e229"},"vehicle_type_id":"4","last_reported":1731334193,"current_range_meters":33200,"station_id":"ce4bgs12rcd13ifvqcag","pricing_plan_id":"cebpf4jnsgd1na2vs0mg"},{"bike_id":"4d63f802-306a-4f3b-b202-47021c2fa507","system_id":"levelo_inurba_marseille","lat":43.25504,"lon":5.37651,"is_reserved":false,"is_disabled":false,"rental_uris":{"android":"levelo://app?vid=4d63f802-306a-4f3b-b202-47021c2fa507","ios":"levelo://app?vid=4d63f802-306a-4f3b-b202-47021c2fa507"},"vehicle_type_id":"4","last_reported":1731334193,"current_range_meters":8000,"station_id":"ce4bhh12rcd13ifvqff0","pricing_plan_id":"cebpf4jnsgd1na2vs0mg"},{"bike_id":"8f1217e8-6e64-418e-a247-2c20fca4fe33","system_id":"levelo_inurba_marseille","lat":43.23064,"lon":5.35492,"is_reserved":false,"is_disabled":false,"rental_uris":{"android":"levelo://app?vid=8f1217e8-6e64-418e-a247-2c20fca4fe33","ios":"levelo://app?vid=8f1217e8-6e64-418e-a247-2c20fca4fe33"},"vehicle_type_id":"4","last_reported":1731334193,"current_range_meters":6400,"station_id":"cpo3342slgdg3j2ifvpg","pricing_plan_id":"cebpf4jnsgd1na2vs0mg"},{"bike_id":"8d774357-09a9-4b00-8eaa-8f76ab0240c4","system_id":"levelo_inurba_marseille","lat":43.28609,"lon":5.351,"is_reserved":false,"is_disabled":false,"rental_uris":{"android":"levelo://app?vid=8d774357-09a9-4b00-8eaa-8f76ab0240c4","ios":"levelo://app?vid=8d774357-09a9-4b00-8eaa-8f76ab0240c4"},"vehicle_type_id":"4","last_reported":1731334193,"current_range_meters":35200,"station_id":"ce4bhch2rcd13ifvqeug","pricing_plan_id":"cebpf4jnsgd1na2vs0mg"},{"bike_id":"28d95551-ee12-43b0-b45c-0725ae74bf04","system_id":"levelo_inurba_marseille","lat":43.26554,"lon":5.37288,"is_reserved":false,"is_disabled":false,"rental_uris":{"android":"levelo://app?vid=28d95551-ee12-43b0-b45c-0725ae74bf04","ios":"levelo://app?vid=28d95551-ee12-43b0-b45c-0725ae74bf04"},"vehicle_type_id":"4","last_reported":1731334193,"current_range_meters":33600,"station_id":"ce4bhg12rcd13ifvqf70","pricing_plan_id":"cebpf4jnsgd1na2vs0mg"},{"bike_id":"55a5313f-9906-4be1-9637-b8e0fb895c2c","system_id":"levelo_inurba_marseille","lat":43.26199,"lon":5.37933,"is_reserved":false,"is_disabled":false,"rental_uris":{"android":"levelo://app?vid=55a5313f-9906-4be1-9637-b8e0fb895c2c","ios":"levelo://app?vid=55a5313f-9906-4be1-9637-b8e0fb895c2c"},"vehicle_type_id":"4","last_reported":1731334193,"current_range_meters":19600,"station_id":"ce4bhjp2rcd13ifvqg90","pricing_plan_id":"cebpf4jnsgd1na2vs0mg"},{"bike_id":"817f7b1a-1fdc-4eec-a025-6a290b1d1e3e","system_id":"levelo_inurba_marseille","lat":43.28718,"lon":5.36114,"is_reserved":false,"is_disabled":false,"rental_uris":{"android":"levelo://app?vid=817f7b1a-1fdc-4eec-a025-6a290b1d1e3e","ios":"levelo://app?vid=817f7b1a-1fdc-4eec-a025-6a290b1d1e3e"},"vehicle_type_id":"4","last_reported":1731334193,"current_range_meters":24000,"station_id":"cki0cbj6b192h4jlfktg","pricing_plan_id":"cebpf4jnsgd1na2vs0mg"},{"bike_id":"6d0d5526-2b6c-4eee-93d6-42c07dbe7b80","system_id":"levelo_inurba_marseille","lat":43.25502,"lon":5.37651,"is_reserved":false,"is_disabled":false,"rental_uris":{"android":"levelo://app?vid=6d0d5526-2b6c-4eee-93d6-42c07dbe7b80","ios":"levelo://app?vid=6d0d5526-2b6c-4eee-93d6-42c07dbe7b80"},"vehicle_type_id":"4","last_reported":1731334193,"current_range_meters":39200,"station_id":"ce4bhh12rcd13ifvqff0","pricing_plan_id":"cebpf4jnsgd1na2vs0mg"},{"bike_id":"d2c1fb59-08cf-4886-bdef-b5fac3c49007","system_id":"levelo_inurba_marseille","lat":43.28458,"lon":5.35889,"is_reserved":false,"is_disabled":false,"rental_uris":{"android":"levelo://app?vid=d2c1fb59-08cf-4886-bdef-b5fac3c49007","ios":"levelo://app?vid=d2c1fb59-08cf-4886-bdef-b5fac3c49007"},"vehicle_type_id":"4","last_reported":1731334193,"current_range_meters":37600,"station_id":"ce4bhah2rcd13ifvqei0","pricing_plan_id":"cebpf4jnsgd1na2vs0mg"},{"bike_id":"43334610-db45-49ce-bd7f-c13d3de4cab6","system_id":"levelo_inurba_marseille","lat":43.30942,"lon":5.37986,"is_reserved":false,"is_disabled":false,"rental_uris":{"android":"levelo://app?vid=43334610-db45-49ce-bd7f-c13d3de4cab6","ios":"levelo://app?vid=43334610-db45-49ce-bd7f-c13d3de4cab6"},"vehicle_type_id":"4","last_reported":1731334193,"current_range_meters":28800,"station_id":"ce4bgt92rcd13ifvqcg0","pricing_plan_id":"cebpf4jnsgd1na2vs0mg"},{"bike_id":"f3de71f6-9479-401a-bb1a-1835e29c88f1","system_id":"levelo_inurba_marseille","lat":43.27371,"lon":5.3626,"is_reserved":false,"is_disabled":false,"rental_uris":{"android":"levelo://app?vid=f3de71f6-9479-401a-bb1a-1835e29c88f1","ios":"levelo://app?vid=f3de71f6-9479-401a-bb1a-1835e29c88f1"},"vehicle_type_id":"4","last_reported":1731334193,"current_range_meters":32800,"station_id":"ce4bhbh2rcd13ifvqeo0","pricing_plan_id":"cebpf4jnsgd1na2vs0mg"},{"bike_id":"21dde677-107f-4b15-a499-7a4daf4d2706","system_id":"levelo_inurba_marseille","lat":43.2558,"lon":5.38235,"is_reserved":false,"is_disabled":false,"rental_uris":{"android":"levelo://app?vid=21dde677-107f-4b15-a499-7a4daf4d2706","ios":"levelo://app?vid=21dde677-107f-4b15-a499-7a4daf4d2706"},"vehicle_type_id":"4","last_reported":1731334193,"current_range_meters":30800,"station_id":"ce4bhih2rcd13ifvqfs0","pricing_plan_id":"cebpf4jnsgd1na2vs0mg"},{"bike_id":"9919db7a-8b4f-4220-becb-f54e10b5b1b8","system_id":"levelo_inurba_marseille","lat":43.23058,"lon":5.35492,"is_reserved":false,"is_disabled":false,"rental_uris":{"android":"levelo://app?vid=9919db7a-8b4f-4220-becb-f54e10b5b1b8","ios":"levelo://app?vid=9919db7a-8b4f-4220-becb-f54e10b5b1b8"},"vehicle_type_id":"4","last_reported":1731334193,"current_range_meters":36400,"station_id":"cpo3342slgdg3j2ifvpg","pricing_plan_id":"cebpf4jnsgd1na2vs0mg"},{"bike_id":"5fb393c3-84e2-439f-94a1-e61f74163abd","system_id":"levelo_inurba_marseille","lat":43.22915,"lon":5.35387,"is_reserved":false,"is_disabled":false,"rental_uris":{"android":"levelo://app?vid=5fb393c3-84e2-439f-94a1-e61f74163abd","ios":"levelo://app?vid=5fb393c3-84e2-439f-94a1-e61f74163abd"},"vehicle_type_id":"4","last_reported":1731334193,"current_range_meters":26000,"station_id":"cpo3532slgdg3j2ikp40","pricing_plan_id":"cebpf4jnsgd1na2vs0mg"},{"bike_id":"1ec31f50-d96c-47c6-9806-96f227089cd4","system_id":"levelo_inurba_marseille","lat":43.27491,"lon":5.42462,"is_reserved":false,"is_disabled":false,"rental_uris":{"android":"levelo://app?vid=1ec31f50-d96c-47c6-9806-96f227089cd4","ios":"levelo://app?vid=1ec31f50-d96c-47c6-9806-96f227089cd4"},"vehicle_type_id":"4","last_reported":1731334193,"current_range_meters":36800,"station_id":"ce4bhn92rcd13ifvqgrg","pricing_plan_id":"cebpf4jnsgd1na2vs0mg"},{"bike_id":"f7c913b3-8dee-4ad4-a1c0-ba60b57e10c8","system_id":"levelo_inurba_marseille","lat":43.29569,"lon":5.3997,"is_reserved":false,"is_disabled":false,"rental_uris":{"android":"levelo://app?vid=f7c913b3-8dee-4ad4-a1c0-ba60b57e10c8","ios":"levelo://app?vid=f7c913b3-8dee-4ad4-a1c0-ba60b57e10c8"},"vehicle_type_id":"4","last_reported":1731334193,"current_range_meters":26000,"station_id":"ce4bh312rcd13ifvqdj0","pricing_plan_id":"cebpf4jnsgd1na2vs0mg"},{"bike_id":"58bf35a0-7f96-472c-aa36-d98ab829a653","system_id":"levelo_inurba_marseille","lat":43.25085,"lon":5.39525,"is_reserved":false,"is_disabled":false,"rental_uris":{"android":"levelo://app?vid=58bf35a0-7f96-472c-aa36-d98ab829a653","ios":"levelo://app?vid=58bf35a0-7f96-472c-aa36-d98ab829a653"},"vehicle_type_id":"4","last_reported":1731334193,"current_range_meters":21600,"station_id":"ce4bhm12rcd13ifvqgkg","pricing_plan_id":"cebpf4jnsgd1na2vs0mg"},{"bike_id":"d27c579e-6125-44f5-bd61-6bb45f6e3cfd","system_id":"levelo_inurba_marseille","lat":43.26207,"lon":5.37445,"is_reserved":false,"is_disabled":false,"rental_uris":{"android":"levelo://app?vid=d27c579e-6125-44f5-bd61-6bb45f6e3cfd","ios":"levelo://app?vid=d27c579e-6125-44f5-bd61-6bb45f6e3cfd"},"vehicle_type_id":"4","last_reported":1731334193,"current_range_meters":15200,"station_id":"ce4bhgp2rcd13ifvqfc0","pricing_plan_id":"cebpf4jnsgd1na2vs0mg"},{"bike_id":"a0a8c745-9578-45d6-a09b-320a0a0028d2","system_id":"levelo_inurba_marseille","lat":43.29853,"lon":5.362879,"is_reserved":false,"is_disabled":false,"rental_uris":{"android":"levelo://app?vid=a0a8c745-9578-45d6-a09b-320a0a0028d2","ios":"levelo://app?vid=a0a8c745-9578-45d6-a09b-320a0a0028d2"},"vehicle_type_id":"4","last_reported":1731334193,"current_range_meters":27600,"station_id":"ce4bgpp2rcd13ifvqc3g","pricing_plan_id":"cebpf4jnsgd1na2vs0mg"},{"bike_id":"40cdbe10-871d-42a6-9ecd-efe75d14defe","system_id":"levelo_inurba_marseille","lat":43.29936,"lon":5.36547,"is_reserved":false,"is_disabled":false,"rental_uris":{"android":"levelo://app?vid=40cdbe10-871d-42a6-9ecd-efe75d14defe","ios":"levelo://app?vid=40cdbe10-871d-42a6-9ecd-efe75d14defe"},"vehicle_type_id":"4","last_reported":1731334193,"current_range_meters":4800,"station_id":"ce4bgm92rcd13ifvqbr0","pricing_plan_id":"cebpf4jnsgd1na2vs0mg"},{"bike_id":"46d5521b-bf82-4333-ad01-584403fd8843","system_id":"levelo_inurba_marseille","lat":43.262039,"lon":5.379273,"is_reserved":false,"is_disabled":false,"rental_uris":{"android":"levelo://app?vid=46d5521b-bf82-4333-ad01-584403fd8843","ios":"levelo://app?vid=46d5521b-bf82-4333-ad01-584403fd8843"},"vehicle_type_id":"4","last_reported":1731334193,"current_range_meters":38400,"station_id":"ce4bhjp2rcd13ifvqg90","pricing_plan_id":"cebpf4jnsgd1na2vs0mg"},{"bike_id":"c9216ae2-5f88-401f-a710-0aa3cb5fdcd7","system_id":"levelo_inurba_marseille","lat":43.24803,"lon":5.37462,"is_reserved":false,"is_disabled":false,"rental_uris":{"android":"levelo://app?vid=c9216ae2-5f88-401f-a710-0aa3cb5fdcd7","ios":"levelo://app?vid=c9216ae2-5f88-401f-a710-0aa3cb5fdcd7"},"vehicle_type_id":"4","last_reported":1731334193,"current_range_meters":26800,"station_id":"ce4bhgh2rcd13ifvqfb0","pricing_plan_id":"cebpf4jnsgd1na2vs0mg"},{"bike_id":"c04e085b-2f93-438c-8325-3e100325499e","system_id":"levelo_inurba_marseille","lat":43.25001,"lon":5.3893,"is_reserved":false,"is_disabled":false,"rental_uris":{"android":"levelo://app?vid=c04e085b-2f93-438c-8325-3e100325499e","ios":"levelo://app?vid=c04e085b-2f93-438c-8325-3e100325499e"},"vehicle_type_id":"4","last_reported":1731334193,"current_range_meters":36800,"station_id":"ce4bhgp2rcd13ifvqfd0","pricing_plan_id":"cebpf4jnsgd1na2vs0mg"},{"bike_id":"35dd3ea4-c654-4720-8af1-ca1a69d85dec","system_id":"levelo_inurba_marseille","lat":43.255798,"lon":5.382227,"is_reserved":false,"is_disabled":false,"rental_uris":{"android":"levelo://app?vid=35dd3ea4-c654-4720-8af1-ca1a69d85dec","ios":"levelo://app?vid=35dd3ea4-c654-4720-8af1-ca1a69d85dec"},"vehicle_type_id":"4","last_reported":1731334193,"current_range_meters":2800,"station_id":"ce4bhih2rcd13ifvqfr0","pricing_plan_id":"cebpf4jnsgd1na2vs0mg"},{"bike_id":"96ac797d-fee3-4d9f-93fe-eff2df4bd39e","system_id":"levelo_inurba_marseille","lat":43.23192,"lon":5.35548,"is_reserved":false,"is_disabled":false,"rental_uris":{"android":"levelo://app?vid=96ac797d-fee3-4d9f-93fe-eff2df4bd39e","ios":"levelo://app?vid=96ac797d-fee3-4d9f-93fe-eff2df4bd39e"},"vehicle_type_id":"4","last_reported":1731334193,"current_range_meters":15200,"station_id":"ce4bhu92rcd13ifvqi70","pricing_plan_id":"cebpf4jnsgd1na2vs0mg"},{"bike_id":"681516ea-f8a7-4fcd-9b89-fa615495ab20","system_id":"levelo_inurba_marseille","lat":43.30108,"lon":5.38033,"is_reserved":false,"is_disabled":false,"rental_uris":{"android":"levelo://app?vid=681516ea-f8a7-4fcd-9b89-fa615495ab20","ios":"levelo://app?vid=681516ea-f8a7-4fcd-9b89-fa615495ab20"},"vehicle_type_id":"4","last_reported":1731334193,"current_range_meters":2000,"station_id":"","pricing_plan_id":"cebpf4jnsgd1na2vs0mg"},{"bike_id":"8e22de19-f7d6-4c3b-a509-f68a0dbd65b0","system_id":"levelo_inurba_marseille","lat":43.324889,"lon":5.366212,"is_reserved":false,"is_disabled":false,"rental_uris":{"android":"levelo://app?vid=8e22de19-f7d6-4c3b-a509-f68a0dbd65b0","ios":"levelo://app?vid=8e22de19-f7d6-4c3b-a509-f68a0dbd65b0"},"vehicle_type_id":"4","last_reported":1731334193,"current_range_meters":37600,"station_id":"ce4bhs12rcd13ifvqhvg","pricing_plan_id":"cebpf4jnsgd1na2vs0mg"},{"bike_id":"12299fd3-2e26-4f6c-9da5-30d4714a4db9","system_id":"levelo_inurba_marseille","lat":43.23061,"lon":5.35492,"is_reserved":false,"is_disabled":false,"rental_uris":{"android":"levelo://app?vid=12299fd3-2e26-4f6c-9da5-30d4714a4db9","ios":"levelo://app?vid=12299fd3-2e26-4f6c-9da5-30d4714a4db9"},"vehicle_type_id":"4","last_reported":1731334193,"current_range_meters":26800,"station_id":"cpo3342slgdg3j2ifvpg","pricing_plan_id":"cebpf4jnsgd1na2vs0mg"},{"bike_id":"b2b15e62-63f8-4697-ba03-e6ddabc07483","system_id":"levelo_inurba_marseille","lat":43.28941,"lon":5.39627,"is_reserved":false,"is_disabled":false,"rental_uris":{"android":"levelo://app?vid=b2b15e62-63f8-4697-ba03-e6ddabc07483","ios":"levelo://app?vid=b2b15e62-63f8-4697-ba03-e6ddabc07483"},"vehicle_type_id":"4","last_reported":1731334193,"current_range_meters":38800,"station_id":"ce4bh3h2rcd13ifvqdn0","pricing_plan_id":"cebpf4jnsgd1na2vs0mg"},{"bike_id":"6003497d-6085-44b5-98c1-2250f22737bc","system_id":"levelo_inurba_marseille","lat":43.29811,"lon":5.38095,"is_reserved":false,"is_disabled":false,"rental_uris":{"android":"levelo://app?vid=6003497d-6085-44b5-98c1-2250f22737bc","ios":"levelo://app?vid=6003497d-6085-44b5-98c1-2250f22737bc"},"vehicle_type_id":"4","last_reported":1731334193,"current_range_meters":36000,"station_id":"ce4bgip2rcd13ifvqbb0","pricing_plan_id":"cebpf4jnsgd1na2vs0mg"},{"bike_id":"72f747cc-63a2-4681-8bb0-981b7b3dff1d","system_id":"levelo_inurba_marseille","lat":43.30786,"lon":5.38167,"is_reserved":false,"is_disabled":false,"rental_uris":{"android":"levelo://app?vid=72f747cc-63a2-4681-8bb0-981b7b3dff1d","ios":"levelo://app?vid=72f747cc-63a2-4681-8bb0-981b7b3dff1d"},"vehicle_type_id":"4","last_reported":1731334193,"current_range_meters":6400,"station_id":"ce4bgt12rcd13ifvqce0","pricing_plan_id":"cebpf4jnsgd1na2vs0mg"},{"bike_id":"b81ee9db-87fc-45da-a598-7bae9bbe6aed","system_id":"levelo_inurba_marseille","lat":43.27181,"lon":5.41002,"is_reserved":false,"is_disabled":false,"rental_uris":{"android":"levelo://app?vid=b81ee9db-87fc-45da-a598-7bae9bbe6aed","ios":"levelo://app?vid=b81ee9db-87fc-45da-a598-7bae9bbe6aed"},"vehicle_type_id":"4","last_reported":1731334193,"current_range_meters":34800,"station_id":"ce4bhl12rcd13ifvqgf0","pricing_plan_id":"cebpf4jnsgd1na2vs0mg"},{"bike_id":"6590602b-3996-4603-b126-70ae0829646e","system_id":"levelo_inurba_marseille","lat":43.337444,"lon":5.374475,"is_reserved":false,"is_disabled":false,"rental_uris":{"android":"levelo://app?vid=6590602b-3996-4603-b126-70ae0829646e","ios":"levelo://app?vid=6590602b-3996-4603-b126-70ae0829646e"},"vehicle_type_id":"4","last_reported":1731334193,"current_range_meters":38800,"station_id":"ce4bh3h2rcd13ifvqdn0","pricing_plan_id":"cebpf4jnsgd1na2vs0mg"},{"bike_id":"920ad4fc-3b7a-4e9a-9d7a-56c634f46550","system_id":"levelo_inurba_marseille","lat":43.26208,"lon":5.37453,"is_reserved":false,"is_disabled":false,"rental_uris":{"android":"levelo://app?vid=920ad4fc-3b7a-4e9a-9d7a-56c634f46550","ios":"levelo://app?vid=920ad4fc-3b7a-4e9a-9d7a-56c634f46550"},"vehicle_type_id":"4","last_reported":1731334193,"current_range_meters":27600,"station_id":"ce4bhgp2rcd13ifvqfc0","pricing_plan_id":"cebpf4jnsgd1na2vs0mg"},{"bike_id":"f669496d-fae4-44fd-8a51-586e76ca89f8","system_id":"levelo_inurba_marseille","lat":43.23196,"lon":5.35555,"is_reserved":false,"is_disabled":false,"rental_uris":{"android":"levelo://app?vid=f669496d-fae4-44fd-8a51-586e76ca89f8","ios":"levelo://app?vid=f669496d-fae4-44fd-8a51-586e76ca89f8"},"vehicle_type_id":"4","last_reported":1731334193,"current_range_meters":16000,"station_id":"ce4bhu92rcd13ifvqi70","pricing_plan_id":"cebpf4jnsgd1na2vs0mg"},{"bike_id":"b06f9fc8-af57-44b7-abc6-c9670b708809","system_id":"levelo_inurba_marseille","lat":43.25825,"lon":5.3944,"is_reserved":false,"is_disabled":false,"rental_uris":{"android":"levelo://app?vid=b06f9fc8-af57-44b7-abc6-c9670b708809","ios":"levelo://app?vid=b06f9fc8-af57-44b7-abc6-c9670b708809"},"vehicle_type_id":"4","last_reported":1731334193,"current_range_meters":22400,"station_id":"ce4bhip2rcd13ifvqft0","pricing_plan_id":"cebpf4jnsgd1na2vs0mg"},{"bike_id":"333a8fd1-0af5-4d2d-8e99-f8610bc57a84","system_id":"levelo_inurba_marseille","lat":43.2396,"lon":5.36639,"is_reserved":false,"is_disabled":false,"rental_uris":{"android":"levelo://app?vid=333a8fd1-0af5-4d2d-8e99-f8610bc57a84","ios":"levelo://app?vid=333a8fd1-0af5-4d2d-8e99-f8610bc57a84"},"vehicle_type_id":"4","last_reported":1731334193,"current_range_meters":10000,"station_id":"ce4bhi12rcd13ifvqfp0","pricing_plan_id":"cebpf4jnsgd1na2vs0mg"},{"bike_id":"a5436360-5e96-45f8-b04a-ced9d3e99e12","system_id":"levelo_inurba_marseille","lat":43.28937,"lon":5.39648,"is_reserved":false,"is_disabled":false,"rental_uris":{"android":"levelo://app?vid=a5436360-5e96-45f8-b04a-ced9d3e99e12","ios":"levelo://app?vid=a5436360-5e96-45f8-b04a-ced9d3e99e12"},"vehicle_type_id":"4","last_reported":1731334193,"current_range_meters":38800,"station_id":"ce4bh3h2rcd13ifvqdn0","pricing_plan_id":"cebpf4jnsgd1na2vs0mg"},{"bike_id":"e45c3b16-9d56-4cb0-9735-cef5134d710a","system_id":"levelo_inurba_marseille","lat":43.25502,"lon":5.37648,"is_reserved":false,"is_disabled":false,"rental_uris":{"android":"levelo://app?vid=e45c3b16-9d56-4cb0-9735-cef5134d710a","ios":"levelo://app?vid=e45c3b16-9d56-4cb0-9735-cef5134d710a"},"vehicle_type_id":"4","last_reported":1731334193,"current_range_meters":14800,"station_id":"ce4bhh12rcd13ifvqff0","pricing_plan_id":"cebpf4jnsgd1na2vs0mg"},{"bike_id":"f2f2ad49-af25-4b8e-8e5a-253d5f2d2ed5","system_id":"levelo_inurba_marseille","lat":43.28414,"lon":5.35006,"is_reserved":false,"is_disabled":false,"rental_uris":{"android":"levelo://app?vid=f2f2ad49-af25-4b8e-8e5a-253d5f2d2ed5","ios":"levelo://app?vid=f2f2ad49-af25-4b8e-8e5a-253d5f2d2ed5"},"vehicle_type_id":"4","last_reported":1731334193,"current_range_meters":31200,"station_id":"ce4bhbh2rcd13ifvqepg","pricing_plan_id":"cebpf4jnsgd1na2vs0mg"},{"bike_id":"2972f759-c98e-4fe7-9758-85d215895273","system_id":"levelo_inurba_marseille","lat":43.23955,"lon":5.36633,"is_reserved":false,"is_disabled":false,"rental_uris":{"android":"levelo://app?vid=2972f759-c98e-4fe7-9758-85d215895273","ios":"levelo://app?vid=2972f759-c98e-4fe7-9758-85d215895273"},"vehicle_type_id":"4","last_reported":1731334193,"current_range_meters":30400,"station_id":"ce4bhi12rcd13ifvqfp0","pricing_plan_id":"cebpf4jnsgd1na2vs0mg"},{"bike_id":"d09e5479-52d1-4d64-98d0-a5aad6b6f27b","system_id":"levelo_inurba_marseille","lat":43.26059,"lon":5.39396,"is_reserved":false,"is_disabled":false,"rental_uris":{"android":"levelo://app?vid=d09e5479-52d1-4d64-98d0-a5aad6b6f27b","ios":"levelo://app?vid=d09e5479-52d1-4d64-98d0-a5aad6b6f27b"},"vehicle_type_id":"4","last_reported":1731334193,"current_range_meters":7200,"station_id":"ce4bhh92rcd13ifvqfj0","pricing_plan_id":"cebpf4jnsgd1na2vs0mg"},{"bike_id":"baff3d6d-9293-4877-a078-c307f9a2d6ce","system_id":"levelo_inurba_marseille","lat":43.337444,"lon":5.374475,"is_reserved":false,"is_disabled":false,"rental_uris":{"android":"levelo://app?vid=baff3d6d-9293-4877-a078-c307f9a2d6ce","ios":"levelo://app?vid=baff3d6d-9293-4877-a078-c307f9a2d6ce"},"vehicle_type_id":"4","last_reported":1731334193,"current_range_meters":27200,"station_id":"","pricing_plan_id":"cebpf4jnsgd1na2vs0mg"},{"bike_id":"5589e89d-3b6f-4870-8b31-560e849242a6","system_id":"levelo_inurba_marseille","lat":43.31684,"lon":5.40472,"is_reserved":false,"is_disabled":false,"rental_uris":{"android":"levelo://app?vid=5589e89d-3b6f-4870-8b31-560e849242a6","ios":"levelo://app?vid=5589e89d-3b6f-4870-8b31-560e849242a6"},"vehicle_type_id":"4","last_reported":1731334193,"current_range_meters":38800,"station_id":"ce4bh012rcd13ifvqd00","pricing_plan_id":"cebpf4jnsgd1na2vs0mg"},{"bike_id":"a54bfa27-4cde-4540-ab3e-e7f971f2645e","system_id":"levelo_inurba_marseille","lat":43.30795,"lon":5.38153,"is_reserved":false,"is_disabled":false,"rental_uris":{"android":"levelo://app?vid=a54bfa27-4cde-4540-ab3e-e7f971f2645e","ios":"levelo://app?vid=a54bfa27-4cde-4540-ab3e-e7f971f2645e"},"vehicle_type_id":"4","last_reported":1731334193,"current_range_meters":39200,"station_id":"ce4bgt12rcd13ifvqce0","pricing_plan_id":"cebpf4jnsgd1na2vs0mg"},{"bike_id":"4a33ba14-1da6-4d8e-97b9-715693616869","system_id":"levelo_inurba_marseille","lat":43.26502,"lon":5.39543,"is_reserved":false,"is_disabled":false,"rental_uris":{"android":"levelo://app?vid=4a33ba14-1da6-4d8e-97b9-715693616869","ios":"levelo://app?vid=4a33ba14-1da6-4d8e-97b9-715693616869"},"vehicle_type_id":"4","last_reported":1731334193,"current_range_meters":8000,"station_id":"ce4bhi12rcd13ifvqfq0","pricing_plan_id":"cebpf4jnsgd1na2vs0mg"},{"bike_id":"d94b397c-9ed6-4dd6-87b4-02d65206c18b","system_id":"levelo_inurba_marseille","lat":43.28724,"lon":5.36101,"is_reserved":false,"is_disabled":false,"rental_uris":{"android":"levelo://app?vid=d94b397c-9ed6-4dd6-87b4-02d65206c18b","ios":"levelo://app?vid=d94b397c-9ed6-4dd6-87b4-02d65206c18b"},"vehicle_type_id":"4","last_reported":1731334193,"current_range_meters":38800,"station_id":"cki0cbj6b192h4jlfktg","pricing_plan_id":"cebpf4jnsgd1na2vs0mg"},{"bike_id":"b70e5e0c-b305-497b-a613-678833a2146e","system_id":"levelo_inurba_marseille","lat":43.23151,"lon":5.43726,"is_reserved":false,"is_disabled":false,"rental_uris":{"android":"levelo://app?vid=b70e5e0c-b305-497b-a613-678833a2146e","ios":"levelo://app?vid=b70e5e0c-b305-497b-a613-678833a2146e"},"vehicle_type_id":"4","last_reported":1731334193,"current_range_meters":38000,"station_id":"ce4bhmp2rcd13ifvqgog","pricing_plan_id":"cebpf4jnsgd1na2vs0mg"},{"bike_id":"7f3e1ff6-1483-4b12-acd5-3838fb7f84bf","system_id":"levelo_inurba_marseille","lat":43.23966,"lon":5.36628,"is_reserved":false,"is_disabled":false,"rental_uris":{"android":"levelo://app?vid=7f3e1ff6-1483-4b12-acd5-3838fb7f84bf","ios":"levelo://app?vid=7f3e1ff6-1483-4b12-acd5-3838fb7f84bf"},"vehicle_type_id":"4","last_reported":1731334193,"current_range_meters":16400,"station_id":"ce4bhi12rcd13ifvqfp0","pricing_plan_id":"cebpf4jnsgd1na2vs0mg"},{"bike_id":"b40c9466-e600-43f9-8b74-f177bb2c2e3a","system_id":"levelo_inurba_marseille","lat":43.24079,"lon":5.37752,"is_reserved":false,"is_disabled":false,"rental_uris":{"android":"levelo://app?vid=b40c9466-e600-43f9-8b74-f177bb2c2e3a","ios":"levelo://app?vid=b40c9466-e600-43f9-8b74-f177bb2c2e3a"},"vehicle_type_id":"4","last_reported":1731334193,"current_range_meters":33200,"station_id":"ce4bhnp2rcd13ifvqgvg","pricing_plan_id":"cebpf4jnsgd1na2vs0mg"},{"bike_id":"3a74e668-c81c-4ede-a059-9116e8f90e9b","system_id":"levelo_inurba_marseille","lat":43.2315,"lon":5.43711,"is_reserved":false,"is_disabled":false,"rental_uris":{"android":"levelo://app?vid=3a74e668-c81c-4ede-a059-9116e8f90e9b","ios":"levelo://app?vid=3a74e668-c81c-4ede-a059-9116e8f90e9b"},"vehicle_type_id":"4","last_reported":1731334193,"current_range_meters":38800,"station_id":"ce4bhmp2rcd13ifvqgog","pricing_plan_id":"cebpf4jnsgd1na2vs0mg"},{"bike_id":"0c210650-6539-4fa5-b23c-a6cb7950c882","system_id":"levelo_inurba_marseille","lat":43.29896,"lon":5.38982,"is_reserved":false,"is_disabled":false,"rental_uris":{"android":"levelo://app?vid=0c210650-6539-4fa5-b23c-a6cb7950c882","ios":"levelo://app?vid=0c210650-6539-4fa5-b23c-a6cb7950c882"},"vehicle_type_id":"4","last_reported":1731334193,"current_range_meters":31200,"station_id":"","pricing_plan_id":"cebpf4jnsgd1na2vs0mg"},{"bike_id":"ae5f47d6-7993-49fb-9897-97a538303b0e","system_id":"levelo_inurba_marseille","lat":43.31894,"lon":5.40747,"is_reserved":false,"is_disabled":false,"rental_uris":{"android":"levelo://app?vid=ae5f47d6-7993-49fb-9897-97a538303b0e","ios":"levelo://app?vid=ae5f47d6-7993-49fb-9897-97a538303b0e"},"vehicle_type_id":"4","last_reported":1731334193,"current_range_meters":38400,"station_id":"ce4bhq12rcd13ifvqhig","pricing_plan_id":"cebpf4jnsgd1na2vs0mg"},{"bike_id":"eec18c95-c5cc-4bd3-9c4c-e4ce75d051fa","system_id":"levelo_inurba_marseille","lat":43.25581,"lon":5.38232,"is_reserved":false,"is_disabled":false,"rental_uris":{"android":"levelo://app?vid=eec18c95-c5cc-4bd3-9c4c-e4ce75d051fa","ios":"levelo://app?vid=eec18c95-c5cc-4bd3-9c4c-e4ce75d051fa"},"vehicle_type_id":"4","last_reported":1731334193,"current_range_meters":28000,"station_id":"ce4bhih2rcd13ifvqfs0","pricing_plan_id":"cebpf4jnsgd1na2vs0mg"},{"bike_id":"d93808ac-ecb6-4b33-9aa3-b461bb583f07","system_id":"levelo_inurba_marseille","lat":43.28261,"lon":5.35065,"is_reserved":false,"is_disabled":false,"rental_uris":{"android":"levelo://app?vid=d93808ac-ecb6-4b33-9aa3-b461bb583f07","ios":"levelo://app?vid=d93808ac-ecb6-4b33-9aa3-b461bb583f07"},"vehicle_type_id":"4","last_reported":1731334193,"current_range_meters":12400,"station_id":"ce4bhbp2rcd13ifvqerg","pricing_plan_id":"cebpf4jnsgd1na2vs0mg"},{"bike_id":"cfb1a742-1cc1-47b0-a7d3-1df4f1966bba","system_id":"levelo_inurba_marseille","lat":43.26556,"lon":5.37285,"is_reserved":false,"is_disabled":false,"rental_uris":{"android":"levelo://app?vid=cfb1a742-1cc1-47b0-a7d3-1df4f1966bba","ios":"levelo://app?vid=cfb1a742-1cc1-47b0-a7d3-1df4f1966bba"},"vehicle_type_id":"4","last_reported":1731334193,"current_range_meters":21600,"station_id":"ce4bhg12rcd13ifvqf70","pricing_plan_id":"cebpf4jnsgd1na2vs0mg"},{"bike_id":"da5c9f1d-ad4f-4f9f-9e8e-0bc238a0e0e1","system_id":"levelo_inurba_marseille","lat":43.32037,"lon":5.41556,"is_reserved":false,"is_disabled":false,"rental_uris":{"android":"levelo://app?vid=da5c9f1d-ad4f-4f9f-9e8e-0bc238a0e0e1","ios":"levelo://app?vid=da5c9f1d-ad4f-4f9f-9e8e-0bc238a0e0e1"},"vehicle_type_id":"4","last_reported":1731334193,"current_range_meters":36400,"station_id":"ce4bhq92rcd13ifvqhkg","pricing_plan_id":"cebpf4jnsgd1na2vs0mg"},{"bike_id":"5a1b4880-c670-4f88-b93e-a35db426b12a","system_id":"levelo_inurba_marseille","lat":43.29526,"lon":5.39024,"is_reserved":false,"is_disabled":false,"rental_uris":{"android":"levelo://app?vid=5a1b4880-c670-4f88-b93e-a35db426b12a","ios":"levelo://app?vid=5a1b4880-c670-4f88-b93e-a35db426b12a"},"vehicle_type_id":"4","last_reported":1731334193,"current_range_meters":7200,"station_id":"ce4bh3p2rcd13ifvqdp0","pricing_plan_id":"cebpf4jnsgd1na2vs0mg"},{"bike_id":"ee029cd4-5bd2-435a-acde-8505033c6721","system_id":"levelo_inurba_marseille","lat":43.29185,"lon":5.35804,"is_reserved":false,"is_disabled":false,"rental_uris":{"android":"levelo://app?vid=ee029cd4-5bd2-435a-acde-8505033c6721","ios":"levelo://app?vid=ee029cd4-5bd2-435a-acde-8505033c6721"},"vehicle_type_id":"4","last_reported":1731334193,"current_range_meters":37600,"station_id":"ce4bhb12rcd13ifvqel0","pricing_plan_id":"cebpf4jnsgd1na2vs0mg"},{"bike_id":"f5f7adb1-08a0-41e5-84f8-4eacbb87fa6f","system_id":"levelo_inurba_marseille","lat":43.23955,"lon":5.36643,"is_reserved":false,"is_disabled":false,"rental_uris":{"android":"levelo://app?vid=f5f7adb1-08a0-41e5-84f8-4eacbb87fa6f","ios":"levelo://app?vid=f5f7adb1-08a0-41e5-84f8-4eacbb87fa6f"},"vehicle_type_id":"4","last_reported":1731334193,"current_range_meters":38400,"station_id":"ce4bhi12rcd13ifvqfp0","pricing_plan_id":"cebpf4jnsgd1na2vs0mg"},{"bike_id":"7a9a6967-2f72-48da-8e4b-f951a5c0b2ad","system_id":"levelo_inurba_marseille","lat":43.2396,"lon":5.36628,"is_reserved":false,"is_disabled":false,"rental_uris":{"android":"levelo://app?vid=7a9a6967-2f72-48da-8e4b-f951a5c0b2ad","ios":"levelo://app?vid=7a9a6967-2f72-48da-8e4b-f951a5c0b2ad"},"vehicle_type_id":"4","last_reported":1731334193,"current_range_meters":39200,"station_id":"ce4bhi12rcd13ifvqfp0","pricing_plan_id":"cebpf4jnsgd1na2vs0mg"},{"bike_id":"c4773bc0-e021-4cc0-a28d-9360b0acc7dd","system_id":"levelo_inurba_marseille","lat":43.23958,"lon":5.36627,"is_reserved":false,"is_disabled":false,"rental_uris":{"android":"levelo://app?vid=c4773bc0-e021-4cc0-a28d-9360b0acc7dd","ios":"levelo://app?vid=c4773bc0-e021-4cc0-a28d-9360b0acc7dd"},"vehicle_type_id":"4","last_reported":1731334193,"current_range_meters":22800,"station_id":"ce4bhi12rcd13ifvqfp0","pricing_plan_id":"cebpf4jnsgd1na2vs0mg"},{"bike_id":"0d7d3c69-c8a9-441f-82a4-bf1181d6671d","system_id":"levelo_inurba_marseille","lat":43.25116,"lon":5.40321,"is_reserved":false,"is_disabled":false,"rental_uris":{"android":"levelo://app?vid=0d7d3c69-c8a9-441f-82a4-bf1181d6671d","ios":"levelo://app?vid=0d7d3c69-c8a9-441f-82a4-bf1181d6671d"},"vehicle_type_id":"4","last_reported":1731334193,"current_range_meters":35600,"station_id":"ce4bhlh2rcd13ifvqgig","pricing_plan_id":"cebpf4jnsgd1na2vs0mg"},{"bike_id":"1c014855-cce6-4d92-b637-043078e064b4","system_id":"levelo_inurba_marseille","lat":43.29031,"lon":5.39967,"is_reserved":false,"is_disabled":false,"rental_uris":{"android":"levelo://app?vid=1c014855-cce6-4d92-b637-043078e064b4","ios":"levelo://app?vid=1c014855-cce6-4d92-b637-043078e064b4"},"vehicle_type_id":"4","last_reported":1731334193,"current_range_meters":9600,"station_id":"ce4bh392rcd13ifvqdm0","pricing_plan_id":"cebpf4jnsgd1na2vs0mg"},{"bike_id":"c28c30a0-39dd-4299-a220-222985df9d05","system_id":"levelo_inurba_marseille","lat":43.3414,"lon":5.40901,"is_reserved":false,"is_disabled":false,"rental_uris":{"android":"levelo://app?vid=c28c30a0-39dd-4299-a220-222985df9d05","ios":"levelo://app?vid=c28c30a0-39dd-4299-a220-222985df9d05"},"vehicle_type_id":"4","last_reported":1731334193,"current_range_meters":30000,"station_id":"ce4bhqh2rcd13ifvqhlg","pricing_plan_id":"cebpf4jnsgd1na2vs0mg"},{"bike_id":"4e09eb1f-644b-49be-9c11-b716a9e62e0e","system_id":"levelo_inurba_marseille","lat":43.25854,"lon":5.39909,"is_reserved":false,"is_disabled":false,"rental_uris":{"android":"levelo://app?vid=4e09eb1f-644b-49be-9c11-b716a9e62e0e","ios":"levelo://app?vid=4e09eb1f-644b-49be-9c11-b716a9e62e0e"},"vehicle_type_id":"4","last_reported":1731334193,"current_range_meters":7200,"station_id":"ce4bhl92rcd13ifvqghg","pricing_plan_id":"cebpf4jnsgd1na2vs0mg"},{"bike_id":"85e2f4f3-6aa2-4c02-8cb0-3f10017cc61a","system_id":"levelo_inurba_marseille","lat":43.25092,"lon":5.39526,"is_reserved":false,"is_disabled":false,"rental_uris":{"android":"levelo://app?vid=85e2f4f3-6aa2-4c02-8cb0-3f10017cc61a","ios":"levelo://app?vid=85e2f4f3-6aa2-4c02-8cb0-3f10017cc61a"},"vehicle_type_id":"4","last_reported":1731334193,"current_range_meters":40000,"station_id":"ce4bhm12rcd13ifvqgkg","pricing_plan_id":"cebpf4jnsgd1na2vs0mg"},{"bike_id":"00145839-b6a5-46bb-9574-9659a57c4caa","system_id":"levelo_inurba_marseille","lat":43.27369,"lon":5.36255,"is_reserved":false,"is_disabled":false,"rental_uris":{"android":"levelo://app?vid=00145839-b6a5-46bb-9574-9659a57c4caa","ios":"levelo://app?vid=00145839-b6a5-46bb-9574-9659a57c4caa"},"vehicle_type_id":"4","last_reported":1731334193,"current_range_meters":29600,"station_id":"ce4bhbh2rcd13ifvqeo0","pricing_plan_id":"cebpf4jnsgd1na2vs0mg"},{"bike_id":"e4ddc013-cea8-44f1-b7c9-f3a44e872d2a","system_id":"levelo_inurba_marseille","lat":43.29194,"lon":5.35804,"is_reserved":false,"is_disabled":false,"rental_uris":{"android":"levelo://app?vid=e4ddc013-cea8-44f1-b7c9-f3a44e872d2a","ios":"levelo://app?vid=e4ddc013-cea8-44f1-b7c9-f3a44e872d2a"},"vehicle_type_id":"4","last_reported":1731334193,"current_range_meters":36000,"station_id":"ce4bhb12rcd13ifvqel0","pricing_plan_id":"cebpf4jnsgd1na2vs0mg"},{"bike_id":"ebe0229f-0441-4935-9bb3-160afad4aaf8","system_id":"levelo_inurba_marseille","lat":43.29935,"lon":5.36559,"is_reserved":false,"is_disabled":false,"rental_uris":{"android":"levelo://app?vid=ebe0229f-0441-4935-9bb3-160afad4aaf8","ios":"levelo://app?vid=ebe0229f-0441-4935-9bb3-160afad4aaf8"},"vehicle_type_id":"4","last_reported":1731334193,"current_range_meters":19200,"station_id":"ce4bgm92rcd13ifvqbr0","pricing_plan_id":"cebpf4jnsgd1na2vs0mg"},{"bike_id":"1348ab3b-862b-4b63-9222-197e3ceb49e1","system_id":"levelo_inurba_marseille","lat":43.25493,"lon":5.3765,"is_reserved":false,"is_disabled":false,"rental_uris":{"android":"levelo://app?vid=1348ab3b-862b-4b63-9222-197e3ceb49e1","ios":"levelo://app?vid=1348ab3b-862b-4b63-9222-197e3ceb49e1"},"vehicle_type_id":"4","last_reported":1731334193,"current_range_meters":34800,"station_id":"ce4bhh12rcd13ifvqff0","pricing_plan_id":"cebpf4jnsgd1na2vs0mg"},{"bike_id":"f97b6bb8-fda2-436e-9020-908b83fb722c","system_id":"levelo_inurba_marseille","lat":43.23194,"lon":5.35561,"is_reserved":false,"is_disabled":false,"rental_uris":{"android":"levelo://app?vid=f97b6bb8-fda2-436e-9020-908b83fb722c","ios":"levelo://app?vid=f97b6bb8-fda2-436e-9020-908b83fb722c"},"vehicle_type_id":"4","last_reported":1731334193,"current_range_meters":10000,"station_id":"ce4bhu92rcd13ifvqi70","pricing_plan_id":"cebpf4jnsgd1na2vs0mg"},{"bike_id":"85c6c43a-ec27-4ab5-a406-8ca39b34fe69","system_id":"levelo_inurba_marseille","lat":43.23195,"lon":5.35557,"is_reserved":false,"is_disabled":false,"rental_uris":{"android":"levelo://app?vid=85c6c43a-ec27-4ab5-a406-8ca39b34fe69","ios":"levelo://app?vid=85c6c43a-ec27-4ab5-a406-8ca39b34fe69"},"vehicle_type_id":"4","last_reported":1731334193,"current_range_meters":8400,"station_id":"ce4bhu92rcd13ifvqi70","pricing_plan_id":"cebpf4jnsgd1na2vs0mg"},{"bike_id":"09a1e313-58bb-4933-ac4b-7b06aceafd7a","system_id":"levelo_inurba_marseille","lat":43.26058,"lon":5.39403,"is_reserved":false,"is_disabled":false,"rental_uris":{"android":"levelo://app?vid=09a1e313-58bb-4933-ac4b-7b06aceafd7a","ios":"levelo://app?vid=09a1e313-58bb-4933-ac4b-7b06aceafd7a"},"vehicle_type_id":"4","last_reported":1731334193,"current_range_meters":38800,"station_id":"ce4bhh92rcd13ifvqfj0","pricing_plan_id":"cebpf4jnsgd1na2vs0mg"},{"bike_id":"751a3c0b-9388-4ac3-a0c4-1525b1803435","system_id":"levelo_inurba_marseille","lat":43.337652,"lon":5.374571,"is_reserved":false,"is_disabled":false,"rental_uris":{"android":"levelo://app?vid=751a3c0b-9388-4ac3-a0c4-1525b1803435","ios":"levelo://app?vid=751a3c0b-9388-4ac3-a0c4-1525b1803435"},"vehicle_type_id":"4","last_reported":1731334193,"current_range_meters":38800,"station_id":"","pricing_plan_id":"cebpf4jnsgd1na2vs0mg"},{"bike_id":"1d75d4ce-da07-47a0-83ad-027ef32b7b53","system_id":"levelo_inurba_marseille","lat":43.27404,"lon":5.38962,"is_reserved":false,"is_disabled":false,"rental_uris":{"android":"levelo://app?vid=1d75d4ce-da07-47a0-83ad-027ef32b7b53","ios":"levelo://app?vid=1d75d4ce-da07-47a0-83ad-027ef32b7b53"},"vehicle_type_id":"4","last_reported":1731334193,"current_range_meters":20400,"station_id":"","pricing_plan_id":"cebpf4jnsgd1na2vs0mg"},{"bike_id":"a814f24b-fea0-4145-8389-3f04eeff442b","system_id":"levelo_inurba_marseille","lat":43.23059,"lon":5.35501,"is_reserved":false,"is_disabled":false,"rental_uris":{"android":"levelo://app?vid=a814f24b-fea0-4145-8389-3f04eeff442b","ios":"levelo://app?vid=a814f24b-fea0-4145-8389-3f04eeff442b"},"vehicle_type_id":"4","last_reported":1731334193,"current_range_meters":28400,"station_id":"cpo3342slgdg3j2ifvpg","pricing_plan_id":"cebpf4jnsgd1na2vs0mg"},{"bike_id":"0fb39b3b-9be9-4b29-bd1d-7e27f3f28e7f","system_id":"levelo_inurba_marseille","lat":43.291382,"lon":5.370145,"is_reserved":false,"is_disabled":false,"rental_uris":{"android":"levelo://app?vid=0fb39b3b-9be9-4b29-bd1d-7e27f3f28e7f","ios":"levelo://app?vid=0fb39b3b-9be9-4b29-bd1d-7e27f3f28e7f"},"vehicle_type_id":"4","last_reported":1731334193,"current_range_meters":33600,"station_id":"ce4bha92rcd13ifvqeg0","pricing_plan_id":"cebpf4jnsgd1na2vs0mg"},{"bike_id":"ca6991c8-e4a5-4c59-81d7-ba5dad0d5cb2","system_id":"levelo_inurba_marseille","lat":43.2978,"lon":5.39329,"is_reserved":false,"is_disabled":false,"rental_uris":{"android":"levelo://app?vid=ca6991c8-e4a5-4c59-81d7-ba5dad0d5cb2","ios":"levelo://app?vid=ca6991c8-e4a5-4c59-81d7-ba5dad0d5cb2"},"vehicle_type_id":"4","last_reported":1731334193,"current_range_meters":2000,"station_id":"chh1huq6cuj3fo74tm60","pricing_plan_id":"cebpf4jnsgd1na2vs0mg"},{"bike_id":"625e1995-b00f-42c2-82c5-28168c1b3c12","system_id":"levelo_inurba_marseille","lat":43.28257,"lon":5.35077,"is_reserved":false,"is_disabled":false,"rental_uris":{"android":"levelo://app?vid=625e1995-b00f-42c2-82c5-28168c1b3c12","ios":"levelo://app?vid=625e1995-b00f-42c2-82c5-28168c1b3c12"},"vehicle_type_id":"4","last_reported":1731334193,"current_range_meters":26800,"station_id":"ce4bhbp2rcd13ifvqerg","pricing_plan_id":"cebpf4jnsgd1na2vs0mg"},{"bike_id":"9e5ae523-dc95-4818-b62d-f8ae565bbdb0","system_id":"levelo_inurba_marseille","lat":43.30463,"lon":5.3791,"is_reserved":false,"is_disabled":false,"rental_uris":{"android":"levelo://app?vid=9e5ae523-dc95-4818-b62d-f8ae565bbdb0","ios":"levelo://app?vid=9e5ae523-dc95-4818-b62d-f8ae565bbdb0"},"vehicle_type_id":"4","last_reported":1731334193,"current_range_meters":7200,"station_id":"ce4bgup2rcd13ifvqcn0","pricing_plan_id":"cebpf4jnsgd1na2vs0mg"},{"bike_id":"ca6bc757-afb2-47ae-8348-d50290e625d2","system_id":"levelo_inurba_marseille","lat":43.24806,"lon":5.37451,"is_reserved":false,"is_disabled":false,"rental_uris":{"android":"levelo://app?vid=ca6bc757-afb2-47ae-8348-d50290e625d2","ios":"levelo://app?vid=ca6bc757-afb2-47ae-8348-d50290e625d2"},"vehicle_type_id":"4","last_reported":1731334193,"current_range_meters":29600,"station_id":"ce4bhgh2rcd13ifvqfb0","pricing_plan_id":"cebpf4jnsgd1na2vs0mg"},{"bike_id":"26c953d5-0327-4450-b4b7-5368639baa6e","system_id":"levelo_inurba_marseille","lat":43.25451,"lon":5.37904,"is_reserved":false,"is_disabled":false,"rental_uris":{"android":"levelo://app?vid=26c953d5-0327-4450-b4b7-5368639baa6e","ios":"levelo://app?vid=26c953d5-0327-4450-b4b7-5368639baa6e"},"vehicle_type_id":"4","last_reported":1731334193,"current_range_meters":36800,"station_id":"","pricing_plan_id":"cebpf4jnsgd1na2vs0mg"},{"bike_id":"bdf00644-feeb-4cfc-b7e7-a0b3e87216f9","system_id":"levelo_inurba_marseille","lat":43.23189,"lon":5.35556,"is_reserved":false,"is_disabled":false,"rental_uris":{"android":"levelo://app?vid=bdf00644-feeb-4cfc-b7e7-a0b3e87216f9","ios":"levelo://app?vid=bdf00644-feeb-4cfc-b7e7-a0b3e87216f9"},"vehicle_type_id":"4","last_reported":1731334193,"current_range_meters":37600,"station_id":"ce4bhu92rcd13ifvqi70","pricing_plan_id":"cebpf4jnsgd1na2vs0mg"},{"bike_id":"50d6f895-2e86-4258-a152-d383f9cd8ad8","system_id":"levelo_inurba_marseille","lat":43.2826,"lon":5.35067,"is_reserved":false,"is_disabled":false,"rental_uris":{"android":"levelo://app?vid=50d6f895-2e86-4258-a152-d383f9cd8ad8","ios":"levelo://app?vid=50d6f895-2e86-4258-a152-d383f9cd8ad8"},"vehicle_type_id":"4","last_reported":1731334193,"current_range_meters":27600,"station_id":"ce4bhbp2rcd13ifvqerg","pricing_plan_id":"cebpf4jnsgd1na2vs0mg"},{"bike_id":"b7be4a98-cbde-46fb-9668-ebdb296d0759","system_id":"levelo_inurba_marseille","lat":43.26499,"lon":5.39553,"is_reserved":false,"is_disabled":false,"rental_uris":{"android":"levelo://app?vid=b7be4a98-cbde-46fb-9668-ebdb296d0759","ios":"levelo://app?vid=b7be4a98-cbde-46fb-9668-ebdb296d0759"},"vehicle_type_id":"4","last_reported":1731334193,"current_range_meters":38400,"station_id":"ce4bhi12rcd13ifvqfq0","pricing_plan_id":"cebpf4jnsgd1na2vs0mg"},{"bike_id":"00079633-0204-49b0-9404-0f1d9390baca","system_id":"levelo_inurba_marseille","lat":43.24804,"lon":5.37455,"is_reserved":false,"is_disabled":false,"rental_uris":{"android":"levelo://app?vid=00079633-0204-49b0-9404-0f1d9390baca","ios":"levelo://app?vid=00079633-0204-49b0-9404-0f1d9390baca"},"vehicle_type_id":"4","last_reported":1731334193,"current_range_meters":38800,"station_id":"ce4bhgh2rcd13ifvqfb0","pricing_plan_id":"cebpf4jnsgd1na2vs0mg"},{"bike_id":"1064cbe5-0b25-44f7-ab24-5aa89f925aa0","system_id":"levelo_inurba_marseille","lat":43.27063,"lon":5.42277,"is_reserved":false,"is_disabled":false,"rental_uris":{"android":"levelo://app?vid=1064cbe5-0b25-44f7-ab24-5aa89f925aa0","ios":"levelo://app?vid=1064cbe5-0b25-44f7-ab24-5aa89f925aa0"},"vehicle_type_id":"4","last_reported":1731334193,"current_range_meters":6800,"station_id":"ce4bhk92rcd13ifvqgb0","pricing_plan_id":"cebpf4jnsgd1na2vs0mg"},{"bike_id":"2586415f-dbae-4174-90d1-65568f2c3713","system_id":"levelo_inurba_marseille","lat":43.29844,"lon":5.36277,"is_reserved":false,"is_disabled":false,"rental_uris":{"android":"levelo://app?vid=2586415f-dbae-4174-90d1-65568f2c3713","ios":"levelo://app?vid=2586415f-dbae-4174-90d1-65568f2c3713"},"vehicle_type_id":"4","last_reported":1731334193,"current_range_meters":30400,"station_id":"ce4bgpp2rcd13ifvqc3g","pricing_plan_id":"cebpf4jnsgd1na2vs0mg"},{"bike_id":"75f118f3-8db4-434f-979e-fd2194673316","system_id":"levelo_inurba_marseille","lat":43.28077,"lon":5.39664,"is_reserved":false,"is_disabled":false,"rental_uris":{"android":"levelo://app?vid=75f118f3-8db4-434f-979e-fd2194673316","ios":"levelo://app?vid=75f118f3-8db4-434f-979e-fd2194673316"},"vehicle_type_id":"4","last_reported":1731334193,"current_range_meters":22800,"station_id":"ce4bho12rcd13ifvqh2g","pricing_plan_id":"cebpf4jnsgd1na2vs0mg"},{"bike_id":"06cd1fbe-f59a-4691-ad4a-838c581827cf","system_id":"levelo_inurba_marseille","lat":43.28409,"lon":5.34992,"is_reserved":false,"is_disabled":false,"rental_uris":{"android":"levelo://app?vid=06cd1fbe-f59a-4691-ad4a-838c581827cf","ios":"levelo://app?vid=06cd1fbe-f59a-4691-ad4a-838c581827cf"},"vehicle_type_id":"4","last_reported":1731334193,"current_range_meters":27200,"station_id":"ce4bhbh2rcd13ifvqepg","pricing_plan_id":"cebpf4jnsgd1na2vs0mg"},{"bike_id":"784616cb-3dcc-4a17-ae25-f5786a0d223a","system_id":"levelo_inurba_marseille","lat":43.337444,"lon":5.374475,"is_reserved":false,"is_disabled":false,"rental_uris":{"android":"levelo://app?vid=784616cb-3dcc-4a17-ae25-f5786a0d223a","ios":"levelo://app?vid=784616cb-3dcc-4a17-ae25-f5786a0d223a"},"vehicle_type_id":"4","last_reported":1731334193,"current_range_meters":36800,"station_id":"","pricing_plan_id":"cebpf4jnsgd1na2vs0mg"},{"bike_id":"bbd15542-9a18-45ac-89de-c5d57ab3a68f","system_id":"levelo_inurba_marseille","lat":43.24641,"lon":5.38903,"is_reserved":false,"is_disabled":false,"rental_uris":{"android":"levelo://app?vid=bbd15542-9a18-45ac-89de-c5d57ab3a68f","ios":"levelo://app?vid=bbd15542-9a18-45ac-89de-c5d57ab3a68f"},"vehicle_type_id":"4","last_reported":1731334193,"current_range_meters":17600,"station_id":"ce4bhg12rcd13ifvqf60","pricing_plan_id":"cebpf4jnsgd1na2vs0mg"},{"bike_id":"95391f29-0d9d-4b5d-b626-77e045fead18","system_id":"levelo_inurba_marseille","lat":43.28346,"lon":5.38104,"is_reserved":false,"is_disabled":false,"rental_uris":{"android":"levelo://app?vid=95391f29-0d9d-4b5d-b626-77e045fead18","ios":"levelo://app?vid=95391f29-0d9d-4b5d-b626-77e045fead18"},"vehicle_type_id":"4","last_reported":1731334193,"current_range_meters":38800,"station_id":"ce4bh412rcd13ifvqdr0","pricing_plan_id":"cebpf4jnsgd1na2vs0mg"},{"bike_id":"04f5b9ba-5ed4-476d-85d4-7c59c49ef8ef","system_id":"levelo_inurba_marseille","lat":43.2649,"lon":5.39557,"is_reserved":false,"is_disabled":false,"rental_uris":{"android":"levelo://app?vid=04f5b9ba-5ed4-476d-85d4-7c59c49ef8ef","ios":"levelo://app?vid=04f5b9ba-5ed4-476d-85d4-7c59c49ef8ef"},"vehicle_type_id":"4","last_reported":1731334193,"current_range_meters":8800,"station_id":"ce4bhi12rcd13ifvqfq0","pricing_plan_id":"cebpf4jnsgd1na2vs0mg"},{"bike_id":"720d1874-b46b-47ba-999c-812502b47039","system_id":"levelo_inurba_marseille","lat":43.24806,"lon":5.37457,"is_reserved":false,"is_disabled":false,"rental_uris":{"android":"levelo://app?vid=720d1874-b46b-47ba-999c-812502b47039","ios":"levelo://app?vid=720d1874-b46b-47ba-999c-812502b47039"},"vehicle_type_id":"4","last_reported":1731334193,"current_range_meters":37600,"station_id":"ce4bhgh2rcd13ifvqfb0","pricing_plan_id":"cebpf4jnsgd1na2vs0mg"},{"bike_id":"3ef157e4-2464-443c-8937-f5bc1f5ec441","system_id":"levelo_inurba_marseille","lat":43.2984,"lon":5.36266,"is_reserved":false,"is_disabled":false,"rental_uris":{"android":"levelo://app?vid=3ef157e4-2464-443c-8937-f5bc1f5ec441","ios":"levelo://app?vid=3ef157e4-2464-443c-8937-f5bc1f5ec441"},"vehicle_type_id":"4","last_reported":1731334193,"current_range_meters":25600,"station_id":"ce4bgpp2rcd13ifvqc3g","pricing_plan_id":"cebpf4jnsgd1na2vs0mg"},{"bike_id":"181fa628-fd06-4339-88f4-5d411c857699","system_id":"levelo_inurba_marseille","lat":43.27065,"lon":5.42281,"is_reserved":false,"is_disabled":false,"rental_uris":{"android":"levelo://app?vid=181fa628-fd06-4339-88f4-5d411c857699","ios":"levelo://app?vid=181fa628-fd06-4339-88f4-5d411c857699"},"vehicle_type_id":"4","last_reported":1731334193,"current_range_meters":36800,"station_id":"ce4bhk92rcd13ifvqgb0","pricing_plan_id":"cebpf4jnsgd1na2vs0mg"},{"bike_id":"cabd5abe-676a-4937-951a-a6ecbfccb7be","system_id":"levelo_inurba_marseille","lat":43.303566,"lon":5.378918,"is_reserved":false,"is_disabled":false,"rental_uris":{"android":"levelo://app?vid=cabd5abe-676a-4937-951a-a6ecbfccb7be","ios":"levelo://app?vid=cabd5abe-676a-4937-951a-a6ecbfccb7be"},"vehicle_type_id":"4","last_reported":1731334193,"current_range_meters":5600,"station_id":"ce4bgup2rcd13ifvqcn0","pricing_plan_id":"cebpf4jnsgd1na2vs0mg"},{"bike_id":"31ef4b69-427e-41fa-8956-039a4b034a3e","system_id":"levelo_inurba_marseille","lat":43.27901,"lon":5.38011,"is_reserved":false,"is_disabled":false,"rental_uris":{"android":"levelo://app?vid=31ef4b69-427e-41fa-8956-039a4b034a3e","ios":"levelo://app?vid=31ef4b69-427e-41fa-8956-039a4b034a3e"},"vehicle_type_id":"4","last_reported":1731334193,"current_range_meters":11200,"station_id":"ce4bgjh2rcd13ifvqbf0","pricing_plan_id":"cebpf4jnsgd1na2vs0mg"},{"bike_id":"7900a1f7-5e50-4487-967b-0e8eaabba6c8","system_id":"levelo_inurba_marseille","lat":43.29845,"lon":5.36271,"is_reserved":false,"is_disabled":false,"rental_uris":{"android":"levelo://app?vid=7900a1f7-5e50-4487-967b-0e8eaabba6c8","ios":"levelo://app?vid=7900a1f7-5e50-4487-967b-0e8eaabba6c8"},"vehicle_type_id":"4","last_reported":1731334193,"current_range_meters":22400,"station_id":"ce4bgpp2rcd13ifvqc3g","pricing_plan_id":"cebpf4jnsgd1na2vs0mg"},{"bike_id":"c9e93cc5-3a50-4038-a63d-eca1a7b7bf43","system_id":"levelo_inurba_marseille","lat":43.23963,"lon":5.36627,"is_reserved":false,"is_disabled":false,"rental_uris":{"android":"levelo://app?vid=c9e93cc5-3a50-4038-a63d-eca1a7b7bf43","ios":"levelo://app?vid=c9e93cc5-3a50-4038-a63d-eca1a7b7bf43"},"vehicle_type_id":"4","last_reported":1731334193,"current_range_meters":6800,"station_id":"ce4bhi12rcd13ifvqfp0","pricing_plan_id":"cebpf4jnsgd1na2vs0mg"},{"bike_id":"a445e06d-e850-4727-84ea-b5a6ad06702d","system_id":"levelo_inurba_marseille","lat":43.29002,"lon":5.35612,"is_reserved":false,"is_disabled":false,"rental_uris":{"android":"levelo://app?vid=a445e06d-e850-4727-84ea-b5a6ad06702d","ios":"levelo://app?vid=a445e06d-e850-4727-84ea-b5a6ad06702d"},"vehicle_type_id":"4","last_reported":1731334193,"current_range_meters":4800,"station_id":"ce4bhb92rcd13ifvqen0","pricing_plan_id":"cebpf4jnsgd1na2vs0mg"},{"bike_id":"ae9a38c2-4c57-4241-82b8-140337266338","system_id":"levelo_inurba_marseille","lat":43.26212,"lon":5.37444,"is_reserved":false,"is_disabled":false,"rental_uris":{"android":"levelo://app?vid=ae9a38c2-4c57-4241-82b8-140337266338","ios":"levelo://app?vid=ae9a38c2-4c57-4241-82b8-140337266338"},"vehicle_type_id":"4","last_reported":1731334193,"current_range_meters":17600,"station_id":"ce4bhgp2rcd13ifvqfc0","pricing_plan_id":"cebpf4jnsgd1na2vs0mg"},{"bike_id":"1e7fd650-28c5-42ee-9922-4070c0acdb85","system_id":"levelo_inurba_marseille","lat":43.27487,"lon":5.4246,"is_reserved":false,"is_disabled":false,"rental_uris":{"android":"levelo://app?vid=1e7fd650-28c5-42ee-9922-4070c0acdb85","ios":"levelo://app?vid=1e7fd650-28c5-42ee-9922-4070c0acdb85"},"vehicle_type_id":"4","last_reported":1731334193,"current_range_meters":35200,"station_id":"ce4bhn92rcd13ifvqgrg","pricing_plan_id":"cebpf4jnsgd1na2vs0mg"},{"bike_id":"1dc7ac1a-b527-47b1-86f9-8ca8fddb6202","system_id":"levelo_inurba_marseille","lat":43.23059,"lon":5.35493,"is_reserved":false,"is_disabled":false,"rental_uris":{"android":"levelo://app?vid=1dc7ac1a-b527-47b1-86f9-8ca8fddb6202","ios":"levelo://app?vid=1dc7ac1a-b527-47b1-86f9-8ca8fddb6202"},"vehicle_type_id":"4","last_reported":1731334193,"current_range_meters":8400,"station_id":"cpo3342slgdg3j2ifvpg","pricing_plan_id":"cebpf4jnsgd1na2vs0mg"},{"bike_id":"a5379cc8-aca3-463b-9c9c-1562c0ff3ffe","system_id":"levelo_inurba_marseille","lat":43.24391,"lon":5.37052,"is_reserved":false,"is_disabled":false,"rental_uris":{"android":"levelo://app?vid=a5379cc8-aca3-463b-9c9c-1562c0ff3ffe","ios":"levelo://app?vid=a5379cc8-aca3-463b-9c9c-1562c0ff3ffe"},"vehicle_type_id":"4","last_reported":1731334193,"current_range_meters":30800,"station_id":"ce4bhhh2rcd13ifvqfk0","pricing_plan_id":"cebpf4jnsgd1na2vs0mg"},{"bike_id":"712f4d8d-31b8-4a48-b9cc-cf37ea4e002d","system_id":"levelo_inurba_marseille","lat":43.30963,"lon":5.39054,"is_reserved":false,"is_disabled":false,"rental_uris":{"android":"levelo://app?vid=712f4d8d-31b8-4a48-b9cc-cf37ea4e002d","ios":"levelo://app?vid=712f4d8d-31b8-4a48-b9cc-cf37ea4e002d"},"vehicle_type_id":"4","last_reported":1731334193,"current_range_meters":30000,"station_id":"ce4bgup2rcd13ifvqco0","pricing_plan_id":"cebpf4jnsgd1na2vs0mg"},{"bike_id":"defa6e3e-c11f-414a-afec-2e48be39d0e4","system_id":"levelo_inurba_marseille","lat":43.28664,"lon":5.3636,"is_reserved":false,"is_disabled":false,"rental_uris":{"android":"levelo://app?vid=defa6e3e-c11f-414a-afec-2e48be39d0e4","ios":"levelo://app?vid=defa6e3e-c11f-414a-afec-2e48be39d0e4"},"vehicle_type_id":"4","last_reported":1731334193,"current_range_meters":35600,"station_id":"ce4bhah2rcd13ifvqej0","pricing_plan_id":"cebpf4jnsgd1na2vs0mg"},{"bike_id":"07704a86-dbed-425a-854d-11b1a4e3d84c","system_id":"levelo_inurba_marseille","lat":43.33753,"lon":5.37447,"is_reserved":false,"is_disabled":false,"rental_uris":{"android":"levelo://app?vid=07704a86-dbed-425a-854d-11b1a4e3d84c","ios":"levelo://app?vid=07704a86-dbed-425a-854d-11b1a4e3d84c"},"vehicle_type_id":"4","last_reported":1731334193,"current_range_meters":24400,"station_id":"","pricing_plan_id":"cebpf4jnsgd1na2vs0mg"},{"bike_id":"edae52bd-a421-44c3-a46b-11837d2d4d52","system_id":"levelo_inurba_marseille","lat":43.289395,"lon":5.396298,"is_reserved":false,"is_disabled":false,"rental_uris":{"android":"levelo://app?vid=edae52bd-a421-44c3-a46b-11837d2d4d52","ios":"levelo://app?vid=edae52bd-a421-44c3-a46b-11837d2d4d52"},"vehicle_type_id":"4","last_reported":1731334193,"current_range_meters":38800,"station_id":"ce4bh3h2rcd13ifvqdn0","pricing_plan_id":"cebpf4jnsgd1na2vs0mg"},{"bike_id":"00b3b7cc-6e79-4fb4-a2a4-461326db9b9b","system_id":"levelo_inurba_marseille","lat":43.29095,"lon":5.3814,"is_reserved":false,"is_disabled":false,"rental_uris":{"android":"levelo://app?vid=00b3b7cc-6e79-4fb4-a2a4-461326db9b9b","ios":"levelo://app?vid=00b3b7cc-6e79-4fb4-a2a4-461326db9b9b"},"vehicle_type_id":"4","last_reported":1731334193,"current_range_meters":32400,"station_id":"ce4bh512rcd13ifvqe2g","pricing_plan_id":"cebpf4jnsgd1na2vs0mg"},{"bike_id":"1bb21fc2-55e7-4feb-9e37-af35a7a6531b","system_id":"levelo_inurba_marseille","lat":43.28849,"lon":5.3586,"is_reserved":false,"is_disabled":false,"rental_uris":{"android":"levelo://app?vid=1bb21fc2-55e7-4feb-9e37-af35a7a6531b","ios":"levelo://app?vid=1bb21fc2-55e7-4feb-9e37-af35a7a6531b"},"vehicle_type_id":"4","last_reported":1731334193,"current_range_meters":38800,"station_id":"ce4bhb12rcd13ifvqem0","pricing_plan_id":"cebpf4jnsgd1na2vs0mg"},{"bike_id":"14d20505-09c3-49e6-b487-149678ce51b5","system_id":"levelo_inurba_marseille","lat":43.23195,"lon":5.35557,"is_reserved":false,"is_disabled":false,"rental_uris":{"android":"levelo://app?vid=14d20505-09c3-49e6-b487-149678ce51b5","ios":"levelo://app?vid=14d20505-09c3-49e6-b487-149678ce51b5"},"vehicle_type_id":"4","last_reported":1731334193,"current_range_meters":24000,"station_id":"ce4bhu92rcd13ifvqi70","pricing_plan_id":"cebpf4jnsgd1na2vs0mg"},{"bike_id":"d2bd9332-8f9b-4e5f-b0ca-5e8e4a76daca","system_id":"levelo_inurba_marseille","lat":43.27611,"lon":5.36107,"is_reserved":false,"is_disabled":false,"rental_uris":{"android":"levelo://app?vid=d2bd9332-8f9b-4e5f-b0ca-5e8e4a76daca","ios":"levelo://app?vid=d2bd9332-8f9b-4e5f-b0ca-5e8e4a76daca"},"vehicle_type_id":"4","last_reported":1731334193,"current_range_meters":30000,"station_id":"ce4bgj92rcd13ifvqbe0","pricing_plan_id":"cebpf4jnsgd1na2vs0mg"},{"bike_id":"0389f6ba-9b11-4bae-aa59-6c887bee55e5","system_id":"levelo_inurba_marseille","lat":43.32293,"lon":5.38267,"is_reserved":false,"is_disabled":false,"rental_uris":{"android":"levelo://app?vid=0389f6ba-9b11-4bae-aa59-6c887bee55e5","ios":"levelo://app?vid=0389f6ba-9b11-4bae-aa59-6c887bee55e5"},"vehicle_type_id":"4","last_reported":1731334193,"current_range_meters":30400,"station_id":"ce4bhr12rcd13ifvqhqg","pricing_plan_id":"cebpf4jnsgd1na2vs0mg"},{"bike_id":"50b26d8e-23e7-45b0-b95b-496679d5d49b","system_id":"levelo_inurba_marseille","lat":43.29789,"lon":5.38107,"is_reserved":false,"is_disabled":false,"rental_uris":{"android":"levelo://app?vid=50b26d8e-23e7-45b0-b95b-496679d5d49b","ios":"levelo://app?vid=50b26d8e-23e7-45b0-b95b-496679d5d49b"},"vehicle_type_id":"4","last_reported":1731334193,"current_range_meters":36800,"station_id":"ce4bgip2rcd13ifvqbb0","pricing_plan_id":"cebpf4jnsgd1na2vs0mg"},{"bike_id":"223cb3dc-89db-437f-a733-d8ba2fd6c352","system_id":"levelo_inurba_marseille","lat":43.28268,"lon":5.35081,"is_reserved":false,"is_disabled":false,"rental_uris":{"android":"levelo://app?vid=223cb3dc-89db-437f-a733-d8ba2fd6c352","ios":"levelo://app?vid=223cb3dc-89db-437f-a733-d8ba2fd6c352"},"vehicle_type_id":"4","last_reported":1731334193,"current_range_meters":26000,"station_id":"ce4bhbp2rcd13ifvqerg","pricing_plan_id":"cebpf4jnsgd1na2vs0mg"},{"bike_id":"c1e70269-c155-460e-aa50-d5a936cbf590","system_id":"levelo_inurba_marseille","lat":43.23065,"lon":5.35486,"is_reserved":false,"is_disabled":false,"rental_uris":{"android":"levelo://app?vid=c1e70269-c155-460e-aa50-d5a936cbf590","ios":"levelo://app?vid=c1e70269-c155-460e-aa50-d5a936cbf590"},"vehicle_type_id":"4","last_reported":1731334193,"current_range_meters":34800,"station_id":"cpo3342slgdg3j2ifvpg","pricing_plan_id":"cebpf4jnsgd1na2vs0mg"},{"bike_id":"a3eee593-554c-49b6-a072-1e002305f4af","system_id":"levelo_inurba_marseille","lat":43.2621,"lon":5.37446,"is_reserved":false,"is_disabled":false,"rental_uris":{"android":"levelo://app?vid=a3eee593-554c-49b6-a072-1e002305f4af","ios":"levelo://app?vid=a3eee593-554c-49b6-a072-1e002305f4af"},"vehicle_type_id":"4","last_reported":1731334193,"current_range_meters":9200,"station_id":"ce4bhgp2rcd13ifvqfc0","pricing_plan_id":"cebpf4jnsgd1na2vs0mg"},{"bike_id":"5d77ac71-310e-42bf-9bac-7c7779d1b0ab","system_id":"levelo_inurba_marseille","lat":43.25574,"lon":5.38235,"is_reserved":false,"is_disabled":false,"rental_uris":{"android":"levelo://app?vid=5d77ac71-310e-42bf-9bac-7c7779d1b0ab","ios":"levelo://app?vid=5d77ac71-310e-42bf-9bac-7c7779d1b0ab"},"vehicle_type_id":"4","last_reported":1731334193,"current_range_meters":30000,"station_id":"ce4bhih2rcd13ifvqfs0","pricing_plan_id":"cebpf4jnsgd1na2vs0mg"},{"bike_id":"a6045460-5038-48ba-9982-748890abe30d","system_id":"levelo_inurba_marseille","lat":43.28409,"lon":5.34997,"is_reserved":false,"is_disabled":false,"rental_uris":{"android":"levelo://app?vid=a6045460-5038-48ba-9982-748890abe30d","ios":"levelo://app?vid=a6045460-5038-48ba-9982-748890abe30d"},"vehicle_type_id":"4","last_reported":1731334193,"current_range_meters":38800,"station_id":"ce4bhbh2rcd13ifvqepg","pricing_plan_id":"cebpf4jnsgd1na2vs0mg"},{"bike_id":"f231988b-c677-4d61-8d18-d58a52fe96b5","system_id":"levelo_inurba_marseille","lat":43.25501,"lon":5.37655,"is_reserved":false,"is_disabled":false,"rental_uris":{"android":"levelo://app?vid=f231988b-c677-4d61-8d18-d58a52fe96b5","ios":"levelo://app?vid=f231988b-c677-4d61-8d18-d58a52fe96b5"},"vehicle_type_id":"4","last_reported":1731334193,"current_range_meters":39200,"station_id":"ce4bhh12rcd13ifvqff0","pricing_plan_id":"cebpf4jnsgd1na2vs0mg"},{"bike_id":"05b62862-8331-49c7-8a0f-0d0121269a5e","system_id":"levelo_inurba_marseille","lat":43.28416,"lon":5.34993,"is_reserved":false,"is_disabled":false,"rental_uris":{"android":"levelo://app?vid=05b62862-8331-49c7-8a0f-0d0121269a5e","ios":"levelo://app?vid=05b62862-8331-49c7-8a0f-0d0121269a5e"},"vehicle_type_id":"4","last_reported":1731334193,"current_range_meters":38800,"station_id":"ce4bhbh2rcd13ifvqepg","pricing_plan_id":"cebpf4jnsgd1na2vs0mg"},{"bike_id":"ae119784-29c4-45e1-aa06-6ebdb9e26032","system_id":"levelo_inurba_marseille","lat":43.2416,"lon":5.36401,"is_reserved":false,"is_disabled":false,"rental_uris":{"android":"levelo://app?vid=ae119784-29c4-45e1-aa06-6ebdb9e26032","ios":"levelo://app?vid=ae119784-29c4-45e1-aa06-6ebdb9e26032"},"vehicle_type_id":"4","last_reported":1731334193,"current_range_meters":25600,"station_id":"cpo36qri1sfpv3e86is0","pricing_plan_id":"cebpf4jnsgd1na2vs0mg"},{"bike_id":"86027c99-b09a-4497-8940-21c65bf245f8","system_id":"levelo_inurba_marseille","lat":43.26558,"lon":5.37309,"is_reserved":false,"is_disabled":false,"rental_uris":{"android":"levelo://app?vid=86027c99-b09a-4497-8940-21c65bf245f8","ios":"levelo://app?vid=86027c99-b09a-4497-8940-21c65bf245f8"},"vehicle_type_id":"4","last_reported":1731334193,"current_range_meters":3600,"station_id":"ce4bhg12rcd13ifvqf70","pricing_plan_id":"cebpf4jnsgd1na2vs0mg"},{"bike_id":"2ed51051-6220-405f-8a89-d08f6274e10d","system_id":"levelo_inurba_marseille","lat":43.2826,"lon":5.35065,"is_reserved":false,"is_disabled":false,"rental_uris":{"android":"levelo://app?vid=2ed51051-6220-405f-8a89-d08f6274e10d","ios":"levelo://app?vid=2ed51051-6220-405f-8a89-d08f6274e10d"},"vehicle_type_id":"4","last_reported":1731334193,"current_range_meters":27600,"station_id":"ce4bhbp2rcd13ifvqerg","pricing_plan_id":"cebpf4jnsgd1na2vs0mg"},{"bike_id":"7a5423ff-9bad-4bf3-b53d-149c4e2f55ae","system_id":"levelo_inurba_marseille","lat":43.28416,"lon":5.3497,"is_reserved":false,"is_disabled":false,"rental_uris":{"android":"levelo://app?vid=7a5423ff-9bad-4bf3-b53d-149c4e2f55ae","ios":"levelo://app?vid=7a5423ff-9bad-4bf3-b53d-149c4e2f55ae"},"vehicle_type_id":"4","last_reported":1731334193,"current_range_meters":38800,"station_id":"","pricing_plan_id":"cebpf4jnsgd1na2vs0mg"},{"bike_id":"0ddc6cef-4a19-42a6-95a0-b546207e9d35","system_id":"levelo_inurba_marseille","lat":43.23187,"lon":5.35544,"is_reserved":false,"is_disabled":false,"rental_uris":{"android":"levelo://app?vid=0ddc6cef-4a19-42a6-95a0-b546207e9d35","ios":"levelo://app?vid=0ddc6cef-4a19-42a6-95a0-b546207e9d35"},"vehicle_type_id":"4","last_reported":1731334193,"current_range_meters":30800,"station_id":"ce4bhu92rcd13ifvqi70","pricing_plan_id":"cebpf4jnsgd1na2vs0mg"},{"bike_id":"7727d3d7-5def-4fe9-81b1-79b0511040af","system_id":"levelo_inurba_marseille","lat":43.29846,"lon":5.36284,"is_reserved":false,"is_disabled":false,"rental_uris":{"android":"levelo://app?vid=7727d3d7-5def-4fe9-81b1-79b0511040af","ios":"levelo://app?vid=7727d3d7-5def-4fe9-81b1-79b0511040af"},"vehicle_type_id":"4","last_reported":1731334193,"current_range_meters":38800,"station_id":"ce4bgpp2rcd13ifvqc3g","pricing_plan_id":"cebpf4jnsgd1na2vs0mg"},{"bike_id":"65414392-3b59-4381-90a9-8c6da9d6fc25","system_id":"levelo_inurba_marseille","lat":43.28264,"lon":5.35066,"is_reserved":false,"is_disabled":false,"rental_uris":{"android":"levelo://app?vid=65414392-3b59-4381-90a9-8c6da9d6fc25","ios":"levelo://app?vid=65414392-3b59-4381-90a9-8c6da9d6fc25"},"vehicle_type_id":"4","last_reported":1731334193,"current_range_meters":22800,"station_id":"ce4bhbp2rcd13ifvqerg","pricing_plan_id":"cebpf4jnsgd1na2vs0mg"},{"bike_id":"15b5d19b-0f71-4c01-802c-12f58dcc6423","system_id":"levelo_inurba_marseille","lat":43.291962,"lon":5.35793,"is_reserved":false,"is_disabled":false,"rental_uris":{"android":"levelo://app?vid=15b5d19b-0f71-4c01-802c-12f58dcc6423","ios":"levelo://app?vid=15b5d19b-0f71-4c01-802c-12f58dcc6423"},"vehicle_type_id":"4","last_reported":1731334193,"current_range_meters":36000,"station_id":"ce4bhb12rcd13ifvqel0","pricing_plan_id":"cebpf4jnsgd1na2vs0mg"},{"bike_id":"82ce0d1a-35aa-4501-b8b0-471c54595dce","system_id":"levelo_inurba_marseille","lat":43.23963,"lon":5.36642,"is_reserved":false,"is_disabled":false,"rental_uris":{"android":"levelo://app?vid=82ce0d1a-35aa-4501-b8b0-471c54595dce","ios":"levelo://app?vid=82ce0d1a-35aa-4501-b8b0-471c54595dce"},"vehicle_type_id":"4","last_reported":1731334193,"current_range_meters":24400,"station_id":"ce4bhi12rcd13ifvqfp0","pricing_plan_id":"cebpf4jnsgd1na2vs0mg"},{"bike_id":"6c14bf7c-a5e2-4483-8294-0eccc6404eac","system_id":"levelo_inurba_marseille","lat":43.30949,"lon":5.40878,"is_reserved":false,"is_disabled":false,"rental_uris":{"android":"levelo://app?vid=6c14bf7c-a5e2-4483-8294-0eccc6404eac","ios":"levelo://app?vid=6c14bf7c-a5e2-4483-8294-0eccc6404eac"},"vehicle_type_id":"4","last_reported":1731334193,"current_range_meters":29600,"station_id":"","pricing_plan_id":"cebpf4jnsgd1na2vs0mg"},{"bike_id":"f5abc20a-ca11-4674-9768-02c514e61b75","system_id":"levelo_inurba_marseille","lat":43.30431,"lon":5.38897,"is_reserved":false,"is_disabled":false,"rental_uris":{"android":"levelo://app?vid=f5abc20a-ca11-4674-9768-02c514e61b75","ios":"levelo://app?vid=f5abc20a-ca11-4674-9768-02c514e61b75"},"vehicle_type_id":"4","last_reported":1731334193,"current_range_meters":18800,"station_id":"ce4bgk12rcd13ifvqbi0","pricing_plan_id":"cebpf4jnsgd1na2vs0mg"},{"bike_id":"85849e39-f38e-4437-afbd-f8d706fa4b32","system_id":"levelo_inurba_marseille","lat":43.28413,"lon":5.34986,"is_reserved":false,"is_disabled":false,"rental_uris":{"android":"levelo://app?vid=85849e39-f38e-4437-afbd-f8d706fa4b32","ios":"levelo://app?vid=85849e39-f38e-4437-afbd-f8d706fa4b32"},"vehicle_type_id":"4","last_reported":1731334193,"current_range_meters":31200,"station_id":"ce4bhbh2rcd13ifvqepg","pricing_plan_id":"cebpf4jnsgd1na2vs0mg"},{"bike_id":"d5990e19-0551-4ad3-8c2a-d80513ba61ae","system_id":"levelo_inurba_marseille","lat":43.23194,"lon":5.35552,"is_reserved":false,"is_disabled":false,"rental_uris":{"android":"levelo://app?vid=d5990e19-0551-4ad3-8c2a-d80513ba61ae","ios":"levelo://app?vid=d5990e19-0551-4ad3-8c2a-d80513ba61ae"},"vehicle_type_id":"4","last_reported":1731334193,"current_range_meters":39200,"station_id":"ce4bhu92rcd13ifvqi70","pricing_plan_id":"cebpf4jnsgd1na2vs0mg"},{"bike_id":"3f86fb64-ebdf-4046-bfb4-afc4f9860a79","system_id":"levelo_inurba_marseille","lat":43.28267,"lon":5.35063,"is_reserved":false,"is_disabled":false,"rental_uris":{"android":"levelo://app?vid=3f86fb64-ebdf-4046-bfb4-afc4f9860a79","ios":"levelo://app?vid=3f86fb64-ebdf-4046-bfb4-afc4f9860a79"},"vehicle_type_id":"4","last_reported":1731334193,"current_range_meters":14000,"station_id":"ce4bhbp2rcd13ifvqerg","pricing_plan_id":"cebpf4jnsgd1na2vs0mg"},{"bike_id":"d0de0228-1d77-44ff-abd5-a2717cad4818","system_id":"levelo_inurba_marseille","lat":43.27176,"lon":5.40998,"is_reserved":false,"is_disabled":false,"rental_uris":{"android":"levelo://app?vid=d0de0228-1d77-44ff-abd5-a2717cad4818","ios":"levelo://app?vid=d0de0228-1d77-44ff-abd5-a2717cad4818"},"vehicle_type_id":"4","last_reported":1731334193,"current_range_meters":28400,"station_id":"ce4bhl12rcd13ifvqgf0","pricing_plan_id":"cebpf4jnsgd1na2vs0mg"},{"bike_id":"b2f3adca-b446-441d-a1ab-5903c30fd432","system_id":"levelo_inurba_marseille","lat":43.33772,"lon":5.37447,"is_reserved":false,"is_disabled":false,"rental_uris":{"android":"levelo://app?vid=b2f3adca-b446-441d-a1ab-5903c30fd432","ios":"levelo://app?vid=b2f3adca-b446-441d-a1ab-5903c30fd432"},"vehicle_type_id":"4","last_reported":1731334193,"current_range_meters":10800,"station_id":"","pricing_plan_id":"cebpf4jnsgd1na2vs0mg"},{"bike_id":"11df15bd-c7ae-4aba-ba7e-574a4bdc22a4","system_id":"levelo_inurba_marseille","lat":43.2315,"lon":5.43711,"is_reserved":false,"is_disabled":false,"rental_uris":{"android":"levelo://app?vid=11df15bd-c7ae-4aba-ba7e-574a4bdc22a4","ios":"levelo://app?vid=11df15bd-c7ae-4aba-ba7e-574a4bdc22a4"},"vehicle_type_id":"4","last_reported":1731334193,"current_range_meters":32000,"station_id":"ce4bhmp2rcd13ifvqgog","pricing_plan_id":"cebpf4jnsgd1na2vs0mg"},{"bike_id":"2bdf9060-9eaa-4055-aa8b-ae8cd81f6e98","system_id":"levelo_inurba_marseille","lat":43.27069,"lon":5.42287,"is_reserved":false,"is_disabled":false,"rental_uris":{"android":"levelo://app?vid=2bdf9060-9eaa-4055-aa8b-ae8cd81f6e98","ios":"levelo://app?vid=2bdf9060-9eaa-4055-aa8b-ae8cd81f6e98"},"vehicle_type_id":"4","last_reported":1731334193,"current_range_meters":10000,"station_id":"ce4bhk92rcd13ifvqgb0","pricing_plan_id":"cebpf4jnsgd1na2vs0mg"},{"bike_id":"de386806-2844-4ac1-acb7-2d5d92568d24","system_id":"levelo_inurba_marseille","lat":43.31227,"lon":5.36843,"is_reserved":false,"is_disabled":false,"rental_uris":{"android":"levelo://app?vid=de386806-2844-4ac1-acb7-2d5d92568d24","ios":"levelo://app?vid=de386806-2844-4ac1-acb7-2d5d92568d24"},"vehicle_type_id":"4","last_reported":1731334193,"current_range_meters":9200,"station_id":"ce4bgl92rcd13ifvqbq0","pricing_plan_id":"cebpf4jnsgd1na2vs0mg"},{"bike_id":"19fa704b-aa6a-4aee-9b85-b1d4bec7f4b0","system_id":"levelo_inurba_marseille","lat":43.23065,"lon":5.35487,"is_reserved":false,"is_disabled":false,"rental_uris":{"android":"levelo://app?vid=19fa704b-aa6a-4aee-9b85-b1d4bec7f4b0","ios":"levelo://app?vid=19fa704b-aa6a-4aee-9b85-b1d4bec7f4b0"},"vehicle_type_id":"4","last_reported":1731334193,"current_range_meters":11600,"station_id":"cpo3342slgdg3j2ifvpg","pricing_plan_id":"cebpf4jnsgd1na2vs0mg"},{"bike_id":"04826258-bb69-44b2-a8f2-a71ebdd27f2b","system_id":"levelo_inurba_marseille","lat":43.284576,"lon":5.358894,"is_reserved":false,"is_disabled":false,"rental_uris":{"android":"levelo://app?vid=04826258-bb69-44b2-a8f2-a71ebdd27f2b","ios":"levelo://app?vid=04826258-bb69-44b2-a8f2-a71ebdd27f2b"},"vehicle_type_id":"4","last_reported":1731334193,"current_range_meters":9200,"station_id":"ce4bgs92rcd13ifvqcc0","pricing_plan_id":"cebpf4jnsgd1na2vs0mg"},{"bike_id":"61d59144-939f-4582-9efc-d588c6421da9","system_id":"levelo_inurba_marseille","lat":43.24167,"lon":5.364,"is_reserved":false,"is_disabled":false,"rental_uris":{"android":"levelo://app?vid=61d59144-939f-4582-9efc-d588c6421da9","ios":"levelo://app?vid=61d59144-939f-4582-9efc-d588c6421da9"},"vehicle_type_id":"4","last_reported":1731334193,"current_range_meters":11200,"station_id":"cpo36qri1sfpv3e86is0","pricing_plan_id":"cebpf4jnsgd1na2vs0mg"},{"bike_id":"a53c483b-e5bb-4128-86c3-cc3ac7967528","system_id":"levelo_inurba_marseille","lat":43.29199,"lon":5.35805,"is_reserved":false,"is_disabled":false,"rental_uris":{"android":"levelo://app?vid=a53c483b-e5bb-4128-86c3-cc3ac7967528","ios":"levelo://app?vid=a53c483b-e5bb-4128-86c3-cc3ac7967528"},"vehicle_type_id":"4","last_reported":1731334193,"current_range_meters":24800,"station_id":"ce4bhb12rcd13ifvqel0","pricing_plan_id":"cebpf4jnsgd1na2vs0mg"},{"bike_id":"b7181347-5adb-4b88-8701-597130d9ab12","system_id":"levelo_inurba_marseille","lat":43.27379,"lon":5.36258,"is_reserved":false,"is_disabled":false,"rental_uris":{"android":"levelo://app?vid=b7181347-5adb-4b88-8701-597130d9ab12","ios":"levelo://app?vid=b7181347-5adb-4b88-8701-597130d9ab12"},"vehicle_type_id":"4","last_reported":1731334193,"current_range_meters":19200,"station_id":"ce4bhbh2rcd13ifvqeo0","pricing_plan_id":"cebpf4jnsgd1na2vs0mg"},{"bike_id":"b72ca6e7-47e9-42be-9a97-b74e22acdc0e","system_id":"levelo_inurba_marseille","lat":43.32101,"lon":5.36784,"is_reserved":false,"is_disabled":false,"rental_uris":{"android":"levelo://app?vid=b72ca6e7-47e9-42be-9a97-b74e22acdc0e","ios":"levelo://app?vid=b72ca6e7-47e9-42be-9a97-b74e22acdc0e"},"vehicle_type_id":"4","last_reported":1731334193,"current_range_meters":30400,"station_id":"ce4bhrh2rcd13ifvqhug","pricing_plan_id":"cebpf4jnsgd1na2vs0mg"},{"bike_id":"b918d797-fe08-446e-aa3d-75603c2c3c85","system_id":"levelo_inurba_marseille","lat":43.27376,"lon":5.3626,"is_reserved":false,"is_disabled":false,"rental_uris":{"android":"levelo://app?vid=b918d797-fe08-446e-aa3d-75603c2c3c85","ios":"levelo://app?vid=b918d797-fe08-446e-aa3d-75603c2c3c85"},"vehicle_type_id":"4","last_reported":1731334193,"current_range_meters":38400,"station_id":"ce4bhbh2rcd13ifvqeo0","pricing_plan_id":"cebpf4jnsgd1na2vs0mg"},{"bike_id":"0df8bb59-b428-49af-9f16-568e84e6042c","system_id":"levelo_inurba_marseille","lat":43.24068,"lon":5.3776,"is_reserved":false,"is_disabled":false,"rental_uris":{"android":"levelo://app?vid=0df8bb59-b428-49af-9f16-568e84e6042c","ios":"levelo://app?vid=0df8bb59-b428-49af-9f16-568e84e6042c"},"vehicle_type_id":"4","last_reported":1731334193,"current_range_meters":32400,"station_id":"ce4bhnp2rcd13ifvqgvg","pricing_plan_id":"cebpf4jnsgd1na2vs0mg"},{"bike_id":"46ebbe9d-b751-4aef-804c-1876f9e81d6c","system_id":"levelo_inurba_marseille","lat":43.28418,"lon":5.34972,"is_reserved":false,"is_disabled":false,"rental_uris":{"android":"levelo://app?vid=46ebbe9d-b751-4aef-804c-1876f9e81d6c","ios":"levelo://app?vid=46ebbe9d-b751-4aef-804c-1876f9e81d6c"},"vehicle_type_id":"4","last_reported":1731334193,"current_range_meters":29600,"station_id":"ce4bhbh2rcd13ifvqepg","pricing_plan_id":"cebpf4jnsgd1na2vs0mg"},{"bike_id":"0e76562e-553c-4e26-8a62-b4f19117316b","system_id":"levelo_inurba_marseille","lat":43.295553,"lon":5.422876,"is_reserved":false,"is_disabled":false,"rental_uris":{"android":"levelo://app?vid=0e76562e-553c-4e26-8a62-b4f19117316b","ios":"levelo://app?vid=0e76562e-553c-4e26-8a62-b4f19117316b"},"vehicle_type_id":"4","last_reported":1731334193,"current_range_meters":4800,"station_id":"ce4bhph2rcd13ifvqhdg","pricing_plan_id":"cebpf4jnsgd1na2vs0mg"},{"bike_id":"52a71ef5-8ef7-4a13-9edb-b931936b8cfb","system_id":"levelo_inurba_marseille","lat":43.33726,"lon":5.39186,"is_reserved":false,"is_disabled":false,"rental_uris":{"android":"levelo://app?vid=52a71ef5-8ef7-4a13-9edb-b931936b8cfb","ios":"levelo://app?vid=52a71ef5-8ef7-4a13-9edb-b931936b8cfb"},"vehicle_type_id":"4","last_reported":1731334193,"current_range_meters":30400,"station_id":"ce4bhr92rcd13ifvqhsg","pricing_plan_id":"cebpf4jnsgd1na2vs0mg"},{"bike_id":"8f803afa-5642-4caf-899b-e5614b30849d","system_id":"levelo_inurba_marseille","lat":43.28256,"lon":5.35058,"is_reserved":false,"is_disabled":false,"rental_uris":{"android":"levelo://app?vid=8f803afa-5642-4caf-899b-e5614b30849d","ios":"levelo://app?vid=8f803afa-5642-4caf-899b-e5614b30849d"},"vehicle_type_id":"4","last_reported":1731334193,"current_range_meters":39200,"station_id":"ce4bhbp2rcd13ifvqerg","pricing_plan_id":"cebpf4jnsgd1na2vs0mg"},{"bike_id":"33bc95d7-c6a3-4755-8e04-4202557625ed","system_id":"levelo_inurba_marseille","lat":43.25822,"lon":5.39446,"is_reserved":false,"is_disabled":false,"rental_uris":{"android":"levelo://app?vid=33bc95d7-c6a3-4755-8e04-4202557625ed","ios":"levelo://app?vid=33bc95d7-c6a3-4755-8e04-4202557625ed"},"vehicle_type_id":"4","last_reported":1731334193,"current_range_meters":32400,"station_id":"ce4bhip2rcd13ifvqft0","pricing_plan_id":"cebpf4jnsgd1na2vs0mg"},{"bike_id":"03759bd1-b82e-4d42-9190-3987ee15667a","system_id":"levelo_inurba_marseille","lat":43.27997,"lon":5.40015,"is_reserved":false,"is_disabled":false,"rental_uris":{"android":"levelo://app?vid=03759bd1-b82e-4d42-9190-3987ee15667a","ios":"levelo://app?vid=03759bd1-b82e-4d42-9190-3987ee15667a"},"vehicle_type_id":"4","last_reported":1731334193,"current_range_meters":14800,"station_id":"ce4bho92rcd13ifvqh4g","pricing_plan_id":"cebpf4jnsgd1na2vs0mg"},{"bike_id":"16edd5e5-0497-4831-bb6b-d18eb7e92293","system_id":"levelo_inurba_marseille","lat":43.24808,"lon":5.37453,"is_reserved":false,"is_disabled":false,"rental_uris":{"android":"levelo://app?vid=16edd5e5-0497-4831-bb6b-d18eb7e92293","ios":"levelo://app?vid=16edd5e5-0497-4831-bb6b-d18eb7e92293"},"vehicle_type_id":"4","last_reported":1731334193,"current_range_meters":24000,"station_id":"ce4bhgh2rcd13ifvqfb0","pricing_plan_id":"cebpf4jnsgd1na2vs0mg"},{"bike_id":"feb86f62-2c80-4064-8e38-33c5534046da","system_id":"levelo_inurba_marseille","lat":43.28197,"lon":5.39915,"is_reserved":false,"is_disabled":false,"rental_uris":{"android":"levelo://app?vid=feb86f62-2c80-4064-8e38-33c5534046da","ios":"levelo://app?vid=feb86f62-2c80-4064-8e38-33c5534046da"},"vehicle_type_id":"4","last_reported":1731334193,"current_range_meters":16000,"station_id":"","pricing_plan_id":"cebpf4jnsgd1na2vs0mg"},{"bike_id":"a2e0dbd8-6bb6-4f58-81e6-a5bb2ebfdca4","system_id":"levelo_inurba_marseille","lat":43.23194,"lon":5.35553,"is_reserved":false,"is_disabled":false,"rental_uris":{"android":"levelo://app?vid=a2e0dbd8-6bb6-4f58-81e6-a5bb2ebfdca4","ios":"levelo://app?vid=a2e0dbd8-6bb6-4f58-81e6-a5bb2ebfdca4"},"vehicle_type_id":"4","last_reported":1731334193,"current_range_meters":38800,"station_id":"ce4bhu92rcd13ifvqi70","pricing_plan_id":"cebpf4jnsgd1na2vs0mg"},{"bike_id":"b03abf6e-6eea-4ffb-ac28-9602aca8ca60","system_id":"levelo_inurba_marseille","lat":43.27486,"lon":5.42447,"is_reserved":false,"is_disabled":false,"rental_uris":{"android":"levelo://app?vid=b03abf6e-6eea-4ffb-ac28-9602aca8ca60","ios":"levelo://app?vid=b03abf6e-6eea-4ffb-ac28-9602aca8ca60"},"vehicle_type_id":"4","last_reported":1731334193,"current_range_meters":31200,"station_id":"ce4bhn92rcd13ifvqgrg","pricing_plan_id":"cebpf4jnsgd1na2vs0mg"},{"bike_id":"cd626daf-f6c4-4792-9bd7-4a26b415c827","system_id":"levelo_inurba_marseille","lat":43.28567,"lon":5.39509,"is_reserved":false,"is_disabled":false,"rental_uris":{"android":"levelo://app?vid=cd626daf-f6c4-4792-9bd7-4a26b415c827","ios":"levelo://app?vid=cd626daf-f6c4-4792-9bd7-4a26b415c827"},"vehicle_type_id":"4","last_reported":1731334193,"current_range_meters":38800,"station_id":"ce4bh292rcd13ifvqdg0","pricing_plan_id":"cebpf4jnsgd1na2vs0mg"},{"bike_id":"b1839ac3-7b8a-4fa2-b603-92a278036a4b","system_id":"levelo_inurba_marseille","lat":43.28997,"lon":5.35609,"is_reserved":false,"is_disabled":false,"rental_uris":{"android":"levelo://app?vid=b1839ac3-7b8a-4fa2-b603-92a278036a4b","ios":"levelo://app?vid=b1839ac3-7b8a-4fa2-b603-92a278036a4b"},"vehicle_type_id":"4","last_reported":1731334193,"current_range_meters":35200,"station_id":"ce4bhb92rcd13ifvqen0","pricing_plan_id":"cebpf4jnsgd1na2vs0mg"},{"bike_id":"9e3f5526-dc45-4ee1-9c8e-05c036614c5b","system_id":"levelo_inurba_marseille","lat":43.248,"lon":5.37455,"is_reserved":false,"is_disabled":false,"rental_uris":{"android":"levelo://app?vid=9e3f5526-dc45-4ee1-9c8e-05c036614c5b","ios":"levelo://app?vid=9e3f5526-dc45-4ee1-9c8e-05c036614c5b"},"vehicle_type_id":"4","last_reported":1731334193,"current_range_meters":36400,"station_id":"ce4bhgh2rcd13ifvqfb0","pricing_plan_id":"cebpf4jnsgd1na2vs0mg"},{"bike_id":"d34bf5b5-25e3-4cbb-9654-ea9ef4a468a2","system_id":"levelo_inurba_marseille","lat":43.23964,"lon":5.36641,"is_reserved":false,"is_disabled":false,"rental_uris":{"android":"levelo://app?vid=d34bf5b5-25e3-4cbb-9654-ea9ef4a468a2","ios":"levelo://app?vid=d34bf5b5-25e3-4cbb-9654-ea9ef4a468a2"},"vehicle_type_id":"4","last_reported":1731334193,"current_range_meters":20400,"station_id":"ce4bhi12rcd13ifvqfp0","pricing_plan_id":"cebpf4jnsgd1na2vs0mg"},{"bike_id":"82bec0e5-f0da-41c4-a47a-b002f4ab9831","system_id":"levelo_inurba_marseille","lat":43.26194,"lon":5.37464,"is_reserved":false,"is_disabled":false,"rental_uris":{"android":"levelo://app?vid=82bec0e5-f0da-41c4-a47a-b002f4ab9831","ios":"levelo://app?vid=82bec0e5-f0da-41c4-a47a-b002f4ab9831"},"vehicle_type_id":"4","last_reported":1731334193,"current_range_meters":2000,"station_id":"ce4bhgp2rcd13ifvqfc0","pricing_plan_id":"cebpf4jnsgd1na2vs0mg"},{"bike_id":"d7979457-c72f-4f9f-afe8-1edc23346266","system_id":"levelo_inurba_marseille","lat":43.28414,"lon":5.34994,"is_reserved":false,"is_disabled":false,"rental_uris":{"android":"levelo://app?vid=d7979457-c72f-4f9f-afe8-1edc23346266","ios":"levelo://app?vid=d7979457-c72f-4f9f-afe8-1edc23346266"},"vehicle_type_id":"4","last_reported":1731334193,"current_range_meters":27600,"station_id":"ce4bhbh2rcd13ifvqepg","pricing_plan_id":"cebpf4jnsgd1na2vs0mg"},{"bike_id":"4c8096be-8a82-4197-a48c-84bb48660216","system_id":"levelo_inurba_marseille","lat":43.290679,"lon":5.371668,"is_reserved":false,"is_disabled":false,"rental_uris":{"android":"levelo://app?vid=4c8096be-8a82-4197-a48c-84bb48660216","ios":"levelo://app?vid=4c8096be-8a82-4197-a48c-84bb48660216"},"vehicle_type_id":"4","last_reported":1731334193,"current_range_meters":38400,"station_id":"ce4bh5p2rcd13ifvqe4g","pricing_plan_id":"cebpf4jnsgd1na2vs0mg"},{"bike_id":"9a1dc435-177a-4c46-b535-5d40eb1ac623","system_id":"levelo_inurba_marseille","lat":43.28151,"lon":5.42651,"is_reserved":false,"is_disabled":false,"rental_uris":{"android":"levelo://app?vid=9a1dc435-177a-4c46-b535-5d40eb1ac623","ios":"levelo://app?vid=9a1dc435-177a-4c46-b535-5d40eb1ac623"},"vehicle_type_id":"4","last_reported":1731334193,"current_range_meters":9600,"station_id":"ce4bhnh2rcd13ifvqgug","pricing_plan_id":"cebpf4jnsgd1na2vs0mg"},{"bike_id":"57af29f6-f51d-4f0a-b501-e449eacfa998","system_id":"levelo_inurba_marseille","lat":43.286145,"lon":5.370737,"is_reserved":false,"is_disabled":false,"rental_uris":{"android":"levelo://app?vid=57af29f6-f51d-4f0a-b501-e449eacfa998","ios":"levelo://app?vid=57af29f6-f51d-4f0a-b501-e449eacfa998"},"vehicle_type_id":"4","last_reported":1731334193,"current_range_meters":17200,"station_id":"ce4bht12rcd13ifvqi60","pricing_plan_id":"cebpf4jnsgd1na2vs0mg"},{"bike_id":"0e1b6e24-8ebe-441d-ac01-cf4aede805b5","system_id":"levelo_inurba_marseille","lat":43.28856,"lon":5.35868,"is_reserved":false,"is_disabled":false,"rental_uris":{"android":"levelo://app?vid=0e1b6e24-8ebe-441d-ac01-cf4aede805b5","ios":"levelo://app?vid=0e1b6e24-8ebe-441d-ac01-cf4aede805b5"},"vehicle_type_id":"4","last_reported":1731334193,"current_range_meters":31200,"station_id":"ce4bhb12rcd13ifvqem0","pricing_plan_id":"cebpf4jnsgd1na2vs0mg"},{"bike_id":"4ec64de8-7fe0-47cf-b20d-6779a023e615","system_id":"levelo_inurba_marseille","lat":43.26495,"lon":5.3955,"is_reserved":false,"is_disabled":false,"rental_uris":{"android":"levelo://app?vid=4ec64de8-7fe0-47cf-b20d-6779a023e615","ios":"levelo://app?vid=4ec64de8-7fe0-47cf-b20d-6779a023e615"},"vehicle_type_id":"4","last_reported":1731334193,"current_range_meters":38800,"station_id":"ce4bhi12rcd13ifvqfq0","pricing_plan_id":"cebpf4jnsgd1na2vs0mg"},{"bike_id":"6e0d57f5-5b34-4a52-a66b-7858d4e5f199","system_id":"levelo_inurba_marseille","lat":43.28271,"lon":5.35072,"is_reserved":false,"is_disabled":false,"rental_uris":{"android":"levelo://app?vid=6e0d57f5-5b34-4a52-a66b-7858d4e5f199","ios":"levelo://app?vid=6e0d57f5-5b34-4a52-a66b-7858d4e5f199"},"vehicle_type_id":"4","last_reported":1731334193,"current_range_meters":12800,"station_id":"ce4bhbp2rcd13ifvqerg","pricing_plan_id":"cebpf4jnsgd1na2vs0mg"},{"bike_id":"a9279aec-fd42-446f-98f8-78f07cda3dc4","system_id":"levelo_inurba_marseille","lat":43.24168,"lon":5.36396,"is_reserved":false,"is_disabled":false,"rental_uris":{"android":"levelo://app?vid=a9279aec-fd42-446f-98f8-78f07cda3dc4","ios":"levelo://app?vid=a9279aec-fd42-446f-98f8-78f07cda3dc4"},"vehicle_type_id":"4","last_reported":1731334193,"current_range_meters":10800,"station_id":"cpo36qri1sfpv3e86is0","pricing_plan_id":"cebpf4jnsgd1na2vs0mg"},{"bike_id":"106cc77c-122d-43e9-b84f-d8544cad5890","system_id":"levelo_inurba_marseille","lat":43.28988,"lon":5.36694,"is_reserved":false,"is_disabled":false,"rental_uris":{"android":"levelo://app?vid=106cc77c-122d-43e9-b84f-d8544cad5890","ios":"levelo://app?vid=106cc77c-122d-43e9-b84f-d8544cad5890"},"vehicle_type_id":"4","last_reported":1731334193,"current_range_meters":30800,"station_id":"","pricing_plan_id":"cebpf4jnsgd1na2vs0mg"},{"bike_id":"51425cab-636a-4dc6-aa35-1f1560d0c8d8","system_id":"levelo_inurba_marseille","lat":43.22936,"lon":5.35381,"is_reserved":false,"is_disabled":false,"rental_uris":{"android":"levelo://app?vid=51425cab-636a-4dc6-aa35-1f1560d0c8d8","ios":"levelo://app?vid=51425cab-636a-4dc6-aa35-1f1560d0c8d8"},"vehicle_type_id":"4","last_reported":1731334193,"current_range_meters":21600,"station_id":"cpo3532slgdg3j2ikp40","pricing_plan_id":"cebpf4jnsgd1na2vs0mg"},{"bike_id":"b16943e1-6e4b-4767-8789-7da828786277","system_id":"levelo_inurba_marseille","lat":43.34183,"lon":5.38614,"is_reserved":false,"is_disabled":false,"rental_uris":{"android":"levelo://app?vid=b16943e1-6e4b-4767-8789-7da828786277","ios":"levelo://app?vid=b16943e1-6e4b-4767-8789-7da828786277"},"vehicle_type_id":"4","last_reported":1731334193,"current_range_meters":12800,"station_id":"","pricing_plan_id":"cebpf4jnsgd1na2vs0mg"},{"bike_id":"4ab49f5f-4d0d-40d5-9818-d03803c66b9a","system_id":"levelo_inurba_marseille","lat":43.23152,"lon":5.4373,"is_reserved":false,"is_disabled":false,"rental_uris":{"android":"levelo://app?vid=4ab49f5f-4d0d-40d5-9818-d03803c66b9a","ios":"levelo://app?vid=4ab49f5f-4d0d-40d5-9818-d03803c66b9a"},"vehicle_type_id":"4","last_reported":1731334193,"current_range_meters":8400,"station_id":"ce4bhmp2rcd13ifvqgog","pricing_plan_id":"cebpf4jnsgd1na2vs0mg"},{"bike_id":"2992d2a5-2394-490d-b745-63dbb7eb11f2","system_id":"levelo_inurba_marseille","lat":43.28457,"lon":5.35884,"is_reserved":false,"is_disabled":false,"rental_uris":{"android":"levelo://app?vid=2992d2a5-2394-490d-b745-63dbb7eb11f2","ios":"levelo://app?vid=2992d2a5-2394-490d-b745-63dbb7eb11f2"},"vehicle_type_id":"4","last_reported":1731334193,"current_range_meters":18800,"station_id":"ce4bhah2rcd13ifvqei0","pricing_plan_id":"cebpf4jnsgd1na2vs0mg"},{"bike_id":"12f67ea6-3576-4884-b1fb-ab07792326af","system_id":"levelo_inurba_marseille","lat":43.24067,"lon":5.37763,"is_reserved":false,"is_disabled":false,"rental_uris":{"android":"levelo://app?vid=12f67ea6-3576-4884-b1fb-ab07792326af","ios":"levelo://app?vid=12f67ea6-3576-4884-b1fb-ab07792326af"},"vehicle_type_id":"4","last_reported":1731334193,"current_range_meters":32800,"station_id":"ce4bhnp2rcd13ifvqgvg","pricing_plan_id":"cebpf4jnsgd1na2vs0mg"},{"bike_id":"b022692a-b3a8-47bb-99ad-7a96934a4f78","system_id":"levelo_inurba_marseille","lat":43.27943,"lon":5.41048,"is_reserved":false,"is_disabled":false,"rental_uris":{"android":"levelo://app?vid=b022692a-b3a8-47bb-99ad-7a96934a4f78","ios":"levelo://app?vid=b022692a-b3a8-47bb-99ad-7a96934a4f78"},"vehicle_type_id":"4","last_reported":1731334193,"current_range_meters":8400,"station_id":"ce4bhnp2rcd13ifvqh0g","pricing_plan_id":"cebpf4jnsgd1na2vs0mg"},{"bike_id":"1e2f587b-3867-4761-a4df-4297cc223512","system_id":"levelo_inurba_marseille","lat":43.29,"lon":5.35613,"is_reserved":false,"is_disabled":false,"rental_uris":{"android":"levelo://app?vid=1e2f587b-3867-4761-a4df-4297cc223512","ios":"levelo://app?vid=1e2f587b-3867-4761-a4df-4297cc223512"},"vehicle_type_id":"4","last_reported":1731334193,"current_range_meters":36800,"station_id":"ce4bhb92rcd13ifvqen0","pricing_plan_id":"cebpf4jnsgd1na2vs0mg"},{"bike_id":"dcde0e06-b3db-4814-a1b9-58df6e1ceb9c","system_id":"levelo_inurba_marseille","lat":43.28275,"lon":5.35073,"is_reserved":false,"is_disabled":false,"rental_uris":{"android":"levelo://app?vid=dcde0e06-b3db-4814-a1b9-58df6e1ceb9c","ios":"levelo://app?vid=dcde0e06-b3db-4814-a1b9-58df6e1ceb9c"},"vehicle_type_id":"4","last_reported":1731334193,"current_range_meters":38800,"station_id":"ce4bhbp2rcd13ifvqerg","pricing_plan_id":"cebpf4jnsgd1na2vs0mg"},{"bike_id":"3dfc655f-dc40-40e1-adc8-dad4496f2e4c","system_id":"levelo_inurba_marseille","lat":43.23967,"lon":5.36632,"is_reserved":false,"is_disabled":false,"rental_uris":{"android":"levelo://app?vid=3dfc655f-dc40-40e1-adc8-dad4496f2e4c","ios":"levelo://app?vid=3dfc655f-dc40-40e1-adc8-dad4496f2e4c"},"vehicle_type_id":"4","last_reported":1731334193,"current_range_meters":35200,"station_id":"ce4bhi12rcd13ifvqfp0","pricing_plan_id":"cebpf4jnsgd1na2vs0mg"},{"bike_id":"6fa90877-f6be-45c8-aee9-caf644627a1c","system_id":"levelo_inurba_marseille","lat":43.33301,"lon":5.39554,"is_reserved":false,"is_disabled":false,"rental_uris":{"android":"levelo://app?vid=6fa90877-f6be-45c8-aee9-caf644627a1c","ios":"levelo://app?vid=6fa90877-f6be-45c8-aee9-caf644627a1c"},"vehicle_type_id":"4","last_reported":1731334193,"current_range_meters":14800,"station_id":"","pricing_plan_id":"cebpf4jnsgd1na2vs0mg"},{"bike_id":"5a1f616a-110e-457e-9af1-79540745d52e","system_id":"levelo_inurba_marseille","lat":43.28944,"lon":5.36642,"is_reserved":false,"is_disabled":false,"rental_uris":{"android":"levelo://app?vid=5a1f616a-110e-457e-9af1-79540745d52e","ios":"levelo://app?vid=5a1f616a-110e-457e-9af1-79540745d52e"},"vehicle_type_id":"4","last_reported":1731334193,"current_range_meters":26800,"station_id":"ce4bhap2rcd13ifvqek0","pricing_plan_id":"cebpf4jnsgd1na2vs0mg"},{"bike_id":"2678dba8-96db-431b-8501-19eb207e0f6b","system_id":"levelo_inurba_marseille","lat":43.28461,"lon":5.35896,"is_reserved":false,"is_disabled":false,"rental_uris":{"android":"levelo://app?vid=2678dba8-96db-431b-8501-19eb207e0f6b","ios":"levelo://app?vid=2678dba8-96db-431b-8501-19eb207e0f6b"},"vehicle_type_id":"4","last_reported":1731334193,"current_range_meters":33200,"station_id":"ce4bhah2rcd13ifvqei0","pricing_plan_id":"cebpf4jnsgd1na2vs0mg"},{"bike_id":"cda4d5ca-16db-4d45-9822-14141a1915b8","system_id":"levelo_inurba_marseille","lat":43.3172,"lon":5.42396,"is_reserved":false,"is_disabled":false,"rental_uris":{"android":"levelo://app?vid=cda4d5ca-16db-4d45-9822-14141a1915b8","ios":"levelo://app?vid=cda4d5ca-16db-4d45-9822-14141a1915b8"},"vehicle_type_id":"4","last_reported":1731334193,"current_range_meters":12400,"station_id":"ce4bhp92rcd13ifvqhbg","pricing_plan_id":"cebpf4jnsgd1na2vs0mg"},{"bike_id":"e3402793-14a3-4ab2-8671-5b9cf58355f5","system_id":"levelo_inurba_marseille","lat":43.26017,"lon":5.37557,"is_reserved":false,"is_disabled":false,"rental_uris":{"android":"levelo://app?vid=e3402793-14a3-4ab2-8671-5b9cf58355f5","ios":"levelo://app?vid=e3402793-14a3-4ab2-8671-5b9cf58355f5"},"vehicle_type_id":"4","last_reported":1731334193,"current_range_meters":19600,"station_id":"ce4bhgh2rcd13ifvqfa0","pricing_plan_id":"cebpf4jnsgd1na2vs0mg"},{"bike_id":"dc015020-d494-452f-a9fb-de854ec61274","system_id":"levelo_inurba_marseille","lat":43.28934,"lon":5.39633,"is_reserved":false,"is_disabled":false,"rental_uris":{"android":"levelo://app?vid=dc015020-d494-452f-a9fb-de854ec61274","ios":"levelo://app?vid=dc015020-d494-452f-a9fb-de854ec61274"},"vehicle_type_id":"4","last_reported":1731334193,"current_range_meters":22400,"station_id":"ce4bh3h2rcd13ifvqdn0","pricing_plan_id":"cebpf4jnsgd1na2vs0mg"},{"bike_id":"2e953deb-b0ff-40a8-976e-9504b36c8ff3","system_id":"levelo_inurba_marseille","lat":43.33731,"lon":5.37448,"is_reserved":false,"is_disabled":false,"rental_uris":{"android":"levelo://app?vid=2e953deb-b0ff-40a8-976e-9504b36c8ff3","ios":"levelo://app?vid=2e953deb-b0ff-40a8-976e-9504b36c8ff3"},"vehicle_type_id":"4","last_reported":1731334193,"current_range_meters":9600,"station_id":"","pricing_plan_id":"cebpf4jnsgd1na2vs0mg"},{"bike_id":"919b8114-8455-4c55-ad8f-2d74f8ad5173","system_id":"levelo_inurba_marseille","lat":43.28257,"lon":5.35072,"is_reserved":false,"is_disabled":false,"rental_uris":{"android":"levelo://app?vid=919b8114-8455-4c55-ad8f-2d74f8ad5173","ios":"levelo://app?vid=919b8114-8455-4c55-ad8f-2d74f8ad5173"},"vehicle_type_id":"4","last_reported":1731334193,"current_range_meters":30000,"station_id":"ce4bhbp2rcd13ifvqerg","pricing_plan_id":"cebpf4jnsgd1na2vs0mg"},{"bike_id":"dbd90aed-ee13-49a9-b118-b0ab9f7706ee","system_id":"levelo_inurba_marseille","lat":43.337444,"lon":5.374475,"is_reserved":false,"is_disabled":false,"rental_uris":{"android":"levelo://app?vid=dbd90aed-ee13-49a9-b118-b0ab9f7706ee","ios":"levelo://app?vid=dbd90aed-ee13-49a9-b118-b0ab9f7706ee"},"vehicle_type_id":"4","last_reported":1731334193,"current_range_meters":10800,"station_id":"cki0cbj6b192h4jlfktg","pricing_plan_id":"cebpf4jnsgd1na2vs0mg"},{"bike_id":"4803c230-7c7b-48fc-8e54-789df417558e","system_id":"levelo_inurba_marseille","lat":43.26212,"lon":5.37443,"is_reserved":false,"is_disabled":false,"rental_uris":{"android":"levelo://app?vid=4803c230-7c7b-48fc-8e54-789df417558e","ios":"levelo://app?vid=4803c230-7c7b-48fc-8e54-789df417558e"},"vehicle_type_id":"4","last_reported":1731334193,"current_range_meters":14000,"station_id":"ce4bhgp2rcd13ifvqfc0","pricing_plan_id":"cebpf4jnsgd1na2vs0mg"},{"bike_id":"4534de4e-3589-405d-bc26-29f2857dfb4a","system_id":"levelo_inurba_marseille","lat":43.28843,"lon":5.35325,"is_reserved":false,"is_disabled":false,"rental_uris":{"android":"levelo://app?vid=4534de4e-3589-405d-bc26-29f2857dfb4a","ios":"levelo://app?vid=4534de4e-3589-405d-bc26-29f2857dfb4a"},"vehicle_type_id":"4","last_reported":1731334193,"current_range_meters":36000,"station_id":"","pricing_plan_id":"cebpf4jnsgd1na2vs0mg"},{"bike_id":"c5222783-c5ca-4f71-949e-7508f94952eb","system_id":"levelo_inurba_marseille","lat":43.28276,"lon":5.35074,"is_reserved":false,"is_disabled":false,"rental_uris":{"android":"levelo://app?vid=c5222783-c5ca-4f71-949e-7508f94952eb","ios":"levelo://app?vid=c5222783-c5ca-4f71-949e-7508f94952eb"},"vehicle_type_id":"4","last_reported":1731334193,"current_range_meters":38800,"station_id":"ce4bhbp2rcd13ifvqerg","pricing_plan_id":"cebpf4jnsgd1na2vs0mg"},{"bike_id":"dafce56d-e09b-4261-9d38-4e21f2ad627e","system_id":"levelo_inurba_marseille","lat":43.27917,"lon":5.39584,"is_reserved":false,"is_disabled":false,"rental_uris":{"android":"levelo://app?vid=dafce56d-e09b-4261-9d38-4e21f2ad627e","ios":"levelo://app?vid=dafce56d-e09b-4261-9d38-4e21f2ad627e"},"vehicle_type_id":"4","last_reported":1731334193,"current_range_meters":28400,"station_id":"ce4bhf92rcd13ifvqf40","pricing_plan_id":"cebpf4jnsgd1na2vs0mg"},{"bike_id":"32169ec9-95b8-4bb2-a4de-f9f6f33e121b","system_id":"levelo_inurba_marseille","lat":43.30886,"lon":5.39657,"is_reserved":false,"is_disabled":false,"rental_uris":{"android":"levelo://app?vid=32169ec9-95b8-4bb2-a4de-f9f6f33e121b","ios":"levelo://app?vid=32169ec9-95b8-4bb2-a4de-f9f6f33e121b"},"vehicle_type_id":"4","last_reported":1731334193,"current_range_meters":33600,"station_id":"ce4bh0p2rcd13ifvqd80","pricing_plan_id":"cebpf4jnsgd1na2vs0mg"},{"bike_id":"07b28211-1152-41b0-888a-547f631a3560","system_id":"levelo_inurba_marseille","lat":43.28263,"lon":5.35067,"is_reserved":false,"is_disabled":false,"rental_uris":{"android":"levelo://app?vid=07b28211-1152-41b0-888a-547f631a3560","ios":"levelo://app?vid=07b28211-1152-41b0-888a-547f631a3560"},"vehicle_type_id":"4","last_reported":1731334193,"current_range_meters":28400,"station_id":"ce4bhbp2rcd13ifvqerg","pricing_plan_id":"cebpf4jnsgd1na2vs0mg"},{"bike_id":"09be4196-db9d-45ef-82bb-999cf536196d","system_id":"levelo_inurba_marseille","lat":43.28454,"lon":5.35888,"is_reserved":false,"is_disabled":false,"rental_uris":{"android":"levelo://app?vid=09be4196-db9d-45ef-82bb-999cf536196d","ios":"levelo://app?vid=09be4196-db9d-45ef-82bb-999cf536196d"},"vehicle_type_id":"4","last_reported":1731334193,"current_range_meters":35200,"station_id":"ce4bhah2rcd13ifvqei0","pricing_plan_id":"cebpf4jnsgd1na2vs0mg"},{"bike_id":"098a5b87-d09b-4fb2-90af-55f2337b8ea4","system_id":"levelo_inurba_marseille","lat":43.2993,"lon":5.36558,"is_reserved":false,"is_disabled":false,"rental_uris":{"android":"levelo://app?vid=098a5b87-d09b-4fb2-90af-55f2337b8ea4","ios":"levelo://app?vid=098a5b87-d09b-4fb2-90af-55f2337b8ea4"},"vehicle_type_id":"4","last_reported":1731334193,"current_range_meters":32400,"station_id":"ce4bgm92rcd13ifvqbr0","pricing_plan_id":"cebpf4jnsgd1na2vs0mg"},{"bike_id":"adba6c2e-d94e-493f-9129-3a714de0e7bc","system_id":"levelo_inurba_marseille","lat":43.33024,"lon":5.39046,"is_reserved":false,"is_disabled":false,"rental_uris":{"android":"levelo://app?vid=adba6c2e-d94e-493f-9129-3a714de0e7bc","ios":"levelo://app?vid=adba6c2e-d94e-493f-9129-3a714de0e7bc"},"vehicle_type_id":"4","last_reported":1731334193,"current_range_meters":36800,"station_id":"ce4bhr92rcd13ifvqhrg","pricing_plan_id":"cebpf4jnsgd1na2vs0mg"},{"bike_id":"4860ec54-a633-4aae-a19a-3fd9f114758c","system_id":"levelo_inurba_marseille","lat":43.300079,"lon":5.363907,"is_reserved":false,"is_disabled":false,"rental_uris":{"android":"levelo://app?vid=4860ec54-a633-4aae-a19a-3fd9f114758c","ios":"levelo://app?vid=4860ec54-a633-4aae-a19a-3fd9f114758c"},"vehicle_type_id":"4","last_reported":1731334193,"current_range_meters":32800,"station_id":"ce4bhb92rcd13ifvqen0","pricing_plan_id":"cebpf4jnsgd1na2vs0mg"},{"bike_id":"5aea3e47-1bbf-41a1-9b41-1edf94c6514a","system_id":"levelo_inurba_marseille","lat":43.29032,"lon":5.37579,"is_reserved":false,"is_disabled":false,"rental_uris":{"android":"levelo://app?vid=5aea3e47-1bbf-41a1-9b41-1edf94c6514a","ios":"levelo://app?vid=5aea3e47-1bbf-41a1-9b41-1edf94c6514a"},"vehicle_type_id":"4","last_reported":1731334193,"current_range_meters":37600,"station_id":"ce4bh692rcd13ifvqe90","pricing_plan_id":"cebpf4jnsgd1na2vs0mg"},{"bike_id":"91d27678-9fb5-4cf2-a1c3-8861feddf228","system_id":"levelo_inurba_marseille","lat":43.2319,"lon":5.35552,"is_reserved":false,"is_disabled":false,"rental_uris":{"android":"levelo://app?vid=91d27678-9fb5-4cf2-a1c3-8861feddf228","ios":"levelo://app?vid=91d27678-9fb5-4cf2-a1c3-8861feddf228"},"vehicle_type_id":"4","last_reported":1731334193,"current_range_meters":36800,"station_id":"ce4bhu92rcd13ifvqi70","pricing_plan_id":"cebpf4jnsgd1na2vs0mg"},{"bike_id":"a7eb5692-1f2b-48c6-af16-f2fe0b372124","system_id":"levelo_inurba_marseille","lat":43.3372,"lon":5.39179,"is_reserved":false,"is_disabled":false,"rental_uris":{"android":"levelo://app?vid=a7eb5692-1f2b-48c6-af16-f2fe0b372124","ios":"levelo://app?vid=a7eb5692-1f2b-48c6-af16-f2fe0b372124"},"vehicle_type_id":"4","last_reported":1731334193,"current_range_meters":39200,"station_id":"ce4bhr92rcd13ifvqhsg","pricing_plan_id":"cebpf4jnsgd1na2vs0mg"},{"bike_id":"4dc0e3bd-ab9c-461a-835f-d4784d7b8326","system_id":"levelo_inurba_marseille","lat":43.31322,"lon":5.42359,"is_reserved":false,"is_disabled":false,"rental_uris":{"android":"levelo://app?vid=4dc0e3bd-ab9c-461a-835f-d4784d7b8326","ios":"levelo://app?vid=4dc0e3bd-ab9c-461a-835f-d4784d7b8326"},"vehicle_type_id":"4","last_reported":1731334193,"current_range_meters":8400,"station_id":"ce4bhp92rcd13ifvqhcg","pricing_plan_id":"cebpf4jnsgd1na2vs0mg"},{"bike_id":"8e3d5b00-e559-4ba4-8506-b31b8a4e5008","system_id":"levelo_inurba_marseille","lat":43.28422,"lon":5.34996,"is_reserved":false,"is_disabled":false,"rental_uris":{"android":"levelo://app?vid=8e3d5b00-e559-4ba4-8506-b31b8a4e5008","ios":"levelo://app?vid=8e3d5b00-e559-4ba4-8506-b31b8a4e5008"},"vehicle_type_id":"4","last_reported":1731334193,"current_range_meters":39200,"station_id":"ce4bhbh2rcd13ifvqepg","pricing_plan_id":"cebpf4jnsgd1na2vs0mg"},{"bike_id":"52cbd37b-1529-4980-ae8a-b78e49fdebce","system_id":"levelo_inurba_marseille","lat":43.23955,"lon":5.36636,"is_reserved":false,"is_disabled":false,"rental_uris":{"android":"levelo://app?vid=52cbd37b-1529-4980-ae8a-b78e49fdebce","ios":"levelo://app?vid=52cbd37b-1529-4980-ae8a-b78e49fdebce"},"vehicle_type_id":"4","last_reported":1731334193,"current_range_meters":7200,"station_id":"ce4bhi12rcd13ifvqfp0","pricing_plan_id":"cebpf4jnsgd1na2vs0mg"},{"bike_id":"75652318-6ca0-4351-a7b8-e9f1604f1602","system_id":"levelo_inurba_marseille","lat":43.31253,"lon":5.36854,"is_reserved":false,"is_disabled":false,"rental_uris":{"android":"levelo://app?vid=75652318-6ca0-4351-a7b8-e9f1604f1602","ios":"levelo://app?vid=75652318-6ca0-4351-a7b8-e9f1604f1602"},"vehicle_type_id":"4","last_reported":1731334193,"current_range_meters":35200,"station_id":"ce4bgl92rcd13ifvqbq0","pricing_plan_id":"cebpf4jnsgd1na2vs0mg"},{"bike_id":"a1d465bc-6452-4465-9068-95636f960d2b","system_id":"levelo_inurba_marseille","lat":43.23144,"lon":5.43731,"is_reserved":false,"is_disabled":false,"rental_uris":{"android":"levelo://app?vid=a1d465bc-6452-4465-9068-95636f960d2b","ios":"levelo://app?vid=a1d465bc-6452-4465-9068-95636f960d2b"},"vehicle_type_id":"4","last_reported":1731334193,"current_range_meters":36800,"station_id":"ce4bhmp2rcd13ifvqgog","pricing_plan_id":"cebpf4jnsgd1na2vs0mg"},{"bike_id":"c30c7c17-b515-4143-9517-47b104debd66","system_id":"levelo_inurba_marseille","lat":43.337444,"lon":5.374475,"is_reserved":false,"is_disabled":false,"rental_uris":{"android":"levelo://app?vid=c30c7c17-b515-4143-9517-47b104debd66","ios":"levelo://app?vid=c30c7c17-b515-4143-9517-47b104debd66"},"vehicle_type_id":"4","last_reported":1731334193,"current_range_meters":10000,"station_id":"","pricing_plan_id":"cebpf4jnsgd1na2vs0mg"},{"bike_id":"a3737c00-2b24-45c7-87f6-a52becd1e5b4","system_id":"levelo_inurba_marseille","lat":43.27074,"lon":5.37997,"is_reserved":false,"is_disabled":false,"rental_uris":{"android":"levelo://app?vid=a3737c00-2b24-45c7-87f6-a52becd1e5b4","ios":"levelo://app?vid=a3737c00-2b24-45c7-87f6-a52becd1e5b4"},"vehicle_type_id":"4","last_reported":1731334193,"current_range_meters":30800,"station_id":"","pricing_plan_id":"cebpf4jnsgd1na2vs0mg"},{"bike_id":"59e06029-e5a6-4810-821e-5adc5e1318f6","system_id":"levelo_inurba_marseille","lat":43.282648,"lon":5.350608,"is_reserved":false,"is_disabled":false,"rental_uris":{"android":"levelo://app?vid=59e06029-e5a6-4810-821e-5adc5e1318f6","ios":"levelo://app?vid=59e06029-e5a6-4810-821e-5adc5e1318f6"},"vehicle_type_id":"4","last_reported":1731334193,"current_range_meters":20800,"station_id":"ce4bhbp2rcd13ifvqerg","pricing_plan_id":"cebpf4jnsgd1na2vs0mg"},{"bike_id":"bd8f6625-65f9-4087-81c8-6f8fe854a0bf","system_id":"levelo_inurba_marseille","lat":43.23066,"lon":5.35491,"is_reserved":false,"is_disabled":false,"rental_uris":{"android":"levelo://app?vid=bd8f6625-65f9-4087-81c8-6f8fe854a0bf","ios":"levelo://app?vid=bd8f6625-65f9-4087-81c8-6f8fe854a0bf"},"vehicle_type_id":"4","last_reported":1731334193,"current_range_meters":19200,"station_id":"cpo3342slgdg3j2ifvpg","pricing_plan_id":"cebpf4jnsgd1na2vs0mg"},{"bike_id":"1d2be291-e7bd-4203-8c56-e25289f5284d","system_id":"levelo_inurba_marseille","lat":43.2396,"lon":5.36631,"is_reserved":false,"is_disabled":false,"rental_uris":{"android":"levelo://app?vid=1d2be291-e7bd-4203-8c56-e25289f5284d","ios":"levelo://app?vid=1d2be291-e7bd-4203-8c56-e25289f5284d"},"vehicle_type_id":"4","last_reported":1731334193,"current_range_meters":28000,"station_id":"ce4bhi12rcd13ifvqfp0","pricing_plan_id":"cebpf4jnsgd1na2vs0mg"},