{"last_updated":1761541914,"ttl":60,"version":"2.2","data":{"bikes":[{"bike_id":"3c68b102-7aee-45f4-913a-cfd84d70eac3","system_id":"levelo_inurba_marseille","lat":43.292603,"lon":5.384447,"is_reserved":false,"is_disabled":false,"rental_uris":{"android":"levelo://app?vid=3c68b102-7aee-45f4-913a-cfd84d70eac3","ios":"levelo://app?vid=3c68b102-7aee-45f4-913a-cfd84d70eac3"},"vehicle_type_id":"4","last_reported":1761541914,"current_range_meters":2800,"station_id":"","pricing_plan_id":"cebpf4jnsgd1na2vs0mg"},{"bike_id":"2b08430f-3826-4249-8325-53b3985c5d73","system_id":"levelo_inurba_marseille","lat":43.27827,"lon":5.41487,"is_reserved":false,"is_disabled":false,"rental_uris":{"android":"levelo://app?vid=2b08430f-3826-4249-8325-53b3985c5d73","ios":"levelo://app?vid=2b08430f-3826-4249-8325-53b3985c5d73"},"vehicle_type_id":"4","last_reported":1761541914,"current_range_meters":3600,"station_id":"","pricing_plan_id":"cebpf4jnsgd1na2vs0mg"},{"bike_id":"8fceea78-eac4-40f0-882f-271d0d14432e","system_id":"levelo_inurba_marseille","lat":43.27953,"lon":5.41045,"is_reserved":false,"is_disabled":false,"rental_uris":{"android":"levelo://app?vid=8fceea78-eac4-40f0-882f-271d0d14432e","ios":"levelo://app?vid=8fceea78-eac4-40f0-882f-271d0d14432e"},"vehicle_type_id":"4","last_reported":1761541914,"current_range_meters":3600,"station_id":"ce4bhnp2rcd13ifvqh0g","pricing_plan_id":"cebpf4jnsgd1na2vs0mg"},{"bike_id":"fb86d202-2f17-4cf3-8a14-94ca6b8295e4","system_id":"levelo_inurba_marseille","lat":43.29557,"lon":5.40029,"is_reserved":false,"is_disabled":false,"rental_uris":{"android":"levelo://app?vid=fb86d202-2f17-4cf3-8a14-94ca6b8295e4","ios":"levelo://app?vid=fb86d202-2f17-4cf3-8a14-94ca6b8295e4"},"vehicle_type_id":"4","last_reported":1761541914,"current_range_meters":3600,"station_id":"","pricing_plan_id":"cebpf4jnsgd1na2vs0mg"},{"bike_id":"435fe6ee-2777-4641-8e2e-a3e2c782b8b7","system_id":"levelo_inurba_marseille","lat":43.28535,"lon":5.35871,"is_reserved":false,"is_disabled":true,"rental_uris":{"android":"levelo://app?vid=435fe6ee-2777-4641-8e2e-a3e2c782b8b7","ios":"levelo://app?vid=435fe6ee-2777-4641-8e2e-a3e2c782b8b7"},"vehicle_type_id":"4","last_reported":1761541914,"current_range_meters":3600,"station_id":"","pricing_plan_id":"cebpf4jnsgd1na2vs0mg"},{"bike_id":"9a320531-db54-4f34-8b9b-a0a041e278d6","system_id":"levelo_inurba_marseille","lat":43.28559,"lon":5.39495,"is_reserved":false,"is_disabled":false,"rental_uris":{"android":"levelo://app?vid=9a320531-db54-4f34-8b9b-a0a041e278d6","ios":"levelo://app?vid=9a320531-db54-4f34-8b9b-a0a041e278d6"},"vehicle_type_id":"4","last_reported":1761541914,"current_range_meters":4400,"station_id":"ce4bh292rcd13ifvqdg0","pricing_plan_id":"cebpf4jnsgd1na2vs0mg"},{"bike_id":"dab36927-4328-48fa-bffb-145a737de07e","system_id":"levelo_inurba_marseille","lat":43.30785,"lon":5.43528,"is_reserved":false,"is_disabled":true,"rental_uris":{"android":"levelo://app?vid=dab36927-4328-48fa-bffb-145a737de07e","ios":"levelo://app?vid=dab36927-4328-48fa-bffb-145a737de07e"},"vehicle_type_id":"4","last_reported":1761541914,"current_range_meters":4800,"station_id":"ce4bhph2rcd13ifvqheg","pricing_plan_id":"cebpf4jnsgd1na2vs0mg"},{"bike_id":"f0c6ed35-7888-4c34-a182-0100419b9d46","system_id":"levelo_inurba_marseille","lat":43.24634,"lon":5.43163,"is_reserved":false,"is_disabled":false,"rental_uris":{"android":"levelo://app?vid=f0c6ed35-7888-4c34-a182-0100419b9d46","ios":"levelo://app?vid=f0c6ed35-7888-4c34-a182-0100419b9d46"},"vehicle_type_id":"4","last_reported":1761541914,"current_range_meters":4800,"station_id":"st_d2m6c4gdas8pm72e190g","pricing_plan_id":"cebpf4jnsgd1na2vs0mg"},{"bike_id":"8be6a47c-9542-4fed-8109-f6d91a0f2b3f","system_id":"levelo_inurba_marseille","lat":43.29174,"lon":5.37161,"is_reserved":false,"is_disabled":false,"rental_uris":{"android":"levelo://app?vid=8be6a47c-9542-4fed-8109-f6d91a0f2b3f","ios":"levelo://app?vid=8be6a47c-9542-4fed-8109-f6d91a0f2b3f"},"vehicle_type_id":"4","last_reported":1761541914,"current_range_meters":4800,"station_id":"ce4bha92rcd13ifvqeh0","pricing_plan_id":"cebpf4jnsgd1na2vs0mg"},{"bike_id":"2d305dc6-e68d-4fc0-af3c-18b4adb6047b","system_id":"levelo_inurba_marseille","lat":43.225311,"lon":5.34837,"is_reserved":false,"is_disabled":false,"rental_uris":{"android":"levelo://app?vid=2d305dc6-e68d-4fc0-af3c-18b4adb6047b","ios":"levelo://app?vid=2d305dc6-e68d-4fc0-af3c-18b4adb6047b"},"vehicle_type_id":"4","last_reported":1761541914,"current_range_meters":4800,"station_id":"","pricing_plan_id":"cebpf4jnsgd1na2vs0mg"},{"bike_id":"af309b62-d2cd-4e59-917c-416ef9c899b6","system_id":"levelo_inurba_marseille","lat":43.26057,"lon":5.3939,"is_reserved":false,"is_disabled":true,"rental_uris":{"android":"levelo://app?vid=af309b62-d2cd-4e59-917c-416ef9c899b6","ios":"levelo://app?vid=af309b62-d2cd-4e59-917c-416ef9c899b6"},"vehicle_type_id":"4","last_reported":1761541914,"current_range_meters":6000,"station_id":"ce4bhh92rcd13ifvqfj0","pricing_plan_id":"cebpf4jnsgd1na2vs0mg"},{"bike_id":"b3af1f4a-b2a1-4e8b-9582-0e85c6e5cd2d","system_id":"levelo_inurba_marseille","lat":43.25582,"lon":5.38255,"is_reserved":false,"is_disabled":false,"rental_uris":{"android":"levelo://app?vid=b3af1f4a-b2a1-4e8b-9582-0e85c6e5cd2d","ios":"levelo://app?vid=b3af1f4a-b2a1-4e8b-9582-0e85c6e5cd2d"},"vehicle_type_id":"4","last_reported":1761541914,"current_range_meters":6400,"station_id":"ce4bhih2rcd13ifvqfs0","pricing_plan_id":"cebpf4jnsgd1na2vs0mg"},{"bike_id":"43117888-69d1-4bc6-a73a-697554e4a08e","system_id":"levelo_inurba_marseille","lat":43.25254,"lon":5.37804,"is_reserved":false,"is_disabled":false,"rental_uris":{"android":"levelo://app?vid=43117888-69d1-4bc6-a73a-697554e4a08e","ios":"levelo://app?vid=43117888-69d1-4bc6-a73a-697554e4a08e"},"vehicle_type_id":"4","last_reported":1761541914,"current_range_meters":6800,"station_id":"","pricing_plan_id":"cebpf4jnsgd1na2vs0mg"},{"bike_id":"45a8feb9-8f9f-45c5-9374-0e195d24493f","system_id":"levelo_inurba_marseille","lat":43.24805,"lon":5.37458,"is_reserved":false,"is_disabled":false,"rental_uris":{"android":"levelo://app?vid=45a8feb9-8f9f-45c5-9374-0e195d24493f","ios":"levelo://app?vid=45a8feb9-8f9f-45c5-9374-0e195d24493f"},"vehicle_type_id":"4","last_reported":1761541914,"current_range_meters":6800,"station_id":"ce4bhgh2rcd13ifvqfb0","pricing_plan_id":"cebpf4jnsgd1na2vs0mg"},{"bike_id":"69880247-38f2-48e7-ab49-326f3d5eca30","system_id":"levelo_inurba_marseille","lat":43.21203,"lon":5.35091,"is_reserved":false,"is_disabled":true,"rental_uris":{"android":"levelo://app?vid=69880247-38f2-48e7-ab49-326f3d5eca30","ios":"levelo://app?vid=69880247-38f2-48e7-ab49-326f3d5eca30"},"vehicle_type_id":"4","last_reported":1761541914,"current_range_meters":6800,"station_id":"","pricing_plan_id":"cebpf4jnsgd1na2vs0mg"},{"bike_id":"7c1c7590-067c-4e00-99be-c696122568d7","system_id":"levelo_inurba_marseille","lat":43.26688,"lon":5.382749,"is_reserved":false,"is_disabled":false,"rental_uris":{"android":"levelo://app?vid=7c1c7590-067c-4e00-99be-c696122568d7","ios":"levelo://app?vid=7c1c7590-067c-4e00-99be-c696122568d7"},"vehicle_type_id":"4","last_reported":1761541914,"current_range_meters":6800,"station_id":"ce4bhg92rcd13ifvqf90","pricing_plan_id":"cebpf4jnsgd1na2vs0mg"},{"bike_id":"e5586ad8-46d4-4ba4-94db-2dc62fba802b","system_id":"levelo_inurba_marseille","lat":43.26234,"lon":5.40464,"is_reserved":false,"is_disabled":false,"rental_uris":{"android":"levelo://app?vid=e5586ad8-46d4-4ba4-94db-2dc62fba802b","ios":"levelo://app?vid=e5586ad8-46d4-4ba4-94db-2dc62fba802b"},"vehicle_type_id":"4","last_reported":1761541914,"current_range_meters":6800,"station_id":"ce4bhmh2rcd13ifvqgmg","pricing_plan_id":"cebpf4jnsgd1na2vs0mg"},{"bike_id":"09a16548-b725-4ad8-975a-c8c7eadacf60","system_id":"levelo_inurba_marseille","lat":43.30822,"lon":5.39642,"is_reserved":false,"is_disabled":false,"rental_uris":{"android":"levelo://app?vid=09a16548-b725-4ad8-975a-c8c7eadacf60","ios":"levelo://app?vid=09a16548-b725-4ad8-975a-c8c7eadacf60"},"vehicle_type_id":"4","last_reported":1761541914,"current_range_meters":6800,"station_id":"","pricing_plan_id":"cebpf4jnsgd1na2vs0mg"},{"bike_id":"b2b4c5c6-6f92-471d-a309-ae271ecec0a4","system_id":"levelo_inurba_marseille","lat":43.24085,"lon":5.37759,"is_reserved":false,"is_disabled":false,"rental_uris":{"android":"levelo://app?vid=b2b4c5c6-6f92-471d-a309-ae271ecec0a4","ios":"levelo://app?vid=b2b4c5c6-6f92-471d-a309-ae271ecec0a4"},"vehicle_type_id":"4","last_reported":1761541914,"current_range_meters":7200,"station_id":"ce4bhnp2rcd13ifvqgvg","pricing_plan_id":"cebpf4jnsgd1na2vs0mg"},{"bike_id":"11ed3229-da96-464f-bee1-15ff06dff35a","system_id":"levelo_inurba_marseille","lat":43.21198,"lon":5.35086,"is_reserved":false,"is_disabled":false,"rental_uris":{"android":"levelo://app?vid=11ed3229-da96-464f-bee1-15ff06dff35a","ios":"levelo://app?vid=11ed3229-da96-464f-bee1-15ff06dff35a"},"vehicle_type_id":"4","last_reported":1761541914,"current_range_meters":7200,"station_id":"st_cvj6sg6p6f1abm77japg","pricing_plan_id":"cebpf4jnsgd1na2vs0mg"},{"bike_id":"53619b52-f6a4-4a36-9715-aa47e9e64dbc","system_id":"levelo_inurba_marseille","lat":43.28523,"lon":5.35937,"is_reserved":false,"is_disabled":true,"rental_uris":{"android":"levelo://app?vid=53619b52-f6a4-4a36-9715-aa47e9e64dbc","ios":"levelo://app?vid=53619b52-f6a4-4a36-9715-aa47e9e64dbc"},"vehicle_type_id":"4","last_reported":1761541914,"current_range_meters":8000,"station_id":"","pricing_plan_id":"cebpf4jnsgd1na2vs0mg"},{"bike_id":"02caf11c-0caf-4982-ba44-be6a5177fe93","system_id":"levelo_inurba_marseille","lat":43.24633,"lon":5.43113,"is_reserved":false,"is_disabled":false,"rental_uris":{"android":"levelo://app?vid=02caf11c-0caf-4982-ba44-be6a5177fe93","ios":"levelo://app?vid=02caf11c-0caf-4982-ba44-be6a5177fe93"},"vehicle_type_id":"4","last_reported":1761541914,"current_range_meters":8000,"station_id":"st_d2m6c4gdas8pm72e190g","pricing_plan_id":"cebpf4jnsgd1na2vs0mg"},{"bike_id":"6b94db58-9d77-47d1-b0a7-76408c22c9e2","system_id":"levelo_inurba_marseille","lat":43.238911,"lon":5.370882,"is_reserved":false,"is_disabled":false,"rental_uris":{"android":"levelo://app?vid=6b94db58-9d77-47d1-b0a7-76408c22c9e2","ios":"levelo://app?vid=6b94db58-9d77-47d1-b0a7-76408c22c9e2"},"vehicle_type_id":"4","last_reported":1761541914,"current_range_meters":8000,"station_id":"","pricing_plan_id":"cebpf4jnsgd1na2vs0mg"},{"bike_id":"dce66f13-7a9b-404d-b128-59d6638df5e2","system_id":"levelo_inurba_marseille","lat":43.248104,"lon":5.374601,"is_reserved":false,"is_disabled":false,"rental_uris":{"android":"levelo://app?vid=dce66f13-7a9b-404d-b128-59d6638df5e2","ios":"levelo://app?vid=dce66f13-7a9b-404d-b128-59d6638df5e2"},"vehicle_type_id":"4","last_reported":1761541914,"current_range_meters":8000,"station_id":"ce4bhgh2rcd13ifvqfb0","pricing_plan_id":"cebpf4jnsgd1na2vs0mg"},{"bike_id":"3d7bef04-a619-4188-ba10-64167b70fd6a","system_id":"levelo_inurba_marseille","lat":43.30154,"lon":5.38083,"is_reserved":false,"is_disabled":false,"rental_uris":{"android":"levelo://app?vid=3d7bef04-a619-4188-ba10-64167b70fd6a","ios":"levelo://app?vid=3d7bef04-a619-4188-ba10-64167b70fd6a"},"vehicle_type_id":"4","last_reported":1761541914,"current_range_meters":8400,"station_id":"ce4bgjp2rcd13ifvqbh0","pricing_plan_id":"cebpf4jnsgd1na2vs0mg"},{"bike_id":"13f12d24-3fc3-4202-88f0-68cc1be473cc","system_id":"levelo_inurba_marseille","lat":43.28526,"lon":5.44091,"is_reserved":false,"is_disabled":false,"rental_uris":{"android":"levelo://app?vid=13f12d24-3fc3-4202-88f0-68cc1be473cc","ios":"levelo://app?vid=13f12d24-3fc3-4202-88f0-68cc1be473cc"},"vehicle_type_id":"4","last_reported":1761541914,"current_range_meters":8800,"station_id":"st_d3j3df2ikq2c7380ej80","pricing_plan_id":"cebpf4jnsgd1na2vs0mg"},{"bike_id":"6ee611b3-bf13-495e-a0dc-dfd1a8718271","system_id":"levelo_inurba_marseille","lat":43.298123,"lon":5.440571,"is_reserved":false,"is_disabled":false,"rental_uris":{"android":"levelo://app?vid=6ee611b3-bf13-495e-a0dc-dfd1a8718271","ios":"levelo://app?vid=6ee611b3-bf13-495e-a0dc-dfd1a8718271"},"vehicle_type_id":"4","last_reported":1761541914,"current_range_meters":8800,"station_id":"st_d3jp68qikq2c7381ktn0","pricing_plan_id":"cebpf4jnsgd1na2vs0mg"},{"bike_id":"231548a1-8513-4cc2-815b-681367315f5d","system_id":"levelo_inurba_marseille","lat":43.24629,"lon":5.43288,"is_reserved":false,"is_disabled":false,"rental_uris":{"android":"levelo://app?vid=231548a1-8513-4cc2-815b-681367315f5d","ios":"levelo://app?vid=231548a1-8513-4cc2-815b-681367315f5d"},"vehicle_type_id":"4","last_reported":1761541914,"current_range_meters":8800,"station_id":"","pricing_plan_id":"cebpf4jnsgd1na2vs0mg"},{"bike_id":"a39ec3db-24cd-4d6f-9617-f698a6d2f96e","system_id":"levelo_inurba_marseille","lat":43.28469,"lon":5.38575,"is_reserved":false,"is_disabled":false,"rental_uris":{"android":"levelo://app?vid=a39ec3db-24cd-4d6f-9617-f698a6d2f96e","ios":"levelo://app?vid=a39ec3db-24cd-4d6f-9617-f698a6d2f96e"},"vehicle_type_id":"4","last_reported":1761541914,"current_range_meters":9200,"station_id":"ce4bh8p2rcd13ifvqeb0","pricing_plan_id":"cebpf4jnsgd1na2vs0mg"},{"bike_id":"5947034f-19ea-4d71-bc4b-92db934cd50e","system_id":"levelo_inurba_marseille","lat":43.21195,"lon":5.35084,"is_reserved":false,"is_disabled":true,"rental_uris":{"android":"levelo://app?vid=5947034f-19ea-4d71-bc4b-92db934cd50e","ios":"levelo://app?vid=5947034f-19ea-4d71-bc4b-92db934cd50e"},"vehicle_type_id":"4","last_reported":1761541914,"current_range_meters":9200,"station_id":"st_cvj6sg6p6f1abm77japg","pricing_plan_id":"cebpf4jnsgd1na2vs0mg"},{"bike_id":"51b0f5f4-7f69-4459-986b-efcfa4f5713b","system_id":"levelo_inurba_marseille","lat":43.28614,"lon":5.37084,"is_reserved":false,"is_disabled":false,"rental_uris":{"android":"levelo://app?vid=51b0f5f4-7f69-4459-986b-efcfa4f5713b","ios":"levelo://app?vid=51b0f5f4-7f69-4459-986b-efcfa4f5713b"},"vehicle_type_id":"4","last_reported":1761541914,"current_range_meters":9600,"station_id":"ce4bht12rcd13ifvqi60","pricing_plan_id":"cebpf4jnsgd1na2vs0mg"},{"bike_id":"46b0db6c-35c8-470b-a45d-db7e7afa9bfd","system_id":"levelo_inurba_marseille","lat":43.284081,"lon":5.375274,"is_reserved":false,"is_disabled":true,"rental_uris":{"android":"levelo://app?vid=46b0db6c-35c8-470b-a45d-db7e7afa9bfd","ios":"levelo://app?vid=46b0db6c-35c8-470b-a45d-db7e7afa9bfd"},"vehicle_type_id":"4","last_reported":1761541914,"current_range_meters":9600,"station_id":"ce4bh412rcd13ifvqds0","pricing_plan_id":"cebpf4jnsgd1na2vs0mg"},{"bike_id":"dfe2109f-28fa-4b77-96ce-045a5eb04d94","system_id":"levelo_inurba_marseille","lat":43.27996,"lon":5.40024,"is_reserved":false,"is_disabled":false,"rental_uris":{"android":"levelo://app?vid=dfe2109f-28fa-4b77-96ce-045a5eb04d94","ios":"levelo://app?vid=dfe2109f-28fa-4b77-96ce-045a5eb04d94"},"vehicle_type_id":"4","last_reported":1761541914,"current_range_meters":9600,"station_id":"ce4bho92rcd13ifvqh4g","pricing_plan_id":"cebpf4jnsgd1na2vs0mg"},{"bike_id":"41d45b45-3a52-4b5a-b2b3-1e62d5490ada","system_id":"levelo_inurba_marseille","lat":43.28537,"lon":5.44053,"is_reserved":false,"is_disabled":false,"rental_uris":{"android":"levelo://app?vid=41d45b45-3a52-4b5a-b2b3-1e62d5490ada","ios":"levelo://app?vid=41d45b45-3a52-4b5a-b2b3-1e62d5490ada"},"vehicle_type_id":"4","last_reported":1761541914,"current_range_meters":9600,"station_id":"st_d3j3df2ikq2c7380ej80","pricing_plan_id":"cebpf4jnsgd1na2vs0mg"},{"bike_id":"c8027f17-0c2c-4232-8e71-440178a0c2ca","system_id":"levelo_inurba_marseille","lat":43.29548,"lon":5.37541,"is_reserved":false,"is_disabled":true,"rental_uris":{"android":"levelo://app?vid=c8027f17-0c2c-4232-8e71-440178a0c2ca","ios":"levelo://app?vid=c8027f17-0c2c-4232-8e71-440178a0c2ca"},"vehicle_type_id":"4","last_reported":1761541914,"current_range_meters":9600,"station_id":"ce4bgh92rcd13ifvqb50","pricing_plan_id":"cebpf4jnsgd1na2vs0mg"},{"bike_id":"2ff820dd-4701-4c44-978c-027d1723e1a8","system_id":"levelo_inurba_marseille","lat":43.21747,"lon":5.34606,"is_reserved":false,"is_disabled":false,"rental_uris":{"android":"levelo://app?vid=2ff820dd-4701-4c44-978c-027d1723e1a8","ios":"levelo://app?vid=2ff820dd-4701-4c44-978c-027d1723e1a8"},"vehicle_type_id":"4","last_reported":1761541914,"current_range_meters":9600,"station_id":"st_cvj6r9ubvosntc0bgbag","pricing_plan_id":"cebpf4jnsgd1na2vs0mg"},{"bike_id":"3da36b46-32f0-4723-8f3b-8cba39a84287","system_id":"levelo_inurba_marseille","lat":43.243906,"lon":5.370503,"is_reserved":false,"is_disabled":false,"rental_uris":{"android":"levelo://app?vid=3da36b46-32f0-4723-8f3b-8cba39a84287","ios":"levelo://app?vid=3da36b46-32f0-4723-8f3b-8cba39a84287"},"vehicle_type_id":"4","last_reported":1761541914,"current_range_meters":9600,"station_id":"ce4bhhh2rcd13ifvqfk0","pricing_plan_id":"cebpf4jnsgd1na2vs0mg"},{"bike_id":"c0b81f28-bbba-4247-a74b-c55a34b31846","system_id":"levelo_inurba_marseille","lat":43.33258,"lon":5.41086,"is_reserved":false,"is_disabled":false,"rental_uris":{"android":"levelo://app?vid=c0b81f28-bbba-4247-a74b-c55a34b31846","ios":"levelo://app?vid=c0b81f28-bbba-4247-a74b-c55a34b31846"},"vehicle_type_id":"4","last_reported":1761541914,"current_range_meters":10000,"station_id":"","pricing_plan_id":"cebpf4jnsgd1na2vs0mg"},{"bike_id":"64b75b4a-3497-4861-8cc2-90dd62cd9f5e","system_id":"levelo_inurba_marseille","lat":43.293061,"lon":5.434438,"is_reserved":false,"is_disabled":false,"rental_uris":{"android":"levelo://app?vid=64b75b4a-3497-4861-8cc2-90dd62cd9f5e","ios":"levelo://app?vid=64b75b4a-3497-4861-8cc2-90dd62cd9f5e"},"vehicle_type_id":"4","last_reported":1761541914,"current_range_meters":10000,"station_id":"","pricing_plan_id":"cebpf4jnsgd1na2vs0mg"},{"bike_id":"8d922c2e-fd1c-4861-a7c8-82dfdd23c009","system_id":"levelo_inurba_marseille","lat":43.2417,"lon":5.36409,"is_reserved":false,"is_disabled":false,"rental_uris":{"android":"levelo://app?vid=8d922c2e-fd1c-4861-a7c8-82dfdd23c009","ios":"levelo://app?vid=8d922c2e-fd1c-4861-a7c8-82dfdd23c009"},"vehicle_type_id":"4","last_reported":1761541914,"current_range_meters":10000,"station_id":"cpo36qri1sfpv3e86is0","pricing_plan_id":"cebpf4jnsgd1na2vs0mg"},{"bike_id":"67f8857f-0853-46d2-b9ef-96c5ce2639bc","system_id":"levelo_inurba_marseille","lat":43.230516,"lon":5.354922,"is_reserved":false,"is_disabled":false,"rental_uris":{"android":"levelo://app?vid=67f8857f-0853-46d2-b9ef-96c5ce2639bc","ios":"levelo://app?vid=67f8857f-0853-46d2-b9ef-96c5ce2639bc"},"vehicle_type_id":"4","last_reported":1761541914,"current_range_meters":10000,"station_id":"cpo3342slgdg3j2ifvpg","pricing_plan_id":"cebpf4jnsgd1na2vs0mg"},{"bike_id":"7d2f6796-5404-46da-b3fb-b744c4c5efde","system_id":"levelo_inurba_marseille","lat":43.31446,"lon":5.39306,"is_reserved":false,"is_disabled":false,"rental_uris":{"android":"levelo://app?vid=7d2f6796-5404-46da-b3fb-b744c4c5efde","ios":"levelo://app?vid=7d2f6796-5404-46da-b3fb-b744c4c5efde"},"vehicle_type_id":"4","last_reported":1761541914,"current_range_meters":10000,"station_id":"","pricing_plan_id":"cebpf4jnsgd1na2vs0mg"},{"bike_id":"dd90d8fd-a5b4-4544-8b57-f425698f4283","system_id":"levelo_inurba_marseille","lat":43.27888,"lon":5.37992,"is_reserved":false,"is_disabled":false,"rental_uris":{"android":"levelo://app?vid=dd90d8fd-a5b4-4544-8b57-f425698f4283","ios":"levelo://app?vid=dd90d8fd-a5b4-4544-8b57-f425698f4283"},"vehicle_type_id":"4","last_reported":1761541914,"current_range_meters":10000,"station_id":"ce4bhf92rcd13ifvqf50","pricing_plan_id":"cebpf4jnsgd1na2vs0mg"},{"bike_id":"e4ccce50-4824-4895-aa8c-033835526f23","system_id":"levelo_inurba_marseille","lat":43.318787,"lon":5.399828,"is_reserved":false,"is_disabled":false,"rental_uris":{"android":"levelo://app?vid=e4ccce50-4824-4895-aa8c-033835526f23","ios":"levelo://app?vid=e4ccce50-4824-4895-aa8c-033835526f23"},"vehicle_type_id":"4","last_reported":1761541914,"current_range_meters":10000,"station_id":"","pricing_plan_id":"cebpf4jnsgd1na2vs0mg"},{"bike_id":"c124d4a0-9e47-48ec-ad7a-ea36eb6e5d35","system_id":"levelo_inurba_marseille","lat":43.24386,"lon":5.37041,"is_reserved":false,"is_disabled":false,"rental_uris":{"android":"levelo://app?vid=c124d4a0-9e47-48ec-ad7a-ea36eb6e5d35","ios":"levelo://app?vid=c124d4a0-9e47-48ec-ad7a-ea36eb6e5d35"},"vehicle_type_id":"4","last_reported":1761541914,"current_range_meters":10000,"station_id":"ce4bhhh2rcd13ifvqfk0","pricing_plan_id":"cebpf4jnsgd1na2vs0mg"},{"bike_id":"ca772d75-34f2-4f9d-a5b0-630f8e1a3fbb","system_id":"levelo_inurba_marseille","lat":43.241633,"lon":5.363935,"is_reserved":false,"is_disabled":false,"rental_uris":{"android":"levelo://app?vid=ca772d75-34f2-4f9d-a5b0-630f8e1a3fbb","ios":"levelo://app?vid=ca772d75-34f2-4f9d-a5b0-630f8e1a3fbb"},"vehicle_type_id":"4","last_reported":1761541914,"current_range_meters":10000,"station_id":"cpo36qri1sfpv3e86is0","pricing_plan_id":"cebpf4jnsgd1na2vs0mg"},{"bike_id":"de5cece4-6186-4ccb-b70e-a25e8bd3fc86","system_id":"levelo_inurba_marseille","lat":43.337444,"lon":5.374475,"is_reserved":false,"is_disabled":false,"rental_uris":{"android":"levelo://app?vid=de5cece4-6186-4ccb-b70e-a25e8bd3fc86","ios":"levelo://app?vid=de5cece4-6186-4ccb-b70e-a25e8bd3fc86"},"vehicle_type_id":"4","last_reported":1761541914,"current_range_meters":10000,"station_id":"","pricing_plan_id":"cebpf4jnsgd1na2vs0mg"},{"bike_id":"8847af5d-c1ad-4d8d-a5c1-273c3b41c105","system_id":"levelo_inurba_marseille","lat":43.32238,"lon":5.41958,"is_reserved":false,"is_disabled":false,"rental_uris":{"android":"levelo://app?vid=8847af5d-c1ad-4d8d-a5c1-273c3b41c105","ios":"levelo://app?vid=8847af5d-c1ad-4d8d-a5c1-273c3b41c105"},"vehicle_type_id":"4","last_reported":1761541914,"current_range_meters":10800,"station_id":"","pricing_plan_id":"cebpf4jnsgd1na2vs0mg"},{"bike_id":"63e973f3-e7fc-4225-83ba-29a670d42b34","system_id":"levelo_inurba_marseille","lat":43.231528,"lon":5.437192,"is_reserved":false,"is_disabled":false,"rental_uris":{"android":"levelo://app?vid=63e973f3-e7fc-4225-83ba-29a670d42b34","ios":"levelo://app?vid=63e973f3-e7fc-4225-83ba-29a670d42b34"},"vehicle_type_id":"4","last_reported":1761541914,"current_range_meters":10800,"station_id":"ce4bhmp2rcd13ifvqgog","pricing_plan_id":"cebpf4jnsgd1na2vs0mg"},{"bike_id":"d85011cb-7d6b-4b15-a412-59816da2b5c2","system_id":"levelo_inurba_marseille","lat":43.23191,"lon":5.35633,"is_reserved":false,"is_disabled":true,"rental_uris":{"android":"levelo://app?vid=d85011cb-7d6b-4b15-a412-59816da2b5c2","ios":"levelo://app?vid=d85011cb-7d6b-4b15-a412-59816da2b5c2"},"vehicle_type_id":"4","last_reported":1761541914,"current_range_meters":10800,"station_id":"","pricing_plan_id":"cebpf4jnsgd1na2vs0mg"},{"bike_id":"ab29bddd-f5b2-43db-83b2-2b53f0573596","system_id":"levelo_inurba_marseille","lat":43.29268,"lon":5.40125,"is_reserved":false,"is_disabled":false,"rental_uris":{"android":"levelo://app?vid=ab29bddd-f5b2-43db-83b2-2b53f0573596","ios":"levelo://app?vid=ab29bddd-f5b2-43db-83b2-2b53f0573596"},"vehicle_type_id":"4","last_reported":1761541914,"current_range_meters":10800,"station_id":"ce4bh312rcd13ifvqdk0","pricing_plan_id":"cebpf4jnsgd1na2vs0mg"},{"bike_id":"e5aafa61-e384-4c69-800b-fe726c41fdc6","system_id":"levelo_inurba_marseille","lat":43.29983,"lon":5.38489,"is_reserved":false,"is_disabled":true,"rental_uris":{"android":"levelo://app?vid=e5aafa61-e384-4c69-800b-fe726c41fdc6","ios":"levelo://app?vid=e5aafa61-e384-4c69-800b-fe726c41fdc6"},"vehicle_type_id":"4","last_reported":1761541914,"current_range_meters":10800,"station_id":"ce4bgj92rcd13ifvqbd0","pricing_plan_id":"cebpf4jnsgd1na2vs0mg"},{"bike_id":"ffd13ce5-8f79-40f7-bfc8-0243e89f122b","system_id":"levelo_inurba_marseille","lat":43.24389,"lon":5.37043,"is_reserved":false,"is_disabled":false,"rental_uris":{"android":"levelo://app?vid=ffd13ce5-8f79-40f7-bfc8-0243e89f122b","ios":"levelo://app?vid=ffd13ce5-8f79-40f7-bfc8-0243e89f122b"},"vehicle_type_id":"4","last_reported":1761541914,"current_range_meters":11200,"station_id":"ce4bhhh2rcd13ifvqfk0","pricing_plan_id":"cebpf4jnsgd1na2vs0mg"},{"bike_id":"1649d15c-fe55-4b4c-9f49-d2ca3fabd9cb","system_id":"levelo_inurba_marseille","lat":43.286172,"lon":5.351072,"is_reserved":false,"is_disabled":false,"rental_uris":{"android":"levelo://app?vid=1649d15c-fe55-4b4c-9f49-d2ca3fabd9cb","ios":"levelo://app?vid=1649d15c-fe55-4b4c-9f49-d2ca3fabd9cb"},"vehicle_type_id":"4","last_reported":1761541914,"current_range_meters":11200,"station_id":"ce4bhch2rcd13ifvqeug","pricing_plan_id":"cebpf4jnsgd1na2vs0mg"},{"bike_id":"317107fa-306d-4b8d-9380-a16cd06486ce","system_id":"levelo_inurba_marseille","lat":43.284658,"lon":5.358921,"is_reserved":false,"is_disabled":true,"rental_uris":{"android":"levelo://app?vid=317107fa-306d-4b8d-9380-a16cd06486ce","ios":"levelo://app?vid=317107fa-306d-4b8d-9380-a16cd06486ce"},"vehicle_type_id":"4","last_reported":1761541914,"current_range_meters":11200,"station_id":"ce4bhah2rcd13ifvqei0","pricing_plan_id":"cebpf4jnsgd1na2vs0mg"},{"bike_id":"5c416816-db46-4739-985f-dc43793920bf","system_id":"levelo_inurba_marseille","lat":43.27942,"lon":5.4106,"is_reserved":false,"is_disabled":false,"rental_uris":{"android":"levelo://app?vid=5c416816-db46-4739-985f-dc43793920bf","ios":"levelo://app?vid=5c416816-db46-4739-985f-dc43793920bf"},"vehicle_type_id":"4","last_reported":1761541914,"current_range_meters":11200,"station_id":"ce4bhnp2rcd13ifvqh0g","pricing_plan_id":"cebpf4jnsgd1na2vs0mg"},{"bike_id":"9cc0de43-9775-495c-90a1-990a5acab934","system_id":"levelo_inurba_marseille","lat":43.314915,"lon":5.372998,"is_reserved":false,"is_disabled":false,"rental_uris":{"android":"levelo://app?vid=9cc0de43-9775-495c-90a1-990a5acab934","ios":"levelo://app?vid=9cc0de43-9775-495c-90a1-990a5acab934"},"vehicle_type_id":"4","last_reported":1761541914,"current_range_meters":11200,"station_id":"ce4bgt12rcd13ifvqcd0","pricing_plan_id":"cebpf4jnsgd1na2vs0mg"},{"bike_id":"6b72c8e1-fe87-4635-90aa-72f1e663fb65","system_id":"levelo_inurba_marseille","lat":43.27373,"lon":5.36266,"is_reserved":false,"is_disabled":false,"rental_uris":{"android":"levelo://app?vid=6b72c8e1-fe87-4635-90aa-72f1e663fb65","ios":"levelo://app?vid=6b72c8e1-fe87-4635-90aa-72f1e663fb65"},"vehicle_type_id":"4","last_reported":1761541914,"current_range_meters":11200,"station_id":"ce4bhbh2rcd13ifvqeo0","pricing_plan_id":"cebpf4jnsgd1na2vs0mg"},{"bike_id":"e270848e-8d82-4e94-b92c-a05e046c1218","system_id":"levelo_inurba_marseille","lat":43.27074,"lon":5.38295,"is_reserved":false,"is_disabled":false,"rental_uris":{"android":"levelo://app?vid=e270848e-8d82-4e94-b92c-a05e046c1218","ios":"levelo://app?vid=e270848e-8d82-4e94-b92c-a05e046c1218"},"vehicle_type_id":"4","last_reported":1761541914,"current_range_meters":11200,"station_id":"st_d3n2fo6cfp8s73cte1j0","pricing_plan_id":"cebpf4jnsgd1na2vs0mg"},{"bike_id":"6f36a359-fa50-49f5-98a5-a2b2c4892adc","system_id":"levelo_inurba_marseille","lat":43.23201,"lon":5.35537,"is_reserved":false,"is_disabled":false,"rental_uris":{"android":"levelo://app?vid=6f36a359-fa50-49f5-98a5-a2b2c4892adc","ios":"levelo://app?vid=6f36a359-fa50-49f5-98a5-a2b2c4892adc"},"vehicle_type_id":"4","last_reported":1761541914,"current_range_meters":11600,"station_id":"ce4bhu92rcd13ifvqi70","pricing_plan_id":"cebpf4jnsgd1na2vs0mg"},{"bike_id":"de0ca7a8-116a-46c8-8c50-6b445a473423","system_id":"levelo_inurba_marseille","lat":43.28863,"lon":5.42505,"is_reserved":false,"is_disabled":false,"rental_uris":{"android":"levelo://app?vid=de0ca7a8-116a-46c8-8c50-6b445a473423","ios":"levelo://app?vid=de0ca7a8-116a-46c8-8c50-6b445a473423"},"vehicle_type_id":"4","last_reported":1761541914,"current_range_meters":11600,"station_id":"st_d3b462108ojc7389ooeg","pricing_plan_id":"cebpf4jnsgd1na2vs0mg"},{"bike_id":"ad166e8d-320f-47c2-bfd9-9e014a946d21","system_id":"levelo_inurba_marseille","lat":43.278152,"lon":5.407237,"is_reserved":false,"is_disabled":true,"rental_uris":{"android":"levelo://app?vid=ad166e8d-320f-47c2-bfd9-9e014a946d21","ios":"levelo://app?vid=ad166e8d-320f-47c2-bfd9-9e014a946d21"},"vehicle_type_id":"4","last_reported":1761541914,"current_range_meters":11600,"station_id":"ce4bhnh2rcd13ifvqgtg","pricing_plan_id":"cebpf4jnsgd1na2vs0mg"},{"bike_id":"476ede32-cfdc-42f2-8cc1-233e266f9923","system_id":"levelo_inurba_marseille","lat":43.295699,"lon":5.37555,"is_reserved":false,"is_disabled":false,"rental_uris":{"android":"levelo://app?vid=476ede32-cfdc-42f2-8cc1-233e266f9923","ios":"levelo://app?vid=476ede32-cfdc-42f2-8cc1-233e266f9923"},"vehicle_type_id":"4","last_reported":1761541914,"current_range_meters":12000,"station_id":"","pricing_plan_id":"cebpf4jnsgd1na2vs0mg"},{"bike_id":"08b89487-7647-4a54-9c05-2a9b71119650","system_id":"levelo_inurba_marseille","lat":43.324797,"lon":5.365618,"is_reserved":false,"is_disabled":false,"rental_uris":{"android":"levelo://app?vid=08b89487-7647-4a54-9c05-2a9b71119650","ios":"levelo://app?vid=08b89487-7647-4a54-9c05-2a9b71119650"},"vehicle_type_id":"4","last_reported":1761541914,"current_range_meters":12000,"station_id":"ce4bhs12rcd13ifvqhvg","pricing_plan_id":"cebpf4jnsgd1na2vs0mg"},{"bike_id":"526cddf7-e629-4e01-a3fa-d060ef7dfdd4","system_id":"levelo_inurba_marseille","lat":43.246524,"lon":5.388972,"is_reserved":false,"is_disabled":false,"rental_uris":{"android":"levelo://app?vid=526cddf7-e629-4e01-a3fa-d060ef7dfdd4","ios":"levelo://app?vid=526cddf7-e629-4e01-a3fa-d060ef7dfdd4"},"vehicle_type_id":"4","last_reported":1761541914,"current_range_meters":12000,"station_id":"ce4bhg12rcd13ifvqf60","pricing_plan_id":"cebpf4jnsgd1na2vs0mg"},{"bike_id":"c0618bfa-f673-4582-93fc-6743f7212756","system_id":"levelo_inurba_marseille","lat":43.27317,"lon":5.39073,"is_reserved":false,"is_disabled":false,"rental_uris":{"android":"levelo://app?vid=c0618bfa-f673-4582-93fc-6743f7212756","ios":"levelo://app?vid=c0618bfa-f673-4582-93fc-6743f7212756"},"vehicle_type_id":"4","last_reported":1761541914,"current_range_meters":12000,"station_id":"ce4bhgp2rcd13ifvqfe0","pricing_plan_id":"cebpf4jnsgd1na2vs0mg"},{"bike_id":"6c407d6c-8d63-4e00-9de4-e2d4192cffa5","system_id":"levelo_inurba_marseille","lat":43.29279,"lon":5.40131,"is_reserved":false,"is_disabled":false,"rental_uris":{"android":"levelo://app?vid=6c407d6c-8d63-4e00-9de4-e2d4192cffa5","ios":"levelo://app?vid=6c407d6c-8d63-4e00-9de4-e2d4192cffa5"},"vehicle_type_id":"4","last_reported":1761541914,"current_range_meters":12000,"station_id":"ce4bh312rcd13ifvqdk0","pricing_plan_id":"cebpf4jnsgd1na2vs0mg"},{"bike_id":"8e3d0e08-b97d-4968-869d-5fbe6eb8c3f7","system_id":"levelo_inurba_marseille","lat":43.248158,"lon":5.374551,"is_reserved":false,"is_disabled":false,"rental_uris":{"android":"levelo://app?vid=8e3d0e08-b97d-4968-869d-5fbe6eb8c3f7","ios":"levelo://app?vid=8e3d0e08-b97d-4968-869d-5fbe6eb8c3f7"},"vehicle_type_id":"4","last_reported":1761541914,"current_range_meters":12400,"station_id":"ce4bhgh2rcd13ifvqfb0","pricing_plan_id":"cebpf4jnsgd1na2vs0mg"},{"bike_id":"e93347a6-3aff-4943-ac8f-25fed98b8df8","system_id":"levelo_inurba_marseille","lat":43.23975,"lon":5.36651,"is_reserved":false,"is_disabled":false,"rental_uris":{"android":"levelo://app?vid=e93347a6-3aff-4943-ac8f-25fed98b8df8","ios":"levelo://app?vid=e93347a6-3aff-4943-ac8f-25fed98b8df8"},"vehicle_type_id":"4","last_reported":1761541914,"current_range_meters":12400,"station_id":"ce4bhi12rcd13ifvqfp0","pricing_plan_id":"cebpf4jnsgd1na2vs0mg"},{"bike_id":"da53deab-b37f-4bff-8d08-f9ed6194ab10","system_id":"levelo_inurba_marseille","lat":43.2467,"lon":5.38179,"is_reserved":false,"is_disabled":false,"rental_uris":{"android":"levelo://app?vid=da53deab-b37f-4bff-8d08-f9ed6194ab10","ios":"levelo://app?vid=da53deab-b37f-4bff-8d08-f9ed6194ab10"},"vehicle_type_id":"4","last_reported":1761541914,"current_range_meters":12400,"station_id":"ce4bhih2rcd13ifvqfr0","pricing_plan_id":"cebpf4jnsgd1na2vs0mg"},{"bike_id":"d9bb607d-1ecc-49cc-9f82-e52383a3bc84","system_id":"levelo_inurba_marseille","lat":43.29316,"lon":5.411605,"is_reserved":false,"is_disabled":false,"rental_uris":{"android":"levelo://app?vid=d9bb607d-1ecc-49cc-9f82-e52383a3bc84","ios":"levelo://app?vid=d9bb607d-1ecc-49cc-9f82-e52383a3bc84"},"vehicle_type_id":"4","last_reported":1761541914,"current_range_meters":12400,"station_id":"","pricing_plan_id":"cebpf4jnsgd1na2vs0mg"},{"bike_id":"666f0932-9c23-4a52-b974-d421a037b0e9","system_id":"levelo_inurba_marseille","lat":43.24384,"lon":5.37061,"is_reserved":false,"is_disabled":false,"rental_uris":{"android":"levelo://app?vid=666f0932-9c23-4a52-b974-d421a037b0e9","ios":"levelo://app?vid=666f0932-9c23-4a52-b974-d421a037b0e9"},"vehicle_type_id":"4","last_reported":1761541914,"current_range_meters":12800,"station_id":"ce4bhhh2rcd13ifvqfk0","pricing_plan_id":"cebpf4jnsgd1na2vs0mg"},{"bike_id":"50558261-392d-4ffd-bfaa-e3509fa31186","system_id":"levelo_inurba_marseille","lat":43.29253,"lon":5.40142,"is_reserved":false,"is_disabled":false,"rental_uris":{"android":"levelo://app?vid=50558261-392d-4ffd-bfaa-e3509fa31186","ios":"levelo://app?vid=50558261-392d-4ffd-bfaa-e3509fa31186"},"vehicle_type_id":"4","last_reported":1761541914,"current_range_meters":12800,"station_id":"ce4bh312rcd13ifvqdk0","pricing_plan_id":"cebpf4jnsgd1na2vs0mg"},{"bike_id":"58a1f9b1-21be-437a-b808-5a33349f3e42","system_id":"levelo_inurba_marseille","lat":43.231443,"lon":5.43702,"is_reserved":false,"is_disabled":false,"rental_uris":{"android":"levelo://app?vid=58a1f9b1-21be-437a-b808-5a33349f3e42","ios":"levelo://app?vid=58a1f9b1-21be-437a-b808-5a33349f3e42"},"vehicle_type_id":"4","last_reported":1761541914,"current_range_meters":12800,"station_id":"ce4bhmp2rcd13ifvqgog","pricing_plan_id":"cebpf4jnsgd1na2vs0mg"},{"bike_id":"ce15d64c-7bd4-4017-a01a-0dc353c2995b","system_id":"levelo_inurba_marseille","lat":43.281298,"lon":5.350214,"is_reserved":false,"is_disabled":false,"rental_uris":{"android":"levelo://app?vid=ce15d64c-7bd4-4017-a01a-0dc353c2995b","ios":"levelo://app?vid=ce15d64c-7bd4-4017-a01a-0dc353c2995b"},"vehicle_type_id":"4","last_reported":1761541914,"current_range_meters":12800,"station_id":"","pricing_plan_id":"cebpf4jnsgd1na2vs0mg"},{"bike_id":"c4fcd434-8433-4b9c-9796-58e84cedf33d","system_id":"levelo_inurba_marseille","lat":43.26594,"lon":5.39068,"is_reserved":false,"is_disabled":false,"rental_uris":{"android":"levelo://app?vid=c4fcd434-8433-4b9c-9796-58e84cedf33d","ios":"levelo://app?vid=c4fcd434-8433-4b9c-9796-58e84cedf33d"},"vehicle_type_id":"4","last_reported":1761541914,"current_range_meters":13600,"station_id":"ce4bhe12rcd13ifvqf30","pricing_plan_id":"cebpf4jnsgd1na2vs0mg"},{"bike_id":"97714b25-a262-4cdb-b1c7-73ca1f91b2c2","system_id":"levelo_inurba_marseille","lat":43.24807,"lon":5.37458,"is_reserved":false,"is_disabled":false,"rental_uris":{"android":"levelo://app?vid=97714b25-a262-4cdb-b1c7-73ca1f91b2c2","ios":"levelo://app?vid=97714b25-a262-4cdb-b1c7-73ca1f91b2c2"},"vehicle_type_id":"4","last_reported":1761541914,"current_range_meters":13600,"station_id":"ce4bhgh2rcd13ifvqfb0","pricing_plan_id":"cebpf4jnsgd1na2vs0mg"},{"bike_id":"dfc32f03-dd9f-47df-b204-94698d3e763d","system_id":"levelo_inurba_marseille","lat":43.265668,"lon":5.403255,"is_reserved":false,"is_disabled":false,"rental_uris":{"android":"levelo://app?vid=dfc32f03-dd9f-47df-b204-94698d3e763d","ios":"levelo://app?vid=dfc32f03-dd9f-47df-b204-94698d3e763d"},"vehicle_type_id":"4","last_reported":1761541914,"current_range_meters":14000,"station_id":"ce4bhmp2rcd13ifvqgng","pricing_plan_id":"cebpf4jnsgd1na2vs0mg"},{"bike_id":"f71fe82b-dccf-4fda-ae53-ecb213a7f608","system_id":"levelo_inurba_marseille","lat":43.26204,"lon":5.37444,"is_reserved":false,"is_disabled":false,"rental_uris":{"android":"levelo://app?vid=f71fe82b-dccf-4fda-ae53-ecb213a7f608","ios":"levelo://app?vid=f71fe82b-dccf-4fda-ae53-ecb213a7f608"},"vehicle_type_id":"4","last_reported":1761541914,"current_range_meters":14000,"station_id":"ce4bhgp2rcd13ifvqfc0","pricing_plan_id":"cebpf4jnsgd1na2vs0mg"},{"bike_id":"b893a40c-0805-4bf8-9553-79606bbce417","system_id":"levelo_inurba_marseille","lat":43.24167,"lon":5.36397,"is_reserved":false,"is_disabled":false,"rental_uris":{"android":"levelo://app?vid=b893a40c-0805-4bf8-9553-79606bbce417","ios":"levelo://app?vid=b893a40c-0805-4bf8-9553-79606bbce417"},"vehicle_type_id":"4","last_reported":1761541914,"current_range_meters":14400,"station_id":"cpo36qri1sfpv3e86is0","pricing_plan_id":"cebpf4jnsgd1na2vs0mg"},{"bike_id":"7165d414-e8a5-415f-8a72-9e3295be2a67","system_id":"levelo_inurba_marseille","lat":43.31025,"lon":5.37923,"is_reserved":false,"is_disabled":false,"rental_uris":{"android":"levelo://app?vid=7165d414-e8a5-415f-8a72-9e3295be2a67","ios":"levelo://app?vid=7165d414-e8a5-415f-8a72-9e3295be2a67"},"vehicle_type_id":"4","last_reported":1761541914,"current_range_meters":14400,"station_id":"","pricing_plan_id":"cebpf4jnsgd1na2vs0mg"},{"bike_id":"94aaf935-55ff-4431-b612-265a39fb330c","system_id":"levelo_inurba_marseille","lat":43.29026,"lon":5.38633,"is_reserved":false,"is_disabled":true,"rental_uris":{"android":"levelo://app?vid=94aaf935-55ff-4431-b612-265a39fb330c","ios":"levelo://app?vid=94aaf935-55ff-4431-b612-265a39fb330c"},"vehicle_type_id":"4","last_reported":1761541914,"current_range_meters":14400,"station_id":"ce4bh4p2rcd13ifvqe0g","pricing_plan_id":"cebpf4jnsgd1na2vs0mg"},{"bike_id":"b6906a94-4700-4c3b-a1ba-c6630faba10b","system_id":"levelo_inurba_marseille","lat":43.27681,"lon":5.38887,"is_reserved":false,"is_disabled":false,"rental_uris":{"android":"levelo://app?vid=b6906a94-4700-4c3b-a1ba-c6630faba10b","ios":"levelo://app?vid=b6906a94-4700-4c3b-a1ba-c6630faba10b"},"vehicle_type_id":"4","last_reported":1761541914,"current_range_meters":14400,"station_id":"ce4bhi12rcd13ifvqfo0","pricing_plan_id":"cebpf4jnsgd1na2vs0mg"},{"bike_id":"c9006c79-0fd8-42fd-b14f-27c519b5c1c6","system_id":"levelo_inurba_marseille","lat":43.24072,"lon":5.37765,"is_reserved":false,"is_disabled":false,"rental_uris":{"android":"levelo://app?vid=c9006c79-0fd8-42fd-b14f-27c519b5c1c6","ios":"levelo://app?vid=c9006c79-0fd8-42fd-b14f-27c519b5c1c6"},"vehicle_type_id":"4","last_reported":1761541914,"current_range_meters":14400,"station_id":"ce4bhnp2rcd13ifvqgvg","pricing_plan_id":"cebpf4jnsgd1na2vs0mg"},{"bike_id":"9257d08c-8829-4b03-a26b-db35ab9def75","system_id":"levelo_inurba_marseille","lat":43.250011,"lon":5.389359,"is_reserved":false,"is_disabled":false,"rental_uris":{"android":"levelo://app?vid=9257d08c-8829-4b03-a26b-db35ab9def75","ios":"levelo://app?vid=9257d08c-8829-4b03-a26b-db35ab9def75"},"vehicle_type_id":"4","last_reported":1761541914,"current_range_meters":14400,"station_id":"ce4bhgp2rcd13ifvqfd0","pricing_plan_id":"cebpf4jnsgd1na2vs0mg"},{"bike_id":"460d48cd-0312-4793-b415-7726bd337438","system_id":"levelo_inurba_marseille","lat":43.30528,"lon":5.38421,"is_reserved":false,"is_disabled":false,"rental_uris":{"android":"levelo://app?vid=460d48cd-0312-4793-b415-7726bd337438","ios":"levelo://app?vid=460d48cd-0312-4793-b415-7726bd337438"},"vehicle_type_id":"4","last_reported":1761541914,"current_range_meters":14400,"station_id":"ce4bgg92rcd13ifvqb30","pricing_plan_id":"cebpf4jnsgd1na2vs0mg"},{"bike_id":"1ac4bb5c-df63-4bf7-b38e-991566a4ce88","system_id":"levelo_inurba_marseille","lat":43.302612,"lon":5.400925,"is_reserved":false,"is_disabled":true,"rental_uris":{"android":"levelo://app?vid=1ac4bb5c-df63-4bf7-b38e-991566a4ce88","ios":"levelo://app?vid=1ac4bb5c-df63-4bf7-b38e-991566a4ce88"},"vehicle_type_id":"4","last_reported":1761541914,"current_range_meters":14400,"station_id":"","pricing_plan_id":"cebpf4jnsgd1na2vs0mg"},{"bike_id":"ab7e0e5b-a8f2-41b3-b5ff-faa53408537a","system_id":"levelo_inurba_marseille","lat":43.28418,"lon":5.37519,"is_reserved":false,"is_disabled":false,"rental_uris":{"android":"levelo://app?vid=ab7e0e5b-a8f2-41b3-b5ff-faa53408537a","ios":"levelo://app?vid=ab7e0e5b-a8f2-41b3-b5ff-faa53408537a"},"vehicle_type_id":"4","last_reported":1761541914,"current_range_meters":14400,"station_id":"ce4bh412rcd13ifvqds0","pricing_plan_id":"cebpf4jnsgd1na2vs0mg"},{"bike_id":"8ce4acf9-3cce-4a2c-80a0-2e9ba0bb1c6c","system_id":"levelo_inurba_marseille","lat":43.24182,"lon":5.39742,"is_reserved":false,"is_disabled":false,"rental_uris":{"android":"levelo://app?vid=8ce4acf9-3cce-4a2c-80a0-2e9ba0bb1c6c","ios":"levelo://app?vid=8ce4acf9-3cce-4a2c-80a0-2e9ba0bb1c6c"},"vehicle_type_id":"4","last_reported":1761541914,"current_range_meters":14800,"station_id":"ce4bhn12rcd13ifvqgpg","pricing_plan_id":"cebpf4jnsgd1na2vs0mg"},{"bike_id":"f6f41915-49e3-4fb8-8c5c-96d42e084e15","system_id":"levelo_inurba_marseille","lat":43.32049,"lon":5.37123,"is_reserved":false,"is_disabled":false,"rental_uris":{"android":"levelo://app?vid=f6f41915-49e3-4fb8-8c5c-96d42e084e15","ios":"levelo://app?vid=f6f41915-49e3-4fb8-8c5c-96d42e084e15"},"vehicle_type_id":"4","last_reported":1761541914,"current_range_meters":14800,"station_id":"","pricing_plan_id":"cebpf4jnsgd1na2vs0mg"},{"bike_id":"26a7bc31-88fa-4c6d-91f1-e3304a4de5b5","system_id":"levelo_inurba_marseille","lat":43.30154,"lon":5.38093,"is_reserved":false,"is_disabled":false,"rental_uris":{"android":"levelo://app?vid=26a7bc31-88fa-4c6d-91f1-e3304a4de5b5","ios":"levelo://app?vid=26a7bc31-88fa-4c6d-91f1-e3304a4de5b5"},"vehicle_type_id":"4","last_reported":1761541914,"current_range_meters":14800,"station_id":"ce4bgjp2rcd13ifvqbh0","pricing_plan_id":"cebpf4jnsgd1na2vs0mg"},{"bike_id":"7cd06c8e-20e0-4a7b-bdd0-d1a902d0086a","system_id":"levelo_inurba_marseille","lat":43.26224,"lon":5.40454,"is_reserved":false,"is_disabled":false,"rental_uris":{"android":"levelo://app?vid=7cd06c8e-20e0-4a7b-bdd0-d1a902d0086a","ios":"levelo://app?vid=7cd06c8e-20e0-4a7b-bdd0-d1a902d0086a"},"vehicle_type_id":"4","last_reported":1761541914,"current_range_meters":14800,"station_id":"ce4bhmh2rcd13ifvqgmg","pricing_plan_id":"cebpf4jnsgd1na2vs0mg"},{"bike_id":"0537b59c-4868-44cf-9bf6-cf3bb9f26a96","system_id":"levelo_inurba_marseille","lat":43.30154,"lon":5.38095,"is_reserved":false,"is_disabled":false,"rental_uris":{"android":"levelo://app?vid=0537b59c-4868-44cf-9bf6-cf3bb9f26a96","ios":"levelo://app?vid=0537b59c-4868-44cf-9bf6-cf3bb9f26a96"},"vehicle_type_id":"4","last_reported":1761541914,"current_range_meters":15200,"station_id":"ce4bgjp2rcd13ifvqbh0","pricing_plan_id":"cebpf4jnsgd1na2vs0mg"},{"bike_id":"d23bf304-8579-4071-b2a4-61dc68f83575","system_id":"levelo_inurba_marseille","lat":43.21185,"lon":5.35095,"is_reserved":false,"is_disabled":false,"rental_uris":{"android":"levelo://app?vid=d23bf304-8579-4071-b2a4-61dc68f83575","ios":"levelo://app?vid=d23bf304-8579-4071-b2a4-61dc68f83575"},"vehicle_type_id":"4","last_reported":1761541914,"current_range_meters":15200,"station_id":"st_cvj6sg6p6f1abm77japg","pricing_plan_id":"cebpf4jnsgd1na2vs0mg"},{"bike_id":"2a0ddb47-dcd5-462c-8f9c-bd9d73cb11b0","system_id":"levelo_inurba_marseille","lat":43.314955,"lon":5.37307,"is_reserved":false,"is_disabled":false,"rental_uris":{"android":"levelo://app?vid=2a0ddb47-dcd5-462c-8f9c-bd9d73cb11b0","ios":"levelo://app?vid=2a0ddb47-dcd5-462c-8f9c-bd9d73cb11b0"},"vehicle_type_id":"4","last_reported":1761541914,"current_range_meters":15200,"station_id":"ce4bgt12rcd13ifvqcd0","pricing_plan_id":"cebpf4jnsgd1na2vs0mg"},{"bike_id":"99604b58-d182-4334-99ee-a0cd33dddfef","system_id":"levelo_inurba_marseille","lat":43.29474,"lon":5.38597,"is_reserved":false,"is_disabled":false,"rental_uris":{"android":"levelo://app?vid=99604b58-d182-4334-99ee-a0cd33dddfef","ios":"levelo://app?vid=99604b58-d182-4334-99ee-a0cd33dddfef"},"vehicle_type_id":"4","last_reported":1761541914,"current_range_meters":15200,"station_id":"","pricing_plan_id":"cebpf4jnsgd1na2vs0mg"},{"bike_id":"83106217-f024-4381-9607-50194d3370ce","system_id":"levelo_inurba_marseille","lat":43.24167,"lon":5.363942,"is_reserved":false,"is_disabled":false,"rental_uris":{"android":"levelo://app?vid=83106217-f024-4381-9607-50194d3370ce","ios":"levelo://app?vid=83106217-f024-4381-9607-50194d3370ce"},"vehicle_type_id":"4","last_reported":1761541914,"current_range_meters":16000,"station_id":"cpo36qri1sfpv3e86is0","pricing_plan_id":"cebpf4jnsgd1na2vs0mg"},{"bike_id":"da945370-32c7-4765-8b8c-dadee680d38e","system_id":"levelo_inurba_marseille","lat":43.34058,"lon":5.40415,"is_reserved":false,"is_disabled":false,"rental_uris":{"android":"levelo://app?vid=da945370-32c7-4765-8b8c-dadee680d38e","ios":"levelo://app?vid=da945370-32c7-4765-8b8c-dadee680d38e"},"vehicle_type_id":"4","last_reported":1761541914,"current_range_meters":16000,"station_id":"","pricing_plan_id":"cebpf4jnsgd1na2vs0mg"},{"bike_id":"b83891d3-7971-45ae-9af3-651a6e6209e2","system_id":"levelo_inurba_marseille","lat":43.231917,"lon":5.355575,"is_reserved":false,"is_disabled":false,"rental_uris":{"android":"levelo://app?vid=b83891d3-7971-45ae-9af3-651a6e6209e2","ios":"levelo://app?vid=b83891d3-7971-45ae-9af3-651a6e6209e2"},"vehicle_type_id":"4","last_reported":1761541914,"current_range_meters":16400,"station_id":"ce4bhu92rcd13ifvqi70","pricing_plan_id":"cebpf4jnsgd1na2vs0mg"},{"bike_id":"f506af0b-8dfd-4fc6-bd42-980b6481ca67","system_id":"levelo_inurba_marseille","lat":43.29792,"lon":5.37927,"is_reserved":false,"is_disabled":false,"rental_uris":{"android":"levelo://app?vid=f506af0b-8dfd-4fc6-bd42-980b6481ca67","ios":"levelo://app?vid=f506af0b-8dfd-4fc6-bd42-980b6481ca67"},"vehicle_type_id":"4","last_reported":1761541914,"current_range_meters":16400,"station_id":"","pricing_plan_id":"cebpf4jnsgd1na2vs0mg"},{"bike_id":"ef4b253e-e62d-403a-9049-37364ca48fca","system_id":"levelo_inurba_marseille","lat":43.28343,"lon":5.38107,"is_reserved":false,"is_disabled":false,"rental_uris":{"android":"levelo://app?vid=ef4b253e-e62d-403a-9049-37364ca48fca","ios":"levelo://app?vid=ef4b253e-e62d-403a-9049-37364ca48fca"},"vehicle_type_id":"4","last_reported":1761541914,"current_range_meters":16400,"station_id":"ce4bh412rcd13ifvqdr0","pricing_plan_id":"cebpf4jnsgd1na2vs0mg"},{"bike_id":"bbbf3dbb-fbe2-4b7e-bfad-c027ca4e1c25","system_id":"levelo_inurba_marseille","lat":43.28483,"lon":5.48386,"is_reserved":false,"is_disabled":false,"rental_uris":{"android":"levelo://app?vid=bbbf3dbb-fbe2-4b7e-bfad-c027ca4e1c25","ios":"levelo://app?vid=bbbf3dbb-fbe2-4b7e-bfad-c027ca4e1c25"},"vehicle_type_id":"4","last_reported":1761541914,"current_range_meters":16400,"station_id":"st_d3svhcjqgbts73a3dn0g","pricing_plan_id":"cebpf4jnsgd1na2vs0mg"},{"bike_id":"13a1567c-ffbb-43b9-a7c3-3c7601641a0a","system_id":"levelo_inurba_marseille","lat":43.24188,"lon":5.39745,"is_reserved":false,"is_disabled":false,"rental_uris":{"android":"levelo://app?vid=13a1567c-ffbb-43b9-a7c3-3c7601641a0a","ios":"levelo://app?vid=13a1567c-ffbb-43b9-a7c3-3c7601641a0a"},"vehicle_type_id":"4","last_reported":1761541914,"current_range_meters":16400,"station_id":"ce4bhn12rcd13ifvqgpg","pricing_plan_id":"cebpf4jnsgd1na2vs0mg"},{"bike_id":"71fe0d6a-f99e-45a0-9c75-e294b78524b2","system_id":"levelo_inurba_marseille","lat":43.21173,"lon":5.35072,"is_reserved":false,"is_disabled":false,"rental_uris":{"android":"levelo://app?vid=71fe0d6a-f99e-45a0-9c75-e294b78524b2","ios":"levelo://app?vid=71fe0d6a-f99e-45a0-9c75-e294b78524b2"},"vehicle_type_id":"4","last_reported":1761541914,"current_range_meters":16400,"station_id":"st_cvj6sg6p6f1abm77japg","pricing_plan_id":"cebpf4jnsgd1na2vs0mg"},{"bike_id":"e92a5181-3093-4535-adde-2230374de0aa","system_id":"levelo_inurba_marseille","lat":43.313327,"lon":5.376742,"is_reserved":false,"is_disabled":false,"rental_uris":{"android":"levelo://app?vid=e92a5181-3093-4535-adde-2230374de0aa","ios":"levelo://app?vid=e92a5181-3093-4535-adde-2230374de0aa"},"vehicle_type_id":"4","last_reported":1761541914,"current_range_meters":16400,"station_id":"","pricing_plan_id":"cebpf4jnsgd1na2vs0mg"},{"bike_id":"1a17ca6c-2b9b-4e73-b76d-539b00005301","system_id":"levelo_inurba_marseille","lat":43.24385,"lon":5.37054,"is_reserved":false,"is_disabled":false,"rental_uris":{"android":"levelo://app?vid=1a17ca6c-2b9b-4e73-b76d-539b00005301","ios":"levelo://app?vid=1a17ca6c-2b9b-4e73-b76d-539b00005301"},"vehicle_type_id":"4","last_reported":1761541914,"current_range_meters":16400,"station_id":"ce4bhhh2rcd13ifvqfk0","pricing_plan_id":"cebpf4jnsgd1na2vs0mg"},{"bike_id":"7400daef-03b0-421b-8c4d-101835e0145f","system_id":"levelo_inurba_marseille","lat":43.29569,"lon":5.37505,"is_reserved":false,"is_disabled":true,"rental_uris":{"android":"levelo://app?vid=7400daef-03b0-421b-8c4d-101835e0145f","ios":"levelo://app?vid=7400daef-03b0-421b-8c4d-101835e0145f"},"vehicle_type_id":"4","last_reported":1761541914,"current_range_meters":16400,"station_id":"ce4bgh92rcd13ifvqb50","pricing_plan_id":"cebpf4jnsgd1na2vs0mg"},{"bike_id":"1b7829fd-c993-41fc-94f6-0cddf3da8a25","system_id":"levelo_inurba_marseille","lat":43.24812,"lon":5.37471,"is_reserved":false,"is_disabled":false,"rental_uris":{"android":"levelo://app?vid=1b7829fd-c993-41fc-94f6-0cddf3da8a25","ios":"levelo://app?vid=1b7829fd-c993-41fc-94f6-0cddf3da8a25"},"vehicle_type_id":"4","last_reported":1761541914,"current_range_meters":16400,"station_id":"ce4bhgh2rcd13ifvqfb0","pricing_plan_id":"cebpf4jnsgd1na2vs0mg"},{"bike_id":"fdc43030-5704-454e-ad42-cd94061c06a1","system_id":"levelo_inurba_marseille","lat":43.32117,"lon":5.36783,"is_reserved":false,"is_disabled":false,"rental_uris":{"android":"levelo://app?vid=fdc43030-5704-454e-ad42-cd94061c06a1","ios":"levelo://app?vid=fdc43030-5704-454e-ad42-cd94061c06a1"},"vehicle_type_id":"4","last_reported":1761541914,"current_range_meters":16400,"station_id":"ce4bhrh2rcd13ifvqhug","pricing_plan_id":"cebpf4jnsgd1na2vs0mg"},{"bike_id":"1880ebb9-7edb-463e-976b-226e958b9ebe","system_id":"levelo_inurba_marseille","lat":43.31097,"lon":5.37487,"is_reserved":false,"is_disabled":false,"rental_uris":{"android":"levelo://app?vid=1880ebb9-7edb-463e-976b-226e958b9ebe","ios":"levelo://app?vid=1880ebb9-7edb-463e-976b-226e958b9ebe"},"vehicle_type_id":"4","last_reported":1761541914,"current_range_meters":16800,"station_id":"ce4bgt12rcd13ifvqce0","pricing_plan_id":"cebpf4jnsgd1na2vs0mg"},{"bike_id":"93ef566c-0909-48d1-8deb-d11c9c5aea5b","system_id":"levelo_inurba_marseille","lat":43.323565,"lon":5.367447,"is_reserved":false,"is_disabled":false,"rental_uris":{"android":"levelo://app?vid=93ef566c-0909-48d1-8deb-d11c9c5aea5b","ios":"levelo://app?vid=93ef566c-0909-48d1-8deb-d11c9c5aea5b"},"vehicle_type_id":"4","last_reported":1761541914,"current_range_meters":16800,"station_id":"ce4bhsh2rcd13ifvqi2g","pricing_plan_id":"cebpf4jnsgd1na2vs0mg"},{"bike_id":"26a33dcf-50de-4561-a5e9-8254886f89ed","system_id":"levelo_inurba_marseille","lat":43.243193,"lon":5.391963,"is_reserved":false,"is_disabled":false,"rental_uris":{"android":"levelo://app?vid=26a33dcf-50de-4561-a5e9-8254886f89ed","ios":"levelo://app?vid=26a33dcf-50de-4561-a5e9-8254886f89ed"},"vehicle_type_id":"4","last_reported":1761541914,"current_range_meters":16800,"station_id":"","pricing_plan_id":"cebpf4jnsgd1na2vs0mg"},{"bike_id":"9d8ebc8c-f00c-42c5-a2de-7f9b8c36d074","system_id":"levelo_inurba_marseille","lat":43.26686,"lon":5.38272,"is_reserved":false,"is_disabled":false,"rental_uris":{"android":"levelo://app?vid=9d8ebc8c-f00c-42c5-a2de-7f9b8c36d074","ios":"levelo://app?vid=9d8ebc8c-f00c-42c5-a2de-7f9b8c36d074"},"vehicle_type_id":"4","last_reported":1761541914,"current_range_meters":16800,"station_id":"ce4bhg92rcd13ifvqf90","pricing_plan_id":"cebpf4jnsgd1na2vs0mg"},{"bike_id":"3a92b650-23af-469d-bef0-ec6278979c33","system_id":"levelo_inurba_marseille","lat":43.259394,"lon":5.409076,"is_reserved":false,"is_disabled":false,"rental_uris":{"android":"levelo://app?vid=3a92b650-23af-469d-bef0-ec6278979c33","ios":"levelo://app?vid=3a92b650-23af-469d-bef0-ec6278979c33"},"vehicle_type_id":"4","last_reported":1761541914,"current_range_meters":16800,"station_id":"ce4bhm92rcd13ifvqglg","pricing_plan_id":"cebpf4jnsgd1na2vs0mg"},{"bike_id":"f1875d0f-b239-4abc-ba84-3f75c251c7fb","system_id":"levelo_inurba_marseille","lat":43.243943,"lon":5.370602,"is_reserved":false,"is_disabled":false,"rental_uris":{"android":"levelo://app?vid=f1875d0f-b239-4abc-ba84-3f75c251c7fb","ios":"levelo://app?vid=f1875d0f-b239-4abc-ba84-3f75c251c7fb"},"vehicle_type_id":"4","last_reported":1761541914,"current_range_meters":16800,"station_id":"ce4bhhh2rcd13ifvqfk0","pricing_plan_id":"cebpf4jnsgd1na2vs0mg"},{"bike_id":"a3742816-3b43-434e-9db0-9ab9379fa4b3","system_id":"levelo_inurba_marseille","lat":43.27396,"lon":5.36258,"is_reserved":false,"is_disabled":true,"rental_uris":{"android":"levelo://app?vid=a3742816-3b43-434e-9db0-9ab9379fa4b3","ios":"levelo://app?vid=a3742816-3b43-434e-9db0-9ab9379fa4b3"},"vehicle_type_id":"4","last_reported":1761541914,"current_range_meters":17200,"station_id":"ce4bhbh2rcd13ifvqeo0","pricing_plan_id":"cebpf4jnsgd1na2vs0mg"},{"bike_id":"73e3d00c-eed9-4474-8470-2701da8f5335","system_id":"levelo_inurba_marseille","lat":43.257354,"lon":5.410347,"is_reserved":false,"is_disabled":false,"rental_uris":{"android":"levelo://app?vid=73e3d00c-eed9-4474-8470-2701da8f5335","ios":"levelo://app?vid=73e3d00c-eed9-4474-8470-2701da8f5335"},"vehicle_type_id":"4","last_reported":1761541914,"current_range_meters":17200,"station_id":"","pricing_plan_id":"cebpf4jnsgd1na2vs0mg"},{"bike_id":"476935e3-9dbc-4f99-ad18-cd0aab695fa4","system_id":"levelo_inurba_marseille","lat":43.28992,"lon":5.37864,"is_reserved":false,"is_disabled":false,"rental_uris":{"android":"levelo://app?vid=476935e3-9dbc-4f99-ad18-cd0aab695fa4","ios":"levelo://app?vid=476935e3-9dbc-4f99-ad18-cd0aab695fa4"},"vehicle_type_id":"4","last_reported":1761541914,"current_range_meters":17200,"station_id":"ce4bh9p2rcd13ifvqed0","pricing_plan_id":"cebpf4jnsgd1na2vs0mg"},{"bike_id":"a507e789-f440-40a8-85cf-09841d81676c","system_id":"levelo_inurba_marseille","lat":43.22543,"lon":5.34839,"is_reserved":false,"is_disabled":false,"rental_uris":{"android":"levelo://app?vid=a507e789-f440-40a8-85cf-09841d81676c","ios":"levelo://app?vid=a507e789-f440-40a8-85cf-09841d81676c"},"vehicle_type_id":"4","last_reported":1761541914,"current_range_meters":17200,"station_id":"","pricing_plan_id":"cebpf4jnsgd1na2vs0mg"},{"bike_id":"596e07e5-ee28-4f19-90c1-99ddc246077a","system_id":"levelo_inurba_marseille","lat":43.29763,"lon":5.42809,"is_reserved":false,"is_disabled":false,"rental_uris":{"android":"levelo://app?vid=596e07e5-ee28-4f19-90c1-99ddc246077a","ios":"levelo://app?vid=596e07e5-ee28-4f19-90c1-99ddc246077a"},"vehicle_type_id":"4","last_reported":1761541914,"current_range_meters":17200,"station_id":"st_d3md5207bmas73dh9klg","pricing_plan_id":"cebpf4jnsgd1na2vs0mg"},{"bike_id":"5837d1ef-6ff3-4b6b-9d0b-6fb51011d077","system_id":"levelo_inurba_marseille","lat":43.27416,"lon":5.39355,"is_reserved":false,"is_disabled":true,"rental_uris":{"android":"levelo://app?vid=5837d1ef-6ff3-4b6b-9d0b-6fb51011d077","ios":"levelo://app?vid=5837d1ef-6ff3-4b6b-9d0b-6fb51011d077"},"vehicle_type_id":"4","last_reported":1761541914,"current_range_meters":17200,"station_id":"ce4bhdp2rcd13ifvqf20","pricing_plan_id":"cebpf4jnsgd1na2vs0mg"},{"bike_id":"a3100ff0-76ab-498b-bebf-b9c52f3d2538","system_id":"levelo_inurba_marseille","lat":43.28478,"lon":5.48405,"is_reserved":false,"is_disabled":false,"rental_uris":{"android":"levelo://app?vid=a3100ff0-76ab-498b-bebf-b9c52f3d2538","ios":"levelo://app?vid=a3100ff0-76ab-498b-bebf-b9c52f3d2538"},"vehicle_type_id":"4","last_reported":1761541914,"current_range_meters":17200,"station_id":"","pricing_plan_id":"cebpf4jnsgd1na2vs0mg"},{"bike_id":"f41a6845-02a5-45fd-8f67-03fd68d78092","system_id":"levelo_inurba_marseille","lat":43.297485,"lon":5.427866,"is_reserved":false,"is_disabled":false,"rental_uris":{"android":"levelo://app?vid=f41a6845-02a5-45fd-8f67-03fd68d78092","ios":"levelo://app?vid=f41a6845-02a5-45fd-8f67-03fd68d78092"},"vehicle_type_id":"4","last_reported":1761541914,"current_range_meters":17200,"station_id":"st_d3md5207bmas73dh9klg","pricing_plan_id":"cebpf4jnsgd1na2vs0mg"},{"bike_id":"ef288cbe-7cba-42b1-a29d-3887ae94b1a4","system_id":"levelo_inurba_marseille","lat":43.249501,"lon":5.404962,"is_reserved":false,"is_disabled":false,"rental_uris":{"android":"levelo://app?vid=ef288cbe-7cba-42b1-a29d-3887ae94b1a4","ios":"levelo://app?vid=ef288cbe-7cba-42b1-a29d-3887ae94b1a4"},"vehicle_type_id":"4","last_reported":1761541914,"current_range_meters":17200,"station_id":"st_d2ngiaodas8pm72gd1h0","pricing_plan_id":"cebpf4jnsgd1na2vs0mg"},{"bike_id":"95f84cec-13a4-42cd-9ff7-5a96f698a513","system_id":"levelo_inurba_marseille","lat":43.26219,"lon":5.404453,"is_reserved":false,"is_disabled":false,"rental_uris":{"android":"levelo://app?vid=95f84cec-13a4-42cd-9ff7-5a96f698a513","ios":"levelo://app?vid=95f84cec-13a4-42cd-9ff7-5a96f698a513"},"vehicle_type_id":"4","last_reported":1761541914,"current_range_meters":17200,"station_id":"ce4bhmh2rcd13ifvqgmg","pricing_plan_id":"cebpf4jnsgd1na2vs0mg"},{"bike_id":"e241284f-dd10-41c7-b47c-b2870121fbda","system_id":"levelo_inurba_marseille","lat":43.28712,"lon":5.39988,"is_reserved":false,"is_disabled":false,"rental_uris":{"android":"levelo://app?vid=e241284f-dd10-41c7-b47c-b2870121fbda","ios":"levelo://app?vid=e241284f-dd10-41c7-b47c-b2870121fbda"},"vehicle_type_id":"4","last_reported":1761541914,"current_range_meters":17600,"station_id":"ce4bho92rcd13ifvqh3g","pricing_plan_id":"cebpf4jnsgd1na2vs0mg"},{"bike_id":"4deb5bd9-ae3e-4e9e-abaa-9610cfe6cd59","system_id":"levelo_inurba_marseille","lat":43.24076,"lon":5.37772,"is_reserved":false,"is_disabled":false,"rental_uris":{"android":"levelo://app?vid=4deb5bd9-ae3e-4e9e-abaa-9610cfe6cd59","ios":"levelo://app?vid=4deb5bd9-ae3e-4e9e-abaa-9610cfe6cd59"},"vehicle_type_id":"4","last_reported":1761541914,"current_range_meters":17600,"station_id":"ce4bhnp2rcd13ifvqgvg","pricing_plan_id":"cebpf4jnsgd1na2vs0mg"},{"bike_id":"dc71290a-91a8-4c55-90ec-5063d599e747","system_id":"levelo_inurba_marseille","lat":43.25833,"lon":5.39435,"is_reserved":false,"is_disabled":false,"rental_uris":{"android":"levelo://app?vid=dc71290a-91a8-4c55-90ec-5063d599e747","ios":"levelo://app?vid=dc71290a-91a8-4c55-90ec-5063d599e747"},"vehicle_type_id":"4","last_reported":1761541914,"current_range_meters":17600,"station_id":"ce4bhip2rcd13ifvqft0","pricing_plan_id":"cebpf4jnsgd1na2vs0mg"},{"bike_id":"823067ee-e31f-43eb-8881-ad749ebfd8b0","system_id":"levelo_inurba_marseille","lat":43.29678,"lon":5.37292,"is_reserved":false,"is_disabled":false,"rental_uris":{"android":"levelo://app?vid=823067ee-e31f-43eb-8881-ad749ebfd8b0","ios":"levelo://app?vid=823067ee-e31f-43eb-8881-ad749ebfd8b0"},"vehicle_type_id":"4","last_reported":1761541914,"current_range_meters":17600,"station_id":"ce4bgk12rcd13ifvqbj0","pricing_plan_id":"cebpf4jnsgd1na2vs0mg"},{"bike_id":"21dbf7f2-eb19-4663-b1c0-879822879492","system_id":"levelo_inurba_marseille","lat":43.337619,"lon":5.374425,"is_reserved":false,"is_disabled":false,"rental_uris":{"android":"levelo://app?vid=21dbf7f2-eb19-4663-b1c0-879822879492","ios":"levelo://app?vid=21dbf7f2-eb19-4663-b1c0-879822879492"},"vehicle_type_id":"4","last_reported":1761541914,"current_range_meters":17600,"station_id":"","pricing_plan_id":"cebpf4jnsgd1na2vs0mg"},{"bike_id":"3b89f73b-2d88-47ee-a83f-e5f58bbf6a2f","system_id":"levelo_inurba_marseille","lat":43.23185,"lon":5.35569,"is_reserved":false,"is_disabled":false,"rental_uris":{"android":"levelo://app?vid=3b89f73b-2d88-47ee-a83f-e5f58bbf6a2f","ios":"levelo://app?vid=3b89f73b-2d88-47ee-a83f-e5f58bbf6a2f"},"vehicle_type_id":"4","last_reported":1761541914,"current_range_meters":17600,"station_id":"ce4bhu92rcd13ifvqi70","pricing_plan_id":"cebpf4jnsgd1na2vs0mg"},{"bike_id":"b689a5bf-875d-4ab1-9212-a71e85899faa","system_id":"levelo_inurba_marseille","lat":43.29747,"lon":5.42775,"is_reserved":false,"is_disabled":false,"rental_uris":{"android":"levelo://app?vid=b689a5bf-875d-4ab1-9212-a71e85899faa","ios":"levelo://app?vid=b689a5bf-875d-4ab1-9212-a71e85899faa"},"vehicle_type_id":"4","last_reported":1761541914,"current_range_meters":18000,"station_id":"st_d3md5207bmas73dh9klg","pricing_plan_id":"cebpf4jnsgd1na2vs0mg"},{"bike_id":"bb3d6f43-fe8d-4027-a7f4-02cf8b0450bf","system_id":"levelo_inurba_marseille","lat":43.28845,"lon":5.35858,"is_reserved":false,"is_disabled":true,"rental_uris":{"android":"levelo://app?vid=bb3d6f43-fe8d-4027-a7f4-02cf8b0450bf","ios":"levelo://app?vid=bb3d6f43-fe8d-4027-a7f4-02cf8b0450bf"},"vehicle_type_id":"4","last_reported":1761541914,"current_range_meters":18000,"station_id":"ce4bhb12rcd13ifvqem0","pricing_plan_id":"cebpf4jnsgd1na2vs0mg"},{"bike_id":"a045f864-d0f0-4dc6-b247-3f30f5eb7421","system_id":"levelo_inurba_marseille","lat":43.28521,"lon":5.44103,"is_reserved":false,"is_disabled":false,"rental_uris":{"android":"levelo://app?vid=a045f864-d0f0-4dc6-b247-3f30f5eb7421","ios":"levelo://app?vid=a045f864-d0f0-4dc6-b247-3f30f5eb7421"},"vehicle_type_id":"4","last_reported":1761541914,"current_range_meters":18000,"station_id":"st_d3j3df2ikq2c7380ej80","pricing_plan_id":"cebpf4jnsgd1na2vs0mg"},{"bike_id":"eea3c3c3-734f-4fd3-8061-ed84cfe47b38","system_id":"levelo_inurba_marseille","lat":43.32568,"lon":5.39142,"is_reserved":false,"is_disabled":false,"rental_uris":{"android":"levelo://app?vid=eea3c3c3-734f-4fd3-8061-ed84cfe47b38","ios":"levelo://app?vid=eea3c3c3-734f-4fd3-8061-ed84cfe47b38"},"vehicle_type_id":"4","last_reported":1761541914,"current_range_meters":18000,"station_id":"","pricing_plan_id":"cebpf4jnsgd1na2vs0mg"},{"bike_id":"b5776598-3fe1-4bb8-9115-dc33c053afbd","system_id":"levelo_inurba_marseille","lat":43.29189,"lon":5.35793,"is_reserved":false,"is_disabled":true,"rental_uris":{"android":"levelo://app?vid=b5776598-3fe1-4bb8-9115-dc33c053afbd","ios":"levelo://app?vid=b5776598-3fe1-4bb8-9115-dc33c053afbd"},"vehicle_type_id":"4","last_reported":1761541914,"current_range_meters":18000,"station_id":"ce4bhb12rcd13ifvqel0","pricing_plan_id":"cebpf4jnsgd1na2vs0mg"},{"bike_id":"47b9c6f5-e579-44eb-821e-1c338d86ca30","system_id":"levelo_inurba_marseille","lat":43.24391,"lon":5.3707,"is_reserved":false,"is_disabled":false,"rental_uris":{"android":"levelo://app?vid=47b9c6f5-e579-44eb-821e-1c338d86ca30","ios":"levelo://app?vid=47b9c6f5-e579-44eb-821e-1c338d86ca30"},"vehicle_type_id":"4","last_reported":1761541914,"current_range_meters":18800,"station_id":"ce4bhhh2rcd13ifvqfk0","pricing_plan_id":"cebpf4jnsgd1na2vs0mg"},{"bike_id":"3b262579-ea09-4887-8501-682312a582d3","system_id":"levelo_inurba_marseille","lat":43.31173,"lon":5.39354,"is_reserved":false,"is_disabled":false,"rental_uris":{"android":"levelo://app?vid=3b262579-ea09-4887-8501-682312a582d3","ios":"levelo://app?vid=3b262579-ea09-4887-8501-682312a582d3"},"vehicle_type_id":"4","last_reported":1761541914,"current_range_meters":18800,"station_id":"","pricing_plan_id":"cebpf4jnsgd1na2vs0mg"},{"bike_id":"d3de69c4-3653-4bea-a64e-e361e1273274","system_id":"levelo_inurba_marseille","lat":43.28977,"lon":5.37846,"is_reserved":false,"is_disabled":false,"rental_uris":{"android":"levelo://app?vid=d3de69c4-3653-4bea-a64e-e361e1273274","ios":"levelo://app?vid=d3de69c4-3653-4bea-a64e-e361e1273274"},"vehicle_type_id":"4","last_reported":1761541914,"current_range_meters":18800,"station_id":"ce4bh9p2rcd13ifvqed0","pricing_plan_id":"cebpf4jnsgd1na2vs0mg"},{"bike_id":"664b2b0e-9fa2-495b-bb23-e7de9ca7106f","system_id":"levelo_inurba_marseille","lat":43.27665,"lon":5.38899,"is_reserved":false,"is_disabled":false,"rental_uris":{"android":"levelo://app?vid=664b2b0e-9fa2-495b-bb23-e7de9ca7106f","ios":"levelo://app?vid=664b2b0e-9fa2-495b-bb23-e7de9ca7106f"},"vehicle_type_id":"4","last_reported":1761541914,"current_range_meters":18800,"station_id":"ce4bhi12rcd13ifvqfo0","pricing_plan_id":"cebpf4jnsgd1na2vs0mg"},{"bike_id":"f50925f6-3136-48bd-95d2-23b8cbaf4a2a","system_id":"levelo_inurba_marseille","lat":43.31538,"lon":5.38024,"is_reserved":false,"is_disabled":false,"rental_uris":{"android":"levelo://app?vid=f50925f6-3136-48bd-95d2-23b8cbaf4a2a","ios":"levelo://app?vid=f50925f6-3136-48bd-95d2-23b8cbaf4a2a"},"vehicle_type_id":"4","last_reported":1761541914,"current_range_meters":18800,"station_id":"ce4bhsp2rcd13ifvqi50","pricing_plan_id":"cebpf4jnsgd1na2vs0mg"},{"bike_id":"68685cfb-0a0a-4822-b6cc-910397a0de67","system_id":"levelo_inurba_marseille","lat":43.273709,"lon":5.362452,"is_reserved":false,"is_disabled":false,"rental_uris":{"android":"levelo://app?vid=68685cfb-0a0a-4822-b6cc-910397a0de67","ios":"levelo://app?vid=68685cfb-0a0a-4822-b6cc-910397a0de67"},"vehicle_type_id":"4","last_reported":1761541914,"current_range_meters":18800,"station_id":"ce4bhbh2rcd13ifvqeo0","pricing_plan_id":"cebpf4jnsgd1na2vs0mg"},{"bike_id":"3bf4bf69-e6ad-4b25-af40-141c302f6dc8","system_id":"levelo_inurba_marseille","lat":43.33359,"lon":5.40132,"is_reserved":false,"is_disabled":false,"rental_uris":{"android":"levelo://app?vid=3bf4bf69-e6ad-4b25-af40-141c302f6dc8","ios":"levelo://app?vid=3bf4bf69-e6ad-4b25-af40-141c302f6dc8"},"vehicle_type_id":"4","last_reported":1761541914,"current_range_meters":18800,"station_id":"","pricing_plan_id":"cebpf4jnsgd1na2vs0mg"},{"bike_id":"3a277ae7-6d18-42e0-86f0-37583a215dc1","system_id":"levelo_inurba_marseille","lat":43.24167,"lon":5.39726,"is_reserved":false,"is_disabled":false,"rental_uris":{"android":"levelo://app?vid=3a277ae7-6d18-42e0-86f0-37583a215dc1","ios":"levelo://app?vid=3a277ae7-6d18-42e0-86f0-37583a215dc1"},"vehicle_type_id":"4","last_reported":1761541914,"current_range_meters":19200,"station_id":"ce4bhn12rcd13ifvqgpg","pricing_plan_id":"cebpf4jnsgd1na2vs0mg"},{"bike_id":"376f37db-9367-433a-9ac4-7f57991dd845","system_id":"levelo_inurba_marseille","lat":43.32093,"lon":5.36745,"is_reserved":false,"is_disabled":false,"rental_uris":{"android":"levelo://app?vid=376f37db-9367-433a-9ac4-7f57991dd845","ios":"levelo://app?vid=376f37db-9367-433a-9ac4-7f57991dd845"},"vehicle_type_id":"4","last_reported":1761541914,"current_range_meters":19200,"station_id":"ce4bhrh2rcd13ifvqhug","pricing_plan_id":"cebpf4jnsgd1na2vs0mg"},{"bike_id":"0709da96-3569-4b3f-9bc8-3bb4680af42a","system_id":"levelo_inurba_marseille","lat":43.31538,"lon":5.37306,"is_reserved":false,"is_disabled":false,"rental_uris":{"android":"levelo://app?vid=0709da96-3569-4b3f-9bc8-3bb4680af42a","ios":"levelo://app?vid=0709da96-3569-4b3f-9bc8-3bb4680af42a"},"vehicle_type_id":"4","last_reported":1761541914,"current_range_meters":19200,"station_id":"","pricing_plan_id":"cebpf4jnsgd1na2vs0mg"},{"bike_id":"139efc5d-f6d6-4cca-9839-f711bb3eed39","system_id":"levelo_inurba_marseille","lat":43.294969,"lon":5.433081,"is_reserved":false,"is_disabled":false,"rental_uris":{"android":"levelo://app?vid=139efc5d-f6d6-4cca-9839-f711bb3eed39","ios":"levelo://app?vid=139efc5d-f6d6-4cca-9839-f711bb3eed39"},"vehicle_type_id":"4","last_reported":1761541914,"current_range_meters":19200,"station_id":"st_d3j5ugp08ojc73fj9d10","pricing_plan_id":"cebpf4jnsgd1na2vs0mg"},{"bike_id":"04307d0f-f073-4f8f-938f-a48d20c77d7d","system_id":"levelo_inurba_marseille","lat":43.3047,"lon":5.37924,"is_reserved":false,"is_disabled":false,"rental_uris":{"android":"levelo://app?vid=04307d0f-f073-4f8f-938f-a48d20c77d7d","ios":"levelo://app?vid=04307d0f-f073-4f8f-938f-a48d20c77d7d"},"vehicle_type_id":"4","last_reported":1761541914,"current_range_meters":19200,"station_id":"ce4bgup2rcd13ifvqcn0","pricing_plan_id":"cebpf4jnsgd1na2vs0mg"},{"bike_id":"348adbc7-486b-4945-809f-b1c145885f32","system_id":"levelo_inurba_marseille","lat":43.30159,"lon":5.38077,"is_reserved":false,"is_disabled":false,"rental_uris":{"android":"levelo://app?vid=348adbc7-486b-4945-809f-b1c145885f32","ios":"levelo://app?vid=348adbc7-486b-4945-809f-b1c145885f32"},"vehicle_type_id":"4","last_reported":1761541914,"current_range_meters":19600,"station_id":"ce4bgjp2rcd13ifvqbh0","pricing_plan_id":"cebpf4jnsgd1na2vs0mg"},{"bike_id":"3d404fa0-b246-4bc4-a95a-ce70a8564f4b","system_id":"levelo_inurba_marseille","lat":43.26579,"lon":5.39015,"is_reserved":false,"is_disabled":false,"rental_uris":{"android":"levelo://app?vid=3d404fa0-b246-4bc4-a95a-ce70a8564f4b","ios":"levelo://app?vid=3d404fa0-b246-4bc4-a95a-ce70a8564f4b"},"vehicle_type_id":"4","last_reported":1761541914,"current_range_meters":19600,"station_id":"ce4bhe12rcd13ifvqf30","pricing_plan_id":"cebpf4jnsgd1na2vs0mg"},{"bike_id":"c0e68fa7-ffc3-4f1c-a337-840f47c0001d","system_id":"levelo_inurba_marseille","lat":43.29743,"lon":5.37881,"is_reserved":false,"is_disabled":false,"rental_uris":{"android":"levelo://app?vid=c0e68fa7-ffc3-4f1c-a337-840f47c0001d","ios":"levelo://app?vid=c0e68fa7-ffc3-4f1c-a337-840f47c0001d"},"vehicle_type_id":"4","last_reported":1761541914,"current_range_meters":19600,"station_id":"","pricing_plan_id":"cebpf4jnsgd1na2vs0mg"},{"bike_id":"b26cd7c8-40e3-4523-a7ec-26cc92877625","system_id":"levelo_inurba_marseille","lat":43.317045,"lon":5.404455,"is_reserved":false,"is_disabled":true,"rental_uris":{"android":"levelo://app?vid=b26cd7c8-40e3-4523-a7ec-26cc92877625","ios":"levelo://app?vid=b26cd7c8-40e3-4523-a7ec-26cc92877625"},"vehicle_type_id":"4","last_reported":1761541914,"current_range_meters":19600,"station_id":"ce4bh012rcd13ifvqd00","pricing_plan_id":"cebpf4jnsgd1na2vs0mg"},{"bike_id":"24847797-a289-416b-9101-a4e72c91f2d9","system_id":"levelo_inurba_marseille","lat":43.27948,"lon":5.410442,"is_reserved":false,"is_disabled":false,"rental_uris":{"android":"levelo://app?vid=24847797-a289-416b-9101-a4e72c91f2d9","ios":"levelo://app?vid=24847797-a289-416b-9101-a4e72c91f2d9"},"vehicle_type_id":"4","last_reported":1761541914,"current_range_meters":19600,"station_id":"ce4bhnp2rcd13ifvqh0g","pricing_plan_id":"cebpf4jnsgd1na2vs0mg"},{"bike_id":"a630ed88-3f05-4926-bbab-8387ab6b6a28","system_id":"levelo_inurba_marseille","lat":43.231592,"lon":5.437007,"is_reserved":false,"is_disabled":true,"rental_uris":{"android":"levelo://app?vid=a630ed88-3f05-4926-bbab-8387ab6b6a28","ios":"levelo://app?vid=a630ed88-3f05-4926-bbab-8387ab6b6a28"},"vehicle_type_id":"4","last_reported":1761541914,"current_range_meters":19600,"station_id":"ce4bhmp2rcd13ifvqgog","pricing_plan_id":"cebpf4jnsgd1na2vs0mg"},{"bike_id":"b9de4b3b-e696-4034-b63a-fee9167aaa81","system_id":"levelo_inurba_marseille","lat":43.283623,"lon":5.38634,"is_reserved":false,"is_disabled":false,"rental_uris":{"android":"levelo://app?vid=b9de4b3b-e696-4034-b63a-fee9167aaa81","ios":"levelo://app?vid=b9de4b3b-e696-4034-b63a-fee9167aaa81"},"vehicle_type_id":"4","last_reported":1761541914,"current_range_meters":19600,"station_id":"ce4bh492rcd13ifvqdvg","pricing_plan_id":"cebpf4jnsgd1na2vs0mg"},{"bike_id":"2484d73d-0ed9-4aeb-b08e-8d8cbd56d7f7","system_id":"levelo_inurba_marseille","lat":43.312379,"lon":5.368484,"is_reserved":false,"is_disabled":false,"rental_uris":{"android":"levelo://app?vid=2484d73d-0ed9-4aeb-b08e-8d8cbd56d7f7","ios":"levelo://app?vid=2484d73d-0ed9-4aeb-b08e-8d8cbd56d7f7"},"vehicle_type_id":"4","last_reported":1761541914,"current_range_meters":20000,"station_id":"ce4bgr92rcd13ifvqc6g","pricing_plan_id":"cebpf4jnsgd1na2vs0mg"},{"bike_id":"0e2c1e4e-047d-47d6-926e-b2b86a534b28","system_id":"levelo_inurba_marseille","lat":43.27573,"lon":5.38436,"is_reserved":false,"is_disabled":true,"rental_uris":{"android":"levelo://app?vid=0e2c1e4e-047d-47d6-926e-b2b86a534b28","ios":"levelo://app?vid=0e2c1e4e-047d-47d6-926e-b2b86a534b28"},"vehicle_type_id":"4","last_reported":1761541914,"current_range_meters":20000,"station_id":"ce4bhh92rcd13ifvqfi0","pricing_plan_id":"cebpf4jnsgd1na2vs0mg"},{"bike_id":"56236bc4-f599-48c5-b372-4f77e5c2ad5a","system_id":"levelo_inurba_marseille","lat":43.32012,"lon":5.38159,"is_reserved":false,"is_disabled":false,"rental_uris":{"android":"levelo://app?vid=56236bc4-f599-48c5-b372-4f77e5c2ad5a","ios":"levelo://app?vid=56236bc4-f599-48c5-b372-4f77e5c2ad5a"},"vehicle_type_id":"4","last_reported":1761541914,"current_range_meters":20000,"station_id":"ce4bhr12rcd13ifvqhpg","pricing_plan_id":"cebpf4jnsgd1na2vs0mg"},{"bike_id":"0bc03145-6254-44ad-b440-d14151ed9122","system_id":"levelo_inurba_marseille","lat":43.28275,"lon":5.35063,"is_reserved":false,"is_disabled":true,"rental_uris":{"android":"levelo://app?vid=0bc03145-6254-44ad-b440-d14151ed9122","ios":"levelo://app?vid=0bc03145-6254-44ad-b440-d14151ed9122"},"vehicle_type_id":"4","last_reported":1761541914,"current_range_meters":20000,"station_id":"ce4bhbp2rcd13ifvqerg","pricing_plan_id":"cebpf4jnsgd1na2vs0mg"},{"bike_id":"e50b0e70-967e-4ffb-b70a-fefa22d6ff3c","system_id":"levelo_inurba_marseille","lat":43.295986,"lon":5.381004,"is_reserved":false,"is_disabled":false,"rental_uris":{"android":"levelo://app?vid=e50b0e70-967e-4ffb-b70a-fefa22d6ff3c","ios":"levelo://app?vid=e50b0e70-967e-4ffb-b70a-fefa22d6ff3c"},"vehicle_type_id":"4","last_reported":1761541914,"current_range_meters":20400,"station_id":"ce4bgl12rcd13ifvqbo0","pricing_plan_id":"cebpf4jnsgd1na2vs0mg"},{"bike_id":"a842b041-18cf-4485-acfb-044d2a1e1dc8","system_id":"levelo_inurba_marseille","lat":43.31126,"lon":5.37769,"is_reserved":false,"is_disabled":false,"rental_uris":{"android":"levelo://app?vid=a842b041-18cf-4485-acfb-044d2a1e1dc8","ios":"levelo://app?vid=a842b041-18cf-4485-acfb-044d2a1e1dc8"},"vehicle_type_id":"4","last_reported":1761541914,"current_range_meters":20400,"station_id":"ce4bgt92rcd13ifvqcg0","pricing_plan_id":"cebpf4jnsgd1na2vs0mg"},{"bike_id":"a5d64546-954c-424c-973b-99e4aef0ee97","system_id":"levelo_inurba_marseille","lat":43.285226,"lon":5.441078,"is_reserved":false,"is_disabled":false,"rental_uris":{"android":"levelo://app?vid=a5d64546-954c-424c-973b-99e4aef0ee97","ios":"levelo://app?vid=a5d64546-954c-424c-973b-99e4aef0ee97"},"vehicle_type_id":"4","last_reported":1761541914,"current_range_meters":20400,"station_id":"st_d3j3df2ikq2c7380ej80","pricing_plan_id":"cebpf4jnsgd1na2vs0mg"},{"bike_id":"22c660ad-ddf4-4958-a393-4acd861a2ace","system_id":"levelo_inurba_marseille","lat":43.28091,"lon":5.3779,"is_reserved":false,"is_disabled":false,"rental_uris":{"android":"levelo://app?vid=22c660ad-ddf4-4958-a393-4acd861a2ace","ios":"levelo://app?vid=22c660ad-ddf4-4958-a393-4acd861a2ace"},"vehicle_type_id":"4","last_reported":1761541914,"current_range_meters":20400,"station_id":"ce4bha12rcd13ifvqee0","pricing_plan_id":"cebpf4jnsgd1na2vs0mg"},{"bike_id":"c8dcc85a-374d-485f-be2b-9a26c0a0d357","system_id":"levelo_inurba_marseille","lat":43.24663,"lon":5.38176,"is_reserved":false,"is_disabled":false,"rental_uris":{"android":"levelo://app?vid=c8dcc85a-374d-485f-be2b-9a26c0a0d357","ios":"levelo://app?vid=c8dcc85a-374d-485f-be2b-9a26c0a0d357"},"vehicle_type_id":"4","last_reported":1761541914,"current_range_meters":20400,"station_id":"ce4bhih2rcd13ifvqfr0","pricing_plan_id":"cebpf4jnsgd1na2vs0mg"},{"bike_id":"d80381c1-49ce-405e-9d9b-7afcebd0ca96","system_id":"levelo_inurba_marseille","lat":43.231539,"lon":5.437082,"is_reserved":false,"is_disabled":false,"rental_uris":{"android":"levelo://app?vid=d80381c1-49ce-405e-9d9b-7afcebd0ca96","ios":"levelo://app?vid=d80381c1-49ce-405e-9d9b-7afcebd0ca96"},"vehicle_type_id":"4","last_reported":1761541914,"current_range_meters":20400,"station_id":"ce4bhmp2rcd13ifvqgog","pricing_plan_id":"cebpf4jnsgd1na2vs0mg"},{"bike_id":"d3234671-f1c5-494b-9d0d-79fc21af01c3","system_id":"levelo_inurba_marseille","lat":43.266871,"lon":5.382661,"is_reserved":false,"is_disabled":false,"rental_uris":{"android":"levelo://app?vid=d3234671-f1c5-494b-9d0d-79fc21af01c3","ios":"levelo://app?vid=d3234671-f1c5-494b-9d0d-79fc21af01c3"},"vehicle_type_id":"4","last_reported":1761541914,"current_range_meters":20800,"station_id":"ce4bhg92rcd13ifvqf90","pricing_plan_id":"cebpf4jnsgd1na2vs0mg"},{"bike_id":"310e927d-d5b8-4a6f-82be-2d623690659d","system_id":"levelo_inurba_marseille","lat":43.312767,"lon":5.377556,"is_reserved":false,"is_disabled":false,"rental_uris":{"android":"levelo://app?vid=310e927d-d5b8-4a6f-82be-2d623690659d","ios":"levelo://app?vid=310e927d-d5b8-4a6f-82be-2d623690659d"},"vehicle_type_id":"4","last_reported":1761541914,"current_range_meters":20800,"station_id":"","pricing_plan_id":"cebpf4jnsgd1na2vs0mg"},{"bike_id":"0eba6aaf-0f3e-41dd-9c79-653cec9f8cca","system_id":"levelo_inurba_marseille","lat":43.337444,"lon":5.374475,"is_reserved":false,"is_disabled":true,"rental_uris":{"android":"levelo://app?vid=0eba6aaf-0f3e-41dd-9c79-653cec9f8cca","ios":"levelo://app?vid=0eba6aaf-0f3e-41dd-9c79-653cec9f8cca"},"vehicle_type_id":"4","last_reported":1761541914,"current_range_meters":20800,"station_id":"","pricing_plan_id":"cebpf4jnsgd1na2vs0mg"},{"bike_id":"5bf1d53c-ec33-4c37-a9e8-ddc272de2081","system_id":"levelo_inurba_marseille","lat":43.28416,"lon":5.37516,"is_reserved":false,"is_disabled":true,"rental_uris":{"android":"levelo://app?vid=5bf1d53c-ec33-4c37-a9e8-ddc272de2081","ios":"levelo://app?vid=5bf1d53c-ec33-4c37-a9e8-ddc272de2081"},"vehicle_type_id":"4","last_reported":1761541914,"current_range_meters":20800,"station_id":"ce4bh412rcd13ifvqds0","pricing_plan_id":"cebpf4jnsgd1na2vs0mg"},{"bike_id":"2be3bf9b-39f4-4c37-8c01-9e9bcabe1c53","system_id":"levelo_inurba_marseille","lat":43.33741,"lon":5.37444,"is_reserved":false,"is_disabled":false,"rental_uris":{"android":"levelo://app?vid=2be3bf9b-39f4-4c37-8c01-9e9bcabe1c53","ios":"levelo://app?vid=2be3bf9b-39f4-4c37-8c01-9e9bcabe1c53"},"vehicle_type_id":"4","last_reported":1761541914,"current_range_meters":20800,"station_id":"","pricing_plan_id":"cebpf4jnsgd1na2vs0mg"},{"bike_id":"73b1a924-adcb-44bd-9f7f-ab5ff3fc33e5","system_id":"levelo_inurba_marseille","lat":43.2842,"lon":5.3754,"is_reserved":false,"is_disabled":false,"rental_uris":{"android":"levelo://app?vid=73b1a924-adcb-44bd-9f7f-ab5ff3fc33e5","ios":"levelo://app?vid=73b1a924-adcb-44bd-9f7f-ab5ff3fc33e5"},"vehicle_type_id":"4","last_reported":1761541914,"current_range_meters":20800,"station_id":"ce4bh412rcd13ifvqds0","pricing_plan_id":"cebpf4jnsgd1na2vs0mg"},{"bike_id":"8c71c05b-dd29-470b-8b05-4159f459865a","system_id":"levelo_inurba_marseille","lat":43.27666,"lon":5.38895,"is_reserved":false,"is_disabled":false,"rental_uris":{"android":"levelo://app?vid=8c71c05b-dd29-470b-8b05-4159f459865a","ios":"levelo://app?vid=8c71c05b-dd29-470b-8b05-4159f459865a"},"vehicle_type_id":"4","last_reported":1761541914,"current_range_meters":20800,"station_id":"ce4bhi12rcd13ifvqfo0","pricing_plan_id":"cebpf4jnsgd1na2vs0mg"},{"bike_id":"e6ff686b-fdd8-459a-a005-5a7d4a85cd20","system_id":"levelo_inurba_marseille","lat":43.31122,"lon":5.377608,"is_reserved":false,"is_disabled":false,"rental_uris":{"android":"levelo://app?vid=e6ff686b-fdd8-459a-a005-5a7d4a85cd20","ios":"levelo://app?vid=e6ff686b-fdd8-459a-a005-5a7d4a85cd20"},"vehicle_type_id":"4","last_reported":1761541914,"current_range_meters":20800,"station_id":"ce4bgt92rcd13ifvqcg0","pricing_plan_id":"cebpf4jnsgd1na2vs0mg"},{"bike_id":"a9b127eb-e793-4968-9f63-128588c267f1","system_id":"levelo_inurba_marseille","lat":43.253349,"lon":5.42167,"is_reserved":false,"is_disabled":false,"rental_uris":{"android":"levelo://app?vid=a9b127eb-e793-4968-9f63-128588c267f1","ios":"levelo://app?vid=a9b127eb-e793-4968-9f63-128588c267f1"},"vehicle_type_id":"4","last_reported":1761541914,"current_range_meters":21600,"station_id":"st_d2m65c5bi1j21697t3ng","pricing_plan_id":"cebpf4jnsgd1na2vs0mg"},{"bike_id":"dccef0b1-edb3-49b5-866c-43e10e5763cc","system_id":"levelo_inurba_marseille","lat":43.28795,"lon":5.43853,"is_reserved":false,"is_disabled":false,"rental_uris":{"android":"levelo://app?vid=dccef0b1-edb3-49b5-866c-43e10e5763cc","ios":"levelo://app?vid=dccef0b1-edb3-49b5-866c-43e10e5763cc"},"vehicle_type_id":"4","last_reported":1761541914,"current_range_meters":21600,"station_id":"","pricing_plan_id":"cebpf4jnsgd1na2vs0mg"},{"bike_id":"5b695131-e4d3-42de-92db-42fa233a5063","system_id":"levelo_inurba_marseille","lat":43.29382,"lon":5.37846,"is_reserved":false,"is_disabled":true,"rental_uris":{"android":"levelo://app?vid=5b695131-e4d3-42de-92db-42fa233a5063","ios":"levelo://app?vid=5b695131-e4d3-42de-92db-42fa233a5063"},"vehicle_type_id":"4","last_reported":1761541914,"current_range_meters":21600,"station_id":"ce4bgjh2rcd13ifvqbf0","pricing_plan_id":"cebpf4jnsgd1na2vs0mg"},{"bike_id":"f568391f-b71f-4807-9099-53eb6b0dc22d","system_id":"levelo_inurba_marseille","lat":43.297729,"lon":5.381556,"is_reserved":false,"is_disabled":false,"rental_uris":{"android":"levelo://app?vid=f568391f-b71f-4807-9099-53eb6b0dc22d","ios":"levelo://app?vid=f568391f-b71f-4807-9099-53eb6b0dc22d"},"vehicle_type_id":"4","last_reported":1761541914,"current_range_meters":21600,"station_id":"","pricing_plan_id":"cebpf4jnsgd1na2vs0mg"},{"bike_id":"690096a5-5380-424a-b849-e63c3ae36400","system_id":"levelo_inurba_marseille","lat":43.23949,"lon":5.36624,"is_reserved":false,"is_disabled":false,"rental_uris":{"android":"levelo://app?vid=690096a5-5380-424a-b849-e63c3ae36400","ios":"levelo://app?vid=690096a5-5380-424a-b849-e63c3ae36400"},"vehicle_type_id":"4","last_reported":1761541914,"current_range_meters":21600,"station_id":"ce4bhi12rcd13ifvqfp0","pricing_plan_id":"cebpf4jnsgd1na2vs0mg"},{"bike_id":"ae8ebe94-fc0f-4409-8f77-39eb5c613a67","system_id":"levelo_inurba_marseille","lat":43.337444,"lon":5.374475,"is_reserved":false,"is_disabled":false,"rental_uris":{"android":"levelo://app?vid=ae8ebe94-fc0f-4409-8f77-39eb5c613a67","ios":"levelo://app?vid=ae8ebe94-fc0f-4409-8f77-39eb5c613a67"},"vehicle_type_id":"4","last_reported":1761541914,"current_range_meters":22000,"station_id":"","pricing_plan_id":"cebpf4jnsgd1na2vs0mg"},{"bike_id":"5ac00b75-65af-482e-b9da-3a4a7c434d3f","system_id":"levelo_inurba_marseille","lat":43.291981,"lon":5.358024,"is_reserved":false,"is_disabled":true,"rental_uris":{"android":"levelo://app?vid=5ac00b75-65af-482e-b9da-3a4a7c434d3f","ios":"levelo://app?vid=5ac00b75-65af-482e-b9da-3a4a7c434d3f"},"vehicle_type_id":"4","last_reported":1761541914,"current_range_meters":22000,"station_id":"","pricing_plan_id":"cebpf4jnsgd1na2vs0mg"},{"bike_id":"6f60b159-83c5-40f3-a1b0-7b6a6268dfa5","system_id":"levelo_inurba_marseille","lat":43.2916,"lon":5.356259,"is_reserved":false,"is_disabled":false,"rental_uris":{"android":"levelo://app?vid=6f60b159-83c5-40f3-a1b0-7b6a6268dfa5","ios":"levelo://app?vid=6f60b159-83c5-40f3-a1b0-7b6a6268dfa5"},"vehicle_type_id":"4","last_reported":1761541914,"current_range_meters":22000,"station_id":"","pricing_plan_id":"cebpf4jnsgd1na2vs0mg"},{"bike_id":"357bd21f-1e2c-4440-b83f-64c214c879a1","system_id":"levelo_inurba_marseille","lat":43.24807,"lon":5.37459,"is_reserved":false,"is_disabled":false,"rental_uris":{"android":"levelo://app?vid=357bd21f-1e2c-4440-b83f-64c214c879a1","ios":"levelo://app?vid=357bd21f-1e2c-4440-b83f-64c214c879a1"},"vehicle_type_id":"4","last_reported":1761541914,"current_range_meters":22000,"station_id":"ce4bhgh2rcd13ifvqfb0","pricing_plan_id":"cebpf4jnsgd1na2vs0mg"},{"bike_id":"a9d6f84c-7daf-4c59-adfe-f1faabb86893","system_id":"levelo_inurba_marseille","lat":43.32359,"lon":5.36753,"is_reserved":false,"is_disabled":false,"rental_uris":{"android":"levelo://app?vid=a9d6f84c-7daf-4c59-adfe-f1faabb86893","ios":"levelo://app?vid=a9d6f84c-7daf-4c59-adfe-f1faabb86893"},"vehicle_type_id":"4","last_reported":1761541914,"current_range_meters":22000,"station_id":"ce4bhsh2rcd13ifvqi2g","pricing_plan_id":"cebpf4jnsgd1na2vs0mg"},{"bike_id":"46292dbd-4a2f-46bb-964b-a4a3d10786f9","system_id":"levelo_inurba_marseille","lat":43.2481,"lon":5.37451,"is_reserved":false,"is_disabled":false,"rental_uris":{"android":"levelo://app?vid=46292dbd-4a2f-46bb-964b-a4a3d10786f9","ios":"levelo://app?vid=46292dbd-4a2f-46bb-964b-a4a3d10786f9"},"vehicle_type_id":"4","last_reported":1761541914,"current_range_meters":22400,"station_id":"ce4bhgh2rcd13ifvqfb0","pricing_plan_id":"cebpf4jnsgd1na2vs0mg"},{"bike_id":"d51679b5-f96a-4f61-b237-a552528523c4","system_id":"levelo_inurba_marseille","lat":43.32571,"lon":5.41479,"is_reserved":false,"is_disabled":false,"rental_uris":{"android":"levelo://app?vid=d51679b5-f96a-4f61-b237-a552528523c4","ios":"levelo://app?vid=d51679b5-f96a-4f61-b237-a552528523c4"},"vehicle_type_id":"4","last_reported":1761541914,"current_range_meters":22400,"station_id":"ce4bhq12rcd13ifvqhhg","pricing_plan_id":"cebpf4jnsgd1na2vs0mg"},{"bike_id":"dced2bcc-e95f-44ce-b7d8-7bb47def612a","system_id":"levelo_inurba_marseille","lat":43.21189,"lon":5.35092,"is_reserved":false,"is_disabled":false,"rental_uris":{"android":"levelo://app?vid=dced2bcc-e95f-44ce-b7d8-7bb47def612a","ios":"levelo://app?vid=dced2bcc-e95f-44ce-b7d8-7bb47def612a"},"vehicle_type_id":"4","last_reported":1761541914,"current_range_meters":22400,"station_id":"st_cvj6sg6p6f1abm77japg","pricing_plan_id":"cebpf4jnsgd1na2vs0mg"},{"bike_id":"e91497ec-f1f5-4be8-8ef1-5e8f52f7720b","system_id":"levelo_inurba_marseille","lat":43.283449,"lon":5.381045,"is_reserved":false,"is_disabled":false,"rental_uris":{"android":"levelo://app?vid=e91497ec-f1f5-4be8-8ef1-5e8f52f7720b","ios":"levelo://app?vid=e91497ec-f1f5-4be8-8ef1-5e8f52f7720b"},"vehicle_type_id":"4","last_reported":1761541914,"current_range_meters":22400,"station_id":"ce4bh412rcd13ifvqdr0","pricing_plan_id":"cebpf4jnsgd1na2vs0mg"},{"bike_id":"55ac339c-4813-4fb3-ae9e-0baca28d2223","system_id":"levelo_inurba_marseille","lat":43.262247,"lon":5.404539,"is_reserved":false,"is_disabled":false,"rental_uris":{"android":"levelo://app?vid=55ac339c-4813-4fb3-ae9e-0baca28d2223","ios":"levelo://app?vid=55ac339c-4813-4fb3-ae9e-0baca28d2223"},"vehicle_type_id":"4","last_reported":1761541914,"current_range_meters":22800,"station_id":"ce4bhmh2rcd13ifvqgmg","pricing_plan_id":"cebpf4jnsgd1na2vs0mg"},{"bike_id":"b7e10d7e-2622-41e8-bb4e-a5021bd8d7be","system_id":"levelo_inurba_marseille","lat":43.24492,"lon":5.41198,"is_reserved":false,"is_disabled":false,"rental_uris":{"android":"levelo://app?vid=b7e10d7e-2622-41e8-bb4e-a5021bd8d7be","ios":"levelo://app?vid=b7e10d7e-2622-41e8-bb4e-a5021bd8d7be"},"vehicle_type_id":"4","last_reported":1761541914,"current_range_meters":22800,"station_id":"","pricing_plan_id":"cebpf4jnsgd1na2vs0mg"},{"bike_id":"32d7653e-b033-4183-b4c0-f44169bb9067","system_id":"levelo_inurba_marseille","lat":43.32708,"lon":5.39224,"is_reserved":false,"is_disabled":false,"rental_uris":{"android":"levelo://app?vid=32d7653e-b033-4183-b4c0-f44169bb9067","ios":"levelo://app?vid=32d7653e-b033-4183-b4c0-f44169bb9067"},"vehicle_type_id":"4","last_reported":1761541914,"current_range_meters":22800,"station_id":"","pricing_plan_id":"cebpf4jnsgd1na2vs0mg"},{"bike_id":"8d770b66-37b0-4a65-9e33-d0f73df583d0","system_id":"levelo_inurba_marseille","lat":43.26498,"lon":5.39552,"is_reserved":false,"is_disabled":false,"rental_uris":{"android":"levelo://app?vid=8d770b66-37b0-4a65-9e33-d0f73df583d0","ios":"levelo://app?vid=8d770b66-37b0-4a65-9e33-d0f73df583d0"},"vehicle_type_id":"4","last_reported":1761541914,"current_range_meters":22800,"station_id":"ce4bhi12rcd13ifvqfq0","pricing_plan_id":"cebpf4jnsgd1na2vs0mg"},{"bike_id":"5e0dcb0a-429e-433d-8cd9-61b77dc6b5f0","system_id":"levelo_inurba_marseille","lat":43.27817,"lon":5.4068,"is_reserved":false,"is_disabled":false,"rental_uris":{"android":"levelo://app?vid=5e0dcb0a-429e-433d-8cd9-61b77dc6b5f0","ios":"levelo://app?vid=5e0dcb0a-429e-433d-8cd9-61b77dc6b5f0"},"vehicle_type_id":"4","last_reported":1761541914,"current_range_meters":22800,"station_id":"ce4bhnh2rcd13ifvqgtg","pricing_plan_id":"cebpf4jnsgd1na2vs0mg"},{"bike_id":"51a7e268-9562-4b96-8e84-f568b0acc7b7","system_id":"levelo_inurba_marseille","lat":43.247969,"lon":5.37456,"is_reserved":false,"is_disabled":false,"rental_uris":{"android":"levelo://app?vid=51a7e268-9562-4b96-8e84-f568b0acc7b7","ios":"levelo://app?vid=51a7e268-9562-4b96-8e84-f568b0acc7b7"},"vehicle_type_id":"4","last_reported":1761541914,"current_range_meters":23200,"station_id":"","pricing_plan_id":"cebpf4jnsgd1na2vs0mg"},{"bike_id":"bd15f4d0-ed31-4b49-a5e5-cda6208bc6b8","system_id":"levelo_inurba_marseille","lat":43.31878,"lon":5.39049,"is_reserved":false,"is_disabled":false,"rental_uris":{"android":"levelo://app?vid=bd15f4d0-ed31-4b49-a5e5-cda6208bc6b8","ios":"levelo://app?vid=bd15f4d0-ed31-4b49-a5e5-cda6208bc6b8"},"vehicle_type_id":"4","last_reported":1761541914,"current_range_meters":23200,"station_id":"","pricing_plan_id":"cebpf4jnsgd1na2vs0mg"},{"bike_id":"30b1827d-4b67-45fd-b720-302d29fb571b","system_id":"levelo_inurba_marseille","lat":43.23195,"lon":5.35537,"is_reserved":false,"is_disabled":false,"rental_uris":{"android":"levelo://app?vid=30b1827d-4b67-45fd-b720-302d29fb571b","ios":"levelo://app?vid=30b1827d-4b67-45fd-b720-302d29fb571b"},"vehicle_type_id":"4","last_reported":1761541914,"current_range_meters":23200,"station_id":"ce4bhu92rcd13ifvqi70","pricing_plan_id":"cebpf4jnsgd1na2vs0mg"},{"bike_id":"5f6c4fea-ada2-453b-9aa3-59bf116cef02","system_id":"levelo_inurba_marseille","lat":43.225341,"lon":5.348319,"is_reserved":false,"is_disabled":false,"rental_uris":{"android":"levelo://app?vid=5f6c4fea-ada2-453b-9aa3-59bf116cef02","ios":"levelo://app?vid=5f6c4fea-ada2-453b-9aa3-59bf116cef02"},"vehicle_type_id":"4","last_reported":1761541914,"current_range_meters":23200,"station_id":"","pricing_plan_id":"cebpf4jnsgd1na2vs0mg"},{"bike_id":"648e6b4c-2311-4e57-bb04-a635d9bedc39","system_id":"levelo_inurba_marseille","lat":43.253372,"lon":5.421586,"is_reserved":false,"is_disabled":false,"rental_uris":{"android":"levelo://app?vid=648e6b4c-2311-4e57-bb04-a635d9bedc39","ios":"levelo://app?vid=648e6b4c-2311-4e57-bb04-a635d9bedc39"},"vehicle_type_id":"4","last_reported":1761541914,"current_range_meters":23200,"station_id":"st_d2m65c5bi1j21697t3ng","pricing_plan_id":"cebpf4jnsgd1na2vs0mg"},{"bike_id":"d8baf629-5acc-4bd9-bc31-efbc77b5f0a4","system_id":"levelo_inurba_marseille","lat":43.28107,"lon":5.37886,"is_reserved":false,"is_disabled":false,"rental_uris":{"android":"levelo://app?vid=d8baf629-5acc-4bd9-bc31-efbc77b5f0a4","ios":"levelo://app?vid=d8baf629-5acc-4bd9-bc31-efbc77b5f0a4"},"vehicle_type_id":"4","last_reported":1761541914,"current_range_meters":23200,"station_id":"ce4bha12rcd13ifvqee0","pricing_plan_id":"cebpf4jnsgd1na2vs0mg"},{"bike_id":"914951f9-b4c0-4749-a4f3-cd14d9c6e55d","system_id":"levelo_inurba_marseille","lat":43.25017,"lon":5.38942,"is_reserved":false,"is_disabled":false,"rental_uris":{"android":"levelo://app?vid=914951f9-b4c0-4749-a4f3-cd14d9c6e55d","ios":"levelo://app?vid=914951f9-b4c0-4749-a4f3-cd14d9c6e55d"},"vehicle_type_id":"4","last_reported":1761541914,"current_range_meters":23200,"station_id":"ce4bhgp2rcd13ifvqfd0","pricing_plan_id":"cebpf4jnsgd1na2vs0mg"},{"bike_id":"49ed0d39-51fe-4cd4-8527-50556baa8749","system_id":"levelo_inurba_marseille","lat":43.225318,"lon":5.348308,"is_reserved":false,"is_disabled":false,"rental_uris":{"android":"levelo://app?vid=49ed0d39-51fe-4cd4-8527-50556baa8749","ios":"levelo://app?vid=49ed0d39-51fe-4cd4-8527-50556baa8749"},"vehicle_type_id":"4","last_reported":1761541914,"current_range_meters":23200,"station_id":"","pricing_plan_id":"cebpf4jnsgd1na2vs0mg"},{"bike_id":"66bb6106-955e-4c57-b3d3-6d5a011c7e82","system_id":"levelo_inurba_marseille","lat":43.2656,"lon":5.39016,"is_reserved":false,"is_disabled":false,"rental_uris":{"android":"levelo://app?vid=66bb6106-955e-4c57-b3d3-6d5a011c7e82","ios":"levelo://app?vid=66bb6106-955e-4c57-b3d3-6d5a011c7e82"},"vehicle_type_id":"4","last_reported":1761541914,"current_range_meters":24000,"station_id":"ce4bhe12rcd13ifvqf30","pricing_plan_id":"cebpf4jnsgd1na2vs0mg"},{"bike_id":"4224f927-6d41-415b-ad0c-4bd7e6d4a8a6","system_id":"levelo_inurba_marseille","lat":43.30005,"lon":5.37627,"is_reserved":false,"is_disabled":false,"rental_uris":{"android":"levelo://app?vid=4224f927-6d41-415b-ad0c-4bd7e6d4a8a6","ios":"levelo://app?vid=4224f927-6d41-415b-ad0c-4bd7e6d4a8a6"},"vehicle_type_id":"4","last_reported":1761541914,"current_range_meters":24000,"station_id":"","pricing_plan_id":"cebpf4jnsgd1na2vs0mg"},{"bike_id":"ffa9f4ae-630b-4080-a471-243222631b4a","system_id":"levelo_inurba_marseille","lat":43.31577,"lon":5.3727,"is_reserved":false,"is_disabled":false,"rental_uris":{"android":"levelo://app?vid=ffa9f4ae-630b-4080-a471-243222631b4a","ios":"levelo://app?vid=ffa9f4ae-630b-4080-a471-243222631b4a"},"vehicle_type_id":"4","last_reported":1761541914,"current_range_meters":24000,"station_id":"","pricing_plan_id":"cebpf4jnsgd1na2vs0mg"},{"bike_id":"ab08789d-86a3-414b-8163-10fa21d39f66","system_id":"levelo_inurba_marseille","lat":43.24076,"lon":5.37759,"is_reserved":false,"is_disabled":false,"rental_uris":{"android":"levelo://app?vid=ab08789d-86a3-414b-8163-10fa21d39f66","ios":"levelo://app?vid=ab08789d-86a3-414b-8163-10fa21d39f66"},"vehicle_type_id":"4","last_reported":1761541914,"current_range_meters":24000,"station_id":"ce4bhnp2rcd13ifvqgvg","pricing_plan_id":"cebpf4jnsgd1na2vs0mg"},{"bike_id":"92eaf39d-1ab7-4bac-9cc0-9ae6867f8bc4","system_id":"levelo_inurba_marseille","lat":43.337427,"lon":5.36265,"is_reserved":false,"is_disabled":false,"rental_uris":{"android":"levelo://app?vid=92eaf39d-1ab7-4bac-9cc0-9ae6867f8bc4","ios":"levelo://app?vid=92eaf39d-1ab7-4bac-9cc0-9ae6867f8bc4"},"vehicle_type_id":"4","last_reported":1761541914,"current_range_meters":24400,"station_id":"","pricing_plan_id":"cebpf4jnsgd1na2vs0mg"},{"bike_id":"78d2e8b5-a008-4a10-9ddc-1e39cbbf499a","system_id":"levelo_inurba_marseille","lat":43.2783,"lon":5.39194,"is_reserved":false,"is_disabled":false,"rental_uris":{"android":"levelo://app?vid=78d2e8b5-a008-4a10-9ddc-1e39cbbf499a","ios":"levelo://app?vid=78d2e8b5-a008-4a10-9ddc-1e39cbbf499a"},"vehicle_type_id":"4","last_reported":1761541914,"current_range_meters":24400,"station_id":"ce4bhjp2rcd13ifvqga0","pricing_plan_id":"cebpf4jnsgd1na2vs0mg"},{"bike_id":"3d18c069-ad24-4b07-8bbd-e9c361081191","system_id":"levelo_inurba_marseille","lat":43.337444,"lon":5.374475,"is_reserved":false,"is_disabled":false,"rental_uris":{"android":"levelo://app?vid=3d18c069-ad24-4b07-8bbd-e9c361081191","ios":"levelo://app?vid=3d18c069-ad24-4b07-8bbd-e9c361081191"},"vehicle_type_id":"4","last_reported":1761541914,"current_range_meters":24400,"station_id":"ce4bhg12rcd13ifvqf80","pricing_plan_id":"cebpf4jnsgd1na2vs0mg"},{"bike_id":"538ccedd-37b2-4117-aed4-a27ae06a4068","system_id":"levelo_inurba_marseille","lat":43.2822,"lon":5.39803,"is_reserved":false,"is_disabled":false,"rental_uris":{"android":"levelo://app?vid=538ccedd-37b2-4117-aed4-a27ae06a4068","ios":"levelo://app?vid=538ccedd-37b2-4117-aed4-a27ae06a4068"},"vehicle_type_id":"4","last_reported":1761541914,"current_range_meters":24800,"station_id":"","pricing_plan_id":"cebpf4jnsgd1na2vs0mg"},{"bike_id":"5c5cf98e-7fa3-4ae7-a298-ae5413831201","system_id":"levelo_inurba_marseille","lat":43.29198,"lon":5.37147,"is_reserved":false,"is_disabled":true,"rental_uris":{"android":"levelo://app?vid=5c5cf98e-7fa3-4ae7-a298-ae5413831201","ios":"levelo://app?vid=5c5cf98e-7fa3-4ae7-a298-ae5413831201"},"vehicle_type_id":"4","last_reported":1761541914,"current_range_meters":24800,"station_id":"ce4bha92rcd13ifvqeh0","pricing_plan_id":"cebpf4jnsgd1na2vs0mg"},{"bike_id":"b58f1286-8455-4220-89ae-87e311699cd7","system_id":"levelo_inurba_marseille","lat":43.28453,"lon":5.35892,"is_reserved":false,"is_disabled":false,"rental_uris":{"android":"levelo://app?vid=b58f1286-8455-4220-89ae-87e311699cd7","ios":"levelo://app?vid=b58f1286-8455-4220-89ae-87e311699cd7"},"vehicle_type_id":"4","last_reported":1761541914,"current_range_meters":24800,"station_id":"ce4bhah2rcd13ifvqei0","pricing_plan_id":"cebpf4jnsgd1na2vs0mg"},{"bike_id":"7c82ce61-96b4-481d-88b9-90e3654af283","system_id":"levelo_inurba_marseille","lat":43.27946,"lon":5.41036,"is_reserved":false,"is_disabled":false,"rental_uris":{"android":"levelo://app?vid=7c82ce61-96b4-481d-88b9-90e3654af283","ios":"levelo://app?vid=7c82ce61-96b4-481d-88b9-90e3654af283"},"vehicle_type_id":"4","last_reported":1761541914,"current_range_meters":24800,"station_id":"ce4bhnp2rcd13ifvqh0g","pricing_plan_id":"cebpf4jnsgd1na2vs0mg"},{"bike_id":"4833fca4-0c37-4660-a2fa-a8cfdf69c0fd","system_id":"levelo_inurba_marseille","lat":43.232013,"lon":5.355459,"is_reserved":false,"is_disabled":false,"rental_uris":{"android":"levelo://app?vid=4833fca4-0c37-4660-a2fa-a8cfdf69c0fd","ios":"levelo://app?vid=4833fca4-0c37-4660-a2fa-a8cfdf69c0fd"},"vehicle_type_id":"4","last_reported":1761541914,"current_range_meters":24800,"station_id":"ce4bhu92rcd13ifvqi70","pricing_plan_id":"cebpf4jnsgd1na2vs0mg"},{"bike_id":"19469a9a-22b6-4856-ad95-b93b88bc6eaf","system_id":"levelo_inurba_marseille","lat":43.26572,"lon":5.39038,"is_reserved":false,"is_disabled":false,"rental_uris":{"android":"levelo://app?vid=19469a9a-22b6-4856-ad95-b93b88bc6eaf","ios":"levelo://app?vid=19469a9a-22b6-4856-ad95-b93b88bc6eaf"},"vehicle_type_id":"4","last_reported":1761541914,"current_range_meters":24800,"station_id":"ce4bhe12rcd13ifvqf30","pricing_plan_id":"cebpf4jnsgd1na2vs0mg"},{"bike_id":"4ac7346a-fa76-47bf-b3a4-41b8f92a5431","system_id":"levelo_inurba_marseille","lat":43.292695,"lon":5.367752,"is_reserved":false,"is_disabled":false,"rental_uris":{"android":"levelo://app?vid=4ac7346a-fa76-47bf-b3a4-41b8f92a5431","ios":"levelo://app?vid=4ac7346a-fa76-47bf-b3a4-41b8f92a5431"},"vehicle_type_id":"4","last_reported":1761541914,"current_range_meters":24800,"station_id":"ce4bhbh2rcd13ifvqeqg","pricing_plan_id":"cebpf4jnsgd1na2vs0mg"},{"bike_id":"d3507388-41b8-4b3e-8c14-8065c1214e5f","system_id":"levelo_inurba_marseille","lat":43.28419,"lon":5.34992,"is_reserved":false,"is_disabled":false,"rental_uris":{"android":"levelo://app?vid=d3507388-41b8-4b3e-8c14-8065c1214e5f","ios":"levelo://app?vid=d3507388-41b8-4b3e-8c14-8065c1214e5f"},"vehicle_type_id":"4","last_reported":1761541914,"current_range_meters":24800,"station_id":"ce4bhbh2rcd13ifvqepg","pricing_plan_id":"cebpf4jnsgd1na2vs0mg"},{"bike_id":"c56257ae-dfdc-44df-874c-dd9ee98c0dde","system_id":"levelo_inurba_marseille","lat":43.24169,"lon":5.364,"is_reserved":false,"is_disabled":false,"rental_uris":{"android":"levelo://app?vid=c56257ae-dfdc-44df-874c-dd9ee98c0dde","ios":"levelo://app?vid=c56257ae-dfdc-44df-874c-dd9ee98c0dde"},"vehicle_type_id":"4","last_reported":1761541914,"current_range_meters":25200,"station_id":"cpo36qri1sfpv3e86is0","pricing_plan_id":"cebpf4jnsgd1na2vs0mg"},{"bike_id":"64ce34f6-5c04-4990-a323-3045c52ec86d","system_id":"levelo_inurba_marseille","lat":43.30442,"lon":5.38892,"is_reserved":false,"is_disabled":true,"rental_uris":{"android":"levelo://app?vid=64ce34f6-5c04-4990-a323-3045c52ec86d","ios":"levelo://app?vid=64ce34f6-5c04-4990-a323-3045c52ec86d"},"vehicle_type_id":"4","last_reported":1761541914,"current_range_meters":25200,"station_id":"ce4bgk12rcd13ifvqbi0","pricing_plan_id":"cebpf4jnsgd1na2vs0mg"},{"bike_id":"8cf64537-6bdc-4ec6-aa71-70006f91757e","system_id":"levelo_inurba_marseille","lat":43.298,"lon":5.38079,"is_reserved":false,"is_disabled":false,"rental_uris":{"android":"levelo://app?vid=8cf64537-6bdc-4ec6-aa71-70006f91757e","ios":"levelo://app?vid=8cf64537-6bdc-4ec6-aa71-70006f91757e"},"vehicle_type_id":"4","last_reported":1761541914,"current_range_meters":25200,"station_id":"","pricing_plan_id":"cebpf4jnsgd1na2vs0mg"},{"bike_id":"a9d553ad-0851-4803-89b4-53f7a27a4b59","system_id":"levelo_inurba_marseille","lat":43.28926,"lon":5.363944,"is_reserved":false,"is_disabled":false,"rental_uris":{"android":"levelo://app?vid=a9d553ad-0851-4803-89b4-53f7a27a4b59","ios":"levelo://app?vid=a9d553ad-0851-4803-89b4-53f7a27a4b59"},"vehicle_type_id":"4","last_reported":1761541914,"current_range_meters":25200,"station_id":"ce4bhc92rcd13ifvqetg","pricing_plan_id":"cebpf4jnsgd1na2vs0mg"},{"bike_id":"4063ae2b-f242-4de1-8f16-21204fb8dd26","system_id":"levelo_inurba_marseille","lat":43.251,"lon":5.39533,"is_reserved":false,"is_disabled":false,"rental_uris":{"android":"levelo://app?vid=4063ae2b-f242-4de1-8f16-21204fb8dd26","ios":"levelo://app?vid=4063ae2b-f242-4de1-8f16-21204fb8dd26"},"vehicle_type_id":"4","last_reported":1761541914,"current_range_meters":25200,"station_id":"ce4bhm12rcd13ifvqgkg","pricing_plan_id":"cebpf4jnsgd1na2vs0mg"},{"bike_id":"fd03ee67-6fab-4c28-aa85-a1f14af8d539","system_id":"levelo_inurba_marseille","lat":43.33156,"lon":5.38169,"is_reserved":false,"is_disabled":false,"rental_uris":{"android":"levelo://app?vid=fd03ee67-6fab-4c28-aa85-a1f14af8d539","ios":"levelo://app?vid=fd03ee67-6fab-4c28-aa85-a1f14af8d539"},