{"last_updated":1710954339,"ttl":30,"version":"2.2","data":{"bikes":[{"bike_id":"f55a6ca7-ad90-49d0-a782-aad0cc799ead","system_id":"levelo_inurba_marseille","lat":43.31449,"lon":5.37312,"is_reserved":false,"is_disabled":false,"rental_uris":{"android":"levelo://app?vid=f55a6ca7-ad90-49d0-a782-aad0cc799ead","ios":"levelo://app?vid=f55a6ca7-ad90-49d0-a782-aad0cc799ead"},"vehicle_type_id":"4","last_reported":1710954339,"current_range_meters":27200,"station_id":"","pricing_plan_id":"cebpf4jnsgd1na2vs0mg"},{"bike_id":"975c4af5-e6d9-4e22-8901-0990eb7da5bd","system_id":"levelo_inurba_marseille","lat":43.319179,"lon":5.407725,"is_reserved":false,"is_disabled":false,"rental_uris":{"android":"levelo://app?vid=975c4af5-e6d9-4e22-8901-0990eb7da5bd","ios":"levelo://app?vid=975c4af5-e6d9-4e22-8901-0990eb7da5bd"},"vehicle_type_id":"4","last_reported":1710954339,"current_range_meters":21200,"station_id":"ce4bhq12rcd13ifvqhig","pricing_plan_id":"cebpf4jnsgd1na2vs0mg"},{"bike_id":"4c6595c2-4e59-4276-834c-7a566ba7c024","system_id":"levelo_inurba_marseille","lat":43.305681,"lon":5.366906,"is_reserved":false,"is_disabled":false,"rental_uris":{"android":"levelo://app?vid=4c6595c2-4e59-4276-834c-7a566ba7c024","ios":"levelo://app?vid=4c6595c2-4e59-4276-834c-7a566ba7c024"},"vehicle_type_id":"4","last_reported":1710954339,"current_range_meters":12400,"station_id":"ce4bgrp2rcd13ifvqc9g","pricing_plan_id":"cebpf4jnsgd1na2vs0mg"},{"bike_id":"c3a10203-ef6e-476f-966e-eab26a706aa4","system_id":"levelo_inurba_marseille","lat":43.305375,"lon":5.36717,"is_reserved":false,"is_disabled":false,"rental_uris":{"android":"levelo://app?vid=c3a10203-ef6e-476f-966e-eab26a706aa4","ios":"levelo://app?vid=c3a10203-ef6e-476f-966e-eab26a706aa4"},"vehicle_type_id":"4","last_reported":1710954339,"current_range_meters":18800,"station_id":"ce4bgrp2rcd13ifvqc9g","pricing_plan_id":"cebpf4jnsgd1na2vs0mg"},{"bike_id":"e425e04d-daeb-418c-aa20-44bb58528573","system_id":"levelo_inurba_marseille","lat":43.30606,"lon":5.37221,"is_reserved":false,"is_disabled":false,"rental_uris":{"android":"levelo://app?vid=e425e04d-daeb-418c-aa20-44bb58528573","ios":"levelo://app?vid=e425e04d-daeb-418c-aa20-44bb58528573"},"vehicle_type_id":"4","last_reported":1710954339,"current_range_meters":0,"station_id":"ce4bgqh2rcd13ifvqc4g","pricing_plan_id":"cebpf4jnsgd1na2vs0mg"},{"bike_id":"b4a02d88-64a3-4653-80f0-4f49f6785a26","system_id":"levelo_inurba_marseille","lat":43.30596,"lon":5.37233,"is_reserved":false,"is_disabled":false,"rental_uris":{"android":"levelo://app?vid=b4a02d88-64a3-4653-80f0-4f49f6785a26","ios":"levelo://app?vid=b4a02d88-64a3-4653-80f0-4f49f6785a26"},"vehicle_type_id":"4","last_reported":1710954339,"current_range_meters":0,"station_id":"ce4bgqh2rcd13ifvqc4g","pricing_plan_id":"cebpf4jnsgd1na2vs0mg"},{"bike_id":"cc0103d6-3cca-4ed7-a644-ab0a1c2daedb","system_id":"levelo_inurba_marseille","lat":43.31127,"lon":5.37765,"is_reserved":false,"is_disabled":false,"rental_uris":{"android":"levelo://app?vid=cc0103d6-3cca-4ed7-a644-ab0a1c2daedb","ios":"levelo://app?vid=cc0103d6-3cca-4ed7-a644-ab0a1c2daedb"},"vehicle_type_id":"4","last_reported":1710954339,"current_range_meters":0,"station_id":"ce4bgt92rcd13ifvqcg0","pricing_plan_id":"cebpf4jnsgd1na2vs0mg"},{"bike_id":"b25c8cfb-fdb2-458b-bd98-99cbcd71a3a9","system_id":"levelo_inurba_marseille","lat":43.307945,"lon":5.376487,"is_reserved":false,"is_disabled":false,"rental_uris":{"android":"levelo://app?vid=b25c8cfb-fdb2-458b-bd98-99cbcd71a3a9","ios":"levelo://app?vid=b25c8cfb-fdb2-458b-bd98-99cbcd71a3a9"},"vehicle_type_id":"4","last_reported":1710954339,"current_range_meters":2800,"station_id":"ce4bgv92rcd13ifvqcq0","pricing_plan_id":"cebpf4jnsgd1na2vs0mg"},{"bike_id":"ba2fc916-e3d8-4f9d-bec7-8f02ba366cec","system_id":"levelo_inurba_marseille","lat":43.307945,"lon":5.376487,"is_reserved":false,"is_disabled":false,"rental_uris":{"android":"levelo://app?vid=ba2fc916-e3d8-4f9d-bec7-8f02ba366cec","ios":"levelo://app?vid=ba2fc916-e3d8-4f9d-bec7-8f02ba366cec"},"vehicle_type_id":"4","last_reported":1710954339,"current_range_meters":7200,"station_id":"ce4bgv92rcd13ifvqcq0","pricing_plan_id":"cebpf4jnsgd1na2vs0mg"},{"bike_id":"c4c9a64f-0e38-4751-8fb3-b71694890e27","system_id":"levelo_inurba_marseille","lat":43.307945,"lon":5.376487,"is_reserved":false,"is_disabled":false,"rental_uris":{"android":"levelo://app?vid=c4c9a64f-0e38-4751-8fb3-b71694890e27","ios":"levelo://app?vid=c4c9a64f-0e38-4751-8fb3-b71694890e27"},"vehicle_type_id":"4","last_reported":1710954339,"current_range_meters":21600,"station_id":"ce4bgv92rcd13ifvqcq0","pricing_plan_id":"cebpf4jnsgd1na2vs0mg"},{"bike_id":"a6726264-a7b2-4b5e-b9e8-0a391224bac6","system_id":"levelo_inurba_marseille","lat":43.317075,"lon":5.377367,"is_reserved":false,"is_disabled":false,"rental_uris":{"android":"levelo://app?vid=a6726264-a7b2-4b5e-b9e8-0a391224bac6","ios":"levelo://app?vid=a6726264-a7b2-4b5e-b9e8-0a391224bac6"},"vehicle_type_id":"4","last_reported":1710954339,"current_range_meters":19200,"station_id":"ce4bgth2rcd13ifvqch0","pricing_plan_id":"cebpf4jnsgd1na2vs0mg"},{"bike_id":"8fda23bd-1902-4c02-b12e-eda898c0e7e3","system_id":"levelo_inurba_marseille","lat":43.317075,"lon":5.377367,"is_reserved":false,"is_disabled":false,"rental_uris":{"android":"levelo://app?vid=8fda23bd-1902-4c02-b12e-eda898c0e7e3","ios":"levelo://app?vid=8fda23bd-1902-4c02-b12e-eda898c0e7e3"},"vehicle_type_id":"4","last_reported":1710954339,"current_range_meters":6400,"station_id":"ce4bgth2rcd13ifvqch0","pricing_plan_id":"cebpf4jnsgd1na2vs0mg"},{"bike_id":"efcf4da0-857d-4915-ac04-961d1b48529a","system_id":"levelo_inurba_marseille","lat":43.317053,"lon":5.377349,"is_reserved":false,"is_disabled":false,"rental_uris":{"android":"levelo://app?vid=efcf4da0-857d-4915-ac04-961d1b48529a","ios":"levelo://app?vid=efcf4da0-857d-4915-ac04-961d1b48529a"},"vehicle_type_id":"4","last_reported":1710954339,"current_range_meters":10000,"station_id":"ce4bgth2rcd13ifvqch0","pricing_plan_id":"cebpf4jnsgd1na2vs0mg"},{"bike_id":"f67449ba-e913-4b6e-bfff-4ae73c598d70","system_id":"levelo_inurba_marseille","lat":43.317075,"lon":5.377367,"is_reserved":false,"is_disabled":false,"rental_uris":{"android":"levelo://app?vid=f67449ba-e913-4b6e-bfff-4ae73c598d70","ios":"levelo://app?vid=f67449ba-e913-4b6e-bfff-4ae73c598d70"},"vehicle_type_id":"4","last_reported":1710954339,"current_range_meters":12000,"station_id":"ce4bgth2rcd13ifvqch0","pricing_plan_id":"cebpf4jnsgd1na2vs0mg"},{"bike_id":"dab9bedb-882e-43e8-975d-dc75c2ad0809","system_id":"levelo_inurba_marseille","lat":43.31692,"lon":5.37751,"is_reserved":false,"is_disabled":false,"rental_uris":{"android":"levelo://app?vid=dab9bedb-882e-43e8-975d-dc75c2ad0809","ios":"levelo://app?vid=dab9bedb-882e-43e8-975d-dc75c2ad0809"},"vehicle_type_id":"4","last_reported":1710954339,"current_range_meters":9600,"station_id":"ce4bgth2rcd13ifvqch0","pricing_plan_id":"cebpf4jnsgd1na2vs0mg"},{"bike_id":"9e0086b8-d2c2-417c-896f-41e8c0c8b303","system_id":"levelo_inurba_marseille","lat":43.317075,"lon":5.377367,"is_reserved":false,"is_disabled":false,"rental_uris":{"android":"levelo://app?vid=9e0086b8-d2c2-417c-896f-41e8c0c8b303","ios":"levelo://app?vid=9e0086b8-d2c2-417c-896f-41e8c0c8b303"},"vehicle_type_id":"4","last_reported":1710954339,"current_range_meters":24000,"station_id":"ce4bgth2rcd13ifvqch0","pricing_plan_id":"cebpf4jnsgd1na2vs0mg"},{"bike_id":"998a4b12-6c96-4d43-8429-b61c81fce28d","system_id":"levelo_inurba_marseille","lat":43.315293,"lon":5.380349,"is_reserved":false,"is_disabled":false,"rental_uris":{"android":"levelo://app?vid=998a4b12-6c96-4d43-8429-b61c81fce28d","ios":"levelo://app?vid=998a4b12-6c96-4d43-8429-b61c81fce28d"},"vehicle_type_id":"4","last_reported":1710954339,"current_range_meters":6000,"station_id":"ce4bhsp2rcd13ifvqi50","pricing_plan_id":"cebpf4jnsgd1na2vs0mg"},{"bike_id":"4dc41018-fcb8-4852-8454-a58dc8ab8391","system_id":"levelo_inurba_marseille","lat":43.317075,"lon":5.377367,"is_reserved":false,"is_disabled":false,"rental_uris":{"android":"levelo://app?vid=4dc41018-fcb8-4852-8454-a58dc8ab8391","ios":"levelo://app?vid=4dc41018-fcb8-4852-8454-a58dc8ab8391"},"vehicle_type_id":"4","last_reported":1710954339,"current_range_meters":26800,"station_id":"ce4bgth2rcd13ifvqch0","pricing_plan_id":"cebpf4jnsgd1na2vs0mg"},{"bike_id":"1d2664e3-4c20-4d79-8e28-1cf55569e849","system_id":"levelo_inurba_marseille","lat":43.317075,"lon":5.377367,"is_reserved":false,"is_disabled":false,"rental_uris":{"android":"levelo://app?vid=1d2664e3-4c20-4d79-8e28-1cf55569e849","ios":"levelo://app?vid=1d2664e3-4c20-4d79-8e28-1cf55569e849"},"vehicle_type_id":"4","last_reported":1710954339,"current_range_meters":13600,"station_id":"ce4bgth2rcd13ifvqch0","pricing_plan_id":"cebpf4jnsgd1na2vs0mg"},{"bike_id":"d46fea7c-65af-410b-a495-5715709e45be","system_id":"levelo_inurba_marseille","lat":43.299724,"lon":5.371829,"is_reserved":false,"is_disabled":false,"rental_uris":{"android":"levelo://app?vid=d46fea7c-65af-410b-a495-5715709e45be","ios":"levelo://app?vid=d46fea7c-65af-410b-a495-5715709e45be"},"vehicle_type_id":"4","last_reported":1710954339,"current_range_meters":0,"station_id":"ce4bgr92rcd13ifvqc7g","pricing_plan_id":"cebpf4jnsgd1na2vs0mg"},{"bike_id":"7441cf70-8fd4-4cc2-b45f-0b5818d0b9a9","system_id":"levelo_inurba_marseille","lat":43.30304,"lon":5.368987,"is_reserved":false,"is_disabled":false,"rental_uris":{"android":"levelo://app?vid=7441cf70-8fd4-4cc2-b45f-0b5818d0b9a9","ios":"levelo://app?vid=7441cf70-8fd4-4cc2-b45f-0b5818d0b9a9"},"vehicle_type_id":"4","last_reported":1710954339,"current_range_meters":25600,"station_id":"ce4bgqh2rcd13ifvqc5g","pricing_plan_id":"cebpf4jnsgd1na2vs0mg"},{"bike_id":"47ad6dcc-5eaa-4cf4-9ab3-a487b14d4ec2","system_id":"levelo_inurba_marseille","lat":43.303059,"lon":5.368784,"is_reserved":false,"is_disabled":false,"rental_uris":{"android":"levelo://app?vid=47ad6dcc-5eaa-4cf4-9ab3-a487b14d4ec2","ios":"levelo://app?vid=47ad6dcc-5eaa-4cf4-9ab3-a487b14d4ec2"},"vehicle_type_id":"4","last_reported":1710954339,"current_range_meters":26000,"station_id":"ce4bgqh2rcd13ifvqc5g","pricing_plan_id":"cebpf4jnsgd1na2vs0mg"},{"bike_id":"4077cf9c-1036-46bf-b2d7-97dfadf0682c","system_id":"levelo_inurba_marseille","lat":43.303046,"lon":5.368981,"is_reserved":false,"is_disabled":false,"rental_uris":{"android":"levelo://app?vid=4077cf9c-1036-46bf-b2d7-97dfadf0682c","ios":"levelo://app?vid=4077cf9c-1036-46bf-b2d7-97dfadf0682c"},"vehicle_type_id":"4","last_reported":1710954339,"current_range_meters":16400,"station_id":"ce4bgqh2rcd13ifvqc5g","pricing_plan_id":"cebpf4jnsgd1na2vs0mg"},{"bike_id":"a39776c4-3195-4074-8aa0-bbc44e7b75a8","system_id":"levelo_inurba_marseille","lat":43.315289,"lon":5.380349,"is_reserved":false,"is_disabled":false,"rental_uris":{"android":"levelo://app?vid=a39776c4-3195-4074-8aa0-bbc44e7b75a8","ios":"levelo://app?vid=a39776c4-3195-4074-8aa0-bbc44e7b75a8"},"vehicle_type_id":"4","last_reported":1710954339,"current_range_meters":26000,"station_id":"ce4bhsp2rcd13ifvqi50","pricing_plan_id":"cebpf4jnsgd1na2vs0mg"},{"bike_id":"dbe77df5-69c4-4e55-b2ca-5d39f585e801","system_id":"levelo_inurba_marseille","lat":43.315289,"lon":5.380349,"is_reserved":false,"is_disabled":false,"rental_uris":{"android":"levelo://app?vid=dbe77df5-69c4-4e55-b2ca-5d39f585e801","ios":"levelo://app?vid=dbe77df5-69c4-4e55-b2ca-5d39f585e801"},"vehicle_type_id":"4","last_reported":1710954339,"current_range_meters":17600,"station_id":"ce4bhsp2rcd13ifvqi50","pricing_plan_id":"cebpf4jnsgd1na2vs0mg"},{"bike_id":"195aed21-8d25-4b7d-8cf9-7ead12145b15","system_id":"levelo_inurba_marseille","lat":43.301939,"lon":5.366286,"is_reserved":false,"is_disabled":false,"rental_uris":{"android":"levelo://app?vid=195aed21-8d25-4b7d-8cf9-7ead12145b15","ios":"levelo://app?vid=195aed21-8d25-4b7d-8cf9-7ead12145b15"},"vehicle_type_id":"4","last_reported":1710954339,"current_range_meters":0,"station_id":"ce4bgrh2rcd13ifvqc8g","pricing_plan_id":"cebpf4jnsgd1na2vs0mg"},{"bike_id":"452b49e8-0b02-427a-9e35-9c030ec72477","system_id":"levelo_inurba_marseille","lat":43.308175,"lon":5.38135,"is_reserved":false,"is_disabled":false,"rental_uris":{"android":"levelo://app?vid=452b49e8-0b02-427a-9e35-9c030ec72477","ios":"levelo://app?vid=452b49e8-0b02-427a-9e35-9c030ec72477"},"vehicle_type_id":"4","last_reported":1710954339,"current_range_meters":28000,"station_id":"ce4bgt12rcd13ifvqce0","pricing_plan_id":"cebpf4jnsgd1na2vs0mg"},{"bike_id":"64627a64-c55d-49f0-9cfb-5914ab89352a","system_id":"levelo_inurba_marseille","lat":43.304606,"lon":5.379026,"is_reserved":false,"is_disabled":false,"rental_uris":{"android":"levelo://app?vid=64627a64-c55d-49f0-9cfb-5914ab89352a","ios":"levelo://app?vid=64627a64-c55d-49f0-9cfb-5914ab89352a"},"vehicle_type_id":"4","last_reported":1710954339,"current_range_meters":8800,"station_id":"ce4bgup2rcd13ifvqcn0","pricing_plan_id":"cebpf4jnsgd1na2vs0mg"},{"bike_id":"c92c3bc3-5cd4-4035-8740-86eb55b35d30","system_id":"levelo_inurba_marseille","lat":43.324771,"lon":5.36557,"is_reserved":false,"is_disabled":false,"rental_uris":{"android":"levelo://app?vid=c92c3bc3-5cd4-4035-8740-86eb55b35d30","ios":"levelo://app?vid=c92c3bc3-5cd4-4035-8740-86eb55b35d30"},"vehicle_type_id":"4","last_reported":1710954339,"current_range_meters":18400,"station_id":"ce4bhs12rcd13ifvqhvg","pricing_plan_id":"cebpf4jnsgd1na2vs0mg"},{"bike_id":"78035174-21d1-4135-b9d3-4451b7739307","system_id":"levelo_inurba_marseille","lat":43.324771,"lon":5.36557,"is_reserved":false,"is_disabled":false,"rental_uris":{"android":"levelo://app?vid=78035174-21d1-4135-b9d3-4451b7739307","ios":"levelo://app?vid=78035174-21d1-4135-b9d3-4451b7739307"},"vehicle_type_id":"4","last_reported":1710954339,"current_range_meters":23200,"station_id":"ce4bhs12rcd13ifvqhvg","pricing_plan_id":"cebpf4jnsgd1na2vs0mg"},{"bike_id":"83dfcdea-c7c2-4ed2-a73d-c69bcaf9d44c","system_id":"levelo_inurba_marseille","lat":43.324771,"lon":5.36557,"is_reserved":false,"is_disabled":false,"rental_uris":{"android":"levelo://app?vid=83dfcdea-c7c2-4ed2-a73d-c69bcaf9d44c","ios":"levelo://app?vid=83dfcdea-c7c2-4ed2-a73d-c69bcaf9d44c"},"vehicle_type_id":"4","last_reported":1710954339,"current_range_meters":27600,"station_id":"ce4bhs12rcd13ifvqhvg","pricing_plan_id":"cebpf4jnsgd1na2vs0mg"},{"bike_id":"2fce2e5e-317a-4865-8219-cd30090cd416","system_id":"levelo_inurba_marseille","lat":43.32487,"lon":5.36561,"is_reserved":false,"is_disabled":false,"rental_uris":{"android":"levelo://app?vid=2fce2e5e-317a-4865-8219-cd30090cd416","ios":"levelo://app?vid=2fce2e5e-317a-4865-8219-cd30090cd416"},"vehicle_type_id":"4","last_reported":1710954339,"current_range_meters":0,"station_id":"ce4bhs12rcd13ifvqhvg","pricing_plan_id":"cebpf4jnsgd1na2vs0mg"},{"bike_id":"bc5fab7a-7656-44e5-9ee2-5c1c721f0d3a","system_id":"levelo_inurba_marseille","lat":43.310804,"lon":5.38359,"is_reserved":false,"is_disabled":false,"rental_uris":{"android":"levelo://app?vid=bc5fab7a-7656-44e5-9ee2-5c1c721f0d3a","ios":"levelo://app?vid=bc5fab7a-7656-44e5-9ee2-5c1c721f0d3a"},"vehicle_type_id":"4","last_reported":1710954339,"current_range_meters":0,"station_id":"ce4bgv92rcd13ifvqcr0","pricing_plan_id":"cebpf4jnsgd1na2vs0mg"},{"bike_id":"81ca9863-f96c-4da6-b0aa-55a7a1f3d0f8","system_id":"levelo_inurba_marseille","lat":43.302784,"lon":5.377158,"is_reserved":false,"is_disabled":false,"rental_uris":{"android":"levelo://app?vid=81ca9863-f96c-4da6-b0aa-55a7a1f3d0f8","ios":"levelo://app?vid=81ca9863-f96c-4da6-b0aa-55a7a1f3d0f8"},"vehicle_type_id":"4","last_reported":1710954339,"current_range_meters":0,"station_id":"ce4bguh2rcd13ifvqcj0","pricing_plan_id":"cebpf4jnsgd1na2vs0mg"},{"bike_id":"2b0b2370-6766-49db-8db9-b9ac690f047d","system_id":"levelo_inurba_marseille","lat":43.3028,"lon":5.37707,"is_reserved":false,"is_disabled":false,"rental_uris":{"android":"levelo://app?vid=2b0b2370-6766-49db-8db9-b9ac690f047d","ios":"levelo://app?vid=2b0b2370-6766-49db-8db9-b9ac690f047d"},"vehicle_type_id":"4","last_reported":1710954339,"current_range_meters":0,"station_id":"ce4bguh2rcd13ifvqcj0","pricing_plan_id":"cebpf4jnsgd1na2vs0mg"},{"bike_id":"df79d182-5bba-439f-8df9-594a0dc88c87","system_id":"levelo_inurba_marseille","lat":43.30143,"lon":5.37413,"is_reserved":false,"is_disabled":false,"rental_uris":{"android":"levelo://app?vid=df79d182-5bba-439f-8df9-594a0dc88c87","ios":"levelo://app?vid=df79d182-5bba-439f-8df9-594a0dc88c87"},"vehicle_type_id":"4","last_reported":1710954339,"current_range_meters":19600,"station_id":"ce4bgs92rcd13ifvqcc0","pricing_plan_id":"cebpf4jnsgd1na2vs0mg"},{"bike_id":"be83824f-cd7e-44ed-bda3-89905b40ab1f","system_id":"levelo_inurba_marseille","lat":43.319961,"lon":5.381526,"is_reserved":false,"is_disabled":false,"rental_uris":{"android":"levelo://app?vid=be83824f-cd7e-44ed-bda3-89905b40ab1f","ios":"levelo://app?vid=be83824f-cd7e-44ed-bda3-89905b40ab1f"},"vehicle_type_id":"4","last_reported":1710954339,"current_range_meters":1600,"station_id":"ce4bhr12rcd13ifvqhpg","pricing_plan_id":"cebpf4jnsgd1na2vs0mg"},{"bike_id":"18754159-673b-4be5-8318-8a2c545ac8ac","system_id":"levelo_inurba_marseille","lat":43.32003,"lon":5.38157,"is_reserved":false,"is_disabled":false,"rental_uris":{"android":"levelo://app?vid=18754159-673b-4be5-8318-8a2c545ac8ac","ios":"levelo://app?vid=18754159-673b-4be5-8318-8a2c545ac8ac"},"vehicle_type_id":"4","last_reported":1710954339,"current_range_meters":7200,"station_id":"ce4bhr12rcd13ifvqhpg","pricing_plan_id":"cebpf4jnsgd1na2vs0mg"},{"bike_id":"c5888602-c39a-4a5d-b745-ebbd3f4db101","system_id":"levelo_inurba_marseille","lat":43.319935,"lon":5.381699,"is_reserved":false,"is_disabled":false,"rental_uris":{"android":"levelo://app?vid=c5888602-c39a-4a5d-b745-ebbd3f4db101","ios":"levelo://app?vid=c5888602-c39a-4a5d-b745-ebbd3f4db101"},"vehicle_type_id":"4","last_reported":1710954339,"current_range_meters":10000,"station_id":"ce4bhr12rcd13ifvqhpg","pricing_plan_id":"cebpf4jnsgd1na2vs0mg"},{"bike_id":"5c8cf22e-b31b-4c10-9b7a-acf0c71cb5bf","system_id":"levelo_inurba_marseille","lat":43.320035,"lon":5.381571,"is_reserved":false,"is_disabled":false,"rental_uris":{"android":"levelo://app?vid=5c8cf22e-b31b-4c10-9b7a-acf0c71cb5bf","ios":"levelo://app?vid=5c8cf22e-b31b-4c10-9b7a-acf0c71cb5bf"},"vehicle_type_id":"4","last_reported":1710954339,"current_range_meters":11200,"station_id":"ce4bhr12rcd13ifvqhpg","pricing_plan_id":"cebpf4jnsgd1na2vs0mg"},{"bike_id":"53ae1eb9-01b2-4850-b667-39dda217df16","system_id":"levelo_inurba_marseille","lat":43.319935,"lon":5.381699,"is_reserved":false,"is_disabled":false,"rental_uris":{"android":"levelo://app?vid=53ae1eb9-01b2-4850-b667-39dda217df16","ios":"levelo://app?vid=53ae1eb9-01b2-4850-b667-39dda217df16"},"vehicle_type_id":"4","last_reported":1710954339,"current_range_meters":5600,"station_id":"ce4bhr12rcd13ifvqhpg","pricing_plan_id":"cebpf4jnsgd1na2vs0mg"},{"bike_id":"12eb73df-2a4a-42f9-baf0-a0158d3f526d","system_id":"levelo_inurba_marseille","lat":43.32005,"lon":5.38159,"is_reserved":false,"is_disabled":false,"rental_uris":{"android":"levelo://app?vid=12eb73df-2a4a-42f9-baf0-a0158d3f526d","ios":"levelo://app?vid=12eb73df-2a4a-42f9-baf0-a0158d3f526d"},"vehicle_type_id":"4","last_reported":1710954339,"current_range_meters":6000,"station_id":"ce4bhr12rcd13ifvqhpg","pricing_plan_id":"cebpf4jnsgd1na2vs0mg"},{"bike_id":"e8eec59e-f875-48a1-a99b-4940e92b519b","system_id":"levelo_inurba_marseille","lat":43.319935,"lon":5.381699,"is_reserved":false,"is_disabled":false,"rental_uris":{"android":"levelo://app?vid=e8eec59e-f875-48a1-a99b-4940e92b519b","ios":"levelo://app?vid=e8eec59e-f875-48a1-a99b-4940e92b519b"},"vehicle_type_id":"4","last_reported":1710954339,"current_range_meters":11600,"station_id":"ce4bhr12rcd13ifvqhpg","pricing_plan_id":"cebpf4jnsgd1na2vs0mg"},{"bike_id":"11af88b5-ee1f-40b4-b03c-143e8c1aec07","system_id":"levelo_inurba_marseille","lat":43.319935,"lon":5.381699,"is_reserved":false,"is_disabled":false,"rental_uris":{"android":"levelo://app?vid=11af88b5-ee1f-40b4-b03c-143e8c1aec07","ios":"levelo://app?vid=11af88b5-ee1f-40b4-b03c-143e8c1aec07"},"vehicle_type_id":"4","last_reported":1710954339,"current_range_meters":14000,"station_id":"ce4bhr12rcd13ifvqhpg","pricing_plan_id":"cebpf4jnsgd1na2vs0mg"},{"bike_id":"e71ded85-94ba-4439-b28e-ae7107306458","system_id":"levelo_inurba_marseille","lat":43.31364,"lon":5.38489,"is_reserved":false,"is_disabled":false,"rental_uris":{"android":"levelo://app?vid=e71ded85-94ba-4439-b28e-ae7107306458","ios":"levelo://app?vid=e71ded85-94ba-4439-b28e-ae7107306458"},"vehicle_type_id":"4","last_reported":1710954339,"current_range_meters":12800,"station_id":"ce4bgt92rcd13ifvqcf0","pricing_plan_id":"cebpf4jnsgd1na2vs0mg"},{"bike_id":"94ab1b93-8107-4823-8160-526e675d9bb6","system_id":"levelo_inurba_marseille","lat":43.313571,"lon":5.384829,"is_reserved":false,"is_disabled":false,"rental_uris":{"android":"levelo://app?vid=94ab1b93-8107-4823-8160-526e675d9bb6","ios":"levelo://app?vid=94ab1b93-8107-4823-8160-526e675d9bb6"},"vehicle_type_id":"4","last_reported":1710954339,"current_range_meters":0,"station_id":"ce4bgt92rcd13ifvqcf0","pricing_plan_id":"cebpf4jnsgd1na2vs0mg"},{"bike_id":"463cd84d-c4b4-4379-a9b1-1b39d26a0702","system_id":"levelo_inurba_marseille","lat":43.313571,"lon":5.384829,"is_reserved":false,"is_disabled":false,"rental_uris":{"android":"levelo://app?vid=463cd84d-c4b4-4379-a9b1-1b39d26a0702","ios":"levelo://app?vid=463cd84d-c4b4-4379-a9b1-1b39d26a0702"},"vehicle_type_id":"4","last_reported":1710954339,"current_range_meters":19200,"station_id":"ce4bgt92rcd13ifvqcf0","pricing_plan_id":"cebpf4jnsgd1na2vs0mg"},{"bike_id":"40cc8f95-5dea-42b9-bea6-454cfc280467","system_id":"levelo_inurba_marseille","lat":43.313571,"lon":5.384829,"is_reserved":false,"is_disabled":false,"rental_uris":{"android":"levelo://app?vid=40cc8f95-5dea-42b9-bea6-454cfc280467","ios":"levelo://app?vid=40cc8f95-5dea-42b9-bea6-454cfc280467"},"vehicle_type_id":"4","last_reported":1710954339,"current_range_meters":6400,"station_id":"ce4bgt92rcd13ifvqcf0","pricing_plan_id":"cebpf4jnsgd1na2vs0mg"},{"bike_id":"22bb31bc-368a-4b5b-b028-692ef10c84b1","system_id":"levelo_inurba_marseille","lat":43.313571,"lon":5.384829,"is_reserved":false,"is_disabled":false,"rental_uris":{"android":"levelo://app?vid=22bb31bc-368a-4b5b-b028-692ef10c84b1","ios":"levelo://app?vid=22bb31bc-368a-4b5b-b028-692ef10c84b1"},"vehicle_type_id":"4","last_reported":1710954339,"current_range_meters":4000,"station_id":"ce4bgt92rcd13ifvqcf0","pricing_plan_id":"cebpf4jnsgd1na2vs0mg"},{"bike_id":"bfcd4cc1-ca93-4cb9-85b2-89ff71363b95","system_id":"levelo_inurba_marseille","lat":43.313571,"lon":5.384829,"is_reserved":false,"is_disabled":false,"rental_uris":{"android":"levelo://app?vid=bfcd4cc1-ca93-4cb9-85b2-89ff71363b95","ios":"levelo://app?vid=bfcd4cc1-ca93-4cb9-85b2-89ff71363b95"},"vehicle_type_id":"4","last_reported":1710954339,"current_range_meters":6000,"station_id":"ce4bgt92rcd13ifvqcf0","pricing_plan_id":"cebpf4jnsgd1na2vs0mg"},{"bike_id":"c8db8bf3-220e-4cdf-bf27-8887a5ff1adb","system_id":"levelo_inurba_marseille","lat":43.313571,"lon":5.384829,"is_reserved":false,"is_disabled":false,"rental_uris":{"android":"levelo://app?vid=c8db8bf3-220e-4cdf-bf27-8887a5ff1adb","ios":"levelo://app?vid=c8db8bf3-220e-4cdf-bf27-8887a5ff1adb"},"vehicle_type_id":"4","last_reported":1710954339,"current_range_meters":20800,"station_id":"ce4bgt92rcd13ifvqcf0","pricing_plan_id":"cebpf4jnsgd1na2vs0mg"},{"bike_id":"1e752fa6-5df6-4b6b-a0d2-eec00f06daf7","system_id":"levelo_inurba_marseille","lat":43.313571,"lon":5.384829,"is_reserved":false,"is_disabled":false,"rental_uris":{"android":"levelo://app?vid=1e752fa6-5df6-4b6b-a0d2-eec00f06daf7","ios":"levelo://app?vid=1e752fa6-5df6-4b6b-a0d2-eec00f06daf7"},"vehicle_type_id":"4","last_reported":1710954339,"current_range_meters":24800,"station_id":"ce4bgt92rcd13ifvqcf0","pricing_plan_id":"cebpf4jnsgd1na2vs0mg"},{"bike_id":"28b9855b-5b23-4915-ac3b-74846298dc92","system_id":"levelo_inurba_marseille","lat":43.313571,"lon":5.384829,"is_reserved":false,"is_disabled":false,"rental_uris":{"android":"levelo://app?vid=28b9855b-5b23-4915-ac3b-74846298dc92","ios":"levelo://app?vid=28b9855b-5b23-4915-ac3b-74846298dc92"},"vehicle_type_id":"4","last_reported":1710954339,"current_range_meters":0,"station_id":"ce4bgt92rcd13ifvqcf0","pricing_plan_id":"cebpf4jnsgd1na2vs0mg"},{"bike_id":"8433397e-6c30-48b8-a73f-deeb75225b9e","system_id":"levelo_inurba_marseille","lat":43.299724,"lon":5.371829,"is_reserved":false,"is_disabled":false,"rental_uris":{"android":"levelo://app?vid=8433397e-6c30-48b8-a73f-deeb75225b9e","ios":"levelo://app?vid=8433397e-6c30-48b8-a73f-deeb75225b9e"},"vehicle_type_id":"4","last_reported":1710954339,"current_range_meters":7600,"station_id":"ce4bgr92rcd13ifvqc7g","pricing_plan_id":"cebpf4jnsgd1na2vs0mg"},{"bike_id":"f937b74e-a75c-42a0-8cb9-886a8dd98850","system_id":"levelo_inurba_marseille","lat":43.299724,"lon":5.371829,"is_reserved":false,"is_disabled":false,"rental_uris":{"android":"levelo://app?vid=f937b74e-a75c-42a0-8cb9-886a8dd98850","ios":"levelo://app?vid=f937b74e-a75c-42a0-8cb9-886a8dd98850"},"vehicle_type_id":"4","last_reported":1710954339,"current_range_meters":20800,"station_id":"ce4bgr92rcd13ifvqc7g","pricing_plan_id":"cebpf4jnsgd1na2vs0mg"},{"bike_id":"ad2251d7-a990-4e8b-8de1-0d1a9fd11152","system_id":"levelo_inurba_marseille","lat":43.299222,"lon":5.365554,"is_reserved":false,"is_disabled":false,"rental_uris":{"android":"levelo://app?vid=ad2251d7-a990-4e8b-8de1-0d1a9fd11152","ios":"levelo://app?vid=ad2251d7-a990-4e8b-8de1-0d1a9fd11152"},"vehicle_type_id":"4","last_reported":1710954339,"current_range_meters":0,"station_id":"ce4bgm92rcd13ifvqbr0","pricing_plan_id":"cebpf4jnsgd1na2vs0mg"},{"bike_id":"a2b80b0c-0dd3-4c53-8963-2a2d78cceaba","system_id":"levelo_inurba_marseille","lat":43.299222,"lon":5.365554,"is_reserved":false,"is_disabled":false,"rental_uris":{"android":"levelo://app?vid=a2b80b0c-0dd3-4c53-8963-2a2d78cceaba","ios":"levelo://app?vid=a2b80b0c-0dd3-4c53-8963-2a2d78cceaba"},"vehicle_type_id":"4","last_reported":1710954339,"current_range_meters":20000,"station_id":"ce4bgm92rcd13ifvqbr0","pricing_plan_id":"cebpf4jnsgd1na2vs0mg"},{"bike_id":"82d62bae-06f6-45cd-bc33-db3f098ee2ba","system_id":"levelo_inurba_marseille","lat":43.299724,"lon":5.371829,"is_reserved":false,"is_disabled":false,"rental_uris":{"android":"levelo://app?vid=82d62bae-06f6-45cd-bc33-db3f098ee2ba","ios":"levelo://app?vid=82d62bae-06f6-45cd-bc33-db3f098ee2ba"},"vehicle_type_id":"4","last_reported":1710954339,"current_range_meters":10000,"station_id":"ce4bgr92rcd13ifvqc7g","pricing_plan_id":"cebpf4jnsgd1na2vs0mg"},{"bike_id":"a93ef573-8a53-4682-b24a-f8e94557cfc3","system_id":"levelo_inurba_marseille","lat":43.299222,"lon":5.365554,"is_reserved":false,"is_disabled":false,"rental_uris":{"android":"levelo://app?vid=a93ef573-8a53-4682-b24a-f8e94557cfc3","ios":"levelo://app?vid=a93ef573-8a53-4682-b24a-f8e94557cfc3"},"vehicle_type_id":"4","last_reported":1710954339,"current_range_meters":25200,"station_id":"ce4bgm92rcd13ifvqbr0","pricing_plan_id":"cebpf4jnsgd1na2vs0mg"},{"bike_id":"31c10347-5f72-4c2b-8944-8a1f671f78d8","system_id":"levelo_inurba_marseille","lat":43.299222,"lon":5.365554,"is_reserved":false,"is_disabled":false,"rental_uris":{"android":"levelo://app?vid=31c10347-5f72-4c2b-8944-8a1f671f78d8","ios":"levelo://app?vid=31c10347-5f72-4c2b-8944-8a1f671f78d8"},"vehicle_type_id":"4","last_reported":1710954339,"current_range_meters":7600,"station_id":"ce4bgm92rcd13ifvqbr0","pricing_plan_id":"cebpf4jnsgd1na2vs0mg"},{"bike_id":"935f564b-92c9-4573-a132-59c52ec639d1","system_id":"levelo_inurba_marseille","lat":43.30257,"lon":5.37961,"is_reserved":false,"is_disabled":false,"rental_uris":{"android":"levelo://app?vid=935f564b-92c9-4573-a132-59c52ec639d1","ios":"levelo://app?vid=935f564b-92c9-4573-a132-59c52ec639d1"},"vehicle_type_id":"4","last_reported":1710954339,"current_range_meters":2400,"station_id":"","pricing_plan_id":"cebpf4jnsgd1na2vs0mg"},{"bike_id":"55a19d38-d3dc-4bfc-b9bc-5bc4683d93b3","system_id":"levelo_inurba_marseille","lat":43.311722,"lon":5.387247,"is_reserved":false,"is_disabled":false,"rental_uris":{"android":"levelo://app?vid=55a19d38-d3dc-4bfc-b9bc-5bc4683d93b3","ios":"levelo://app?vid=55a19d38-d3dc-4bfc-b9bc-5bc4683d93b3"},"vehicle_type_id":"4","last_reported":1710954339,"current_range_meters":21200,"station_id":"ce4bgv12rcd13ifvqcp0","pricing_plan_id":"cebpf4jnsgd1na2vs0mg"},{"bike_id":"1c14e624-b806-42f6-ae17-38dd81d7df0d","system_id":"levelo_inurba_marseille","lat":43.31229,"lon":5.38651,"is_reserved":false,"is_disabled":false,"rental_uris":{"android":"levelo://app?vid=1c14e624-b806-42f6-ae17-38dd81d7df0d","ios":"levelo://app?vid=1c14e624-b806-42f6-ae17-38dd81d7df0d"},"vehicle_type_id":"4","last_reported":1710954339,"current_range_meters":22400,"station_id":"","pricing_plan_id":"cebpf4jnsgd1na2vs0mg"},{"bike_id":"3a68561b-6005-463f-88a8-4e529567f474","system_id":"levelo_inurba_marseille","lat":43.298433,"lon":5.362774,"is_reserved":false,"is_disabled":false,"rental_uris":{"android":"levelo://app?vid=3a68561b-6005-463f-88a8-4e529567f474","ios":"levelo://app?vid=3a68561b-6005-463f-88a8-4e529567f474"},"vehicle_type_id":"4","last_reported":1710954339,"current_range_meters":10000,"station_id":"ce4bgpp2rcd13ifvqc3g","pricing_plan_id":"cebpf4jnsgd1na2vs0mg"},{"bike_id":"20db7b29-40bc-4c29-9d30-940c30307c7d","system_id":"levelo_inurba_marseille","lat":43.2985,"lon":5.3629,"is_reserved":false,"is_disabled":false,"rental_uris":{"android":"levelo://app?vid=20db7b29-40bc-4c29-9d30-940c30307c7d","ios":"levelo://app?vid=20db7b29-40bc-4c29-9d30-940c30307c7d"},"vehicle_type_id":"4","last_reported":1710954339,"current_range_meters":16000,"station_id":"ce4bgpp2rcd13ifvqc3g","pricing_plan_id":"cebpf4jnsgd1na2vs0mg"},{"bike_id":"31815641-7402-473f-9e67-994a82473ce1","system_id":"levelo_inurba_marseille","lat":43.29849,"lon":5.36287,"is_reserved":false,"is_disabled":false,"rental_uris":{"android":"levelo://app?vid=31815641-7402-473f-9e67-994a82473ce1","ios":"levelo://app?vid=31815641-7402-473f-9e67-994a82473ce1"},"vehicle_type_id":"4","last_reported":1710954339,"current_range_meters":4400,"station_id":"ce4bgpp2rcd13ifvqc3g","pricing_plan_id":"cebpf4jnsgd1na2vs0mg"},{"bike_id":"2f37367a-e4f5-42ae-9ac3-56db79e008d1","system_id":"levelo_inurba_marseille","lat":43.29849,"lon":5.36283,"is_reserved":false,"is_disabled":false,"rental_uris":{"android":"levelo://app?vid=2f37367a-e4f5-42ae-9ac3-56db79e008d1","ios":"levelo://app?vid=2f37367a-e4f5-42ae-9ac3-56db79e008d1"},"vehicle_type_id":"4","last_reported":1710954339,"current_range_meters":14800,"station_id":"ce4bgpp2rcd13ifvqc3g","pricing_plan_id":"cebpf4jnsgd1na2vs0mg"},{"bike_id":"7430d5a3-8f47-4fce-bc6e-7675011a23bc","system_id":"levelo_inurba_marseille","lat":43.311722,"lon":5.387247,"is_reserved":false,"is_disabled":false,"rental_uris":{"android":"levelo://app?vid=7430d5a3-8f47-4fce-bc6e-7675011a23bc","ios":"levelo://app?vid=7430d5a3-8f47-4fce-bc6e-7675011a23bc"},"vehicle_type_id":"4","last_reported":1710954339,"current_range_meters":15200,"station_id":"ce4bgv12rcd13ifvqcp0","pricing_plan_id":"cebpf4jnsgd1na2vs0mg"},{"bike_id":"82f3bb5f-61b0-4579-bef7-4905a4b4e003","system_id":"levelo_inurba_marseille","lat":43.299191,"lon":5.374936,"is_reserved":false,"is_disabled":false,"rental_uris":{"android":"levelo://app?vid=82f3bb5f-61b0-4579-bef7-4905a4b4e003","ios":"levelo://app?vid=82f3bb5f-61b0-4579-bef7-4905a4b4e003"},"vehicle_type_id":"4","last_reported":1710954339,"current_range_meters":0,"station_id":"ce4bgjh2rcd13ifvqbg0","pricing_plan_id":"cebpf4jnsgd1na2vs0mg"},{"bike_id":"85492a61-d12f-4bd2-a920-1e2a49a307a0","system_id":"levelo_inurba_marseille","lat":43.311722,"lon":5.387247,"is_reserved":false,"is_disabled":false,"rental_uris":{"android":"levelo://app?vid=85492a61-d12f-4bd2-a920-1e2a49a307a0","ios":"levelo://app?vid=85492a61-d12f-4bd2-a920-1e2a49a307a0"},"vehicle_type_id":"4","last_reported":1710954339,"current_range_meters":25600,"station_id":"ce4bgv12rcd13ifvqcp0","pricing_plan_id":"cebpf4jnsgd1na2vs0mg"},{"bike_id":"a723c156-6de4-47d3-907b-5a6fbc1fd7c6","system_id":"levelo_inurba_marseille","lat":43.311722,"lon":5.387247,"is_reserved":false,"is_disabled":false,"rental_uris":{"android":"levelo://app?vid=a723c156-6de4-47d3-907b-5a6fbc1fd7c6","ios":"levelo://app?vid=a723c156-6de4-47d3-907b-5a6fbc1fd7c6"},"vehicle_type_id":"4","last_reported":1710954339,"current_range_meters":12400,"station_id":"ce4bgv12rcd13ifvqcp0","pricing_plan_id":"cebpf4jnsgd1na2vs0mg"},{"bike_id":"9a102cad-766f-4fab-83ba-70e5696e688a","system_id":"levelo_inurba_marseille","lat":43.311722,"lon":5.387247,"is_reserved":false,"is_disabled":false,"rental_uris":{"android":"levelo://app?vid=9a102cad-766f-4fab-83ba-70e5696e688a","ios":"levelo://app?vid=9a102cad-766f-4fab-83ba-70e5696e688a"},"vehicle_type_id":"4","last_reported":1710954339,"current_range_meters":6800,"station_id":"ce4bgv12rcd13ifvqcp0","pricing_plan_id":"cebpf4jnsgd1na2vs0mg"},{"bike_id":"70fdb8fd-d7b8-4038-bb89-3aca5be85a85","system_id":"levelo_inurba_marseille","lat":43.311722,"lon":5.387247,"is_reserved":false,"is_disabled":false,"rental_uris":{"android":"levelo://app?vid=70fdb8fd-d7b8-4038-bb89-3aca5be85a85","ios":"levelo://app?vid=70fdb8fd-d7b8-4038-bb89-3aca5be85a85"},"vehicle_type_id":"4","last_reported":1710954339,"current_range_meters":5600,"station_id":"ce4bgv12rcd13ifvqcp0","pricing_plan_id":"cebpf4jnsgd1na2vs0mg"},{"bike_id":"4a475677-fd90-4b89-90fb-3bd1728b041a","system_id":"levelo_inurba_marseille","lat":43.311722,"lon":5.387247,"is_reserved":false,"is_disabled":false,"rental_uris":{"android":"levelo://app?vid=4a475677-fd90-4b89-90fb-3bd1728b041a","ios":"levelo://app?vid=4a475677-fd90-4b89-90fb-3bd1728b041a"},"vehicle_type_id":"4","last_reported":1710954339,"current_range_meters":27600,"station_id":"ce4bgv12rcd13ifvqcp0","pricing_plan_id":"cebpf4jnsgd1na2vs0mg"},{"bike_id":"7f047c5f-9adc-4eb5-b1f5-ad56bc46e25a","system_id":"levelo_inurba_marseille","lat":43.29782,"lon":5.37107,"is_reserved":false,"is_disabled":false,"rental_uris":{"android":"levelo://app?vid=7f047c5f-9adc-4eb5-b1f5-ad56bc46e25a","ios":"levelo://app?vid=7f047c5f-9adc-4eb5-b1f5-ad56bc46e25a"},"vehicle_type_id":"4","last_reported":1710954339,"current_range_meters":23200,"station_id":"ce4bgop2rcd13ifvqc1g","pricing_plan_id":"cebpf4jnsgd1na2vs0mg"},{"bike_id":"feead7e7-9cee-4c57-94a6-da647512767c","system_id":"levelo_inurba_marseille","lat":43.322896,"lon":5.382515,"is_reserved":false,"is_disabled":false,"rental_uris":{"android":"levelo://app?vid=feead7e7-9cee-4c57-94a6-da647512767c","ios":"levelo://app?vid=feead7e7-9cee-4c57-94a6-da647512767c"},"vehicle_type_id":"4","last_reported":1710954339,"current_range_meters":18000,"station_id":"ce4bhr12rcd13ifvqhqg","pricing_plan_id":"cebpf4jnsgd1na2vs0mg"},{"bike_id":"c865e649-189a-49c7-bd44-564091b00a26","system_id":"levelo_inurba_marseille","lat":43.32287,"lon":5.38261,"is_reserved":false,"is_disabled":false,"rental_uris":{"android":"levelo://app?vid=c865e649-189a-49c7-bd44-564091b00a26","ios":"levelo://app?vid=c865e649-189a-49c7-bd44-564091b00a26"},"vehicle_type_id":"4","last_reported":1710954339,"current_range_meters":10000,"station_id":"ce4bhr12rcd13ifvqhqg","pricing_plan_id":"cebpf4jnsgd1na2vs0mg"},{"bike_id":"b95a6c75-914a-4657-89de-306b3f28611a","system_id":"levelo_inurba_marseille","lat":43.32288,"lon":5.3826,"is_reserved":false,"is_disabled":false,"rental_uris":{"android":"levelo://app?vid=b95a6c75-914a-4657-89de-306b3f28611a","ios":"levelo://app?vid=b95a6c75-914a-4657-89de-306b3f28611a"},"vehicle_type_id":"4","last_reported":1710954339,"current_range_meters":4000,"station_id":"ce4bhr12rcd13ifvqhqg","pricing_plan_id":"cebpf4jnsgd1na2vs0mg"},{"bike_id":"8805e5c2-5ebc-4d17-aa66-b7acbedf72f2","system_id":"levelo_inurba_marseille","lat":43.32293,"lon":5.38255,"is_reserved":false,"is_disabled":false,"rental_uris":{"android":"levelo://app?vid=8805e5c2-5ebc-4d17-aa66-b7acbedf72f2","ios":"levelo://app?vid=8805e5c2-5ebc-4d17-aa66-b7acbedf72f2"},"vehicle_type_id":"4","last_reported":1710954339,"current_range_meters":27600,"station_id":"ce4bhr12rcd13ifvqhqg","pricing_plan_id":"cebpf4jnsgd1na2vs0mg"},{"bike_id":"4f4a75fa-11e1-4b9c-9fc5-7e2938322638","system_id":"levelo_inurba_marseille","lat":43.322896,"lon":5.382595,"is_reserved":false,"is_disabled":false,"rental_uris":{"android":"levelo://app?vid=4f4a75fa-11e1-4b9c-9fc5-7e2938322638","ios":"levelo://app?vid=4f4a75fa-11e1-4b9c-9fc5-7e2938322638"},"vehicle_type_id":"4","last_reported":1710954339,"current_range_meters":22000,"station_id":"ce4bhr12rcd13ifvqhqg","pricing_plan_id":"cebpf4jnsgd1na2vs0mg"},{"bike_id":"5f8b4803-e4ba-4452-a9f1-55c7a87b5d2b","system_id":"levelo_inurba_marseille","lat":43.32288,"lon":5.382619,"is_reserved":false,"is_disabled":false,"rental_uris":{"android":"levelo://app?vid=5f8b4803-e4ba-4452-a9f1-55c7a87b5d2b","ios":"levelo://app?vid=5f8b4803-e4ba-4452-a9f1-55c7a87b5d2b"},"vehicle_type_id":"4","last_reported":1710954339,"current_range_meters":12400,"station_id":"ce4bhr12rcd13ifvqhqg","pricing_plan_id":"cebpf4jnsgd1na2vs0mg"},{"bike_id":"f32c3800-2880-49c9-b647-144d107e7f9a","system_id":"levelo_inurba_marseille","lat":43.32289,"lon":5.38261,"is_reserved":false,"is_disabled":false,"rental_uris":{"android":"levelo://app?vid=f32c3800-2880-49c9-b647-144d107e7f9a","ios":"levelo://app?vid=f32c3800-2880-49c9-b647-144d107e7f9a"},"vehicle_type_id":"4","last_reported":1710954339,"current_range_meters":22000,"station_id":"ce4bhr12rcd13ifvqhqg","pricing_plan_id":"cebpf4jnsgd1na2vs0mg"},{"bike_id":"accb2f69-ca20-4b2f-9b54-89cf5f810bdd","system_id":"levelo_inurba_marseille","lat":43.3229,"lon":5.3826,"is_reserved":false,"is_disabled":false,"rental_uris":{"android":"levelo://app?vid=accb2f69-ca20-4b2f-9b54-89cf5f810bdd","ios":"levelo://app?vid=accb2f69-ca20-4b2f-9b54-89cf5f810bdd"},"vehicle_type_id":"4","last_reported":1710954339,"current_range_meters":20400,"station_id":"ce4bhr12rcd13ifvqhqg","pricing_plan_id":"cebpf4jnsgd1na2vs0mg"},{"bike_id":"36727d06-0af4-4c64-88de-4193d3d2494b","system_id":"levelo_inurba_marseille","lat":43.32292,"lon":5.382585,"is_reserved":false,"is_disabled":false,"rental_uris":{"android":"levelo://app?vid=36727d06-0af4-4c64-88de-4193d3d2494b","ios":"levelo://app?vid=36727d06-0af4-4c64-88de-4193d3d2494b"},"vehicle_type_id":"4","last_reported":1710954339,"current_range_meters":11200,"station_id":"ce4bhr12rcd13ifvqhqg","pricing_plan_id":"cebpf4jnsgd1na2vs0mg"},{"bike_id":"62e90e97-975b-4b7d-879f-5a0c84df8cc7","system_id":"levelo_inurba_marseille","lat":43.322916,"lon":5.382594,"is_reserved":false,"is_disabled":false,"rental_uris":{"android":"levelo://app?vid=62e90e97-975b-4b7d-879f-5a0c84df8cc7","ios":"levelo://app?vid=62e90e97-975b-4b7d-879f-5a0c84df8cc7"},"vehicle_type_id":"4","last_reported":1710954339,"current_range_meters":3600,"station_id":"ce4bhr12rcd13ifvqhqg","pricing_plan_id":"cebpf4jnsgd1na2vs0mg"},{"bike_id":"bd6b6545-b45a-4dc0-b743-d330ab6c2563","system_id":"levelo_inurba_marseille","lat":43.32292,"lon":5.38259,"is_reserved":false,"is_disabled":false,"rental_uris":{"android":"levelo://app?vid=bd6b6545-b45a-4dc0-b743-d330ab6c2563","ios":"levelo://app?vid=bd6b6545-b45a-4dc0-b743-d330ab6c2563"},"vehicle_type_id":"4","last_reported":1710954339,"current_range_meters":26400,"station_id":"ce4bhr12rcd13ifvqhqg","pricing_plan_id":"cebpf4jnsgd1na2vs0mg"},{"bike_id":"fe2c0272-b23e-47ab-9983-08819dc287f5","system_id":"levelo_inurba_marseille","lat":43.32297,"lon":5.38253,"is_reserved":false,"is_disabled":false,"rental_uris":{"android":"levelo://app?vid=fe2c0272-b23e-47ab-9983-08819dc287f5","ios":"levelo://app?vid=fe2c0272-b23e-47ab-9983-08819dc287f5"},"vehicle_type_id":"4","last_reported":1710954339,"current_range_meters":9600,"station_id":"ce4bhr12rcd13ifvqhqg","pricing_plan_id":"cebpf4jnsgd1na2vs0mg"},{"bike_id":"a256d229-a5a5-41a4-8cd4-9c14e8c38553","system_id":"levelo_inurba_marseille","lat":43.32287,"lon":5.38269,"is_reserved":false,"is_disabled":false,"rental_uris":{"android":"levelo://app?vid=a256d229-a5a5-41a4-8cd4-9c14e8c38553","ios":"levelo://app?vid=a256d229-a5a5-41a4-8cd4-9c14e8c38553"},"vehicle_type_id":"4","last_reported":1710954339,"current_range_meters":20400,"station_id":"ce4bhr12rcd13ifvqhqg","pricing_plan_id":"cebpf4jnsgd1na2vs0mg"},{"bike_id":"3f897b5a-cdff-4477-8cbe-02af1e3040aa","system_id":"levelo_inurba_marseille","lat":43.32288,"lon":5.38268,"is_reserved":false,"is_disabled":false,"rental_uris":{"android":"levelo://app?vid=3f897b5a-cdff-4477-8cbe-02af1e3040aa","ios":"levelo://app?vid=3f897b5a-cdff-4477-8cbe-02af1e3040aa"},"vehicle_type_id":"4","last_reported":1710954339,"current_range_meters":26000,"station_id":"ce4bhr12rcd13ifvqhqg","pricing_plan_id":"cebpf4jnsgd1na2vs0mg"},{"bike_id":"3ff125a5-dff1-4591-b6cc-449dc2424878","system_id":"levelo_inurba_marseille","lat":43.3229,"lon":5.38266,"is_reserved":false,"is_disabled":false,"rental_uris":{"android":"levelo://app?vid=3ff125a5-dff1-4591-b6cc-449dc2424878","ios":"levelo://app?vid=3ff125a5-dff1-4591-b6cc-449dc2424878"},"vehicle_type_id":"4","last_reported":1710954339,"current_range_meters":14400,"station_id":"ce4bhr12rcd13ifvqhqg","pricing_plan_id":"cebpf4jnsgd1na2vs0mg"},{"bike_id":"91866b6c-0f1d-4595-a374-74c3f3fe3718","system_id":"levelo_inurba_marseille","lat":43.32288,"lon":5.38272,"is_reserved":false,"is_disabled":false,"rental_uris":{"android":"levelo://app?vid=91866b6c-0f1d-4595-a374-74c3f3fe3718","ios":"levelo://app?vid=91866b6c-0f1d-4595-a374-74c3f3fe3718"},"vehicle_type_id":"4","last_reported":1710954339,"current_range_meters":28800,"station_id":"ce4bhr12rcd13ifvqhqg","pricing_plan_id":"cebpf4jnsgd1na2vs0mg"},{"bike_id":"7a6e1e34-499e-43d0-812f-75e422b0fa90","system_id":"levelo_inurba_marseille","lat":43.322872,"lon":5.382756,"is_reserved":false,"is_disabled":false,"rental_uris":{"android":"levelo://app?vid=7a6e1e34-499e-43d0-812f-75e422b0fa90","ios":"levelo://app?vid=7a6e1e34-499e-43d0-812f-75e422b0fa90"},"vehicle_type_id":"4","last_reported":1710954339,"current_range_meters":12000,"station_id":"ce4bhr12rcd13ifvqhqg","pricing_plan_id":"cebpf4jnsgd1na2vs0mg"},{"bike_id":"85d4d71c-b2c1-426a-b0b8-be8461195f7e","system_id":"levelo_inurba_marseille","lat":43.322872,"lon":5.382756,"is_reserved":false,"is_disabled":false,"rental_uris":{"android":"levelo://app?vid=85d4d71c-b2c1-426a-b0b8-be8461195f7e","ios":"levelo://app?vid=85d4d71c-b2c1-426a-b0b8-be8461195f7e"},"vehicle_type_id":"4","last_reported":1710954339,"current_range_meters":30800,"station_id":"ce4bhr12rcd13ifvqhqg","pricing_plan_id":"cebpf4jnsgd1na2vs0mg"},{"bike_id":"575af3fb-33bf-4a22-a056-670f8999c1ee","system_id":"levelo_inurba_marseille","lat":43.322872,"lon":5.382756,"is_reserved":false,"is_disabled":false,"rental_uris":{"android":"levelo://app?vid=575af3fb-33bf-4a22-a056-670f8999c1ee","ios":"levelo://app?vid=575af3fb-33bf-4a22-a056-670f8999c1ee"},"vehicle_type_id":"4","last_reported":1710954339,"current_range_meters":31200,"station_id":"ce4bhr12rcd13ifvqhqg","pricing_plan_id":"cebpf4jnsgd1na2vs0mg"},{"bike_id":"f15b0355-2112-4631-980d-d37c34e26c81","system_id":"levelo_inurba_marseille","lat":43.322872,"lon":5.382756,"is_reserved":false,"is_disabled":false,"rental_uris":{"android":"levelo://app?vid=f15b0355-2112-4631-980d-d37c34e26c81","ios":"levelo://app?vid=f15b0355-2112-4631-980d-d37c34e26c81"},"vehicle_type_id":"4","last_reported":1710954339,"current_range_meters":23200,"station_id":"ce4bhr12rcd13ifvqhqg","pricing_plan_id":"cebpf4jnsgd1na2vs0mg"},{"bike_id":"b2ecf6ec-40a6-4de9-a0e2-d10ed01a8c3e","system_id":"levelo_inurba_marseille","lat":43.297163,"lon":5.365866,"is_reserved":false,"is_disabled":false,"rental_uris":{"android":"levelo://app?vid=b2ecf6ec-40a6-4de9-a0e2-d10ed01a8c3e","ios":"levelo://app?vid=b2ecf6ec-40a6-4de9-a0e2-d10ed01a8c3e"},"vehicle_type_id":"4","last_reported":1710954339,"current_range_meters":20000,"station_id":"ce4bgn12rcd13ifvqbt0","pricing_plan_id":"cebpf4jnsgd1na2vs0mg"},{"bike_id":"51f01408-5ade-4d15-b35f-67e429f491d5","system_id":"levelo_inurba_marseille","lat":43.297163,"lon":5.365866,"is_reserved":false,"is_disabled":false,"rental_uris":{"android":"levelo://app?vid=51f01408-5ade-4d15-b35f-67e429f491d5","ios":"levelo://app?vid=51f01408-5ade-4d15-b35f-67e429f491d5"},"vehicle_type_id":"4","last_reported":1710954339,"current_range_meters":6000,"station_id":"ce4bgn12rcd13ifvqbt0","pricing_plan_id":"cebpf4jnsgd1na2vs0mg"},{"bike_id":"411f69bd-6029-4e81-afe9-fe385faac392","system_id":"levelo_inurba_marseille","lat":43.31795,"lon":5.38785,"is_reserved":false,"is_disabled":false,"rental_uris":{"android":"levelo://app?vid=411f69bd-6029-4e81-afe9-fe385faac392","ios":"levelo://app?vid=411f69bd-6029-4e81-afe9-fe385faac392"},"vehicle_type_id":"4","last_reported":1710954339,"current_range_meters":18000,"station_id":"","pricing_plan_id":"cebpf4jnsgd1na2vs0mg"},{"bike_id":"0eb28720-4851-4135-b3af-76b432a2117c","system_id":"levelo_inurba_marseille","lat":43.31794,"lon":5.3879,"is_reserved":false,"is_disabled":false,"rental_uris":{"android":"levelo://app?vid=0eb28720-4851-4135-b3af-76b432a2117c","ios":"levelo://app?vid=0eb28720-4851-4135-b3af-76b432a2117c"},"vehicle_type_id":"4","last_reported":1710954339,"current_range_meters":30800,"station_id":"","pricing_plan_id":"cebpf4jnsgd1na2vs0mg"},{"bike_id":"e85417f0-1e2a-4b6c-9dab-b1be1e806110","system_id":"levelo_inurba_marseille","lat":43.29868,"lon":5.37903,"is_reserved":false,"is_disabled":false,"rental_uris":{"android":"levelo://app?vid=e85417f0-1e2a-4b6c-9dab-b1be1e806110","ios":"levelo://app?vid=e85417f0-1e2a-4b6c-9dab-b1be1e806110"},"vehicle_type_id":"4","last_reported":1710954339,"current_range_meters":31200,"station_id":"","pricing_plan_id":"cebpf4jnsgd1na2vs0mg"},{"bike_id":"c0b5b93a-8388-43e3-8685-c9c6cf29a9ed","system_id":"levelo_inurba_marseille","lat":43.296131,"lon":5.370773,"is_reserved":false,"is_disabled":false,"rental_uris":{"android":"levelo://app?vid=c0b5b93a-8388-43e3-8685-c9c6cf29a9ed","ios":"levelo://app?vid=c0b5b93a-8388-43e3-8685-c9c6cf29a9ed"},"vehicle_type_id":"4","last_reported":1710954339,"current_range_meters":31200,"station_id":"ce4bgnh2rcd13ifvqc0g","pricing_plan_id":"cebpf4jnsgd1na2vs0mg"},{"bike_id":"bd807644-d7a8-4486-a02f-a6d92d6b53b4","system_id":"levelo_inurba_marseille","lat":43.296131,"lon":5.370791,"is_reserved":false,"is_disabled":false,"rental_uris":{"android":"levelo://app?vid=bd807644-d7a8-4486-a02f-a6d92d6b53b4","ios":"levelo://app?vid=bd807644-d7a8-4486-a02f-a6d92d6b53b4"},"vehicle_type_id":"4","last_reported":1710954339,"current_range_meters":27600,"station_id":"ce4bgnh2rcd13ifvqc0g","pricing_plan_id":"cebpf4jnsgd1na2vs0mg"},{"bike_id":"7cb23a25-3a5e-418a-9351-f0653add1b09","system_id":"levelo_inurba_marseille","lat":43.296129,"lon":5.370777,"is_reserved":false,"is_disabled":false,"rental_uris":{"android":"levelo://app?vid=7cb23a25-3a5e-418a-9351-f0653add1b09","ios":"levelo://app?vid=7cb23a25-3a5e-418a-9351-f0653add1b09"},"vehicle_type_id":"4","last_reported":1710954339,"current_range_meters":20400,"station_id":"ce4bgnh2rcd13ifvqc0g","pricing_plan_id":"cebpf4jnsgd1na2vs0mg"},{"bike_id":"ebf65096-89ae-4d63-8719-96cc61f3ef47","system_id":"levelo_inurba_marseille","lat":43.296131,"lon":5.370791,"is_reserved":false,"is_disabled":false,"rental_uris":{"android":"levelo://app?vid=ebf65096-89ae-4d63-8719-96cc61f3ef47","ios":"levelo://app?vid=ebf65096-89ae-4d63-8719-96cc61f3ef47"},"vehicle_type_id":"4","last_reported":1710954339,"current_range_meters":24000,"station_id":"ce4bgnh2rcd13ifvqc0g","pricing_plan_id":"cebpf4jnsgd1na2vs0mg"},{"bike_id":"61b97f1d-12aa-4013-a203-6237536e00c6","system_id":"levelo_inurba_marseille","lat":43.296131,"lon":5.370791,"is_reserved":false,"is_disabled":false,"rental_uris":{"android":"levelo://app?vid=61b97f1d-12aa-4013-a203-6237536e00c6","ios":"levelo://app?vid=61b97f1d-12aa-4013-a203-6237536e00c6"},"vehicle_type_id":"4","last_reported":1710954339,"current_range_meters":31200,"station_id":"ce4bgnh2rcd13ifvqc0g","pricing_plan_id":"cebpf4jnsgd1na2vs0mg"},{"bike_id":"6b8484b5-5066-4eb8-a375-1f84de213b29","system_id":"levelo_inurba_marseille","lat":43.296131,"lon":5.370791,"is_reserved":false,"is_disabled":false,"rental_uris":{"android":"levelo://app?vid=6b8484b5-5066-4eb8-a375-1f84de213b29","ios":"levelo://app?vid=6b8484b5-5066-4eb8-a375-1f84de213b29"},"vehicle_type_id":"4","last_reported":1710954339,"current_range_meters":29600,"station_id":"ce4bgnh2rcd13ifvqc0g","pricing_plan_id":"cebpf4jnsgd1na2vs0mg"},{"bike_id":"81ee5a7c-2789-44de-a4d5-08015144056f","system_id":"levelo_inurba_marseille","lat":43.296131,"lon":5.370791,"is_reserved":false,"is_disabled":false,"rental_uris":{"android":"levelo://app?vid=81ee5a7c-2789-44de-a4d5-08015144056f","ios":"levelo://app?vid=81ee5a7c-2789-44de-a4d5-08015144056f"},"vehicle_type_id":"4","last_reported":1710954339,"current_range_meters":9200,"station_id":"ce4bgnh2rcd13ifvqc0g","pricing_plan_id":"cebpf4jnsgd1na2vs0mg"},{"bike_id":"bc7671f2-adef-4b8f-83c1-779b0b2b20ca","system_id":"levelo_inurba_marseille","lat":43.296129,"lon":5.370777,"is_reserved":false,"is_disabled":false,"rental_uris":{"android":"levelo://app?vid=bc7671f2-adef-4b8f-83c1-779b0b2b20ca","ios":"levelo://app?vid=bc7671f2-adef-4b8f-83c1-779b0b2b20ca"},"vehicle_type_id":"4","last_reported":1710954339,"current_range_meters":22800,"station_id":"ce4bgnh2rcd13ifvqc0g","pricing_plan_id":"cebpf4jnsgd1na2vs0mg"},{"bike_id":"4f611a11-84f6-4e4c-9882-310982af4401","system_id":"levelo_inurba_marseille","lat":43.29586,"lon":5.36739,"is_reserved":false,"is_disabled":false,"rental_uris":{"android":"levelo://app?vid=4f611a11-84f6-4e4c-9882-310982af4401","ios":"levelo://app?vid=4f611a11-84f6-4e4c-9882-310982af4401"},"vehicle_type_id":"4","last_reported":1710954339,"current_range_meters":28000,"station_id":"ce4bgph2rcd13ifvqc2g","pricing_plan_id":"cebpf4jnsgd1na2vs0mg"},{"bike_id":"33b152e2-02f1-4c4c-9b2a-4e984ca65718","system_id":"levelo_inurba_marseille","lat":43.296131,"lon":5.370791,"is_reserved":false,"is_disabled":false,"rental_uris":{"android":"levelo://app?vid=33b152e2-02f1-4c4c-9b2a-4e984ca65718","ios":"levelo://app?vid=33b152e2-02f1-4c4c-9b2a-4e984ca65718"},"vehicle_type_id":"4","last_reported":1710954339,"current_range_meters":24800,"station_id":"ce4bgnh2rcd13ifvqc0g","pricing_plan_id":"cebpf4jnsgd1na2vs0mg"},{"bike_id":"82623277-f722-441a-bc68-13e28606881a","system_id":"levelo_inurba_marseille","lat":43.296129,"lon":5.370777,"is_reserved":false,"is_disabled":false,"rental_uris":{"android":"levelo://app?vid=82623277-f722-441a-bc68-13e28606881a","ios":"levelo://app?vid=82623277-f722-441a-bc68-13e28606881a"},"vehicle_type_id":"4","last_reported":1710954339,"current_range_meters":27600,"station_id":"ce4bgnh2rcd13ifvqc0g","pricing_plan_id":"cebpf4jnsgd1na2vs0mg"},{"bike_id":"cfab378c-ce97-43a3-9ea9-c7fb8c3d2b81","system_id":"levelo_inurba_marseille","lat":43.30987,"lon":5.38998,"is_reserved":false,"is_disabled":false,"rental_uris":{"android":"levelo://app?vid=cfab378c-ce97-43a3-9ea9-c7fb8c3d2b81","ios":"levelo://app?vid=cfab378c-ce97-43a3-9ea9-c7fb8c3d2b81"},"vehicle_type_id":"4","last_reported":1710954339,"current_range_meters":0,"station_id":"ce4bgup2rcd13ifvqco0","pricing_plan_id":"cebpf4jnsgd1na2vs0mg"},{"bike_id":"f292ea94-0d9e-4f09-bdd9-c1b0b5ba58ad","system_id":"levelo_inurba_marseille","lat":43.29721,"lon":5.37682,"is_reserved":false,"is_disabled":false,"rental_uris":{"android":"levelo://app?vid=f292ea94-0d9e-4f09-bdd9-c1b0b5ba58ad","ios":"levelo://app?vid=f292ea94-0d9e-4f09-bdd9-c1b0b5ba58ad"},"vehicle_type_id":"4","last_reported":1710954339,"current_range_meters":0,"station_id":"ce4bgi92rcd13ifvqb90","pricing_plan_id":"cebpf4jnsgd1na2vs0mg"},{"bike_id":"567da93e-ece7-4f16-aa10-915209dc40f2","system_id":"levelo_inurba_marseille","lat":43.299028,"lon":5.381509,"is_reserved":false,"is_disabled":false,"rental_uris":{"android":"levelo://app?vid=567da93e-ece7-4f16-aa10-915209dc40f2","ios":"levelo://app?vid=567da93e-ece7-4f16-aa10-915209dc40f2"},"vehicle_type_id":"4","last_reported":1710954339,"current_range_meters":16000,"station_id":"ce4bgj12rcd13ifvqbc0","pricing_plan_id":"cebpf4jnsgd1na2vs0mg"},{"bike_id":"3e9ec2f5-bf00-4d85-9832-15de3adc1676","system_id":"levelo_inurba_marseille","lat":43.309589,"lon":5.390258,"is_reserved":false,"is_disabled":false,"rental_uris":{"android":"levelo://app?vid=3e9ec2f5-bf00-4d85-9832-15de3adc1676","ios":"levelo://app?vid=3e9ec2f5-bf00-4d85-9832-15de3adc1676"},"vehicle_type_id":"4","last_reported":1710954339,"current_range_meters":0,"station_id":"ce4bgup2rcd13ifvqco0","pricing_plan_id":"cebpf4jnsgd1na2vs0mg"},{"bike_id":"e60e4f05-f586-4e0d-87e7-aeac09f2f1c4","system_id":"levelo_inurba_marseille","lat":43.317557,"lon":5.390173,"is_reserved":false,"is_disabled":false,"rental_uris":{"android":"levelo://app?vid=e60e4f05-f586-4e0d-87e7-aeac09f2f1c4","ios":"levelo://app?vid=e60e4f05-f586-4e0d-87e7-aeac09f2f1c4"},"vehicle_type_id":"4","last_reported":1710954339,"current_range_meters":400,"station_id":"ce4bhqp2rcd13ifvqhng","pricing_plan_id":"cebpf4jnsgd1na2vs0mg"},{"bike_id":"e2a7c663-01e5-46c8-ab3f-6eb0785905ac","system_id":"levelo_inurba_marseille","lat":43.317557,"lon":5.390173,"is_reserved":false,"is_disabled":false,"rental_uris":{"android":"levelo://app?vid=e2a7c663-01e5-46c8-ab3f-6eb0785905ac","ios":"levelo://app?vid=e2a7c663-01e5-46c8-ab3f-6eb0785905ac"},"vehicle_type_id":"4","last_reported":1710954339,"current_range_meters":8800,"station_id":"ce4bhqp2rcd13ifvqhng","pricing_plan_id":"cebpf4jnsgd1na2vs0mg"},{"bike_id":"a7936f9f-71c0-4704-adbb-9c0e55004743","system_id":"levelo_inurba_marseille","lat":43.317557,"lon":5.390173,"is_reserved":false,"is_disabled":false,"rental_uris":{"android":"levelo://app?vid=a7936f9f-71c0-4704-adbb-9c0e55004743","ios":"levelo://app?vid=a7936f9f-71c0-4704-adbb-9c0e55004743"},"vehicle_type_id":"4","last_reported":1710954339,"current_range_meters":17200,"station_id":"ce4bhqp2rcd13ifvqhng","pricing_plan_id":"cebpf4jnsgd1na2vs0mg"},{"bike_id":"46515374-5184-4073-9785-447380ba9363","system_id":"levelo_inurba_marseille","lat":43.317557,"lon":5.390173,"is_reserved":false,"is_disabled":false,"rental_uris":{"android":"levelo://app?vid=46515374-5184-4073-9785-447380ba9363","ios":"levelo://app?vid=46515374-5184-4073-9785-447380ba9363"},"vehicle_type_id":"4","last_reported":1710954339,"current_range_meters":8800,"station_id":"ce4bhqp2rcd13ifvqhng","pricing_plan_id":"cebpf4jnsgd1na2vs0mg"},{"bike_id":"7bacde39-4fbf-4300-af04-705bff239bb6","system_id":"levelo_inurba_marseille","lat":43.295748,"lon":5.37522,"is_reserved":false,"is_disabled":false,"rental_uris":{"android":"levelo://app?vid=7bacde39-4fbf-4300-af04-705bff239bb6","ios":"levelo://app?vid=7bacde39-4fbf-4300-af04-705bff239bb6"},"vehicle_type_id":"4","last_reported":1710954339,"current_range_meters":0,"station_id":"ce4bgh92rcd13ifvqb50","pricing_plan_id":"cebpf4jnsgd1na2vs0mg"},{"bike_id":"885d067a-0115-49b6-bd2f-269c59d1ac8a","system_id":"levelo_inurba_marseille","lat":43.297569,"lon":5.380163,"is_reserved":false,"is_disabled":false,"rental_uris":{"android":"levelo://app?vid=885d067a-0115-49b6-bd2f-269c59d1ac8a","ios":"levelo://app?vid=885d067a-0115-49b6-bd2f-269c59d1ac8a"},"vehicle_type_id":"4","last_reported":1710954339,"current_range_meters":1200,"station_id":"ce4bgip2rcd13ifvqbb0","pricing_plan_id":"cebpf4jnsgd1na2vs0mg"},{"bike_id":"9e858a22-f3a1-4aff-809e-221edaedfa56","system_id":"levelo_inurba_marseille","lat":43.295748,"lon":5.37522,"is_reserved":false,"is_disabled":false,"rental_uris":{"android":"levelo://app?vid=9e858a22-f3a1-4aff-809e-221edaedfa56","ios":"levelo://app?vid=9e858a22-f3a1-4aff-809e-221edaedfa56"},"vehicle_type_id":"4","last_reported":1710954339,"current_range_meters":17600,"station_id":"ce4bgh92rcd13ifvqb50","pricing_plan_id":"cebpf4jnsgd1na2vs0mg"},{"bike_id":"14cf4d24-e0af-4918-980f-aaaa8dfee3cc","system_id":"levelo_inurba_marseille","lat":43.30434,"lon":5.38878,"is_reserved":false,"is_disabled":false,"rental_uris":{"android":"levelo://app?vid=14cf4d24-e0af-4918-980f-aaaa8dfee3cc","ios":"levelo://app?vid=14cf4d24-e0af-4918-980f-aaaa8dfee3cc"},"vehicle_type_id":"4","last_reported":1710954339,"current_range_meters":0,"station_id":"ce4bgk12rcd13ifvqbi0","pricing_plan_id":"cebpf4jnsgd1na2vs0mg"},{"bike_id":"41d20020-95b1-4d30-a14e-d24e9d6aa044","system_id":"levelo_inurba_marseille","lat":43.298037,"lon":5.381066,"is_reserved":false,"is_disabled":false,"rental_uris":{"android":"levelo://app?vid=41d20020-95b1-4d30-a14e-d24e9d6aa044","ios":"levelo://app?vid=41d20020-95b1-4d30-a14e-d24e9d6aa044"},"vehicle_type_id":"4","last_reported":1710954339,"current_range_meters":6000,"station_id":"ce4bgip2rcd13ifvqbb0","pricing_plan_id":"cebpf4jnsgd1na2vs0mg"},{"bike_id":"de3d0f92-cea8-4164-85ae-270ab1ae9ba7","system_id":"levelo_inurba_marseille","lat":43.29627,"lon":5.37711,"is_reserved":false,"is_disabled":false,"rental_uris":{"android":"levelo://app?vid=de3d0f92-cea8-4164-85ae-270ab1ae9ba7","ios":"levelo://app?vid=de3d0f92-cea8-4164-85ae-270ab1ae9ba7"},"vehicle_type_id":"4","last_reported":1710954339,"current_range_meters":0,"station_id":"ce4bgi92rcd13ifvqb90","pricing_plan_id":"cebpf4jnsgd1na2vs0mg"},{"bike_id":"4ec33cad-2d4d-4e29-bd8e-9c4ae7ba8d75","system_id":"levelo_inurba_marseille","lat":43.298037,"lon":5.381066,"is_reserved":false,"is_disabled":false,"rental_uris":{"android":"levelo://app?vid=4ec33cad-2d4d-4e29-bd8e-9c4ae7ba8d75","ios":"levelo://app?vid=4ec33cad-2d4d-4e29-bd8e-9c4ae7ba8d75"},"vehicle_type_id":"4","last_reported":1710954339,"current_range_meters":0,"station_id":"ce4bgip2rcd13ifvqbb0","pricing_plan_id":"cebpf4jnsgd1na2vs0mg"},{"bike_id":"e3da08fb-0855-4317-8a27-aa5af374506d","system_id":"levelo_inurba_marseille","lat":43.304308,"lon":5.388892,"is_reserved":false,"is_disabled":false,"rental_uris":{"android":"levelo://app?vid=e3da08fb-0855-4317-8a27-aa5af374506d","ios":"levelo://app?vid=e3da08fb-0855-4317-8a27-aa5af374506d"},"vehicle_type_id":"4","last_reported":1710954339,"current_range_meters":0,"station_id":"ce4bgk12rcd13ifvqbi0","pricing_plan_id":"cebpf4jnsgd1na2vs0mg"},{"bike_id":"2c4de2cd-abf3-4f45-a92d-633b49e84926","system_id":"levelo_inurba_marseille","lat":43.29621,"lon":5.37712,"is_reserved":false,"is_disabled":false,"rental_uris":{"android":"levelo://app?vid=2c4de2cd-abf3-4f45-a92d-633b49e84926","ios":"levelo://app?vid=2c4de2cd-abf3-4f45-a92d-633b49e84926"},"vehicle_type_id":"4","last_reported":1710954339,"current_range_meters":20000,"station_id":"ce4bgi92rcd13ifvqb90","pricing_plan_id":"cebpf4jnsgd1na2vs0mg"},{"bike_id":"b1172a8b-c447-4fd4-9683-cea85f21c90f","system_id":"levelo_inurba_marseille","lat":43.296208,"lon":5.37715,"is_reserved":false,"is_disabled":false,"rental_uris":{"android":"levelo://app?vid=b1172a8b-c447-4fd4-9683-cea85f21c90f","ios":"levelo://app?vid=b1172a8b-c447-4fd4-9683-cea85f21c90f"},"vehicle_type_id":"4","last_reported":1710954339,"current_range_meters":13600,"station_id":"ce4bgi92rcd13ifvqb90","pricing_plan_id":"cebpf4jnsgd1na2vs0mg"},{"bike_id":"daa693d0-7e37-47ec-9491-1ff4b7c171eb","system_id":"levelo_inurba_marseille","lat":43.296263,"lon":5.377094,"is_reserved":false,"is_disabled":false,"rental_uris":{"android":"levelo://app?vid=daa693d0-7e37-47ec-9491-1ff4b7c171eb","ios":"levelo://app?vid=daa693d0-7e37-47ec-9491-1ff4b7c171eb"},"vehicle_type_id":"4","last_reported":1710954339,"current_range_meters":3200,"station_id":"ce4bgi92rcd13ifvqb90","pricing_plan_id":"cebpf4jnsgd1na2vs0mg"},{"bike_id":"50d0368d-a4ac-4ad9-a044-2f7c901a76bb","system_id":"levelo_inurba_marseille","lat":43.29553,"lon":5.37506,"is_reserved":false,"is_disabled":false,"rental_uris":{"android":"levelo://app?vid=50d0368d-a4ac-4ad9-a044-2f7c901a76bb","ios":"levelo://app?vid=50d0368d-a4ac-4ad9-a044-2f7c901a76bb"},"vehicle_type_id":"4","last_reported":1710954339,"current_range_meters":9200,"station_id":"ce4bgh92rcd13ifvqb50","pricing_plan_id":"cebpf4jnsgd1na2vs0mg"},{"bike_id":"10686fd7-0e31-436f-a627-b3511e0b4dc7","system_id":"levelo_inurba_marseille","lat":43.299707,"lon":5.384859,"is_reserved":false,"is_disabled":false,"rental_uris":{"android":"levelo://app?vid=10686fd7-0e31-436f-a627-b3511e0b4dc7","ios":"levelo://app?vid=10686fd7-0e31-436f-a627-b3511e0b4dc7"},"vehicle_type_id":"4","last_reported":1710954339,"current_range_meters":10000,"station_id":"ce4bgj92rcd13ifvqbd0","pricing_plan_id":"cebpf4jnsgd1na2vs0mg"},{"bike_id":"087ec424-a777-41d1-8b23-7e1b65ea0c83","system_id":"levelo_inurba_marseille","lat":43.299707,"lon":5.384859,"is_reserved":false,"is_disabled":false,"rental_uris":{"android":"levelo://app?vid=087ec424-a777-41d1-8b23-7e1b65ea0c83","ios":"levelo://app?vid=087ec424-a777-41d1-8b23-7e1b65ea0c83"},"vehicle_type_id":"4","last_reported":1710954339,"current_range_meters":22000,"station_id":"ce4bgj92rcd13ifvqbd0","pricing_plan_id":"cebpf4jnsgd1na2vs0mg"},{"bike_id":"854fa7e2-79fe-4b7d-806f-6ec1c75f9f2c","system_id":"levelo_inurba_marseille","lat":43.299724,"lon":5.384848,"is_reserved":false,"is_disabled":false,"rental_uris":{"android":"levelo://app?vid=854fa7e2-79fe-4b7d-806f-6ec1c75f9f2c","ios":"levelo://app?vid=854fa7e2-79fe-4b7d-806f-6ec1c75f9f2c"},"vehicle_type_id":"4","last_reported":1710954339,"current_range_meters":2000,"station_id":"ce4bgj92rcd13ifvqbd0","pricing_plan_id":"cebpf4jnsgd1na2vs0mg"},{"bike_id":"b6098951-96ee-4d96-8098-790756bf5c09","system_id":"levelo_inurba_marseille","lat":43.29976,"lon":5.38485,"is_reserved":false,"is_disabled":false,"rental_uris":{"android":"levelo://app?vid=b6098951-96ee-4d96-8098-790756bf5c09","ios":"levelo://app?vid=b6098951-96ee-4d96-8098-790756bf5c09"},"vehicle_type_id":"4","last_reported":1710954339,"current_range_meters":0,"station_id":"ce4bgj92rcd13ifvqbd0","pricing_plan_id":"cebpf4jnsgd1na2vs0mg"},{"bike_id":"b4d96f84-4c31-424c-9b0e-23789a7943d3","system_id":"levelo_inurba_marseille","lat":43.29976,"lon":5.38486,"is_reserved":false,"is_disabled":false,"rental_uris":{"android":"levelo://app?vid=b4d96f84-4c31-424c-9b0e-23789a7943d3","ios":"levelo://app?vid=b4d96f84-4c31-424c-9b0e-23789a7943d3"},"vehicle_type_id":"4","last_reported":1710954339,"current_range_meters":10000,"station_id":"ce4bgj92rcd13ifvqbd0","pricing_plan_id":"cebpf4jnsgd1na2vs0mg"},{"bike_id":"3ae3fce9-5d27-42c8-8d4f-aa0a13f00216","system_id":"levelo_inurba_marseille","lat":43.299717,"lon":5.384845,"is_reserved":false,"is_disabled":false,"rental_uris":{"android":"levelo://app?vid=3ae3fce9-5d27-42c8-8d4f-aa0a13f00216","ios":"levelo://app?vid=3ae3fce9-5d27-42c8-8d4f-aa0a13f00216"},"vehicle_type_id":"4","last_reported":1710954339,"current_range_meters":0,"station_id":"ce4bgj92rcd13ifvqbd0","pricing_plan_id":"cebpf4jnsgd1na2vs0mg"},{"bike_id":"b22ca313-23b4-4f20-9c9a-f3e122fa5b3f","system_id":"levelo_inurba_marseille","lat":43.299707,"lon":5.384859,"is_reserved":false,"is_disabled":false,"rental_uris":{"android":"levelo://app?vid=b22ca313-23b4-4f20-9c9a-f3e122fa5b3f","ios":"levelo://app?vid=b22ca313-23b4-4f20-9c9a-f3e122fa5b3f"},"vehicle_type_id":"4","last_reported":1710954339,"current_range_meters":8400,"station_id":"ce4bgj92rcd13ifvqbd0","pricing_plan_id":"cebpf4jnsgd1na2vs0mg"},{"bike_id":"642755a2-1cdc-4bcf-aac3-ce4373b1d66c","system_id":"levelo_inurba_marseille","lat":43.299707,"lon":5.384859,"is_reserved":false,"is_disabled":false,"rental_uris":{"android":"levelo://app?vid=642755a2-1cdc-4bcf-aac3-ce4373b1d66c","ios":"levelo://app?vid=642755a2-1cdc-4bcf-aac3-ce4373b1d66c"},"vehicle_type_id":"4","last_reported":1710954339,"current_range_meters":15200,"station_id":"ce4bgj92rcd13ifvqbd0","pricing_plan_id":"cebpf4jnsgd1na2vs0mg"},{"bike_id":"721f1c01-77eb-459c-b17c-9a3d628dbd89","system_id":"levelo_inurba_marseille","lat":43.29524,"lon":5.37503,"is_reserved":false,"is_disabled":false,"rental_uris":{"android":"levelo://app?vid=721f1c01-77eb-459c-b17c-9a3d628dbd89","ios":"levelo://app?vid=721f1c01-77eb-459c-b17c-9a3d628dbd89"},"vehicle_type_id":"4","last_reported":1710954339,"current_range_meters":18800,"station_id":"","pricing_plan_id":"cebpf4jnsgd1na2vs0mg"},{"bike_id":"6fb59793-c9a1-4f3e-be6d-677c843f546a","system_id":"levelo_inurba_marseille","lat":43.299717,"lon":5.384845,"is_reserved":false,"is_disabled":false,"rental_uris":{"android":"levelo://app?vid=6fb59793-c9a1-4f3e-be6d-677c843f546a","ios":"levelo://app?vid=6fb59793-c9a1-4f3e-be6d-677c843f546a"},"vehicle_type_id":"4","last_reported":1710954339,"current_range_meters":3200,"station_id":"ce4bgj92rcd13ifvqbd0","pricing_plan_id":"cebpf4jnsgd1na2vs0mg"},{"bike_id":"f35dc330-201e-4633-ae6c-41c4a75cd35b","system_id":"levelo_inurba_marseille","lat":43.299724,"lon":5.384848,"is_reserved":false,"is_disabled":false,"rental_uris":{"android":"levelo://app?vid=f35dc330-201e-4633-ae6c-41c4a75cd35b","ios":"levelo://app?vid=f35dc330-201e-4633-ae6c-41c4a75cd35b"},"vehicle_type_id":"4","last_reported":1710954339,"current_range_meters":21200,"station_id":"ce4bgj92rcd13ifvqbd0","pricing_plan_id":"cebpf4jnsgd1na2vs0mg"},{"bike_id":"68f1c648-3f63-46ec-8c48-af0a2eeff363","system_id":"levelo_inurba_marseille","lat":43.299724,"lon":5.384848,"is_reserved":false,"is_disabled":false,"rental_uris":{"android":"levelo://app?vid=68f1c648-3f63-46ec-8c48-af0a2eeff363","ios":"levelo://app?vid=68f1c648-3f63-46ec-8c48-af0a2eeff363"},"vehicle_type_id":"4","last_reported":1710954339,"current_range_meters":22400,"station_id":"ce4bgj92rcd13ifvqbd0","pricing_plan_id":"cebpf4jnsgd1na2vs0mg"},{"bike_id":"ce32e9d7-3e55-435c-83b7-4c8bfdf42e1a","system_id":"levelo_inurba_marseille","lat":43.299724,"lon":5.384848,"is_reserved":false,"is_disabled":false,"rental_uris":{"android":"levelo://app?vid=ce32e9d7-3e55-435c-83b7-4c8bfdf42e1a","ios":"levelo://app?vid=ce32e9d7-3e55-435c-83b7-4c8bfdf42e1a"},"vehicle_type_id":"4","last_reported":1710954339,"current_range_meters":11200,"station_id":"ce4bgj92rcd13ifvqbd0","pricing_plan_id":"cebpf4jnsgd1na2vs0mg"},{"bike_id":"a00c5550-249a-4ae4-8f85-3d8e8cab04c7","system_id":"levelo_inurba_marseille","lat":43.299347,"lon":5.384686,"is_reserved":false,"is_disabled":false,"rental_uris":{"android":"levelo://app?vid=a00c5550-249a-4ae4-8f85-3d8e8cab04c7","ios":"levelo://app?vid=a00c5550-249a-4ae4-8f85-3d8e8cab04c7"},"vehicle_type_id":"4","last_reported":1710954339,"current_range_meters":0,"station_id":"ce4bgj92rcd13ifvqbd0","pricing_plan_id":"cebpf4jnsgd1na2vs0mg"},{"bike_id":"617b0e6f-676e-40f0-bbaf-c9395e5b4dcd","system_id":"levelo_inurba_marseille","lat":43.314438,"lon":5.392782,"is_reserved":false,"is_disabled":false,"rental_uris":{"android":"levelo://app?vid=617b0e6f-676e-40f0-bbaf-c9395e5b4dcd","ios":"levelo://app?vid=617b0e6f-676e-40f0-bbaf-c9395e5b4dcd"},"vehicle_type_id":"4","last_reported":1710954339,"current_range_meters":24000,"station_id":"","pricing_plan_id":"cebpf4jnsgd1na2vs0mg"},{"bike_id":"b4471fdd-b50b-42ae-ad58-4fbb3d0be6ad","system_id":"levelo_inurba_marseille","lat":43.294648,"lon":5.375889,"is_reserved":false,"is_disabled":false,"rental_uris":{"android":"levelo://app?vid=b4471fdd-b50b-42ae-ad58-4fbb3d0be6ad","ios":"levelo://app?vid=b4471fdd-b50b-42ae-ad58-4fbb3d0be6ad"},"vehicle_type_id":"4","last_reported":1710954339,"current_range_meters":13600,"station_id":"","pricing_plan_id":"cebpf4jnsgd1na2vs0mg"},{"bike_id":"576966bc-fe06-4a37-8ac5-8dfdb56cfdc7","system_id":"levelo_inurba_marseille","lat":43.32367,"lon":5.38878,"is_reserved":false,"is_disabled":false,"rental_uris":{"android":"levelo://app?vid=576966bc-fe06-4a37-8ac5-8dfdb56cfdc7","ios":"levelo://app?vid=576966bc-fe06-4a37-8ac5-8dfdb56cfdc7"},"vehicle_type_id":"4","last_reported":1710954339,"current_range_meters":22400,"station_id":"ce4bhqp2rcd13ifvqhog","pricing_plan_id":"cebpf4jnsgd1na2vs0mg"},{"bike_id":"36a386f3-1ac1-44dc-b27a-94d031dfc79f","system_id":"levelo_inurba_marseille","lat":43.32366,"lon":5.38881,"is_reserved":false,"is_disabled":false,"rental_uris":{"android":"levelo://app?vid=36a386f3-1ac1-44dc-b27a-94d031dfc79f","ios":"levelo://app?vid=36a386f3-1ac1-44dc-b27a-94d031dfc79f"},"vehicle_type_id":"4","last_reported":1710954339,"current_range_meters":24400,"station_id":"ce4bhqp2rcd13ifvqhog","pricing_plan_id":"cebpf4jnsgd1na2vs0mg"},{"bike_id":"1ff02ba1-73ab-4e30-ace5-f210683ab2a0","system_id":"levelo_inurba_marseille","lat":43.323685,"lon":5.38881,"is_reserved":false,"is_disabled":false,"rental_uris":{"android":"levelo://app?vid=1ff02ba1-73ab-4e30-ace5-f210683ab2a0","ios":"levelo://app?vid=1ff02ba1-73ab-4e30-ace5-f210683ab2a0"},"vehicle_type_id":"4","last_reported":1710954339,"current_range_meters":21200,"station_id":"ce4bhqp2rcd13ifvqhog","pricing_plan_id":"cebpf4jnsgd1na2vs0mg"},{"bike_id":"8c5a09a7-6627-40b5-958f-7a7763e76ce2","system_id":"levelo_inurba_marseille","lat":43.323656,"lon":5.38884,"is_reserved":false,"is_disabled":false,"rental_uris":{"android":"levelo://app?vid=8c5a09a7-6627-40b5-958f-7a7763e76ce2","ios":"levelo://app?vid=8c5a09a7-6627-40b5-958f-7a7763e76ce2"},"vehicle_type_id":"4","last_reported":1710954339,"current_range_meters":10400,"station_id":"ce4bhqp2rcd13ifvqhog","pricing_plan_id":"cebpf4jnsgd1na2vs0mg"},{"bike_id":"4388708f-f465-4dd9-9120-9f4bdae9d416","system_id":"levelo_inurba_marseille","lat":43.32311,"lon":5.38934,"is_reserved":false,"is_disabled":false,"rental_uris":{"android":"levelo://app?vid=4388708f-f465-4dd9-9120-9f4bdae9d416","ios":"levelo://app?vid=4388708f-f465-4dd9-9120-9f4bdae9d416"},"vehicle_type_id":"4","last_reported":1710954339,"current_range_meters":6400,"station_id":"","pricing_plan_id":"cebpf4jnsgd1na2vs0mg"},{"bike_id":"d1c473ef-8f57-4a45-a518-f2821a73640e","system_id":"levelo_inurba_marseille","lat":43.323679,"lon":5.388824,"is_reserved":false,"is_disabled":false,"rental_uris":{"android":"levelo://app?vid=d1c473ef-8f57-4a45-a518-f2821a73640e","ios":"levelo://app?vid=d1c473ef-8f57-4a45-a518-f2821a73640e"},"vehicle_type_id":"4","last_reported":1710954339,"current_range_meters":10000,"station_id":"ce4bhqp2rcd13ifvqhog","pricing_plan_id":"cebpf4jnsgd1na2vs0mg"},{"bike_id":"e03aa0b7-4b1d-42b5-82aa-985ab484a4af","system_id":"levelo_inurba_marseille","lat":43.3237,"lon":5.38881,"is_reserved":false,"is_disabled":false,"rental_uris":{"android":"levelo://app?vid=e03aa0b7-4b1d-42b5-82aa-985ab484a4af","ios":"levelo://app?vid=e03aa0b7-4b1d-42b5-82aa-985ab484a4af"},"vehicle_type_id":"4","last_reported":1710954339,"current_range_meters":27200,"station_id":"ce4bhqp2rcd13ifvqhog","pricing_plan_id":"cebpf4jnsgd1na2vs0mg"},{"bike_id":"80eb6f3c-7dad-4186-9ec8-bba5dd0c9f98","system_id":"levelo_inurba_marseille","lat":43.32372,"lon":5.38881,"is_reserved":false,"is_disabled":false,"rental_uris":{"android":"levelo://app?vid=80eb6f3c-7dad-4186-9ec8-bba5dd0c9f98","ios":"levelo://app?vid=80eb6f3c-7dad-4186-9ec8-bba5dd0c9f98"},"vehicle_type_id":"4","last_reported":1710954339,"current_range_meters":23600,"station_id":"ce4bhqp2rcd13ifvqhog","pricing_plan_id":"cebpf4jnsgd1na2vs0mg"},{"bike_id":"77d915da-b00f-431f-9fb4-10a630781629","system_id":"levelo_inurba_marseille","lat":43.32368,"lon":5.388853,"is_reserved":false,"is_disabled":false,"rental_uris":{"android":"levelo://app?vid=77d915da-b00f-431f-9fb4-10a630781629","ios":"levelo://app?vid=77d915da-b00f-431f-9fb4-10a630781629"},"vehicle_type_id":"4","last_reported":1710954339,"current_range_meters":17600,"station_id":"ce4bhqp2rcd13ifvqhog","pricing_plan_id":"cebpf4jnsgd1na2vs0mg"},{"bike_id":"e37c32ea-6d8c-404c-81bf-a340e415fa51","system_id":"levelo_inurba_marseille","lat":43.32367,"lon":5.388836,"is_reserved":false,"is_disabled":false,"rental_uris":{"android":"levelo://app?vid=e37c32ea-6d8c-404c-81bf-a340e415fa51","ios":"levelo://app?vid=e37c32ea-6d8c-404c-81bf-a340e415fa51"},"vehicle_type_id":"4","last_reported":1710954339,"current_range_meters":23200,"station_id":"ce4bhqp2rcd13ifvqhog","pricing_plan_id":"cebpf4jnsgd1na2vs0mg"},{"bike_id":"9b43ae9f-97c3-4da0-938b-50afec46d2a5","system_id":"levelo_inurba_marseille","lat":43.323704,"lon":5.388843,"is_reserved":false,"is_disabled":false,"rental_uris":{"android":"levelo://app?vid=9b43ae9f-97c3-4da0-938b-50afec46d2a5","ios":"levelo://app?vid=9b43ae9f-97c3-4da0-938b-50afec46d2a5"},"vehicle_type_id":"4","last_reported":1710954339,"current_range_meters":13200,"station_id":"ce4bhqp2rcd13ifvqhog","pricing_plan_id":"cebpf4jnsgd1na2vs0mg"},{"bike_id":"9a76c06c-1b70-4f20-ab2d-d3281463a57c","system_id":"levelo_inurba_marseille","lat":43.32368,"lon":5.38887,"is_reserved":false,"is_disabled":false,"rental_uris":{"android":"levelo://app?vid=9a76c06c-1b70-4f20-ab2d-d3281463a57c","ios":"levelo://app?vid=9a76c06c-1b70-4f20-ab2d-d3281463a57c"},"vehicle_type_id":"4","last_reported":1710954339,"current_range_meters":14000,"station_id":"ce4bhqp2rcd13ifvqhog","pricing_plan_id":"cebpf4jnsgd1na2vs0mg"},{"bike_id":"88c09819-0132-49e1-a848-b83c3e55111a","system_id":"levelo_inurba_marseille","lat":43.32367,"lon":5.388836,"is_reserved":false,"is_disabled":false,"rental_uris":{"android":"levelo://app?vid=88c09819-0132-49e1-a848-b83c3e55111a","ios":"levelo://app?vid=88c09819-0132-49e1-a848-b83c3e55111a"},"vehicle_type_id":"4","last_reported":1710954339,"current_range_meters":16400,"station_id":"ce4bhqp2rcd13ifvqhog","pricing_plan_id":"cebpf4jnsgd1na2vs0mg"},{"bike_id":"c49d650b-30aa-4430-96da-8da3ee775ae2","system_id":"levelo_inurba_marseille","lat":43.32371,"lon":5.38887,"is_reserved":false,"is_disabled":false,"rental_uris":{"android":"levelo://app?vid=c49d650b-30aa-4430-96da-8da3ee775ae2","ios":"levelo://app?vid=c49d650b-30aa-4430-96da-8da3ee775ae2"},"vehicle_type_id":"4","last_reported":1710954339,"current_range_meters":29200,"station_id":"ce4bhqp2rcd13ifvqhog","pricing_plan_id":"cebpf4jnsgd1na2vs0mg"},{"bike_id":"b2a18943-f82c-4013-a036-8e2fa7d6c371","system_id":"levelo_inurba_marseille","lat":43.29602,"lon":5.381084,"is_reserved":false,"is_disabled":false,"rental_uris":{"android":"levelo://app?vid=b2a18943-f82c-4013-a036-8e2fa7d6c371","ios":"levelo://app?vid=b2a18943-f82c-4013-a036-8e2fa7d6c371"},"vehicle_type_id":"4","last_reported":1710954339,"current_range_meters":10800,"station_id":"ce4bgl12rcd13ifvqbo0","pricing_plan_id":"cebpf4jnsgd1na2vs0mg"},{"bike_id":"e1a9e072-b82b-4798-b91c-f8539a3e3116","system_id":"levelo_inurba_marseille","lat":43.29602,"lon":5.381084,"is_reserved":false,"is_disabled":false,"rental_uris":{"android":"levelo://app?vid=e1a9e072-b82b-4798-b91c-f8539a3e3116","ios":"levelo://app?vid=e1a9e072-b82b-4798-b91c-f8539a3e3116"},"vehicle_type_id":"4","last_reported":1710954339,"current_range_meters":17600,"station_id":"ce4bgl12rcd13ifvqbo0","pricing_plan_id":"cebpf4jnsgd1na2vs0mg"},{"bike_id":"a182151b-b68e-4437-9d30-5fa5659fce3e","system_id":"levelo_inurba_marseille","lat":43.292644,"lon":5.384257,"is_reserved":false,"is_disabled":false,"rental_uris":{"android":"levelo://app?vid=a182151b-b68e-4437-9d30-5fa5659fce3e","ios":"levelo://app?vid=a182151b-b68e-4437-9d30-5fa5659fce3e"},"vehicle_type_id":"4","last_reported":1710954339,"current_range_meters":13600,"station_id":"ce4bh692rcd13ifvqea0","pricing_plan_id":"cebpf4jnsgd1na2vs0mg"},{"bike_id":"d1178011-a18f-4a4c-8c96-37cee16ea284","system_id":"levelo_inurba_marseille","lat":43.29602,"lon":5.381084,"is_reserved":false,"is_disabled":false,"rental_uris":{"android":"levelo://app?vid=d1178011-a18f-4a4c-8c96-37cee16ea284","ios":"levelo://app?vid=d1178011-a18f-4a4c-8c96-37cee16ea284"},"vehicle_type_id":"4","last_reported":1710954339,"current_range_meters":21600,"station_id":"ce4bgl12rcd13ifvqbo0","pricing_plan_id":"cebpf4jnsgd1na2vs0mg"},{"bike_id":"8358a533-624e-4ee3-b4db-6ba27ff534fd","system_id":"levelo_inurba_marseille","lat":43.326328,"lon":5.386791,"is_reserved":false,"is_disabled":false,"rental_uris":{"android":"levelo://app?vid=8358a533-624e-4ee3-b4db-6ba27ff534fd","ios":"levelo://app?vid=8358a533-624e-4ee3-b4db-6ba27ff534fd"},"vehicle_type_id":"4","last_reported":1710954339,"current_range_meters":5200,"station_id":"ce4bhq12rcd13ifvqhhg","pricing_plan_id":"cebpf4jnsgd1na2vs0mg"},{"bike_id":"aefee754-1da0-41ee-92dd-2ecc179a62eb","system_id":"levelo_inurba_marseille","lat":43.292749,"lon":5.368402,"is_reserved":false,"is_disabled":false,"rental_uris":{"android":"levelo://app?vid=aefee754-1da0-41ee-92dd-2ecc179a62eb","ios":"levelo://app?vid=aefee754-1da0-41ee-92dd-2ecc179a62eb"},"vehicle_type_id":"4","last_reported":1710954339,"current_range_meters":9200,"station_id":"ce4bhbp2rcd13ifvqesg","pricing_plan_id":"cebpf4jnsgd1na2vs0mg"},{"bike_id":"f77d7a8e-359e-4340-a08e-55e52337cb0b","system_id":"levelo_inurba_marseille","lat":43.292749,"lon":5.368402,"is_reserved":false,"is_disabled":false,"rental_uris":{"android":"levelo://app?vid=f77d7a8e-359e-4340-a08e-55e52337cb0b","ios":"levelo://app?vid=f77d7a8e-359e-4340-a08e-55e52337cb0b"},"vehicle_type_id":"4","last_reported":1710954339,"current_range_meters":30000,"station_id":"ce4bhbp2rcd13ifvqesg","pricing_plan_id":"cebpf4jnsgd1na2vs0mg"},{"bike_id":"036b79e7-55e6-47b8-b996-a4a82ed57e82","system_id":"levelo_inurba_marseille","lat":43.292749,"lon":5.368402,"is_reserved":false,"is_disabled":false,"rental_uris":{"android":"levelo://app?vid=036b79e7-55e6-47b8-b996-a4a82ed57e82","ios":"levelo://app?vid=036b79e7-55e6-47b8-b996-a4a82ed57e82"},"vehicle_type_id":"4","last_reported":1710954339,"current_range_meters":5200,"station_id":"ce4bhbp2rcd13ifvqesg","pricing_plan_id":"cebpf4jnsgd1na2vs0mg"},{"bike_id":"51eb463d-c091-451e-8eb3-0cb968f8925d","system_id":"levelo_inurba_marseille","lat":43.303002,"lon":5.392142,"is_reserved":false,"is_disabled":false,"rental_uris":{"android":"levelo://app?vid=51eb463d-c091-451e-8eb3-0cb968f8925d","ios":"levelo://app?vid=51eb463d-c091-451e-8eb3-0cb968f8925d"},"vehicle_type_id":"4","last_reported":1710954339,"current_range_meters":13200,"station_id":"ce4bgkh2rcd13ifvqbk0","pricing_plan_id":"cebpf4jnsgd1na2vs0mg"},{"bike_id":"8c432037-b769-4348-9b03-c052d9409fe5","system_id":"levelo_inurba_marseille","lat":43.29374,"lon":5.37846,"is_reserved":false,"is_disabled":false,"rental_uris":{"android":"levelo://app?vid=8c432037-b769-4348-9b03-c052d9409fe5","ios":"levelo://app?vid=8c432037-b769-4348-9b03-c052d9409fe5"},"vehicle_type_id":"4","last_reported":1710954339,"current_range_meters":8800,"station_id":"ce4bgjh2rcd13ifvqbf0","pricing_plan_id":"cebpf4jnsgd1na2vs0mg"},{"bike_id":"97eaa1c7-418e-405e-8a35-17a01f8fb68a","system_id":"levelo_inurba_marseille","lat":43.2936,"lon":5.37835,"is_reserved":false,"is_disabled":false,"rental_uris":{"android":"levelo://app?vid=97eaa1c7-418e-405e-8a35-17a01f8fb68a","ios":"levelo://app?vid=97eaa1c7-418e-405e-8a35-17a01f8fb68a"},"vehicle_type_id":"4","last_reported":1710954339,"current_range_meters":21200,"station_id":"ce4bgjh2rcd13ifvqbf0","pricing_plan_id":"cebpf4jnsgd1na2vs0mg"},{"bike_id":"b18ba490-263d-4ea3-9b43-ce6d75a82c5f","system_id":"levelo_inurba_marseille","lat":43.300988,"lon":5.390675,"is_reserved":false,"is_disabled":false,"rental_uris":{"android":"levelo://app?vid=b18ba490-263d-4ea3-9b43-ce6d75a82c5f","ios":"levelo://app?vid=b18ba490-263d-4ea3-9b43-ce6d75a82c5f"},"vehicle_type_id":"4","last_reported":1710954339,"current_range_meters":1200,"station_id":"ce4bh192rcd13ifvqdb0","pricing_plan_id":"cebpf4jnsgd1na2vs0mg"},{"bike_id":"ae845ab4-704a-4f3e-91de-37289d193fbc","system_id":"levelo_inurba_marseille","lat":43.292311,"lon":5.360731,"is_reserved":false,"is_disabled":false,"rental_uris":{"android":"levelo://app?vid=ae845ab4-704a-4f3e-91de-37289d193fbc","ios":"levelo://app?vid=ae845ab4-704a-4f3e-91de-37289d193fbc"},"vehicle_type_id":"4","last_reported":1710954339,"current_range_meters":1200,"station_id":"ce4bhbh2rcd13ifvqeqg","pricing_plan_id":"cebpf4jnsgd1na2vs0mg"},{"bike_id":"810bb6c8-5d0a-4b8e-8973-6712f94a3b0c","system_id":"levelo_inurba_marseille","lat":43.292311,"lon":5.360731,"is_reserved":false,"is_disabled":false,"rental_uris":{"android":"levelo://app?vid=810bb6c8-5d0a-4b8e-8973-6712f94a3b0c","ios":"levelo://app?vid=810bb6c8-5d0a-4b8e-8973-6712f94a3b0c"},"vehicle_type_id":"4","last_reported":1710954339,"current_range_meters":8800,"station_id":"ce4bhbh2rcd13ifvqeqg","pricing_plan_id":"cebpf4jnsgd1na2vs0mg"},{"bike_id":"d832cb76-3d3a-465d-b74d-267eec183338","system_id":"levelo_inurba_marseille","lat":43.292311,"lon":5.360731,"is_reserved":false,"is_disabled":false,"rental_uris":{"android":"levelo://app?vid=d832cb76-3d3a-465d-b74d-267eec183338","ios":"levelo://app?vid=d832cb76-3d3a-465d-b74d-267eec183338"},"vehicle_type_id":"4","last_reported":1710954339,"current_range_meters":12400,"station_id":"ce4bhbh2rcd13ifvqeqg","pricing_plan_id":"cebpf4jnsgd1na2vs0mg"},{"bike_id":"b55dab34-cec4-485d-81c1-0f934a1b5e82","system_id":"levelo_inurba_marseille","lat":43.292311,"lon":5.360731,"is_reserved":false,"is_disabled":false,"rental_uris":{"android":"levelo://app?vid=b55dab34-cec4-485d-81c1-0f934a1b5e82","ios":"levelo://app?vid=b55dab34-cec4-485d-81c1-0f934a1b5e82"},"vehicle_type_id":"4","last_reported":1710954339,"current_range_meters":17600,"station_id":"ce4bhbh2rcd13ifvqeqg","pricing_plan_id":"cebpf4jnsgd1na2vs0mg"},{"bike_id":"cb3fa83b-dd1e-468a-9954-89c549fab3da","system_id":"levelo_inurba_marseille","lat":43.300852,"lon":5.390859,"is_reserved":false,"is_disabled":false,"rental_uris":{"android":"levelo://app?vid=cb3fa83b-dd1e-468a-9954-89c549fab3da","ios":"levelo://app?vid=cb3fa83b-dd1e-468a-9954-89c549fab3da"},"vehicle_type_id":"4","last_reported":1710954339,"current_range_meters":8400,"station_id":"ce4bh192rcd13ifvqdb0","pricing_plan_id":"cebpf4jnsgd1na2vs0mg"},{"bike_id":"fba2ccdf-16fb-4618-b2f8-ee0830ea6fca","system_id":"levelo_inurba_marseille","lat":43.298764,"lon":5.388973,"is_reserved":false,"is_disabled":false,"rental_uris":{"android":"levelo://app?vid=fba2ccdf-16fb-4618-b2f8-ee0830ea6fca","ios":"levelo://app?vid=fba2ccdf-16fb-4618-b2f8-ee0830ea6fca"},"vehicle_type_id":"4","last_reported":1710954339,"current_range_meters":20800,"station_id":"ce4bh392rcd13ifvqdl0","pricing_plan_id":"cebpf4jnsgd1na2vs0mg"},{"bike_id":"9929767d-f48e-4477-a690-c5d6e550613e","system_id":"levelo_inurba_marseille","lat":43.298764,"lon":5.388973,"is_reserved":false,"is_disabled":false,"rental_uris":{"android":"levelo://app?vid=9929767d-f48e-4477-a690-c5d6e550613e","ios":"levelo://app?vid=9929767d-f48e-4477-a690-c5d6e550613e"},"vehicle_type_id":"4","last_reported":1710954339,"current_range_meters":24800,"station_id":"ce4bh392rcd13ifvqdl0","pricing_plan_id":"cebpf4jnsgd1na2vs0mg"},{"bike_id":"7e78242c-8a16-4194-80a2-2d7394df11c7","system_id":"levelo_inurba_marseille","lat":43.298764,"lon":5.388973,"is_reserved":false,"is_disabled":false,"rental_uris":{"android":"levelo://app?vid=7e78242c-8a16-4194-80a2-2d7394df11c7","ios":"levelo://app?vid=7e78242c-8a16-4194-80a2-2d7394df11c7"},"vehicle_type_id":"4","last_reported":1710954339,"current_range_meters":800,"station_id":"ce4bh392rcd13ifvqdl0","pricing_plan_id":"cebpf4jnsgd1na2vs0mg"},{"bike_id":"3a7ceca4-7be1-4952-85c8-443c14109763","system_id":"levelo_inurba_marseille","lat":43.298764,"lon":5.388973,"is_reserved":false,"is_disabled":false,"rental_uris":{"android":"levelo://app?vid=3a7ceca4-7be1-4952-85c8-443c14109763","ios":"levelo://app?vid=3a7ceca4-7be1-4952-85c8-443c14109763"},"vehicle_type_id":"4","last_reported":1710954339,"current_range_meters":5200,"station_id":"ce4bh392rcd13ifvqdl0","pricing_plan_id":"cebpf4jnsgd1na2vs0mg"},{"bike_id":"1be1b536-a61f-43df-a307-d85f95ac89c3","system_id":"levelo_inurba_marseille","lat":43.293009,"lon":5.374584,"is_reserved":false,"is_disabled":false,"rental_uris":{"android":"levelo://app?vid=1be1b536-a61f-43df-a307-d85f95ac89c3","ios":"levelo://app?vid=1be1b536-a61f-43df-a307-d85f95ac89c3"},"vehicle_type_id":"4","last_reported":1710954339,"current_range_meters":20000,"station_id":"ce4bgi12rcd13ifvqb70","pricing_plan_id":"cebpf4jnsgd1na2vs0mg"},{"bike_id":"5b49cdb3-259e-4906-8cbb-bcf00711bad9","system_id":"levelo_inurba_marseille","lat":43.291671,"lon":5.371575,"is_reserved":false,"is_disabled":false,"rental_uris":{"android":"levelo://app?vid=5b49cdb3-259e-4906-8cbb-bcf00711bad9","ios":"levelo://app?vid=5b49cdb3-259e-4906-8cbb-bcf00711bad9"},"vehicle_type_id":"4","last_reported":1710954339,"current_range_meters":10000,"station_id":"ce4bha92rcd13ifvqeh0","pricing_plan_id":"cebpf4jnsgd1na2vs0mg"},{"bike_id":"422c3d4a-c8b8-4131-b0c3-b8ad3b580a5e","system_id":"levelo_inurba_marseille","lat":43.291671,"lon":5.371575,"is_reserved":false,"is_disabled":false,"rental_uris":{"android":"levelo://app?vid=422c3d4a-c8b8-4131-b0c3-b8ad3b580a5e","ios":"levelo://app?vid=422c3d4a-c8b8-4131-b0c3-b8ad3b580a5e"},"vehicle_type_id":"4","last_reported":1710954339,"current_range_meters":0,"station_id":"ce4bha92rcd13ifvqeh0","pricing_plan_id":"cebpf4jnsgd1na2vs0mg"},{"bike_id":"f1fba8ec-0af7-471e-a6cd-1c17dd4cf76f","system_id":"levelo_inurba_marseille","lat":43.291994,"lon":5.357886,"is_reserved":false,"is_disabled":false,"rental_uris":{"android":"levelo://app?vid=f1fba8ec-0af7-471e-a6cd-1c17dd4cf76f","ios":"levelo://app?vid=f1fba8ec-0af7-471e-a6cd-1c17dd4cf76f"},"vehicle_type_id":"4","last_reported":1710954339,"current_range_meters":30400,"station_id":"ce4bhb12rcd13ifvqel0","pricing_plan_id":"cebpf4jnsgd1na2vs0mg"},{"bike_id":"a4ec75aa-eee5-48f5-a43d-7787c34eb39d","system_id":"levelo_inurba_marseille","lat":43.29199,"lon":5.35806,"is_reserved":false,"is_disabled":false,"rental_uris":{"android":"levelo://app?vid=a4ec75aa-eee5-48f5-a43d-7787c34eb39d","ios":"levelo://app?vid=a4ec75aa-eee5-48f5-a43d-7787c34eb39d"},"vehicle_type_id":"4","last_reported":1710954339,"current_range_meters":0,"station_id":"ce4bhb12rcd13ifvqel0","pricing_plan_id":"cebpf4jnsgd1na2vs0mg"},{"bike_id":"c9be5c13-73b8-4c69-8c9c-b994acc4a540","system_id":"levelo_inurba_marseille","lat":43.291998,"lon":5.357931,"is_reserved":false,"is_disabled":false,"rental_uris":{"android":"levelo://app?vid=c9be5c13-73b8-4c69-8c9c-b994acc4a540","ios":"levelo://app?vid=c9be5c13-73b8-4c69-8c9c-b994acc4a540"},"vehicle_type_id":"4","last_reported":1710954339,"current_range_meters":18800,"station_id":"ce4bhb12rcd13ifvqel0","pricing_plan_id":"cebpf4jnsgd1na2vs0mg"},{"bike_id":"e197f22b-7b58-455a-ab15-fed16956c566","system_id":"levelo_inurba_marseille","lat":43.291994,"lon":5.357886,"is_reserved":false,"is_disabled":false,"rental_uris":{"android":"levelo://app?vid=e197f22b-7b58-455a-ab15-fed16956c566","ios":"levelo://app?vid=e197f22b-7b58-455a-ab15-fed16956c566"},"vehicle_type_id":"4","last_reported":1710954339,"current_range_meters":12800,"station_id":"ce4bhb12rcd13ifvqel0","pricing_plan_id":"cebpf4jnsgd1na2vs0mg"},{"bike_id":"cd837978-7877-42b2-ab35-47c89b402040","system_id":"levelo_inurba_marseille","lat":43.29197,"lon":5.35795,"is_reserved":false,"is_disabled":false,"rental_uris":{"android":"levelo://app?vid=cd837978-7877-42b2-ab35-47c89b402040","ios":"levelo://app?vid=cd837978-7877-42b2-ab35-47c89b402040"},"vehicle_type_id":"4","last_reported":1710954339,"current_range_meters":1200,"station_id":"ce4bhb12rcd13ifvqel0","pricing_plan_id":"cebpf4jnsgd1na2vs0mg"},{"bike_id":"be410043-f757-453c-afba-218724a6c4e6","system_id":"levelo_inurba_marseille","lat":43.29193,"lon":5.3581,"is_reserved":false,"is_disabled":false,"rental_uris":{"android":"levelo://app?vid=be410043-f757-453c-afba-218724a6c4e6","ios":"levelo://app?vid=be410043-f757-453c-afba-218724a6c4e6"},"vehicle_type_id":"4","last_reported":1710954339,"current_range_meters":0,"station_id":"ce4bhb12rcd13ifvqel0","pricing_plan_id":"cebpf4jnsgd1na2vs0mg"},{"bike_id":"d0c27ec4-f9ba-4c35-9121-d90a63315305","system_id":"levelo_inurba_marseille","lat":43.313291,"lon":5.396838,"is_reserved":false,"is_disabled":false,"rental_uris":{"android":"levelo://app?vid=d0c27ec4-f9ba-4c35-9121-d90a63315305","ios":"levelo://app?vid=d0c27ec4-f9ba-4c35-9121-d90a63315305"},"vehicle_type_id":"4","last_reported":1710954339,"current_range_meters":12000,"station_id":"ce4bgvp2rcd13ifvqcu0","pricing_plan_id":"cebpf4jnsgd1na2vs0mg"},{"bike_id":"52f23036-c2a1-4255-8ecf-45e222783e4c","system_id":"levelo_inurba_marseille","lat":43.308887,"lon":5.396429,"is_reserved":false,"is_disabled":false,"rental_uris":{"android":"levelo://app?vid=52f23036-c2a1-4255-8ecf-45e222783e4c","ios":"levelo://app?vid=52f23036-c2a1-4255-8ecf-45e222783e4c"},"vehicle_type_id":"4","last_reported":1710954339,"current_range_meters":0,"station_id":"ce4bh012rcd13ifvqcv0","pricing_plan_id":"cebpf4jnsgd1na2vs0mg"},{"bike_id":"e350e8fa-8af8-4793-bd75-14b1ece001a2","system_id":"levelo_inurba_marseille","lat":43.313291,"lon":5.396838,"is_reserved":false,"is_disabled":false,"rental_uris":{"android":"levelo://app?vid=e350e8fa-8af8-4793-bd75-14b1ece001a2","ios":"levelo://app?vid=e350e8fa-8af8-4793-bd75-14b1ece001a2"},"vehicle_type_id":"4","last_reported":1710954339,"current_range_meters":0,"station_id":"ce4bgvp2rcd13ifvqcu0","pricing_plan_id":"cebpf4jnsgd1na2vs0mg"},{"bike_id":"375a88d6-aba9-487b-bbae-47a492f72e9e","system_id":"levelo_inurba_marseille","lat":43.313291,"lon":5.396838,"is_reserved":false,"is_disabled":false,"rental_uris":{"android":"levelo://app?vid=375a88d6-aba9-487b-bbae-47a492f72e9e","ios":"levelo://app?vid=375a88d6-aba9-487b-bbae-47a492f72e9e"},"vehicle_type_id":"4","last_reported":1710954339,"current_range_meters":18400,"station_id":"ce4bgvp2rcd13ifvqcu0","pricing_plan_id":"cebpf4jnsgd1na2vs0mg"},{"bike_id":"9f21da06-a41e-4c67-aa78-46524658e4c9","system_id":"levelo_inurba_marseille","lat":43.313291,"lon":5.396838,"is_reserved":false,"is_disabled":false,"rental_uris":{"android":"levelo://app?vid=9f21da06-a41e-4c67-aa78-46524658e4c9","ios":"levelo://app?vid=9f21da06-a41e-4c67-aa78-46524658e4c9"},"vehicle_type_id":"4","last_reported":1710954339,"current_range_meters":26000,"station_id":"ce4bgvp2rcd13ifvqcu0","pricing_plan_id":"cebpf4jnsgd1na2vs0mg"},{"bike_id":"d2a6e152-67df-491c-8e02-7ec6e33fcbfc","system_id":"levelo_inurba_marseille","lat":43.309047,"lon":5.396551,"is_reserved":false,"is_disabled":false,"rental_uris":{"android":"levelo://app?vid=d2a6e152-67df-491c-8e02-7ec6e33fcbfc","ios":"levelo://app?vid=d2a6e152-67df-491c-8e02-7ec6e33fcbfc"},"vehicle_type_id":"4","last_reported":1710954339,"current_range_meters":400,"station_id":"ce4bh012rcd13ifvqcv0","pricing_plan_id":"cebpf4jnsgd1na2vs0mg"},{"bike_id":"a2037c52-77d7-4778-b510-4680f9e868a6","system_id":"levelo_inurba_marseille","lat":43.29529,"lon":5.385581,"is_reserved":false,"is_disabled":false,"rental_uris":{"android":"levelo://app?vid=a2037c52-77d7-4778-b510-4680f9e868a6","ios":"levelo://app?vid=a2037c52-77d7-4778-b510-4680f9e868a6"},"vehicle_type_id":"4","last_reported":1710954339,"current_range_meters":18800,"station_id":"ce4bgih2rcd13ifvqba0","pricing_plan_id":"cebpf4jnsgd1na2vs0mg"},{"bike_id":"37d55089-f6a8-4f16-b734-ea95790c615d","system_id":"levelo_inurba_marseille","lat":43.291994,"lon":5.357886,"is_reserved":false,"is_disabled":false,"rental_uris":{"android":"levelo://app?vid=37d55089-f6a8-4f16-b734-ea95790c615d","ios":"levelo://app?vid=37d55089-f6a8-4f16-b734-ea95790c615d"},"vehicle_type_id":"4","last_reported":1710954339,"current_range_meters":20800,"station_id":"ce4bhb12rcd13ifvqel0","pricing_plan_id":"cebpf4jnsgd1na2vs0mg"},{"bike_id":"4e8f5c69-4207-4c81-a869-4651f2a0ede1","system_id":"levelo_inurba_marseille","lat":43.309047,"lon":5.396551,"is_reserved":false,"is_disabled":false,"rental_uris":{"android":"levelo://app?vid=4e8f5c69-4207-4c81-a869-4651f2a0ede1","ios":"levelo://app?vid=4e8f5c69-4207-4c81-a869-4651f2a0ede1"},"vehicle_type_id":"4","last_reported":1710954339,"current_range_meters":0,"station_id":"ce4bh012rcd13ifvqcv0","pricing_plan_id":"cebpf4jnsgd1na2vs0mg"},{"bike_id":"3c402ec0-3b8c-40ec-868a-276860607979","system_id":"levelo_inurba_marseille","lat":43.29529,"lon":5.385581,"is_reserved":false,"is_disabled":false,"rental_uris":{"android":"levelo://app?vid=3c402ec0-3b8c-40ec-868a-276860607979","ios":"levelo://app?vid=3c402ec0-3b8c-40ec-868a-276860607979"},"vehicle_type_id":"4","last_reported":1710954339,"current_range_meters":2400,"station_id":"ce4bgih2rcd13ifvqba0","pricing_plan_id":"cebpf4jnsgd1na2vs0mg"},{"bike_id":"e29e9072-b9de-43f4-ab64-4a6bdab73fd4","system_id":"levelo_inurba_marseille","lat":43.30882,"lon":5.39664,"is_reserved":false,"is_disabled":false,"rental_uris":{"android":"levelo://app?vid=e29e9072-b9de-43f4-ab64-4a6bdab73fd4","ios":"levelo://app?vid=e29e9072-b9de-43f4-ab64-4a6bdab73fd4"},"vehicle_type_id":"4","last_reported":1710954339,"current_range_meters":11200,"station_id":"ce4bh012rcd13ifvqcv0","pricing_plan_id":"cebpf4jnsgd1na2vs0mg"},{"bike_id":"2d6d1179-2bdd-4c1c-9bcd-7943bbda7744","system_id":"levelo_inurba_marseille","lat":43.29529,"lon":5.385581,"is_reserved":false,"is_disabled":false,"rental_uris":{"android":"levelo://app?vid=2d6d1179-2bdd-4c1c-9bcd-7943bbda7744","ios":"levelo://app?vid=2d6d1179-2bdd-4c1c-9bcd-7943bbda7744"},"vehicle_type_id":"4","last_reported":1710954339,"current_range_meters":2400,"station_id":"ce4bgih2rcd13ifvqba0","pricing_plan_id":"cebpf4jnsgd1na2vs0mg"},{"bike_id":"24306ac3-6def-4471-9632-b2016a8c5da4","system_id":"levelo_inurba_marseille","lat":43.29529,"lon":5.385581,"is_reserved":false,"is_disabled":false,"rental_uris":{"android":"levelo://app?vid=24306ac3-6def-4471-9632-b2016a8c5da4","ios":"levelo://app?vid=24306ac3-6def-4471-9632-b2016a8c5da4"},"vehicle_type_id":"4","last_reported":1710954339,"current_range_meters":800,"station_id":"ce4bgih2rcd13ifvqba0","pricing_plan_id":"cebpf4jnsgd1na2vs0mg"},{"bike_id":"a1e819c9-6d07-4848-9be5-81d6a78049b8","system_id":"levelo_inurba_marseille","lat":43.29529,"lon":5.385581,"is_reserved":false,"is_disabled":false,"rental_uris":{"android":"levelo://app?vid=a1e819c9-6d07-4848-9be5-81d6a78049b8","ios":"levelo://app?vid=a1e819c9-6d07-4848-9be5-81d6a78049b8"},"vehicle_type_id":"4","last_reported":1710954339,"current_range_meters":4800,"station_id":"ce4bgih2rcd13ifvqba0","pricing_plan_id":"cebpf4jnsgd1na2vs0mg"},{"bike_id":"7e511832-693c-4033-80bb-be459590c7cb","system_id":"levelo_inurba_marseille","lat":43.29529,"lon":5.385581,"is_reserved":false,"is_disabled":false,"rental_uris":{"android":"levelo://app?vid=7e511832-693c-4033-80bb-be459590c7cb","ios":"levelo://app?vid=7e511832-693c-4033-80bb-be459590c7cb"},"vehicle_type_id":"4","last_reported":1710954339,"current_range_meters":800,"station_id":"ce4bgih2rcd13ifvqba0","pricing_plan_id":"cebpf4jnsgd1na2vs0mg"},{"bike_id":"ce551732-7ae0-4d15-a67c-a8e3350d73ba","system_id":"levelo_inurba_marseille","lat":43.29529,"lon":5.385581,"is_reserved":false,"is_disabled":false,"rental_uris":{"android":"levelo://app?vid=ce551732-7ae0-4d15-a67c-a8e3350d73ba","ios":"levelo://app?vid=ce551732-7ae0-4d15-a67c-a8e3350d73ba"},"vehicle_type_id":"4","last_reported":1710954339,"current_range_meters":11600,"station_id":"ce4bgih2rcd13ifvqba0","pricing_plan_id":"cebpf4jnsgd1na2vs0mg"},{"bike_id":"94fd7518-018a-4e95-8f4c-09c04aa2056d","system_id":"levelo_inurba_marseille","lat":43.29087,"lon":5.372288,"is_reserved":false,"is_disabled":false,"rental_uris":{"android":"levelo://app?vid=94fd7518-018a-4e95-8f4c-09c04aa2056d","ios":"levelo://app?vid=94fd7518-018a-4e95-8f4c-09c04aa2056d"},"vehicle_type_id":"4","last_reported":1710954339,"current_range_meters":18000,"station_id":"","pricing_plan_id":"cebpf4jnsgd1na2vs0mg"},{"bike_id":"be5dbdb7-aa53-4822-8908-93fade68e57e","system_id":"levelo_inurba_marseille","lat":43.30326,"lon":5.3949,"is_reserved":false,"is_disabled":false,"rental_uris":{"android":"levelo://app?vid=be5dbdb7-aa53-4822-8908-93fade68e57e","ios":"levelo://app?vid=be5dbdb7-aa53-4822-8908-93fade68e57e"},"vehicle_type_id":"4","last_reported":1710954339,"current_range_meters":21600,"station_id":"","pricing_plan_id":"cebpf4jnsgd1na2vs0mg"},{"bike_id":"9814a754-69f0-482a-a91e-2f6737e54119","system_id":"levelo_inurba_marseille","lat":43.302008,"lon":5.394694,"is_reserved":false,"is_disabled":false,"rental_uris":{"android":"levelo://app?vid=9814a754-69f0-482a-a91e-2f6737e54119","ios":"levelo://app?vid=9814a754-69f0-482a-a91e-2f6737e54119"},"vehicle_type_id":"4","last_reported":1710954339,"current_range_meters":2400,"station_id":"ce4bh0p2rcd13ifvqd70","pricing_plan_id":"cebpf4jnsgd1na2vs0mg"},{"bike_id":"e7178b6e-795e-4ba6-b4e7-d8fe5c61f6c4","system_id":"levelo_inurba_marseille","lat":43.290624,"lon":5.359245,"is_reserved":false,"is_disabled":false,"rental_uris":{"android":"levelo://app?vid=e7178b6e-795e-4ba6-b4e7-d8fe5c61f6c4","ios":"levelo://app?vid=e7178b6e-795e-4ba6-b4e7-d8fe5c61f6c4"},"vehicle_type_id":"4","last_reported":1710954339,"current_range_meters":27600,"station_id":"ce4bha92rcd13ifvqeg0","pricing_plan_id":"cebpf4jnsgd1na2vs0mg"},{"bike_id":"c0ffcd8c-2386-4878-bb90-b2e52886bda5","system_id":"levelo_inurba_marseille","lat":43.290624,"lon":5.359245,"is_reserved":false,"is_disabled":false,"rental_uris":{"android":"levelo://app?vid=c0ffcd8c-2386-4878-bb90-b2e52886bda5","ios":"levelo://app?vid=c0ffcd8c-2386-4878-bb90-b2e52886bda5"},"vehicle_type_id":"4","last_reported":1710954339,"current_range_meters":21600,"station_id":"ce4bha92rcd13ifvqeg0","pricing_plan_id":"cebpf4jnsgd1na2vs0mg"},{"bike_id":"890e15d2-bfcb-4bf5-addd-0f6dba4b1cab","system_id":"levelo_inurba_marseille","lat":43.294162,"lon":5.386292,"is_reserved":false,"is_disabled":false,"rental_uris":{"android":"levelo://app?vid=890e15d2-bfcb-4bf5-addd-0f6dba4b1cab","ios":"levelo://app?vid=890e15d2-bfcb-4bf5-addd-0f6dba4b1cab"},"vehicle_type_id":"4","last_reported":1710954339,"current_range_meters":2000,"station_id":"ce4bh2h2rcd13ifvqdh0","pricing_plan_id":"cebpf4jnsgd1na2vs0mg"},{"bike_id":"faeb4384-99cd-485e-bb36-9397e52124e7","system_id":"levelo_inurba_marseille","lat":43.290624,"lon":5.359245,"is_reserved":false,"is_disabled":false,"rental_uris":{"android":"levelo://app?vid=faeb4384-99cd-485e-bb36-9397e52124e7","ios":"levelo://app?vid=faeb4384-99cd-485e-bb36-9397e52124e7"},"vehicle_type_id":"4","last_reported":1710954339,"current_range_meters":22800,"station_id":"ce4bha92rcd13ifvqeg0","pricing_plan_id":"cebpf4jnsgd1na2vs0mg"},{"bike_id":"bb454c26-7e19-48fd-b004-96cde0f1d430","system_id":"levelo_inurba_marseille","lat":43.290624,"lon":5.359245,"is_reserved":false,"is_disabled":false,"rental_uris":{"android":"levelo://app?vid=bb454c26-7e19-48fd-b004-96cde0f1d430","ios":"levelo://app?vid=bb454c26-7e19-48fd-b004-96cde0f1d430"},"vehicle_type_id":"4","last_reported":1710954339,"current_range_meters":22400,"station_id":"ce4bha92rcd13ifvqeg0","pricing_plan_id":"cebpf4jnsgd1na2vs0mg"},{"bike_id":"e2ef96ea-5d94-4096-a3c7-9183cab08f96","system_id":"levelo_inurba_marseille","lat":43.290631,"lon":5.359244,"is_reserved":false,"is_disabled":false,"rental_uris":{"android":"levelo://app?vid=e2ef96ea-5d94-4096-a3c7-9183cab08f96","ios":"levelo://app?vid=e2ef96ea-5d94-4096-a3c7-9183cab08f96"},"vehicle_type_id":"4","last_reported":1710954339,"current_range_meters":3600,"station_id":"ce4bha92rcd13ifvqeg0","pricing_plan_id":"cebpf4jnsgd1na2vs0mg"},{"bike_id":"9ee23d12-5b47-481c-8ad3-882500da0daa","system_id":"levelo_inurba_marseille","lat":43.290319,"lon":5.375732,"is_reserved":false,"is_disabled":false,"rental_uris":{"android":"levelo://app?vid=9ee23d12-5b47-481c-8ad3-882500da0daa","ios":"levelo://app?vid=9ee23d12-5b47-481c-8ad3-882500da0daa"},"vehicle_type_id":"4","last_reported":1710954339,"current_range_meters":0,"station_id":"ce4bh692rcd13ifvqe90","pricing_plan_id":"cebpf4jnsgd1na2vs0mg"},{"bike_id":"bb150bbb-4e42-4d93-a175-0f7785a3f937","system_id":"levelo_inurba_marseille","lat":43.29039,"lon":5.37544,"is_reserved":false,"is_disabled":false,"rental_uris":{"android":"levelo://app?vid=bb150bbb-4e42-4d93-a175-0f7785a3f937","ios":"levelo://app?vid=bb150bbb-4e42-4d93-a175-0f7785a3f937"},"vehicle_type_id":"4","last_reported":1710954339,"current_range_meters":0,"station_id":"ce4bh692rcd13ifvqe90","pricing_plan_id":"cebpf4jnsgd1na2vs0mg"},{"bike_id":"02cab70a-ace7-423a-a039-05a993a0f82b","system_id":"levelo_inurba_marseille","lat":43.294162,"lon":5.386292,"is_reserved":false,"is_disabled":false,"rental_uris":{"android":"levelo://app?vid=02cab70a-ace7-423a-a039-05a993a0f82b","ios":"levelo://app?vid=02cab70a-ace7-423a-a039-05a993a0f82b"},