{"last_updated":1745860146,"ttl":60,"version":"2.2","data":{"bikes":[{"bike_id":"63b68ad1-7220-4cca-863d-30f5dec9371d","system_id":"levelo_inurba_marseille","lat":43.30903,"lon":5.36841,"is_reserved":false,"is_disabled":false,"rental_uris":{"android":"levelo://app?vid=63b68ad1-7220-4cca-863d-30f5dec9371d","ios":"levelo://app?vid=63b68ad1-7220-4cca-863d-30f5dec9371d"},"vehicle_type_id":"4","last_reported":1745860147,"current_range_meters":2800,"station_id":"ce4bgn92rcd13ifvqbvg","pricing_plan_id":"cebpf4jnsgd1na2vs0mg"},{"bike_id":"51ad0d8a-b919-4ed3-b3a3-552eba954e42","system_id":"levelo_inurba_marseille","lat":43.255833,"lon":5.382494,"is_reserved":false,"is_disabled":false,"rental_uris":{"android":"levelo://app?vid=51ad0d8a-b919-4ed3-b3a3-552eba954e42","ios":"levelo://app?vid=51ad0d8a-b919-4ed3-b3a3-552eba954e42"},"vehicle_type_id":"4","last_reported":1745860147,"current_range_meters":2800,"station_id":"ce4bhih2rcd13ifvqfs0","pricing_plan_id":"cebpf4jnsgd1na2vs0mg"},{"bike_id":"2be80528-042d-4d42-8b55-f0290040c6a1","system_id":"levelo_inurba_marseille","lat":43.33025,"lon":5.39033,"is_reserved":false,"is_disabled":false,"rental_uris":{"android":"levelo://app?vid=2be80528-042d-4d42-8b55-f0290040c6a1","ios":"levelo://app?vid=2be80528-042d-4d42-8b55-f0290040c6a1"},"vehicle_type_id":"4","last_reported":1745860147,"current_range_meters":2800,"station_id":"ce4bhr92rcd13ifvqhrg","pricing_plan_id":"cebpf4jnsgd1na2vs0mg"},{"bike_id":"07f8cc29-b86f-4696-ac39-20f0f7e0a392","system_id":"levelo_inurba_marseille","lat":43.23371,"lon":5.36032,"is_reserved":false,"is_disabled":false,"rental_uris":{"android":"levelo://app?vid=07f8cc29-b86f-4696-ac39-20f0f7e0a392","ios":"levelo://app?vid=07f8cc29-b86f-4696-ac39-20f0f7e0a392"},"vehicle_type_id":"4","last_reported":1745860147,"current_range_meters":2800,"station_id":"","pricing_plan_id":"cebpf4jnsgd1na2vs0mg"},{"bike_id":"5dd93be0-2e2d-4b68-b5b9-ae1660bca40d","system_id":"levelo_inurba_marseille","lat":43.25098,"lon":5.39503,"is_reserved":false,"is_disabled":false,"rental_uris":{"android":"levelo://app?vid=5dd93be0-2e2d-4b68-b5b9-ae1660bca40d","ios":"levelo://app?vid=5dd93be0-2e2d-4b68-b5b9-ae1660bca40d"},"vehicle_type_id":"4","last_reported":1745860147,"current_range_meters":3200,"station_id":"ce4bhm12rcd13ifvqgkg","pricing_plan_id":"cebpf4jnsgd1na2vs0mg"},{"bike_id":"c4fdf04e-adf1-437d-b1cb-dcd3c9c5bc4c","system_id":"levelo_inurba_marseille","lat":43.29263,"lon":5.38437,"is_reserved":false,"is_disabled":false,"rental_uris":{"android":"levelo://app?vid=c4fdf04e-adf1-437d-b1cb-dcd3c9c5bc4c","ios":"levelo://app?vid=c4fdf04e-adf1-437d-b1cb-dcd3c9c5bc4c"},"vehicle_type_id":"4","last_reported":1745860147,"current_range_meters":3200,"station_id":"ce4bh692rcd13ifvqea0","pricing_plan_id":"cebpf4jnsgd1na2vs0mg"},{"bike_id":"a618024f-0c46-475b-95b4-b0958a44f306","system_id":"levelo_inurba_marseille","lat":43.30356,"lon":5.41877,"is_reserved":false,"is_disabled":false,"rental_uris":{"android":"levelo://app?vid=a618024f-0c46-475b-95b4-b0958a44f306","ios":"levelo://app?vid=a618024f-0c46-475b-95b4-b0958a44f306"},"vehicle_type_id":"4","last_reported":1745860147,"current_range_meters":3200,"station_id":"ce4bhop2rcd13ifvqh7g","pricing_plan_id":"cebpf4jnsgd1na2vs0mg"},{"bike_id":"dcbc7c19-4fb0-4613-8041-1d98e3e12801","system_id":"levelo_inurba_marseille","lat":43.2696,"lon":5.40268,"is_reserved":false,"is_disabled":false,"rental_uris":{"android":"levelo://app?vid=dcbc7c19-4fb0-4613-8041-1d98e3e12801","ios":"levelo://app?vid=dcbc7c19-4fb0-4613-8041-1d98e3e12801"},"vehicle_type_id":"4","last_reported":1745860147,"current_range_meters":3600,"station_id":"cjm6bp8fraef2m0cb0m0","pricing_plan_id":"cebpf4jnsgd1na2vs0mg"},{"bike_id":"aa38353b-7747-4ffe-b9f3-06f51ba5dc9e","system_id":"levelo_inurba_marseille","lat":43.24175,"lon":5.39724,"is_reserved":false,"is_disabled":false,"rental_uris":{"android":"levelo://app?vid=aa38353b-7747-4ffe-b9f3-06f51ba5dc9e","ios":"levelo://app?vid=aa38353b-7747-4ffe-b9f3-06f51ba5dc9e"},"vehicle_type_id":"4","last_reported":1745860147,"current_range_meters":3600,"station_id":"ce4bhn12rcd13ifvqgpg","pricing_plan_id":"cebpf4jnsgd1na2vs0mg"},{"bike_id":"0be19d6b-d588-4087-97bb-aea80e0878c3","system_id":"levelo_inurba_marseille","lat":43.28357,"lon":5.38105,"is_reserved":false,"is_disabled":false,"rental_uris":{"android":"levelo://app?vid=0be19d6b-d588-4087-97bb-aea80e0878c3","ios":"levelo://app?vid=0be19d6b-d588-4087-97bb-aea80e0878c3"},"vehicle_type_id":"4","last_reported":1745860147,"current_range_meters":3600,"station_id":"ce4bh412rcd13ifvqdr0","pricing_plan_id":"cebpf4jnsgd1na2vs0mg"},{"bike_id":"d1d6c7b2-4426-464c-9270-ea89681bbcfd","system_id":"levelo_inurba_marseille","lat":43.30145,"lon":5.37416,"is_reserved":false,"is_disabled":false,"rental_uris":{"android":"levelo://app?vid=d1d6c7b2-4426-464c-9270-ea89681bbcfd","ios":"levelo://app?vid=d1d6c7b2-4426-464c-9270-ea89681bbcfd"},"vehicle_type_id":"4","last_reported":1745860147,"current_range_meters":3600,"station_id":"ce4bgs92rcd13ifvqcc0","pricing_plan_id":"cebpf4jnsgd1na2vs0mg"},{"bike_id":"32e5d978-d87f-408f-890e-765148927b05","system_id":"levelo_inurba_marseille","lat":43.28693,"lon":5.39981,"is_reserved":false,"is_disabled":false,"rental_uris":{"android":"levelo://app?vid=32e5d978-d87f-408f-890e-765148927b05","ios":"levelo://app?vid=32e5d978-d87f-408f-890e-765148927b05"},"vehicle_type_id":"4","last_reported":1745860147,"current_range_meters":3600,"station_id":"ce4bho92rcd13ifvqh3g","pricing_plan_id":"cebpf4jnsgd1na2vs0mg"},{"bike_id":"74677f28-3596-4c5b-98de-ba4120a70f9d","system_id":"levelo_inurba_marseille","lat":43.25633,"lon":5.41214,"is_reserved":false,"is_disabled":false,"rental_uris":{"android":"levelo://app?vid=74677f28-3596-4c5b-98de-ba4120a70f9d","ios":"levelo://app?vid=74677f28-3596-4c5b-98de-ba4120a70f9d"},"vehicle_type_id":"4","last_reported":1745860147,"current_range_meters":3600,"station_id":"","pricing_plan_id":"cebpf4jnsgd1na2vs0mg"},{"bike_id":"a90b34f1-fe42-4bd9-9e35-39ccd11e647b","system_id":"levelo_inurba_marseille","lat":43.29739,"lon":5.37684,"is_reserved":false,"is_disabled":false,"rental_uris":{"android":"levelo://app?vid=a90b34f1-fe42-4bd9-9e35-39ccd11e647b","ios":"levelo://app?vid=a90b34f1-fe42-4bd9-9e35-39ccd11e647b"},"vehicle_type_id":"4","last_reported":1745860147,"current_range_meters":4400,"station_id":"ce4bgkh2rcd13ifvqbl0","pricing_plan_id":"cebpf4jnsgd1na2vs0mg"},{"bike_id":"bc4c81d2-618f-4a31-9b5a-b86329c16034","system_id":"levelo_inurba_marseille","lat":43.2885,"lon":5.35846,"is_reserved":false,"is_disabled":false,"rental_uris":{"android":"levelo://app?vid=bc4c81d2-618f-4a31-9b5a-b86329c16034","ios":"levelo://app?vid=bc4c81d2-618f-4a31-9b5a-b86329c16034"},"vehicle_type_id":"4","last_reported":1745860147,"current_range_meters":3600,"station_id":"ce4bhb12rcd13ifvqem0","pricing_plan_id":"cebpf4jnsgd1na2vs0mg"},{"bike_id":"b0b36962-c33d-41f9-8fde-453a02baa1f5","system_id":"levelo_inurba_marseille","lat":43.311868,"lon":5.386186,"is_reserved":false,"is_disabled":false,"rental_uris":{"android":"levelo://app?vid=b0b36962-c33d-41f9-8fde-453a02baa1f5","ios":"levelo://app?vid=b0b36962-c33d-41f9-8fde-453a02baa1f5"},"vehicle_type_id":"4","last_reported":1745860147,"current_range_meters":4000,"station_id":"ce4bgv12rcd13ifvqcp0","pricing_plan_id":"cebpf4jnsgd1na2vs0mg"},{"bike_id":"572f0179-a6b6-42d1-b544-fbe6fd255adb","system_id":"levelo_inurba_marseille","lat":43.28317,"lon":5.388759,"is_reserved":false,"is_disabled":false,"rental_uris":{"android":"levelo://app?vid=572f0179-a6b6-42d1-b544-fbe6fd255adb","ios":"levelo://app?vid=572f0179-a6b6-42d1-b544-fbe6fd255adb"},"vehicle_type_id":"4","last_reported":1745860147,"current_range_meters":3600,"station_id":"ce4bho92rcd13ifvqh4g","pricing_plan_id":"cebpf4jnsgd1na2vs0mg"},{"bike_id":"b1741ebb-ba39-4421-9f5d-4900500cec3a","system_id":"levelo_inurba_marseille","lat":43.29023,"lon":5.38633,"is_reserved":false,"is_disabled":false,"rental_uris":{"android":"levelo://app?vid=b1741ebb-ba39-4421-9f5d-4900500cec3a","ios":"levelo://app?vid=b1741ebb-ba39-4421-9f5d-4900500cec3a"},"vehicle_type_id":"4","last_reported":1745860147,"current_range_meters":4000,"station_id":"ce4bh4p2rcd13ifvqe0g","pricing_plan_id":"cebpf4jnsgd1na2vs0mg"},{"bike_id":"179732a6-0f73-4cae-ba52-a2e7e9a641af","system_id":"levelo_inurba_marseille","lat":43.30328,"lon":5.40433,"is_reserved":false,"is_disabled":false,"rental_uris":{"android":"levelo://app?vid=179732a6-0f73-4cae-ba52-a2e7e9a641af","ios":"levelo://app?vid=179732a6-0f73-4cae-ba52-a2e7e9a641af"},"vehicle_type_id":"4","last_reported":1745860147,"current_range_meters":4000,"station_id":"ce4bh012rcd13ifvqd10","pricing_plan_id":"cebpf4jnsgd1na2vs0mg"},{"bike_id":"0fa79c3d-135c-4046-82fb-36ad0eb530d8","system_id":"levelo_inurba_marseille","lat":43.31181,"lon":5.38705,"is_reserved":false,"is_disabled":false,"rental_uris":{"android":"levelo://app?vid=0fa79c3d-135c-4046-82fb-36ad0eb530d8","ios":"levelo://app?vid=0fa79c3d-135c-4046-82fb-36ad0eb530d8"},"vehicle_type_id":"4","last_reported":1745860147,"current_range_meters":4000,"station_id":"ce4bgv12rcd13ifvqcp0","pricing_plan_id":"cebpf4jnsgd1na2vs0mg"},{"bike_id":"0d7839b9-d505-452e-8a2e-a8d0df52eb2e","system_id":"levelo_inurba_marseille","lat":43.30889,"lon":5.39643,"is_reserved":false,"is_disabled":false,"rental_uris":{"android":"levelo://app?vid=0d7839b9-d505-452e-8a2e-a8d0df52eb2e","ios":"levelo://app?vid=0d7839b9-d505-452e-8a2e-a8d0df52eb2e"},"vehicle_type_id":"4","last_reported":1745860147,"current_range_meters":4400,"station_id":"ce4bh012rcd13ifvqcv0","pricing_plan_id":"cebpf4jnsgd1na2vs0mg"},{"bike_id":"c1c91687-b1a2-436a-b05f-069d15871e8e","system_id":"levelo_inurba_marseille","lat":43.28106,"lon":5.37847,"is_reserved":false,"is_disabled":false,"rental_uris":{"android":"levelo://app?vid=c1c91687-b1a2-436a-b05f-069d15871e8e","ios":"levelo://app?vid=c1c91687-b1a2-436a-b05f-069d15871e8e"},"vehicle_type_id":"4","last_reported":1745860147,"current_range_meters":15200,"station_id":"","pricing_plan_id":"cebpf4jnsgd1na2vs0mg"},{"bike_id":"d278cd6f-505d-4c5f-94f9-d8e803efb35a","system_id":"levelo_inurba_marseille","lat":43.30329,"lon":5.40434,"is_reserved":false,"is_disabled":false,"rental_uris":{"android":"levelo://app?vid=d278cd6f-505d-4c5f-94f9-d8e803efb35a","ios":"levelo://app?vid=d278cd6f-505d-4c5f-94f9-d8e803efb35a"},"vehicle_type_id":"4","last_reported":1745860147,"current_range_meters":4400,"station_id":"ce4bh012rcd13ifvqd10","pricing_plan_id":"cebpf4jnsgd1na2vs0mg"},{"bike_id":"87f123c4-0adc-4ba8-8649-74e2c508ef05","system_id":"levelo_inurba_marseille","lat":43.265586,"lon":5.372889,"is_reserved":false,"is_disabled":false,"rental_uris":{"android":"levelo://app?vid=87f123c4-0adc-4ba8-8649-74e2c508ef05","ios":"levelo://app?vid=87f123c4-0adc-4ba8-8649-74e2c508ef05"},"vehicle_type_id":"4","last_reported":1745860147,"current_range_meters":5600,"station_id":"ce4bhg12rcd13ifvqf70","pricing_plan_id":"cebpf4jnsgd1na2vs0mg"},{"bike_id":"378a98a8-6c00-49d2-acdf-ecc7215da0ac","system_id":"levelo_inurba_marseille","lat":43.30135,"lon":5.39881,"is_reserved":false,"is_disabled":false,"rental_uris":{"android":"levelo://app?vid=378a98a8-6c00-49d2-acdf-ecc7215da0ac","ios":"levelo://app?vid=378a98a8-6c00-49d2-acdf-ecc7215da0ac"},"vehicle_type_id":"4","last_reported":1745860147,"current_range_meters":4400,"station_id":"ce4bh0h2rcd13ifvqd40","pricing_plan_id":"cebpf4jnsgd1na2vs0mg"},{"bike_id":"3ce9c577-095e-437d-a882-29590c2baf47","system_id":"levelo_inurba_marseille","lat":43.311789,"lon":5.368327,"is_reserved":false,"is_disabled":false,"rental_uris":{"android":"levelo://app?vid=3ce9c577-095e-437d-a882-29590c2baf47","ios":"levelo://app?vid=3ce9c577-095e-437d-a882-29590c2baf47"},"vehicle_type_id":"4","last_reported":1745860147,"current_range_meters":5600,"station_id":"ce4bgl92rcd13ifvqbq0","pricing_plan_id":"cebpf4jnsgd1na2vs0mg"},{"bike_id":"25699531-21d4-4e81-b499-8c928ca2cc24","system_id":"levelo_inurba_marseille","lat":43.306181,"lon":5.401177,"is_reserved":false,"is_disabled":false,"rental_uris":{"android":"levelo://app?vid=25699531-21d4-4e81-b499-8c928ca2cc24","ios":"levelo://app?vid=25699531-21d4-4e81-b499-8c928ca2cc24"},"vehicle_type_id":"4","last_reported":1745860147,"current_range_meters":5600,"station_id":"ce4bh112rcd13ifvqda0","pricing_plan_id":"cebpf4jnsgd1na2vs0mg"},{"bike_id":"b1c2463e-7495-478a-94af-82fa8e287286","system_id":"levelo_inurba_marseille","lat":43.24672,"lon":5.38159,"is_reserved":false,"is_disabled":false,"rental_uris":{"android":"levelo://app?vid=b1c2463e-7495-478a-94af-82fa8e287286","ios":"levelo://app?vid=b1c2463e-7495-478a-94af-82fa8e287286"},"vehicle_type_id":"4","last_reported":1745860147,"current_range_meters":5600,"station_id":"ce4bhih2rcd13ifvqfr0","pricing_plan_id":"cebpf4jnsgd1na2vs0mg"},{"bike_id":"44e9f04f-8e90-45fb-b010-faaf55b42dc3","system_id":"levelo_inurba_marseille","lat":43.25579,"lon":5.38235,"is_reserved":false,"is_disabled":false,"rental_uris":{"android":"levelo://app?vid=44e9f04f-8e90-45fb-b010-faaf55b42dc3","ios":"levelo://app?vid=44e9f04f-8e90-45fb-b010-faaf55b42dc3"},"vehicle_type_id":"4","last_reported":1745860147,"current_range_meters":4800,"station_id":"ce4bhih2rcd13ifvqfs0","pricing_plan_id":"cebpf4jnsgd1na2vs0mg"},{"bike_id":"63bb9165-9603-422d-9417-aca4d3487d82","system_id":"levelo_inurba_marseille","lat":43.29041,"lon":5.35915,"is_reserved":false,"is_disabled":false,"rental_uris":{"android":"levelo://app?vid=63bb9165-9603-422d-9417-aca4d3487d82","ios":"levelo://app?vid=63bb9165-9603-422d-9417-aca4d3487d82"},"vehicle_type_id":"4","last_reported":1745860147,"current_range_meters":5600,"station_id":"ce4bha92rcd13ifvqeg0","pricing_plan_id":"cebpf4jnsgd1na2vs0mg"},{"bike_id":"d9cd1294-5d0b-43d3-9258-deda946961d1","system_id":"levelo_inurba_marseille","lat":43.22521,"lon":5.34791,"is_reserved":false,"is_disabled":true,"rental_uris":{"android":"levelo://app?vid=d9cd1294-5d0b-43d3-9258-deda946961d1","ios":"levelo://app?vid=d9cd1294-5d0b-43d3-9258-deda946961d1"},"vehicle_type_id":"4","last_reported":1745860147,"current_range_meters":6000,"station_id":"st_cvj5dfep6f1abm77gieg","pricing_plan_id":"cebpf4jnsgd1na2vs0mg"},{"bike_id":"037c1a86-85b7-4597-8937-c453b3d323ed","system_id":"levelo_inurba_marseille","lat":43.29537,"lon":5.38553,"is_reserved":false,"is_disabled":false,"rental_uris":{"android":"levelo://app?vid=037c1a86-85b7-4597-8937-c453b3d323ed","ios":"levelo://app?vid=037c1a86-85b7-4597-8937-c453b3d323ed"},"vehicle_type_id":"4","last_reported":1745860147,"current_range_meters":6000,"station_id":"ce4bgih2rcd13ifvqba0","pricing_plan_id":"cebpf4jnsgd1na2vs0mg"},{"bike_id":"55bdb343-04ad-42fd-aa12-58d65c08cdc4","system_id":"levelo_inurba_marseille","lat":43.255,"lon":5.37649,"is_reserved":false,"is_disabled":false,"rental_uris":{"android":"levelo://app?vid=55bdb343-04ad-42fd-aa12-58d65c08cdc4","ios":"levelo://app?vid=55bdb343-04ad-42fd-aa12-58d65c08cdc4"},"vehicle_type_id":"4","last_reported":1745860147,"current_range_meters":5600,"station_id":"ce4bhh12rcd13ifvqff0","pricing_plan_id":"cebpf4jnsgd1na2vs0mg"},{"bike_id":"5cf37c7e-c3ed-4a02-b872-ba1b00adc3b4","system_id":"levelo_inurba_marseille","lat":43.24656,"lon":5.38896,"is_reserved":false,"is_disabled":false,"rental_uris":{"android":"levelo://app?vid=5cf37c7e-c3ed-4a02-b872-ba1b00adc3b4","ios":"levelo://app?vid=5cf37c7e-c3ed-4a02-b872-ba1b00adc3b4"},"vehicle_type_id":"4","last_reported":1745860147,"current_range_meters":6000,"station_id":"ce4bhg12rcd13ifvqf60","pricing_plan_id":"cebpf4jnsgd1na2vs0mg"},{"bike_id":"8d7d0f92-7527-4a76-9440-dc0e940fd0b4","system_id":"levelo_inurba_marseille","lat":43.25502,"lon":5.37651,"is_reserved":false,"is_disabled":false,"rental_uris":{"android":"levelo://app?vid=8d7d0f92-7527-4a76-9440-dc0e940fd0b4","ios":"levelo://app?vid=8d7d0f92-7527-4a76-9440-dc0e940fd0b4"},"vehicle_type_id":"4","last_reported":1745860147,"current_range_meters":6000,"station_id":"ce4bhh12rcd13ifvqff0","pricing_plan_id":"cebpf4jnsgd1na2vs0mg"},{"bike_id":"ef5a622e-aa0a-4359-b3fd-ef466748c455","system_id":"levelo_inurba_marseille","lat":43.2321,"lon":5.35588,"is_reserved":false,"is_disabled":false,"rental_uris":{"android":"levelo://app?vid=ef5a622e-aa0a-4359-b3fd-ef466748c455","ios":"levelo://app?vid=ef5a622e-aa0a-4359-b3fd-ef466748c455"},"vehicle_type_id":"4","last_reported":1745860147,"current_range_meters":6000,"station_id":"ce4bhu92rcd13ifvqi70","pricing_plan_id":"cebpf4jnsgd1na2vs0mg"},{"bike_id":"c571b7de-db23-48d1-80ac-ab1a6a338c70","system_id":"levelo_inurba_marseille","lat":43.31989,"lon":5.38151,"is_reserved":false,"is_disabled":false,"rental_uris":{"android":"levelo://app?vid=c571b7de-db23-48d1-80ac-ab1a6a338c70","ios":"levelo://app?vid=c571b7de-db23-48d1-80ac-ab1a6a338c70"},"vehicle_type_id":"4","last_reported":1745860147,"current_range_meters":6000,"station_id":"ce4bhr12rcd13ifvqhpg","pricing_plan_id":"cebpf4jnsgd1na2vs0mg"},{"bike_id":"f604607f-a1e2-4bbd-b747-450760093aca","system_id":"levelo_inurba_marseille","lat":43.29894,"lon":5.43627,"is_reserved":false,"is_disabled":false,"rental_uris":{"android":"levelo://app?vid=f604607f-a1e2-4bbd-b747-450760093aca","ios":"levelo://app?vid=f604607f-a1e2-4bbd-b747-450760093aca"},"vehicle_type_id":"4","last_reported":1745860147,"current_range_meters":6400,"station_id":"ce4bhpp2rcd13ifvqhfg","pricing_plan_id":"cebpf4jnsgd1na2vs0mg"},{"bike_id":"81157565-46d1-4f9d-afa1-7e43c193a54e","system_id":"levelo_inurba_marseille","lat":43.27976,"lon":5.38744,"is_reserved":false,"is_disabled":false,"rental_uris":{"android":"levelo://app?vid=81157565-46d1-4f9d-afa1-7e43c193a54e","ios":"levelo://app?vid=81157565-46d1-4f9d-afa1-7e43c193a54e"},"vehicle_type_id":"4","last_reported":1745860147,"current_range_meters":6400,"station_id":"ce4bhg12rcd13ifvqf80","pricing_plan_id":"cebpf4jnsgd1na2vs0mg"},{"bike_id":"5a5ed409-5fa3-46e3-ba0b-83f2227524b9","system_id":"levelo_inurba_marseille","lat":43.25572,"lon":5.38233,"is_reserved":false,"is_disabled":false,"rental_uris":{"android":"levelo://app?vid=5a5ed409-5fa3-46e3-ba0b-83f2227524b9","ios":"levelo://app?vid=5a5ed409-5fa3-46e3-ba0b-83f2227524b9"},"vehicle_type_id":"4","last_reported":1745860147,"current_range_meters":6400,"station_id":"ce4bhih2rcd13ifvqfs0","pricing_plan_id":"cebpf4jnsgd1na2vs0mg"},{"bike_id":"b07e66e3-411a-43bc-a892-224d0faf0693","system_id":"levelo_inurba_marseille","lat":43.27813,"lon":5.4071,"is_reserved":false,"is_disabled":false,"rental_uris":{"android":"levelo://app?vid=b07e66e3-411a-43bc-a892-224d0faf0693","ios":"levelo://app?vid=b07e66e3-411a-43bc-a892-224d0faf0693"},"vehicle_type_id":"4","last_reported":1745860147,"current_range_meters":6400,"station_id":"ce4bhnh2rcd13ifvqgtg","pricing_plan_id":"cebpf4jnsgd1na2vs0mg"},{"bike_id":"59f6b8a5-9a4d-4f93-882c-fa6684eb7537","system_id":"levelo_inurba_marseille","lat":43.276829,"lon":5.388867,"is_reserved":false,"is_disabled":true,"rental_uris":{"android":"levelo://app?vid=59f6b8a5-9a4d-4f93-882c-fa6684eb7537","ios":"levelo://app?vid=59f6b8a5-9a4d-4f93-882c-fa6684eb7537"},"vehicle_type_id":"4","last_reported":1745860147,"current_range_meters":6800,"station_id":"ce4bhi12rcd13ifvqfo0","pricing_plan_id":"cebpf4jnsgd1na2vs0mg"},{"bike_id":"91559d40-e5ec-4b09-aee0-3dda98bb0b91","system_id":"levelo_inurba_marseille","lat":43.29697,"lon":5.37022,"is_reserved":false,"is_disabled":false,"rental_uris":{"android":"levelo://app?vid=91559d40-e5ec-4b09-aee0-3dda98bb0b91","ios":"levelo://app?vid=91559d40-e5ec-4b09-aee0-3dda98bb0b91"},"vehicle_type_id":"4","last_reported":1745860147,"current_range_meters":6800,"station_id":"","pricing_plan_id":"cebpf4jnsgd1na2vs0mg"},{"bike_id":"8ae79fb7-0582-444e-8dab-1d22e31e0f2e","system_id":"levelo_inurba_marseille","lat":43.23956,"lon":5.36635,"is_reserved":false,"is_disabled":false,"rental_uris":{"android":"levelo://app?vid=8ae79fb7-0582-444e-8dab-1d22e31e0f2e","ios":"levelo://app?vid=8ae79fb7-0582-444e-8dab-1d22e31e0f2e"},"vehicle_type_id":"4","last_reported":1745860147,"current_range_meters":6800,"station_id":"ce4bhi12rcd13ifvqfp0","pricing_plan_id":"cebpf4jnsgd1na2vs0mg"},{"bike_id":"b0ea5da1-dc78-4d09-bb3c-89447741c170","system_id":"levelo_inurba_marseille","lat":43.28411,"lon":5.34988,"is_reserved":false,"is_disabled":false,"rental_uris":{"android":"levelo://app?vid=b0ea5da1-dc78-4d09-bb3c-89447741c170","ios":"levelo://app?vid=b0ea5da1-dc78-4d09-bb3c-89447741c170"},"vehicle_type_id":"4","last_reported":1745860147,"current_range_meters":6800,"station_id":"ce4bhbh2rcd13ifvqepg","pricing_plan_id":"cebpf4jnsgd1na2vs0mg"},{"bike_id":"4002d4ef-18cf-4b85-98f1-60ac199f79f4","system_id":"levelo_inurba_marseille","lat":43.30953,"lon":5.39035,"is_reserved":false,"is_disabled":false,"rental_uris":{"android":"levelo://app?vid=4002d4ef-18cf-4b85-98f1-60ac199f79f4","ios":"levelo://app?vid=4002d4ef-18cf-4b85-98f1-60ac199f79f4"},"vehicle_type_id":"4","last_reported":1745860147,"current_range_meters":6800,"station_id":"ce4bgup2rcd13ifvqco0","pricing_plan_id":"cebpf4jnsgd1na2vs0mg"},{"bike_id":"a9e73118-aca0-4279-a09d-0250c87a2cbd","system_id":"levelo_inurba_marseille","lat":43.25123,"lon":5.40312,"is_reserved":false,"is_disabled":false,"rental_uris":{"android":"levelo://app?vid=a9e73118-aca0-4279-a09d-0250c87a2cbd","ios":"levelo://app?vid=a9e73118-aca0-4279-a09d-0250c87a2cbd"},"vehicle_type_id":"4","last_reported":1745860147,"current_range_meters":6800,"station_id":"ce4bhlh2rcd13ifvqgig","pricing_plan_id":"cebpf4jnsgd1na2vs0mg"},{"bike_id":"ab4f3d84-c277-4be7-97d2-4aaa64468666","system_id":"levelo_inurba_marseille","lat":43.30141,"lon":5.38775,"is_reserved":false,"is_disabled":false,"rental_uris":{"android":"levelo://app?vid=ab4f3d84-c277-4be7-97d2-4aaa64468666","ios":"levelo://app?vid=ab4f3d84-c277-4be7-97d2-4aaa64468666"},"vehicle_type_id":"4","last_reported":1745860147,"current_range_meters":6800,"station_id":"ce4bghh2rcd13ifvqb60","pricing_plan_id":"cebpf4jnsgd1na2vs0mg"},{"bike_id":"b7f314e7-3d53-4ba3-8afd-9fdf90ffaa66","system_id":"levelo_inurba_marseille","lat":43.28855,"lon":5.35863,"is_reserved":false,"is_disabled":false,"rental_uris":{"android":"levelo://app?vid=b7f314e7-3d53-4ba3-8afd-9fdf90ffaa66","ios":"levelo://app?vid=b7f314e7-3d53-4ba3-8afd-9fdf90ffaa66"},"vehicle_type_id":"4","last_reported":1745860147,"current_range_meters":6800,"station_id":"ce4bhb12rcd13ifvqem0","pricing_plan_id":"cebpf4jnsgd1na2vs0mg"},{"bike_id":"32eca611-111c-4689-bb0d-8c20e0341828","system_id":"levelo_inurba_marseille","lat":43.25575,"lon":5.3823,"is_reserved":false,"is_disabled":false,"rental_uris":{"android":"levelo://app?vid=32eca611-111c-4689-bb0d-8c20e0341828","ios":"levelo://app?vid=32eca611-111c-4689-bb0d-8c20e0341828"},"vehicle_type_id":"4","last_reported":1745860147,"current_range_meters":7200,"station_id":"ce4bhih2rcd13ifvqfs0","pricing_plan_id":"cebpf4jnsgd1na2vs0mg"},{"bike_id":"8d38b2b6-0732-40bb-ac18-2e6bde0b1452","system_id":"levelo_inurba_marseille","lat":43.317919,"lon":5.373659,"is_reserved":false,"is_disabled":false,"rental_uris":{"android":"levelo://app?vid=8d38b2b6-0732-40bb-ac18-2e6bde0b1452","ios":"levelo://app?vid=8d38b2b6-0732-40bb-ac18-2e6bde0b1452"},"vehicle_type_id":"4","last_reported":1745860147,"current_range_meters":7200,"station_id":"","pricing_plan_id":"cebpf4jnsgd1na2vs0mg"},{"bike_id":"2d71eac5-b236-4c63-a213-fe3822979733","system_id":"levelo_inurba_marseille","lat":43.27857,"lon":5.4071,"is_reserved":false,"is_disabled":false,"rental_uris":{"android":"levelo://app?vid=2d71eac5-b236-4c63-a213-fe3822979733","ios":"levelo://app?vid=2d71eac5-b236-4c63-a213-fe3822979733"},"vehicle_type_id":"4","last_reported":1745860147,"current_range_meters":7200,"station_id":"ce4bhnh2rcd13ifvqgtg","pricing_plan_id":"cebpf4jnsgd1na2vs0mg"},{"bike_id":"3e47aa2c-3b6c-4c83-a011-57bf1e443918","system_id":"levelo_inurba_marseille","lat":43.26553,"lon":5.37284,"is_reserved":false,"is_disabled":false,"rental_uris":{"android":"levelo://app?vid=3e47aa2c-3b6c-4c83-a011-57bf1e443918","ios":"levelo://app?vid=3e47aa2c-3b6c-4c83-a011-57bf1e443918"},"vehicle_type_id":"4","last_reported":1745860147,"current_range_meters":7200,"station_id":"ce4bhg12rcd13ifvqf70","pricing_plan_id":"cebpf4jnsgd1na2vs0mg"},{"bike_id":"ab1a3356-5be9-405a-9924-da7c313b5d85","system_id":"levelo_inurba_marseille","lat":43.26562,"lon":5.37317,"is_reserved":false,"is_disabled":false,"rental_uris":{"android":"levelo://app?vid=ab1a3356-5be9-405a-9924-da7c313b5d85","ios":"levelo://app?vid=ab1a3356-5be9-405a-9924-da7c313b5d85"},"vehicle_type_id":"4","last_reported":1745860147,"current_range_meters":7200,"station_id":"ce4bhg12rcd13ifvqf70","pricing_plan_id":"cebpf4jnsgd1na2vs0mg"},{"bike_id":"2170e8a2-0b50-454a-a8c3-90edc68a4e7f","system_id":"levelo_inurba_marseille","lat":43.22954,"lon":5.35384,"is_reserved":false,"is_disabled":false,"rental_uris":{"android":"levelo://app?vid=2170e8a2-0b50-454a-a8c3-90edc68a4e7f","ios":"levelo://app?vid=2170e8a2-0b50-454a-a8c3-90edc68a4e7f"},"vehicle_type_id":"4","last_reported":1745860147,"current_range_meters":7200,"station_id":"cpo3532slgdg3j2ikp40","pricing_plan_id":"cebpf4jnsgd1na2vs0mg"},{"bike_id":"63752618-53e5-44d6-b663-4487b6b135a6","system_id":"levelo_inurba_marseille","lat":43.2963,"lon":5.40591,"is_reserved":false,"is_disabled":false,"rental_uris":{"android":"levelo://app?vid=63752618-53e5-44d6-b663-4487b6b135a6","ios":"levelo://app?vid=63752618-53e5-44d6-b663-4487b6b135a6"},"vehicle_type_id":"4","last_reported":1745860147,"current_range_meters":7200,"station_id":"ce4bh0h2rcd13ifvqd60","pricing_plan_id":"cebpf4jnsgd1na2vs0mg"},{"bike_id":"f050d5a1-e93a-48ea-a48d-68d819dace47","system_id":"levelo_inurba_marseille","lat":43.29845,"lon":5.36276,"is_reserved":false,"is_disabled":false,"rental_uris":{"android":"levelo://app?vid=f050d5a1-e93a-48ea-a48d-68d819dace47","ios":"levelo://app?vid=f050d5a1-e93a-48ea-a48d-68d819dace47"},"vehicle_type_id":"4","last_reported":1745860147,"current_range_meters":7200,"station_id":"ce4bgpp2rcd13ifvqc3g","pricing_plan_id":"cebpf4jnsgd1na2vs0mg"},{"bike_id":"fb0b6b4c-3e04-4ba6-b245-0968cd725306","system_id":"levelo_inurba_marseille","lat":43.29264,"lon":5.40906,"is_reserved":false,"is_disabled":false,"rental_uris":{"android":"levelo://app?vid=fb0b6b4c-3e04-4ba6-b245-0968cd725306","ios":"levelo://app?vid=fb0b6b4c-3e04-4ba6-b245-0968cd725306"},"vehicle_type_id":"4","last_reported":1745860147,"current_range_meters":8000,"station_id":"ce4bh192rcd13ifvqdc0","pricing_plan_id":"cebpf4jnsgd1na2vs0mg"},{"bike_id":"4141a4ac-c499-4bea-ac60-899e617d90d3","system_id":"levelo_inurba_marseille","lat":43.24417,"lon":5.3708,"is_reserved":false,"is_disabled":false,"rental_uris":{"android":"levelo://app?vid=4141a4ac-c499-4bea-ac60-899e617d90d3","ios":"levelo://app?vid=4141a4ac-c499-4bea-ac60-899e617d90d3"},"vehicle_type_id":"4","last_reported":1745860147,"current_range_meters":8000,"station_id":"ce4bhhh2rcd13ifvqfk0","pricing_plan_id":"cebpf4jnsgd1na2vs0mg"},{"bike_id":"3f89252c-6c16-4ca3-9544-be51ebf02527","system_id":"levelo_inurba_marseille","lat":43.31365,"lon":5.38482,"is_reserved":false,"is_disabled":false,"rental_uris":{"android":"levelo://app?vid=3f89252c-6c16-4ca3-9544-be51ebf02527","ios":"levelo://app?vid=3f89252c-6c16-4ca3-9544-be51ebf02527"},"vehicle_type_id":"4","last_reported":1745860147,"current_range_meters":8000,"station_id":"ce4bgt92rcd13ifvqcf0","pricing_plan_id":"cebpf4jnsgd1na2vs0mg"},{"bike_id":"a4c8a335-745b-4d95-97e0-7bac3cb18549","system_id":"levelo_inurba_marseille","lat":43.2812,"lon":5.3984,"is_reserved":false,"is_disabled":false,"rental_uris":{"android":"levelo://app?vid=a4c8a335-745b-4d95-97e0-7bac3cb18549","ios":"levelo://app?vid=a4c8a335-745b-4d95-97e0-7bac3cb18549"},"vehicle_type_id":"4","last_reported":1745860147,"current_range_meters":8000,"station_id":"","pricing_plan_id":"cebpf4jnsgd1na2vs0mg"},{"bike_id":"1db14274-463d-4180-bece-00dba6656848","system_id":"levelo_inurba_marseille","lat":43.23959,"lon":5.36633,"is_reserved":false,"is_disabled":false,"rental_uris":{"android":"levelo://app?vid=1db14274-463d-4180-bece-00dba6656848","ios":"levelo://app?vid=1db14274-463d-4180-bece-00dba6656848"},"vehicle_type_id":"4","last_reported":1745860147,"current_range_meters":8000,"station_id":"ce4bhi12rcd13ifvqfp0","pricing_plan_id":"cebpf4jnsgd1na2vs0mg"},{"bike_id":"51c1adc9-7cd7-4ffb-971e-7b36309eb47d","system_id":"levelo_inurba_marseille","lat":43.31001,"lon":5.36686,"is_reserved":false,"is_disabled":false,"rental_uris":{"android":"levelo://app?vid=51c1adc9-7cd7-4ffb-971e-7b36309eb47d","ios":"levelo://app?vid=51c1adc9-7cd7-4ffb-971e-7b36309eb47d"},"vehicle_type_id":"4","last_reported":1745860147,"current_range_meters":8000,"station_id":"","pricing_plan_id":"cebpf4jnsgd1na2vs0mg"},{"bike_id":"a34facf1-94d0-4dbd-9d44-8deebd2d425a","system_id":"levelo_inurba_marseille","lat":43.29933,"lon":5.36565,"is_reserved":false,"is_disabled":false,"rental_uris":{"android":"levelo://app?vid=a34facf1-94d0-4dbd-9d44-8deebd2d425a","ios":"levelo://app?vid=a34facf1-94d0-4dbd-9d44-8deebd2d425a"},"vehicle_type_id":"4","last_reported":1745860147,"current_range_meters":8400,"station_id":"ce4bgm92rcd13ifvqbr0","pricing_plan_id":"cebpf4jnsgd1na2vs0mg"},{"bike_id":"55d0a513-6e36-464e-8271-6b192f5a06ae","system_id":"levelo_inurba_marseille","lat":43.27965,"lon":5.41039,"is_reserved":false,"is_disabled":false,"rental_uris":{"android":"levelo://app?vid=55d0a513-6e36-464e-8271-6b192f5a06ae","ios":"levelo://app?vid=55d0a513-6e36-464e-8271-6b192f5a06ae"},"vehicle_type_id":"4","last_reported":1745860147,"current_range_meters":8400,"station_id":"ce4bhnp2rcd13ifvqh0g","pricing_plan_id":"cebpf4jnsgd1na2vs0mg"},{"bike_id":"d4a0cabf-5a0b-4367-9871-66d3b49b1f1a","system_id":"levelo_inurba_marseille","lat":43.25574,"lon":5.38232,"is_reserved":false,"is_disabled":false,"rental_uris":{"android":"levelo://app?vid=d4a0cabf-5a0b-4367-9871-66d3b49b1f1a","ios":"levelo://app?vid=d4a0cabf-5a0b-4367-9871-66d3b49b1f1a"},"vehicle_type_id":"4","last_reported":1745860147,"current_range_meters":8400,"station_id":"ce4bhih2rcd13ifvqfs0","pricing_plan_id":"cebpf4jnsgd1na2vs0mg"},{"bike_id":"ceb448c1-47d7-44ad-a3a8-5f5e7171d9d1","system_id":"levelo_inurba_marseille","lat":43.27909,"lon":5.380095,"is_reserved":false,"is_disabled":false,"rental_uris":{"android":"levelo://app?vid=ceb448c1-47d7-44ad-a3a8-5f5e7171d9d1","ios":"levelo://app?vid=ceb448c1-47d7-44ad-a3a8-5f5e7171d9d1"},"vehicle_type_id":"4","last_reported":1745860147,"current_range_meters":8400,"station_id":"ce4bhf92rcd13ifvqf50","pricing_plan_id":"cebpf4jnsgd1na2vs0mg"},{"bike_id":"8f175103-22e6-46d7-a266-99adb487f971","system_id":"levelo_inurba_marseille","lat":43.255902,"lon":5.382446,"is_reserved":false,"is_disabled":false,"rental_uris":{"android":"levelo://app?vid=8f175103-22e6-46d7-a266-99adb487f971","ios":"levelo://app?vid=8f175103-22e6-46d7-a266-99adb487f971"},"vehicle_type_id":"4","last_reported":1745860147,"current_range_meters":8800,"station_id":"ce4bhih2rcd13ifvqfs0","pricing_plan_id":"cebpf4jnsgd1na2vs0mg"},{"bike_id":"0b6a4ca2-73d4-4055-8232-90035befc455","system_id":"levelo_inurba_marseille","lat":43.28271,"lon":5.35078,"is_reserved":false,"is_disabled":false,"rental_uris":{"android":"levelo://app?vid=0b6a4ca2-73d4-4055-8232-90035befc455","ios":"levelo://app?vid=0b6a4ca2-73d4-4055-8232-90035befc455"},"vehicle_type_id":"4","last_reported":1745860147,"current_range_meters":8400,"station_id":"ce4bhbp2rcd13ifvqerg","pricing_plan_id":"cebpf4jnsgd1na2vs0mg"},{"bike_id":"8730b43f-6b90-41b4-afc7-96a1dc882896","system_id":"levelo_inurba_marseille","lat":43.28612,"lon":5.37063,"is_reserved":false,"is_disabled":false,"rental_uris":{"android":"levelo://app?vid=8730b43f-6b90-41b4-afc7-96a1dc882896","ios":"levelo://app?vid=8730b43f-6b90-41b4-afc7-96a1dc882896"},"vehicle_type_id":"4","last_reported":1745860147,"current_range_meters":8800,"station_id":"ce4bht12rcd13ifvqi60","pricing_plan_id":"cebpf4jnsgd1na2vs0mg"},{"bike_id":"bf501bbc-751f-4cd9-87b7-dded2a71f26a","system_id":"levelo_inurba_marseille","lat":43.29877,"lon":5.38904,"is_reserved":false,"is_disabled":false,"rental_uris":{"android":"levelo://app?vid=bf501bbc-751f-4cd9-87b7-dded2a71f26a","ios":"levelo://app?vid=bf501bbc-751f-4cd9-87b7-dded2a71f26a"},"vehicle_type_id":"4","last_reported":1745860147,"current_range_meters":8800,"station_id":"ce4bh392rcd13ifvqdl0","pricing_plan_id":"cebpf4jnsgd1na2vs0mg"},{"bike_id":"c1ef8637-261d-43fc-9edb-f4efca755f41","system_id":"levelo_inurba_marseille","lat":43.2717,"lon":5.4098,"is_reserved":false,"is_disabled":false,"rental_uris":{"android":"levelo://app?vid=c1ef8637-261d-43fc-9edb-f4efca755f41","ios":"levelo://app?vid=c1ef8637-261d-43fc-9edb-f4efca755f41"},"vehicle_type_id":"4","last_reported":1745860147,"current_range_meters":8800,"station_id":"ce4bhl12rcd13ifvqgf0","pricing_plan_id":"cebpf4jnsgd1na2vs0mg"},{"bike_id":"084259b5-00e0-4be5-be40-455b89ef3783","system_id":"levelo_inurba_marseille","lat":43.30419,"lon":5.41291,"is_reserved":false,"is_disabled":false,"rental_uris":{"android":"levelo://app?vid=084259b5-00e0-4be5-be40-455b89ef3783","ios":"levelo://app?vid=084259b5-00e0-4be5-be40-455b89ef3783"},"vehicle_type_id":"4","last_reported":1745860147,"current_range_meters":8800,"station_id":"ce4bhop2rcd13ifvqh8g","pricing_plan_id":"cebpf4jnsgd1na2vs0mg"},{"bike_id":"af4f0c69-e62d-4155-b1d1-a67b45271ae1","system_id":"levelo_inurba_marseille","lat":43.24768,"lon":5.41282,"is_reserved":false,"is_disabled":false,"rental_uris":{"android":"levelo://app?vid=af4f0c69-e62d-4155-b1d1-a67b45271ae1","ios":"levelo://app?vid=af4f0c69-e62d-4155-b1d1-a67b45271ae1"},"vehicle_type_id":"4","last_reported":1745860147,"current_range_meters":9200,"station_id":"","pricing_plan_id":"cebpf4jnsgd1na2vs0mg"},{"bike_id":"90a36a36-d55d-4194-b3dc-f111cb6f3783","system_id":"levelo_inurba_marseille","lat":43.30319,"lon":5.40431,"is_reserved":false,"is_disabled":false,"rental_uris":{"android":"levelo://app?vid=90a36a36-d55d-4194-b3dc-f111cb6f3783","ios":"levelo://app?vid=90a36a36-d55d-4194-b3dc-f111cb6f3783"},"vehicle_type_id":"4","last_reported":1745860147,"current_range_meters":9200,"station_id":"ce4bh012rcd13ifvqd10","pricing_plan_id":"cebpf4jnsgd1na2vs0mg"},{"bike_id":"96dd9de4-0844-4bbf-8cb2-03e697d46fb5","system_id":"levelo_inurba_marseille","lat":43.25808,"lon":5.3944,"is_reserved":false,"is_disabled":false,"rental_uris":{"android":"levelo://app?vid=96dd9de4-0844-4bbf-8cb2-03e697d46fb5","ios":"levelo://app?vid=96dd9de4-0844-4bbf-8cb2-03e697d46fb5"},"vehicle_type_id":"4","last_reported":1745860147,"current_range_meters":8800,"station_id":"ce4bhip2rcd13ifvqft0","pricing_plan_id":"cebpf4jnsgd1na2vs0mg"},{"bike_id":"4b5f2de8-b7ae-47cb-85ce-4c4ac996f93b","system_id":"levelo_inurba_marseille","lat":43.28842,"lon":5.3584,"is_reserved":false,"is_disabled":false,"rental_uris":{"android":"levelo://app?vid=4b5f2de8-b7ae-47cb-85ce-4c4ac996f93b","ios":"levelo://app?vid=4b5f2de8-b7ae-47cb-85ce-4c4ac996f93b"},"vehicle_type_id":"4","last_reported":1745860147,"current_range_meters":9200,"station_id":"ce4bhb12rcd13ifvqem0","pricing_plan_id":"cebpf4jnsgd1na2vs0mg"},{"bike_id":"ed6691f3-ab6f-423f-b89a-b898a4f5e968","system_id":"levelo_inurba_marseille","lat":43.3001,"lon":5.38838,"is_reserved":false,"is_disabled":false,"rental_uris":{"android":"levelo://app?vid=ed6691f3-ab6f-423f-b89a-b898a4f5e968","ios":"levelo://app?vid=ed6691f3-ab6f-423f-b89a-b898a4f5e968"},"vehicle_type_id":"4","last_reported":1745860147,"current_range_meters":9200,"station_id":"","pricing_plan_id":"cebpf4jnsgd1na2vs0mg"},{"bike_id":"675d2619-b5bb-4a05-9fab-08b6dd2890fe","system_id":"levelo_inurba_marseille","lat":43.28462,"lon":5.35891,"is_reserved":false,"is_disabled":false,"rental_uris":{"android":"levelo://app?vid=675d2619-b5bb-4a05-9fab-08b6dd2890fe","ios":"levelo://app?vid=675d2619-b5bb-4a05-9fab-08b6dd2890fe"},"vehicle_type_id":"4","last_reported":1745860147,"current_range_meters":9200,"station_id":"ce4bhah2rcd13ifvqei0","pricing_plan_id":"cebpf4jnsgd1na2vs0mg"},{"bike_id":"679a1104-bb2f-4313-81ae-490e909d7dd6","system_id":"levelo_inurba_marseille","lat":43.296006,"lon":5.377052,"is_reserved":false,"is_disabled":true,"rental_uris":{"android":"levelo://app?vid=679a1104-bb2f-4313-81ae-490e909d7dd6","ios":"levelo://app?vid=679a1104-bb2f-4313-81ae-490e909d7dd6"},"vehicle_type_id":"4","last_reported":1745860147,"current_range_meters":9200,"station_id":"ce4bgi92rcd13ifvqb90","pricing_plan_id":"cebpf4jnsgd1na2vs0mg"},{"bike_id":"0e8b0d71-298b-4b6f-bdef-6c72ed244cf8","system_id":"levelo_inurba_marseille","lat":43.28427,"lon":5.37548,"is_reserved":false,"is_disabled":false,"rental_uris":{"android":"levelo://app?vid=0e8b0d71-298b-4b6f-bdef-6c72ed244cf8","ios":"levelo://app?vid=0e8b0d71-298b-4b6f-bdef-6c72ed244cf8"},"vehicle_type_id":"4","last_reported":1745860147,"current_range_meters":9200,"station_id":"ce4bh412rcd13ifvqds0","pricing_plan_id":"cebpf4jnsgd1na2vs0mg"},{"bike_id":"57a41005-dba4-4995-a65d-3cc07a95ba9a","system_id":"levelo_inurba_marseille","lat":43.30215,"lon":5.39455,"is_reserved":false,"is_disabled":true,"rental_uris":{"android":"levelo://app?vid=57a41005-dba4-4995-a65d-3cc07a95ba9a","ios":"levelo://app?vid=57a41005-dba4-4995-a65d-3cc07a95ba9a"},"vehicle_type_id":"4","last_reported":1745860147,"current_range_meters":9200,"station_id":"ce4bh0p2rcd13ifvqd70","pricing_plan_id":"cebpf4jnsgd1na2vs0mg"},{"bike_id":"6dfbe7aa-c73d-4458-a787-49d794c28064","system_id":"levelo_inurba_marseille","lat":43.29628,"lon":5.40606,"is_reserved":false,"is_disabled":false,"rental_uris":{"android":"levelo://app?vid=6dfbe7aa-c73d-4458-a787-49d794c28064","ios":"levelo://app?vid=6dfbe7aa-c73d-4458-a787-49d794c28064"},"vehicle_type_id":"4","last_reported":1745860147,"current_range_meters":9600,"station_id":"ce4bh0h2rcd13ifvqd60","pricing_plan_id":"cebpf4jnsgd1na2vs0mg"},{"bike_id":"1e713fc4-79b9-482d-b819-9af28f1bc292","system_id":"levelo_inurba_marseille","lat":43.30548,"lon":5.36698,"is_reserved":false,"is_disabled":false,"rental_uris":{"android":"levelo://app?vid=1e713fc4-79b9-482d-b819-9af28f1bc292","ios":"levelo://app?vid=1e713fc4-79b9-482d-b819-9af28f1bc292"},"vehicle_type_id":"4","last_reported":1745860147,"current_range_meters":9200,"station_id":"ce4bgrp2rcd13ifvqc9g","pricing_plan_id":"cebpf4jnsgd1na2vs0mg"},{"bike_id":"b16eedda-c158-497c-99a4-43ea8385e022","system_id":"levelo_inurba_marseille","lat":43.260575,"lon":5.39392,"is_reserved":false,"is_disabled":false,"rental_uris":{"android":"levelo://app?vid=b16eedda-c158-497c-99a4-43ea8385e022","ios":"levelo://app?vid=b16eedda-c158-497c-99a4-43ea8385e022"},"vehicle_type_id":"4","last_reported":1745860147,"current_range_meters":9600,"station_id":"ce4bhh92rcd13ifvqfj0","pricing_plan_id":"cebpf4jnsgd1na2vs0mg"},{"bike_id":"3827457a-8528-4115-a396-6fab63bc41ed","system_id":"levelo_inurba_marseille","lat":43.28995,"lon":5.35587,"is_reserved":false,"is_disabled":false,"rental_uris":{"android":"levelo://app?vid=3827457a-8528-4115-a396-6fab63bc41ed","ios":"levelo://app?vid=3827457a-8528-4115-a396-6fab63bc41ed"},"vehicle_type_id":"4","last_reported":1745860147,"current_range_meters":9600,"station_id":"ce4bhb92rcd13ifvqen0","pricing_plan_id":"cebpf4jnsgd1na2vs0mg"},{"bike_id":"d6178e0d-4e27-463b-a752-8700e5f92f42","system_id":"levelo_inurba_marseille","lat":43.28565,"lon":5.39511,"is_reserved":false,"is_disabled":false,"rental_uris":{"android":"levelo://app?vid=d6178e0d-4e27-463b-a752-8700e5f92f42","ios":"levelo://app?vid=d6178e0d-4e27-463b-a752-8700e5f92f42"},"vehicle_type_id":"4","last_reported":1745860147,"current_range_meters":10000,"station_id":"ce4bh292rcd13ifvqdg0","pricing_plan_id":"cebpf4jnsgd1na2vs0mg"},{"bike_id":"206bb421-16d8-4870-80ee-75ca2212b863","system_id":"levelo_inurba_marseille","lat":43.31086,"lon":5.42428,"is_reserved":false,"is_disabled":false,"rental_uris":{"android":"levelo://app?vid=206bb421-16d8-4870-80ee-75ca2212b863","ios":"levelo://app?vid=206bb421-16d8-4870-80ee-75ca2212b863"},"vehicle_type_id":"4","last_reported":1745860147,"current_range_meters":10000,"station_id":"ce4bhp92rcd13ifvqhag","pricing_plan_id":"cebpf4jnsgd1na2vs0mg"},{"bike_id":"53d37080-83e7-4995-834c-698e472572f1","system_id":"levelo_inurba_marseille","lat":43.31077,"lon":5.38359,"is_reserved":false,"is_disabled":false,"rental_uris":{"android":"levelo://app?vid=53d37080-83e7-4995-834c-698e472572f1","ios":"levelo://app?vid=53d37080-83e7-4995-834c-698e472572f1"},"vehicle_type_id":"4","last_reported":1745860147,"current_range_meters":10000,"station_id":"ce4bgv92rcd13ifvqcr0","pricing_plan_id":"cebpf4jnsgd1na2vs0mg"},{"bike_id":"6ec5197b-c9d8-4e1a-b2c3-5ba49107b986","system_id":"levelo_inurba_marseille","lat":43.29252,"lon":5.40906,"is_reserved":false,"is_disabled":false,"rental_uris":{"android":"levelo://app?vid=6ec5197b-c9d8-4e1a-b2c3-5ba49107b986","ios":"levelo://app?vid=6ec5197b-c9d8-4e1a-b2c3-5ba49107b986"},"vehicle_type_id":"4","last_reported":1745860147,"current_range_meters":10000,"station_id":"ce4bh192rcd13ifvqdc0","pricing_plan_id":"cebpf4jnsgd1na2vs0mg"},{"bike_id":"034d02af-59d8-41cd-bea6-2c140347bd82","system_id":"levelo_inurba_marseille","lat":43.30642,"lon":5.40083,"is_reserved":false,"is_disabled":false,"rental_uris":{"android":"levelo://app?vid=034d02af-59d8-41cd-bea6-2c140347bd82","ios":"levelo://app?vid=034d02af-59d8-41cd-bea6-2c140347bd82"},"vehicle_type_id":"4","last_reported":1745860147,"current_range_meters":10000,"station_id":"ce4bh112rcd13ifvqda0","pricing_plan_id":"cebpf4jnsgd1na2vs0mg"},{"bike_id":"8328fcf7-e7c1-4ab2-9672-3807178f6937","system_id":"levelo_inurba_marseille","lat":43.246628,"lon":5.381709,"is_reserved":false,"is_disabled":false,"rental_uris":{"android":"levelo://app?vid=8328fcf7-e7c1-4ab2-9672-3807178f6937","ios":"levelo://app?vid=8328fcf7-e7c1-4ab2-9672-3807178f6937"},"vehicle_type_id":"4","last_reported":1745860147,"current_range_meters":9600,"station_id":"ce4bhih2rcd13ifvqfr0","pricing_plan_id":"cebpf4jnsgd1na2vs0mg"},{"bike_id":"9749df21-32da-419f-b75c-50278e232aab","system_id":"levelo_inurba_marseille","lat":43.292058,"lon":5.358147,"is_reserved":false,"is_disabled":false,"rental_uris":{"android":"levelo://app?vid=9749df21-32da-419f-b75c-50278e232aab","ios":"levelo://app?vid=9749df21-32da-419f-b75c-50278e232aab"},"vehicle_type_id":"4","last_reported":1745860147,"current_range_meters":10800,"station_id":"ce4bhb12rcd13ifvqel0","pricing_plan_id":"cebpf4jnsgd1na2vs0mg"},{"bike_id":"ce2acb9b-3791-4000-822d-c542d629429b","system_id":"levelo_inurba_marseille","lat":43.26117,"lon":5.41472,"is_reserved":false,"is_disabled":false,"rental_uris":{"android":"levelo://app?vid=ce2acb9b-3791-4000-822d-c542d629429b","ios":"levelo://app?vid=ce2acb9b-3791-4000-822d-c542d629429b"},"vehicle_type_id":"4","last_reported":1745860147,"current_range_meters":10800,"station_id":"","pricing_plan_id":"cebpf4jnsgd1na2vs0mg"},{"bike_id":"a7163810-2fee-4f07-bc17-d96aabf9a498","system_id":"levelo_inurba_marseille","lat":43.3082,"lon":5.43558,"is_reserved":false,"is_disabled":false,"rental_uris":{"android":"levelo://app?vid=a7163810-2fee-4f07-bc17-d96aabf9a498","ios":"levelo://app?vid=a7163810-2fee-4f07-bc17-d96aabf9a498"},"vehicle_type_id":"4","last_reported":1745860147,"current_range_meters":10800,"station_id":"ce4bhph2rcd13ifvqheg","pricing_plan_id":"cebpf4jnsgd1na2vs0mg"},{"bike_id":"68f640a4-6185-4665-972a-e5afed2069a3","system_id":"levelo_inurba_marseille","lat":43.31721,"lon":5.37246,"is_reserved":false,"is_disabled":false,"rental_uris":{"android":"levelo://app?vid=68f640a4-6185-4665-972a-e5afed2069a3","ios":"levelo://app?vid=68f640a4-6185-4665-972a-e5afed2069a3"},"vehicle_type_id":"4","last_reported":1745860147,"current_range_meters":10800,"station_id":"","pricing_plan_id":"cebpf4jnsgd1na2vs0mg"},{"bike_id":"7961a001-dd23-4d21-97f8-a43e3829cbb0","system_id":"levelo_inurba_marseille","lat":43.25108,"lon":5.40322,"is_reserved":false,"is_disabled":false,"rental_uris":{"android":"levelo://app?vid=7961a001-dd23-4d21-97f8-a43e3829cbb0","ios":"levelo://app?vid=7961a001-dd23-4d21-97f8-a43e3829cbb0"},"vehicle_type_id":"4","last_reported":1745860147,"current_range_meters":10000,"station_id":"ce4bhlh2rcd13ifvqgig","pricing_plan_id":"cebpf4jnsgd1na2vs0mg"},{"bike_id":"a6c3e797-bf4e-4e10-a900-60a7a650fa52","system_id":"levelo_inurba_marseille","lat":43.255,"lon":5.37649,"is_reserved":false,"is_disabled":false,"rental_uris":{"android":"levelo://app?vid=a6c3e797-bf4e-4e10-a900-60a7a650fa52","ios":"levelo://app?vid=a6c3e797-bf4e-4e10-a900-60a7a650fa52"},"vehicle_type_id":"4","last_reported":1745860147,"current_range_meters":10000,"station_id":"ce4bhh12rcd13ifvqff0","pricing_plan_id":"cebpf4jnsgd1na2vs0mg"},{"bike_id":"05145c84-b9e3-47c2-91f6-efba0dd3a65c","system_id":"levelo_inurba_marseille","lat":43.25015,"lon":5.38903,"is_reserved":false,"is_disabled":true,"rental_uris":{"android":"levelo://app?vid=05145c84-b9e3-47c2-91f6-efba0dd3a65c","ios":"levelo://app?vid=05145c84-b9e3-47c2-91f6-efba0dd3a65c"},"vehicle_type_id":"4","last_reported":1745860147,"current_range_meters":10800,"station_id":"ce4bhgp2rcd13ifvqfd0","pricing_plan_id":"cebpf4jnsgd1na2vs0mg"},{"bike_id":"1c4015b9-989f-45fd-af0e-2890535ad881","system_id":"levelo_inurba_marseille","lat":43.28148,"lon":5.42662,"is_reserved":false,"is_disabled":false,"rental_uris":{"android":"levelo://app?vid=1c4015b9-989f-45fd-af0e-2890535ad881","ios":"levelo://app?vid=1c4015b9-989f-45fd-af0e-2890535ad881"},"vehicle_type_id":"4","last_reported":1745860147,"current_range_meters":11200,"station_id":"ce4bhnh2rcd13ifvqgug","pricing_plan_id":"cebpf4jnsgd1na2vs0mg"},{"bike_id":"dbbf4ff0-b24e-4fd7-807e-dc8172feaddb","system_id":"levelo_inurba_marseille","lat":43.27412,"lon":5.3624,"is_reserved":false,"is_disabled":false,"rental_uris":{"android":"levelo://app?vid=dbbf4ff0-b24e-4fd7-807e-dc8172feaddb","ios":"levelo://app?vid=dbbf4ff0-b24e-4fd7-807e-dc8172feaddb"},"vehicle_type_id":"4","last_reported":1745860147,"current_range_meters":11600,"station_id":"","pricing_plan_id":"cebpf4jnsgd1na2vs0mg"},{"bike_id":"80b3761f-2c01-42aa-a7dc-a5c527b02eb6","system_id":"levelo_inurba_marseille","lat":43.23181,"lon":5.39996,"is_reserved":false,"is_disabled":false,"rental_uris":{"android":"levelo://app?vid=80b3761f-2c01-42aa-a7dc-a5c527b02eb6","ios":"levelo://app?vid=80b3761f-2c01-42aa-a7dc-a5c527b02eb6"},"vehicle_type_id":"4","last_reported":1745860147,"current_range_meters":10800,"station_id":"ce4bhn12rcd13ifvqgqg","pricing_plan_id":"cebpf4jnsgd1na2vs0mg"},{"bike_id":"ee58cfbc-ebef-4627-858c-4a0bb2eafbc9","system_id":"levelo_inurba_marseille","lat":43.269522,"lon":5.386214,"is_reserved":false,"is_disabled":false,"rental_uris":{"android":"levelo://app?vid=ee58cfbc-ebef-4627-858c-4a0bb2eafbc9","ios":"levelo://app?vid=ee58cfbc-ebef-4627-858c-4a0bb2eafbc9"},"vehicle_type_id":"4","last_reported":1745860147,"current_range_meters":10800,"station_id":"ce4bhh92rcd13ifvqfh0","pricing_plan_id":"cebpf4jnsgd1na2vs0mg"},{"bike_id":"09e0fdcf-5bba-4dc6-998d-5da34dd7c3f4","system_id":"levelo_inurba_marseille","lat":43.31215,"lon":5.3683,"is_reserved":false,"is_disabled":false,"rental_uris":{"android":"levelo://app?vid=09e0fdcf-5bba-4dc6-998d-5da34dd7c3f4","ios":"levelo://app?vid=09e0fdcf-5bba-4dc6-998d-5da34dd7c3f4"},"vehicle_type_id":"4","last_reported":1745860147,"current_range_meters":11200,"station_id":"ce4bgl92rcd13ifvqbq0","pricing_plan_id":"cebpf4jnsgd1na2vs0mg"},{"bike_id":"c5212f16-2213-4fcc-99b9-eb0f7603643f","system_id":"levelo_inurba_marseille","lat":43.30529,"lon":5.36722,"is_reserved":false,"is_disabled":false,"rental_uris":{"android":"levelo://app?vid=c5212f16-2213-4fcc-99b9-eb0f7603643f","ios":"levelo://app?vid=c5212f16-2213-4fcc-99b9-eb0f7603643f"},"vehicle_type_id":"4","last_reported":1745860147,"current_range_meters":11200,"station_id":"ce4bgrp2rcd13ifvqc9g","pricing_plan_id":"cebpf4jnsgd1na2vs0mg"},{"bike_id":"6b808954-e9d8-43ac-b9af-ec92b5c49a6c","system_id":"levelo_inurba_marseille","lat":43.27624,"lon":5.36108,"is_reserved":false,"is_disabled":false,"rental_uris":{"android":"levelo://app?vid=6b808954-e9d8-43ac-b9af-ec92b5c49a6c","ios":"levelo://app?vid=6b808954-e9d8-43ac-b9af-ec92b5c49a6c"},"vehicle_type_id":"4","last_reported":1745860147,"current_range_meters":11200,"station_id":"ce4bgj92rcd13ifvqbe0","pricing_plan_id":"cebpf4jnsgd1na2vs0mg"},{"bike_id":"cbe121da-16c9-4058-bfcf-e964492d48c7","system_id":"levelo_inurba_marseille","lat":43.3055,"lon":5.3655,"is_reserved":false,"is_disabled":false,"rental_uris":{"android":"levelo://app?vid=cbe121da-16c9-4058-bfcf-e964492d48c7","ios":"levelo://app?vid=cbe121da-16c9-4058-bfcf-e964492d48c7"},"vehicle_type_id":"4","last_reported":1745860147,"current_range_meters":11200,"station_id":"ce4bgs12rcd13ifvqcag","pricing_plan_id":"cebpf4jnsgd1na2vs0mg"},{"bike_id":"e374cece-87e8-4152-a01b-c3e0f1ec033f","system_id":"levelo_inurba_marseille","lat":43.26504,"lon":5.39542,"is_reserved":false,"is_disabled":false,"rental_uris":{"android":"levelo://app?vid=e374cece-87e8-4152-a01b-c3e0f1ec033f","ios":"levelo://app?vid=e374cece-87e8-4152-a01b-c3e0f1ec033f"},"vehicle_type_id":"4","last_reported":1745860147,"current_range_meters":16800,"station_id":"ce4bhi12rcd13ifvqfq0","pricing_plan_id":"cebpf4jnsgd1na2vs0mg"},{"bike_id":"e5b4b90d-e268-4de2-98f4-f6d0513f8801","system_id":"levelo_inurba_marseille","lat":43.26548,"lon":5.42203,"is_reserved":false,"is_disabled":false,"rental_uris":{"android":"levelo://app?vid=e5b4b90d-e268-4de2-98f4-f6d0513f8801","ios":"levelo://app?vid=e5b4b90d-e268-4de2-98f4-f6d0513f8801"},"vehicle_type_id":"4","last_reported":1745860147,"current_range_meters":11600,"station_id":"","pricing_plan_id":"cebpf4jnsgd1na2vs0mg"},{"bike_id":"8181d28f-5328-4613-8382-4ac501ef0ce3","system_id":"levelo_inurba_marseille","lat":43.31531,"lon":5.38945,"is_reserved":false,"is_disabled":false,"rental_uris":{"android":"levelo://app?vid=8181d28f-5328-4613-8382-4ac501ef0ce3","ios":"levelo://app?vid=8181d28f-5328-4613-8382-4ac501ef0ce3"},"vehicle_type_id":"4","last_reported":1745860147,"current_range_meters":11600,"station_id":"","pricing_plan_id":"cebpf4jnsgd1na2vs0mg"},{"bike_id":"bf6b8bbd-522d-449d-80c7-7c307c9bfdd5","system_id":"levelo_inurba_marseille","lat":43.26942,"lon":5.40281,"is_reserved":false,"is_disabled":false,"rental_uris":{"android":"levelo://app?vid=bf6b8bbd-522d-449d-80c7-7c307c9bfdd5","ios":"levelo://app?vid=bf6b8bbd-522d-449d-80c7-7c307c9bfdd5"},"vehicle_type_id":"4","last_reported":1745860147,"current_range_meters":11600,"station_id":"cjm6bp8fraef2m0cb0m0","pricing_plan_id":"cebpf4jnsgd1na2vs0mg"},{"bike_id":"06dac6c4-06af-4ff3-afb0-698a51cbe1fe","system_id":"levelo_inurba_marseille","lat":43.32292,"lon":5.38278,"is_reserved":false,"is_disabled":false,"rental_uris":{"android":"levelo://app?vid=06dac6c4-06af-4ff3-afb0-698a51cbe1fe","ios":"levelo://app?vid=06dac6c4-06af-4ff3-afb0-698a51cbe1fe"},"vehicle_type_id":"4","last_reported":1745860147,"current_range_meters":11600,"station_id":"ce4bhr12rcd13ifvqhqg","pricing_plan_id":"cebpf4jnsgd1na2vs0mg"},{"bike_id":"3d2c4dbd-a11b-4dc8-8836-05ca9e9265d1","system_id":"levelo_inurba_marseille","lat":43.31076,"lon":5.38357,"is_reserved":false,"is_disabled":false,"rental_uris":{"android":"levelo://app?vid=3d2c4dbd-a11b-4dc8-8836-05ca9e9265d1","ios":"levelo://app?vid=3d2c4dbd-a11b-4dc8-8836-05ca9e9265d1"},"vehicle_type_id":"4","last_reported":1745860147,"current_range_meters":12000,"station_id":"ce4bgv92rcd13ifvqcr0","pricing_plan_id":"cebpf4jnsgd1na2vs0mg"},{"bike_id":"a80b656c-f5c4-4612-bd29-18a543e58ccf","system_id":"levelo_inurba_marseille","lat":43.274971,"lon":5.424472,"is_reserved":false,"is_disabled":false,"rental_uris":{"android":"levelo://app?vid=a80b656c-f5c4-4612-bd29-18a543e58ccf","ios":"levelo://app?vid=a80b656c-f5c4-4612-bd29-18a543e58ccf"},"vehicle_type_id":"4","last_reported":1745860147,"current_range_meters":12000,"station_id":"ce4bhn92rcd13ifvqgrg","pricing_plan_id":"cebpf4jnsgd1na2vs0mg"},{"bike_id":"7b7eacb1-8c5f-4cb8-8e3d-81bacb4d83f4","system_id":"levelo_inurba_marseille","lat":43.25575,"lon":5.38232,"is_reserved":false,"is_disabled":false,"rental_uris":{"android":"levelo://app?vid=7b7eacb1-8c5f-4cb8-8e3d-81bacb4d83f4","ios":"levelo://app?vid=7b7eacb1-8c5f-4cb8-8e3d-81bacb4d83f4"},"vehicle_type_id":"4","last_reported":1745860147,"current_range_meters":12000,"station_id":"ce4bhih2rcd13ifvqfs0","pricing_plan_id":"cebpf4jnsgd1na2vs0mg"},{"bike_id":"a9383daf-0043-4808-a53e-3234ead29193","system_id":"levelo_inurba_marseille","lat":43.310173,"lon":5.383157,"is_reserved":false,"is_disabled":false,"rental_uris":{"android":"levelo://app?vid=a9383daf-0043-4808-a53e-3234ead29193","ios":"levelo://app?vid=a9383daf-0043-4808-a53e-3234ead29193"},"vehicle_type_id":"4","last_reported":1745860147,"current_range_meters":11600,"station_id":"ce4bgv12rcd13ifvqcp0","pricing_plan_id":"cebpf4jnsgd1na2vs0mg"},{"bike_id":"0ff54298-d93f-4df6-9bb8-4f4ad763b689","system_id":"levelo_inurba_marseille","lat":43.30139,"lon":5.38776,"is_reserved":false,"is_disabled":false,"rental_uris":{"android":"levelo://app?vid=0ff54298-d93f-4df6-9bb8-4f4ad763b689","ios":"levelo://app?vid=0ff54298-d93f-4df6-9bb8-4f4ad763b689"},"vehicle_type_id":"4","last_reported":1745860147,"current_range_meters":11600,"station_id":"ce4bghh2rcd13ifvqb60","pricing_plan_id":"cebpf4jnsgd1na2vs0mg"},{"bike_id":"208c2a2d-8aad-4cbf-87b2-749e04cc795e","system_id":"levelo_inurba_marseille","lat":43.31278,"lon":5.40169,"is_reserved":false,"is_disabled":false,"rental_uris":{"android":"levelo://app?vid=208c2a2d-8aad-4cbf-87b2-749e04cc795e","ios":"levelo://app?vid=208c2a2d-8aad-4cbf-87b2-749e04cc795e"},"vehicle_type_id":"4","last_reported":1745860147,"current_range_meters":11600,"station_id":"ce4bh092rcd13ifvqd30","pricing_plan_id":"cebpf4jnsgd1na2vs0mg"},{"bike_id":"7ac706e2-6c28-4d11-ae71-8e1d9f9bb910","system_id":"levelo_inurba_marseille","lat":43.23151,"lon":5.43731,"is_reserved":false,"is_disabled":false,"rental_uris":{"android":"levelo://app?vid=7ac706e2-6c28-4d11-ae71-8e1d9f9bb910","ios":"levelo://app?vid=7ac706e2-6c28-4d11-ae71-8e1d9f9bb910"},"vehicle_type_id":"4","last_reported":1745860147,"current_range_meters":11600,"station_id":"ce4bhmp2rcd13ifvqgog","pricing_plan_id":"cebpf4jnsgd1na2vs0mg"},{"bike_id":"449edc4e-001b-4ffe-8ee3-52f1880ea681","system_id":"levelo_inurba_marseille","lat":43.28699,"lon":5.39998,"is_reserved":false,"is_disabled":false,"rental_uris":{"android":"levelo://app?vid=449edc4e-001b-4ffe-8ee3-52f1880ea681","ios":"levelo://app?vid=449edc4e-001b-4ffe-8ee3-52f1880ea681"},"vehicle_type_id":"4","last_reported":1745860147,"current_range_meters":12000,"station_id":"ce4bho92rcd13ifvqh3g","pricing_plan_id":"cebpf4jnsgd1na2vs0mg"},{"bike_id":"a83b2815-d99a-4800-8fc1-6da1a39e60ec","system_id":"levelo_inurba_marseille","lat":43.26069,"lon":5.39397,"is_reserved":false,"is_disabled":false,"rental_uris":{"android":"levelo://app?vid=a83b2815-d99a-4800-8fc1-6da1a39e60ec","ios":"levelo://app?vid=a83b2815-d99a-4800-8fc1-6da1a39e60ec"},"vehicle_type_id":"4","last_reported":1745860147,"current_range_meters":12000,"station_id":"ce4bhh92rcd13ifvqfj0","pricing_plan_id":"cebpf4jnsgd1na2vs0mg"},{"bike_id":"01c21f0f-3983-4880-9f60-922500c8815b","system_id":"levelo_inurba_marseille","lat":43.28266,"lon":5.35064,"is_reserved":false,"is_disabled":false,"rental_uris":{"android":"levelo://app?vid=01c21f0f-3983-4880-9f60-922500c8815b","ios":"levelo://app?vid=01c21f0f-3983-4880-9f60-922500c8815b"},"vehicle_type_id":"4","last_reported":1745860147,"current_range_meters":12000,"station_id":"ce4bhbp2rcd13ifvqerg","pricing_plan_id":"cebpf4jnsgd1na2vs0mg"},{"bike_id":"3566469e-5adf-4ae7-9fad-25ede3e08c1b","system_id":"levelo_inurba_marseille","lat":43.29263,"lon":5.38422,"is_reserved":false,"is_disabled":true,"rental_uris":{"android":"levelo://app?vid=3566469e-5adf-4ae7-9fad-25ede3e08c1b","ios":"levelo://app?vid=3566469e-5adf-4ae7-9fad-25ede3e08c1b"},"vehicle_type_id":"4","last_reported":1745860147,"current_range_meters":12000,"station_id":"ce4bh692rcd13ifvqea0","pricing_plan_id":"cebpf4jnsgd1na2vs0mg"},{"bike_id":"7aed1aec-f306-49c9-977a-9ff706991585","system_id":"levelo_inurba_marseille","lat":43.25113,"lon":5.40316,"is_reserved":false,"is_disabled":false,"rental_uris":{"android":"levelo://app?vid=7aed1aec-f306-49c9-977a-9ff706991585","ios":"levelo://app?vid=7aed1aec-f306-49c9-977a-9ff706991585"},"vehicle_type_id":"4","last_reported":1745860147,"current_range_meters":11600,"station_id":"ce4bhlh2rcd13ifvqgig","pricing_plan_id":"cebpf4jnsgd1na2vs0mg"},{"bike_id":"86c0598b-4818-471f-9a8b-081ecdc96572","system_id":"levelo_inurba_marseille","lat":43.25575,"lon":5.38245,"is_reserved":false,"is_disabled":false,"rental_uris":{"android":"levelo://app?vid=86c0598b-4818-471f-9a8b-081ecdc96572","ios":"levelo://app?vid=86c0598b-4818-471f-9a8b-081ecdc96572"},"vehicle_type_id":"4","last_reported":1745860147,"current_range_meters":12400,"station_id":"ce4bhih2rcd13ifvqfs0","pricing_plan_id":"cebpf4jnsgd1na2vs0mg"},{"bike_id":"ef55a073-8842-4626-bb7d-230b5327d4cd","system_id":"levelo_inurba_marseille","lat":43.27077,"lon":5.42291,"is_reserved":false,"is_disabled":false,"rental_uris":{"android":"levelo://app?vid=ef55a073-8842-4626-bb7d-230b5327d4cd","ios":"levelo://app?vid=ef55a073-8842-4626-bb7d-230b5327d4cd"},"vehicle_type_id":"4","last_reported":1745860147,"current_range_meters":12000,"station_id":"ce4bhk92rcd13ifvqgb0","pricing_plan_id":"cebpf4jnsgd1na2vs0mg"},{"bike_id":"82e2a96a-44dd-4cf0-8d10-83f7b5bc6b44","system_id":"levelo_inurba_marseille","lat":43.29005,"lon":5.35616,"is_reserved":false,"is_disabled":false,"rental_uris":{"android":"levelo://app?vid=82e2a96a-44dd-4cf0-8d10-83f7b5bc6b44","ios":"levelo://app?vid=82e2a96a-44dd-4cf0-8d10-83f7b5bc6b44"},"vehicle_type_id":"4","last_reported":1745860147,"current_range_meters":12000,"station_id":"ce4bhb92rcd13ifvqen0","pricing_plan_id":"cebpf4jnsgd1na2vs0mg"},{"bike_id":"4a059a2d-b3a6-4e0b-9fd3-b714abc8d3bb","system_id":"levelo_inurba_marseille","lat":43.32011,"lon":5.38155,"is_reserved":false,"is_disabled":true,"rental_uris":{"android":"levelo://app?vid=4a059a2d-b3a6-4e0b-9fd3-b714abc8d3bb","ios":"levelo://app?vid=4a059a2d-b3a6-4e0b-9fd3-b714abc8d3bb"},"vehicle_type_id":"4","last_reported":1745860147,"current_range_meters":12400,"station_id":"ce4bhr12rcd13ifvqhpg","pricing_plan_id":"cebpf4jnsgd1na2vs0mg"},{"bike_id":"d0fddcd7-3fb0-476d-946f-f5567ef2cf1b","system_id":"levelo_inurba_marseille","lat":43.30632,"lon":5.40098,"is_reserved":false,"is_disabled":false,"rental_uris":{"android":"levelo://app?vid=d0fddcd7-3fb0-476d-946f-f5567ef2cf1b","ios":"levelo://app?vid=d0fddcd7-3fb0-476d-946f-f5567ef2cf1b"},"vehicle_type_id":"4","last_reported":1745860147,"current_range_meters":12400,"station_id":"ce4bh112rcd13ifvqda0","pricing_plan_id":"cebpf4jnsgd1na2vs0mg"},{"bike_id":"f8527f98-9dba-4767-9c49-2ee5632fd2af","system_id":"levelo_inurba_marseille","lat":43.27869,"lon":5.40709,"is_reserved":false,"is_disabled":true,"rental_uris":{"android":"levelo://app?vid=f8527f98-9dba-4767-9c49-2ee5632fd2af","ios":"levelo://app?vid=f8527f98-9dba-4767-9c49-2ee5632fd2af"},"vehicle_type_id":"4","last_reported":1745860147,"current_range_meters":12400,"station_id":"","pricing_plan_id":"cebpf4jnsgd1na2vs0mg"},{"bike_id":"8c126201-3488-4062-b0a5-4c3858b7f3f6","system_id":"levelo_inurba_marseille","lat":43.298784,"lon":5.39743,"is_reserved":false,"is_disabled":false,"rental_uris":{"android":"levelo://app?vid=8c126201-3488-4062-b0a5-4c3858b7f3f6","ios":"levelo://app?vid=8c126201-3488-4062-b0a5-4c3858b7f3f6"},"vehicle_type_id":"4","last_reported":1745860147,"current_range_meters":12400,"station_id":"ce4bh0h2rcd13ifvqd50","pricing_plan_id":"cebpf4jnsgd1na2vs0mg"},{"bike_id":"e4fdb486-1d09-42c5-9915-3f51d35b4680","system_id":"levelo_inurba_marseille","lat":43.29197,"lon":5.393195,"is_reserved":false,"is_disabled":false,"rental_uris":{"android":"levelo://app?vid=e4fdb486-1d09-42c5-9915-3f51d35b4680","ios":"levelo://app?vid=e4fdb486-1d09-42c5-9915-3f51d35b4680"},"vehicle_type_id":"4","last_reported":1745860147,"current_range_meters":12400,"station_id":"ce4bh192rcd13ifvqdd0","pricing_plan_id":"cebpf4jnsgd1na2vs0mg"},{"bike_id":"011653b7-9ac5-4020-bac8-f2643b6f4f30","system_id":"levelo_inurba_marseille","lat":43.30349,"lon":5.40456,"is_reserved":false,"is_disabled":false,"rental_uris":{"android":"levelo://app?vid=011653b7-9ac5-4020-bac8-f2643b6f4f30","ios":"levelo://app?vid=011653b7-9ac5-4020-bac8-f2643b6f4f30"},"vehicle_type_id":"4","last_reported":1745860147,"current_range_meters":12800,"station_id":"ce4bh012rcd13ifvqd10","pricing_plan_id":"cebpf4jnsgd1na2vs0mg"},{"bike_id":"ab4612c3-85f5-4cb4-9ce2-46373d9c1c69","system_id":"levelo_inurba_marseille","lat":43.25802,"lon":5.38596,"is_reserved":false,"is_disabled":false,"rental_uris":{"android":"levelo://app?vid=ab4612c3-85f5-4cb4-9ce2-46373d9c1c69","ios":"levelo://app?vid=ab4612c3-85f5-4cb4-9ce2-46373d9c1c69"},"vehicle_type_id":"4","last_reported":1745860147,"current_range_meters":12800,"station_id":"","pricing_plan_id":"cebpf4jnsgd1na2vs0mg"},{"bike_id":"93fbd282-4ed7-43f8-9e9e-2359f26c4e8e","system_id":"levelo_inurba_marseille","lat":43.28426,"lon":5.34996,"is_reserved":false,"is_disabled":false,"rental_uris":{"android":"levelo://app?vid=93fbd282-4ed7-43f8-9e9e-2359f26c4e8e","ios":"levelo://app?vid=93fbd282-4ed7-43f8-9e9e-2359f26c4e8e"},"vehicle_type_id":"4","last_reported":1745860147,"current_range_meters":13600,"station_id":"ce4bhbh2rcd13ifvqepg","pricing_plan_id":"cebpf4jnsgd1na2vs0mg"},{"bike_id":"5f312450-ffbd-4aef-9b90-2a90c856bbb3","system_id":"levelo_inurba_marseille","lat":43.29245,"lon":5.40913,"is_reserved":false,"is_disabled":false,"rental_uris":{"android":"levelo://app?vid=5f312450-ffbd-4aef-9b90-2a90c856bbb3","ios":"levelo://app?vid=5f312450-ffbd-4aef-9b90-2a90c856bbb3"},"vehicle_type_id":"4","last_reported":1745860147,"current_range_meters":13600,"station_id":"ce4bh192rcd13ifvqdc0","pricing_plan_id":"cebpf4jnsgd1na2vs0mg"},{"bike_id":"a6c80b0c-536c-4a45-884f-2e1d125500ab","system_id":"levelo_inurba_marseille","lat":43.22515,"lon":5.34792,"is_reserved":false,"is_disabled":false,"rental_uris":{"android":"levelo://app?vid=a6c80b0c-536c-4a45-884f-2e1d125500ab","ios":"levelo://app?vid=a6c80b0c-536c-4a45-884f-2e1d125500ab"},"vehicle_type_id":"4","last_reported":1745860147,"current_range_meters":14000,"station_id":"","pricing_plan_id":"cebpf4jnsgd1na2vs0mg"},{"bike_id":"a273dd95-99e2-4bb8-bee8-19cb9b13f516","system_id":"levelo_inurba_marseille","lat":43.29928,"lon":5.43655,"is_reserved":false,"is_disabled":false,"rental_uris":{"android":"levelo://app?vid=a273dd95-99e2-4bb8-bee8-19cb9b13f516","ios":"levelo://app?vid=a273dd95-99e2-4bb8-bee8-19cb9b13f516"},"vehicle_type_id":"4","last_reported":1745860147,"current_range_meters":14000,"station_id":"ce4bhpp2rcd13ifvqhfg","pricing_plan_id":"cebpf4jnsgd1na2vs0mg"},{"bike_id":"0881ce4e-4a43-4b65-a0a2-8723e4a3ebcf","system_id":"levelo_inurba_marseille","lat":43.27907,"lon":5.3801,"is_reserved":false,"is_disabled":false,"rental_uris":{"android":"levelo://app?vid=0881ce4e-4a43-4b65-a0a2-8723e4a3ebcf","ios":"levelo://app?vid=0881ce4e-4a43-4b65-a0a2-8723e4a3ebcf"},"vehicle_type_id":"4","last_reported":1745860147,"current_range_meters":13600,"station_id":"ce4bhf92rcd13ifvqf50","pricing_plan_id":"cebpf4jnsgd1na2vs0mg"},{"bike_id":"0dc4b211-6289-4113-9e1c-0ad635bd3ec2","system_id":"levelo_inurba_marseille","lat":43.30899,"lon":5.36854,"is_reserved":false,"is_disabled":false,"rental_uris":{"android":"levelo://app?vid=0dc4b211-6289-4113-9e1c-0ad635bd3ec2","ios":"levelo://app?vid=0dc4b211-6289-4113-9e1c-0ad635bd3ec2"},"vehicle_type_id":"4","last_reported":1745860147,"current_range_meters":14000,"station_id":"ce4bgn92rcd13ifvqbvg","pricing_plan_id":"cebpf4jnsgd1na2vs0mg"},{"bike_id":"6b88ae52-4470-4609-9540-2ec7e9358c2c","system_id":"levelo_inurba_marseille","lat":43.239631,"lon":5.366344,"is_reserved":false,"is_disabled":false,"rental_uris":{"android":"levelo://app?vid=6b88ae52-4470-4609-9540-2ec7e9358c2c","ios":"levelo://app?vid=6b88ae52-4470-4609-9540-2ec7e9358c2c"},"vehicle_type_id":"4","last_reported":1745860147,"current_range_meters":14400,"station_id":"ce4bhi12rcd13ifvqfp0","pricing_plan_id":"cebpf4jnsgd1na2vs0mg"},{"bike_id":"b4f6060f-e46b-4e72-b305-f6171f78584c","system_id":"levelo_inurba_marseille","lat":43.26511,"lon":5.39539,"is_reserved":false,"is_disabled":false,"rental_uris":{"android":"levelo://app?vid=b4f6060f-e46b-4e72-b305-f6171f78584c","ios":"levelo://app?vid=b4f6060f-e46b-4e72-b305-f6171f78584c"},"vehicle_type_id":"4","last_reported":1745860147,"current_range_meters":14400,"station_id":"ce4bhi12rcd13ifvqfq0","pricing_plan_id":"cebpf4jnsgd1na2vs0mg"},{"bike_id":"3728a37f-8972-449b-a2ed-9bc63c650332","system_id":"levelo_inurba_marseille","lat":43.28414,"lon":5.375105,"is_reserved":false,"is_disabled":false,"rental_uris":{"android":"levelo://app?vid=3728a37f-8972-449b-a2ed-9bc63c650332","ios":"levelo://app?vid=3728a37f-8972-449b-a2ed-9bc63c650332"},"vehicle_type_id":"4","last_reported":1745860147,"current_range_meters":14400,"station_id":"ce4bh412rcd13ifvqds0","pricing_plan_id":"cebpf4jnsgd1na2vs0mg"},{"bike_id":"8451db7e-9012-4470-bc8f-ea1711e0177b","system_id":"levelo_inurba_marseille","lat":43.29969,"lon":5.38492,"is_reserved":false,"is_disabled":false,"rental_uris":{"android":"levelo://app?vid=8451db7e-9012-4470-bc8f-ea1711e0177b","ios":"levelo://app?vid=8451db7e-9012-4470-bc8f-ea1711e0177b"},"vehicle_type_id":"4","last_reported":1745860147,"current_range_meters":16400,"station_id":"","pricing_plan_id":"cebpf4jnsgd1na2vs0mg"},{"bike_id":"32db904d-3b93-4859-a27e-3e9be41748c9","system_id":"levelo_inurba_marseille","lat":43.27821,"lon":5.40712,"is_reserved":false,"is_disabled":false,"rental_uris":{"android":"levelo://app?vid=32db904d-3b93-4859-a27e-3e9be41748c9","ios":"levelo://app?vid=32db904d-3b93-4859-a27e-3e9be41748c9"},"vehicle_type_id":"4","last_reported":1745860147,"current_range_meters":15200,"station_id":"ce4bhnh2rcd13ifvqgtg","pricing_plan_id":"cebpf4jnsgd1na2vs0mg"},{"bike_id":"64b4a0f6-eb4e-4a58-a49c-c2fdffc72cda","system_id":"levelo_inurba_marseille","lat":43.27529,"lon":5.38402,"is_reserved":false,"is_disabled":true,"rental_uris":{"android":"levelo://app?vid=64b4a0f6-eb4e-4a58-a49c-c2fdffc72cda","ios":"levelo://app?vid=64b4a0f6-eb4e-4a58-a49c-c2fdffc72cda"},"vehicle_type_id":"4","last_reported":1745860147,"current_range_meters":15200,"station_id":"ce4bhh92rcd13ifvqfi0","pricing_plan_id":"cebpf4jnsgd1na2vs0mg"},{"bike_id":"f7de7479-45c0-4c25-bdd1-a2c17c0f8b8f","system_id":"levelo_inurba_marseille","lat":43.23961,"lon":5.36642,"is_reserved":false,"is_disabled":false,"rental_uris":{"android":"levelo://app?vid=f7de7479-45c0-4c25-bdd1-a2c17c0f8b8f","ios":"levelo://app?vid=f7de7479-45c0-4c25-bdd1-a2c17c0f8b8f"},"vehicle_type_id":"4","last_reported":1745860147,"current_range_meters":15200,"station_id":"ce4bhi12rcd13ifvqfp0","pricing_plan_id":"cebpf4jnsgd1na2vs0mg"},{"bike_id":"9facd62d-bfc3-42e1-8617-ffebea8fc93f","system_id":"levelo_inurba_marseille","lat":43.2418,"lon":5.39734,"is_reserved":false,"is_disabled":false,"rental_uris":{"android":"levelo://app?vid=9facd62d-bfc3-42e1-8617-ffebea8fc93f","ios":"levelo://app?vid=9facd62d-bfc3-42e1-8617-ffebea8fc93f"},"vehicle_type_id":"4","last_reported":1745860147,"current_range_meters":15200,"station_id":"ce4bhn12rcd13ifvqgpg","pricing_plan_id":"cebpf4jnsgd1na2vs0mg"},{"bike_id":"28894e81-ede6-4351-84e3-e6b48081a345","system_id":"levelo_inurba_marseille","lat":43.33477,"lon":5.4002,"is_reserved":false,"is_disabled":false,"rental_uris":{"android":"levelo://app?vid=28894e81-ede6-4351-84e3-e6b48081a345","ios":"levelo://app?vid=28894e81-ede6-4351-84e3-e6b48081a345"},"vehicle_type_id":"4","last_reported":1745860147,"current_range_meters":16000,"station_id":"","pricing_plan_id":"cebpf4jnsgd1na2vs0mg"},{"bike_id":"b3d7cca2-7d35-4030-8d40-4a8257616573","system_id":"levelo_inurba_marseille","lat":43.22499,"lon":5.34789,"is_reserved":false,"is_disabled":false,"rental_uris":{"android":"levelo://app?vid=b3d7cca2-7d35-4030-8d40-4a8257616573","ios":"levelo://app?vid=b3d7cca2-7d35-4030-8d40-4a8257616573"},"vehicle_type_id":"4","last_reported":1745860147,"current_range_meters":16000,"station_id":"st_cvj5dfep6f1abm77gieg","pricing_plan_id":"cebpf4jnsgd1na2vs0mg"},{"bike_id":"1679c50b-fc07-4877-85e1-2f7602e0550f","system_id":"levelo_inurba_marseille","lat":43.24547,"lon":5.39523,"is_reserved":false,"is_disabled":false,"rental_uris":{"android":"levelo://app?vid=1679c50b-fc07-4877-85e1-2f7602e0550f","ios":"levelo://app?vid=1679c50b-fc07-4877-85e1-2f7602e0550f"},"vehicle_type_id":"4","last_reported":1745860147,"current_range_meters":15200,"station_id":"ce4bhlp2rcd13ifvqgjg","pricing_plan_id":"cebpf4jnsgd1na2vs0mg"},{"bike_id":"fe65bd41-7e98-43f0-9c50-eb8fe8828cf2","system_id":"levelo_inurba_marseille","lat":43.292782,"lon":5.401168,"is_reserved":false,"is_disabled":false,"rental_uris":{"android":"levelo://app?vid=fe65bd41-7e98-43f0-9c50-eb8fe8828cf2","ios":"levelo://app?vid=fe65bd41-7e98-43f0-9c50-eb8fe8828cf2"},"vehicle_type_id":"4","last_reported":1745860147,"current_range_meters":16000,"station_id":"ce4bh312rcd13ifvqdk0","pricing_plan_id":"cebpf4jnsgd1na2vs0mg"},{"bike_id":"a640b5aa-9396-4827-8f57-dd7ffd2f1a84","system_id":"levelo_inurba_marseille","lat":43.297889,"lon":5.381031,"is_reserved":false,"is_disabled":true,"rental_uris":{"android":"levelo://app?vid=a640b5aa-9396-4827-8f57-dd7ffd2f1a84","ios":"levelo://app?vid=a640b5aa-9396-4827-8f57-dd7ffd2f1a84"},"vehicle_type_id":"4","last_reported":1745860147,"current_range_meters":16400,"station_id":"ce4bgip2rcd13ifvqbb0","pricing_plan_id":"cebpf4jnsgd1na2vs0mg"},{"bike_id":"a958bd06-9a50-497e-aef9-55e910bf12d1","system_id":"levelo_inurba_marseille","lat":43.2993,"lon":5.381077,"is_reserved":false,"is_disabled":true,"rental_uris":{"android":"levelo://app?vid=a958bd06-9a50-497e-aef9-55e910bf12d1","ios":"levelo://app?vid=a958bd06-9a50-497e-aef9-55e910bf12d1"},"vehicle_type_id":"4","last_reported":1745860147,"current_range_meters":16400,"station_id":"ce4bgj12rcd13ifvqbc0","pricing_plan_id":"cebpf4jnsgd1na2vs0mg"},{"bike_id":"1c71dd62-5c1a-42e0-8da7-81eceebfb73e","system_id":"levelo_inurba_marseille","lat":43.21193,"lon":5.35082,"is_reserved":false,"is_disabled":false,"rental_uris":{"android":"levelo://app?vid=1c71dd62-5c1a-42e0-8da7-81eceebfb73e","ios":"levelo://app?vid=1c71dd62-5c1a-42e0-8da7-81eceebfb73e"},"vehicle_type_id":"4","last_reported":1745860147,"current_range_meters":16400,"station_id":"st_cvj6sg6p6f1abm77japg","pricing_plan_id":"cebpf4jnsgd1na2vs0mg"},{"bike_id":"d58e03bb-19b9-469a-bcd7-0c3ce91d40b5","system_id":"levelo_inurba_marseille","lat":43.213406,"lon":5.349628,"is_reserved":false,"is_disabled":false,"rental_uris":{"android":"levelo://app?vid=d58e03bb-19b9-469a-bcd7-0c3ce91d40b5","ios":"levelo://app?vid=d58e03bb-19b9-469a-bcd7-0c3ce91d40b5"},"vehicle_type_id":"4","last_reported":1745860147,"current_range_meters":16400,"station_id":"","pricing_plan_id":"cebpf4jnsgd1na2vs0mg"},{"bike_id":"9a963ea1-08ca-40f4-acdd-ced194e7124c","system_id":"levelo_inurba_marseille","lat":43.29714,"lon":5.377,"is_reserved":false,"is_disabled":false,"rental_uris":{"android":"levelo://app?vid=9a963ea1-08ca-40f4-acdd-ced194e7124c","ios":"levelo://app?vid=9a963ea1-08ca-40f4-acdd-ced194e7124c"},"vehicle_type_id":"4","last_reported":1745860147,"current_range_meters":17200,"station_id":"ce4bgkh2rcd13ifvqbl0","pricing_plan_id":"cebpf4jnsgd1na2vs0mg"},{"bike_id":"0497d549-03a8-456c-a5d4-171da7cfc58d","system_id":"levelo_inurba_marseille","lat":43.30648,"lon":5.40098,"is_reserved":false,"is_disabled":false,"rental_uris":{"android":"levelo://app?vid=0497d549-03a8-456c-a5d4-171da7cfc58d","ios":"levelo://app?vid=0497d549-03a8-456c-a5d4-171da7cfc58d"},"vehicle_type_id":"4","last_reported":1745860147,"current_range_meters":16400,"station_id":"ce4bh112rcd13ifvqda0","pricing_plan_id":"cebpf4jnsgd1na2vs0mg"},{"bike_id":"445a5215-22d8-46cd-9187-609013a25bf0","system_id":"levelo_inurba_marseille","lat":43.31757,"lon":5.39014,"is_reserved":false,"is_disabled":false,"rental_uris":{"android":"levelo://app?vid=445a5215-22d8-46cd-9187-609013a25bf0","ios":"levelo://app?vid=445a5215-22d8-46cd-9187-609013a25bf0"},"vehicle_type_id":"4","last_reported":1745860147,"current_range_meters":16000,"station_id":"ce4bhqp2rcd13ifvqhng","pricing_plan_id":"cebpf4jnsgd1na2vs0mg"},{"bike_id":"923f8501-7d40-44db-85bf-a51b2ea797ac","system_id":"levelo_inurba_marseille","lat":43.26915,"lon":5.40322,"is_reserved":false,"is_disabled":true,"rental_uris":{"android":"levelo://app?vid=923f8501-7d40-44db-85bf-a51b2ea797ac","ios":"levelo://app?vid=923f8501-7d40-44db-85bf-a51b2ea797ac"},"vehicle_type_id":"4","last_reported":1745860147,"current_range_meters":16400,"station_id":"cjm6bp8fraef2m0cb0m0","pricing_plan_id":"cebpf4jnsgd1na2vs0mg"},{"bike_id":"887b677b-da80-4375-87bb-f839f998c276","system_id":"levelo_inurba_marseille","lat":43.286041,"lon":5.370572,"is_reserved":false,"is_disabled":false,"rental_uris":{"android":"levelo://app?vid=887b677b-da80-4375-87bb-f839f998c276","ios":"levelo://app?vid=887b677b-da80-4375-87bb-f839f998c276"},"vehicle_type_id":"4","last_reported":1745860147,"current_range_meters":16400,"station_id":"ce4bht12rcd13ifvqi60","pricing_plan_id":"cebpf4jnsgd1na2vs0mg"},{"bike_id":"0d7c6e70-60bf-4ebc-80c1-af8004570713","system_id":"levelo_inurba_marseille","lat":43.30591,"lon":5.39359,"is_reserved":false,"is_disabled":false,"rental_uris":{"android":"levelo://app?vid=0d7c6e70-60bf-4ebc-80c1-af8004570713","ios":"levelo://app?vid=0d7c6e70-60bf-4ebc-80c1-af8004570713"},"vehicle_type_id":"4","last_reported":1745860147,"current_range_meters":16400,"station_id":"ce4bh0p2rcd13ifvqd80","pricing_plan_id":"cebpf4jnsgd1na2vs0mg"},{"bike_id":"5d12ee4a-52f1-4f1a-af38-ad7a19a5a489","system_id":"levelo_inurba_marseille","lat":43.30512,"lon":5.36515,"is_reserved":false,"is_disabled":true,"rental_uris":{"android":"levelo://app?vid=5d12ee4a-52f1-4f1a-af38-ad7a19a5a489","ios":"levelo://app?vid=5d12ee4a-52f1-4f1a-af38-ad7a19a5a489"},"vehicle_type_id":"4","last_reported":1745860147,"current_range_meters":16800,"station_id":"ce4bgs12rcd13ifvqcag","pricing_plan_id":"cebpf4jnsgd1na2vs0mg"},{"bike_id":"888538ce-4dc3-4f2e-8404-8ea4d633e1aa","system_id":"levelo_inurba_marseille","lat":43.26181,"lon":5.37452,"is_reserved":false,"is_disabled":true,"rental_uris":{"android":"levelo://app?vid=888538ce-4dc3-4f2e-8404-8ea4d633e1aa","ios":"levelo://app?vid=888538ce-4dc3-4f2e-8404-8ea4d633e1aa"},"vehicle_type_id":"4","last_reported":1745860147,"current_range_meters":16800,"station_id":"ce4bhgp2rcd13ifvqfc0","pricing_plan_id":"cebpf4jnsgd1na2vs0mg"},{"bike_id":"1cbb80a9-bb67-42e9-9933-fb29edc6144f","system_id":"levelo_inurba_marseille","lat":43.304058,"lon":5.387599,"is_reserved":false,"is_disabled":false,"rental_uris":{"android":"levelo://app?vid=1cbb80a9-bb67-42e9-9933-fb29edc6144f","ios":"levelo://app?vid=1cbb80a9-bb67-42e9-9933-fb29edc6144f"},"vehicle_type_id":"4","last_reported":1745860147,"current_range_meters":16800,"station_id":"ce4bgk12rcd13ifvqbi0","pricing_plan_id":"cebpf4jnsgd1na2vs0mg"},{"bike_id":"489415b8-9254-45c1-b00c-e7554d56755c","system_id":"levelo_inurba_marseille","lat":43.24557,"lon":5.4122,"is_reserved":false,"is_disabled":false,"rental_uris":{"android":"levelo://app?vid=489415b8-9254-45c1-b00c-e7554d56755c","ios":"levelo://app?vid=489415b8-9254-45c1-b00c-e7554d56755c"},"vehicle_type_id":"4","last_reported":1745860147,"current_range_meters":17200,"station_id":"","pricing_plan_id":"cebpf4jnsgd1na2vs0mg"},{"bike_id":"88f214b6-62ef-4555-a56f-01612c0ba776","system_id":"levelo_inurba_marseille","lat":43.25107,"lon":5.40331,"is_reserved":false,"is_disabled":false,"rental_uris":{"android":"levelo://app?vid=88f214b6-62ef-4555-a56f-01612c0ba776","ios":"levelo://app?vid=88f214b6-62ef-4555-a56f-01612c0ba776"},"vehicle_type_id":"4","last_reported":1745860147,"current_range_meters":17200,"station_id":"ce4bhlh2rcd13ifvqgig","pricing_plan_id":"cebpf4jnsgd1na2vs0mg"},{"bike_id":"39c124a6-5e12-47ca-bb9f-4da7eb68ea9d","system_id":"levelo_inurba_marseille","lat":43.28725,"lon":5.37936,"is_reserved":false,"is_disabled":false,"rental_uris":{"android":"levelo://app?vid=39c124a6-5e12-47ca-bb9f-4da7eb68ea9d","ios":"levelo://app?vid=39c124a6-5e12-47ca-bb9f-4da7eb68ea9d"},"vehicle_type_id":"4","last_reported":1745860147,"current_range_meters":17200,"station_id":"ce4bh9p2rcd13ifvqec0","pricing_plan_id":"cebpf4jnsgd1na2vs0mg"},{"bike_id":"90ec756e-7d75-44ae-9837-bcc6f8c453df","system_id":"levelo_inurba_marseille","lat":43.23191,"lon":5.35564,"is_reserved":false,"is_disabled":false,"rental_uris":{"android":"levelo://app?vid=90ec756e-7d75-44ae-9837-bcc6f8c453df","ios":"levelo://app?vid=90ec756e-7d75-44ae-9837-bcc6f8c453df"},"vehicle_type_id":"4","last_reported":1745860147,"current_range_meters":17200,"station_id":"ce4bhu92rcd13ifvqi70","pricing_plan_id":"cebpf4jnsgd1na2vs0mg"},{"bike_id":"e2ac210c-743b-43fa-a7d7-258cb180aaab","system_id":"levelo_inurba_marseille","lat":43.28448,"lon":5.35006,"is_reserved":false,"is_disabled":false,"rental_uris":{"android":"levelo://app?vid=e2ac210c-743b-43fa-a7d7-258cb180aaab","ios":"levelo://app?vid=e2ac210c-743b-43fa-a7d7-258cb180aaab"},"vehicle_type_id":"4","last_reported":1745860147,"current_range_meters":17200,"station_id":"ce4bhbh2rcd13ifvqepg","pricing_plan_id":"cebpf4jnsgd1na2vs0mg"},{"bike_id":"6269a9ca-f4f3-4106-8cff-2b7df03796c2","system_id":"levelo_inurba_marseille","lat":43.23202,"lon":5.35545,"is_reserved":false,"is_disabled":false,"rental_uris":{"android":"levelo://app?vid=6269a9ca-f4f3-4106-8cff-2b7df03796c2","ios":"levelo://app?vid=6269a9ca-f4f3-4106-8cff-2b7df03796c2"},"vehicle_type_id":"4","last_reported":1745860147,"current_range_meters":17600,"station_id":"ce4bhu92rcd13ifvqi70","pricing_plan_id":"cebpf4jnsgd1na2vs0mg"},{"bike_id":"eb663615-79b0-4fa8-956d-25d80b716655","system_id":"levelo_inurba_marseille","lat":43.30948,"lon":5.39037,"is_reserved":false,"is_disabled":false,"rental_uris":{"android":"levelo://app?vid=eb663615-79b0-4fa8-956d-25d80b716655","ios":"levelo://app?vid=eb663615-79b0-4fa8-956d-25d80b716655"},"vehicle_type_id":"4","last_reported":1745860147,"current_range_meters":17600,"station_id":"ce4bgup2rcd13ifvqco0","pricing_plan_id":"cebpf4jnsgd1na2vs0mg"},{"bike_id":"1d909474-2fea-4c10-aecf-a96358606c0b","system_id":"levelo_inurba_marseille","lat":43.28932,"lon":5.36648,"is_reserved":false,"is_disabled":false,"rental_uris":{"android":"levelo://app?vid=1d909474-2fea-4c10-aecf-a96358606c0b","ios":"levelo://app?vid=1d909474-2fea-4c10-aecf-a96358606c0b"},"vehicle_type_id":"4","last_reported":1745860147,"current_range_meters":17200,"station_id":"ce4bhap2rcd13ifvqek0","pricing_plan_id":"cebpf4jnsgd1na2vs0mg"},{"bike_id":"9366d0f7-d227-4995-badb-e85de9ed01d7","system_id":"levelo_inurba_marseille","lat":43.31739,"lon":5.37822,"is_reserved":false,"is_disabled":true,"rental_uris":{"android":"levelo://app?vid=9366d0f7-d227-4995-badb-e85de9ed01d7","ios":"levelo://app?vid=9366d0f7-d227-4995-badb-e85de9ed01d7"},"vehicle_type_id":"4","last_reported":1745860147,"current_range_meters":17600,"station_id":"","pricing_plan_id":"cebpf4jnsgd1na2vs0mg"},{"bike_id":"92b2a6c5-7ea3-480f-891b-b3ccb4e45111","system_id":"levelo_inurba_marseille","lat":43.29286,"lon":5.40122,"is_reserved":false,"is_disabled":false,"rental_uris":{"android":"levelo://app?vid=92b2a6c5-7ea3-480f-891b-b3ccb4e45111","ios":"levelo://app?vid=92b2a6c5-7ea3-480f-891b-b3ccb4e45111"},"vehicle_type_id":"4","last_reported":1745860147,"current_range_meters":17600,"station_id":"ce4bh312rcd13ifvqdk0","pricing_plan_id":"cebpf4jnsgd1na2vs0mg"},{"bike_id":"c5c0c5c4-65fd-4102-ad3f-e2a33d3773cb","system_id":"levelo_inurba_marseille","lat":43.28726,"lon":5.36089,"is_reserved":false,"is_disabled":false,"rental_uris":{"android":"levelo://app?vid=c5c0c5c4-65fd-4102-ad3f-e2a33d3773cb","ios":"levelo://app?vid=c5c0c5c4-65fd-4102-ad3f-e2a33d3773cb"},"vehicle_type_id":"4","last_reported":1745860147,"current_range_meters":17600,"station_id":"cki0cbj6b192h4jlfktg","pricing_plan_id":"cebpf4jnsgd1na2vs0mg"},{"bike_id":"5c4780c3-9aca-4df8-8839-e3d167188ee6","system_id":"levelo_inurba_marseille","lat":43.260629,"lon":5.394005,"is_reserved":false,"is_disabled":false,"rental_uris":{"android":"levelo://app?vid=5c4780c3-9aca-4df8-8839-e3d167188ee6","ios":"levelo://app?vid=5c4780c3-9aca-4df8-8839-e3d167188ee6"},"vehicle_type_id":"4","last_reported":1745860147,"current_range_meters":17600,"station_id":"ce4bhh92rcd13ifvqfj0","pricing_plan_id":"cebpf4jnsgd1na2vs0mg"},{"bike_id":"1c48e504-53d9-49d2-b619-5af5daecec32","system_id":"levelo_inurba_marseille","lat":43.29269,"lon":5.37629,"is_reserved":false,"is_disabled":false,"rental_uris":{"android":"levelo://app?vid=1c48e504-53d9-49d2-b619-5af5daecec32","ios":"levelo://app?vid=1c48e504-53d9-49d2-b619-5af5daecec32"},"vehicle_type_id":"4","last_reported":1745860147,"current_range_meters":17600,"station_id":"ce4bgi12rcd13ifvqb80","pricing_plan_id":"cebpf4jnsgd1na2vs0mg"},{"bike_id":"70fbc956-14ce-4f94-8c06-1dcde704840a","system_id":"levelo_inurba_marseille","lat":43.27663,"lon":5.38897,"is_reserved":false,"is_disabled":true,"rental_uris":{"android":"levelo://app?vid=70fbc956-14ce-4f94-8c06-1dcde704840a","ios":"levelo://app?vid=70fbc956-14ce-4f94-8c06-1dcde704840a"},"vehicle_type_id":"4","last_reported":1745860147,"current_range_meters":18000,"station_id":"ce4bhi12rcd13ifvqfo0","pricing_plan_id":"cebpf4jnsgd1na2vs0mg"},{"bike_id":"58976de5-ab94-4299-a226-41ddc422f062","system_id":"levelo_inurba_marseille","lat":43.23196,"lon":5.35547,"is_reserved":false,"is_disabled":false,"rental_uris":{"android":"levelo://app?vid=58976de5-ab94-4299-a226-41ddc422f062","ios":"levelo://app?vid=58976de5-ab94-4299-a226-41ddc422f062"},"vehicle_type_id":"4","last_reported":1745860147,"current_range_meters":18000,"station_id":"ce4bhu92rcd13ifvqi70","pricing_plan_id":"cebpf4jnsgd1na2vs0mg"},{"bike_id":"909c9310-beb4-461b-af6b-bc33acf90ec9","system_id":"levelo_inurba_marseille","lat":43.21752,"lon":5.34602,"is_reserved":false,"is_disabled":false,"rental_uris":{"android":"levelo://app?vid=909c9310-beb4-461b-af6b-bc33acf90ec9","ios":"levelo://app?vid=909c9310-beb4-461b-af6b-bc33acf90ec9"},"vehicle_type_id":"4","last_reported":1745860147,"current_range_meters":18000,"station_id":"st_cvj6r9ubvosntc0bgbag","pricing_plan_id":"cebpf4jnsgd1na2vs0mg"},{"bike_id":"9a21b2d7-7d71-40d7-bd9f-5a6f544a421b","system_id":"levelo_inurba_marseille","lat":43.28702,"lon":5.39999,"is_reserved":false,"is_disabled":false,"rental_uris":{"android":"levelo://app?vid=9a21b2d7-7d71-40d7-bd9f-5a6f544a421b","ios":"levelo://app?vid=9a21b2d7-7d71-40d7-bd9f-5a6f544a421b"},"vehicle_type_id":"4","last_reported":1745860147,"current_range_meters":17600,"station_id":"ce4bho92rcd13ifvqh3g","pricing_plan_id":"cebpf4jnsgd1na2vs0mg"},{"bike_id":"99e81513-546f-4341-9cac-739e9d92bb5c","system_id":"levelo_inurba_marseille","lat":43.24539,"lon":5.39518,"is_reserved":false,"is_disabled":false,"rental_uris":{"android":"levelo://app?vid=99e81513-546f-4341-9cac-739e9d92bb5c","ios":"levelo://app?vid=99e81513-546f-4341-9cac-739e9d92bb5c"},"vehicle_type_id":"4","last_reported":1745860147,"current_range_meters":18000,"station_id":"ce4bhlp2rcd13ifvqgjg","pricing_plan_id":"cebpf4jnsgd1na2vs0mg"},{"bike_id":"7a606858-c276-4eeb-b2b1-6db27b5668c7","system_id":"levelo_inurba_marseille","lat":43.292596,"lon":5.376182,"is_reserved":false,"is_disabled":false,"rental_uris":{"android":"levelo://app?vid=7a606858-c276-4eeb-b2b1-6db27b5668c7","ios":"levelo://app?vid=7a606858-c276-4eeb-b2b1-6db27b5668c7"},"vehicle_type_id":"4","last_reported":1745860147,"current_range_meters":18800,"station_id":"ce4bgi12rcd13ifvqb80","pricing_plan_id":"cebpf4jnsgd1na2vs0mg"},{"bike_id":"90921b2b-dd23-427f-9d6a-f7220dd8a183","system_id":"levelo_inurba_marseille","lat":43.30195,"lon":5.36632,"is_reserved":false,"is_disabled":false,"rental_uris":{"android":"levelo://app?vid=90921b2b-dd23-427f-9d6a-f7220dd8a183","ios":"levelo://app?vid=90921b2b-dd23-427f-9d6a-f7220dd8a183"},"vehicle_type_id":"4","last_reported":1745860147,"current_range_meters":18800,"station_id":"ce4bgrh2rcd13ifvqc8g","pricing_plan_id":"cebpf4jnsgd1na2vs0mg"},{"bike_id":"ab566342-f92c-435a-a238-04939b89345b","system_id":"levelo_inurba_marseille","lat":43.2961,"lon":5.38104,"is_reserved":false,"is_disabled":true,"rental_uris":{"android":"levelo://app?vid=ab566342-f92c-435a-a238-04939b89345b","ios":"levelo://app?vid=ab566342-f92c-435a-a238-04939b89345b"},"vehicle_type_id":"4","last_reported":1745860147,"current_range_meters":18800,"station_id":"ce4bgl12rcd13ifvqbo0","pricing_plan_id":"cebpf4jnsgd1na2vs0mg"},{"bike_id":"4f793177-3c41-4f88-96d3-b9a7ceb41fe6","system_id":"levelo_inurba_marseille","lat":43.323726,"lon":5.388694,"is_reserved":false,"is_disabled":false,"rental_uris":{"android":"levelo://app?vid=4f793177-3c41-4f88-96d3-b9a7ceb41fe6","ios":"levelo://app?vid=4f793177-3c41-4f88-96d3-b9a7ceb41fe6"},"vehicle_type_id":"4","last_reported":1745860147,"current_range_meters":18800,"station_id":"ce4bhqp2rcd13ifvqhog","pricing_plan_id":"cebpf4jnsgd1na2vs0mg"},{"bike_id":"06d674ea-9f8d-4dc5-bb2a-61d7d91b4cfa","system_id":"levelo_inurba_marseille","lat":43.31754,"lon":5.39015,"is_reserved":false,"is_disabled":false,"rental_uris":{"android":"levelo://app?vid=06d674ea-9f8d-4dc5-bb2a-61d7d91b4cfa","ios":"levelo://app?vid=06d674ea-9f8d-4dc5-bb2a-61d7d91b4cfa"},"vehicle_type_id":"4","last_reported":1745860147,"current_range_meters":18800,"station_id":"ce4bhqp2rcd13ifvqhng","pricing_plan_id":"cebpf4jnsgd1na2vs0mg"},{"bike_id":"d5bcaa38-e142-4c16-be8f-f84303a7c28a","system_id":"levelo_inurba_marseille","lat":43.28013,"lon":5.41694,"is_reserved":false,"is_disabled":true,"rental_uris":{"android":"levelo://app?vid=d5bcaa38-e142-4c16-be8f-f84303a7c28a","ios":"levelo://app?vid=d5bcaa38-e142-4c16-be8f-f84303a7c28a"},"vehicle_type_id":"4","last_reported":1745860147,"current_range_meters":19200,"station_id":"ce4bho12rcd13ifvqh1g","pricing_plan_id":"cebpf4jnsgd1na2vs0mg"},{"bike_id":"a7301a4f-0b24-4d61-b558-f31190eb44c7","system_id":"levelo_inurba_marseille","lat":43.30899,"lon":5.36846,"is_reserved":false,"is_disabled":false,"rental_uris":{"android":"levelo://app?vid=a7301a4f-0b24-4d61-b558-f31190eb44c7","ios":"levelo://app?vid=a7301a4f-0b24-4d61-b558-f31190eb44c7"},"vehicle_type_id":"4","last_reported":1745860147,"current_range_meters":19200,"station_id":"ce4bgn92rcd13ifvqbvg","pricing_plan_id":"cebpf4jnsgd1na2vs0mg"},{"bike_id":"3044c665-e32b-4bf0-b17a-f34d8d926fd3","system_id":"levelo_inurba_marseille","lat":43.32369,"lon":5.38886,"is_reserved":false,"is_disabled":false,"rental_uris":{"android":"levelo://app?vid=3044c665-e32b-4bf0-b17a-f34d8d926fd3","ios":"levelo://app?vid=3044c665-e32b-4bf0-b17a-f34d8d926fd3"},"vehicle_type_id":"4","last_reported":1745860147,"current_range_meters":19600,"station_id":"ce4bhqp2rcd13ifvqhog","pricing_plan_id":"cebpf4jnsgd1na2vs0mg"},{"bike_id":"fe91386c-5c8b-4e97-8441-1312e6455598","system_id":"levelo_inurba_marseille","lat":43.27355,"lon":5.36209,"is_reserved":false,"is_disabled":false,"rental_uris":{"android":"levelo://app?vid=fe91386c-5c8b-4e97-8441-1312e6455598","ios":"levelo://app?vid=fe91386c-5c8b-4e97-8441-1312e6455598"},"vehicle_type_id":"4","last_reported":1745860147,"current_range_meters":19600,"station_id":"","pricing_plan_id":"cebpf4jnsgd1na2vs0mg"},{"bike_id":"aad24d46-b62b-494a-8249-821cd99617b1","system_id":"levelo_inurba_marseille","lat":43.28616,"lon":5.35109,"is_reserved":false,"is_disabled":false,"rental_uris":{"android":"levelo://app?vid=aad24d46-b62b-494a-8249-821cd99617b1","ios":"levelo://app?vid=aad24d46-b62b-494a-8249-821cd99617b1"},"vehicle_type_id":"4","last_reported":1745860147,"current_range_meters":19600,"station_id":"ce4bhch2rcd13ifvqeug","pricing_plan_id":"cebpf4jnsgd1na2vs0mg"},{"bike_id":"6a1302a2-e2cc-4c86-ba27-d1ab9e6aa4c2","system_id":"levelo_inurba_marseille","lat":43.24388,"lon":5.37058,"is_reserved":false,"is_disabled":false,"rental_uris":{"android":"levelo://app?vid=6a1302a2-e2cc-4c86-ba27-d1ab9e6aa4c2","ios":"levelo://app?vid=6a1302a2-e2cc-4c86-ba27-d1ab9e6aa4c2"},"vehicle_type_id":"4","last_reported":1745860147,"current_range_meters":19600,"station_id":"ce4bhhh2rcd13ifvqfk0","pricing_plan_id":"cebpf4jnsgd1na2vs0mg"},{"bike_id":"fd71f693-60ea-4cb1-a239-735d280684b8","system_id":"levelo_inurba_marseille","lat":43.2872,"lon":5.36099,"is_reserved":false,"is_disabled":false,"rental_uris":{"android":"levelo://app?vid=fd71f693-60ea-4cb1-a239-735d280684b8","ios":"levelo://app?vid=fd71f693-60ea-4cb1-a239-735d280684b8"},"vehicle_type_id":"4","last_reported":1745860147,"current_range_meters":19600,"station_id":"cki0cbj6b192h4jlfktg","pricing_plan_id":"cebpf4jnsgd1na2vs0mg"},{"bike_id":"aa80d290-46df-4912-8734-e2c760571986","system_id":"levelo_inurba_marseille","lat":43.30795,"lon":5.3817,"is_reserved":false,"is_disabled":false,"rental_uris":{"android":"levelo://app?vid=aa80d290-46df-4912-8734-e2c760571986","ios":"levelo://app?vid=aa80d290-46df-4912-8734-e2c760571986"},"vehicle_type_id":"4","last_reported":1745860147,"current_range_meters":16000,"station_id":"ce4bgt12rcd13ifvqce0","pricing_plan_id":"cebpf4jnsgd1na2vs0mg"},{"bike_id":"991af426-9c93-4d4c-bd36-cbc53f7ba46c","system_id":"levelo_inurba_marseille","lat":43.23965,"lon":5.36638,"is_reserved":false,"is_disabled":false,"rental_uris":{"android":"levelo://app?vid=991af426-9c93-4d4c-bd36-cbc53f7ba46c","ios":"levelo://app?vid=991af426-9c93-4d4c-bd36-cbc53f7ba46c"},"vehicle_type_id":"4","last_reported":1745860147,"current_range_meters":20000,"station_id":"ce4bhi12rcd13ifvqfp0","pricing_plan_id":"cebpf4jnsgd1na2vs0mg"},{"bike_id":"06a379a2-0f41-46b2-82b2-ac37387dd6f4","system_id":"levelo_inurba_marseille","lat":43.27978,"lon":5.38731,"is_reserved":false,"is_disabled":false,"rental_uris":{"android":"levelo://app?vid=06a379a2-0f41-46b2-82b2-ac37387dd6f4","ios":"levelo://app?vid=06a379a2-0f41-46b2-82b2-ac37387dd6f4"},"vehicle_type_id":"4","last_reported":1745860147,"current_range_meters":20000,"station_id":"ce4bhg12rcd13ifvqf80","pricing_plan_id":"cebpf4jnsgd1na2vs0mg"},{"bike_id":"ae50c1de-8c80-4ad2-a1d9-2fbb08d50e7b","system_id":"levelo_inurba_marseille","lat":43.2572,"lon":5.41118,"is_reserved":false,"is_disabled":true,"rental_uris":{"android":"levelo://app?vid=ae50c1de-8c80-4ad2-a1d9-2fbb08d50e7b","ios":"levelo://app?vid=ae50c1de-8c80-4ad2-a1d9-2fbb08d50e7b"},"vehicle_type_id":"4","last_reported":1745860147,"current_range_meters":20000,"station_id":"ce4bhkp2rcd13ifvqgd0","pricing_plan_id":"cebpf4jnsgd1na2vs0mg"},{"bike_id":"e7851458-3c96-43cc-8a79-fcc7ab2f221f","system_id":"levelo_inurba_marseille","lat":43.29056,"lon":5.35903,"is_reserved":false,"is_disabled":false,"rental_uris":{"android":"levelo://app?vid=e7851458-3c96-43cc-8a79-fcc7ab2f221f","ios":"levelo://app?vid=e7851458-3c96-43cc-8a79-fcc7ab2f221f"},"vehicle_type_id":"4","last_reported":1745860147,"current_range_meters":20000,"station_id":"ce4bha92rcd13ifvqeg0","pricing_plan_id":"cebpf4jnsgd1na2vs0mg"},{"bike_id":"6028b1e6-7384-438e-b3bf-95af60bd192e","system_id":"levelo_inurba_marseille","lat":43.31522,"lon":5.38043,"is_reserved":false,"is_disabled":false,"rental_uris":{"android":"levelo://app?vid=6028b1e6-7384-438e-b3bf-95af60bd192e","ios":"levelo://app?vid=6028b1e6-7384-438e-b3bf-95af60bd192e"},"vehicle_type_id":"4","last_reported":1745860147,"current_range_meters":20000,"station_id":"ce4bhsp2rcd13ifvqi50","pricing_plan_id":"cebpf4jnsgd1na2vs0mg"},{"bike_id":"9048a988-1cb8-4aa3-ab23-aeb571c1efe3","system_id":"levelo_inurba_marseille","lat":43.24187,"lon":5.364,"is_reserved":false,"is_disabled":false,"rental_uris":{"android":"levelo://app?vid=9048a988-1cb8-4aa3-ab23-aeb571c1efe3","ios":"levelo://app?vid=9048a988-1cb8-4aa3-ab23-aeb571c1efe3"},"vehicle_type_id":"4","last_reported":1745860147,"current_range_meters":20000,"station_id":"cpo36qri1sfpv3e86is0","pricing_plan_id":"cebpf4jnsgd1na2vs0mg"},{"bike_id":"197f8598-21a9-42b9-86a0-da85f522665c","system_id":"levelo_inurba_marseille","lat":43.33027,"lon":5.3904,"is_reserved":false,"is_disabled":false,"rental_uris":{"android":"levelo://app?vid=197f8598-21a9-42b9-86a0-da85f522665c","ios":"levelo://app?vid=197f8598-21a9-42b9-86a0-da85f522665c"},"vehicle_type_id":"4","last_reported":1745860147,"current_range_meters":20000,"station_id":"ce4bhr92rcd13ifvqhrg","pricing_plan_id":"cebpf4jnsgd1na2vs0mg"},{"bike_id":"e673d4fc-7258-4462-a525-3724c54acb5e","system_id":"levelo_inurba_marseille","lat":43.29618,"lon":5.37158,"is_reserved":false,"is_disabled":false,"rental_uris":{"android":"levelo://app?vid=e673d4fc-7258-4462-a525-3724c54acb5e","ios":"levelo://app?vid=e673d4fc-7258-4462-a525-3724c54acb5e"},"vehicle_type_id":"4","last_reported":1745860147,"current_range_meters":20400,"station_id":"","pricing_plan_id":"cebpf4jnsgd1na2vs0mg"},{"bike_id":"6759e3ca-fb81-4a5b-9c71-90493d107742","system_id":"levelo_inurba_marseille","lat":43.2781,"lon":5.40712,"is_reserved":false,"is_disabled":false,"rental_uris":{"android":"levelo://app?vid=6759e3ca-fb81-4a5b-9c71-90493d107742","ios":"levelo://app?vid=6759e3ca-fb81-4a5b-9c71-90493d107742"},"vehicle_type_id":"4","last_reported":1745860147,"current_range_meters":20400,"station_id":"ce4bhnh2rcd13ifvqgtg","pricing_plan_id":"cebpf4jnsgd1na2vs0mg"},{"bike_id":"50b5da2f-3a79-425d-9a03-6248036b4ea9","system_id":"levelo_inurba_marseille","lat":43.25094,"lon":5.39547,"is_reserved":false,"is_disabled":false,"rental_uris":{"android":"levelo://app?vid=50b5da2f-3a79-425d-9a03-6248036b4ea9","ios":"levelo://app?vid=50b5da2f-3a79-425d-9a03-6248036b4ea9"},"vehicle_type_id":"4","last_reported":1745860147,"current_range_meters":20400,"station_id":"ce4bhm12rcd13ifvqgkg","pricing_plan_id":"cebpf4jnsgd1na2vs0mg"},{"bike_id":"f89cf731-4867-4467-8f20-4836080894cf","system_id":"levelo_inurba_marseille","lat":43.29782,"lon":5.39348,"is_reserved":false,"is_disabled":false,"rental_uris":{"android":"levelo://app?vid=f89cf731-4867-4467-8f20-4836080894cf","ios":"levelo://app?vid=f89cf731-4867-4467-8f20-4836080894cf"},"vehicle_type_id":"4","last_reported":1745860147,"current_range_meters":20000,"station_id":"chh1huq6cuj3fo74tm60","pricing_plan_id":"cebpf4jnsgd1na2vs0mg"},{"bike_id":"dcddca21-b8a6-4df5-b8bf-65a9f2d65ed8","system_id":"levelo_inurba_marseille","lat":43.30549,"lon":5.36557,"is_reserved":false,"is_disabled":false,"rental_uris":{"android":"levelo://app?vid=dcddca21-b8a6-4df5-b8bf-65a9f2d65ed8","ios":"levelo://app?vid=dcddca21-b8a6-4df5-b8bf-65a9f2d65ed8"},"vehicle_type_id":"4","last_reported":1745860147,"current_range_meters":20000,"station_id":"ce4bgs12rcd13ifvqcag","pricing_plan_id":"cebpf4jnsgd1na2vs0mg"},{"bike_id":"61144dfe-675f-4e9a-9e34-e211c9859fc4","system_id":"levelo_inurba_marseille","lat":43.25093,"lon":5.39521,"is_reserved":false,"is_disabled":false,"rental_uris":{"android":"levelo://app?vid=61144dfe-675f-4e9a-9e34-e211c9859fc4","ios":"levelo://app?vid=61144dfe-675f-4e9a-9e34-e211c9859fc4"},"vehicle_type_id":"4","last_reported":1745860147,"current_range_meters":20400,"station_id":"ce4bhm12rcd13ifvqgkg","pricing_plan_id":"cebpf4jnsgd1na2vs0mg"},{"bike_id":"54e6c4c7-8c51-4479-b6cb-e04b308078a1","system_id":"levelo_inurba_marseille","lat":43.2558,"lon":5.38232,"is_reserved":false,"is_disabled":false,"rental_uris":{"android":"levelo://app?vid=54e6c4c7-8c51-4479-b6cb-e04b308078a1","ios":"levelo://app?vid=54e6c4c7-8c51-4479-b6cb-e04b308078a1"},"vehicle_type_id":"4","last_reported":1745860147,"current_range_meters":20400,"station_id":"ce4bhih2rcd13ifvqfs0","pricing_plan_id":"cebpf4jnsgd1na2vs0mg"},{"bike_id":"62ea5d5b-ee6f-42b7-9cd0-c945fcac7364","system_id":"levelo_inurba_marseille","lat":43.30814,"lon":5.43573,"is_reserved":false,"is_disabled":false,"rental_uris":{"android":"levelo://app?vid=62ea5d5b-ee6f-42b7-9cd0-c945fcac7364","ios":"levelo://app?vid=62ea5d5b-ee6f-42b7-9cd0-c945fcac7364"},"vehicle_type_id":"4","last_reported":1745860147,"current_range_meters":20800,"station_id":"ce4bhph2rcd13ifvqheg","pricing_plan_id":"cebpf4jnsgd1na2vs0mg"},{"bike_id":"56929845-afff-4651-8b37-25ff4e4a92b0","system_id":"levelo_inurba_marseille","lat":43.29229,"lon":5.3607,"is_reserved":false,"is_disabled":false,"rental_uris":{"android":"levelo://app?vid=56929845-afff-4651-8b37-25ff4e4a92b0","ios":"levelo://app?vid=56929845-afff-4651-8b37-25ff4e4a92b0"},"vehicle_type_id":"4","last_reported":1745860147,"current_range_meters":20800,"station_id":"ce4bhbh2rcd13ifvqeqg","pricing_plan_id":"cebpf4jnsgd1na2vs0mg"},{"bike_id":"d88a5578-60c9-4501-9093-494af8f0dcdc","system_id":"levelo_inurba_marseille","lat":43.26961,"lon":5.38643,"is_reserved":false,"is_disabled":false,"rental_uris":{"android":"levelo://app?vid=d88a5578-60c9-4501-9093-494af8f0dcdc","ios":"levelo://app?vid=d88a5578-60c9-4501-9093-494af8f0dcdc"},"vehicle_type_id":"4","last_reported":1745860147,"current_range_meters":21600,"station_id":"ce4bhh92rcd13ifvqfh0","pricing_plan_id":"cebpf4jnsgd1na2vs0mg"},{"bike_id":"c1891e5b-3b8b-42b6-a9e6-d8a0a74e266a","system_id":"levelo_inurba_marseille","lat":43.27998,"lon":5.40014,"is_reserved":false,"is_disabled":false,"rental_uris":{"android":"levelo://app?vid=c1891e5b-3b8b-42b6-a9e6-d8a0a74e266a","ios":"levelo://app?vid=c1891e5b-3b8b-42b6-a9e6-d8a0a74e266a"},"vehicle_type_id":"4","last_reported":1745860147,"current_range_meters":20800,"station_id":"ce4bho92rcd13ifvqh4g","pricing_plan_id":"cebpf4jnsgd1na2vs0mg"},{"bike_id":"6765326b-99c6-44d4-95a4-91c65c22e563","system_id":"levelo_inurba_marseille","lat":43.286155,"lon":5.370679,"is_reserved":false,"is_disabled":false,"rental_uris":{"android":"levelo://app?vid=6765326b-99c6-44d4-95a4-91c65c22e563","ios":"levelo://app?vid=6765326b-99c6-44d4-95a4-91c65c22e563"},"vehicle_type_id":"4","last_reported":1745860147,"current_range_meters":20800,"station_id":"ce4bht12rcd13ifvqi60","pricing_plan_id":"cebpf4jnsgd1na2vs0mg"},{"bike_id":"27d217d1-21dd-47a6-9ad9-cef0d486a64d","system_id":"levelo_inurba_marseille","lat":43.29884,"lon":5.389,"is_reserved":false,"is_disabled":false,"rental_uris":{"android":"levelo://app?vid=27d217d1-21dd-47a6-9ad9-cef0d486a64d","ios":"levelo://app?vid=27d217d1-21dd-47a6-9ad9-cef0d486a64d"},"vehicle_type_id":"4","last_reported":1745860147,"current_range_meters":20800,"station_id":"ce4bh392rcd13ifvqdl0","pricing_plan_id":"cebpf4jnsgd1na2vs0mg"},{"bike_id":"2bb48cf4-af83-4834-9713-60647acfed20","system_id":"levelo_inurba_marseille","lat":43.28427,"lon":5.37526,"is_reserved":false,"is_disabled":false,"rental_uris":{"android":"levelo://app?vid=2bb48cf4-af83-4834-9713-60647acfed20","ios":"levelo://app?vid=2bb48cf4-af83-4834-9713-60647acfed20"},"vehicle_type_id":"4","last_reported":1745860147,"current_range_meters":20400,"station_id":"ce4bh412rcd13ifvqds0","pricing_plan_id":"cebpf4jnsgd1na2vs0mg"},{"bike_id":"cff2a6ea-6f01-4bc4-a3f4-0292d40df32c","system_id":"levelo_inurba_marseille","lat":43.31163,"lon":5.38727,"is_reserved":false,"is_disabled":false,"rental_uris":{"android":"levelo://app?vid=cff2a6ea-6f01-4bc4-a3f4-0292d40df32c","ios":"levelo://app?vid=cff2a6ea-6f01-4bc4-a3f4-0292d40df32c"},"vehicle_type_id":"4","last_reported":1745860147,"current_range_meters":20800,"station_id":"ce4bgv12rcd13ifvqcp0","pricing_plan_id":"cebpf4jnsgd1na2vs0mg"},{"bike_id":"fe3a8976-898b-4c21-84e1-668ae2a9d434","system_id":"levelo_inurba_marseille","lat":43.25494,"lon":5.37671,"is_reserved":false,"is_disabled":false,"rental_uris":{"android":"levelo://app?vid=fe3a8976-898b-4c21-84e1-668ae2a9d434","ios":"levelo://app?vid=fe3a8976-898b-4c21-84e1-668ae2a9d434"},"vehicle_type_id":"4","last_reported":1745860147,"current_range_meters":21600,"station_id":"ce4bhh12rcd13ifvqff0","pricing_plan_id":"cebpf4jnsgd1na2vs0mg"},{"bike_id":"3ea922b3-990b-48c6-8eef-81931d0c21ee","system_id":"levelo_inurba_marseille","lat":43.32693,"lon":5.39267,"is_reserved":false,"is_disabled":false,"rental_uris":{"android":"levelo://app?vid=3ea922b3-990b-48c6-8eef-81931d0c21ee","ios":"levelo://app?vid=3ea922b3-990b-48c6-8eef-81931d0c21ee"},