{"last_updated":1784475890,"ttl":60,"version":"2.2","data":{"bikes":[{"bike_id":"ba0c28b1-8732-48e2-8079-f25b2b3fbc3c","system_id":"levelo_inurba_marseille","lat":43.337444,"lon":5.374475,"is_reserved":false,"is_disabled":false,"rental_uris":{"android":"levelo://app?vid=ba0c28b1-8732-48e2-8079-f25b2b3fbc3c","ios":"levelo://app?vid=ba0c28b1-8732-48e2-8079-f25b2b3fbc3c"},"vehicle_type_id":"4","last_reported":1784475891,"current_range_meters":0,"station_id":"","pricing_plan_id":"cebpf4jnsgd1na2vs0mg"},{"bike_id":"b4a0efc4-ed79-47bb-8fc8-25f6cf1a9ba2","system_id":"levelo_inurba_marseille","lat":43.22535,"lon":5.34828,"is_reserved":false,"is_disabled":false,"rental_uris":{"android":"levelo://app?vid=b4a0efc4-ed79-47bb-8fc8-25f6cf1a9ba2","ios":"levelo://app?vid=b4a0efc4-ed79-47bb-8fc8-25f6cf1a9ba2"},"vehicle_type_id":"4","last_reported":1784475891,"current_range_meters":38800,"station_id":"","pricing_plan_id":"cebpf4jnsgd1na2vs0mg"},{"bike_id":"a966e85f-68d2-4c23-8395-3915ebf05c3e","system_id":"levelo_inurba_marseille","lat":43.33527,"lon":5.37466,"is_reserved":false,"is_disabled":false,"rental_uris":{"android":"levelo://app?vid=a966e85f-68d2-4c23-8395-3915ebf05c3e","ios":"levelo://app?vid=a966e85f-68d2-4c23-8395-3915ebf05c3e"},"vehicle_type_id":"4","last_reported":1784475891,"current_range_meters":11200,"station_id":"st_d46tts09ee8s73dlu43g","pricing_plan_id":"cebpf4jnsgd1na2vs0mg"},{"bike_id":"63dc20ac-90f4-4eae-ac6c-d24ae13a7929","system_id":"levelo_inurba_marseille","lat":43.2534,"lon":5.42163,"is_reserved":false,"is_disabled":false,"rental_uris":{"android":"levelo://app?vid=63dc20ac-90f4-4eae-ac6c-d24ae13a7929","ios":"levelo://app?vid=63dc20ac-90f4-4eae-ac6c-d24ae13a7929"},"vehicle_type_id":"4","last_reported":1784475891,"current_range_meters":28400,"station_id":"st_d2m65c5bi1j21697t3ng","pricing_plan_id":"cebpf4jnsgd1na2vs0mg"},{"bike_id":"d25cb175-f6f0-4ca6-af5c-26ddb80c6880","system_id":"levelo_inurba_marseille","lat":43.27383,"lon":5.36255,"is_reserved":false,"is_disabled":false,"rental_uris":{"android":"levelo://app?vid=d25cb175-f6f0-4ca6-af5c-26ddb80c6880","ios":"levelo://app?vid=d25cb175-f6f0-4ca6-af5c-26ddb80c6880"},"vehicle_type_id":"4","last_reported":1784475891,"current_range_meters":18800,"station_id":"ce4bhbh2rcd13ifvqeo0","pricing_plan_id":"cebpf4jnsgd1na2vs0mg"},{"bike_id":"d6e79908-07af-4e65-89c7-eb3efd9355ba","system_id":"levelo_inurba_marseille","lat":43.27692,"lon":5.38906,"is_reserved":false,"is_disabled":false,"rental_uris":{"android":"levelo://app?vid=d6e79908-07af-4e65-89c7-eb3efd9355ba","ios":"levelo://app?vid=d6e79908-07af-4e65-89c7-eb3efd9355ba"},"vehicle_type_id":"4","last_reported":1784475891,"current_range_meters":3200,"station_id":"ce4bhi12rcd13ifvqfo0","pricing_plan_id":"cebpf4jnsgd1na2vs0mg"},{"bike_id":"5a8d9266-f0fd-4ab9-8de4-43bb599823d5","system_id":"levelo_inurba_marseille","lat":43.2623,"lon":5.3875,"is_reserved":false,"is_disabled":false,"rental_uris":{"android":"levelo://app?vid=5a8d9266-f0fd-4ab9-8de4-43bb599823d5","ios":"levelo://app?vid=5a8d9266-f0fd-4ab9-8de4-43bb599823d5"},"vehicle_type_id":"4","last_reported":1784475891,"current_range_meters":23200,"station_id":"st_d8gjfg747rts73coq3b0","pricing_plan_id":"cebpf4jnsgd1na2vs0mg"},{"bike_id":"d82ff212-3daa-4ef7-97b1-31e890a6719e","system_id":"levelo_inurba_marseille","lat":43.24141,"lon":5.36415,"is_reserved":false,"is_disabled":false,"rental_uris":{"android":"levelo://app?vid=d82ff212-3daa-4ef7-97b1-31e890a6719e","ios":"levelo://app?vid=d82ff212-3daa-4ef7-97b1-31e890a6719e"},"vehicle_type_id":"4","last_reported":1784475891,"current_range_meters":29600,"station_id":"cpo36qri1sfpv3e86is0","pricing_plan_id":"cebpf4jnsgd1na2vs0mg"},{"bike_id":"8c6b8b70-9d17-403c-9c4c-f1138f88534b","system_id":"levelo_inurba_marseille","lat":43.29732,"lon":5.3768,"is_reserved":false,"is_disabled":false,"rental_uris":{"android":"levelo://app?vid=8c6b8b70-9d17-403c-9c4c-f1138f88534b","ios":"levelo://app?vid=8c6b8b70-9d17-403c-9c4c-f1138f88534b"},"vehicle_type_id":"4","last_reported":1784475891,"current_range_meters":6400,"station_id":"ce4bgkh2rcd13ifvqbl0","pricing_plan_id":"cebpf4jnsgd1na2vs0mg"},{"bike_id":"f88b334c-27a5-4495-93d8-9a1c5e18cfaa","system_id":"levelo_inurba_marseille","lat":43.25527,"lon":5.37656,"is_reserved":false,"is_disabled":false,"rental_uris":{"android":"levelo://app?vid=f88b334c-27a5-4495-93d8-9a1c5e18cfaa","ios":"levelo://app?vid=f88b334c-27a5-4495-93d8-9a1c5e18cfaa"},"vehicle_type_id":"4","last_reported":1784475891,"current_range_meters":32800,"station_id":"ce4bhh12rcd13ifvqff0","pricing_plan_id":"cebpf4jnsgd1na2vs0mg"},{"bike_id":"14f453ad-1979-4bdf-bd4b-0d763e7231e8","system_id":"levelo_inurba_marseille","lat":43.23335,"lon":5.39859,"is_reserved":false,"is_disabled":true,"rental_uris":{"android":"levelo://app?vid=14f453ad-1979-4bdf-bd4b-0d763e7231e8","ios":"levelo://app?vid=14f453ad-1979-4bdf-bd4b-0d763e7231e8"},"vehicle_type_id":"4","last_reported":1784475891,"current_range_meters":0,"station_id":"","pricing_plan_id":"cebpf4jnsgd1na2vs0mg"},{"bike_id":"9da5cadf-cdd1-429b-9b5e-9173177dfcc4","system_id":"levelo_inurba_marseille","lat":43.24404,"lon":5.3707,"is_reserved":false,"is_disabled":false,"rental_uris":{"android":"levelo://app?vid=9da5cadf-cdd1-429b-9b5e-9173177dfcc4","ios":"levelo://app?vid=9da5cadf-cdd1-429b-9b5e-9173177dfcc4"},"vehicle_type_id":"4","last_reported":1784475891,"current_range_meters":8000,"station_id":"ce4bhhh2rcd13ifvqfk0","pricing_plan_id":"cebpf4jnsgd1na2vs0mg"},{"bike_id":"5695eaf8-f449-43e0-b876-d031a20c32be","system_id":"levelo_inurba_marseille","lat":43.29528,"lon":5.37517,"is_reserved":false,"is_disabled":false,"rental_uris":{"android":"levelo://app?vid=5695eaf8-f449-43e0-b876-d031a20c32be","ios":"levelo://app?vid=5695eaf8-f449-43e0-b876-d031a20c32be"},"vehicle_type_id":"4","last_reported":1784475891,"current_range_meters":39200,"station_id":"ce4bgkp2rcd13ifvqbmg","pricing_plan_id":"cebpf4jnsgd1na2vs0mg"},{"bike_id":"e71494cd-d4a8-436a-a5c6-260a2924500e","system_id":"levelo_inurba_marseille","lat":43.26253,"lon":5.38767,"is_reserved":false,"is_disabled":true,"rental_uris":{"android":"levelo://app?vid=e71494cd-d4a8-436a-a5c6-260a2924500e","ios":"levelo://app?vid=e71494cd-d4a8-436a-a5c6-260a2924500e"},"vehicle_type_id":"4","last_reported":1784475891,"current_range_meters":24800,"station_id":"st_d8gjfg747rts73coq3b0","pricing_plan_id":"cebpf4jnsgd1na2vs0mg"},{"bike_id":"661a48b2-2a3b-4341-ba7f-18771415c6d8","system_id":"levelo_inurba_marseille","lat":43.27068,"lon":5.38296,"is_reserved":false,"is_disabled":false,"rental_uris":{"android":"levelo://app?vid=661a48b2-2a3b-4341-ba7f-18771415c6d8","ios":"levelo://app?vid=661a48b2-2a3b-4341-ba7f-18771415c6d8"},"vehicle_type_id":"4","last_reported":1784475891,"current_range_meters":39200,"station_id":"st_d3n2fo6cfp8s73cte1j0","pricing_plan_id":"cebpf4jnsgd1na2vs0mg"},{"bike_id":"80ef3a4a-1855-4d8a-9848-be3a53762315","system_id":"levelo_inurba_marseille","lat":43.31538,"lon":5.38029,"is_reserved":false,"is_disabled":false,"rental_uris":{"android":"levelo://app?vid=80ef3a4a-1855-4d8a-9848-be3a53762315","ios":"levelo://app?vid=80ef3a4a-1855-4d8a-9848-be3a53762315"},"vehicle_type_id":"4","last_reported":1784475891,"current_range_meters":26000,"station_id":"ce4bhsp2rcd13ifvqi50","pricing_plan_id":"cebpf4jnsgd1na2vs0mg"},{"bike_id":"bedff844-9130-492b-a7c3-37d670bbb559","system_id":"levelo_inurba_marseille","lat":43.32358,"lon":5.3673,"is_reserved":false,"is_disabled":false,"rental_uris":{"android":"levelo://app?vid=bedff844-9130-492b-a7c3-37d670bbb559","ios":"levelo://app?vid=bedff844-9130-492b-a7c3-37d670bbb559"},"vehicle_type_id":"4","last_reported":1784475891,"current_range_meters":38800,"station_id":"ce4bhsh2rcd13ifvqi2g","pricing_plan_id":"cebpf4jnsgd1na2vs0mg"},{"bike_id":"71d76cfb-9f7d-4301-bb45-b0e6adabc94d","system_id":"levelo_inurba_marseille","lat":43.24361,"lon":5.3708,"is_reserved":false,"is_disabled":false,"rental_uris":{"android":"levelo://app?vid=71d76cfb-9f7d-4301-bb45-b0e6adabc94d","ios":"levelo://app?vid=71d76cfb-9f7d-4301-bb45-b0e6adabc94d"},"vehicle_type_id":"4","last_reported":1784475891,"current_range_meters":39200,"station_id":"ce4bhhh2rcd13ifvqfk0","pricing_plan_id":"cebpf4jnsgd1na2vs0mg"},{"bike_id":"9ce1c7ee-e3ec-4f19-9fd3-cbc8c6325b36","system_id":"levelo_inurba_marseille","lat":43.27555,"lon":5.38426,"is_reserved":false,"is_disabled":false,"rental_uris":{"android":"levelo://app?vid=9ce1c7ee-e3ec-4f19-9fd3-cbc8c6325b36","ios":"levelo://app?vid=9ce1c7ee-e3ec-4f19-9fd3-cbc8c6325b36"},"vehicle_type_id":"4","last_reported":1784475891,"current_range_meters":9600,"station_id":"ce4bhh92rcd13ifvqfi0","pricing_plan_id":"cebpf4jnsgd1na2vs0mg"},{"bike_id":"782b1af0-c1a6-4cbf-a06c-7d7141b4ffdc","system_id":"levelo_inurba_marseille","lat":43.23154,"lon":5.43717,"is_reserved":false,"is_disabled":false,"rental_uris":{"android":"levelo://app?vid=782b1af0-c1a6-4cbf-a06c-7d7141b4ffdc","ios":"levelo://app?vid=782b1af0-c1a6-4cbf-a06c-7d7141b4ffdc"},"vehicle_type_id":"4","last_reported":1784475891,"current_range_meters":30400,"station_id":"ce4bhmp2rcd13ifvqgog","pricing_plan_id":"cebpf4jnsgd1na2vs0mg"},{"bike_id":"4a2b6d62-8189-440a-9a99-ef8458bda7c9","system_id":"levelo_inurba_marseille","lat":43.30423,"lon":5.4128,"is_reserved":false,"is_disabled":false,"rental_uris":{"android":"levelo://app?vid=4a2b6d62-8189-440a-9a99-ef8458bda7c9","ios":"levelo://app?vid=4a2b6d62-8189-440a-9a99-ef8458bda7c9"},"vehicle_type_id":"4","last_reported":1784475891,"current_range_meters":39200,"station_id":"ce4bhop2rcd13ifvqh8g","pricing_plan_id":"cebpf4jnsgd1na2vs0mg"},{"bike_id":"32ed2206-662d-4dc8-8aec-718d76ff8fe4","system_id":"levelo_inurba_marseille","lat":43.28002,"lon":5.4167,"is_reserved":false,"is_disabled":false,"rental_uris":{"android":"levelo://app?vid=32ed2206-662d-4dc8-8aec-718d76ff8fe4","ios":"levelo://app?vid=32ed2206-662d-4dc8-8aec-718d76ff8fe4"},"vehicle_type_id":"4","last_reported":1784475891,"current_range_meters":36400,"station_id":"ce4bho12rcd13ifvqh1g","pricing_plan_id":"cebpf4jnsgd1na2vs0mg"},{"bike_id":"0ecdb674-3c3c-46be-9a7b-0387e7579f88","system_id":"levelo_inurba_marseille","lat":43.24481,"lon":5.42528,"is_reserved":false,"is_disabled":false,"rental_uris":{"android":"levelo://app?vid=0ecdb674-3c3c-46be-9a7b-0387e7579f88","ios":"levelo://app?vid=0ecdb674-3c3c-46be-9a7b-0387e7579f88"},"vehicle_type_id":"4","last_reported":1784475891,"current_range_meters":28400,"station_id":"st_d4a3vfp97mjs738cd8kg","pricing_plan_id":"cebpf4jnsgd1na2vs0mg"},{"bike_id":"129ac767-2638-4c48-b9ca-8da71d89525b","system_id":"levelo_inurba_marseille","lat":43.2389,"lon":5.37468,"is_reserved":false,"is_disabled":false,"rental_uris":{"android":"levelo://app?vid=129ac767-2638-4c48-b9ca-8da71d89525b","ios":"levelo://app?vid=129ac767-2638-4c48-b9ca-8da71d89525b"},"vehicle_type_id":"4","last_reported":1784475891,"current_range_meters":28000,"station_id":"st_d6sm7csbq4hs73f8fpjg","pricing_plan_id":"cebpf4jnsgd1na2vs0mg"},{"bike_id":"7ba6887d-b423-4472-957a-7da860d5a0bc","system_id":"levelo_inurba_marseille","lat":43.26216,"lon":5.37445,"is_reserved":false,"is_disabled":false,"rental_uris":{"android":"levelo://app?vid=7ba6887d-b423-4472-957a-7da860d5a0bc","ios":"levelo://app?vid=7ba6887d-b423-4472-957a-7da860d5a0bc"},"vehicle_type_id":"4","last_reported":1784475891,"current_range_meters":14000,"station_id":"ce4bhgp2rcd13ifvqfc0","pricing_plan_id":"cebpf4jnsgd1na2vs0mg"},{"bike_id":"556ade05-89c6-4fc2-841a-19a971ed6829","system_id":"levelo_inurba_marseille","lat":43.29183,"lon":5.35792,"is_reserved":false,"is_disabled":false,"rental_uris":{"android":"levelo://app?vid=556ade05-89c6-4fc2-841a-19a971ed6829","ios":"levelo://app?vid=556ade05-89c6-4fc2-841a-19a971ed6829"},"vehicle_type_id":"4","last_reported":1784475891,"current_range_meters":39200,"station_id":"ce4bhb12rcd13ifvqel0","pricing_plan_id":"cebpf4jnsgd1na2vs0mg"},{"bike_id":"79770dbe-b7ee-4862-83a0-f50349fdc104","system_id":"levelo_inurba_marseille","lat":43.27318,"lon":5.39102,"is_reserved":false,"is_disabled":false,"rental_uris":{"android":"levelo://app?vid=79770dbe-b7ee-4862-83a0-f50349fdc104","ios":"levelo://app?vid=79770dbe-b7ee-4862-83a0-f50349fdc104"},"vehicle_type_id":"4","last_reported":1784475891,"current_range_meters":14400,"station_id":"ce4bhgp2rcd13ifvqfe0","pricing_plan_id":"cebpf4jnsgd1na2vs0mg"},{"bike_id":"7214c24b-3762-46f9-86dc-c0c7d931581c","system_id":"levelo_inurba_marseille","lat":43.29311,"lon":5.3716,"is_reserved":false,"is_disabled":false,"rental_uris":{"android":"levelo://app?vid=7214c24b-3762-46f9-86dc-c0c7d931581c","ios":"levelo://app?vid=7214c24b-3762-46f9-86dc-c0c7d931581c"},"vehicle_type_id":"4","last_reported":1784475891,"current_range_meters":39200,"station_id":"ce4bgh92rcd13ifvqb40","pricing_plan_id":"cebpf4jnsgd1na2vs0mg"},{"bike_id":"cd51f461-b6b3-4a67-8a6c-7f85b9f282bd","system_id":"levelo_inurba_marseille","lat":43.24816,"lon":5.38213,"is_reserved":false,"is_disabled":false,"rental_uris":{"android":"levelo://app?vid=cd51f461-b6b3-4a67-8a6c-7f85b9f282bd","ios":"levelo://app?vid=cd51f461-b6b3-4a67-8a6c-7f85b9f282bd"},"vehicle_type_id":"4","last_reported":1784475891,"current_range_meters":29600,"station_id":"","pricing_plan_id":"cebpf4jnsgd1na2vs0mg"},{"bike_id":"ef6880d0-6944-4f6a-8f40-6662368b8f75","system_id":"levelo_inurba_marseille","lat":43.31731,"lon":5.43704,"is_reserved":false,"is_disabled":false,"rental_uris":{"android":"levelo://app?vid=ef6880d0-6944-4f6a-8f40-6662368b8f75","ios":"levelo://app?vid=ef6880d0-6944-4f6a-8f40-6662368b8f75"},"vehicle_type_id":"4","last_reported":1784475891,"current_range_meters":39200,"station_id":"ce4bhp92rcd13ifvqhcg","pricing_plan_id":"cebpf4jnsgd1na2vs0mg"},{"bike_id":"71765132-00b1-4996-a270-5fde5036e691","system_id":"levelo_inurba_marseille","lat":43.29685,"lon":5.37297,"is_reserved":false,"is_disabled":false,"rental_uris":{"android":"levelo://app?vid=71765132-00b1-4996-a270-5fde5036e691","ios":"levelo://app?vid=71765132-00b1-4996-a270-5fde5036e691"},"vehicle_type_id":"4","last_reported":1784475891,"current_range_meters":38800,"station_id":"ce4bgk12rcd13ifvqbj0","pricing_plan_id":"cebpf4jnsgd1na2vs0mg"},{"bike_id":"7aaec82f-406e-4f46-aa12-4d0042bca2c7","system_id":"levelo_inurba_marseille","lat":43.29965,"lon":5.3713,"is_reserved":false,"is_disabled":false,"rental_uris":{"android":"levelo://app?vid=7aaec82f-406e-4f46-aa12-4d0042bca2c7","ios":"levelo://app?vid=7aaec82f-406e-4f46-aa12-4d0042bca2c7"},"vehicle_type_id":"4","last_reported":1784475891,"current_range_meters":28000,"station_id":"ce4bgr92rcd13ifvqc7g","pricing_plan_id":"cebpf4jnsgd1na2vs0mg"},{"bike_id":"df69553b-5b22-4932-89f4-db3c101a3133","system_id":"levelo_inurba_marseille","lat":43.30405,"lon":5.42469,"is_reserved":false,"is_disabled":true,"rental_uris":{"android":"levelo://app?vid=df69553b-5b22-4932-89f4-db3c101a3133","ios":"levelo://app?vid=df69553b-5b22-4932-89f4-db3c101a3133"},"vehicle_type_id":"4","last_reported":1784475891,"current_range_meters":0,"station_id":"ce4bghh2rcd13ifvqb60","pricing_plan_id":"cebpf4jnsgd1na2vs0mg"},{"bike_id":"69aa3890-8355-4668-9d7c-2b996f0dde78","system_id":"levelo_inurba_marseille","lat":43.29761,"lon":5.42778,"is_reserved":false,"is_disabled":false,"rental_uris":{"android":"levelo://app?vid=69aa3890-8355-4668-9d7c-2b996f0dde78","ios":"levelo://app?vid=69aa3890-8355-4668-9d7c-2b996f0dde78"},"vehicle_type_id":"4","last_reported":1784475891,"current_range_meters":38400,"station_id":"st_d3md5207bmas73dh9klg","pricing_plan_id":"cebpf4jnsgd1na2vs0mg"},{"bike_id":"d183c213-4177-4bf2-b9e0-24872be8a9c8","system_id":"levelo_inurba_marseille","lat":43.28494,"lon":5.48373,"is_reserved":false,"is_disabled":false,"rental_uris":{"android":"levelo://app?vid=d183c213-4177-4bf2-b9e0-24872be8a9c8","ios":"levelo://app?vid=d183c213-4177-4bf2-b9e0-24872be8a9c8"},"vehicle_type_id":"4","last_reported":1784475891,"current_range_meters":13600,"station_id":"st_d3svhcjqgbts73a3dn0g","pricing_plan_id":"cebpf4jnsgd1na2vs0mg"},{"bike_id":"fa843346-823d-46b3-82c0-f8d8ba734eff","system_id":"levelo_inurba_marseille","lat":43.301528,"lon":5.38098,"is_reserved":false,"is_disabled":false,"rental_uris":{"android":"levelo://app?vid=fa843346-823d-46b3-82c0-f8d8ba734eff","ios":"levelo://app?vid=fa843346-823d-46b3-82c0-f8d8ba734eff"},"vehicle_type_id":"4","last_reported":1784475891,"current_range_meters":10800,"station_id":"ce4bgjp2rcd13ifvqbh0","pricing_plan_id":"cebpf4jnsgd1na2vs0mg"},{"bike_id":"f90ed45b-f166-4362-87cb-12768c2dae00","system_id":"levelo_inurba_marseille","lat":43.27605,"lon":5.36118,"is_reserved":false,"is_disabled":false,"rental_uris":{"android":"levelo://app?vid=f90ed45b-f166-4362-87cb-12768c2dae00","ios":"levelo://app?vid=f90ed45b-f166-4362-87cb-12768c2dae00"},"vehicle_type_id":"4","last_reported":1784475891,"current_range_meters":26800,"station_id":"ce4bgj92rcd13ifvqbe0","pricing_plan_id":"cebpf4jnsgd1na2vs0mg"},{"bike_id":"de007cee-b02a-488c-aba4-bbeef406c383","system_id":"levelo_inurba_marseille","lat":43.25504,"lon":5.40117,"is_reserved":false,"is_disabled":false,"rental_uris":{"android":"levelo://app?vid=de007cee-b02a-488c-aba4-bbeef406c383","ios":"levelo://app?vid=de007cee-b02a-488c-aba4-bbeef406c383"},"vehicle_type_id":"4","last_reported":1784475891,"current_range_meters":2800,"station_id":"","pricing_plan_id":"cebpf4jnsgd1na2vs0mg"},{"bike_id":"b7ee5136-5355-40b7-8621-0df5f665299b","system_id":"levelo_inurba_marseille","lat":43.29228,"lon":5.36063,"is_reserved":false,"is_disabled":false,"rental_uris":{"android":"levelo://app?vid=b7ee5136-5355-40b7-8621-0df5f665299b","ios":"levelo://app?vid=b7ee5136-5355-40b7-8621-0df5f665299b"},"vehicle_type_id":"4","last_reported":1784475891,"current_range_meters":37600,"station_id":"","pricing_plan_id":"cebpf4jnsgd1na2vs0mg"},{"bike_id":"5b140ca2-b769-446c-acb6-6062f258100b","system_id":"levelo_inurba_marseille","lat":43.24394,"lon":5.37053,"is_reserved":false,"is_disabled":true,"rental_uris":{"android":"levelo://app?vid=5b140ca2-b769-446c-acb6-6062f258100b","ios":"levelo://app?vid=5b140ca2-b769-446c-acb6-6062f258100b"},"vehicle_type_id":"4","last_reported":1784475891,"current_range_meters":0,"station_id":"ce4bhhh2rcd13ifvqfk0","pricing_plan_id":"cebpf4jnsgd1na2vs0mg"},{"bike_id":"17e4be99-494c-4c9f-8720-fc080f3b6be4","system_id":"levelo_inurba_marseille","lat":43.2985,"lon":5.37578,"is_reserved":false,"is_disabled":false,"rental_uris":{"android":"levelo://app?vid=17e4be99-494c-4c9f-8720-fc080f3b6be4","ios":"levelo://app?vid=17e4be99-494c-4c9f-8720-fc080f3b6be4"},"vehicle_type_id":"4","last_reported":1784475891,"current_range_meters":3600,"station_id":"","pricing_plan_id":"cebpf4jnsgd1na2vs0mg"},{"bike_id":"8ce139e2-6d64-4333-a593-42755be1b299","system_id":"levelo_inurba_marseille","lat":43.28424,"lon":5.3498,"is_reserved":false,"is_disabled":false,"rental_uris":{"android":"levelo://app?vid=8ce139e2-6d64-4333-a593-42755be1b299","ios":"levelo://app?vid=8ce139e2-6d64-4333-a593-42755be1b299"},"vehicle_type_id":"4","last_reported":1784475891,"current_range_meters":28400,"station_id":"ce4bhbh2rcd13ifvqepg","pricing_plan_id":"cebpf4jnsgd1na2vs0mg"},{"bike_id":"f6254e25-8b35-43bb-b15f-8f04815c6d08","system_id":"levelo_inurba_marseille","lat":43.28833,"lon":5.3586,"is_reserved":false,"is_disabled":false,"rental_uris":{"android":"levelo://app?vid=f6254e25-8b35-43bb-b15f-8f04815c6d08","ios":"levelo://app?vid=f6254e25-8b35-43bb-b15f-8f04815c6d08"},"vehicle_type_id":"4","last_reported":1784475891,"current_range_meters":8000,"station_id":"ce4bhb12rcd13ifvqem0","pricing_plan_id":"cebpf4jnsgd1na2vs0mg"},{"bike_id":"19332984-a4af-4893-9a3d-2c03e4769c2a","system_id":"levelo_inurba_marseille","lat":43.28456,"lon":5.35877,"is_reserved":false,"is_disabled":false,"rental_uris":{"android":"levelo://app?vid=19332984-a4af-4893-9a3d-2c03e4769c2a","ios":"levelo://app?vid=19332984-a4af-4893-9a3d-2c03e4769c2a"},"vehicle_type_id":"4","last_reported":1784475891,"current_range_meters":17200,"station_id":"ce4bhah2rcd13ifvqei0","pricing_plan_id":"cebpf4jnsgd1na2vs0mg"},{"bike_id":"20b467ad-1efc-4a7e-960a-59767c00dbe9","system_id":"levelo_inurba_marseille","lat":43.29215,"lon":5.35782,"is_reserved":false,"is_disabled":false,"rental_uris":{"android":"levelo://app?vid=20b467ad-1efc-4a7e-960a-59767c00dbe9","ios":"levelo://app?vid=20b467ad-1efc-4a7e-960a-59767c00dbe9"},"vehicle_type_id":"4","last_reported":1784475891,"current_range_meters":6000,"station_id":"ce4bhb12rcd13ifvqel0","pricing_plan_id":"cebpf4jnsgd1na2vs0mg"},{"bike_id":"92f9377a-62ba-495b-8de9-1750140cdb94","system_id":"levelo_inurba_marseille","lat":43.29635,"lon":5.37152,"is_reserved":false,"is_disabled":true,"rental_uris":{"android":"levelo://app?vid=92f9377a-62ba-495b-8de9-1750140cdb94","ios":"levelo://app?vid=92f9377a-62ba-495b-8de9-1750140cdb94"},"vehicle_type_id":"4","last_reported":1784475891,"current_range_meters":27200,"station_id":"","pricing_plan_id":"cebpf4jnsgd1na2vs0mg"},{"bike_id":"0f837419-d525-47df-b2ab-06c7b7a92041","system_id":"levelo_inurba_marseille","lat":43.30518,"lon":5.36701,"is_reserved":false,"is_disabled":false,"rental_uris":{"android":"levelo://app?vid=0f837419-d525-47df-b2ab-06c7b7a92041","ios":"levelo://app?vid=0f837419-d525-47df-b2ab-06c7b7a92041"},"vehicle_type_id":"4","last_reported":1784475891,"current_range_meters":4000,"station_id":"ce4bgrp2rcd13ifvqc9g","pricing_plan_id":"cebpf4jnsgd1na2vs0mg"},{"bike_id":"7ea1ded3-f995-4c90-b149-2ccadc33248d","system_id":"levelo_inurba_marseille","lat":43.27176,"lon":5.40985,"is_reserved":false,"is_disabled":false,"rental_uris":{"android":"levelo://app?vid=7ea1ded3-f995-4c90-b149-2ccadc33248d","ios":"levelo://app?vid=7ea1ded3-f995-4c90-b149-2ccadc33248d"},"vehicle_type_id":"4","last_reported":1784475891,"current_range_meters":28800,"station_id":"ce4bhl12rcd13ifvqgf0","pricing_plan_id":"cebpf4jnsgd1na2vs0mg"},{"bike_id":"21282677-38e9-4c60-bd4c-732cd4c395e9","system_id":"levelo_inurba_marseille","lat":43.30329,"lon":5.40444,"is_reserved":false,"is_disabled":false,"rental_uris":{"android":"levelo://app?vid=21282677-38e9-4c60-bd4c-732cd4c395e9","ios":"levelo://app?vid=21282677-38e9-4c60-bd4c-732cd4c395e9"},"vehicle_type_id":"4","last_reported":1784475891,"current_range_meters":6000,"station_id":"ce4bh012rcd13ifvqd10","pricing_plan_id":"cebpf4jnsgd1na2vs0mg"},{"bike_id":"c2e7fe27-d2b0-440e-b62d-ead50feed951","system_id":"levelo_inurba_marseille","lat":43.29476,"lon":5.43301,"is_reserved":false,"is_disabled":false,"rental_uris":{"android":"levelo://app?vid=c2e7fe27-d2b0-440e-b62d-ead50feed951","ios":"levelo://app?vid=c2e7fe27-d2b0-440e-b62d-ead50feed951"},"vehicle_type_id":"4","last_reported":1784475891,"current_range_meters":3200,"station_id":"st_d3j5ugp08ojc73fj9d10","pricing_plan_id":"cebpf4jnsgd1na2vs0mg"},{"bike_id":"68487660-d0f8-4357-a041-ea23c3836a53","system_id":"levelo_inurba_marseille","lat":43.26194,"lon":5.37455,"is_reserved":false,"is_disabled":false,"rental_uris":{"android":"levelo://app?vid=68487660-d0f8-4357-a041-ea23c3836a53","ios":"levelo://app?vid=68487660-d0f8-4357-a041-ea23c3836a53"},"vehicle_type_id":"4","last_reported":1784475891,"current_range_meters":36800,"station_id":"ce4bhgp2rcd13ifvqfc0","pricing_plan_id":"cebpf4jnsgd1na2vs0mg"},{"bike_id":"2623e023-e953-40ac-8068-15d2169ca99d","system_id":"levelo_inurba_marseille","lat":43.28704,"lon":5.46682,"is_reserved":false,"is_disabled":false,"rental_uris":{"android":"levelo://app?vid=2623e023-e953-40ac-8068-15d2169ca99d","ios":"levelo://app?vid=2623e023-e953-40ac-8068-15d2169ca99d"},"vehicle_type_id":"4","last_reported":1784475891,"current_range_meters":37600,"station_id":"st_d6tc3vkotcvc738tfjhg","pricing_plan_id":"cebpf4jnsgd1na2vs0mg"},{"bike_id":"1fabaaec-ee49-484e-a010-c578e8dd69a9","system_id":"levelo_inurba_marseille","lat":43.31256,"lon":5.36886,"is_reserved":false,"is_disabled":false,"rental_uris":{"android":"levelo://app?vid=1fabaaec-ee49-484e-a010-c578e8dd69a9","ios":"levelo://app?vid=1fabaaec-ee49-484e-a010-c578e8dd69a9"},"vehicle_type_id":"4","last_reported":1784475891,"current_range_meters":9600,"station_id":"ce4bgl92rcd13ifvqbq0","pricing_plan_id":"cebpf4jnsgd1na2vs0mg"},{"bike_id":"b82b6211-05c8-4ba4-b46a-21ddb7ad321f","system_id":"levelo_inurba_marseille","lat":43.28081,"lon":5.39644,"is_reserved":false,"is_disabled":false,"rental_uris":{"android":"levelo://app?vid=b82b6211-05c8-4ba4-b46a-21ddb7ad321f","ios":"levelo://app?vid=b82b6211-05c8-4ba4-b46a-21ddb7ad321f"},"vehicle_type_id":"4","last_reported":1784475891,"current_range_meters":39200,"station_id":"ce4bho12rcd13ifvqh2g","pricing_plan_id":"cebpf4jnsgd1na2vs0mg"},{"bike_id":"90fd9e21-a9e5-4ba9-ba28-3da8875c3ef6","system_id":"levelo_inurba_marseille","lat":43.27896,"lon":5.35532,"is_reserved":false,"is_disabled":false,"rental_uris":{"android":"levelo://app?vid=90fd9e21-a9e5-4ba9-ba28-3da8875c3ef6","ios":"levelo://app?vid=90fd9e21-a9e5-4ba9-ba28-3da8875c3ef6"},"vehicle_type_id":"4","last_reported":1784475891,"current_range_meters":27600,"station_id":"","pricing_plan_id":"cebpf4jnsgd1na2vs0mg"},{"bike_id":"0596fa10-ae30-4785-bbd0-3b44150b1060","system_id":"levelo_inurba_marseille","lat":43.21754,"lon":5.3459,"is_reserved":false,"is_disabled":false,"rental_uris":{"android":"levelo://app?vid=0596fa10-ae30-4785-bbd0-3b44150b1060","ios":"levelo://app?vid=0596fa10-ae30-4785-bbd0-3b44150b1060"},"vehicle_type_id":"4","last_reported":1784475891,"current_range_meters":14000,"station_id":"st_cvj6r9ubvosntc0bgbag","pricing_plan_id":"cebpf4jnsgd1na2vs0mg"},{"bike_id":"93e07cfb-dd6d-48aa-be54-540c73ee4606","system_id":"levelo_inurba_marseille","lat":43.30535,"lon":5.36708,"is_reserved":false,"is_disabled":false,"rental_uris":{"android":"levelo://app?vid=93e07cfb-dd6d-48aa-be54-540c73ee4606","ios":"levelo://app?vid=93e07cfb-dd6d-48aa-be54-540c73ee4606"},"vehicle_type_id":"4","last_reported":1784475891,"current_range_meters":14800,"station_id":"ce4bgrp2rcd13ifvqc9g","pricing_plan_id":"cebpf4jnsgd1na2vs0mg"},{"bike_id":"1aba4b2e-71a6-4e82-8e9d-0b35db6f35c2","system_id":"levelo_inurba_marseille","lat":43.24179,"lon":5.36382,"is_reserved":false,"is_disabled":false,"rental_uris":{"android":"levelo://app?vid=1aba4b2e-71a6-4e82-8e9d-0b35db6f35c2","ios":"levelo://app?vid=1aba4b2e-71a6-4e82-8e9d-0b35db6f35c2"},"vehicle_type_id":"4","last_reported":1784475891,"current_range_meters":39200,"station_id":"cpo36qri1sfpv3e86is0","pricing_plan_id":"cebpf4jnsgd1na2vs0mg"},{"bike_id":"863d0357-9100-4091-8be6-61d932e4e898","system_id":"levelo_inurba_marseille","lat":43.33756,"lon":5.37458,"is_reserved":false,"is_disabled":false,"rental_uris":{"android":"levelo://app?vid=863d0357-9100-4091-8be6-61d932e4e898","ios":"levelo://app?vid=863d0357-9100-4091-8be6-61d932e4e898"},"vehicle_type_id":"4","last_reported":1784475891,"current_range_meters":35600,"station_id":"","pricing_plan_id":"cebpf4jnsgd1na2vs0mg"},{"bike_id":"0d249168-c1b9-4fc1-a9ca-ee81dcabf286","system_id":"levelo_inurba_marseille","lat":43.30836,"lon":5.40432,"is_reserved":false,"is_disabled":false,"rental_uris":{"android":"levelo://app?vid=0d249168-c1b9-4fc1-a9ca-ee81dcabf286","ios":"levelo://app?vid=0d249168-c1b9-4fc1-a9ca-ee81dcabf286"},"vehicle_type_id":"4","last_reported":1784475891,"current_range_meters":9600,"station_id":"","pricing_plan_id":"cebpf4jnsgd1na2vs0mg"},{"bike_id":"c7fbfc9d-2a3e-4d5e-965d-909ab1f3650c","system_id":"levelo_inurba_marseille","lat":43.2659,"lon":5.3903,"is_reserved":false,"is_disabled":false,"rental_uris":{"android":"levelo://app?vid=c7fbfc9d-2a3e-4d5e-965d-909ab1f3650c","ios":"levelo://app?vid=c7fbfc9d-2a3e-4d5e-965d-909ab1f3650c"},"vehicle_type_id":"4","last_reported":1784475891,"current_range_meters":8000,"station_id":"ce4bhe12rcd13ifvqf30","pricing_plan_id":"cebpf4jnsgd1na2vs0mg"},{"bike_id":"479f6d73-289e-4a64-9a92-081a85c0df32","system_id":"levelo_inurba_marseille","lat":43.25089,"lon":5.40332,"is_reserved":false,"is_disabled":false,"rental_uris":{"android":"levelo://app?vid=479f6d73-289e-4a64-9a92-081a85c0df32","ios":"levelo://app?vid=479f6d73-289e-4a64-9a92-081a85c0df32"},"vehicle_type_id":"4","last_reported":1784475891,"current_range_meters":39200,"station_id":"ce4bhlh2rcd13ifvqgig","pricing_plan_id":"cebpf4jnsgd1na2vs0mg"},{"bike_id":"e81d39c5-de88-4670-b269-6cb2da305080","system_id":"levelo_inurba_marseille","lat":43.28173,"lon":5.4262,"is_reserved":false,"is_disabled":false,"rental_uris":{"android":"levelo://app?vid=e81d39c5-de88-4670-b269-6cb2da305080","ios":"levelo://app?vid=e81d39c5-de88-4670-b269-6cb2da305080"},"vehicle_type_id":"4","last_reported":1784475891,"current_range_meters":38800,"station_id":"ce4bhnh2rcd13ifvqgug","pricing_plan_id":"cebpf4jnsgd1na2vs0mg"},{"bike_id":"e15b712c-8cdd-47f2-8a02-fef2aa639098","system_id":"levelo_inurba_marseille","lat":43.21201,"lon":5.35074,"is_reserved":false,"is_disabled":false,"rental_uris":{"android":"levelo://app?vid=e15b712c-8cdd-47f2-8a02-fef2aa639098","ios":"levelo://app?vid=e15b712c-8cdd-47f2-8a02-fef2aa639098"},"vehicle_type_id":"4","last_reported":1784475891,"current_range_meters":7200,"station_id":"st_cvj6sg6p6f1abm77japg","pricing_plan_id":"cebpf4jnsgd1na2vs0mg"},{"bike_id":"8ba7f2d6-52d3-4c56-b19a-19a142e62779","system_id":"levelo_inurba_marseille","lat":43.24076,"lon":5.37765,"is_reserved":false,"is_disabled":false,"rental_uris":{"android":"levelo://app?vid=8ba7f2d6-52d3-4c56-b19a-19a142e62779","ios":"levelo://app?vid=8ba7f2d6-52d3-4c56-b19a-19a142e62779"},"vehicle_type_id":"4","last_reported":1784475891,"current_range_meters":9600,"station_id":"ce4bhnp2rcd13ifvqgvg","pricing_plan_id":"cebpf4jnsgd1na2vs0mg"},{"bike_id":"ffdafddb-edce-478b-b283-0a15f46a5cac","system_id":"levelo_inurba_marseille","lat":43.25875,"lon":5.39908,"is_reserved":false,"is_disabled":false,"rental_uris":{"android":"levelo://app?vid=ffdafddb-edce-478b-b283-0a15f46a5cac","ios":"levelo://app?vid=ffdafddb-edce-478b-b283-0a15f46a5cac"},"vehicle_type_id":"4","last_reported":1784475891,"current_range_meters":36400,"station_id":"ce4bhl92rcd13ifvqghg","pricing_plan_id":"cebpf4jnsgd1na2vs0mg"},{"bike_id":"89cff262-c5e9-4593-893a-092328a93f9f","system_id":"levelo_inurba_marseille","lat":43.29476,"lon":5.39806,"is_reserved":false,"is_disabled":false,"rental_uris":{"android":"levelo://app?vid=89cff262-c5e9-4593-893a-092328a93f9f","ios":"levelo://app?vid=89cff262-c5e9-4593-893a-092328a93f9f"},"vehicle_type_id":"4","last_reported":1784475891,"current_range_meters":20400,"station_id":"","pricing_plan_id":"cebpf4jnsgd1na2vs0mg"},{"bike_id":"6a73d93c-6339-46f5-8ebc-d03b3464630c","system_id":"levelo_inurba_marseille","lat":43.26376,"lon":5.41069,"is_reserved":false,"is_disabled":false,"rental_uris":{"android":"levelo://app?vid=6a73d93c-6339-46f5-8ebc-d03b3464630c","ios":"levelo://app?vid=6a73d93c-6339-46f5-8ebc-d03b3464630c"},"vehicle_type_id":"4","last_reported":1784475891,"current_range_meters":32000,"station_id":"st_d4e5ca6na9uc73bfl5fg","pricing_plan_id":"cebpf4jnsgd1na2vs0mg"},{"bike_id":"edc8c877-03ca-4d22-a963-8aec0501358e","system_id":"levelo_inurba_marseille","lat":43.21739,"lon":5.34607,"is_reserved":false,"is_disabled":false,"rental_uris":{"android":"levelo://app?vid=edc8c877-03ca-4d22-a963-8aec0501358e","ios":"levelo://app?vid=edc8c877-03ca-4d22-a963-8aec0501358e"},"vehicle_type_id":"4","last_reported":1784475891,"current_range_meters":39200,"station_id":"st_cvj6r9ubvosntc0bgbag","pricing_plan_id":"cebpf4jnsgd1na2vs0mg"},{"bike_id":"f68023ce-5f61-45e8-beb8-d3b87ec1a04a","system_id":"levelo_inurba_marseille","lat":43.279995,"lon":5.40013,"is_reserved":false,"is_disabled":true,"rental_uris":{"android":"levelo://app?vid=f68023ce-5f61-45e8-beb8-d3b87ec1a04a","ios":"levelo://app?vid=f68023ce-5f61-45e8-beb8-d3b87ec1a04a"},"vehicle_type_id":"4","last_reported":1784475891,"current_range_meters":34000,"station_id":"ce4bho92rcd13ifvqh4g","pricing_plan_id":"cebpf4jnsgd1na2vs0mg"},{"bike_id":"505c470b-ac37-49d3-b636-d6566f7a1192","system_id":"levelo_inurba_marseille","lat":43.24829,"lon":5.37434,"is_reserved":false,"is_disabled":false,"rental_uris":{"android":"levelo://app?vid=505c470b-ac37-49d3-b636-d6566f7a1192","ios":"levelo://app?vid=505c470b-ac37-49d3-b636-d6566f7a1192"},"vehicle_type_id":"4","last_reported":1784475891,"current_range_meters":28000,"station_id":"ce4bhgh2rcd13ifvqfb0","pricing_plan_id":"cebpf4jnsgd1na2vs0mg"},{"bike_id":"cefbabb6-7320-4e76-8a82-572c441ce5d6","system_id":"levelo_inurba_marseille","lat":43.29039,"lon":5.35603,"is_reserved":false,"is_disabled":false,"rental_uris":{"android":"levelo://app?vid=cefbabb6-7320-4e76-8a82-572c441ce5d6","ios":"levelo://app?vid=cefbabb6-7320-4e76-8a82-572c441ce5d6"},"vehicle_type_id":"4","last_reported":1784475891,"current_range_meters":36400,"station_id":"ce4bhb92rcd13ifvqen0","pricing_plan_id":"cebpf4jnsgd1na2vs0mg"},{"bike_id":"d6322bbe-6ca2-4eed-be07-802fddab4362","system_id":"levelo_inurba_marseille","lat":43.26502,"lon":5.39539,"is_reserved":false,"is_disabled":false,"rental_uris":{"android":"levelo://app?vid=d6322bbe-6ca2-4eed-be07-802fddab4362","ios":"levelo://app?vid=d6322bbe-6ca2-4eed-be07-802fddab4362"},"vehicle_type_id":"4","last_reported":1784475891,"current_range_meters":19200,"station_id":"ce4bhi12rcd13ifvqfq0","pricing_plan_id":"cebpf4jnsgd1na2vs0mg"},{"bike_id":"4120c7d7-1403-4d50-96ed-9b7731a97efc","system_id":"levelo_inurba_marseille","lat":43.32127,"lon":5.3674,"is_reserved":false,"is_disabled":false,"rental_uris":{"android":"levelo://app?vid=4120c7d7-1403-4d50-96ed-9b7731a97efc","ios":"levelo://app?vid=4120c7d7-1403-4d50-96ed-9b7731a97efc"},"vehicle_type_id":"4","last_reported":1784475891,"current_range_meters":24400,"station_id":"ce4bhrh2rcd13ifvqhug","pricing_plan_id":"cebpf4jnsgd1na2vs0mg"},{"bike_id":"369bc3f2-b577-4850-95a4-0a56227bff1c","system_id":"levelo_inurba_marseille","lat":43.3013,"lon":5.39888,"is_reserved":false,"is_disabled":false,"rental_uris":{"android":"levelo://app?vid=369bc3f2-b577-4850-95a4-0a56227bff1c","ios":"levelo://app?vid=369bc3f2-b577-4850-95a4-0a56227bff1c"},"vehicle_type_id":"4","last_reported":1784475891,"current_range_meters":37600,"station_id":"ce4bh0h2rcd13ifvqd40","pricing_plan_id":"cebpf4jnsgd1na2vs0mg"},{"bike_id":"7e62a1e7-e43e-4c6d-97fe-eb42228edf6d","system_id":"levelo_inurba_marseille","lat":43.26545,"lon":5.39398,"is_reserved":false,"is_disabled":false,"rental_uris":{"android":"levelo://app?vid=7e62a1e7-e43e-4c6d-97fe-eb42228edf6d","ios":"levelo://app?vid=7e62a1e7-e43e-4c6d-97fe-eb42228edf6d"},"vehicle_type_id":"4","last_reported":1784475891,"current_range_meters":7200,"station_id":"","pricing_plan_id":"cebpf4jnsgd1na2vs0mg"},{"bike_id":"31ef6a57-05ef-4688-8920-f286741f542f","system_id":"levelo_inurba_marseille","lat":43.23972,"lon":5.36629,"is_reserved":false,"is_disabled":false,"rental_uris":{"android":"levelo://app?vid=31ef6a57-05ef-4688-8920-f286741f542f","ios":"levelo://app?vid=31ef6a57-05ef-4688-8920-f286741f542f"},"vehicle_type_id":"4","last_reported":1784475891,"current_range_meters":36000,"station_id":"ce4bhi12rcd13ifvqfp0","pricing_plan_id":"cebpf4jnsgd1na2vs0mg"},{"bike_id":"32f1426e-4a2e-46e1-8b91-800ee9257883","system_id":"levelo_inurba_marseille","lat":43.26378,"lon":5.41058,"is_reserved":false,"is_disabled":false,"rental_uris":{"android":"levelo://app?vid=32f1426e-4a2e-46e1-8b91-800ee9257883","ios":"levelo://app?vid=32f1426e-4a2e-46e1-8b91-800ee9257883"},"vehicle_type_id":"4","last_reported":1784475891,"current_range_meters":30800,"station_id":"st_d4e5ca6na9uc73bfl5fg","pricing_plan_id":"cebpf4jnsgd1na2vs0mg"},{"bike_id":"7f598db7-7bdf-43ca-940a-3e1072b1241f","system_id":"levelo_inurba_marseille","lat":43.29215,"lon":5.36068,"is_reserved":false,"is_disabled":false,"rental_uris":{"android":"levelo://app?vid=7f598db7-7bdf-43ca-940a-3e1072b1241f","ios":"levelo://app?vid=7f598db7-7bdf-43ca-940a-3e1072b1241f"},"vehicle_type_id":"4","last_reported":1784475891,"current_range_meters":30000,"station_id":"","pricing_plan_id":"cebpf4jnsgd1na2vs0mg"},{"bike_id":"48b89ee5-e923-4e38-99f5-a3099d9d1497","system_id":"levelo_inurba_marseille","lat":43.28548,"lon":5.44099,"is_reserved":false,"is_disabled":false,"rental_uris":{"android":"levelo://app?vid=48b89ee5-e923-4e38-99f5-a3099d9d1497","ios":"levelo://app?vid=48b89ee5-e923-4e38-99f5-a3099d9d1497"},"vehicle_type_id":"4","last_reported":1784475891,"current_range_meters":3600,"station_id":"st_d3j3df2ikq2c7380ej80","pricing_plan_id":"cebpf4jnsgd1na2vs0mg"},{"bike_id":"3e516dae-3bc6-43cf-be8e-7513eb0189e1","system_id":"levelo_inurba_marseille","lat":43.25498,"lon":5.3765,"is_reserved":false,"is_disabled":false,"rental_uris":{"android":"levelo://app?vid=3e516dae-3bc6-43cf-be8e-7513eb0189e1","ios":"levelo://app?vid=3e516dae-3bc6-43cf-be8e-7513eb0189e1"},"vehicle_type_id":"4","last_reported":1784475891,"current_range_meters":39200,"station_id":"ce4bhh12rcd13ifvqff0","pricing_plan_id":"cebpf4jnsgd1na2vs0mg"},{"bike_id":"24cd3240-e518-4e87-93f2-0d78c0915c9d","system_id":"levelo_inurba_marseille","lat":43.23051,"lon":5.35499,"is_reserved":false,"is_disabled":false,"rental_uris":{"android":"levelo://app?vid=24cd3240-e518-4e87-93f2-0d78c0915c9d","ios":"levelo://app?vid=24cd3240-e518-4e87-93f2-0d78c0915c9d"},"vehicle_type_id":"4","last_reported":1784475891,"current_range_meters":14800,"station_id":"cpo3342slgdg3j2ifvpg","pricing_plan_id":"cebpf4jnsgd1na2vs0mg"},{"bike_id":"81587832-75ed-49cd-91c3-f57f9b8cec45","system_id":"levelo_inurba_marseille","lat":43.29055,"lon":5.35897,"is_reserved":false,"is_disabled":true,"rental_uris":{"android":"levelo://app?vid=81587832-75ed-49cd-91c3-f57f9b8cec45","ios":"levelo://app?vid=81587832-75ed-49cd-91c3-f57f9b8cec45"},"vehicle_type_id":"4","last_reported":1784475891,"current_range_meters":39200,"station_id":"ce4bha92rcd13ifvqeg0","pricing_plan_id":"cebpf4jnsgd1na2vs0mg"},{"bike_id":"87c54de1-23e6-4bf8-a84d-48010f8d259b","system_id":"levelo_inurba_marseille","lat":43.29195,"lon":5.358,"is_reserved":false,"is_disabled":false,"rental_uris":{"android":"levelo://app?vid=87c54de1-23e6-4bf8-a84d-48010f8d259b","ios":"levelo://app?vid=87c54de1-23e6-4bf8-a84d-48010f8d259b"},"vehicle_type_id":"4","last_reported":1784475891,"current_range_meters":17600,"station_id":"ce4bhb12rcd13ifvqel0","pricing_plan_id":"cebpf4jnsgd1na2vs0mg"},{"bike_id":"7e8d7ef4-5ad1-496a-947f-4c8fd74d2d10","system_id":"levelo_inurba_marseille","lat":43.23956,"lon":5.36645,"is_reserved":false,"is_disabled":false,"rental_uris":{"android":"levelo://app?vid=7e8d7ef4-5ad1-496a-947f-4c8fd74d2d10","ios":"levelo://app?vid=7e8d7ef4-5ad1-496a-947f-4c8fd74d2d10"},"vehicle_type_id":"4","last_reported":1784475891,"current_range_meters":25200,"station_id":"ce4bhi12rcd13ifvqfp0","pricing_plan_id":"cebpf4jnsgd1na2vs0mg"},{"bike_id":"3a0d4a93-cd14-4253-907e-beacdb1fa887","system_id":"levelo_inurba_marseille","lat":43.27616,"lon":5.35849,"is_reserved":false,"is_disabled":false,"rental_uris":{"android":"levelo://app?vid=3a0d4a93-cd14-4253-907e-beacdb1fa887","ios":"levelo://app?vid=3a0d4a93-cd14-4253-907e-beacdb1fa887"},"vehicle_type_id":"4","last_reported":1784475891,"current_range_meters":17200,"station_id":"","pricing_plan_id":"cebpf4jnsgd1na2vs0mg"},{"bike_id":"8af0df7e-cc30-46ec-af42-8ca23109e3a3","system_id":"levelo_inurba_marseille","lat":43.2949,"lon":5.43313,"is_reserved":false,"is_disabled":false,"rental_uris":{"android":"levelo://app?vid=8af0df7e-cc30-46ec-af42-8ca23109e3a3","ios":"levelo://app?vid=8af0df7e-cc30-46ec-af42-8ca23109e3a3"},"vehicle_type_id":"4","last_reported":1784475891,"current_range_meters":27200,"station_id":"st_d3j5ugp08ojc73fj9d10","pricing_plan_id":"cebpf4jnsgd1na2vs0mg"},{"bike_id":"e0b96ede-7743-41d8-824b-0110d15513b3","system_id":"levelo_inurba_marseille","lat":43.29235,"lon":5.36081,"is_reserved":false,"is_disabled":false,"rental_uris":{"android":"levelo://app?vid=e0b96ede-7743-41d8-824b-0110d15513b3","ios":"levelo://app?vid=e0b96ede-7743-41d8-824b-0110d15513b3"},"vehicle_type_id":"4","last_reported":1784475891,"current_range_meters":20000,"station_id":"","pricing_plan_id":"cebpf4jnsgd1na2vs0mg"},{"bike_id":"52220134-2e65-4994-ab54-da9f32706096","system_id":"levelo_inurba_marseille","lat":43.25075,"lon":5.39505,"is_reserved":false,"is_disabled":false,"rental_uris":{"android":"levelo://app?vid=52220134-2e65-4994-ab54-da9f32706096","ios":"levelo://app?vid=52220134-2e65-4994-ab54-da9f32706096"},"vehicle_type_id":"4","last_reported":1784475891,"current_range_meters":22800,"station_id":"ce4bhm12rcd13ifvqgkg","pricing_plan_id":"cebpf4jnsgd1na2vs0mg"},{"bike_id":"7ff8118f-6c81-4cdf-8a1d-4753d954065d","system_id":"levelo_inurba_marseille","lat":43.29621,"lon":5.37938,"is_reserved":false,"is_disabled":false,"rental_uris":{"android":"levelo://app?vid=7ff8118f-6c81-4cdf-8a1d-4753d954065d","ios":"levelo://app?vid=7ff8118f-6c81-4cdf-8a1d-4753d954065d"},"vehicle_type_id":"4","last_reported":1784475891,"current_range_meters":2800,"station_id":"","pricing_plan_id":"cebpf4jnsgd1na2vs0mg"},{"bike_id":"002f0f77-2509-42be-9859-c934948b6004","system_id":"levelo_inurba_marseille","lat":43.32349,"lon":5.36734,"is_reserved":false,"is_disabled":false,"rental_uris":{"android":"levelo://app?vid=002f0f77-2509-42be-9859-c934948b6004","ios":"levelo://app?vid=002f0f77-2509-42be-9859-c934948b6004"},"vehicle_type_id":"4","last_reported":1784475891,"current_range_meters":11200,"station_id":"ce4bhsh2rcd13ifvqi2g","pricing_plan_id":"cebpf4jnsgd1na2vs0mg"},{"bike_id":"f8da36ef-d27b-4857-bbe5-c10a6a88cb00","system_id":"levelo_inurba_marseille","lat":43.25108,"lon":5.40307,"is_reserved":false,"is_disabled":false,"rental_uris":{"android":"levelo://app?vid=f8da36ef-d27b-4857-bbe5-c10a6a88cb00","ios":"levelo://app?vid=f8da36ef-d27b-4857-bbe5-c10a6a88cb00"},"vehicle_type_id":"4","last_reported":1784475891,"current_range_meters":20000,"station_id":"ce4bhlh2rcd13ifvqgig","pricing_plan_id":"cebpf4jnsgd1na2vs0mg"},{"bike_id":"092620de-3229-49c7-bf01-0e2c75aae87c","system_id":"levelo_inurba_marseille","lat":43.29049,"lon":5.35905,"is_reserved":false,"is_disabled":false,"rental_uris":{"android":"levelo://app?vid=092620de-3229-49c7-bf01-0e2c75aae87c","ios":"levelo://app?vid=092620de-3229-49c7-bf01-0e2c75aae87c"},"vehicle_type_id":"4","last_reported":1784475891,"current_range_meters":39200,"station_id":"ce4bha92rcd13ifvqeg0","pricing_plan_id":"cebpf4jnsgd1na2vs0mg"},{"bike_id":"856d3995-0ba9-43fb-ab35-ba0d246e5139","system_id":"levelo_inurba_marseille","lat":43.24167,"lon":5.36395,"is_reserved":false,"is_disabled":false,"rental_uris":{"android":"levelo://app?vid=856d3995-0ba9-43fb-ab35-ba0d246e5139","ios":"levelo://app?vid=856d3995-0ba9-43fb-ab35-ba0d246e5139"},"vehicle_type_id":"4","last_reported":1784475891,"current_range_meters":22000,"station_id":"cpo36qri1sfpv3e86is0","pricing_plan_id":"cebpf4jnsgd1na2vs0mg"},{"bike_id":"258c79c8-115b-43a8-9763-ee7a5585ee7a","system_id":"levelo_inurba_marseille","lat":43.23199,"lon":5.35545,"is_reserved":false,"is_disabled":false,"rental_uris":{"android":"levelo://app?vid=258c79c8-115b-43a8-9763-ee7a5585ee7a","ios":"levelo://app?vid=258c79c8-115b-43a8-9763-ee7a5585ee7a"},"vehicle_type_id":"4","last_reported":1784475891,"current_range_meters":34000,"station_id":"ce4bhu92rcd13ifvqi70","pricing_plan_id":"cebpf4jnsgd1na2vs0mg"},{"bike_id":"95c87aa2-c802-4758-8e36-96653654e43a","system_id":"levelo_inurba_marseille","lat":43.31494,"lon":5.37309,"is_reserved":false,"is_disabled":false,"rental_uris":{"android":"levelo://app?vid=95c87aa2-c802-4758-8e36-96653654e43a","ios":"levelo://app?vid=95c87aa2-c802-4758-8e36-96653654e43a"},"vehicle_type_id":"4","last_reported":1784475891,"current_range_meters":39200,"station_id":"ce4bgt12rcd13ifvqcd0","pricing_plan_id":"cebpf4jnsgd1na2vs0mg"},{"bike_id":"71dbc3e0-0ab5-4118-84e4-0f3d8268030b","system_id":"levelo_inurba_marseille","lat":43.21754,"lon":5.34608,"is_reserved":false,"is_disabled":false,"rental_uris":{"android":"levelo://app?vid=71dbc3e0-0ab5-4118-84e4-0f3d8268030b","ios":"levelo://app?vid=71dbc3e0-0ab5-4118-84e4-0f3d8268030b"},"vehicle_type_id":"4","last_reported":1784475891,"current_range_meters":12000,"station_id":"st_cvj6r9ubvosntc0bgbag","pricing_plan_id":"cebpf4jnsgd1na2vs0mg"},{"bike_id":"874b8daf-fd28-4b0c-ad41-540b837e3d96","system_id":"levelo_inurba_marseille","lat":43.31711,"lon":5.37752,"is_reserved":false,"is_disabled":false,"rental_uris":{"android":"levelo://app?vid=874b8daf-fd28-4b0c-ad41-540b837e3d96","ios":"levelo://app?vid=874b8daf-fd28-4b0c-ad41-540b837e3d96"},"vehicle_type_id":"4","last_reported":1784475891,"current_range_meters":30800,"station_id":"ce4bgth2rcd13ifvqch0","pricing_plan_id":"cebpf4jnsgd1na2vs0mg"},{"bike_id":"a7c42e62-f2d7-4f0f-96f4-b9d2418cea29","system_id":"levelo_inurba_marseille","lat":43.29595,"lon":5.40617,"is_reserved":false,"is_disabled":true,"rental_uris":{"android":"levelo://app?vid=a7c42e62-f2d7-4f0f-96f4-b9d2418cea29","ios":"levelo://app?vid=a7c42e62-f2d7-4f0f-96f4-b9d2418cea29"},"vehicle_type_id":"4","last_reported":1784475891,"current_range_meters":16400,"station_id":"ce4bh0h2rcd13ifvqd60","pricing_plan_id":"cebpf4jnsgd1na2vs0mg"},{"bike_id":"6b28d726-da17-43d5-bcda-effbbb66d552","system_id":"levelo_inurba_marseille","lat":43.26216,"lon":5.41674,"is_reserved":false,"is_disabled":false,"rental_uris":{"android":"levelo://app?vid=6b28d726-da17-43d5-bcda-effbbb66d552","ios":"levelo://app?vid=6b28d726-da17-43d5-bcda-effbbb66d552"},"vehicle_type_id":"4","last_reported":1784475891,"current_range_meters":28400,"station_id":"","pricing_plan_id":"cebpf4jnsgd1na2vs0mg"},{"bike_id":"d0b36b91-e055-4a3d-b400-97983f96516a","system_id":"levelo_inurba_marseille","lat":43.21751,"lon":5.34607,"is_reserved":false,"is_disabled":false,"rental_uris":{"android":"levelo://app?vid=d0b36b91-e055-4a3d-b400-97983f96516a","ios":"levelo://app?vid=d0b36b91-e055-4a3d-b400-97983f96516a"},"vehicle_type_id":"4","last_reported":1784475891,"current_range_meters":5600,"station_id":"st_cvj6r9ubvosntc0bgbag","pricing_plan_id":"cebpf4jnsgd1na2vs0mg"},{"bike_id":"47195dc0-2020-4fea-a482-5da5758fe5e8","system_id":"levelo_inurba_marseille","lat":43.28462,"lon":5.35876,"is_reserved":false,"is_disabled":false,"rental_uris":{"android":"levelo://app?vid=47195dc0-2020-4fea-a482-5da5758fe5e8","ios":"levelo://app?vid=47195dc0-2020-4fea-a482-5da5758fe5e8"},"vehicle_type_id":"4","last_reported":1784475891,"current_range_meters":11200,"station_id":"ce4bhah2rcd13ifvqei0","pricing_plan_id":"cebpf4jnsgd1na2vs0mg"},{"bike_id":"80aab92c-8bc2-4649-ab28-9669d10e174a","system_id":"levelo_inurba_marseille","lat":43.30477,"lon":5.38959,"is_reserved":false,"is_disabled":false,"rental_uris":{"android":"levelo://app?vid=80aab92c-8bc2-4649-ab28-9669d10e174a","ios":"levelo://app?vid=80aab92c-8bc2-4649-ab28-9669d10e174a"},"vehicle_type_id":"4","last_reported":1784475891,"current_range_meters":38400,"station_id":"ce4bgk12rcd13ifvqbi0","pricing_plan_id":"cebpf4jnsgd1na2vs0mg"},{"bike_id":"4f29de8e-41d7-4e1a-b83f-55ce32919a4b","system_id":"levelo_inurba_marseille","lat":43.29029,"lon":5.35915,"is_reserved":false,"is_disabled":false,"rental_uris":{"android":"levelo://app?vid=4f29de8e-41d7-4e1a-b83f-55ce32919a4b","ios":"levelo://app?vid=4f29de8e-41d7-4e1a-b83f-55ce32919a4b"},"vehicle_type_id":"4","last_reported":1784475891,"current_range_meters":18800,"station_id":"ce4bha92rcd13ifvqeg0","pricing_plan_id":"cebpf4jnsgd1na2vs0mg"},{"bike_id":"0f6ff1da-c9e3-42e7-a8d3-8280d1c0addc","system_id":"levelo_inurba_marseille","lat":43.33718,"lon":5.37415,"is_reserved":false,"is_disabled":false,"rental_uris":{"android":"levelo://app?vid=0f6ff1da-c9e3-42e7-a8d3-8280d1c0addc","ios":"levelo://app?vid=0f6ff1da-c9e3-42e7-a8d3-8280d1c0addc"},"vehicle_type_id":"4","last_reported":1784475891,"current_range_meters":28000,"station_id":"","pricing_plan_id":"cebpf4jnsgd1na2vs0mg"},{"bike_id":"1e628dec-3141-48e0-b510-1c285ab03f4c","system_id":"levelo_inurba_marseille","lat":43.26364,"lon":5.41066,"is_reserved":false,"is_disabled":false,"rental_uris":{"android":"levelo://app?vid=1e628dec-3141-48e0-b510-1c285ab03f4c","ios":"levelo://app?vid=1e628dec-3141-48e0-b510-1c285ab03f4c"},"vehicle_type_id":"4","last_reported":1784475891,"current_range_meters":36000,"station_id":"st_d4e5ca6na9uc73bfl5fg","pricing_plan_id":"cebpf4jnsgd1na2vs0mg"},{"bike_id":"8337f5b4-2806-4bc0-9f71-af183adb5db8","system_id":"levelo_inurba_marseille","lat":43.23822,"lon":5.43512,"is_reserved":false,"is_disabled":false,"rental_uris":{"android":"levelo://app?vid=8337f5b4-2806-4bc0-9f71-af183adb5db8","ios":"levelo://app?vid=8337f5b4-2806-4bc0-9f71-af183adb5db8"},"vehicle_type_id":"4","last_reported":1784475891,"current_range_meters":3600,"station_id":"","pricing_plan_id":"cebpf4jnsgd1na2vs0mg"},{"bike_id":"0d69c6ad-1581-485b-8bcd-d541c4976ef8","system_id":"levelo_inurba_marseille","lat":43.31906,"lon":5.36801,"is_reserved":false,"is_disabled":false,"rental_uris":{"android":"levelo://app?vid=0d69c6ad-1581-485b-8bcd-d541c4976ef8","ios":"levelo://app?vid=0d69c6ad-1581-485b-8bcd-d541c4976ef8"},"vehicle_type_id":"4","last_reported":1784475891,"current_range_meters":8800,"station_id":"st_d6o2h0d0559c73evc1b0","pricing_plan_id":"cebpf4jnsgd1na2vs0mg"},{"bike_id":"4de504f2-bbbf-4fb3-8447-f251a88f156d","system_id":"levelo_inurba_marseille","lat":43.29213,"lon":5.36064,"is_reserved":false,"is_disabled":false,"rental_uris":{"android":"levelo://app?vid=4de504f2-bbbf-4fb3-8447-f251a88f156d","ios":"levelo://app?vid=4de504f2-bbbf-4fb3-8447-f251a88f156d"},"vehicle_type_id":"4","last_reported":1784475891,"current_range_meters":38000,"station_id":"","pricing_plan_id":"cebpf4jnsgd1na2vs0mg"},{"bike_id":"2aa96627-2af3-4a12-af65-007616bd3d82","system_id":"levelo_inurba_marseille","lat":43.21758,"lon":5.34591,"is_reserved":false,"is_disabled":false,"rental_uris":{"android":"levelo://app?vid=2aa96627-2af3-4a12-af65-007616bd3d82","ios":"levelo://app?vid=2aa96627-2af3-4a12-af65-007616bd3d82"},"vehicle_type_id":"4","last_reported":1784475891,"current_range_meters":11600,"station_id":"st_cvj6r9ubvosntc0bgbag","pricing_plan_id":"cebpf4jnsgd1na2vs0mg"},{"bike_id":"ad193227-d210-4e9a-af26-3f25b41f58db","system_id":"levelo_inurba_marseille","lat":43.23892,"lon":5.3748,"is_reserved":false,"is_disabled":false,"rental_uris":{"android":"levelo://app?vid=ad193227-d210-4e9a-af26-3f25b41f58db","ios":"levelo://app?vid=ad193227-d210-4e9a-af26-3f25b41f58db"},"vehicle_type_id":"4","last_reported":1784475891,"current_range_meters":38400,"station_id":"st_d6sm7csbq4hs73f8fpjg","pricing_plan_id":"cebpf4jnsgd1na2vs0mg"},{"bike_id":"ee06a958-7f2b-4eb7-a6b1-2d3112db17a0","system_id":"levelo_inurba_marseille","lat":43.31123,"lon":5.37792,"is_reserved":false,"is_disabled":false,"rental_uris":{"android":"levelo://app?vid=ee06a958-7f2b-4eb7-a6b1-2d3112db17a0","ios":"levelo://app?vid=ee06a958-7f2b-4eb7-a6b1-2d3112db17a0"},"vehicle_type_id":"4","last_reported":1784475891,"current_range_meters":38000,"station_id":"ce4bgt92rcd13ifvqcg0","pricing_plan_id":"cebpf4jnsgd1na2vs0mg"},{"bike_id":"afac38e8-7d68-42c4-9204-43248fff7186","system_id":"levelo_inurba_marseille","lat":43.2828,"lon":5.35072,"is_reserved":false,"is_disabled":false,"rental_uris":{"android":"levelo://app?vid=afac38e8-7d68-42c4-9204-43248fff7186","ios":"levelo://app?vid=afac38e8-7d68-42c4-9204-43248fff7186"},"vehicle_type_id":"4","last_reported":1784475891,"current_range_meters":10800,"station_id":"ce4bhbp2rcd13ifvqerg","pricing_plan_id":"cebpf4jnsgd1na2vs0mg"},{"bike_id":"46b47885-842d-4817-84c4-e4bfcaa50ee0","system_id":"levelo_inurba_marseille","lat":43.2512,"lon":5.40319,"is_reserved":false,"is_disabled":false,"rental_uris":{"android":"levelo://app?vid=46b47885-842d-4817-84c4-e4bfcaa50ee0","ios":"levelo://app?vid=46b47885-842d-4817-84c4-e4bfcaa50ee0"},"vehicle_type_id":"4","last_reported":1784475891,"current_range_meters":17200,"station_id":"ce4bhlh2rcd13ifvqgig","pricing_plan_id":"cebpf4jnsgd1na2vs0mg"},{"bike_id":"50018d60-5cee-4e25-806f-789978a424f4","system_id":"levelo_inurba_marseille","lat":43.23289,"lon":5.35406,"is_reserved":false,"is_disabled":false,"rental_uris":{"android":"levelo://app?vid=50018d60-5cee-4e25-806f-789978a424f4","ios":"levelo://app?vid=50018d60-5cee-4e25-806f-789978a424f4"},"vehicle_type_id":"4","last_reported":1784475891,"current_range_meters":28400,"station_id":"","pricing_plan_id":"cebpf4jnsgd1na2vs0mg"},{"bike_id":"fa4056ac-8c6c-4b9a-a246-bec8d5f9067c","system_id":"levelo_inurba_marseille","lat":43.27208,"lon":5.39205,"is_reserved":false,"is_disabled":false,"rental_uris":{"android":"levelo://app?vid=fa4056ac-8c6c-4b9a-a246-bec8d5f9067c","ios":"levelo://app?vid=fa4056ac-8c6c-4b9a-a246-bec8d5f9067c"},"vehicle_type_id":"4","last_reported":1784475891,"current_range_meters":39200,"station_id":"ce4bhhp2rcd13ifvqfm0","pricing_plan_id":"cebpf4jnsgd1na2vs0mg"},{"bike_id":"942148f9-90f2-4171-8f05-98ba0ca85bcb","system_id":"levelo_inurba_marseille","lat":43.28468,"lon":5.48418,"is_reserved":false,"is_disabled":false,"rental_uris":{"android":"levelo://app?vid=942148f9-90f2-4171-8f05-98ba0ca85bcb","ios":"levelo://app?vid=942148f9-90f2-4171-8f05-98ba0ca85bcb"},"vehicle_type_id":"4","last_reported":1784475891,"current_range_meters":37600,"station_id":"st_d3svhcjqgbts73a3dn0g","pricing_plan_id":"cebpf4jnsgd1na2vs0mg"},{"bike_id":"97d120bb-ef10-49a9-98fd-ea2eae127c57","system_id":"levelo_inurba_marseille","lat":43.23202,"lon":5.39962,"is_reserved":false,"is_disabled":false,"rental_uris":{"android":"levelo://app?vid=97d120bb-ef10-49a9-98fd-ea2eae127c57","ios":"levelo://app?vid=97d120bb-ef10-49a9-98fd-ea2eae127c57"},"vehicle_type_id":"4","last_reported":1784475891,"current_range_meters":39200,"station_id":"ce4bhn12rcd13ifvqgqg","pricing_plan_id":"cebpf4jnsgd1na2vs0mg"},{"bike_id":"9702dbbb-e92c-47ce-b3d5-8d4e078d8822","system_id":"levelo_inurba_marseille","lat":43.26848,"lon":5.39365,"is_reserved":false,"is_disabled":false,"rental_uris":{"android":"levelo://app?vid=9702dbbb-e92c-47ce-b3d5-8d4e078d8822","ios":"levelo://app?vid=9702dbbb-e92c-47ce-b3d5-8d4e078d8822"},"vehicle_type_id":"4","last_reported":1784475891,"current_range_meters":19600,"station_id":"","pricing_plan_id":"cebpf4jnsgd1na2vs0mg"},{"bike_id":"fa288643-b967-4c77-8362-0941ea5afa2f","system_id":"levelo_inurba_marseille","lat":43.232,"lon":5.35551,"is_reserved":false,"is_disabled":false,"rental_uris":{"android":"levelo://app?vid=fa288643-b967-4c77-8362-0941ea5afa2f","ios":"levelo://app?vid=fa288643-b967-4c77-8362-0941ea5afa2f"},"vehicle_type_id":"4","last_reported":1784475891,"current_range_meters":39200,"station_id":"ce4bhu92rcd13ifvqi70","pricing_plan_id":"cebpf4jnsgd1na2vs0mg"},{"bike_id":"2a93def1-9840-4751-b465-b53bb0ce6123","system_id":"levelo_inurba_marseille","lat":43.22557,"lon":5.41604,"is_reserved":false,"is_disabled":false,"rental_uris":{"android":"levelo://app?vid=2a93def1-9840-4751-b465-b53bb0ce6123","ios":"levelo://app?vid=2a93def1-9840-4751-b465-b53bb0ce6123"},"vehicle_type_id":"4","last_reported":1784475891,"current_range_meters":6400,"station_id":"st_d2o4gvlbi1j2169b742g","pricing_plan_id":"cebpf4jnsgd1na2vs0mg"},{"bike_id":"84f0a225-dc93-4dc9-a914-5f2bc664e498","system_id":"levelo_inurba_marseille","lat":43.30149,"lon":5.38067,"is_reserved":false,"is_disabled":false,"rental_uris":{"android":"levelo://app?vid=84f0a225-dc93-4dc9-a914-5f2bc664e498","ios":"levelo://app?vid=84f0a225-dc93-4dc9-a914-5f2bc664e498"},"vehicle_type_id":"4","last_reported":1784475891,"current_range_meters":19200,"station_id":"ce4bgjp2rcd13ifvqbh0","pricing_plan_id":"cebpf4jnsgd1na2vs0mg"},{"bike_id":"d2b08bfe-8d05-4397-91e9-fe938a2b845f","system_id":"levelo_inurba_marseille","lat":43.27492,"lon":5.4246,"is_reserved":false,"is_disabled":false,"rental_uris":{"android":"levelo://app?vid=d2b08bfe-8d05-4397-91e9-fe938a2b845f","ios":"levelo://app?vid=d2b08bfe-8d05-4397-91e9-fe938a2b845f"},"vehicle_type_id":"4","last_reported":1784475891,"current_range_meters":28400,"station_id":"ce4bhn92rcd13ifvqgrg","pricing_plan_id":"cebpf4jnsgd1na2vs0mg"},{"bike_id":"03fcd601-c201-4cc6-a5f6-b2a687e2f004","system_id":"levelo_inurba_marseille","lat":43.29197,"lon":5.36332,"is_reserved":false,"is_disabled":false,"rental_uris":{"android":"levelo://app?vid=03fcd601-c201-4cc6-a5f6-b2a687e2f004","ios":"levelo://app?vid=03fcd601-c201-4cc6-a5f6-b2a687e2f004"},"vehicle_type_id":"4","last_reported":1784475891,"current_range_meters":27200,"station_id":"","pricing_plan_id":"cebpf4jnsgd1na2vs0mg"},{"bike_id":"85c6f96b-abeb-41c4-b8e0-2980ab917c26","system_id":"levelo_inurba_marseille","lat":43.24463,"lon":5.42538,"is_reserved":false,"is_disabled":false,"rental_uris":{"android":"levelo://app?vid=85c6f96b-abeb-41c4-b8e0-2980ab917c26","ios":"levelo://app?vid=85c6f96b-abeb-41c4-b8e0-2980ab917c26"},"vehicle_type_id":"4","last_reported":1784475891,"current_range_meters":25200,"station_id":"st_d4a3vfp97mjs738cd8kg","pricing_plan_id":"cebpf4jnsgd1na2vs0mg"},{"bike_id":"e97d923d-d560-461e-94e7-6b746b3d8d92","system_id":"levelo_inurba_marseille","lat":43.32128,"lon":5.3674,"is_reserved":false,"is_disabled":false,"rental_uris":{"android":"levelo://app?vid=e97d923d-d560-461e-94e7-6b746b3d8d92","ios":"levelo://app?vid=e97d923d-d560-461e-94e7-6b746b3d8d92"},"vehicle_type_id":"4","last_reported":1784475891,"current_range_meters":22400,"station_id":"ce4bhrh2rcd13ifvqhug","pricing_plan_id":"cebpf4jnsgd1na2vs0mg"},{"bike_id":"36b4d290-dd7c-4dde-8dd9-f0a58badcd06","system_id":"levelo_inurba_marseille","lat":43.27686,"lon":5.38894,"is_reserved":false,"is_disabled":true,"rental_uris":{"android":"levelo://app?vid=36b4d290-dd7c-4dde-8dd9-f0a58badcd06","ios":"levelo://app?vid=36b4d290-dd7c-4dde-8dd9-f0a58badcd06"},"vehicle_type_id":"4","last_reported":1784475891,"current_range_meters":2000,"station_id":"ce4bhi12rcd13ifvqfo0","pricing_plan_id":"cebpf4jnsgd1na2vs0mg"},{"bike_id":"b7aa1f7e-f948-4c85-8ebb-7af17d93841d","system_id":"levelo_inurba_marseille","lat":43.25227,"lon":5.40072,"is_reserved":false,"is_disabled":false,"rental_uris":{"android":"levelo://app?vid=b7aa1f7e-f948-4c85-8ebb-7af17d93841d","ios":"levelo://app?vid=b7aa1f7e-f948-4c85-8ebb-7af17d93841d"},"vehicle_type_id":"4","last_reported":1784475891,"current_range_meters":38000,"station_id":"","pricing_plan_id":"cebpf4jnsgd1na2vs0mg"},{"bike_id":"d56488c1-b78a-40ca-a296-b51941bf34bf","system_id":"levelo_inurba_marseille","lat":43.28466,"lon":5.35893,"is_reserved":false,"is_disabled":false,"rental_uris":{"android":"levelo://app?vid=d56488c1-b78a-40ca-a296-b51941bf34bf","ios":"levelo://app?vid=d56488c1-b78a-40ca-a296-b51941bf34bf"},"vehicle_type_id":"4","last_reported":1784475891,"current_range_meters":27600,"station_id":"ce4bhah2rcd13ifvqei0","pricing_plan_id":"cebpf4jnsgd1na2vs0mg"},{"bike_id":"a73f2824-04af-4eb1-8696-07548fb915c6","system_id":"levelo_inurba_marseille","lat":43.27062,"lon":5.42268,"is_reserved":false,"is_disabled":false,"rental_uris":{"android":"levelo://app?vid=a73f2824-04af-4eb1-8696-07548fb915c6","ios":"levelo://app?vid=a73f2824-04af-4eb1-8696-07548fb915c6"},"vehicle_type_id":"4","last_reported":1784475891,"current_range_meters":32800,"station_id":"ce4bhk92rcd13ifvqgb0","pricing_plan_id":"cebpf4jnsgd1na2vs0mg"},{"bike_id":"5f7a7770-0584-499a-80c2-89ed18615f65","system_id":"levelo_inurba_marseille","lat":43.28076,"lon":5.3964,"is_reserved":false,"is_disabled":false,"rental_uris":{"android":"levelo://app?vid=5f7a7770-0584-499a-80c2-89ed18615f65","ios":"levelo://app?vid=5f7a7770-0584-499a-80c2-89ed18615f65"},"vehicle_type_id":"4","last_reported":1784475891,"current_range_meters":6000,"station_id":"ce4bho12rcd13ifvqh2g","pricing_plan_id":"cebpf4jnsgd1na2vs0mg"},{"bike_id":"e845caaf-6f62-4afe-898b-175d7eec4dd5","system_id":"levelo_inurba_marseille","lat":43.2905,"lon":5.35903,"is_reserved":false,"is_disabled":false,"rental_uris":{"android":"levelo://app?vid=e845caaf-6f62-4afe-898b-175d7eec4dd5","ios":"levelo://app?vid=e845caaf-6f62-4afe-898b-175d7eec4dd5"},"vehicle_type_id":"4","last_reported":1784475891,"current_range_meters":7200,"station_id":"ce4bha92rcd13ifvqeg0","pricing_plan_id":"cebpf4jnsgd1na2vs0mg"},{"bike_id":"160b0153-3c70-4a0e-b0da-4ad40e9a3569","system_id":"levelo_inurba_marseille","lat":43.23388,"lon":5.41232,"is_reserved":false,"is_disabled":false,"rental_uris":{"android":"levelo://app?vid=160b0153-3c70-4a0e-b0da-4ad40e9a3569","ios":"levelo://app?vid=160b0153-3c70-4a0e-b0da-4ad40e9a3569"},"vehicle_type_id":"4","last_reported":1784475891,"current_range_meters":36400,"station_id":"st_d75pvndhf9lc73cqq3eg","pricing_plan_id":"cebpf4jnsgd1na2vs0mg"},{"bike_id":"adbf58a5-750c-44b0-bf9c-92bf4abd2cfa","system_id":"levelo_inurba_marseille","lat":43.28724,"lon":5.36085,"is_reserved":false,"is_disabled":false,"rental_uris":{"android":"levelo://app?vid=adbf58a5-750c-44b0-bf9c-92bf4abd2cfa","ios":"levelo://app?vid=adbf58a5-750c-44b0-bf9c-92bf4abd2cfa"},"vehicle_type_id":"4","last_reported":1784475891,"current_range_meters":16400,"station_id":"cki0cbj6b192h4jlfktg","pricing_plan_id":"cebpf4jnsgd1na2vs0mg"},{"bike_id":"266bb6db-e90e-4ddc-a5e9-a55463e560bf","system_id":"levelo_inurba_marseille","lat":43.27667,"lon":5.3887,"is_reserved":false,"is_disabled":false,"rental_uris":{"android":"levelo://app?vid=266bb6db-e90e-4ddc-a5e9-a55463e560bf","ios":"levelo://app?vid=266bb6db-e90e-4ddc-a5e9-a55463e560bf"},"vehicle_type_id":"4","last_reported":1784475891,"current_range_meters":28800,"station_id":"ce4bhi12rcd13ifvqfo0","pricing_plan_id":"cebpf4jnsgd1na2vs0mg"},{"bike_id":"c01682ee-572d-41b0-9735-100a4f908617","system_id":"levelo_inurba_marseille","lat":43.31482,"lon":5.37294,"is_reserved":false,"is_disabled":false,"rental_uris":{"android":"levelo://app?vid=c01682ee-572d-41b0-9735-100a4f908617","ios":"levelo://app?vid=c01682ee-572d-41b0-9735-100a4f908617"},"vehicle_type_id":"4","last_reported":1784475891,"current_range_meters":21600,"station_id":"ce4bgt12rcd13ifvqcd0","pricing_plan_id":"cebpf4jnsgd1na2vs0mg"},{"bike_id":"3d4aa178-44db-467e-a1bd-4fcdf991f22c","system_id":"levelo_inurba_marseille","lat":43.31712,"lon":5.43708,"is_reserved":false,"is_disabled":false,"rental_uris":{"android":"levelo://app?vid=3d4aa178-44db-467e-a1bd-4fcdf991f22c","ios":"levelo://app?vid=3d4aa178-44db-467e-a1bd-4fcdf991f22c"},"vehicle_type_id":"4","last_reported":1784475891,"current_range_meters":37600,"station_id":"ce4bhp92rcd13ifvqhcg","pricing_plan_id":"cebpf4jnsgd1na2vs0mg"},{"bike_id":"78b472ae-7ca1-438d-a65f-f93d06645001","system_id":"levelo_inurba_marseille","lat":43.29229,"lon":5.36032,"is_reserved":false,"is_disabled":true,"rental_uris":{"android":"levelo://app?vid=78b472ae-7ca1-438d-a65f-f93d06645001","ios":"levelo://app?vid=78b472ae-7ca1-438d-a65f-f93d06645001"},"vehicle_type_id":"4","last_reported":1784475891,"current_range_meters":38000,"station_id":"","pricing_plan_id":"cebpf4jnsgd1na2vs0mg"},{"bike_id":"0d277db0-754c-46e4-9e20-74e580478ee6","system_id":"levelo_inurba_marseille","lat":43.28356,"lon":5.38111,"is_reserved":false,"is_disabled":false,"rental_uris":{"android":"levelo://app?vid=0d277db0-754c-46e4-9e20-74e580478ee6","ios":"levelo://app?vid=0d277db0-754c-46e4-9e20-74e580478ee6"},"vehicle_type_id":"4","last_reported":1784475891,"current_range_meters":3600,"station_id":"ce4bh412rcd13ifvqdr0","pricing_plan_id":"cebpf4jnsgd1na2vs0mg"},{"bike_id":"76e7a67e-3e31-4f34-a121-faa9a0943370","system_id":"levelo_inurba_marseille","lat":43.2886,"lon":5.39309,"is_reserved":false,"is_disabled":true,"rental_uris":{"android":"levelo://app?vid=76e7a67e-3e31-4f34-a121-faa9a0943370","ios":"levelo://app?vid=76e7a67e-3e31-4f34-a121-faa9a0943370"},"vehicle_type_id":"4","last_reported":1784475891,"current_range_meters":800,"station_id":"ce4bh2p2rcd13ifvqdi0","pricing_plan_id":"cebpf4jnsgd1na2vs0mg"},{"bike_id":"bf010752-4ee2-4816-b256-1fb00bbe1bcc","system_id":"levelo_inurba_marseille","lat":43.286,"lon":5.35082,"is_reserved":false,"is_disabled":false,"rental_uris":{"android":"levelo://app?vid=bf010752-4ee2-4816-b256-1fb00bbe1bcc","ios":"levelo://app?vid=bf010752-4ee2-4816-b256-1fb00bbe1bcc"},"vehicle_type_id":"4","last_reported":1784475891,"current_range_meters":12800,"station_id":"ce4bhch2rcd13ifvqeug","pricing_plan_id":"cebpf4jnsgd1na2vs0mg"},{"bike_id":"f31e71a2-8328-4ff9-9288-61f910dee152","system_id":"levelo_inurba_marseille","lat":43.26486,"lon":5.39533,"is_reserved":false,"is_disabled":false,"rental_uris":{"android":"levelo://app?vid=f31e71a2-8328-4ff9-9288-61f910dee152","ios":"levelo://app?vid=f31e71a2-8328-4ff9-9288-61f910dee152"},"vehicle_type_id":"4","last_reported":1784475891,"current_range_meters":36400,"station_id":"ce4bhi12rcd13ifvqfq0","pricing_plan_id":"cebpf4jnsgd1na2vs0mg"},{"bike_id":"348caf77-82d6-4562-a72e-c7becae0b0ae","system_id":"levelo_inurba_marseille","lat":43.230549,"lon":5.354901,"is_reserved":false,"is_disabled":false,"rental_uris":{"android":"levelo://app?vid=348caf77-82d6-4562-a72e-c7becae0b0ae","ios":"levelo://app?vid=348caf77-82d6-4562-a72e-c7becae0b0ae"},"vehicle_type_id":"4","last_reported":1784475891,"current_range_meters":36800,"station_id":"cpo3342slgdg3j2ifvpg","pricing_plan_id":"cebpf4jnsgd1na2vs0mg"},{"bike_id":"88b3333d-68df-42df-8ef7-a9a4f08abce5","system_id":"levelo_inurba_marseille","lat":43.22926,"lon":5.41502,"is_reserved":false,"is_disabled":false,"rental_uris":{"android":"levelo://app?vid=88b3333d-68df-42df-8ef7-a9a4f08abce5","ios":"levelo://app?vid=88b3333d-68df-42df-8ef7-a9a4f08abce5"},"vehicle_type_id":"4","last_reported":1784475891,"current_range_meters":18000,"station_id":"","pricing_plan_id":"cebpf4jnsgd1na2vs0mg"},{"bike_id":"035222c8-2604-4663-bc5d-7c9f7e488ee9","system_id":"levelo_inurba_marseille","lat":43.25552,"lon":5.37623,"is_reserved":false,"is_disabled":true,"rental_uris":{"android":"levelo://app?vid=035222c8-2604-4663-bc5d-7c9f7e488ee9","ios":"levelo://app?vid=035222c8-2604-4663-bc5d-7c9f7e488ee9"},"vehicle_type_id":"4","last_reported":1784475891,"current_range_meters":0,"station_id":"","pricing_plan_id":"cebpf4jnsgd1na2vs0mg"},{"bike_id":"50cc7a1f-02fb-419d-8d81-6e9140eed09a","system_id":"levelo_inurba_marseille","lat":43.26193,"lon":5.37411,"is_reserved":false,"is_disabled":false,"rental_uris":{"android":"levelo://app?vid=50cc7a1f-02fb-419d-8d81-6e9140eed09a","ios":"levelo://app?vid=50cc7a1f-02fb-419d-8d81-6e9140eed09a"},"vehicle_type_id":"4","last_reported":1784475891,"current_range_meters":36400,"station_id":"ce4bhgp2rcd13ifvqfc0","pricing_plan_id":"cebpf4jnsgd1na2vs0mg"},{"bike_id":"67cc13ec-7983-4e02-8476-a12d7f7e598e","system_id":"levelo_inurba_marseille","lat":43.26692,"lon":5.3826,"is_reserved":false,"is_disabled":false,"rental_uris":{"android":"levelo://app?vid=67cc13ec-7983-4e02-8476-a12d7f7e598e","ios":"levelo://app?vid=67cc13ec-7983-4e02-8476-a12d7f7e598e"},"vehicle_type_id":"4","last_reported":1784475891,"current_range_meters":20800,"station_id":"ce4bhg92rcd13ifvqf90","pricing_plan_id":"cebpf4jnsgd1na2vs0mg"},{"bike_id":"49e19d96-a7d6-4274-b783-a03728cf8001","system_id":"levelo_inurba_marseille","lat":43.25495,"lon":5.37647,"is_reserved":false,"is_disabled":false,"rental_uris":{"android":"levelo://app?vid=49e19d96-a7d6-4274-b783-a03728cf8001","ios":"levelo://app?vid=49e19d96-a7d6-4274-b783-a03728cf8001"},"vehicle_type_id":"4","last_reported":1784475891,"current_range_meters":14400,"station_id":"ce4bhh12rcd13ifvqff0","pricing_plan_id":"cebpf4jnsgd1na2vs0mg"},{"bike_id":"b9bf91b1-f6c3-4792-a380-5b253e1ff4ad","system_id":"levelo_inurba_marseille","lat":43.23198,"lon":5.35564,"is_reserved":false,"is_disabled":false,"rental_uris":{"android":"levelo://app?vid=b9bf91b1-f6c3-4792-a380-5b253e1ff4ad","ios":"levelo://app?vid=b9bf91b1-f6c3-4792-a380-5b253e1ff4ad"},"vehicle_type_id":"4","last_reported":1784475891,"current_range_meters":28400,"station_id":"ce4bhu92rcd13ifvqi70","pricing_plan_id":"cebpf4jnsgd1na2vs0mg"},{"bike_id":"3331c6c8-0e15-49d1-8915-53d26d8aa8c2","system_id":"levelo_inurba_marseille","lat":43.30618,"lon":5.37227,"is_reserved":false,"is_disabled":false,"rental_uris":{"android":"levelo://app?vid=3331c6c8-0e15-49d1-8915-53d26d8aa8c2","ios":"levelo://app?vid=3331c6c8-0e15-49d1-8915-53d26d8aa8c2"},"vehicle_type_id":"4","last_reported":1784475891,"current_range_meters":31200,"station_id":"ce4bgqh2rcd13ifvqc4g","pricing_plan_id":"cebpf4jnsgd1na2vs0mg"},{"bike_id":"924a1626-5fd2-481c-9ed9-8d01de5a6be3","system_id":"levelo_inurba_marseille","lat":43.30574,"lon":5.38201,"is_reserved":false,"is_disabled":false,"rental_uris":{"android":"levelo://app?vid=924a1626-5fd2-481c-9ed9-8d01de5a6be3","ios":"levelo://app?vid=924a1626-5fd2-481c-9ed9-8d01de5a6be3"},"vehicle_type_id":"4","last_reported":1784475891,"current_range_meters":16000,"station_id":"","pricing_plan_id":"cebpf4jnsgd1na2vs0mg"},{"bike_id":"4f54c651-15d1-492f-8d09-70f1f809ad4f","system_id":"levelo_inurba_marseille","lat":43.27501,"lon":5.42541,"is_reserved":false,"is_disabled":false,"rental_uris":{"android":"levelo://app?vid=4f54c651-15d1-492f-8d09-70f1f809ad4f","ios":"levelo://app?vid=4f54c651-15d1-492f-8d09-70f1f809ad4f"},"vehicle_type_id":"4","last_reported":1784475891,"current_range_meters":15200,"station_id":"st_d8t4bh7nbrqs73arha60","pricing_plan_id":"cebpf4jnsgd1na2vs0mg"},{"bike_id":"7065528a-f292-4b1d-9927-6e05933d2cf0","system_id":"levelo_inurba_marseille","lat":43.2256,"lon":5.41633,"is_reserved":false,"is_disabled":false,"rental_uris":{"android":"levelo://app?vid=7065528a-f292-4b1d-9927-6e05933d2cf0","ios":"levelo://app?vid=7065528a-f292-4b1d-9927-6e05933d2cf0"},"vehicle_type_id":"4","last_reported":1784475891,"current_range_meters":23200,"station_id":"st_d2o4gvlbi1j2169b742g","pricing_plan_id":"cebpf4jnsgd1na2vs0mg"},{"bike_id":"862d8e62-6e66-4b66-a64b-9c49ce2182be","system_id":"levelo_inurba_marseille","lat":43.30387,"lon":5.40805,"is_reserved":false,"is_disabled":false,"rental_uris":{"android":"levelo://app?vid=862d8e62-6e66-4b66-a64b-9c49ce2182be","ios":"levelo://app?vid=862d8e62-6e66-4b66-a64b-9c49ce2182be"},"vehicle_type_id":"4","last_reported":1784475891,"current_range_meters":28400,"station_id":"","pricing_plan_id":"cebpf4jnsgd1na2vs0mg"},{"bike_id":"67ef5f25-7647-4eb6-b672-9c0b7e31a1d9","system_id":"levelo_inurba_marseille","lat":43.29876,"lon":5.39734,"is_reserved":false,"is_disabled":false,"rental_uris":{"android":"levelo://app?vid=67ef5f25-7647-4eb6-b672-9c0b7e31a1d9","ios":"levelo://app?vid=67ef5f25-7647-4eb6-b672-9c0b7e31a1d9"},"vehicle_type_id":"4","last_reported":1784475891,"current_range_meters":26800,"station_id":"ce4bh0h2rcd13ifvqd50","pricing_plan_id":"cebpf4jnsgd1na2vs0mg"},{"bike_id":"3fa828c7-61f5-4f5a-b57c-e863a75aba78","system_id":"levelo_inurba_marseille","lat":43.28728,"lon":5.36097,"is_reserved":false,"is_disabled":false,"rental_uris":{"android":"levelo://app?vid=3fa828c7-61f5-4f5a-b57c-e863a75aba78","ios":"levelo://app?vid=3fa828c7-61f5-4f5a-b57c-e863a75aba78"},"vehicle_type_id":"4","last_reported":1784475891,"current_range_meters":36000,"station_id":"cki0cbj6b192h4jlfktg","pricing_plan_id":"cebpf4jnsgd1na2vs0mg"},{"bike_id":"b5153897-8d2e-479c-99d5-35883f7ab0d3","system_id":"levelo_inurba_marseille","lat":43.28282,"lon":5.35074,"is_reserved":false,"is_disabled":false,"rental_uris":{"android":"levelo://app?vid=b5153897-8d2e-479c-99d5-35883f7ab0d3","ios":"levelo://app?vid=b5153897-8d2e-479c-99d5-35883f7ab0d3"},"vehicle_type_id":"4","last_reported":1784475891,"current_range_meters":20000,"station_id":"ce4bhbp2rcd13ifvqerg","pricing_plan_id":"cebpf4jnsgd1na2vs0mg"},{"bike_id":"e35b3037-ccf2-48a7-b6f2-14a77143bba4","system_id":"levelo_inurba_marseille","lat":43.32361,"lon":5.36734,"is_reserved":false,"is_disabled":false,"rental_uris":{"android":"levelo://app?vid=e35b3037-ccf2-48a7-b6f2-14a77143bba4","ios":"levelo://app?vid=e35b3037-ccf2-48a7-b6f2-14a77143bba4"},"vehicle_type_id":"4","last_reported":1784475891,"current_range_meters":26800,"station_id":"ce4bhsh2rcd13ifvqi2g","pricing_plan_id":"cebpf4jnsgd1na2vs0mg"},{"bike_id":"be4a3f11-c544-4ac8-9fa9-fda2935d84ab","system_id":"levelo_inurba_marseille","lat":43.29609,"lon":5.36718,"is_reserved":false,"is_disabled":false,"rental_uris":{"android":"levelo://app?vid=be4a3f11-c544-4ac8-9fa9-fda2935d84ab","ios":"levelo://app?vid=be4a3f11-c544-4ac8-9fa9-fda2935d84ab"},"vehicle_type_id":"4","last_reported":1784475891,"current_range_meters":37600,"station_id":"","pricing_plan_id":"cebpf4jnsgd1na2vs0mg"},{"bike_id":"f46ca526-f9cd-4571-808f-516a0c71ffbb","system_id":"levelo_inurba_marseille","lat":43.32496,"lon":5.383,"is_reserved":false,"is_disabled":false,"rental_uris":{"android":"levelo://app?vid=f46ca526-f9cd-4571-808f-516a0c71ffbb","ios":"levelo://app?vid=f46ca526-f9cd-4571-808f-516a0c71ffbb"},"vehicle_type_id":"4","last_reported":1784475891,"current_range_meters":22400,"station_id":"st_d4asgbiv49dc73anf9m0","pricing_plan_id":"cebpf4jnsgd1na2vs0mg"},{"bike_id":"f61913ec-a8f5-41ab-91e2-6713cd9ae865","system_id":"levelo_inurba_marseille","lat":43.29633,"lon":5.40594,"is_reserved":false,"is_disabled":false,"rental_uris":{"android":"levelo://app?vid=f61913ec-a8f5-41ab-91e2-6713cd9ae865","ios":"levelo://app?vid=f61913ec-a8f5-41ab-91e2-6713cd9ae865"},"vehicle_type_id":"4","last_reported":1784475891,"current_range_meters":20400,"station_id":"ce4bh0h2rcd13ifvqd60","pricing_plan_id":"cebpf4jnsgd1na2vs0mg"},{"bike_id":"6b0ed2bd-393c-49aa-9a4b-b9c98027e6ee","system_id":"levelo_inurba_marseille","lat":43.31374,"lon":5.38496,"is_reserved":false,"is_disabled":false,"rental_uris":{"android":"levelo://app?vid=6b0ed2bd-393c-49aa-9a4b-b9c98027e6ee","ios":"levelo://app?vid=6b0ed2bd-393c-49aa-9a4b-b9c98027e6ee"},"vehicle_type_id":"4","last_reported":1784475891,"current_range_meters":40000,"station_id":"ce4bgt92rcd13ifvqcf0","pricing_plan_id":"cebpf4jnsgd1na2vs0mg"},{"bike_id":"d3763a0c-6ecc-4e5b-830e-5883d835d782","system_id":"levelo_inurba_marseille","lat":43.31744,"lon":5.43705,"is_reserved":false,"is_disabled":false,"rental_uris":{"android":"levelo://app?vid=d3763a0c-6ecc-4e5b-830e-5883d835d782","ios":"levelo://app?vid=d3763a0c-6ecc-4e5b-830e-5883d835d782"},"vehicle_type_id":"4","last_reported":1784475891,"current_range_meters":15200,"station_id":"ce4bhp92rcd13ifvqhcg","pricing_plan_id":"cebpf4jnsgd1na2vs0mg"},{"bike_id":"2d3e69d2-558b-4a81-9733-0750aa7726ab","system_id":"levelo_inurba_marseille","lat":43.23093,"lon":5.35548,"is_reserved":false,"is_disabled":false,"rental_uris":{"android":"levelo://app?vid=2d3e69d2-558b-4a81-9733-0750aa7726ab","ios":"levelo://app?vid=2d3e69d2-558b-4a81-9733-0750aa7726ab"},"vehicle_type_id":"4","last_reported":1784475891,"current_range_meters":6800,"station_id":"cpo3342slgdg3j2ifvpg","pricing_plan_id":"cebpf4jnsgd1na2vs0mg"},{"bike_id":"e0b59b94-4abf-4e2b-8eca-155fc1c0b722","system_id":"levelo_inurba_marseille","lat":43.23066,"lon":5.35495,"is_reserved":false,"is_disabled":false,"rental_uris":{"android":"levelo://app?vid=e0b59b94-4abf-4e2b-8eca-155fc1c0b722","ios":"levelo://app?vid=e0b59b94-4abf-4e2b-8eca-155fc1c0b722"},"vehicle_type_id":"4","last_reported":1784475891,"current_range_meters":39200,"station_id":"cpo3342slgdg3j2ifvpg","pricing_plan_id":"cebpf4jnsgd1na2vs0mg"},{"bike_id":"38064a1e-6d93-4f2e-8009-0a00cec0ae55","system_id":"levelo_inurba_marseille","lat":43.25823,"lon":5.39425,"is_reserved":false,"is_disabled":false,"rental_uris":{"android":"levelo://app?vid=38064a1e-6d93-4f2e-8009-0a00cec0ae55","ios":"levelo://app?vid=38064a1e-6d93-4f2e-8009-0a00cec0ae55"},"vehicle_type_id":"4","last_reported":1784475891,"current_range_meters":16400,"station_id":"ce4bhip2rcd13ifvqft0","pricing_plan_id":"cebpf4jnsgd1na2vs0mg"},{"bike_id":"70345640-560b-4da0-95b9-4f598ef8ff08","system_id":"levelo_inurba_marseille","lat":43.25192,"lon":5.37314,"is_reserved":false,"is_disabled":false,"rental_uris":{"android":"levelo://app?vid=70345640-560b-4da0-95b9-4f598ef8ff08","ios":"levelo://app?vid=70345640-560b-4da0-95b9-4f598ef8ff08"},"vehicle_type_id":"4","last_reported":1784475891,"current_range_meters":22400,"station_id":"","pricing_plan_id":"cebpf4jnsgd1na2vs0mg"},{"bike_id":"6deedabf-cbce-4f87-b51d-45375e55a968","system_id":"levelo_inurba_marseille","lat":43.293062,"lon":5.37174,"is_reserved":false,"is_disabled":false,"rental_uris":{"android":"levelo://app?vid=6deedabf-cbce-4f87-b51d-45375e55a968","ios":"levelo://app?vid=6deedabf-cbce-4f87-b51d-45375e55a968"},"vehicle_type_id":"4","last_reported":1784475891,"current_range_meters":20400,"station_id":"ce4bgh92rcd13ifvqb40","pricing_plan_id":"cebpf4jnsgd1na2vs0mg"},{"bike_id":"a2f3275c-2a5c-4a74-a000-b617eda6f695","system_id":"levelo_inurba_marseille","lat":43.3057,"lon":5.36664,"is_reserved":false,"is_disabled":false,"rental_uris":{"android":"levelo://app?vid=a2f3275c-2a5c-4a74-a000-b617eda6f695","ios":"levelo://app?vid=a2f3275c-2a5c-4a74-a000-b617eda6f695"},"vehicle_type_id":"4","last_reported":1784475891,"current_range_meters":19600,"station_id":"","pricing_plan_id":"cebpf4jnsgd1na2vs0mg"},{"bike_id":"0d3e100f-48fe-47e1-bef7-0a1dcfcc4955","system_id":"levelo_inurba_marseille","lat":43.33746,"lon":5.3918,"is_reserved":false,"is_disabled":false,"rental_uris":{"android":"levelo://app?vid=0d3e100f-48fe-47e1-bef7-0a1dcfcc4955","ios":"levelo://app?vid=0d3e100f-48fe-47e1-bef7-0a1dcfcc4955"},"vehicle_type_id":"4","last_reported":1784475891,"current_range_meters":38800,"station_id":"ce4bhr92rcd13ifvqhsg","pricing_plan_id":"cebpf4jnsgd1na2vs0mg"},{"bike_id":"0c140c0a-eebc-4f6a-96a6-b03f392b5e56","system_id":"levelo_inurba_marseille","lat":43.27677,"lon":5.38901,"is_reserved":false,"is_disabled":false,"rental_uris":{"android":"levelo://app?vid=0c140c0a-eebc-4f6a-96a6-b03f392b5e56","ios":"levelo://app?vid=0c140c0a-eebc-4f6a-96a6-b03f392b5e56"},"vehicle_type_id":"4","last_reported":1784475891,"current_range_meters":6800,"station_id":"ce4bhi12rcd13ifvqfo0","pricing_plan_id":"cebpf4jnsgd1na2vs0mg"},{"bike_id":"62cd5391-7ca1-421e-8e86-ad884682acc5","system_id":"levelo_inurba_marseille","lat":43.28001,"lon":5.4,"is_reserved":false,"is_disabled":false,"rental_uris":{"android":"levelo://app?vid=62cd5391-7ca1-421e-8e86-ad884682acc5","ios":"levelo://app?vid=62cd5391-7ca1-421e-8e86-ad884682acc5"},"vehicle_type_id":"4","last_reported":1784475891,"current_range_meters":8800,"station_id":"ce4bho92rcd13ifvqh4g","pricing_plan_id":"cebpf4jnsgd1na2vs0mg"},{"bike_id":"0307e8f8-2eca-4d39-a9b9-e080a14888ae","system_id":"levelo_inurba_marseille","lat":43.27327,"lon":5.39107,"is_reserved":false,"is_disabled":false,"rental_uris":{"android":"levelo://app?vid=0307e8f8-2eca-4d39-a9b9-e080a14888ae","ios":"levelo://app?vid=0307e8f8-2eca-4d39-a9b9-e080a14888ae"},"vehicle_type_id":"4","last_reported":1784475891,"current_range_meters":3200,"station_id":"ce4bhgp2rcd13ifvqfe0","pricing_plan_id":"cebpf4jnsgd1na2vs0mg"},{"bike_id":"0e8ed7a2-dc9a-45a0-b3fb-c8ec617b127f","system_id":"levelo_inurba_marseille","lat":43.281404,"lon":5.378887,"is_reserved":false,"is_disabled":false,"rental_uris":{"android":"levelo://app?vid=0e8ed7a2-dc9a-45a0-b3fb-c8ec617b127f","ios":"levelo://app?vid=0e8ed7a2-dc9a-45a0-b3fb-c8ec617b127f"},"vehicle_type_id":"4","last_reported":1784475891,"current_range_meters":4000,"station_id":"","pricing_plan_id":"cebpf4jnsgd1na2vs0mg"},{"bike_id":"62cd5bb0-0aa0-46dd-be69-c705d329a10a","system_id":"levelo_inurba_marseille","lat":43.23191,"lon":5.35551,"is_reserved":false,"is_disabled":false,"rental_uris":{"android":"levelo://app?vid=62cd5bb0-0aa0-46dd-be69-c705d329a10a","ios":"levelo://app?vid=62cd5bb0-0aa0-46dd-be69-c705d329a10a"},"vehicle_type_id":"4","last_reported":1784475891,"current_range_meters":39200,"station_id":"ce4bhu92rcd13ifvqi70","pricing_plan_id":"cebpf4jnsgd1na2vs0mg"},{"bike_id":"af9cb856-2a1a-4801-80cc-f305db9e72a7","system_id":"levelo_inurba_marseille","lat":43.25929,"lon":5.40897,"is_reserved":false,"is_disabled":false,"rental_uris":{"android":"levelo://app?vid=af9cb856-2a1a-4801-80cc-f305db9e72a7","ios":"levelo://app?vid=af9cb856-2a1a-4801-80cc-f305db9e72a7"},"vehicle_type_id":"4","last_reported":1784475891,"current_range_meters":36800,"station_id":"ce4bhm92rcd13ifvqglg","pricing_plan_id":"cebpf4jnsgd1na2vs0mg"},{"bike_id":"dfac0429-a154-4284-9b71-592f8fff0c6c","system_id":"levelo_inurba_marseille","lat":43.24185,"lon":5.36379,"is_reserved":false,"is_disabled":false,"rental_uris":{"android":"levelo://app?vid=dfac0429-a154-4284-9b71-592f8fff0c6c","ios":"levelo://app?vid=dfac0429-a154-4284-9b71-592f8fff0c6c"},"vehicle_type_id":"4","last_reported":1784475891,"current_range_meters":34800,"station_id":"cpo36qri1sfpv3e86is0","pricing_plan_id":"cebpf4jnsgd1na2vs0mg"},{"bike_id":"e05a549a-22b6-4781-bccb-18fe170e569b","system_id":"levelo_inurba_marseille","lat":43.27421,"lon":5.39384,"is_reserved":false,"is_disabled":false,"rental_uris":{"android":"levelo://app?vid=e05a549a-22b6-4781-bccb-18fe170e569b","ios":"levelo://app?vid=e05a549a-22b6-4781-bccb-18fe170e569b"},"vehicle_type_id":"4","last_reported":1784475891,"current_range_meters":38400,"station_id":"ce4bhdp2rcd13ifvqf20","pricing_plan_id":"cebpf4jnsgd1na2vs0mg"},{"bike_id":"bf92e73f-5ebb-482e-9b16-38b660c0b75a","system_id":"levelo_inurba_marseille","lat":43.21759,"lon":5.34591,"is_reserved":false,"is_disabled":true,"rental_uris":{"android":"levelo://app?vid=bf92e73f-5ebb-482e-9b16-38b660c0b75a","ios":"levelo://app?vid=bf92e73f-5ebb-482e-9b16-38b660c0b75a"},"vehicle_type_id":"4","last_reported":1784475891,"current_range_meters":4800,"station_id":"st_cvj6r9ubvosntc0bgbag","pricing_plan_id":"cebpf4jnsgd1na2vs0mg"},{"bike_id":"98bce0f5-25e4-4db3-b698-d3dcf6d7b213","system_id":"levelo_inurba_marseille","lat":43.24802,"lon":5.37452,"is_reserved":false,"is_disabled":false,"rental_uris":{"android":"levelo://app?vid=98bce0f5-25e4-4db3-b698-d3dcf6d7b213","ios":"levelo://app?vid=98bce0f5-25e4-4db3-b698-d3dcf6d7b213"},"vehicle_type_id":"4","last_reported":1784475891,"current_range_meters":20800,"station_id":"ce4bhgh2rcd13ifvqfb0","pricing_plan_id":"cebpf4jnsgd1na2vs0mg"},{"bike_id":"0ccdd5d1-13a3-4cc4-beee-acb9a334278d","system_id":"levelo_inurba_marseille","lat":43.23197,"lon":5.35543,"is_reserved":false,"is_disabled":false,"rental_uris":{"android":"levelo://app?vid=0ccdd5d1-13a3-4cc4-beee-acb9a334278d","ios":"levelo://app?vid=0ccdd5d1-13a3-4cc4-beee-acb9a334278d"},"vehicle_type_id":"4","last_reported":1784475891,"current_range_meters":39200,"station_id":"ce4bhu92rcd13ifvqi70","pricing_plan_id":"cebpf4jnsgd1na2vs0mg"},{"bike_id":"ed25373e-a7cc-4ffa-bb01-0b8e073362da","system_id":"levelo_inurba_marseille","lat":43.31257,"lon":5.36855,"is_reserved":false,"is_disabled":false,"rental_uris":{"android":"levelo://app?vid=ed25373e-a7cc-4ffa-bb01-0b8e073362da","ios":"levelo://app?vid=ed25373e-a7cc-4ffa-bb01-0b8e073362da"},"vehicle_type_id":"4","last_reported":1784475891,"current_range_meters":37600,"station_id":"ce4bgl92rcd13ifvqbq0","pricing_plan_id":"cebpf4jnsgd1na2vs0mg"},{"bike_id":"3d1f91e4-0d82-4db7-9720-00bc6ccd190f","system_id":"levelo_inurba_marseille","lat":43.28259,"lon":5.350696,"is_reserved":false,"is_disabled":true,"rental_uris":{"android":"levelo://app?vid=3d1f91e4-0d82-4db7-9720-00bc6ccd190f","ios":"levelo://app?vid=3d1f91e4-0d82-4db7-9720-00bc6ccd190f"},"vehicle_type_id":"4","last_reported":1784475891,"current_range_meters":0,"station_id":"ce4bhbp2rcd13ifvqerg","pricing_plan_id":"cebpf4jnsgd1na2vs0mg"},{"bike_id":"3ce46721-3bce-4a5c-a8cf-0762eca1ee9b","system_id":"levelo_inurba_marseille","lat":43.32488,"lon":5.36564,"is_reserved":false,"is_disabled":false,"rental_uris":{"android":"levelo://app?vid=3ce46721-3bce-4a5c-a8cf-0762eca1ee9b","ios":"levelo://app?vid=3ce46721-3bce-4a5c-a8cf-0762eca1ee9b"},"vehicle_type_id":"4","last_reported":1784475891,"current_range_meters":37600,"station_id":"ce4bhs12rcd13ifvqhvg","pricing_plan_id":"cebpf4jnsgd1na2vs0mg"},{"bike_id":"cb83cb54-d7e2-4e4c-b01d-6084c5ef1f75","system_id":"levelo_inurba_marseille","lat":43.26678,"lon":5.38244,"is_reserved":false,"is_disabled":false,"rental_uris":{"android":"levelo://app?vid=cb83cb54-d7e2-4e4c-b01d-6084c5ef1f75","ios":"levelo://app?vid=cb83cb54-d7e2-4e4c-b01d-6084c5ef1f75"},"vehicle_type_id":"4","last_reported":1784475891,"current_range_meters":39200,"station_id":"ce4bhg92rcd13ifvqf90","pricing_plan_id":"cebpf4jnsgd1na2vs0mg"},{"bike_id":"bf94bbb1-0344-4a40-9e3a-5c4e2673d65c","system_id":"levelo_inurba_marseille","lat":43.29953,"lon":5.36525,"is_reserved":false,"is_disabled":false,"rental_uris":{"android":"levelo://app?vid=bf94bbb1-0344-4a40-9e3a-5c4e2673d65c","ios":"levelo://app?vid=bf94bbb1-0344-4a40-9e3a-5c4e2673d65c"},"vehicle_type_id":"4","last_reported":1784475891,"current_range_meters":31200,"station_id":"ce4bgm92rcd13ifvqbr0","pricing_plan_id":"cebpf4jnsgd1na2vs0mg"},{"bike_id":"e33e7e56-b1af-4e57-9514-4de84c42a5c6","system_id":"levelo_inurba_marseille","lat":43.2398,"lon":5.36608,"is_reserved":false,"is_disabled":true,"rental_uris":{"android":"levelo://app?vid=e33e7e56-b1af-4e57-9514-4de84c42a5c6","ios":"levelo://app?vid=e33e7e56-b1af-4e57-9514-4de84c42a5c6"},"vehicle_type_id":"4","last_reported":1784475891,"current_range_meters":21600,"station_id":"ce4bhi12rcd13ifvqfp0","pricing_plan_id":"cebpf4jnsgd1na2vs0mg"},{"bike_id":"ecdd5ecc-31fe-47f7-804a-8619df791b9e","system_id":"levelo_inurba_marseille","lat":43.21755,"lon":5.34597,"is_reserved":false,"is_disabled":false,"rental_uris":{"android":"levelo://app?vid=ecdd5ecc-31fe-47f7-804a-8619df791b9e","ios":"levelo://app?vid=ecdd5ecc-31fe-47f7-804a-8619df791b9e"},"vehicle_type_id":"4","last_reported":1784475891,"current_range_meters":39200,"station_id":"st_cvj6r9ubvosntc0bgbag","pricing_plan_id":"cebpf4jnsgd1na2vs0mg"},{"bike_id":"75ae76fc-4dd7-4feb-9ce7-6f0960be90fd","system_id":"levelo_inurba_marseille","lat":43.2828,"lon":5.35075,"is_reserved":false,"is_disabled":false,"rental_uris":{"android":"levelo://app?vid=75ae76fc-4dd7-4feb-9ce7-6f0960be90fd","ios":"levelo://app?vid=75ae76fc-4dd7-4feb-9ce7-6f0960be90fd"},"vehicle_type_id":"4","last_reported":1784475891,"current_range_meters":37600,"station_id":"ce4bhbp2rcd13ifvqerg","pricing_plan_id":"cebpf4jnsgd1na2vs0mg"},{"bike_id":"7604574c-06cb-407e-9e16-b7858411e1bc","system_id":"levelo_inurba_marseille","lat":43.27806,"lon":5.40719,"is_reserved":false,"is_disabled":true,"rental_uris":{"android":"levelo://app?vid=7604574c-06cb-407e-9e16-b7858411e1bc","ios":"levelo://app?vid=7604574c-06cb-407e-9e16-b7858411e1bc"},"vehicle_type_id":"4","last_reported":1784475891,"current_range_meters":16000,"station_id":"ce4bhnh2rcd13ifvqgtg","pricing_plan_id":"cebpf4jnsgd1na2vs0mg"},{"bike_id":"600d3649-4b6d-473c-a715-d27921e00684","system_id":"levelo_inurba_marseille","lat":43.23197,"lon":5.35542,"is_reserved":false,"is_disabled":false,"rental_uris":{"android":"levelo://app?vid=600d3649-4b6d-473c-a715-d27921e00684","ios":"levelo://app?vid=600d3649-4b6d-473c-a715-d27921e00684"},"vehicle_type_id":"4","last_reported":1784475891,"current_range_meters":18000,"station_id":"ce4bhu92rcd13ifvqi70","pricing_plan_id":"cebpf4jnsgd1na2vs0mg"},{"bike_id":"4f5d180b-7df1-4bec-b4f8-45c82ca3cddb","system_id":"levelo_inurba_marseille","lat":43.28467,"lon":5.48404,"is_reserved":false,"is_disabled":false,"rental_uris":{"android":"levelo://app?vid=4f5d180b-7df1-4bec-b4f8-45c82ca3cddb","ios":"levelo://app?vid=4f5d180b-7df1-4bec-b4f8-45c82ca3cddb"},"vehicle_type_id":"4","last_reported":1784475891,"current_range_meters":26800,"station_id":"st_d3svhcjqgbts73a3dn0g","pricing_plan_id":"cebpf4jnsgd1na2vs0mg"},{"bike_id":"8601b829-59f8-4eab-bab2-2f8e891d8617","system_id":"levelo_inurba_marseille","lat":43.254993,"lon":5.376487,"is_reserved":false,"is_disabled":false,"rental_uris":{"android":"levelo://app?vid=8601b829-59f8-4eab-bab2-2f8e891d8617","ios":"levelo://app?vid=8601b829-59f8-4eab-bab2-2f8e891d8617"},"vehicle_type_id":"4","last_reported":1784475891,"current_range_meters":20400,"station_id":"ce4bhh12rcd13ifvqff0","pricing_plan_id":"cebpf4jnsgd1na2vs0mg"},{"bike_id":"445d6829-72f8-4884-9fe9-8d073748bbfc","system_id":"levelo_inurba_marseille","lat":43.3013,"lon":5.38069,"is_reserved":false,"is_disabled":false,"rental_uris":{"android":"levelo://app?vid=445d6829-72f8-4884-9fe9-8d073748bbfc","ios":"levelo://app?vid=445d6829-72f8-4884-9fe9-8d073748bbfc"},"vehicle_type_id":"4","last_reported":1784475891,"current_range_meters":11200,"station_id":"ce4bgjp2rcd13ifvqbh0","pricing_plan_id":"cebpf4jnsgd1na2vs0mg"},{"bike_id":"c9f236f5-f177-4ff8-a12f-c5797eb31f16","system_id":"levelo_inurba_marseille","lat":43.28475,"lon":5.38567,"is_reserved":false,"is_disabled":true,"rental_uris":{"android":"levelo://app?vid=c9f236f5-f177-4ff8-a12f-c5797eb31f16","ios":"levelo://app?vid=c9f236f5-f177-4ff8-a12f-c5797eb31f16"},"vehicle_type_id":"4","last_reported":1784475891,"current_range_meters":1600,"station_id":"ce4bh8p2rcd13ifvqeb0","pricing_plan_id":"cebpf4jnsgd1na2vs0mg"},{"bike_id":"05060649-1159-4341-98f1-9ef049a36f15","system_id":"levelo_inurba_marseille","lat":43.239,"lon":5.37456,"is_reserved":false,"is_disabled":false,"rental_uris":{"android":"levelo://app?vid=05060649-1159-4341-98f1-9ef049a36f15","ios":"levelo://app?vid=05060649-1159-4341-98f1-9ef049a36f15"},"vehicle_type_id":"4","last_reported":1784475891,"current_range_meters":39200,"station_id":"st_d6sm7csbq4hs73f8fpjg","pricing_plan_id":"cebpf4jnsgd1na2vs0mg"},{"bike_id":"7831cc1a-fbf3-4173-99d9-80200bcfb81a","system_id":"levelo_inurba_marseille","lat":43.24678,"lon":5.38147,"is_reserved":false,"is_disabled":false,"rental_uris":{"android":"levelo://app?vid=7831cc1a-fbf3-4173-99d9-80200bcfb81a","ios":"levelo://app?vid=7831cc1a-fbf3-4173-99d9-80200bcfb81a"},"vehicle_type_id":"4","last_reported":1784475891,"current_range_meters":30800,"station_id":"ce4bhih2rcd13ifvqfr0","pricing_plan_id":"cebpf4jnsgd1na2vs0mg"},{"bike_id":"4223b944-0efc-4568-a1a5-2784bd868764","system_id":"levelo_inurba_marseille","lat":43.21742,"lon":5.34603,"is_reserved":false,"is_disabled":false,"rental_uris":{"android":"levelo://app?vid=4223b944-0efc-4568-a1a5-2784bd868764","ios":"levelo://app?vid=4223b944-0efc-4568-a1a5-2784bd868764"},"vehicle_type_id":"4","last_reported":1784475891,"current_range_meters":11600,"station_id":"st_cvj6r9ubvosntc0bgbag","pricing_plan_id":"cebpf4jnsgd1na2vs0mg"},{"bike_id":"9df5e7f3-1cb9-43a4-9683-68d4da00ac21","system_id":"levelo_inurba_marseille","lat":43.25224,"lon":5.38768,"is_reserved":false,"is_disabled":false,"rental_uris":{"android":"levelo://app?vid=9df5e7f3-1cb9-43a4-9683-68d4da00ac21","ios":"levelo://app?vid=9df5e7f3-1cb9-43a4-9683-68d4da00ac21"},"vehicle_type_id":"4","last_reported":1784475891,"current_range_meters":10800,"station_id":"","pricing_plan_id":"cebpf4jnsgd1na2vs0mg"},{"bike_id":"5450c789-a3b5-4b2b-b675-738dbe9d501d","system_id":"levelo_inurba_marseille","lat":43.26214,"lon":5.37442,"is_reserved":false,"is_disabled":false,"rental_uris":{"android":"levelo://app?vid=5450c789-a3b5-4b2b-b675-738dbe9d501d","ios":"levelo://app?vid=5450c789-a3b5-4b2b-b675-738dbe9d501d"},"vehicle_type_id":"4","last_reported":1784475891,"current_range_meters":38400,"station_id":"ce4bhgp2rcd13ifvqfc0","pricing_plan_id":"cebpf4jnsgd1na2vs0mg"},{"bike_id":"6dcae072-db9d-47d6-8753-8b202b7aab14","system_id":"levelo_inurba_marseille","lat":43.26396,"lon":5.41047,"is_reserved":false,"is_disabled":false,"rental_uris":{"android":"levelo://app?vid=6dcae072-db9d-47d6-8753-8b202b7aab14","ios":"levelo://app?vid=6dcae072-db9d-47d6-8753-8b202b7aab14"},"vehicle_type_id":"4","last_reported":1784475891,"current_range_meters":28000,"station_id":"st_d4e5ca6na9uc73bfl5fg","pricing_plan_id":"cebpf4jnsgd1na2vs0mg"},{"bike_id":"4deb96f7-77bc-4d03-b05f-9badc81e8841","system_id":"levelo_inurba_marseille","lat":43.225225,"lon":5.34832,"is_reserved":false,"is_disabled":false,"rental_uris":{"android":"levelo://app?vid=4deb96f7-77bc-4d03-b05f-9badc81e8841","ios":"levelo://app?vid=4deb96f7-77bc-4d03-b05f-9badc81e8841"},"vehicle_type_id":"4","last_reported":1784475891,"current_range_meters":15200,"station_id":"st_cvj5dfep6f1abm77gieg","pricing_plan_id":"cebpf4jnsgd1na2vs0mg"},{"bike_id":"659a68bc-86a6-4daf-9f1f-d3e7a32b91b8","system_id":"levelo_inurba_marseille","lat":43.2319,"lon":5.35552,"is_reserved":false,"is_disabled":false,"rental_uris":{"android":"levelo://app?vid=659a68bc-86a6-4daf-9f1f-d3e7a32b91b8","ios":"levelo://app?vid=659a68bc-86a6-4daf-9f1f-d3e7a32b91b8"},"vehicle_type_id":"4","last_reported":1784475891,"current_range_meters":36800,"station_id":"ce4bhu92rcd13ifvqi70","pricing_plan_id":"cebpf4jnsgd1na2vs0mg"},{"bike_id":"7234e80e-1b28-4ffc-8da2-7713855173d2","system_id":"levelo_inurba_marseille","lat":43.28622,"lon":5.35104,"is_reserved":false,"is_disabled":false,"rental_uris":{"android":"levelo://app?vid=7234e80e-1b28-4ffc-8da2-7713855173d2","ios":"levelo://app?vid=7234e80e-1b28-4ffc-8da2-7713855173d2"},"vehicle_type_id":"4","last_reported":1784475891,"current_range_meters":29600,"station_id":"ce4bhch2rcd13ifvqeug","pricing_plan_id":"cebpf4jnsgd1na2vs0mg"},{"bike_id":"3149bb10-8899-40f2-9fa5-1d3497f02be3","system_id":"levelo_inurba_marseille","lat":43.28993,"lon":5.35596,"is_reserved":false,"is_disabled":false,"rental_uris":{"android":"levelo://app?vid=3149bb10-8899-40f2-9fa5-1d3497f02be3","ios":"levelo://app?vid=3149bb10-8899-40f2-9fa5-1d3497f02be3"},"vehicle_type_id":"4","last_reported":1784475891,"current_range_meters":7200,"station_id":"ce4bhb92rcd13ifvqen0","pricing_plan_id":"cebpf4jnsgd1na2vs0mg"},{"bike_id":"72d34a5b-7c4d-42f7-920f-76776788aa05","system_id":"levelo_inurba_marseille","lat":43.29001,"lon":5.35604,"is_reserved":false,"is_disabled":false,"rental_uris":{"android":"levelo://app?vid=72d34a5b-7c4d-42f7-920f-76776788aa05","ios":"levelo://app?vid=72d34a5b-7c4d-42f7-920f-76776788aa05"},"vehicle_type_id":"4","last_reported":1784475891,"current_range_meters":22000,"station_id":"ce4bhb92rcd13ifvqen0","pricing_plan_id":"cebpf4jnsgd1na2vs0mg"},{"bike_id":"517d382f-2d43-47c9-8dd0-9ce631a04446","system_id":"levelo_inurba_marseille","lat":43.25509,"lon":5.37654,"is_reserved":false,"is_disabled":false,"rental_uris":{"android":"levelo://app?vid=517d382f-2d43-47c9-8dd0-9ce631a04446","ios":"levelo://app?vid=517d382f-2d43-47c9-8dd0-9ce631a04446"},"vehicle_type_id":"4","last_reported":1784475891,"current_range_meters":10800,"station_id":"ce4bhh12rcd13ifvqff0","pricing_plan_id":"cebpf4jnsgd1na2vs0mg"},{"bike_id":"d74108d3-d543-454b-97af-d06941c42c19","system_id":"levelo_inurba_marseille","lat":43.26944,"lon":5.38919,"is_reserved":false,"is_disabled":false,"rental_uris":{"android":"levelo://app?vid=d74108d3-d543-454b-97af-d06941c42c19","ios":"levelo://app?vid=d74108d3-d543-454b-97af-d06941c42c19"},"vehicle_type_id":"4","last_reported":1784475891,"current_range_meters":40000,"station_id":"ce4bhhh2rcd13ifvqfl0","pricing_plan_id":"cebpf4jnsgd1na2vs0mg"},{"bike_id":"0fd64a27-ac7d-4f5f-833c-0919e9d92b60","system_id":"levelo_inurba_marseille","lat":43.21197,"lon":5.35069,"is_reserved":false,"is_disabled":false,"rental_uris":{"android":"levelo://app?vid=0fd64a27-ac7d-4f5f-833c-0919e9d92b60","ios":"levelo://app?vid=0fd64a27-ac7d-4f5f-833c-0919e9d92b60"},"vehicle_type_id":"4","last_reported":1784475891,"current_range_meters":10000,"station_id":"st_cvj6sg6p6f1abm77japg","pricing_plan_id":"cebpf4jnsgd1na2vs0mg"},{"bike_id":"5a29e6f3-d0ba-49e7-af5d-f8e60471c1fc","system_id":"levelo_inurba_marseille","lat":43.27459,"lon":5.42474,"is_reserved":false,"is_disabled":true,"rental_uris":{"android":"levelo://app?vid=5a29e6f3-d0ba-49e7-af5d-f8e60471c1fc","ios":"levelo://app?vid=5a29e6f3-d0ba-49e7-af5d-f8e60471c1fc"},"vehicle_type_id":"4","last_reported":1784475891,"current_range_meters":2800,"station_id":"","pricing_plan_id":"cebpf4jnsgd1na2vs0mg"},{"bike_id":"6e2d7e69-8df1-40a6-90f7-e69b5c931535","system_id":"levelo_inurba_marseille","lat":43.229331,"lon":5.353792,"is_reserved":false,"is_disabled":false,"rental_uris":{"android":"levelo://app?vid=6e2d7e69-8df1-40a6-90f7-e69b5c931535","ios":"levelo://app?vid=6e2d7e69-8df1-40a6-90f7-e69b5c931535"},"vehicle_type_id":"4","last_reported":1784475891,"current_range_meters":22400,"station_id":"st_cvj5dfep6f1abm77gieg","pricing_plan_id":"cebpf4jnsgd1na2vs0mg"},{"bike_id":"d3b82640-d84c-42c7-8c57-b5a14f4fcab5","system_id":"levelo_inurba_marseille","lat":43.30884,"lon":5.37211,"is_reserved":false,"is_disabled":false,"rental_uris":{"android":"levelo://app?vid=d3b82640-d84c-42c7-8c57-b5a14f4fcab5","ios":"levelo://app?vid=d3b82640-d84c-42c7-8c57-b5a14f4fcab5"},"vehicle_type_id":"4","last_reported":1784475891,"current_range_meters":31200,"station_id":"ce4bguh2rcd13ifvqckg","pricing_plan_id":"cebpf4jnsgd1na2vs0mg"},{"bike_id":"caee839e-3dfa-4533-aac6-88c6d8bfd134","system_id":"levelo_inurba_marseille","lat":43.31133,"lon":5.46437,"is_reserved":false,"is_disabled":false,"rental_uris":{"android":"levelo://app?vid=caee839e-3dfa-4533-aac6-88c6d8bfd134","ios":"levelo://app?vid=caee839e-3dfa-4533-aac6-88c6d8bfd134"},"vehicle_type_id":"4","last_reported":1784475891,"current_range_meters":12400,"station_id":"","pricing_plan_id":"cebpf4jnsgd1na2vs0mg"},{"bike_id":"532fbce2-449e-43f6-90f1-86ad9a42900c","system_id":"levelo_inurba_marseille","lat":43.290426,"lon":5.359156,"is_reserved":false,"is_disabled":false,"rental_uris":{"android":"levelo://app?vid=532fbce2-449e-43f6-90f1-86ad9a42900c","ios":"levelo://app?vid=532fbce2-449e-43f6-90f1-86ad9a42900c"},"vehicle_type_id":"4","last_reported":1784475891,"current_range_meters":20400,"station_id":"ce4bhch2rcd13ifvqeug","pricing_plan_id":"cebpf4jnsgd1na2vs0mg"},{"bike_id":"8441b51a-06f0-4242-bdd8-8bb1509f3a6b","system_id":"levelo_inurba_marseille","lat":43.31895,"lon":5.3682,"is_reserved":false,"is_disabled":false,"rental_uris":{"android":"levelo://app?vid=8441b51a-06f0-4242-bdd8-8bb1509f3a6b","ios":"levelo://app?vid=8441b51a-06f0-4242-bdd8-8bb1509f3a6b"},"vehicle_type_id":"4","last_reported":1784475891,"current_range_meters":22800,"station_id":"st_d6o2h0d0559c73evc1b0","pricing_plan_id":"cebpf4jnsgd1na2vs0mg"},{"bike_id":"50aa6815-cb65-48bd-999a-1d2dfbbe24c7","system_id":"levelo_inurba_marseille","lat":43.28488,"lon":5.4839,"is_reserved":false,"is_disabled":false,"rental_uris":{"android":"levelo://app?vid=50aa6815-cb65-48bd-999a-1d2dfbbe24c7","ios":"levelo://app?vid=50aa6815-cb65-48bd-999a-1d2dfbbe24c7"},"vehicle_type_id":"4","last_reported":1784475891,"current_range_meters":37600,"station_id":"st_d3svhcjqgbts73a3dn0g","pricing_plan_id":"cebpf4jnsgd1na2vs0mg"},{"bike_id":"9bb0fd1c-c37f-4b19-9d13-0a17680fd6fb","system_id":"levelo_inurba_marseille","lat":43.32117,"lon":5.36773,"is_reserved":false,"is_disabled":false,"rental_uris":{"android":"levelo://app?vid=9bb0fd1c-c37f-4b19-9d13-0a17680fd6fb","ios":"levelo://app?vid=9bb0fd1c-c37f-4b19-9d13-0a17680fd6fb"},"vehicle_type_id":"4","last_reported":1784475891,"current_range_meters":22800,"station_id":"ce4bhrh2rcd13ifvqhug","pricing_plan_id":"cebpf4jnsgd1na2vs0mg"},{"bike_id":"db12e44a-408d-4c00-b7a0-6212d324c015","system_id":"levelo_inurba_marseille","lat":43.25608,"lon":5.40473,"is_reserved":false,"is_disabled":false,"rental_uris":{"android":"levelo://app?vid=db12e44a-408d-4c00-b7a0-6212d324c015","ios":"levelo://app?vid=db12e44a-408d-4c00-b7a0-6212d324c015"},"vehicle_type_id":"4","last_reported":1784475891,"current_range_meters":38000,"station_id":"","pricing_plan_id":"cebpf4jnsgd1na2vs0mg"},{"bike_id":"24edfabe-0d7c-415b-8cf6-84bf60d5e889","system_id":"levelo_inurba_marseille","lat":43.27015,"lon":5.42815,"is_reserved":false,"is_disabled":false,"rental_uris":{"android":"levelo://app?vid=24edfabe-0d7c-415b-8cf6-84bf60d5e889","ios":"levelo://app?vid=24edfabe-0d7c-415b-8cf6-84bf60d5e889"},"vehicle_type_id":"4","last_reported":1784475891,"current_range_meters":8800,"station_id":"","pricing_plan_id":"cebpf4jnsgd1na2vs0mg"},{"bike_id":"763f10cc-9e2c-4046-85bb-e7f7b0ab2b4b","system_id":"levelo_inurba_marseille","lat":43.30146,"lon":5.43111,"is_reserved":false,"is_disabled":false,"rental_uris":{"android":"levelo://app?vid=763f10cc-9e2c-4046-85bb-e7f7b0ab2b4b","ios":"levelo://app?vid=763f10cc-9e2c-4046-85bb-e7f7b0ab2b4b"},"vehicle_type_id":"4","last_reported":1784475891,"current_range_meters":27200,"station_id":"st_d3js3co5814s73ftftug","pricing_plan_id":"cebpf4jnsgd1na2vs0mg"},