{"last_updated":1701457533,"ttl":30,"version":"2.2","data":{"bikes":[{"bike_id":"3b70541b-c94b-40c4-a8af-6d33ea678dc9","system_id":"levelo_inurba_marseille","lat":43.312306,"lon":5.368473,"is_reserved":false,"is_disabled":false,"rental_uris":{"android":"levelo://app?vid=3b70541b-c94b-40c4-a8af-6d33ea678dc9","ios":"levelo://app?vid=3b70541b-c94b-40c4-a8af-6d33ea678dc9"},"vehicle_type_id":"4","last_reported":1701457533,"current_range_meters":0,"station_id":"ce4bgl92rcd13ifvqbq0","pricing_plan_id":"free"},{"bike_id":"1de362a8-2776-4707-a263-a71008539b1d","system_id":"levelo_inurba_marseille","lat":43.312239,"lon":5.368562,"is_reserved":false,"is_disabled":false,"rental_uris":{"android":"levelo://app?vid=1de362a8-2776-4707-a263-a71008539b1d","ios":"levelo://app?vid=1de362a8-2776-4707-a263-a71008539b1d"},"vehicle_type_id":"4","last_reported":1701457533,"current_range_meters":15200,"station_id":"ce4bgl92rcd13ifvqbq0","pricing_plan_id":"free"},{"bike_id":"97dc43d1-ed5f-4c58-a3a8-9ea74491c775","system_id":"levelo_inurba_marseille","lat":43.314811,"lon":5.373103,"is_reserved":false,"is_disabled":false,"rental_uris":{"android":"levelo://app?vid=97dc43d1-ed5f-4c58-a3a8-9ea74491c775","ios":"levelo://app?vid=97dc43d1-ed5f-4c58-a3a8-9ea74491c775"},"vehicle_type_id":"4","last_reported":1701457533,"current_range_meters":30400,"station_id":"ce4bgt12rcd13ifvqcd0","pricing_plan_id":"free"},{"bike_id":"26be723c-d596-4c86-9fc7-d8d1d4d58116","system_id":"levelo_inurba_marseille","lat":43.305706,"lon":5.365654,"is_reserved":false,"is_disabled":false,"rental_uris":{"android":"levelo://app?vid=26be723c-d596-4c86-9fc7-d8d1d4d58116","ios":"levelo://app?vid=26be723c-d596-4c86-9fc7-d8d1d4d58116"},"vehicle_type_id":"4","last_reported":1701457533,"current_range_meters":6000,"station_id":"ce4bgs12rcd13ifvqcag","pricing_plan_id":"free"},{"bike_id":"d7bb1849-7188-4caa-abef-bf0c62969df1","system_id":"levelo_inurba_marseille","lat":43.305989,"lon":5.37225,"is_reserved":false,"is_disabled":false,"rental_uris":{"android":"levelo://app?vid=d7bb1849-7188-4caa-abef-bf0c62969df1","ios":"levelo://app?vid=d7bb1849-7188-4caa-abef-bf0c62969df1"},"vehicle_type_id":"4","last_reported":1701457533,"current_range_meters":26400,"station_id":"ce4bgqh2rcd13ifvqc4g","pricing_plan_id":"free"},{"bike_id":"7bdbcfe9-924e-49e5-849f-fb7276f261aa","system_id":"levelo_inurba_marseille","lat":43.310567,"lon":5.377493,"is_reserved":false,"is_disabled":false,"rental_uris":{"android":"levelo://app?vid=7bdbcfe9-924e-49e5-849f-fb7276f261aa","ios":"levelo://app?vid=7bdbcfe9-924e-49e5-849f-fb7276f261aa"},"vehicle_type_id":"4","last_reported":1701457533,"current_range_meters":9600,"station_id":"","pricing_plan_id":"free"},{"bike_id":"f3e78d26-def7-4e22-ad54-42ee11372ec6","system_id":"levelo_inurba_marseille","lat":43.30439,"lon":5.36753,"is_reserved":false,"is_disabled":false,"rental_uris":{"android":"levelo://app?vid=f3e78d26-def7-4e22-ad54-42ee11372ec6","ios":"levelo://app?vid=f3e78d26-def7-4e22-ad54-42ee11372ec6"},"vehicle_type_id":"4","last_reported":1701457533,"current_range_meters":27200,"station_id":"","pricing_plan_id":"free"},{"bike_id":"1543f747-0cbd-4321-a65f-547a55674136","system_id":"levelo_inurba_marseille","lat":43.32037,"lon":5.37185,"is_reserved":false,"is_disabled":false,"rental_uris":{"android":"levelo://app?vid=1543f747-0cbd-4321-a65f-547a55674136","ios":"levelo://app?vid=1543f747-0cbd-4321-a65f-547a55674136"},"vehicle_type_id":"4","last_reported":1701457533,"current_range_meters":0,"station_id":"","pricing_plan_id":"free"},{"bike_id":"f427a2c3-6e4a-446b-ae2f-9be8aa7f4122","system_id":"levelo_inurba_marseille","lat":43.31719,"lon":5.376813,"is_reserved":false,"is_disabled":false,"rental_uris":{"android":"levelo://app?vid=f427a2c3-6e4a-446b-ae2f-9be8aa7f4122","ios":"levelo://app?vid=f427a2c3-6e4a-446b-ae2f-9be8aa7f4122"},"vehicle_type_id":"4","last_reported":1701457533,"current_range_meters":800,"station_id":"","pricing_plan_id":"free"},{"bike_id":"cfd3bb51-5657-4943-be4a-4ca2f802bb01","system_id":"levelo_inurba_marseille","lat":43.308127,"lon":5.376697,"is_reserved":false,"is_disabled":false,"rental_uris":{"android":"levelo://app?vid=cfd3bb51-5657-4943-be4a-4ca2f802bb01","ios":"levelo://app?vid=cfd3bb51-5657-4943-be4a-4ca2f802bb01"},"vehicle_type_id":"4","last_reported":1701457533,"current_range_meters":14000,"station_id":"ce4bgv92rcd13ifvqcq0","pricing_plan_id":"free"},{"bike_id":"e913f328-1e31-4c22-bd87-f809ea246de4","system_id":"levelo_inurba_marseille","lat":43.317168,"lon":5.376883,"is_reserved":false,"is_disabled":false,"rental_uris":{"android":"levelo://app?vid=e913f328-1e31-4c22-bd87-f809ea246de4","ios":"levelo://app?vid=e913f328-1e31-4c22-bd87-f809ea246de4"},"vehicle_type_id":"4","last_reported":1701457533,"current_range_meters":3200,"station_id":"","pricing_plan_id":"free"},{"bike_id":"6c5f8dd2-e248-42b6-a2a8-535c6f4aaaa3","system_id":"levelo_inurba_marseille","lat":43.317075,"lon":5.377367,"is_reserved":false,"is_disabled":false,"rental_uris":{"android":"levelo://app?vid=6c5f8dd2-e248-42b6-a2a8-535c6f4aaaa3","ios":"levelo://app?vid=6c5f8dd2-e248-42b6-a2a8-535c6f4aaaa3"},"vehicle_type_id":"4","last_reported":1701457533,"current_range_meters":24000,"station_id":"ce4bgth2rcd13ifvqch0","pricing_plan_id":"free"},{"bike_id":"bb803cde-80b8-4673-8473-73e1dc612ec3","system_id":"levelo_inurba_marseille","lat":43.31698,"lon":5.37751,"is_reserved":false,"is_disabled":false,"rental_uris":{"android":"levelo://app?vid=bb803cde-80b8-4673-8473-73e1dc612ec3","ios":"levelo://app?vid=bb803cde-80b8-4673-8473-73e1dc612ec3"},"vehicle_type_id":"4","last_reported":1701457533,"current_range_meters":2000,"station_id":"ce4bgth2rcd13ifvqch0","pricing_plan_id":"free"},{"bike_id":"fb6fd937-527b-4585-9058-0dfdc6436ac8","system_id":"levelo_inurba_marseille","lat":43.31351,"lon":5.37909,"is_reserved":false,"is_disabled":false,"rental_uris":{"android":"levelo://app?vid=fb6fd937-527b-4585-9058-0dfdc6436ac8","ios":"levelo://app?vid=fb6fd937-527b-4585-9058-0dfdc6436ac8"},"vehicle_type_id":"4","last_reported":1701457533,"current_range_meters":24400,"station_id":"","pricing_plan_id":"free"},{"bike_id":"47e238b5-1c84-42cb-9323-dfcf3a813b12","system_id":"levelo_inurba_marseille","lat":43.30459,"lon":5.37322,"is_reserved":false,"is_disabled":false,"rental_uris":{"android":"levelo://app?vid=47e238b5-1c84-42cb-9323-dfcf3a813b12","ios":"levelo://app?vid=47e238b5-1c84-42cb-9323-dfcf3a813b12"},"vehicle_type_id":"4","last_reported":1701457533,"current_range_meters":0,"station_id":"","pricing_plan_id":"free"},{"bike_id":"18a344d6-8ae9-4710-a9c5-571d4f308d41","system_id":"levelo_inurba_marseille","lat":43.303046,"lon":5.368981,"is_reserved":false,"is_disabled":false,"rental_uris":{"android":"levelo://app?vid=18a344d6-8ae9-4710-a9c5-571d4f308d41","ios":"levelo://app?vid=18a344d6-8ae9-4710-a9c5-571d4f308d41"},"vehicle_type_id":"4","last_reported":1701457533,"current_range_meters":27200,"station_id":"ce4bgqh2rcd13ifvqc5g","pricing_plan_id":"free"},{"bike_id":"f6511934-62a6-4534-8f58-ac2ec3dc32a7","system_id":"levelo_inurba_marseille","lat":43.308498,"lon":5.37913,"is_reserved":false,"is_disabled":false,"rental_uris":{"android":"levelo://app?vid=f6511934-62a6-4534-8f58-ac2ec3dc32a7","ios":"levelo://app?vid=f6511934-62a6-4534-8f58-ac2ec3dc32a7"},"vehicle_type_id":"4","last_reported":1701457533,"current_range_meters":5200,"station_id":"","pricing_plan_id":"free"},{"bike_id":"0757e526-1f4f-4f1e-b116-1c5261b1e7a3","system_id":"levelo_inurba_marseille","lat":43.301939,"lon":5.366286,"is_reserved":false,"is_disabled":false,"rental_uris":{"android":"levelo://app?vid=0757e526-1f4f-4f1e-b116-1c5261b1e7a3","ios":"levelo://app?vid=0757e526-1f4f-4f1e-b116-1c5261b1e7a3"},"vehicle_type_id":"4","last_reported":1701457533,"current_range_meters":7200,"station_id":"ce4bgrh2rcd13ifvqc8g","pricing_plan_id":"free"},{"bike_id":"a6475a8a-11b3-4af0-85f3-fd2cabbfdd22","system_id":"levelo_inurba_marseille","lat":43.324771,"lon":5.36557,"is_reserved":false,"is_disabled":false,"rental_uris":{"android":"levelo://app?vid=a6475a8a-11b3-4af0-85f3-fd2cabbfdd22","ios":"levelo://app?vid=a6475a8a-11b3-4af0-85f3-fd2cabbfdd22"},"vehicle_type_id":"4","last_reported":1701457533,"current_range_meters":21600,"station_id":"ce4bhs12rcd13ifvqhvg","pricing_plan_id":"free"},{"bike_id":"19dcde97-826d-4c77-b8cf-d90ba7f775b0","system_id":"levelo_inurba_marseille","lat":43.32488,"lon":5.365613,"is_reserved":false,"is_disabled":false,"rental_uris":{"android":"levelo://app?vid=19dcde97-826d-4c77-b8cf-d90ba7f775b0","ios":"levelo://app?vid=19dcde97-826d-4c77-b8cf-d90ba7f775b0"},"vehicle_type_id":"4","last_reported":1701457533,"current_range_meters":17600,"station_id":"ce4bhs12rcd13ifvqhvg","pricing_plan_id":"free"},{"bike_id":"2275aca5-3158-4c2c-8022-ca5d2714bc86","system_id":"levelo_inurba_marseille","lat":43.319997,"lon":5.381594,"is_reserved":false,"is_disabled":false,"rental_uris":{"android":"levelo://app?vid=2275aca5-3158-4c2c-8022-ca5d2714bc86","ios":"levelo://app?vid=2275aca5-3158-4c2c-8022-ca5d2714bc86"},"vehicle_type_id":"4","last_reported":1701457533,"current_range_meters":18000,"station_id":"ce4bhr12rcd13ifvqhpg","pricing_plan_id":"free"},{"bike_id":"7bc41cdc-e99b-49b8-9429-c15e80f21200","system_id":"levelo_inurba_marseille","lat":43.313571,"lon":5.384829,"is_reserved":false,"is_disabled":false,"rental_uris":{"android":"levelo://app?vid=7bc41cdc-e99b-49b8-9429-c15e80f21200","ios":"levelo://app?vid=7bc41cdc-e99b-49b8-9429-c15e80f21200"},"vehicle_type_id":"4","last_reported":1701457533,"current_range_meters":28400,"station_id":"ce4bgt92rcd13ifvqcf0","pricing_plan_id":"free"},{"bike_id":"9fdb7f97-586d-42d2-befd-15216ba2e422","system_id":"levelo_inurba_marseille","lat":43.31183,"lon":5.38523,"is_reserved":false,"is_disabled":false,"rental_uris":{"android":"levelo://app?vid=9fdb7f97-586d-42d2-befd-15216ba2e422","ios":"levelo://app?vid=9fdb7f97-586d-42d2-befd-15216ba2e422"},"vehicle_type_id":"4","last_reported":1701457533,"current_range_meters":4400,"station_id":"","pricing_plan_id":"free"},{"bike_id":"748d12ab-8e09-4ecd-b2d2-cbe0ea9624f6","system_id":"levelo_inurba_marseille","lat":43.29848,"lon":5.36759,"is_reserved":false,"is_disabled":false,"rental_uris":{"android":"levelo://app?vid=748d12ab-8e09-4ecd-b2d2-cbe0ea9624f6","ios":"levelo://app?vid=748d12ab-8e09-4ecd-b2d2-cbe0ea9624f6"},"vehicle_type_id":"4","last_reported":1701457533,"current_range_meters":9600,"station_id":"","pricing_plan_id":"free"},{"bike_id":"4a4eb50c-75bb-4e6b-9faa-8e5527e44948","system_id":"levelo_inurba_marseille","lat":43.311587,"lon":5.386747,"is_reserved":false,"is_disabled":false,"rental_uris":{"android":"levelo://app?vid=4a4eb50c-75bb-4e6b-9faa-8e5527e44948","ios":"levelo://app?vid=4a4eb50c-75bb-4e6b-9faa-8e5527e44948"},"vehicle_type_id":"4","last_reported":1701457533,"current_range_meters":7600,"station_id":"","pricing_plan_id":"free"},{"bike_id":"b7e0d70e-6c47-439d-92cb-98d6724cbc26","system_id":"levelo_inurba_marseille","lat":43.311722,"lon":5.387247,"is_reserved":false,"is_disabled":false,"rental_uris":{"android":"levelo://app?vid=b7e0d70e-6c47-439d-92cb-98d6724cbc26","ios":"levelo://app?vid=b7e0d70e-6c47-439d-92cb-98d6724cbc26"},"vehicle_type_id":"4","last_reported":1701457533,"current_range_meters":7200,"station_id":"ce4bgv12rcd13ifvqcp0","pricing_plan_id":"free"},{"bike_id":"0f824824-4a21-4e0b-a299-6bba5a23519a","system_id":"levelo_inurba_marseille","lat":43.311722,"lon":5.387247,"is_reserved":false,"is_disabled":false,"rental_uris":{"android":"levelo://app?vid=0f824824-4a21-4e0b-a299-6bba5a23519a","ios":"levelo://app?vid=0f824824-4a21-4e0b-a299-6bba5a23519a"},"vehicle_type_id":"4","last_reported":1701457533,"current_range_meters":15200,"station_id":"ce4bgv12rcd13ifvqcp0","pricing_plan_id":"free"},{"bike_id":"0fd38e9b-392b-4f50-aeba-cafdee3dfcb0","system_id":"levelo_inurba_marseille","lat":43.311672,"lon":5.387228,"is_reserved":false,"is_disabled":false,"rental_uris":{"android":"levelo://app?vid=0fd38e9b-392b-4f50-aeba-cafdee3dfcb0","ios":"levelo://app?vid=0fd38e9b-392b-4f50-aeba-cafdee3dfcb0"},"vehicle_type_id":"4","last_reported":1701457533,"current_range_meters":30000,"station_id":"ce4bgv12rcd13ifvqcp0","pricing_plan_id":"free"},{"bike_id":"e9c2a1db-09ba-458a-8020-96222a840fa4","system_id":"levelo_inurba_marseille","lat":43.322872,"lon":5.382756,"is_reserved":false,"is_disabled":false,"rental_uris":{"android":"levelo://app?vid=e9c2a1db-09ba-458a-8020-96222a840fa4","ios":"levelo://app?vid=e9c2a1db-09ba-458a-8020-96222a840fa4"},"vehicle_type_id":"4","last_reported":1701457533,"current_range_meters":25200,"station_id":"ce4bhr12rcd13ifvqhqg","pricing_plan_id":"free"},{"bike_id":"cf758772-2103-4c5d-9248-cfc6a1d99cd2","system_id":"levelo_inurba_marseille","lat":43.322872,"lon":5.382756,"is_reserved":false,"is_disabled":false,"rental_uris":{"android":"levelo://app?vid=cf758772-2103-4c5d-9248-cfc6a1d99cd2","ios":"levelo://app?vid=cf758772-2103-4c5d-9248-cfc6a1d99cd2"},"vehicle_type_id":"4","last_reported":1701457533,"current_range_meters":30000,"station_id":"ce4bhr12rcd13ifvqhqg","pricing_plan_id":"free"},{"bike_id":"65073be3-64d5-4947-9113-fd11101b78dd","system_id":"levelo_inurba_marseille","lat":43.322872,"lon":5.382756,"is_reserved":false,"is_disabled":false,"rental_uris":{"android":"levelo://app?vid=65073be3-64d5-4947-9113-fd11101b78dd","ios":"levelo://app?vid=65073be3-64d5-4947-9113-fd11101b78dd"},"vehicle_type_id":"4","last_reported":1701457533,"current_range_meters":12000,"station_id":"ce4bhr12rcd13ifvqhqg","pricing_plan_id":"free"},{"bike_id":"38b36a3d-7fa0-425f-884d-37f0109ceebf","system_id":"levelo_inurba_marseille","lat":43.32834,"lon":5.366922,"is_reserved":false,"is_disabled":false,"rental_uris":{"android":"levelo://app?vid=38b36a3d-7fa0-425f-884d-37f0109ceebf","ios":"levelo://app?vid=38b36a3d-7fa0-425f-884d-37f0109ceebf"},"vehicle_type_id":"4","last_reported":1701457533,"current_range_meters":16400,"station_id":"ce4bhs92rcd13ifvqi0g","pricing_plan_id":"free"},{"bike_id":"5983625d-69f5-485f-a399-daec2999c965","system_id":"levelo_inurba_marseille","lat":43.321507,"lon":5.385713,"is_reserved":false,"is_disabled":false,"rental_uris":{"android":"levelo://app?vid=5983625d-69f5-485f-a399-daec2999c965","ios":"levelo://app?vid=5983625d-69f5-485f-a399-daec2999c965"},"vehicle_type_id":"4","last_reported":1701457533,"current_range_meters":5600,"station_id":"","pricing_plan_id":"free"},{"bike_id":"d1b54edb-4179-477c-bd05-036dd4f393fe","system_id":"levelo_inurba_marseille","lat":43.29594,"lon":5.36826,"is_reserved":false,"is_disabled":false,"rental_uris":{"android":"levelo://app?vid=d1b54edb-4179-477c-bd05-036dd4f393fe","ios":"levelo://app?vid=d1b54edb-4179-477c-bd05-036dd4f393fe"},"vehicle_type_id":"4","last_reported":1701457533,"current_range_meters":5600,"station_id":"","pricing_plan_id":"free"},{"bike_id":"2ad4e93f-2c1f-4d9b-b179-6e45d74d4b9f","system_id":"levelo_inurba_marseille","lat":43.296129,"lon":5.370777,"is_reserved":false,"is_disabled":false,"rental_uris":{"android":"levelo://app?vid=2ad4e93f-2c1f-4d9b-b179-6e45d74d4b9f","ios":"levelo://app?vid=2ad4e93f-2c1f-4d9b-b179-6e45d74d4b9f"},"vehicle_type_id":"4","last_reported":1701457533,"current_range_meters":13600,"station_id":"ce4bgnh2rcd13ifvqc0g","pricing_plan_id":"free"},{"bike_id":"38976ae8-003e-41db-896e-f716caa83cda","system_id":"levelo_inurba_marseille","lat":43.299028,"lon":5.381509,"is_reserved":false,"is_disabled":false,"rental_uris":{"android":"levelo://app?vid=38976ae8-003e-41db-896e-f716caa83cda","ios":"levelo://app?vid=38976ae8-003e-41db-896e-f716caa83cda"},"vehicle_type_id":"4","last_reported":1701457533,"current_range_meters":30000,"station_id":"ce4bgj12rcd13ifvqbc0","pricing_plan_id":"free"},{"bike_id":"81c81765-686e-4ef8-8ba0-60d7276501a3","system_id":"levelo_inurba_marseille","lat":43.322722,"lon":5.386586,"is_reserved":false,"is_disabled":false,"rental_uris":{"android":"levelo://app?vid=81c81765-686e-4ef8-8ba0-60d7276501a3","ios":"levelo://app?vid=81c81765-686e-4ef8-8ba0-60d7276501a3"},"vehicle_type_id":"4","last_reported":1701457533,"current_range_meters":25200,"station_id":"","pricing_plan_id":"free"},{"bike_id":"99263d35-6055-4dd7-9f57-42166970aeba","system_id":"levelo_inurba_marseille","lat":43.317534,"lon":5.390222,"is_reserved":false,"is_disabled":false,"rental_uris":{"android":"levelo://app?vid=99263d35-6055-4dd7-9f57-42166970aeba","ios":"levelo://app?vid=99263d35-6055-4dd7-9f57-42166970aeba"},"vehicle_type_id":"4","last_reported":1701457533,"current_range_meters":31200,"station_id":"ce4bhqp2rcd13ifvqhng","pricing_plan_id":"free"},{"bike_id":"254f640a-9a59-45f9-8c38-02ab88b4a67f","system_id":"levelo_inurba_marseille","lat":43.295748,"lon":5.37522,"is_reserved":false,"is_disabled":false,"rental_uris":{"android":"levelo://app?vid=254f640a-9a59-45f9-8c38-02ab88b4a67f","ios":"levelo://app?vid=254f640a-9a59-45f9-8c38-02ab88b4a67f"},"vehicle_type_id":"4","last_reported":1701457533,"current_range_meters":18800,"station_id":"ce4bgh92rcd13ifvqb50","pricing_plan_id":"free"},{"bike_id":"a761b250-bad7-4e7a-bffc-ea57d5a98d23","system_id":"levelo_inurba_marseille","lat":43.304274,"lon":5.388873,"is_reserved":false,"is_disabled":false,"rental_uris":{"android":"levelo://app?vid=a761b250-bad7-4e7a-bffc-ea57d5a98d23","ios":"levelo://app?vid=a761b250-bad7-4e7a-bffc-ea57d5a98d23"},"vehicle_type_id":"4","last_reported":1701457533,"current_range_meters":15600,"station_id":"ce4bgk12rcd13ifvqbi0","pricing_plan_id":"free"},{"bike_id":"13ca97e5-82b5-4e06-8d78-e9793b7e594e","system_id":"levelo_inurba_marseille","lat":43.297142,"lon":5.379705,"is_reserved":false,"is_disabled":false,"rental_uris":{"android":"levelo://app?vid=13ca97e5-82b5-4e06-8d78-e9793b7e594e","ios":"levelo://app?vid=13ca97e5-82b5-4e06-8d78-e9793b7e594e"},"vehicle_type_id":"4","last_reported":1701457533,"current_range_meters":22000,"station_id":"","pricing_plan_id":"free"},{"bike_id":"755e934e-765c-43b9-af13-ba616667c7c1","system_id":"levelo_inurba_marseille","lat":43.299724,"lon":5.384848,"is_reserved":false,"is_disabled":false,"rental_uris":{"android":"levelo://app?vid=755e934e-765c-43b9-af13-ba616667c7c1","ios":"levelo://app?vid=755e934e-765c-43b9-af13-ba616667c7c1"},"vehicle_type_id":"4","last_reported":1701457533,"current_range_meters":26000,"station_id":"ce4bgj92rcd13ifvqbd0","pricing_plan_id":"free"},{"bike_id":"d8344b16-1c61-48cf-805d-5a3727790703","system_id":"levelo_inurba_marseille","lat":43.29967,"lon":5.38485,"is_reserved":false,"is_disabled":false,"rental_uris":{"android":"levelo://app?vid=d8344b16-1c61-48cf-805d-5a3727790703","ios":"levelo://app?vid=d8344b16-1c61-48cf-805d-5a3727790703"},"vehicle_type_id":"4","last_reported":1701457533,"current_range_meters":0,"station_id":"ce4bgj92rcd13ifvqbd0","pricing_plan_id":"free"},{"bike_id":"620bdd0c-4b8f-43d0-b60f-2849c3ef7a5b","system_id":"levelo_inurba_marseille","lat":43.295279,"lon":5.375048,"is_reserved":false,"is_disabled":false,"rental_uris":{"android":"levelo://app?vid=620bdd0c-4b8f-43d0-b60f-2849c3ef7a5b","ios":"levelo://app?vid=620bdd0c-4b8f-43d0-b60f-2849c3ef7a5b"},"vehicle_type_id":"4","last_reported":1701457533,"current_range_meters":12400,"station_id":"ce4bgkp2rcd13ifvqbmg","pricing_plan_id":"free"},{"bike_id":"866f39c7-0f98-4257-b537-95420ab27c06","system_id":"levelo_inurba_marseille","lat":43.29602,"lon":5.381084,"is_reserved":false,"is_disabled":false,"rental_uris":{"android":"levelo://app?vid=866f39c7-0f98-4257-b537-95420ab27c06","ios":"levelo://app?vid=866f39c7-0f98-4257-b537-95420ab27c06"},"vehicle_type_id":"4","last_reported":1701457533,"current_range_meters":12800,"station_id":"ce4bgl12rcd13ifvqbo0","pricing_plan_id":"free"},{"bike_id":"a93b6d94-ecb0-4b11-bed8-edbcf34a874b","system_id":"levelo_inurba_marseille","lat":43.292749,"lon":5.368402,"is_reserved":false,"is_disabled":false,"rental_uris":{"android":"levelo://app?vid=a93b6d94-ecb0-4b11-bed8-edbcf34a874b","ios":"levelo://app?vid=a93b6d94-ecb0-4b11-bed8-edbcf34a874b"},"vehicle_type_id":"4","last_reported":1701457533,"current_range_meters":20400,"station_id":"ce4bhbp2rcd13ifvqesg","pricing_plan_id":"free"},{"bike_id":"4d61b5bd-e108-418a-ac44-53ad562b9ae1","system_id":"levelo_inurba_marseille","lat":43.29271,"lon":5.36844,"is_reserved":false,"is_disabled":false,"rental_uris":{"android":"levelo://app?vid=4d61b5bd-e108-418a-ac44-53ad562b9ae1","ios":"levelo://app?vid=4d61b5bd-e108-418a-ac44-53ad562b9ae1"},"vehicle_type_id":"4","last_reported":1701457533,"current_range_meters":4800,"station_id":"ce4bhbp2rcd13ifvqesg","pricing_plan_id":"free"},{"bike_id":"8345f411-e40f-4e63-ab1b-4e3c50c5c5f7","system_id":"levelo_inurba_marseille","lat":43.2927,"lon":5.36836,"is_reserved":false,"is_disabled":false,"rental_uris":{"android":"levelo://app?vid=8345f411-e40f-4e63-ab1b-4e3c50c5c5f7","ios":"levelo://app?vid=8345f411-e40f-4e63-ab1b-4e3c50c5c5f7"},"vehicle_type_id":"4","last_reported":1701457533,"current_range_meters":4000,"station_id":"ce4bhbp2rcd13ifvqesg","pricing_plan_id":"free"},{"bike_id":"cc120222-ed53-4ca2-8134-524ca230d003","system_id":"levelo_inurba_marseille","lat":43.29269,"lon":5.36848,"is_reserved":false,"is_disabled":false,"rental_uris":{"android":"levelo://app?vid=cc120222-ed53-4ca2-8134-524ca230d003","ios":"levelo://app?vid=cc120222-ed53-4ca2-8134-524ca230d003"},"vehicle_type_id":"4","last_reported":1701457533,"current_range_meters":24000,"station_id":"ce4bhbp2rcd13ifvqesg","pricing_plan_id":"free"},{"bike_id":"eaa0e7e7-2390-47fa-909b-7b240952cbef","system_id":"levelo_inurba_marseille","lat":43.321895,"lon":5.39195,"is_reserved":false,"is_disabled":false,"rental_uris":{"android":"levelo://app?vid=eaa0e7e7-2390-47fa-909b-7b240952cbef","ios":"levelo://app?vid=eaa0e7e7-2390-47fa-909b-7b240952cbef"},"vehicle_type_id":"4","last_reported":1701457533,"current_range_meters":18400,"station_id":"","pricing_plan_id":"free"},{"bike_id":"49e75bf8-07b2-46ad-b675-97704a329ade","system_id":"levelo_inurba_marseille","lat":43.293009,"lon":5.374584,"is_reserved":false,"is_disabled":false,"rental_uris":{"android":"levelo://app?vid=49e75bf8-07b2-46ad-b675-97704a329ade","ios":"levelo://app?vid=49e75bf8-07b2-46ad-b675-97704a329ade"},"vehicle_type_id":"4","last_reported":1701457533,"current_range_meters":18400,"station_id":"ce4bgi12rcd13ifvqb70","pricing_plan_id":"free"},{"bike_id":"3ef08472-5155-4cf9-9aea-14763877c1e5","system_id":"levelo_inurba_marseille","lat":43.305994,"lon":5.393687,"is_reserved":false,"is_disabled":false,"rental_uris":{"android":"levelo://app?vid=3ef08472-5155-4cf9-9aea-14763877c1e5","ios":"levelo://app?vid=3ef08472-5155-4cf9-9aea-14763877c1e5"},"vehicle_type_id":"4","last_reported":1701457533,"current_range_meters":25200,"station_id":"ce4bh0p2rcd13ifvqd80","pricing_plan_id":"free"},{"bike_id":"a544d410-5955-4d77-99d4-1fda9deb4ebe","system_id":"levelo_inurba_marseille","lat":43.293009,"lon":5.374584,"is_reserved":false,"is_disabled":false,"rental_uris":{"android":"levelo://app?vid=a544d410-5955-4d77-99d4-1fda9deb4ebe","ios":"levelo://app?vid=a544d410-5955-4d77-99d4-1fda9deb4ebe"},"vehicle_type_id":"4","last_reported":1701457533,"current_range_meters":0,"station_id":"ce4bgi12rcd13ifvqb70","pricing_plan_id":"free"},{"bike_id":"6ab2952f-3813-4e80-b0ac-af4e0f9c3dff","system_id":"levelo_inurba_marseille","lat":43.302992,"lon":5.392136,"is_reserved":false,"is_disabled":false,"rental_uris":{"android":"levelo://app?vid=6ab2952f-3813-4e80-b0ac-af4e0f9c3dff","ios":"levelo://app?vid=6ab2952f-3813-4e80-b0ac-af4e0f9c3dff"},"vehicle_type_id":"4","last_reported":1701457533,"current_range_meters":17200,"station_id":"ce4bgkh2rcd13ifvqbk0","pricing_plan_id":"free"},{"bike_id":"cdace0ab-58b0-4116-b607-9535f66d1e99","system_id":"levelo_inurba_marseille","lat":43.300852,"lon":5.390859,"is_reserved":false,"is_disabled":false,"rental_uris":{"android":"levelo://app?vid=cdace0ab-58b0-4116-b607-9535f66d1e99","ios":"levelo://app?vid=cdace0ab-58b0-4116-b607-9535f66d1e99"},"vehicle_type_id":"4","last_reported":1701457533,"current_range_meters":21600,"station_id":"ce4bh192rcd13ifvqdb0","pricing_plan_id":"free"},{"bike_id":"ef706944-8a65-4e16-8780-fa092d6a6a54","system_id":"levelo_inurba_marseille","lat":43.30085,"lon":5.390856,"is_reserved":false,"is_disabled":false,"rental_uris":{"android":"levelo://app?vid=ef706944-8a65-4e16-8780-fa092d6a6a54","ios":"levelo://app?vid=ef706944-8a65-4e16-8780-fa092d6a6a54"},"vehicle_type_id":"4","last_reported":1701457533,"current_range_meters":24800,"station_id":"ce4bh192rcd13ifvqdb0","pricing_plan_id":"free"},{"bike_id":"3a7814d3-ae19-475a-b96b-9875b632eb91","system_id":"levelo_inurba_marseille","lat":43.292663,"lon":5.376389,"is_reserved":false,"is_disabled":false,"rental_uris":{"android":"levelo://app?vid=3a7814d3-ae19-475a-b96b-9875b632eb91","ios":"levelo://app?vid=3a7814d3-ae19-475a-b96b-9875b632eb91"},"vehicle_type_id":"4","last_reported":1701457533,"current_range_meters":23200,"station_id":"ce4bgi12rcd13ifvqb80","pricing_plan_id":"free"},{"bike_id":"06d1513d-ee10-4545-9cd1-ff388e31762e","system_id":"levelo_inurba_marseille","lat":43.298764,"lon":5.388973,"is_reserved":false,"is_disabled":false,"rental_uris":{"android":"levelo://app?vid=06d1513d-ee10-4545-9cd1-ff388e31762e","ios":"levelo://app?vid=06d1513d-ee10-4545-9cd1-ff388e31762e"},"vehicle_type_id":"4","last_reported":1701457533,"current_range_meters":3600,"station_id":"ce4bh392rcd13ifvqdl0","pricing_plan_id":"free"},{"bike_id":"4085160c-12de-43ea-a9df-97220504a800","system_id":"levelo_inurba_marseille","lat":43.291994,"lon":5.357886,"is_reserved":false,"is_disabled":false,"rental_uris":{"android":"levelo://app?vid=4085160c-12de-43ea-a9df-97220504a800","ios":"levelo://app?vid=4085160c-12de-43ea-a9df-97220504a800"},"vehicle_type_id":"4","last_reported":1701457533,"current_range_meters":15600,"station_id":"ce4bhb12rcd13ifvqel0","pricing_plan_id":"free"},{"bike_id":"f24c4fb5-1580-43c9-ae6f-8096f73e3410","system_id":"levelo_inurba_marseille","lat":43.309038,"lon":5.396546,"is_reserved":false,"is_disabled":false,"rental_uris":{"android":"levelo://app?vid=f24c4fb5-1580-43c9-ae6f-8096f73e3410","ios":"levelo://app?vid=f24c4fb5-1580-43c9-ae6f-8096f73e3410"},"vehicle_type_id":"4","last_reported":1701457533,"current_range_meters":30000,"station_id":"ce4bh012rcd13ifvqcv0","pricing_plan_id":"free"},{"bike_id":"7381d261-3796-4b5d-bf99-c914e53bf890","system_id":"levelo_inurba_marseille","lat":43.31328,"lon":5.39687,"is_reserved":false,"is_disabled":false,"rental_uris":{"android":"levelo://app?vid=7381d261-3796-4b5d-bf99-c914e53bf890","ios":"levelo://app?vid=7381d261-3796-4b5d-bf99-c914e53bf890"},"vehicle_type_id":"4","last_reported":1701457533,"current_range_meters":0,"station_id":"ce4bgvp2rcd13ifvqcu0","pricing_plan_id":"free"},{"bike_id":"5ef592fd-3b7c-477a-89cb-c74f4cfac1c8","system_id":"levelo_inurba_marseille","lat":43.313291,"lon":5.396838,"is_reserved":false,"is_disabled":false,"rental_uris":{"android":"levelo://app?vid=5ef592fd-3b7c-477a-89cb-c74f4cfac1c8","ios":"levelo://app?vid=5ef592fd-3b7c-477a-89cb-c74f4cfac1c8"},"vehicle_type_id":"4","last_reported":1701457533,"current_range_meters":14000,"station_id":"ce4bgvp2rcd13ifvqcu0","pricing_plan_id":"free"},{"bike_id":"33111e30-824c-4789-9bf1-5073c833d169","system_id":"levelo_inurba_marseille","lat":43.309047,"lon":5.396551,"is_reserved":false,"is_disabled":false,"rental_uris":{"android":"levelo://app?vid=33111e30-824c-4789-9bf1-5073c833d169","ios":"levelo://app?vid=33111e30-824c-4789-9bf1-5073c833d169"},"vehicle_type_id":"4","last_reported":1701457533,"current_range_meters":8000,"station_id":"ce4bh012rcd13ifvqcv0","pricing_plan_id":"free"},{"bike_id":"81606a1a-aadd-483b-b970-ddeb7fff015d","system_id":"levelo_inurba_marseille","lat":43.29529,"lon":5.385581,"is_reserved":false,"is_disabled":false,"rental_uris":{"android":"levelo://app?vid=81606a1a-aadd-483b-b970-ddeb7fff015d","ios":"levelo://app?vid=81606a1a-aadd-483b-b970-ddeb7fff015d"},"vehicle_type_id":"4","last_reported":1701457533,"current_range_meters":20400,"station_id":"ce4bgih2rcd13ifvqba0","pricing_plan_id":"free"},{"bike_id":"418392c2-1fe0-495a-9b77-6412cc8f22eb","system_id":"levelo_inurba_marseille","lat":43.294153,"lon":5.386305,"is_reserved":false,"is_disabled":false,"rental_uris":{"android":"levelo://app?vid=418392c2-1fe0-495a-9b77-6412cc8f22eb","ios":"levelo://app?vid=418392c2-1fe0-495a-9b77-6412cc8f22eb"},"vehicle_type_id":"4","last_reported":1701457533,"current_range_meters":0,"station_id":"ce4bh2h2rcd13ifvqdh0","pricing_plan_id":"free"},{"bike_id":"da31b4fa-3783-4000-805a-07639452f637","system_id":"levelo_inurba_marseille","lat":43.294153,"lon":5.386305,"is_reserved":false,"is_disabled":false,"rental_uris":{"android":"levelo://app?vid=da31b4fa-3783-4000-805a-07639452f637","ios":"levelo://app?vid=da31b4fa-3783-4000-805a-07639452f637"},"vehicle_type_id":"4","last_reported":1701457533,"current_range_meters":4000,"station_id":"ce4bh2h2rcd13ifvqdh0","pricing_plan_id":"free"},{"bike_id":"18374226-f679-4999-844d-ca58fe34d822","system_id":"levelo_inurba_marseille","lat":43.290327,"lon":5.375711,"is_reserved":false,"is_disabled":false,"rental_uris":{"android":"levelo://app?vid=18374226-f679-4999-844d-ca58fe34d822","ios":"levelo://app?vid=18374226-f679-4999-844d-ca58fe34d822"},"vehicle_type_id":"4","last_reported":1701457533,"current_range_meters":12400,"station_id":"ce4bh692rcd13ifvqe90","pricing_plan_id":"free"},{"bike_id":"e413c7df-efb7-4671-81d7-e39429837733","system_id":"levelo_inurba_marseille","lat":43.302592,"lon":5.396146,"is_reserved":false,"is_disabled":false,"rental_uris":{"android":"levelo://app?vid=e413c7df-efb7-4671-81d7-e39429837733","ios":"levelo://app?vid=e413c7df-efb7-4671-81d7-e39429837733"},"vehicle_type_id":"4","last_reported":1701457533,"current_range_meters":24000,"station_id":"","pricing_plan_id":"free"},{"bike_id":"2ceae5ed-4b8b-4bc0-b0ec-d969819a8328","system_id":"levelo_inurba_marseille","lat":43.292642,"lon":5.384254,"is_reserved":false,"is_disabled":false,"rental_uris":{"android":"levelo://app?vid=2ceae5ed-4b8b-4bc0-b0ec-d969819a8328","ios":"levelo://app?vid=2ceae5ed-4b8b-4bc0-b0ec-d969819a8328"},"vehicle_type_id":"4","last_reported":1701457533,"current_range_meters":23200,"station_id":"ce4bh692rcd13ifvqea0","pricing_plan_id":"free"},{"bike_id":"f1999047-2e54-4deb-a807-9c1f5186a138","system_id":"levelo_inurba_marseille","lat":43.292644,"lon":5.384257,"is_reserved":false,"is_disabled":false,"rental_uris":{"android":"levelo://app?vid=f1999047-2e54-4deb-a807-9c1f5186a138","ios":"levelo://app?vid=f1999047-2e54-4deb-a807-9c1f5186a138"},"vehicle_type_id":"4","last_reported":1701457533,"current_range_meters":10800,"station_id":"ce4bh692rcd13ifvqea0","pricing_plan_id":"free"},{"bike_id":"3c7450ca-9804-4eb4-bfed-a8f32ec88c20","system_id":"levelo_inurba_marseille","lat":43.292644,"lon":5.384257,"is_reserved":false,"is_disabled":false,"rental_uris":{"android":"levelo://app?vid=3c7450ca-9804-4eb4-bfed-a8f32ec88c20","ios":"levelo://app?vid=3c7450ca-9804-4eb4-bfed-a8f32ec88c20"},"vehicle_type_id":"4","last_reported":1701457533,"current_range_meters":30000,"station_id":"ce4bh692rcd13ifvqea0","pricing_plan_id":"free"},{"bike_id":"50f05aeb-41a8-4bfc-b89c-f7345f251cc3","system_id":"levelo_inurba_marseille","lat":43.292642,"lon":5.384254,"is_reserved":false,"is_disabled":false,"rental_uris":{"android":"levelo://app?vid=50f05aeb-41a8-4bfc-b89c-f7345f251cc3","ios":"levelo://app?vid=50f05aeb-41a8-4bfc-b89c-f7345f251cc3"},"vehicle_type_id":"4","last_reported":1701457533,"current_range_meters":6000,"station_id":"ce4bh692rcd13ifvqea0","pricing_plan_id":"free"},{"bike_id":"fd001bd8-e34f-47e7-b828-a7df40341238","system_id":"levelo_inurba_marseille","lat":43.292642,"lon":5.384254,"is_reserved":false,"is_disabled":false,"rental_uris":{"android":"levelo://app?vid=fd001bd8-e34f-47e7-b828-a7df40341238","ios":"levelo://app?vid=fd001bd8-e34f-47e7-b828-a7df40341238"},"vehicle_type_id":"4","last_reported":1701457533,"current_range_meters":12800,"station_id":"ce4bh692rcd13ifvqea0","pricing_plan_id":"free"},{"bike_id":"a5c17acf-1517-4b81-bc93-a4cc4e354497","system_id":"levelo_inurba_marseille","lat":43.292642,"lon":5.384254,"is_reserved":false,"is_disabled":false,"rental_uris":{"android":"levelo://app?vid=a5c17acf-1517-4b81-bc93-a4cc4e354497","ios":"levelo://app?vid=a5c17acf-1517-4b81-bc93-a4cc4e354497"},"vehicle_type_id":"4","last_reported":1701457533,"current_range_meters":29200,"station_id":"ce4bh692rcd13ifvqea0","pricing_plan_id":"free"},{"bike_id":"86c52503-1f63-431d-807a-0d5d9c2b5184","system_id":"levelo_inurba_marseille","lat":43.330442,"lon":5.389148,"is_reserved":false,"is_disabled":false,"rental_uris":{"android":"levelo://app?vid=86c52503-1f63-431d-807a-0d5d9c2b5184","ios":"levelo://app?vid=86c52503-1f63-431d-807a-0d5d9c2b5184"},"vehicle_type_id":"4","last_reported":1701457533,"current_range_meters":24800,"station_id":"ce4bhr92rcd13ifvqhrg","pricing_plan_id":"free"},{"bike_id":"90408da1-0be5-41e7-a5d4-4fb647bb89a6","system_id":"levelo_inurba_marseille","lat":43.3304,"lon":5.38928,"is_reserved":false,"is_disabled":false,"rental_uris":{"android":"levelo://app?vid=90408da1-0be5-41e7-a5d4-4fb647bb89a6","ios":"levelo://app?vid=90408da1-0be5-41e7-a5d4-4fb647bb89a6"},"vehicle_type_id":"4","last_reported":1701457533,"current_range_meters":22800,"station_id":"ce4bhr92rcd13ifvqhrg","pricing_plan_id":"free"},{"bike_id":"798b5fa8-f899-4480-b525-e819719a36c1","system_id":"levelo_inurba_marseille","lat":43.330442,"lon":5.389148,"is_reserved":false,"is_disabled":false,"rental_uris":{"android":"levelo://app?vid=798b5fa8-f899-4480-b525-e819719a36c1","ios":"levelo://app?vid=798b5fa8-f899-4480-b525-e819719a36c1"},"vehicle_type_id":"4","last_reported":1701457533,"current_range_meters":0,"station_id":"ce4bhr92rcd13ifvqhrg","pricing_plan_id":"free"},{"bike_id":"4a8f9804-2251-48b5-a350-038b056b5cf6","system_id":"levelo_inurba_marseille","lat":43.290995,"lon":5.381361,"is_reserved":false,"is_disabled":false,"rental_uris":{"android":"levelo://app?vid=4a8f9804-2251-48b5-a350-038b056b5cf6","ios":"levelo://app?vid=4a8f9804-2251-48b5-a350-038b056b5cf6"},"vehicle_type_id":"4","last_reported":1701457533,"current_range_meters":10400,"station_id":"ce4bh512rcd13ifvqe2g","pricing_plan_id":"free"},{"bike_id":"8c3defab-f96f-4418-b0ea-a5070099cdc6","system_id":"levelo_inurba_marseille","lat":43.290995,"lon":5.381361,"is_reserved":false,"is_disabled":false,"rental_uris":{"android":"levelo://app?vid=8c3defab-f96f-4418-b0ea-a5070099cdc6","ios":"levelo://app?vid=8c3defab-f96f-4418-b0ea-a5070099cdc6"},"vehicle_type_id":"4","last_reported":1701457533,"current_range_meters":28800,"station_id":"ce4bh512rcd13ifvqe2g","pricing_plan_id":"free"},{"bike_id":"85fe53d6-1792-4af7-a42e-db7e15924384","system_id":"levelo_inurba_marseille","lat":43.290995,"lon":5.381361,"is_reserved":false,"is_disabled":false,"rental_uris":{"android":"levelo://app?vid=85fe53d6-1792-4af7-a42e-db7e15924384","ios":"levelo://app?vid=85fe53d6-1792-4af7-a42e-db7e15924384"},"vehicle_type_id":"4","last_reported":1701457533,"current_range_meters":28400,"station_id":"ce4bh512rcd13ifvqe2g","pricing_plan_id":"free"},{"bike_id":"ce041bc7-c578-47ef-a803-2c05e1cec3a1","system_id":"levelo_inurba_marseille","lat":43.295169,"lon":5.390426,"is_reserved":false,"is_disabled":false,"rental_uris":{"android":"levelo://app?vid=ce041bc7-c578-47ef-a803-2c05e1cec3a1","ios":"levelo://app?vid=ce041bc7-c578-47ef-a803-2c05e1cec3a1"},"vehicle_type_id":"4","last_reported":1701457533,"current_range_meters":8800,"station_id":"ce4bh3p2rcd13ifvqdp0","pricing_plan_id":"free"},{"bike_id":"bbb77f23-6b76-4dd7-bbcc-7b0208ae261e","system_id":"levelo_inurba_marseille","lat":43.290995,"lon":5.381361,"is_reserved":false,"is_disabled":false,"rental_uris":{"android":"levelo://app?vid=bbb77f23-6b76-4dd7-bbcc-7b0208ae261e","ios":"levelo://app?vid=bbb77f23-6b76-4dd7-bbcc-7b0208ae261e"},"vehicle_type_id":"4","last_reported":1701457533,"current_range_meters":10800,"station_id":"ce4bh512rcd13ifvqe2g","pricing_plan_id":"free"},{"bike_id":"b050a7cf-16e8-4654-85e4-812cdd19bda9","system_id":"levelo_inurba_marseille","lat":43.290094,"lon":5.381264,"is_reserved":false,"is_disabled":false,"rental_uris":{"android":"levelo://app?vid=b050a7cf-16e8-4654-85e4-812cdd19bda9","ios":"levelo://app?vid=b050a7cf-16e8-4654-85e4-812cdd19bda9"},"vehicle_type_id":"4","last_reported":1701457533,"current_range_meters":15600,"station_id":"ce4bh4p2rcd13ifvqe1g","pricing_plan_id":"free"},{"bike_id":"fdc2fc9e-2f29-4c49-bcea-7a560d4446be","system_id":"levelo_inurba_marseille","lat":43.33052,"lon":5.3906,"is_reserved":false,"is_disabled":false,"rental_uris":{"android":"levelo://app?vid=fdc2fc9e-2f29-4c49-bcea-7a560d4446be","ios":"levelo://app?vid=fdc2fc9e-2f29-4c49-bcea-7a560d4446be"},"vehicle_type_id":"4","last_reported":1701457533,"current_range_meters":12000,"station_id":"","pricing_plan_id":"free"},{"bike_id":"f71bec80-1512-44cd-95d2-3d7fdee5df30","system_id":"levelo_inurba_marseille","lat":43.330504,"lon":5.390649,"is_reserved":false,"is_disabled":false,"rental_uris":{"android":"levelo://app?vid=f71bec80-1512-44cd-95d2-3d7fdee5df30","ios":"levelo://app?vid=f71bec80-1512-44cd-95d2-3d7fdee5df30"},"vehicle_type_id":"4","last_reported":1701457533,"current_range_meters":14800,"station_id":"","pricing_plan_id":"free"},{"bike_id":"40be2de3-fab9-4b51-8516-a9df31816384","system_id":"levelo_inurba_marseille","lat":43.290094,"lon":5.381264,"is_reserved":false,"is_disabled":false,"rental_uris":{"android":"levelo://app?vid=40be2de3-fab9-4b51-8516-a9df31816384","ios":"levelo://app?vid=40be2de3-fab9-4b51-8516-a9df31816384"},"vehicle_type_id":"4","last_reported":1701457533,"current_range_meters":28000,"station_id":"ce4bh4p2rcd13ifvqe1g","pricing_plan_id":"free"},{"bike_id":"4c6f3b1f-ec09-4e79-af01-92ab99bb9f86","system_id":"levelo_inurba_marseille","lat":43.3127,"lon":5.40171,"is_reserved":false,"is_disabled":false,"rental_uris":{"android":"levelo://app?vid=4c6f3b1f-ec09-4e79-af01-92ab99bb9f86","ios":"levelo://app?vid=4c6f3b1f-ec09-4e79-af01-92ab99bb9f86"},"vehicle_type_id":"4","last_reported":1701457533,"current_range_meters":23600,"station_id":"ce4bh092rcd13ifvqd30","pricing_plan_id":"free"},{"bike_id":"4d2a9e0f-ee97-450b-a787-b1f222dcb3fa","system_id":"levelo_inurba_marseille","lat":43.33751,"lon":5.37436,"is_reserved":false,"is_disabled":false,"rental_uris":{"android":"levelo://app?vid=4d2a9e0f-ee97-450b-a787-b1f222dcb3fa","ios":"levelo://app?vid=4d2a9e0f-ee97-450b-a787-b1f222dcb3fa"},"vehicle_type_id":"4","last_reported":1701457533,"current_range_meters":28400,"station_id":"","pricing_plan_id":"free"},{"bike_id":"38025600-443e-43a8-8800-d7d7bfaaeb0d","system_id":"levelo_inurba_marseille","lat":43.31268,"lon":5.40178,"is_reserved":false,"is_disabled":false,"rental_uris":{"android":"levelo://app?vid=38025600-443e-43a8-8800-d7d7bfaaeb0d","ios":"levelo://app?vid=38025600-443e-43a8-8800-d7d7bfaaeb0d"},"vehicle_type_id":"4","last_reported":1701457533,"current_range_meters":4800,"station_id":"ce4bh092rcd13ifvqd30","pricing_plan_id":"free"},{"bike_id":"b4c1aa2e-4d41-4d24-b2bb-d7385c0eb780","system_id":"levelo_inurba_marseille","lat":43.309371,"lon":5.401449,"is_reserved":false,"is_disabled":false,"rental_uris":{"android":"levelo://app?vid=b4c1aa2e-4d41-4d24-b2bb-d7385c0eb780","ios":"levelo://app?vid=b4c1aa2e-4d41-4d24-b2bb-d7385c0eb780"},"vehicle_type_id":"4","last_reported":1701457533,"current_range_meters":30400,"station_id":"ce4bgvp2rcd13ifvqct0","pricing_plan_id":"free"},{"bike_id":"920728c3-d140-4eb7-9410-cfa127aa414b","system_id":"levelo_inurba_marseille","lat":43.33752,"lon":5.37445,"is_reserved":false,"is_disabled":false,"rental_uris":{"android":"levelo://app?vid=920728c3-d140-4eb7-9410-cfa127aa414b","ios":"levelo://app?vid=920728c3-d140-4eb7-9410-cfa127aa414b"},"vehicle_type_id":"4","last_reported":1701457533,"current_range_meters":28800,"station_id":"","pricing_plan_id":"free"},{"bike_id":"70993578-fef2-4786-a36d-9760dfc6025a","system_id":"levelo_inurba_marseille","lat":43.309371,"lon":5.401449,"is_reserved":false,"is_disabled":false,"rental_uris":{"android":"levelo://app?vid=70993578-fef2-4786-a36d-9760dfc6025a","ios":"levelo://app?vid=70993578-fef2-4786-a36d-9760dfc6025a"},"vehicle_type_id":"4","last_reported":1701457533,"current_range_meters":15200,"station_id":"ce4bgvp2rcd13ifvqct0","pricing_plan_id":"free"},{"bike_id":"1cb3288c-2360-4421-bee9-817939cff32b","system_id":"levelo_inurba_marseille","lat":43.337532,"lon":5.374609,"is_reserved":false,"is_disabled":false,"rental_uris":{"android":"levelo://app?vid=1cb3288c-2360-4421-bee9-817939cff32b","ios":"levelo://app?vid=1cb3288c-2360-4421-bee9-817939cff32b"},"vehicle_type_id":"4","last_reported":1701457533,"current_range_meters":31200,"station_id":"","pricing_plan_id":"free"},{"bike_id":"94907f9a-2d73-4196-93bb-c5df451ea335","system_id":"levelo_inurba_marseille","lat":43.33761,"lon":5.37432,"is_reserved":false,"is_disabled":false,"rental_uris":{"android":"levelo://app?vid=94907f9a-2d73-4196-93bb-c5df451ea335","ios":"levelo://app?vid=94907f9a-2d73-4196-93bb-c5df451ea335"},"vehicle_type_id":"4","last_reported":1701457533,"current_range_meters":22800,"station_id":"","pricing_plan_id":"free"},{"bike_id":"01bdb905-19d1-43c9-bdb1-9718f69f28c6","system_id":"levelo_inurba_marseille","lat":43.33759,"lon":5.37449,"is_reserved":false,"is_disabled":false,"rental_uris":{"android":"levelo://app?vid=01bdb905-19d1-43c9-bdb1-9718f69f28c6","ios":"levelo://app?vid=01bdb905-19d1-43c9-bdb1-9718f69f28c6"},"vehicle_type_id":"4","last_reported":1701457533,"current_range_meters":14400,"station_id":"","pricing_plan_id":"free"},{"bike_id":"35263cec-498a-4bbc-94ce-fa15f33429a5","system_id":"levelo_inurba_marseille","lat":43.306412,"lon":5.401035,"is_reserved":false,"is_disabled":false,"rental_uris":{"android":"levelo://app?vid=35263cec-498a-4bbc-94ce-fa15f33429a5","ios":"levelo://app?vid=35263cec-498a-4bbc-94ce-fa15f33429a5"},"vehicle_type_id":"4","last_reported":1701457533,"current_range_meters":6800,"station_id":"ce4bh112rcd13ifvqda0","pricing_plan_id":"free"},{"bike_id":"6d583b2d-dd94-484f-bd23-31135b1cc0ef","system_id":"levelo_inurba_marseille","lat":43.33775,"lon":5.37473,"is_reserved":false,"is_disabled":false,"rental_uris":{"android":"levelo://app?vid=6d583b2d-dd94-484f-bd23-31135b1cc0ef","ios":"levelo://app?vid=6d583b2d-dd94-484f-bd23-31135b1cc0ef"},"vehicle_type_id":"4","last_reported":1701457533,"current_range_meters":25600,"station_id":"","pricing_plan_id":"free"},{"bike_id":"6e7e7930-c941-4aa6-bdfb-06048d0dcabb","system_id":"levelo_inurba_marseille","lat":43.28727,"lon":5.36078,"is_reserved":false,"is_disabled":false,"rental_uris":{"android":"levelo://app?vid=6e7e7930-c941-4aa6-bdfb-06048d0dcabb","ios":"levelo://app?vid=6e7e7930-c941-4aa6-bdfb-06048d0dcabb"},"vehicle_type_id":"4","last_reported":1701457533,"current_range_meters":29600,"station_id":"cki0cbj6b192h4jlfktg","pricing_plan_id":"free"},{"bike_id":"242bd32d-9354-49ba-a51b-4bcf610a51a9","system_id":"levelo_inurba_marseille","lat":43.286591,"lon":5.363346,"is_reserved":false,"is_disabled":false,"rental_uris":{"android":"levelo://app?vid=242bd32d-9354-49ba-a51b-4bcf610a51a9","ios":"levelo://app?vid=242bd32d-9354-49ba-a51b-4bcf610a51a9"},"vehicle_type_id":"4","last_reported":1701457533,"current_range_meters":20000,"station_id":"ce4bhah2rcd13ifvqej0","pricing_plan_id":"free"},{"bike_id":"cbe68fb9-b381-463c-80f1-3567607ecb9b","system_id":"levelo_inurba_marseille","lat":43.298681,"lon":5.397225,"is_reserved":false,"is_disabled":false,"rental_uris":{"android":"levelo://app?vid=cbe68fb9-b381-463c-80f1-3567607ecb9b","ios":"levelo://app?vid=cbe68fb9-b381-463c-80f1-3567607ecb9b"},"vehicle_type_id":"4","last_reported":1701457533,"current_range_meters":17600,"station_id":"ce4bh0h2rcd13ifvqd50","pricing_plan_id":"free"},{"bike_id":"de994d74-9236-464c-bdd7-754cccf93203","system_id":"levelo_inurba_marseille","lat":43.298681,"lon":5.397225,"is_reserved":false,"is_disabled":false,"rental_uris":{"android":"levelo://app?vid=de994d74-9236-464c-bdd7-754cccf93203","ios":"levelo://app?vid=de994d74-9236-464c-bdd7-754cccf93203"},"vehicle_type_id":"4","last_reported":1701457533,"current_range_meters":4400,"station_id":"ce4bh0h2rcd13ifvqd50","pricing_plan_id":"free"},{"bike_id":"3c0a753d-1f58-4601-b7e3-26a10723a306","system_id":"levelo_inurba_marseille","lat":43.302759,"lon":5.400793,"is_reserved":false,"is_disabled":false,"rental_uris":{"android":"levelo://app?vid=3c0a753d-1f58-4601-b7e3-26a10723a306","ios":"levelo://app?vid=3c0a753d-1f58-4601-b7e3-26a10723a306"},"vehicle_type_id":"4","last_reported":1701457533,"current_range_meters":28000,"station_id":"ce4bgvh2rcd13ifvqcs0","pricing_plan_id":"free"},{"bike_id":"6442bf11-0d78-45bd-80b0-ca978aef00e7","system_id":"levelo_inurba_marseille","lat":43.29043,"lon":5.38641,"is_reserved":false,"is_disabled":false,"rental_uris":{"android":"levelo://app?vid=6442bf11-0d78-45bd-80b0-ca978aef00e7","ios":"levelo://app?vid=6442bf11-0d78-45bd-80b0-ca978aef00e7"},"vehicle_type_id":"4","last_reported":1701457533,"current_range_meters":12800,"station_id":"ce4bh4p2rcd13ifvqe0g","pricing_plan_id":"free"},{"bike_id":"962dd3c4-8e9a-4101-b3aa-3266aba7ccd4","system_id":"levelo_inurba_marseille","lat":43.302759,"lon":5.400793,"is_reserved":false,"is_disabled":false,"rental_uris":{"android":"levelo://app?vid=962dd3c4-8e9a-4101-b3aa-3266aba7ccd4","ios":"levelo://app?vid=962dd3c4-8e9a-4101-b3aa-3266aba7ccd4"},"vehicle_type_id":"4","last_reported":1701457533,"current_range_meters":15200,"station_id":"ce4bgvh2rcd13ifvqcs0","pricing_plan_id":"free"},{"bike_id":"9a71aaaa-0088-44f8-8389-19b1d8955f51","system_id":"levelo_inurba_marseille","lat":43.302759,"lon":5.400793,"is_reserved":false,"is_disabled":false,"rental_uris":{"android":"levelo://app?vid=9a71aaaa-0088-44f8-8389-19b1d8955f51","ios":"levelo://app?vid=9a71aaaa-0088-44f8-8389-19b1d8955f51"},"vehicle_type_id":"4","last_reported":1701457533,"current_range_meters":10400,"station_id":"ce4bgvh2rcd13ifvqcs0","pricing_plan_id":"free"},{"bike_id":"efcdddd5-6186-455b-b690-789018c4fc46","system_id":"levelo_inurba_marseille","lat":43.302759,"lon":5.400793,"is_reserved":false,"is_disabled":false,"rental_uris":{"android":"levelo://app?vid=efcdddd5-6186-455b-b690-789018c4fc46","ios":"levelo://app?vid=efcdddd5-6186-455b-b690-789018c4fc46"},"vehicle_type_id":"4","last_reported":1701457533,"current_range_meters":400,"station_id":"ce4bgvh2rcd13ifvqcs0","pricing_plan_id":"free"},{"bike_id":"6ec219dd-e2f0-43e6-97be-b9ed2327cf64","system_id":"levelo_inurba_marseille","lat":43.286039,"lon":5.370679,"is_reserved":false,"is_disabled":false,"rental_uris":{"android":"levelo://app?vid=6ec219dd-e2f0-43e6-97be-b9ed2327cf64","ios":"levelo://app?vid=6ec219dd-e2f0-43e6-97be-b9ed2327cf64"},"vehicle_type_id":"4","last_reported":1701457533,"current_range_meters":29600,"station_id":"ce4bht12rcd13ifvqi60","pricing_plan_id":"free"},{"bike_id":"4c8e8fd9-3f28-4aa2-967a-f86443380aa0","system_id":"levelo_inurba_marseille","lat":43.286039,"lon":5.370681,"is_reserved":false,"is_disabled":false,"rental_uris":{"android":"levelo://app?vid=4c8e8fd9-3f28-4aa2-967a-f86443380aa0","ios":"levelo://app?vid=4c8e8fd9-3f28-4aa2-967a-f86443380aa0"},"vehicle_type_id":"4","last_reported":1701457533,"current_range_meters":3600,"station_id":"ce4bht12rcd13ifvqi60","pricing_plan_id":"free"},{"bike_id":"51e80092-f709-463a-96a2-8b25587b914d","system_id":"levelo_inurba_marseille","lat":43.286039,"lon":5.370681,"is_reserved":false,"is_disabled":false,"rental_uris":{"android":"levelo://app?vid=51e80092-f709-463a-96a2-8b25587b914d","ios":"levelo://app?vid=51e80092-f709-463a-96a2-8b25587b914d"},"vehicle_type_id":"4","last_reported":1701457533,"current_range_meters":27600,"station_id":"ce4bht12rcd13ifvqi60","pricing_plan_id":"free"},{"bike_id":"ab0a5040-9b0b-456e-9bc8-b22c631ba1b2","system_id":"levelo_inurba_marseille","lat":43.2881,"lon":5.35232,"is_reserved":false,"is_disabled":false,"rental_uris":{"android":"levelo://app?vid=ab0a5040-9b0b-456e-9bc8-b22c631ba1b2","ios":"levelo://app?vid=ab0a5040-9b0b-456e-9bc8-b22c631ba1b2"},"vehicle_type_id":"4","last_reported":1701457533,"current_range_meters":0,"station_id":"","pricing_plan_id":"free"},{"bike_id":"be7d6878-3e4c-4b3d-90e4-469108231af8","system_id":"levelo_inurba_marseille","lat":43.316523,"lon":5.404367,"is_reserved":false,"is_disabled":false,"rental_uris":{"android":"levelo://app?vid=be7d6878-3e4c-4b3d-90e4-469108231af8","ios":"levelo://app?vid=be7d6878-3e4c-4b3d-90e4-469108231af8"},"vehicle_type_id":"4","last_reported":1701457533,"current_range_meters":17600,"station_id":"ce4bh012rcd13ifvqd00","pricing_plan_id":"free"},{"bike_id":"10f40453-62a6-4f06-aa31-b9adc3700c56","system_id":"levelo_inurba_marseille","lat":43.316523,"lon":5.404367,"is_reserved":false,"is_disabled":false,"rental_uris":{"android":"levelo://app?vid=10f40453-62a6-4f06-aa31-b9adc3700c56","ios":"levelo://app?vid=10f40453-62a6-4f06-aa31-b9adc3700c56"},"vehicle_type_id":"4","last_reported":1701457533,"current_range_meters":4000,"station_id":"ce4bh012rcd13ifvqd00","pricing_plan_id":"free"},{"bike_id":"23aa48d9-ab37-4f7c-8484-2fa8d1c10775","system_id":"levelo_inurba_marseille","lat":43.316517,"lon":5.404375,"is_reserved":false,"is_disabled":false,"rental_uris":{"android":"levelo://app?vid=23aa48d9-ab37-4f7c-8484-2fa8d1c10775","ios":"levelo://app?vid=23aa48d9-ab37-4f7c-8484-2fa8d1c10775"},"vehicle_type_id":"4","last_reported":1701457533,"current_range_meters":15200,"station_id":"ce4bh012rcd13ifvqd00","pricing_plan_id":"free"},{"bike_id":"f7f7f893-f5ba-44df-8196-ba99f6d0e93d","system_id":"levelo_inurba_marseille","lat":43.284538,"lon":5.358657,"is_reserved":false,"is_disabled":false,"rental_uris":{"android":"levelo://app?vid=f7f7f893-f5ba-44df-8196-ba99f6d0e93d","ios":"levelo://app?vid=f7f7f893-f5ba-44df-8196-ba99f6d0e93d"},"vehicle_type_id":"4","last_reported":1701457533,"current_range_meters":0,"station_id":"ce4bhah2rcd13ifvqei0","pricing_plan_id":"free"},{"bike_id":"2a48f1d6-904d-4daa-abd4-c28bd92a059d","system_id":"levelo_inurba_marseille","lat":43.284538,"lon":5.358657,"is_reserved":false,"is_disabled":false,"rental_uris":{"android":"levelo://app?vid=2a48f1d6-904d-4daa-abd4-c28bd92a059d","ios":"levelo://app?vid=2a48f1d6-904d-4daa-abd4-c28bd92a059d"},"vehicle_type_id":"4","last_reported":1701457533,"current_range_meters":19200,"station_id":"ce4bhah2rcd13ifvqei0","pricing_plan_id":"free"},{"bike_id":"c0b4d4d3-e8e3-48e6-9cc4-fd6d21484253","system_id":"levelo_inurba_marseille","lat":43.283998,"lon":5.375062,"is_reserved":false,"is_disabled":false,"rental_uris":{"android":"levelo://app?vid=c0b4d4d3-e8e3-48e6-9cc4-fd6d21484253","ios":"levelo://app?vid=c0b4d4d3-e8e3-48e6-9cc4-fd6d21484253"},"vehicle_type_id":"4","last_reported":1701457533,"current_range_meters":16800,"station_id":"ce4bh412rcd13ifvqds0","pricing_plan_id":"free"},{"bike_id":"bb5809ba-f621-43e5-a539-23481f4b207f","system_id":"levelo_inurba_marseille","lat":43.286595,"lon":5.386795,"is_reserved":false,"is_disabled":false,"rental_uris":{"android":"levelo://app?vid=bb5809ba-f621-43e5-a539-23481f4b207f","ios":"levelo://app?vid=bb5809ba-f621-43e5-a539-23481f4b207f"},"vehicle_type_id":"4","last_reported":1701457533,"current_range_meters":25600,"station_id":"ce4bh492rcd13ifvqdug","pricing_plan_id":"free"},{"bike_id":"c16b41cd-e134-42dd-8710-bca978cbc965","system_id":"levelo_inurba_marseille","lat":43.286595,"lon":5.386795,"is_reserved":false,"is_disabled":false,"rental_uris":{"android":"levelo://app?vid=c16b41cd-e134-42dd-8710-bca978cbc965","ios":"levelo://app?vid=c16b41cd-e134-42dd-8710-bca978cbc965"},"vehicle_type_id":"4","last_reported":1701457533,"current_range_meters":29600,"station_id":"ce4bh492rcd13ifvqdug","pricing_plan_id":"free"},{"bike_id":"54328ae2-d175-4455-8539-0920784dc633","system_id":"levelo_inurba_marseille","lat":43.319179,"lon":5.407725,"is_reserved":false,"is_disabled":false,"rental_uris":{"android":"levelo://app?vid=54328ae2-d175-4455-8539-0920784dc633","ios":"levelo://app?vid=54328ae2-d175-4455-8539-0920784dc633"},"vehicle_type_id":"4","last_reported":1701457533,"current_range_meters":25600,"station_id":"ce4bhq12rcd13ifvqhig","pricing_plan_id":"free"},{"bike_id":"f99fc4d8-709b-4cee-a32c-2cdd6f1e8b1e","system_id":"levelo_inurba_marseille","lat":43.337168,"lon":5.391825,"is_reserved":false,"is_disabled":false,"rental_uris":{"android":"levelo://app?vid=f99fc4d8-709b-4cee-a32c-2cdd6f1e8b1e","ios":"levelo://app?vid=f99fc4d8-709b-4cee-a32c-2cdd6f1e8b1e"},"vehicle_type_id":"4","last_reported":1701457533,"current_range_meters":26000,"station_id":"ce4bhr92rcd13ifvqhsg","pricing_plan_id":"free"},{"bike_id":"7f458fab-3a0c-4609-8310-733ff5bbba57","system_id":"levelo_inurba_marseille","lat":43.33717,"lon":5.391857,"is_reserved":false,"is_disabled":false,"rental_uris":{"android":"levelo://app?vid=7f458fab-3a0c-4609-8310-733ff5bbba57","ios":"levelo://app?vid=7f458fab-3a0c-4609-8310-733ff5bbba57"},"vehicle_type_id":"4","last_reported":1701457533,"current_range_meters":30000,"station_id":"ce4bhr92rcd13ifvqhsg","pricing_plan_id":"free"},{"bike_id":"f63bb93d-4817-4c0f-96a3-658f9c32f5c0","system_id":"levelo_inurba_marseille","lat":43.288501,"lon":5.393087,"is_reserved":false,"is_disabled":false,"rental_uris":{"android":"levelo://app?vid=f63bb93d-4817-4c0f-96a3-658f9c32f5c0","ios":"levelo://app?vid=f63bb93d-4817-4c0f-96a3-658f9c32f5c0"},"vehicle_type_id":"4","last_reported":1701457533,"current_range_meters":29200,"station_id":"ce4bh2p2rcd13ifvqdi0","pricing_plan_id":"free"},{"bike_id":"6440e3dd-10c9-4fe1-9156-18bd5d7a4477","system_id":"levelo_inurba_marseille","lat":43.283498,"lon":5.380948,"is_reserved":false,"is_disabled":false,"rental_uris":{"android":"levelo://app?vid=6440e3dd-10c9-4fe1-9156-18bd5d7a4477","ios":"levelo://app?vid=6440e3dd-10c9-4fe1-9156-18bd5d7a4477"},"vehicle_type_id":"4","last_reported":1701457533,"current_range_meters":800,"station_id":"ce4bh412rcd13ifvqdr0","pricing_plan_id":"free"},{"bike_id":"69881fbf-c0ea-49af-a1fc-762bfb1388e1","system_id":"levelo_inurba_marseille","lat":43.282754,"lon":5.350519,"is_reserved":false,"is_disabled":false,"rental_uris":{"android":"levelo://app?vid=69881fbf-c0ea-49af-a1fc-762bfb1388e1","ios":"levelo://app?vid=69881fbf-c0ea-49af-a1fc-762bfb1388e1"},"vehicle_type_id":"4","last_reported":1701457533,"current_range_meters":1200,"station_id":"ce4bhbp2rcd13ifvqerg","pricing_plan_id":"free"},{"bike_id":"e86033be-7b7b-45a2-af3a-9d11ce863058","system_id":"levelo_inurba_marseille","lat":43.285742,"lon":5.395004,"is_reserved":false,"is_disabled":false,"rental_uris":{"android":"levelo://app?vid=e86033be-7b7b-45a2-af3a-9d11ce863058","ios":"levelo://app?vid=e86033be-7b7b-45a2-af3a-9d11ce863058"},"vehicle_type_id":"4","last_reported":1701457533,"current_range_meters":22800,"station_id":"ce4bh292rcd13ifvqdg0","pricing_plan_id":"free"},{"bike_id":"a52f227a-092e-4334-9536-e8e5c2683502","system_id":"levelo_inurba_marseille","lat":43.28573,"lon":5.394992,"is_reserved":false,"is_disabled":false,"rental_uris":{"android":"levelo://app?vid=a52f227a-092e-4334-9536-e8e5c2683502","ios":"levelo://app?vid=a52f227a-092e-4334-9536-e8e5c2683502"},"vehicle_type_id":"4","last_reported":1701457533,"current_range_meters":24800,"station_id":"ce4bh292rcd13ifvqdg0","pricing_plan_id":"free"},{"bike_id":"3e86afff-817e-46d5-8986-c4d4409f854f","system_id":"levelo_inurba_marseille","lat":43.28573,"lon":5.394992,"is_reserved":false,"is_disabled":false,"rental_uris":{"android":"levelo://app?vid=3e86afff-817e-46d5-8986-c4d4409f854f","ios":"levelo://app?vid=3e86afff-817e-46d5-8986-c4d4409f854f"},"vehicle_type_id":"4","last_reported":1701457533,"current_range_meters":20000,"station_id":"ce4bh292rcd13ifvqdg0","pricing_plan_id":"free"},{"bike_id":"11583dfa-388b-4a31-a59a-5a652763080f","system_id":"levelo_inurba_marseille","lat":43.285742,"lon":5.395004,"is_reserved":false,"is_disabled":false,"rental_uris":{"android":"levelo://app?vid=11583dfa-388b-4a31-a59a-5a652763080f","ios":"levelo://app?vid=11583dfa-388b-4a31-a59a-5a652763080f"},"vehicle_type_id":"4","last_reported":1701457533,"current_range_meters":31200,"station_id":"ce4bh292rcd13ifvqdg0","pricing_plan_id":"free"},{"bike_id":"96496c0a-f1aa-4bd5-b562-e791274ad1b2","system_id":"levelo_inurba_marseille","lat":43.326605,"lon":5.409903,"is_reserved":false,"is_disabled":false,"rental_uris":{"android":"levelo://app?vid=96496c0a-f1aa-4bd5-b562-e791274ad1b2","ios":"levelo://app?vid=96496c0a-f1aa-4bd5-b562-e791274ad1b2"},"vehicle_type_id":"4","last_reported":1701457533,"current_range_meters":25200,"station_id":"ce4bhpp2rcd13ifvqhgg","pricing_plan_id":"free"},{"bike_id":"a50c0429-afba-467a-8379-c3b5803a834a","system_id":"levelo_inurba_marseille","lat":43.304188,"lon":5.412904,"is_reserved":false,"is_disabled":false,"rental_uris":{"android":"levelo://app?vid=a50c0429-afba-467a-8379-c3b5803a834a","ios":"levelo://app?vid=a50c0429-afba-467a-8379-c3b5803a834a"},"vehicle_type_id":"4","last_reported":1701457533,"current_range_meters":28000,"station_id":"ce4bhop2rcd13ifvqh8g","pricing_plan_id":"free"},{"bike_id":"c93b1c9a-c4ae-4c26-bf86-e2b074651c4d","system_id":"levelo_inurba_marseille","lat":43.304188,"lon":5.412904,"is_reserved":false,"is_disabled":false,"rental_uris":{"android":"levelo://app?vid=c93b1c9a-c4ae-4c26-bf86-e2b074651c4d","ios":"levelo://app?vid=c93b1c9a-c4ae-4c26-bf86-e2b074651c4d"},"vehicle_type_id":"4","last_reported":1701457533,"current_range_meters":19600,"station_id":"ce4bhop2rcd13ifvqh8g","pricing_plan_id":"free"},{"bike_id":"b1e20f0e-e97b-472a-ab77-c5069d2503cb","system_id":"levelo_inurba_marseille","lat":43.287154,"lon":5.399979,"is_reserved":false,"is_disabled":false,"rental_uris":{"android":"levelo://app?vid=b1e20f0e-e97b-472a-ab77-c5069d2503cb","ios":"levelo://app?vid=b1e20f0e-e97b-472a-ab77-c5069d2503cb"},"vehicle_type_id":"4","last_reported":1701457533,"current_range_meters":3600,"station_id":"ce4bho92rcd13ifvqh3g","pricing_plan_id":"free"},{"bike_id":"50482e51-d223-4938-98ac-e3f129d4d276","system_id":"levelo_inurba_marseille","lat":43.287154,"lon":5.399979,"is_reserved":false,"is_disabled":false,"rental_uris":{"android":"levelo://app?vid=50482e51-d223-4938-98ac-e3f129d4d276","ios":"levelo://app?vid=50482e51-d223-4938-98ac-e3f129d4d276"},"vehicle_type_id":"4","last_reported":1701457533,"current_range_meters":13600,"station_id":"ce4bho92rcd13ifvqh3g","pricing_plan_id":"free"},{"bike_id":"fa69f188-740a-48e1-ab88-bb133baf7ee5","system_id":"levelo_inurba_marseille","lat":43.287154,"lon":5.399979,"is_reserved":false,"is_disabled":false,"rental_uris":{"android":"levelo://app?vid=fa69f188-740a-48e1-ab88-bb133baf7ee5","ios":"levelo://app?vid=fa69f188-740a-48e1-ab88-bb133baf7ee5"},"vehicle_type_id":"4","last_reported":1701457533,"current_range_meters":24000,"station_id":"ce4bho92rcd13ifvqh3g","pricing_plan_id":"free"},{"bike_id":"6db24bf9-7072-461b-bfe7-40a5362e7465","system_id":"levelo_inurba_marseille","lat":43.287154,"lon":5.399979,"is_reserved":false,"is_disabled":false,"rental_uris":{"android":"levelo://app?vid=6db24bf9-7072-461b-bfe7-40a5362e7465","ios":"levelo://app?vid=6db24bf9-7072-461b-bfe7-40a5362e7465"},"vehicle_type_id":"4","last_reported":1701457533,"current_range_meters":16000,"station_id":"ce4bho92rcd13ifvqh3g","pricing_plan_id":"free"},{"bike_id":"56600949-8afc-44c7-ba02-d874e936b588","system_id":"levelo_inurba_marseille","lat":43.287154,"lon":5.399979,"is_reserved":false,"is_disabled":false,"rental_uris":{"android":"levelo://app?vid=56600949-8afc-44c7-ba02-d874e936b588","ios":"levelo://app?vid=56600949-8afc-44c7-ba02-d874e936b588"},"vehicle_type_id":"4","last_reported":1701457533,"current_range_meters":400,"station_id":"ce4bho92rcd13ifvqh3g","pricing_plan_id":"free"},{"bike_id":"6ff3f115-b472-4c6d-b3cf-1efb74a588c7","system_id":"levelo_inurba_marseille","lat":43.279742,"lon":5.38744,"is_reserved":false,"is_disabled":false,"rental_uris":{"android":"levelo://app?vid=6ff3f115-b472-4c6d-b3cf-1efb74a588c7","ios":"levelo://app?vid=6ff3f115-b472-4c6d-b3cf-1efb74a588c7"},"vehicle_type_id":"4","last_reported":1701457533,"current_range_meters":12400,"station_id":"ce4bhg12rcd13ifvqf80","pricing_plan_id":"free"},{"bike_id":"8fbf3d61-038c-4d2e-a745-775230905bcc","system_id":"levelo_inurba_marseille","lat":43.27993,"lon":5.38729,"is_reserved":false,"is_disabled":false,"rental_uris":{"android":"levelo://app?vid=8fbf3d61-038c-4d2e-a745-775230905bcc","ios":"levelo://app?vid=8fbf3d61-038c-4d2e-a745-775230905bcc"},"vehicle_type_id":"4","last_reported":1701457533,"current_range_meters":0,"station_id":"ce4bhg12rcd13ifvqf80","pricing_plan_id":"free"},{"bike_id":"f76eb47c-1d9f-4089-89a1-a981323ccd59","system_id":"levelo_inurba_marseille","lat":43.320045,"lon":5.415048,"is_reserved":false,"is_disabled":false,"rental_uris":{"android":"levelo://app?vid=f76eb47c-1d9f-4089-89a1-a981323ccd59","ios":"levelo://app?vid=f76eb47c-1d9f-4089-89a1-a981323ccd59"},"vehicle_type_id":"4","last_reported":1701457533,"current_range_meters":25200,"station_id":"ce4bhq92rcd13ifvqhkg","pricing_plan_id":"free"},{"bike_id":"9d88d19a-2f8b-4d27-851b-223f87535f4f","system_id":"levelo_inurba_marseille","lat":43.292647,"lon":5.409162,"is_reserved":false,"is_disabled":false,"rental_uris":{"android":"levelo://app?vid=9d88d19a-2f8b-4d27-851b-223f87535f4f","ios":"levelo://app?vid=9d88d19a-2f8b-4d27-851b-223f87535f4f"},"vehicle_type_id":"4","last_reported":1701457533,"current_range_meters":22800,"station_id":"","pricing_plan_id":"free"},{"bike_id":"50f7840e-a9cf-4f40-b946-216ee75649a2","system_id":"levelo_inurba_marseille","lat":43.27623,"lon":5.36101,"is_reserved":false,"is_disabled":false,"rental_uris":{"android":"levelo://app?vid=50f7840e-a9cf-4f40-b946-216ee75649a2","ios":"levelo://app?vid=50f7840e-a9cf-4f40-b946-216ee75649a2"},"vehicle_type_id":"4","last_reported":1701457533,"current_range_meters":2400,"station_id":"","pricing_plan_id":"free"},{"bike_id":"662d7ac0-b60c-4589-b775-59c466096683","system_id":"levelo_inurba_marseille","lat":43.325233,"lon":5.414318,"is_reserved":false,"is_disabled":false,"rental_uris":{"android":"levelo://app?vid=662d7ac0-b60c-4589-b775-59c466096683","ios":"levelo://app?vid=662d7ac0-b60c-4589-b775-59c466096683"},"vehicle_type_id":"4","last_reported":1701457533,"current_range_meters":26000,"station_id":"ce4bhq12rcd13ifvqhhg","pricing_plan_id":"free"},{"bike_id":"4289f372-a9f0-4f7f-9b07-12bedb672879","system_id":"levelo_inurba_marseille","lat":43.33612,"lon":5.410321,"is_reserved":false,"is_disabled":false,"rental_uris":{"android":"levelo://app?vid=4289f372-a9f0-4f7f-9b07-12bedb672879","ios":"levelo://app?vid=4289f372-a9f0-4f7f-9b07-12bedb672879"},"vehicle_type_id":"4","last_reported":1701457533,"current_range_meters":6000,"station_id":"ce4bhqh2rcd13ifvqhmg","pricing_plan_id":"free"},{"bike_id":"b1bc44a7-88f9-4b86-9fa4-211a87bae144","system_id":"levelo_inurba_marseille","lat":43.303837,"lon":5.418724,"is_reserved":false,"is_disabled":false,"rental_uris":{"android":"levelo://app?vid=b1bc44a7-88f9-4b86-9fa4-211a87bae144","ios":"levelo://app?vid=b1bc44a7-88f9-4b86-9fa4-211a87bae144"},"vehicle_type_id":"4","last_reported":1701457533,"current_range_meters":14000,"station_id":"ce4bhop2rcd13ifvqh7g","pricing_plan_id":"free"},{"bike_id":"ae81a803-fec5-4b93-9ab4-4d8a4c5332eb","system_id":"levelo_inurba_marseille","lat":43.303837,"lon":5.418724,"is_reserved":false,"is_disabled":false,"rental_uris":{"android":"levelo://app?vid=ae81a803-fec5-4b93-9ab4-4d8a4c5332eb","ios":"levelo://app?vid=ae81a803-fec5-4b93-9ab4-4d8a4c5332eb"},"vehicle_type_id":"4","last_reported":1701457533,"current_range_meters":23200,"station_id":"ce4bhop2rcd13ifvqh7g","pricing_plan_id":"free"},{"bike_id":"ae130eb3-69a3-4569-9978-7e5ec544228e","system_id":"levelo_inurba_marseille","lat":43.303837,"lon":5.418724,"is_reserved":false,"is_disabled":false,"rental_uris":{"android":"levelo://app?vid=ae130eb3-69a3-4569-9978-7e5ec544228e","ios":"levelo://app?vid=ae130eb3-69a3-4569-9978-7e5ec544228e"},"vehicle_type_id":"4","last_reported":1701457533,"current_range_meters":30000,"station_id":"ce4bhop2rcd13ifvqh7g","pricing_plan_id":"free"},{"bike_id":"92aca28b-c0fa-4b05-b901-f7f1777c0f5e","system_id":"levelo_inurba_marseille","lat":43.278399,"lon":5.392139,"is_reserved":false,"is_disabled":false,"rental_uris":{"android":"levelo://app?vid=92aca28b-c0fa-4b05-b901-f7f1777c0f5e","ios":"levelo://app?vid=92aca28b-c0fa-4b05-b901-f7f1777c0f5e"},"vehicle_type_id":"4","last_reported":1701457533,"current_range_meters":27200,"station_id":"ce4bhjp2rcd13ifvqga0","pricing_plan_id":"free"},{"bike_id":"01b0713c-355a-4ca7-a6cc-d5f503f4aebc","system_id":"levelo_inurba_marseille","lat":43.336134,"lon":5.410341,"is_reserved":false,"is_disabled":false,"rental_uris":{"android":"levelo://app?vid=01b0713c-355a-4ca7-a6cc-d5f503f4aebc","ios":"levelo://app?vid=01b0713c-355a-4ca7-a6cc-d5f503f4aebc"},"vehicle_type_id":"4","last_reported":1701457533,"current_range_meters":23200,"station_id":"ce4bhqh2rcd13ifvqhmg","pricing_plan_id":"free"},{"bike_id":"debc5d39-335a-4ff7-a2f8-ac5ebd111bd4","system_id":"levelo_inurba_marseille","lat":43.279952,"lon":5.400085,"is_reserved":false,"is_disabled":false,"rental_uris":{"android":"levelo://app?vid=debc5d39-335a-4ff7-a2f8-ac5ebd111bd4","ios":"levelo://app?vid=debc5d39-335a-4ff7-a2f8-ac5ebd111bd4"},"vehicle_type_id":"4","last_reported":1701457533,"current_range_meters":18800,"station_id":"ce4bho92rcd13ifvqh4g","pricing_plan_id":"free"},{"bike_id":"9ca3d1f2-444d-48f8-af45-94396c45809c","system_id":"levelo_inurba_marseille","lat":43.279975,"lon":5.40009,"is_reserved":false,"is_disabled":false,"rental_uris":{"android":"levelo://app?vid=9ca3d1f2-444d-48f8-af45-94396c45809c","ios":"levelo://app?vid=9ca3d1f2-444d-48f8-af45-94396c45809c"},"vehicle_type_id":"4","last_reported":1701457533,"current_range_meters":21600,"station_id":"ce4bho92rcd13ifvqh4g","pricing_plan_id":"free"},{"bike_id":"9db12440-6564-4c16-8d07-3176be8380ca","system_id":"levelo_inurba_marseille","lat":43.279952,"lon":5.400085,"is_reserved":false,"is_disabled":false,"rental_uris":{"android":"levelo://app?vid=9db12440-6564-4c16-8d07-3176be8380ca","ios":"levelo://app?vid=9db12440-6564-4c16-8d07-3176be8380ca"},"vehicle_type_id":"4","last_reported":1701457533,"current_range_meters":22800,"station_id":"ce4bho92rcd13ifvqh4g","pricing_plan_id":"free"},{"bike_id":"3336dc17-a7f7-42be-8cbf-b20521144f81","system_id":"levelo_inurba_marseille","lat":43.279975,"lon":5.40009,"is_reserved":false,"is_disabled":false,"rental_uris":{"android":"levelo://app?vid=3336dc17-a7f7-42be-8cbf-b20521144f81","ios":"levelo://app?vid=3336dc17-a7f7-42be-8cbf-b20521144f81"},"vehicle_type_id":"4","last_reported":1701457533,"current_range_meters":9200,"station_id":"ce4bho92rcd13ifvqh4g","pricing_plan_id":"free"},{"bike_id":"8b95fa19-34cb-496e-ada5-cf4ce57829c5","system_id":"levelo_inurba_marseille","lat":43.279952,"lon":5.400085,"is_reserved":false,"is_disabled":false,"rental_uris":{"android":"levelo://app?vid=8b95fa19-34cb-496e-ada5-cf4ce57829c5","ios":"levelo://app?vid=8b95fa19-34cb-496e-ada5-cf4ce57829c5"},"vehicle_type_id":"4","last_reported":1701457533,"current_range_meters":31200,"station_id":"ce4bho92rcd13ifvqh4g","pricing_plan_id":"free"},{"bike_id":"2405ad23-0fe6-435e-bef9-056a60830ae7","system_id":"levelo_inurba_marseille","lat":43.27998,"lon":5.40007,"is_reserved":false,"is_disabled":false,"rental_uris":{"android":"levelo://app?vid=2405ad23-0fe6-435e-bef9-056a60830ae7","ios":"levelo://app?vid=2405ad23-0fe6-435e-bef9-056a60830ae7"},"vehicle_type_id":"4","last_reported":1701457533,"current_range_meters":1600,"station_id":"ce4bho92rcd13ifvqh4g","pricing_plan_id":"free"},{"bike_id":"2008ad1c-c3ed-4aab-a90a-ec11e3a4e262","system_id":"levelo_inurba_marseille","lat":43.279952,"lon":5.400085,"is_reserved":false,"is_disabled":false,"rental_uris":{"android":"levelo://app?vid=2008ad1c-c3ed-4aab-a90a-ec11e3a4e262","ios":"levelo://app?vid=2008ad1c-c3ed-4aab-a90a-ec11e3a4e262"},"vehicle_type_id":"4","last_reported":1701457533,"current_range_meters":23600,"station_id":"ce4bho92rcd13ifvqh4g","pricing_plan_id":"free"},{"bike_id":"787022f8-15b9-487e-9162-77ac5bcac9bd","system_id":"levelo_inurba_marseille","lat":43.279975,"lon":5.40009,"is_reserved":false,"is_disabled":false,"rental_uris":{"android":"levelo://app?vid=787022f8-15b9-487e-9162-77ac5bcac9bd","ios":"levelo://app?vid=787022f8-15b9-487e-9162-77ac5bcac9bd"},"vehicle_type_id":"4","last_reported":1701457533,"current_range_meters":0,"station_id":"ce4bho92rcd13ifvqh4g","pricing_plan_id":"free"},{"bike_id":"db7ffdb9-f10e-41dc-9854-cecf34a3d463","system_id":"levelo_inurba_marseille","lat":43.279952,"lon":5.400085,"is_reserved":false,"is_disabled":false,"rental_uris":{"android":"levelo://app?vid=db7ffdb9-f10e-41dc-9854-cecf34a3d463","ios":"levelo://app?vid=db7ffdb9-f10e-41dc-9854-cecf34a3d463"},"vehicle_type_id":"4","last_reported":1701457533,"current_range_meters":31600,"station_id":"ce4bho92rcd13ifvqh4g","pricing_plan_id":"free"},{"bike_id":"b83f0b9f-1486-435e-97de-ebbda5a8317d","system_id":"levelo_inurba_marseille","lat":43.279975,"lon":5.40009,"is_reserved":false,"is_disabled":false,"rental_uris":{"android":"levelo://app?vid=b83f0b9f-1486-435e-97de-ebbda5a8317d","ios":"levelo://app?vid=b83f0b9f-1486-435e-97de-ebbda5a8317d"},"vehicle_type_id":"4","last_reported":1701457533,"current_range_meters":25600,"station_id":"ce4bho92rcd13ifvqh4g","pricing_plan_id":"free"},{"bike_id":"ae645cb6-ae73-4a2b-b68b-451085ca3cdc","system_id":"levelo_inurba_marseille","lat":43.279952,"lon":5.400085,"is_reserved":false,"is_disabled":false,"rental_uris":{"android":"levelo://app?vid=ae645cb6-ae73-4a2b-b68b-451085ca3cdc","ios":"levelo://app?vid=ae645cb6-ae73-4a2b-b68b-451085ca3cdc"},"vehicle_type_id":"4","last_reported":1701457533,"current_range_meters":26800,"station_id":"ce4bho92rcd13ifvqh4g","pricing_plan_id":"free"},{"bike_id":"2ba030ed-86b1-4d34-a342-3059ef450e14","system_id":"levelo_inurba_marseille","lat":43.279952,"lon":5.400085,"is_reserved":false,"is_disabled":false,"rental_uris":{"android":"levelo://app?vid=2ba030ed-86b1-4d34-a342-3059ef450e14","ios":"levelo://app?vid=2ba030ed-86b1-4d34-a342-3059ef450e14"},"vehicle_type_id":"4","last_reported":1701457533,"current_range_meters":12400,"station_id":"ce4bho92rcd13ifvqh4g","pricing_plan_id":"free"},{"bike_id":"33918e0d-cdb0-4611-a687-3272d72d60a6","system_id":"levelo_inurba_marseille","lat":43.3253,"lon":5.42129,"is_reserved":false,"is_disabled":false,"rental_uris":{"android":"levelo://app?vid=33918e0d-cdb0-4611-a687-3272d72d60a6","ios":"levelo://app?vid=33918e0d-cdb0-4611-a687-3272d72d60a6"},"vehicle_type_id":"4","last_reported":1701457533,"current_range_meters":27600,"station_id":"","pricing_plan_id":"free"},{"bike_id":"0bf39cc2-12ce-46b3-a06b-31e1c17ddc34","system_id":"levelo_inurba_marseille","lat":43.317212,"lon":5.423996,"is_reserved":false,"is_disabled":false,"rental_uris":{"android":"levelo://app?vid=0bf39cc2-12ce-46b3-a06b-31e1c17ddc34","ios":"levelo://app?vid=0bf39cc2-12ce-46b3-a06b-31e1c17ddc34"},"vehicle_type_id":"4","last_reported":1701457533,"current_range_meters":22000,"station_id":"ce4bhp92rcd13ifvqhbg","pricing_plan_id":"free"},{"bike_id":"894f6494-585b-4b1b-a39f-39b137cf17d0","system_id":"levelo_inurba_marseille","lat":43.310785,"lon":5.424305,"is_reserved":false,"is_disabled":false,"rental_uris":{"android":"levelo://app?vid=894f6494-585b-4b1b-a39f-39b137cf17d0","ios":"levelo://app?vid=894f6494-585b-4b1b-a39f-39b137cf17d0"},"vehicle_type_id":"4","last_reported":1701457533,"current_range_meters":12800,"station_id":"ce4bhp92rcd13ifvqhag","pricing_plan_id":"free"},{"bike_id":"143ad672-41c3-4e88-9172-e4ae3aa433f5","system_id":"levelo_inurba_marseille","lat":43.30412,"lon":5.42544,"is_reserved":false,"is_disabled":false,"rental_uris":{"android":"levelo://app?vid=143ad672-41c3-4e88-9172-e4ae3aa433f5","ios":"levelo://app?vid=143ad672-41c3-4e88-9172-e4ae3aa433f5"},"vehicle_type_id":"4","last_reported":1701457533,"current_range_meters":3600,"station_id":"ce4bhoh2rcd13ifvqh6g","pricing_plan_id":"free"},{"bike_id":"a458be37-b437-4b6f-aef1-9977da7e9abb","system_id":"levelo_inurba_marseille","lat":43.295511,"lon":5.422926,"is_reserved":false,"is_disabled":false,"rental_uris":{"android":"levelo://app?vid=a458be37-b437-4b6f-aef1-9977da7e9abb","ios":"levelo://app?vid=a458be37-b437-4b6f-aef1-9977da7e9abb"},"vehicle_type_id":"4","last_reported":1701457533,"current_range_meters":28400,"station_id":"ce4bhph2rcd13ifvqhdg","pricing_plan_id":"free"},{"bike_id":"2fd3642f-f043-47ed-8015-d904c8b402fd","system_id":"levelo_inurba_marseille","lat":43.27217,"lon":5.39128,"is_reserved":false,"is_disabled":false,"rental_uris":{"android":"levelo://app?vid=2fd3642f-f043-47ed-8015-d904c8b402fd","ios":"levelo://app?vid=2fd3642f-f043-47ed-8015-d904c8b402fd"},"vehicle_type_id":"4","last_reported":1701457533,"current_range_meters":0,"station_id":"ce4bhhp2rcd13ifvqfm0","pricing_plan_id":"free"},{"bike_id":"2b87fdbf-f5bd-4121-a834-8f5c9bf88e9d","system_id":"levelo_inurba_marseille","lat":43.271388,"lon":5.409269,"is_reserved":false,"is_disabled":false,"rental_uris":{"android":"levelo://app?vid=2b87fdbf-f5bd-4121-a834-8f5c9bf88e9d","ios":"levelo://app?vid=2b87fdbf-f5bd-4121-a834-8f5c9bf88e9d"},"vehicle_type_id":"4","last_reported":1701457533,"current_range_meters":3200,"station_id":"ce4bhl12rcd13ifvqgf0","pricing_plan_id":"free"},{"bike_id":"03057f69-bf70-4e5d-96b3-ffd155c96c7e","system_id":"levelo_inurba_marseille","lat":43.278128,"lon":5.407195,"is_reserved":false,"is_disabled":false,"rental_uris":{"android":"levelo://app?vid=03057f69-bf70-4e5d-96b3-ffd155c96c7e","ios":"levelo://app?vid=03057f69-bf70-4e5d-96b3-ffd155c96c7e"},"vehicle_type_id":"4","last_reported":1701457533,"current_range_meters":29200,"station_id":"ce4bhnh2rcd13ifvqgtg","pricing_plan_id":"free"},{"bike_id":"354d9ba5-c5be-425c-8fe6-4ae98806f5f6","system_id":"levelo_inurba_marseille","lat":43.278128,"lon":5.407195,"is_reserved":false,"is_disabled":false,"rental_uris":{"android":"levelo://app?vid=354d9ba5-c5be-425c-8fe6-4ae98806f5f6","ios":"levelo://app?vid=354d9ba5-c5be-425c-8fe6-4ae98806f5f6"},"vehicle_type_id":"4","last_reported":1701457533,"current_range_meters":28800,"station_id":"ce4bhnh2rcd13ifvqgtg","pricing_plan_id":"free"},{"bike_id":"201a509a-1f63-4656-9185-c8965ce0e292","system_id":"levelo_inurba_marseille","lat":43.27987,"lon":5.411,"is_reserved":false,"is_disabled":false,"rental_uris":{"android":"levelo://app?vid=201a509a-1f63-4656-9185-c8965ce0e292","ios":"levelo://app?vid=201a509a-1f63-4656-9185-c8965ce0e292"},"vehicle_type_id":"4","last_reported":1701457533,"current_range_meters":0,"station_id":"","pricing_plan_id":"free"},{"bike_id":"21f0e8a9-42b9-4676-ad53-9cc9a8b916c5","system_id":"levelo_inurba_marseille","lat":43.2794,"lon":5.410486,"is_reserved":false,"is_disabled":false,"rental_uris":{"android":"levelo://app?vid=21f0e8a9-42b9-4676-ad53-9cc9a8b916c5","ios":"levelo://app?vid=21f0e8a9-42b9-4676-ad53-9cc9a8b916c5"},"vehicle_type_id":"4","last_reported":1701457533,"current_range_meters":20800,"station_id":"ce4bhnp2rcd13ifvqh0g","pricing_plan_id":"free"},{"bike_id":"f9ab5cd7-f0da-47e9-a4ad-44592cec429d","system_id":"levelo_inurba_marseille","lat":43.269319,"lon":5.389397,"is_reserved":false,"is_disabled":false,"rental_uris":{"android":"levelo://app?vid=f9ab5cd7-f0da-47e9-a4ad-44592cec429d","ios":"levelo://app?vid=f9ab5cd7-f0da-47e9-a4ad-44592cec429d"},"vehicle_type_id":"4","last_reported":1701457533,"current_range_meters":12800,"station_id":"ce4bhhh2rcd13ifvqfl0","pricing_plan_id":"free"},{"bike_id":"8645e20f-e34a-4a39-b818-86ad036445f7","system_id":"levelo_inurba_marseille","lat":43.265597,"lon":5.372848,"is_reserved":false,"is_disabled":false,"rental_uris":{"android":"levelo://app?vid=8645e20f-e34a-4a39-b818-86ad036445f7","ios":"levelo://app?vid=8645e20f-e34a-4a39-b818-86ad036445f7"},"vehicle_type_id":"4","last_reported":1701457533,"current_range_meters":6000,"station_id":"","pricing_plan_id":"free"},{"bike_id":"5e01667d-7ac0-471f-bb89-894108f617f0","system_id":"levelo_inurba_marseille","lat":43.26949,"lon":5.40262,"is_reserved":false,"is_disabled":false,"rental_uris":{"android":"levelo://app?vid=5e01667d-7ac0-471f-bb89-894108f617f0","ios":"levelo://app?vid=5e01667d-7ac0-471f-bb89-894108f617f0"},"vehicle_type_id":"4","last_reported":1701457533,"current_range_meters":18800,"station_id":"cjm6bp8fraef2m0cb0m0","pricing_plan_id":"free"},{"bike_id":"c71160fc-c7b7-4c0b-8b7c-da5014dcb825","system_id":"levelo_inurba_marseille","lat":43.317104,"lon":5.436818,"is_reserved":false,"is_disabled":false,"rental_uris":{"android":"levelo://app?vid=c71160fc-c7b7-4c0b-8b7c-da5014dcb825","ios":"levelo://app?vid=c71160fc-c7b7-4c0b-8b7c-da5014dcb825"},"vehicle_type_id":"4","last_reported":1701457533,"current_range_meters":28400,"station_id":"ce4bhp92rcd13ifvqhcg","pricing_plan_id":"free"},{"bike_id":"6d5827bb-e379-4067-bb3f-6136611daee9","system_id":"levelo_inurba_marseille","lat":43.298768,"lon":5.43643,"is_reserved":false,"is_disabled":false,"rental_uris":{"android":"levelo://app?vid=6d5827bb-e379-4067-bb3f-6136611daee9","ios":"levelo://app?vid=6d5827bb-e379-4067-bb3f-6136611daee9"},"vehicle_type_id":"4","last_reported":1701457533,"current_range_meters":31200,"station_id":"ce4bhpp2rcd13ifvqhfg","pricing_plan_id":"free"},{"bike_id":"5195e7b0-beca-4867-995d-3135d1931a2f","system_id":"levelo_inurba_marseille","lat":43.28156,"lon":5.42644,"is_reserved":false,"is_disabled":false,"rental_uris":{"android":"levelo://app?vid=5195e7b0-beca-4867-995d-3135d1931a2f","ios":"levelo://app?vid=5195e7b0-beca-4867-995d-3135d1931a2f"},"vehicle_type_id":"4","last_reported":1701457533,"current_range_meters":16000,"station_id":"ce4bhnh2rcd13ifvqgug","pricing_plan_id":"free"},{"bike_id":"d3df04f1-aa36-401c-b9f0-16ea3bba87de","system_id":"levelo_inurba_marseille","lat":43.28152,"lon":5.42644,"is_reserved":false,"is_disabled":false,"rental_uris":{"android":"levelo://app?vid=d3df04f1-aa36-401c-b9f0-16ea3bba87de","ios":"levelo://app?vid=d3df04f1-aa36-401c-b9f0-16ea3bba87de"},"vehicle_type_id":"4","last_reported":1701457533,"current_range_meters":16800,"station_id":"ce4bhnh2rcd13ifvqgug","pricing_plan_id":"free"},{"bike_id":"a265f57d-2203-4406-8278-bc194922c399","system_id":"levelo_inurba_marseille","lat":43.28151,"lon":5.42644,"is_reserved":false,"is_disabled":false,"rental_uris":{"android":"levelo://app?vid=a265f57d-2203-4406-8278-bc194922c399","ios":"levelo://app?vid=a265f57d-2203-4406-8278-bc194922c399"},"vehicle_type_id":"4","last_reported":1701457533,"current_range_meters":30400,"station_id":"ce4bhnh2rcd13ifvqgug","pricing_plan_id":"free"},{"bike_id":"3de40b48-7293-4590-b1e4-a9c54e991d0a","system_id":"levelo_inurba_marseille","lat":43.2815,"lon":5.42644,"is_reserved":false,"is_disabled":false,"rental_uris":{"android":"levelo://app?vid=3de40b48-7293-4590-b1e4-a9c54e991d0a","ios":"levelo://app?vid=3de40b48-7293-4590-b1e4-a9c54e991d0a"},"vehicle_type_id":"4","last_reported":1701457533,"current_range_meters":18400,"station_id":"ce4bhnh2rcd13ifvqgug","pricing_plan_id":"free"},{"bike_id":"3532a786-7312-4db1-88be-2e5e8a274941","system_id":"levelo_inurba_marseille","lat":43.28156,"lon":5.42655,"is_reserved":false,"is_disabled":false,"rental_uris":{"android":"levelo://app?vid=3532a786-7312-4db1-88be-2e5e8a274941","ios":"levelo://app?vid=3532a786-7312-4db1-88be-2e5e8a274941"},"vehicle_type_id":"4","last_reported":1701457533,"current_range_meters":26800,"station_id":"ce4bhnh2rcd13ifvqgug","pricing_plan_id":"free"},{"bike_id":"b802834e-51f4-41a4-96cb-c31681473515","system_id":"levelo_inurba_marseille","lat":43.281531,"lon":5.426523,"is_reserved":false,"is_disabled":false,"rental_uris":{"android":"levelo://app?vid=b802834e-51f4-41a4-96cb-c31681473515","ios":"levelo://app?vid=b802834e-51f4-41a4-96cb-c31681473515"},"vehicle_type_id":"4","last_reported":1701457533,"current_range_meters":31200,"station_id":"ce4bhnh2rcd13ifvqgug","pricing_plan_id":"free"},{"bike_id":"08b64681-f98c-4572-9311-c069d61e9dd0","system_id":"levelo_inurba_marseille","lat":43.275028,"lon":5.424534,"is_reserved":false,"is_disabled":false,"rental_uris":{"android":"levelo://app?vid=08b64681-f98c-4572-9311-c069d61e9dd0","ios":"levelo://app?vid=08b64681-f98c-4572-9311-c069d61e9dd0"},"vehicle_type_id":"4","last_reported":1701457533,"current_range_meters":15600,"station_id":"ce4bhn92rcd13ifvqgrg","pricing_plan_id":"free"},{"bike_id":"1ee39fb4-b865-44cf-8520-8eabf78fc881","system_id":"levelo_inurba_marseille","lat":43.255829,"lon":5.382252,"is_reserved":false,"is_disabled":false,"rental_uris":{"android":"levelo://app?vid=1ee39fb4-b865-44cf-8520-8eabf78fc881","ios":"levelo://app?vid=1ee39fb4-b865-44cf-8520-8eabf78fc881"},"vehicle_type_id":"4","last_reported":1701457533,"current_range_meters":21200,"station_id":"ce4bhih2rcd13ifvqfs0","pricing_plan_id":"free"},{"bike_id":"1bdec686-727a-4d55-9288-592608697e45","system_id":"levelo_inurba_marseille","lat":43.25577,"lon":5.38235,"is_reserved":false,"is_disabled":false,"rental_uris":{"android":"levelo://app?vid=1bdec686-727a-4d55-9288-592608697e45","ios":"levelo://app?vid=1bdec686-727a-4d55-9288-592608697e45"},"vehicle_type_id":"4","last_reported":1701457533,"current_range_meters":21600,"station_id":"ce4bhih2rcd13ifvqfs0","pricing_plan_id":"free"},{"bike_id":"6b55de0b-bf22-4d3b-bb7b-9bfacee3cb65","system_id":"levelo_inurba_marseille","lat":43.270721,"lon":5.422764,"is_reserved":false,"is_disabled":false,"rental_uris":{"android":"levelo://app?vid=6b55de0b-bf22-4d3b-bb7b-9bfacee3cb65","ios":"levelo://app?vid=6b55de0b-bf22-4d3b-bb7b-9bfacee3cb65"},"vehicle_type_id":"4","last_reported":1701457533,"current_range_meters":5600,"station_id":"ce4bhk92rcd13ifvqgb0","pricing_plan_id":"free"},{"bike_id":"5b0369f5-05ce-40c3-8ddb-77f04ee5dfdd","system_id":"levelo_inurba_marseille","lat":43.258658,"lon":5.398935,"is_reserved":false,"is_disabled":false,"rental_uris":{"android":"levelo://app?vid=5b0369f5-05ce-40c3-8ddb-77f04ee5dfdd","ios":"levelo://app?vid=5b0369f5-05ce-40c3-8ddb-77f04ee5dfdd"},"vehicle_type_id":"4","last_reported":1701457533,"current_range_meters":8800,"station_id":"ce4bhl92rcd13ifvqghg","pricing_plan_id":"free"},{"bike_id":"729abadc-3418-4366-b69d-e163e2b280af","system_id":"levelo_inurba_marseille","lat":43.25869,"lon":5.39899,"is_reserved":false,"is_disabled":false,"rental_uris":{"android":"levelo://app?vid=729abadc-3418-4366-b69d-e163e2b280af","ios":"levelo://app?vid=729abadc-3418-4366-b69d-e163e2b280af"},"vehicle_type_id":"4","last_reported":1701457533,"current_range_meters":24000,"station_id":"ce4bhl92rcd13ifvqghg","pricing_plan_id":"free"},{"bike_id":"46d55cf5-cbd9-4113-b07b-e05596734734","system_id":"levelo_inurba_marseille","lat":43.2479,"lon":5.374457,"is_reserved":false,"is_disabled":false,"rental_uris":{"android":"levelo://app?vid=46d55cf5-cbd9-4113-b07b-e05596734734","ios":"levelo://app?vid=46d55cf5-cbd9-4113-b07b-e05596734734"},"vehicle_type_id":"4","last_reported":1701457533,"current_range_meters":20000,"station_id":"ce4bhgh2rcd13ifvqfb0","pricing_plan_id":"free"},{"bike_id":"e2c05adc-f0fb-4f54-aa18-650960bc1e61","system_id":"levelo_inurba_marseille","lat":43.25082,"lon":5.39528,"is_reserved":false,"is_disabled":false,"rental_uris":{"android":"levelo://app?vid=e2c05adc-f0fb-4f54-aa18-650960bc1e61","ios":"levelo://app?vid=e2c05adc-f0fb-4f54-aa18-650960bc1e61"},"vehicle_type_id":"4","last_reported":1701457533,"current_range_meters":20000,"station_id":"ce4bhm12rcd13ifvqgkg","pricing_plan_id":"free"},{"bike_id":"7aa24d96-c95d-4468-a02b-494a7d7dd09e","system_id":"levelo_inurba_marseille","lat":43.250794,"lon":5.395183,"is_reserved":false,"is_disabled":false,"rental_uris":{"android":"levelo://app?vid=7aa24d96-c95d-4468-a02b-494a7d7dd09e","ios":"levelo://app?vid=7aa24d96-c95d-4468-a02b-494a7d7dd09e"},"vehicle_type_id":"4","last_reported":1701457533,"current_range_meters":13600,"station_id":"ce4bhm12rcd13ifvqgkg","pricing_plan_id":"free"},{"bike_id":"7b86737e-88b6-402e-953d-d66f821e4367","system_id":"levelo_inurba_marseille","lat":43.25078,"lon":5.39522,"is_reserved":false,"is_disabled":false,"rental_uris":{"android":"levelo://app?vid=7b86737e-88b6-402e-953d-d66f821e4367","ios":"levelo://app?vid=7b86737e-88b6-402e-953d-d66f821e4367"},"vehicle_type_id":"4","last_reported":1701457533,"current_range_meters":31200,"station_id":"ce4bhm12rcd13ifvqgkg","pricing_plan_id":"free"},{"bike_id":"8615dbd1-cadd-4e7d-bee4-bf0527cf620d","system_id":"levelo_inurba_marseille","lat":43.246461,"lon":5.389014,"is_reserved":false,"is_disabled":false,"rental_uris":{"android":"levelo://app?vid=8615dbd1-cadd-4e7d-bee4-bf0527cf620d","ios":"levelo://app?vid=8615dbd1-cadd-4e7d-bee4-bf0527cf620d"},"vehicle_type_id":"4","last_reported":1701457533,"current_range_meters":22400,"station_id":"ce4bhg12rcd13ifvqf60","pricing_plan_id":"free"},{"bike_id":"983a0691-b20e-492c-83b1-f894458409f1","system_id":"levelo_inurba_marseille","lat":43.25102,"lon":5.403214,"is_reserved":false,"is_disabled":false,"rental_uris":{"android":"levelo://app?vid=983a0691-b20e-492c-83b1-f894458409f1","ios":"levelo://app?vid=983a0691-b20e-492c-83b1-f894458409f1"},"vehicle_type_id":"4","last_reported":1701457533,"current_range_meters":18800,"station_id":"ce4bhlh2rcd13ifvqgig","pricing_plan_id":"free"},{"bike_id":"dc806c7b-b393-4b62-adfa-58492f62e060","system_id":"levelo_inurba_marseille","lat":43.25102,"lon":5.403214,"is_reserved":false,"is_disabled":false,"rental_uris":{"android":"levelo://app?vid=dc806c7b-b393-4b62-adfa-58492f62e060","ios":"levelo://app?vid=dc806c7b-b393-4b62-adfa-58492f62e060"},"vehicle_type_id":"4","last_reported":1701457533,"current_range_meters":28800,"station_id":"ce4bhlh2rcd13ifvqgig","pricing_plan_id":"free"},{"bike_id":"b766e82b-a426-447d-8b4b-87ea79dbaf27","system_id":"levelo_inurba_marseille","lat":43.25102,"lon":5.403214,"is_reserved":false,"is_disabled":false,"rental_uris":{"android":"levelo://app?vid=b766e82b-a426-447d-8b4b-87ea79dbaf27","ios":"levelo://app?vid=b766e82b-a426-447d-8b4b-87ea79dbaf27"},"vehicle_type_id":"4","last_reported":1701457533,"current_range_meters":1200,"station_id":"ce4bhlh2rcd13ifvqgig","pricing_plan_id":"free"},{"bike_id":"e7aad632-367b-4496-9cef-bcfeaf0ec9a0","system_id":"levelo_inurba_marseille","lat":43.246461,"lon":5.389014,"is_reserved":false,"is_disabled":false,"rental_uris":{"android":"levelo://app?vid=e7aad632-367b-4496-9cef-bcfeaf0ec9a0","ios":"levelo://app?vid=e7aad632-367b-4496-9cef-bcfeaf0ec9a0"},"vehicle_type_id":"4","last_reported":1701457533,"current_range_meters":30800,"station_id":"ce4bhg12rcd13ifvqf60","pricing_plan_id":"free"},{"bike_id":"32bbdb1e-977b-47d6-99fc-61a4811802d7","system_id":"levelo_inurba_marseille","lat":43.243884,"lon":5.370737,"is_reserved":false,"is_disabled":false,"rental_uris":{"android":"levelo://app?vid=32bbdb1e-977b-47d6-99fc-61a4811802d7","ios":"levelo://app?vid=32bbdb1e-977b-47d6-99fc-61a4811802d7"},"vehicle_type_id":"4","last_reported":1701457533,"current_range_meters":16800,"station_id":"ce4bhhh2rcd13ifvqfk0","pricing_plan_id":"free"},{"bike_id":"13cfbd0b-95d4-4d0f-a33a-c052ba8be806","system_id":"levelo_inurba_marseille","lat":43.243884,"lon":5.370737,"is_reserved":false,"is_disabled":false,"rental_uris":{"android":"levelo://app?vid=13cfbd0b-95d4-4d0f-a33a-c052ba8be806","ios":"levelo://app?vid=13cfbd0b-95d4-4d0f-a33a-c052ba8be806"},"vehicle_type_id":"4","last_reported":1701457533,"current_range_meters":17200,"station_id":"ce4bhhh2rcd13ifvqfk0","pricing_plan_id":"free"},{"bike_id":"3cecf076-6f72-4dc3-9539-81b4e6b7ee6a","system_id":"levelo_inurba_marseille","lat":43.243884,"lon":5.370736,"is_reserved":false,"is_disabled":false,"rental_uris":{"android":"levelo://app?vid=3cecf076-6f72-4dc3-9539-81b4e6b7ee6a","ios":"levelo://app?vid=3cecf076-6f72-4dc3-9539-81b4e6b7ee6a"},"vehicle_type_id":"4","last_reported":1701457533,"current_range_meters":18400,"station_id":"ce4bhhh2rcd13ifvqfk0","pricing_plan_id":"free"},{"bike_id":"41a0ba48-f911-45e8-8910-5a34922b0d4c","system_id":"levelo_inurba_marseille","lat":43.243884,"lon":5.370737,"is_reserved":false,"is_disabled":false,"rental_uris":{"android":"levelo://app?vid=41a0ba48-f911-45e8-8910-5a34922b0d4c","ios":"levelo://app?vid=41a0ba48-f911-45e8-8910-5a34922b0d4c"},"vehicle_type_id":"4","last_reported":1701457533,"current_range_meters":23600,"station_id":"ce4bhhh2rcd13ifvqfk0","pricing_plan_id":"free"},{"bike_id":"f818bf21-118e-429b-bc85-4d7039994aa7","system_id":"levelo_inurba_marseille","lat":43.243884,"lon":5.370737,"is_reserved":false,"is_disabled":false,"rental_uris":{"android":"levelo://app?vid=f818bf21-118e-429b-bc85-4d7039994aa7","ios":"levelo://app?vid=f818bf21-118e-429b-bc85-4d7039994aa7"},"vehicle_type_id":"4","last_reported":1701457533,"current_range_meters":13200,"station_id":"ce4bhhh2rcd13ifvqfk0","pricing_plan_id":"free"},{"bike_id":"311269c7-73e5-44dd-9e19-cf1037a422fa","system_id":"levelo_inurba_marseille","lat":43.243884,"lon":5.370736,"is_reserved":false,"is_disabled":false,"rental_uris":{"android":"levelo://app?vid=311269c7-73e5-44dd-9e19-cf1037a422fa","ios":"levelo://app?vid=311269c7-73e5-44dd-9e19-cf1037a422fa"},"vehicle_type_id":"4","last_reported":1701457533,"current_range_meters":30800,"station_id":"ce4bhhh2rcd13ifvqfk0","pricing_plan_id":"free"},{"bike_id":"8f8a08c5-5ca8-4694-93c6-b968749a30c2","system_id":"levelo_inurba_marseille","lat":43.245581,"lon":5.395069,"is_reserved":false,"is_disabled":false,"rental_uris":{"android":"levelo://app?vid=8f8a08c5-5ca8-4694-93c6-b968749a30c2","ios":"levelo://app?vid=8f8a08c5-5ca8-4694-93c6-b968749a30c2"},"vehicle_type_id":"4","last_reported":1701457533,"current_range_meters":31200,"station_id":"ce4bhlp2rcd13ifvqgjg","pricing_plan_id":"free"},{"bike_id":"8a6d21ee-8178-4f32-b8d1-754b3c0d95f1","system_id":"levelo_inurba_marseille","lat":43.245581,"lon":5.395069,"is_reserved":false,"is_disabled":false,"rental_uris":{"android":"levelo://app?vid=8a6d21ee-8178-4f32-b8d1-754b3c0d95f1","ios":"levelo://app?vid=8a6d21ee-8178-4f32-b8d1-754b3c0d95f1"},"vehicle_type_id":"4","last_reported":1701457533,"current_range_meters":31200,"station_id":"ce4bhlp2rcd13ifvqgjg","pricing_plan_id":"free"},{"bike_id":"2a1f8f75-f29e-422e-a076-97f855d3f109","system_id":"levelo_inurba_marseille","lat":43.24082,"lon":5.37761,"is_reserved":false,"is_disabled":false,"rental_uris":{"android":"levelo://app?vid=2a1f8f75-f29e-422e-a076-97f855d3f109","ios":"levelo://app?vid=2a1f8f75-f29e-422e-a076-97f855d3f109"},"vehicle_type_id":"4","last_reported":1701457533,"current_range_meters":0,"station_id":"ce4bhnp2rcd13ifvqgvg","pricing_plan_id":"free"},{"bike_id":"86294a0d-8f1d-4865-beb1-fcf61ca9bd07","system_id":"levelo_inurba_marseille","lat":43.241782,"lon":5.397264,"is_reserved":false,"is_disabled":false,"rental_uris":{"android":"levelo://app?vid=86294a0d-8f1d-4865-beb1-fcf61ca9bd07","ios":"levelo://app?vid=86294a0d-8f1d-4865-beb1-fcf61ca9bd07"},"vehicle_type_id":"4","last_reported":1701457533,"current_range_meters":27200,"station_id":"ce4bhn12rcd13ifvqgpg","pricing_plan_id":"free"},{"bike_id":"cd2806e3-7a91-44f5-9e97-e41c2a460e29","system_id":"levelo_inurba_marseille","lat":43.241782,"lon":5.397264,"is_reserved":false,"is_disabled":false,"rental_uris":{"android":"levelo://app?vid=cd2806e3-7a91-44f5-9e97-e41c2a460e29","ios":"levelo://app?vid=cd2806e3-7a91-44f5-9e97-e41c2a460e29"},"vehicle_type_id":"4","last_reported":1701457533,"current_range_meters":2800,"station_id":"ce4bhn12rcd13ifvqgpg","pricing_plan_id":"free"},{"bike_id":"cf3102c4-88e0-4a41-86b7-69a76932d3e6","system_id":"levelo_inurba_marseille","lat":43.23196,"lon":5.3554,"is_reserved":false,"is_disabled":false,"rental_uris":{"android":"levelo://app?vid=cf3102c4-88e0-4a41-86b7-69a76932d3e6","ios":"levelo://app?vid=cf3102c4-88e0-4a41-86b7-69a76932d3e6"},"vehicle_type_id":"4","last_reported":1701457533,"current_range_meters":31200,"station_id":"ce4bhu92rcd13ifvqi70","pricing_plan_id":"free"},{"bike_id":"6462fbc5-ceb8-47e3-b56d-fc1e69bef19f","system_id":"levelo_inurba_marseille","lat":43.231919,"lon":5.355532,"is_reserved":false,"is_disabled":false,"rental_uris":{"android":"levelo://app?vid=6462fbc5-ceb8-47e3-b56d-fc1e69bef19f","ios":"levelo://app?vid=6462fbc5-ceb8-47e3-b56d-fc1e69bef19f"},"vehicle_type_id":"4","last_reported":1701457533,"current_range_meters":31200,"station_id":"ce4bhu92rcd13ifvqi70","pricing_plan_id":"free"},{"bike_id":"6382809b-45d0-4ad2-8be7-697249f82077","system_id":"levelo_inurba_marseille","lat":43.231919,"lon":5.355532,"is_reserved":false,"is_disabled":false,"rental_uris":{"android":"levelo://app?vid=6382809b-45d0-4ad2-8be7-697249f82077","ios":"levelo://app?vid=6382809b-45d0-4ad2-8be7-697249f82077"},"vehicle_type_id":"4","last_reported":1701457533,"current_range_meters":31600,"station_id":"ce4bhu92rcd13ifvqi70","pricing_plan_id":"free"},{"bike_id":"d919cd84-7675-4a37-b94c-3ba2519b645c","system_id":"levelo_inurba_marseille","lat":43.231919,"lon":5.355532,"is_reserved":false,"is_disabled":false,"rental_uris":{"android":"levelo://app?vid=d919cd84-7675-4a37-b94c-3ba2519b645c","ios":"levelo://app?vid=d919cd84-7675-4a37-b94c-3ba2519b645c"},"vehicle_type_id":"4","last_reported":1701457533,"current_range_meters":27600,"station_id":"ce4bhu92rcd13ifvqi70","pricing_plan_id":"free"},{"bike_id":"1eeab9a5-d341-4bc8-8d21-ee151ff9d9b2","system_id":"levelo_inurba_marseille","lat":43.231924,"lon":5.399944,"is_reserved":false,"is_disabled":false,"rental_uris":{"android":"levelo://app?vid=1eeab9a5-d341-4bc8-8d21-ee151ff9d9b2","ios":"levelo://app?vid=1eeab9a5-d341-4bc8-8d21-ee151ff9d9b2"},"vehicle_type_id":"4","last_reported":1701457533,"current_range_meters":21200,"station_id":"ce4bhn12rcd13ifvqgqg","pricing_plan_id":"free"},{"bike_id":"22bd98e3-c33f-4c44-ae2b-f96729d36f4f","system_id":"levelo_inurba_marseille","lat":43.23187,"lon":5.39995,"is_reserved":false,"is_disabled":false,"rental_uris":{"android":"levelo://app?vid=22bd98e3-c33f-4c44-ae2b-f96729d36f4f","ios":"levelo://app?vid=22bd98e3-c33f-4c44-ae2b-f96729d36f4f"},"vehicle_type_id":"4","last_reported":1701457533,"current_range_meters":31200,"station_id":"ce4bhn12rcd13ifvqgqg","pricing_plan_id":"free"},{"bike_id":"179bc0fb-370c-4234-b30f-9121ae3c4192","system_id":"levelo_inurba_marseille","lat":43.231794,"lon":5.400052,"is_reserved":false,"is_disabled":false,"rental_uris":{"android":"levelo://app?vid=179bc0fb-370c-4234-b30f-9121ae3c4192","ios":"levelo://app?vid=179bc0fb-370c-4234-b30f-9121ae3c4192"},"vehicle_type_id":"4","last_reported":1701457533,"current_range_meters":30000,"station_id":"ce4bhn12rcd13ifvqgqg","pricing_plan_id":"free"},{"bike_id":"c1c188af-0df9-4dda-bb7c-f0d571578d31","system_id":"levelo_inurba_marseille","lat":43.231794,"lon":5.400052,"is_reserved":false,"is_disabled":false,"rental_uris":{"android":"levelo://app?vid=c1c188af-0df9-4dda-bb7c-f0d571578d31","ios":"levelo://app?vid=c1c188af-0df9-4dda-bb7c-f0d571578d31"},"vehicle_type_id":"4","last_reported":1701457533,"current_range_meters":26000,"station_id":"ce4bhn12rcd13ifvqgqg","pricing_plan_id":"free"},{"bike_id":"d0b35396-6769-42d4-8160-8b44cb829902","system_id":"levelo_inurba_marseille","lat":43.231793,"lon":5.400044,"is_reserved":false,"is_disabled":false,"rental_uris":{"android":"levelo://app?vid=d0b35396-6769-42d4-8160-8b44cb829902","ios":"levelo://app?vid=d0b35396-6769-42d4-8160-8b44cb829902"},"vehicle_type_id":"4","last_reported":1701457533,"current_range_meters":31600,"station_id":"ce4bhn12rcd13ifvqgqg","pricing_plan_id":"free"},{"bike_id":"d000766e-0cd3-41c9-b7fb-980286eca45c","system_id":"levelo_inurba_marseille","lat":43.231793,"lon":5.400044,"is_reserved":false,"is_disabled":false,"rental_uris":{"android":"levelo://app?vid=d000766e-0cd3-41c9-b7fb-980286eca45c","ios":"levelo://app?vid=d000766e-0cd3-41c9-b7fb-980286eca45c"},"vehicle_type_id":"4","last_reported":1701457533,"current_range_meters":24400,"station_id":"ce4bhn12rcd13ifvqgqg","pricing_plan_id":"free"},{"bike_id":"bfb1ccb5-dfa1-425d-901e-02799fedd445","system_id":"levelo_inurba_marseille","lat":43.23179,"lon":5.399977,"is_reserved":false,"is_disabled":false,"rental_uris":{"android":"levelo://app?vid=bfb1ccb5-dfa1-425d-901e-02799fedd445","ios":"levelo://app?vid=bfb1ccb5-dfa1-425d-901e-02799fedd445"},"vehicle_type_id":"4","last_reported":1701457533,"current_range_meters":13200,"station_id":"ce4bhn12rcd13ifvqgqg","pricing_plan_id":"free"},{"bike_id":"457c552c-8af5-4b7b-9f6b-8c901265a623","system_id":"levelo_inurba_marseille","lat":43.231793,"lon":5.400044,"is_reserved":false,"is_disabled":false,"rental_uris":{"android":"levelo://app?vid=457c552c-8af5-4b7b-9f6b-8c901265a623","ios":"levelo://app?vid=457c552c-8af5-4b7b-9f6b-8c901265a623"},"vehicle_type_id":"4","last_reported":1701457533,"current_range_meters":25200,"station_id":"ce4bhn12rcd13ifvqgqg","pricing_plan_id":"free"}]}}