{"last_updated":1730063274,"ttl":60,"version":"2.2","data":{"bikes":[{"bike_id":"46ca7a5a-b63f-4a23-af18-d368d3c3861e","system_id":"levelo_inurba_marseille","lat":43.27327,"lon":5.39078,"is_reserved":false,"is_disabled":false,"rental_uris":{"android":"levelo://app?vid=46ca7a5a-b63f-4a23-af18-d368d3c3861e","ios":"levelo://app?vid=46ca7a5a-b63f-4a23-af18-d368d3c3861e"},"vehicle_type_id":"4","last_reported":1730063274,"current_range_meters":30800,"station_id":"ce4bhgp2rcd13ifvqfe0","pricing_plan_id":"cebpf4jnsgd1na2vs0mg"},{"bike_id":"b18112ad-c734-415d-85ae-7bce01edb4df","system_id":"levelo_inurba_marseille","lat":43.29416,"lon":5.38642,"is_reserved":false,"is_disabled":false,"rental_uris":{"android":"levelo://app?vid=b18112ad-c734-415d-85ae-7bce01edb4df","ios":"levelo://app?vid=b18112ad-c734-415d-85ae-7bce01edb4df"},"vehicle_type_id":"4","last_reported":1730063274,"current_range_meters":3600,"station_id":"ce4bh2h2rcd13ifvqdh0","pricing_plan_id":"cebpf4jnsgd1na2vs0mg"},{"bike_id":"69f4165a-13a2-4bd8-b4d6-abfa25614867","system_id":"levelo_inurba_marseille","lat":43.26805,"lon":5.40265,"is_reserved":false,"is_disabled":false,"rental_uris":{"android":"levelo://app?vid=69f4165a-13a2-4bd8-b4d6-abfa25614867","ios":"levelo://app?vid=69f4165a-13a2-4bd8-b4d6-abfa25614867"},"vehicle_type_id":"4","last_reported":1730063274,"current_range_meters":39200,"station_id":"ce501612rcd8frsf0b60","pricing_plan_id":"cebpf4jnsgd1na2vs0mg"},{"bike_id":"d809a323-42e5-48a5-bd41-2a693b07d015","system_id":"levelo_inurba_marseille","lat":43.29536,"lon":5.38541,"is_reserved":false,"is_disabled":false,"rental_uris":{"android":"levelo://app?vid=d809a323-42e5-48a5-bd41-2a693b07d015","ios":"levelo://app?vid=d809a323-42e5-48a5-bd41-2a693b07d015"},"vehicle_type_id":"4","last_reported":1730063274,"current_range_meters":16400,"station_id":"ce4bgih2rcd13ifvqba0","pricing_plan_id":"cebpf4jnsgd1na2vs0mg"},{"bike_id":"8cb2cc8e-9f6f-4186-891e-59af7fdd143e","system_id":"levelo_inurba_marseille","lat":43.29418,"lon":5.38613,"is_reserved":false,"is_disabled":false,"rental_uris":{"android":"levelo://app?vid=8cb2cc8e-9f6f-4186-891e-59af7fdd143e","ios":"levelo://app?vid=8cb2cc8e-9f6f-4186-891e-59af7fdd143e"},"vehicle_type_id":"4","last_reported":1730063274,"current_range_meters":6800,"station_id":"ce4bh2h2rcd13ifvqdh0","pricing_plan_id":"cebpf4jnsgd1na2vs0mg"},{"bike_id":"b6e289e4-f54c-41d4-9b66-a1a2db060b7b","system_id":"levelo_inurba_marseille","lat":43.28458,"lon":5.35895,"is_reserved":false,"is_disabled":false,"rental_uris":{"android":"levelo://app?vid=b6e289e4-f54c-41d4-9b66-a1a2db060b7b","ios":"levelo://app?vid=b6e289e4-f54c-41d4-9b66-a1a2db060b7b"},"vehicle_type_id":"4","last_reported":1730063274,"current_range_meters":30400,"station_id":"ce4bhah2rcd13ifvqei0","pricing_plan_id":"cebpf4jnsgd1na2vs0mg"},{"bike_id":"48660d12-eacc-4f93-a06c-04c2aa9e37e4","system_id":"levelo_inurba_marseille","lat":43.268,"lon":5.40276,"is_reserved":false,"is_disabled":false,"rental_uris":{"android":"levelo://app?vid=48660d12-eacc-4f93-a06c-04c2aa9e37e4","ios":"levelo://app?vid=48660d12-eacc-4f93-a06c-04c2aa9e37e4"},"vehicle_type_id":"4","last_reported":1730063274,"current_range_meters":17200,"station_id":"ce501612rcd8frsf0b60","pricing_plan_id":"cebpf4jnsgd1na2vs0mg"},{"bike_id":"f3d5c86c-ab11-4ca3-aa72-c97ea732ed17","system_id":"levelo_inurba_marseille","lat":43.27324,"lon":5.39086,"is_reserved":false,"is_disabled":false,"rental_uris":{"android":"levelo://app?vid=f3d5c86c-ab11-4ca3-aa72-c97ea732ed17","ios":"levelo://app?vid=f3d5c86c-ab11-4ca3-aa72-c97ea732ed17"},"vehicle_type_id":"4","last_reported":1730063274,"current_range_meters":28000,"station_id":"ce4bhgp2rcd13ifvqfe0","pricing_plan_id":"cebpf4jnsgd1na2vs0mg"},{"bike_id":"9fb636e5-62cf-4512-aed6-0c2da0e74711","system_id":"levelo_inurba_marseille","lat":43.29421,"lon":5.38611,"is_reserved":false,"is_disabled":false,"rental_uris":{"android":"levelo://app?vid=9fb636e5-62cf-4512-aed6-0c2da0e74711","ios":"levelo://app?vid=9fb636e5-62cf-4512-aed6-0c2da0e74711"},"vehicle_type_id":"4","last_reported":1730063274,"current_range_meters":38800,"station_id":"ce4bh2h2rcd13ifvqdh0","pricing_plan_id":"cebpf4jnsgd1na2vs0mg"},{"bike_id":"e1395604-316e-4ef3-9482-76e16d240733","system_id":"levelo_inurba_marseille","lat":43.30891,"lon":5.39644,"is_reserved":false,"is_disabled":false,"rental_uris":{"android":"levelo://app?vid=e1395604-316e-4ef3-9482-76e16d240733","ios":"levelo://app?vid=e1395604-316e-4ef3-9482-76e16d240733"},"vehicle_type_id":"4","last_reported":1730063274,"current_range_meters":12000,"station_id":"ce4bh012rcd13ifvqcv0","pricing_plan_id":"cebpf4jnsgd1na2vs0mg"},{"bike_id":"e2971513-5509-43da-a4bb-a3d89812546c","system_id":"levelo_inurba_marseille","lat":43.25006,"lon":5.38916,"is_reserved":false,"is_disabled":false,"rental_uris":{"android":"levelo://app?vid=e2971513-5509-43da-a4bb-a3d89812546c","ios":"levelo://app?vid=e2971513-5509-43da-a4bb-a3d89812546c"},"vehicle_type_id":"4","last_reported":1730063274,"current_range_meters":8400,"station_id":"ce4bhgp2rcd13ifvqfd0","pricing_plan_id":"cebpf4jnsgd1na2vs0mg"},{"bike_id":"4e76489d-b1e0-4ba9-adfd-a21d6b553c02","system_id":"levelo_inurba_marseille","lat":43.25119,"lon":5.4032,"is_reserved":false,"is_disabled":false,"rental_uris":{"android":"levelo://app?vid=4e76489d-b1e0-4ba9-adfd-a21d6b553c02","ios":"levelo://app?vid=4e76489d-b1e0-4ba9-adfd-a21d6b553c02"},"vehicle_type_id":"4","last_reported":1730063274,"current_range_meters":37600,"station_id":"ce4bhlh2rcd13ifvqgig","pricing_plan_id":"cebpf4jnsgd1na2vs0mg"},{"bike_id":"9eebf998-5224-439b-ae25-64324f395204","system_id":"levelo_inurba_marseille","lat":43.3122,"lon":5.36862,"is_reserved":false,"is_disabled":false,"rental_uris":{"android":"levelo://app?vid=9eebf998-5224-439b-ae25-64324f395204","ios":"levelo://app?vid=9eebf998-5224-439b-ae25-64324f395204"},"vehicle_type_id":"4","last_reported":1730063274,"current_range_meters":4400,"station_id":"ce4bgl92rcd13ifvqbq0","pricing_plan_id":"cebpf4jnsgd1na2vs0mg"},{"bike_id":"269ba49b-8c6b-4cd6-8c73-787931fe8494","system_id":"levelo_inurba_marseille","lat":43.27424,"lon":5.39412,"is_reserved":false,"is_disabled":false,"rental_uris":{"android":"levelo://app?vid=269ba49b-8c6b-4cd6-8c73-787931fe8494","ios":"levelo://app?vid=269ba49b-8c6b-4cd6-8c73-787931fe8494"},"vehicle_type_id":"4","last_reported":1730063274,"current_range_meters":38800,"station_id":"ce4bhdp2rcd13ifvqf20","pricing_plan_id":"cebpf4jnsgd1na2vs0mg"},{"bike_id":"eb74aa32-c49d-4202-bac3-91a96c4d4783","system_id":"levelo_inurba_marseille","lat":43.30799,"lon":5.36985,"is_reserved":false,"is_disabled":false,"rental_uris":{"android":"levelo://app?vid=eb74aa32-c49d-4202-bac3-91a96c4d4783","ios":"levelo://app?vid=eb74aa32-c49d-4202-bac3-91a96c4d4783"},"vehicle_type_id":"4","last_reported":1730063274,"current_range_meters":19600,"station_id":"ce4bguh2rcd13ifvqckg","pricing_plan_id":"cebpf4jnsgd1na2vs0mg"},{"bike_id":"7dd11c94-3bc3-42b1-a5c1-755385890fd7","system_id":"levelo_inurba_marseille","lat":43.29274,"lon":5.38442,"is_reserved":false,"is_disabled":false,"rental_uris":{"android":"levelo://app?vid=7dd11c94-3bc3-42b1-a5c1-755385890fd7","ios":"levelo://app?vid=7dd11c94-3bc3-42b1-a5c1-755385890fd7"},"vehicle_type_id":"4","last_reported":1730063274,"current_range_meters":28000,"station_id":"ce4bh692rcd13ifvqea0","pricing_plan_id":"cebpf4jnsgd1na2vs0mg"},{"bike_id":"01e6dc99-8516-4317-a4ae-ebf175d63d0d","system_id":"levelo_inurba_marseille","lat":43.31483,"lon":5.37305,"is_reserved":false,"is_disabled":false,"rental_uris":{"android":"levelo://app?vid=01e6dc99-8516-4317-a4ae-ebf175d63d0d","ios":"levelo://app?vid=01e6dc99-8516-4317-a4ae-ebf175d63d0d"},"vehicle_type_id":"4","last_reported":1730063274,"current_range_meters":25200,"station_id":"ce4bgv12rcd13ifvqcp0","pricing_plan_id":"cebpf4jnsgd1na2vs0mg"},{"bike_id":"d342ab4d-c47e-4bf5-99cd-ed5545ab9569","system_id":"levelo_inurba_marseille","lat":43.26809,"lon":5.40261,"is_reserved":false,"is_disabled":false,"rental_uris":{"android":"levelo://app?vid=d342ab4d-c47e-4bf5-99cd-ed5545ab9569","ios":"levelo://app?vid=d342ab4d-c47e-4bf5-99cd-ed5545ab9569"},"vehicle_type_id":"4","last_reported":1730063274,"current_range_meters":10000,"station_id":"ce501612rcd8frsf0b60","pricing_plan_id":"cebpf4jnsgd1na2vs0mg"},{"bike_id":"cae23133-022e-4031-b9cf-073340c6de0d","system_id":"levelo_inurba_marseille","lat":43.30191,"lon":5.3661,"is_reserved":false,"is_disabled":false,"rental_uris":{"android":"levelo://app?vid=cae23133-022e-4031-b9cf-073340c6de0d","ios":"levelo://app?vid=cae23133-022e-4031-b9cf-073340c6de0d"},"vehicle_type_id":"4","last_reported":1730063274,"current_range_meters":18000,"station_id":"ce4bgrh2rcd13ifvqc8g","pricing_plan_id":"cebpf4jnsgd1na2vs0mg"},{"bike_id":"5af164cb-4cdb-4db6-a38c-466a0ea93d42","system_id":"levelo_inurba_marseille","lat":43.299167,"lon":5.381287,"is_reserved":false,"is_disabled":false,"rental_uris":{"android":"levelo://app?vid=5af164cb-4cdb-4db6-a38c-466a0ea93d42","ios":"levelo://app?vid=5af164cb-4cdb-4db6-a38c-466a0ea93d42"},"vehicle_type_id":"4","last_reported":1730063274,"current_range_meters":8400,"station_id":"ce4bgj12rcd13ifvqbc0","pricing_plan_id":"cebpf4jnsgd1na2vs0mg"},{"bike_id":"8ed0e600-52f7-4841-aa09-f2be0f0fd557","system_id":"levelo_inurba_marseille","lat":43.26801,"lon":5.40258,"is_reserved":false,"is_disabled":false,"rental_uris":{"android":"levelo://app?vid=8ed0e600-52f7-4841-aa09-f2be0f0fd557","ios":"levelo://app?vid=8ed0e600-52f7-4841-aa09-f2be0f0fd557"},"vehicle_type_id":"4","last_reported":1730063274,"current_range_meters":38800,"station_id":"ce501612rcd8frsf0b60","pricing_plan_id":"cebpf4jnsgd1na2vs0mg"},{"bike_id":"7b87e6db-3f7a-48c8-83b0-5ba95a586374","system_id":"levelo_inurba_marseille","lat":43.28457,"lon":5.35891,"is_reserved":false,"is_disabled":false,"rental_uris":{"android":"levelo://app?vid=7b87e6db-3f7a-48c8-83b0-5ba95a586374","ios":"levelo://app?vid=7b87e6db-3f7a-48c8-83b0-5ba95a586374"},"vehicle_type_id":"4","last_reported":1730063274,"current_range_meters":14800,"station_id":"ce4bhah2rcd13ifvqei0","pricing_plan_id":"cebpf4jnsgd1na2vs0mg"},{"bike_id":"2ab6a876-b383-42be-8174-3b09d00c2764","system_id":"levelo_inurba_marseille","lat":43.22927,"lon":5.35374,"is_reserved":false,"is_disabled":false,"rental_uris":{"android":"levelo://app?vid=2ab6a876-b383-42be-8174-3b09d00c2764","ios":"levelo://app?vid=2ab6a876-b383-42be-8174-3b09d00c2764"},"vehicle_type_id":"4","last_reported":1730063274,"current_range_meters":38800,"station_id":"cpo3532slgdg3j2ikp40","pricing_plan_id":"cebpf4jnsgd1na2vs0mg"},{"bike_id":"03864044-3233-463d-a3c1-7d52a9076eb0","system_id":"levelo_inurba_marseille","lat":43.292603,"lon":5.384327,"is_reserved":false,"is_disabled":false,"rental_uris":{"android":"levelo://app?vid=03864044-3233-463d-a3c1-7d52a9076eb0","ios":"levelo://app?vid=03864044-3233-463d-a3c1-7d52a9076eb0"},"vehicle_type_id":"4","last_reported":1730063274,"current_range_meters":34800,"station_id":"ce4bh692rcd13ifvqea0","pricing_plan_id":"cebpf4jnsgd1na2vs0mg"},{"bike_id":"5605e734-9f9e-436e-abb6-d1a1c2bbf595","system_id":"levelo_inurba_marseille","lat":43.29418,"lon":5.3863,"is_reserved":false,"is_disabled":false,"rental_uris":{"android":"levelo://app?vid=5605e734-9f9e-436e-abb6-d1a1c2bbf595","ios":"levelo://app?vid=5605e734-9f9e-436e-abb6-d1a1c2bbf595"},"vehicle_type_id":"4","last_reported":1730063274,"current_range_meters":38800,"station_id":"ce4bh2h2rcd13ifvqdh0","pricing_plan_id":"cebpf4jnsgd1na2vs0mg"},{"bike_id":"e9d2627b-0323-4f6a-bb61-f8fed2e2d6e2","system_id":"levelo_inurba_marseille","lat":43.24803,"lon":5.37455,"is_reserved":false,"is_disabled":false,"rental_uris":{"android":"levelo://app?vid=e9d2627b-0323-4f6a-bb61-f8fed2e2d6e2","ios":"levelo://app?vid=e9d2627b-0323-4f6a-bb61-f8fed2e2d6e2"},"vehicle_type_id":"4","last_reported":1730063274,"current_range_meters":20000,"station_id":"ce4bhgh2rcd13ifvqfb0","pricing_plan_id":"cebpf4jnsgd1na2vs0mg"},{"bike_id":"711ea989-9bbd-4a86-a947-8e287449186f","system_id":"levelo_inurba_marseille","lat":43.22932,"lon":5.35376,"is_reserved":false,"is_disabled":false,"rental_uris":{"android":"levelo://app?vid=711ea989-9bbd-4a86-a947-8e287449186f","ios":"levelo://app?vid=711ea989-9bbd-4a86-a947-8e287449186f"},"vehicle_type_id":"4","last_reported":1730063274,"current_range_meters":38800,"station_id":"cpo3532slgdg3j2ikp40","pricing_plan_id":"cebpf4jnsgd1na2vs0mg"},{"bike_id":"27f39214-437b-402f-ba70-e8fd46f4e41b","system_id":"levelo_inurba_marseille","lat":43.28481,"lon":5.36931,"is_reserved":false,"is_disabled":false,"rental_uris":{"android":"levelo://app?vid=27f39214-437b-402f-ba70-e8fd46f4e41b","ios":"levelo://app?vid=27f39214-437b-402f-ba70-e8fd46f4e41b"},"vehicle_type_id":"4","last_reported":1730063274,"current_range_meters":17200,"station_id":"","pricing_plan_id":"cebpf4jnsgd1na2vs0mg"},{"bike_id":"e2820f8a-81b4-46e5-9b6e-e54e6356d3c3","system_id":"levelo_inurba_marseille","lat":43.28835,"lon":5.4516,"is_reserved":false,"is_disabled":false,"rental_uris":{"android":"levelo://app?vid=e2820f8a-81b4-46e5-9b6e-e54e6356d3c3","ios":"levelo://app?vid=e2820f8a-81b4-46e5-9b6e-e54e6356d3c3"},"vehicle_type_id":"4","last_reported":1730063274,"current_range_meters":5600,"station_id":"","pricing_plan_id":"cebpf4jnsgd1na2vs0mg"},{"bike_id":"25a4e1e9-77b3-4d83-9c71-cdcf8867c669","system_id":"levelo_inurba_marseille","lat":43.28087,"lon":5.39658,"is_reserved":false,"is_disabled":false,"rental_uris":{"android":"levelo://app?vid=25a4e1e9-77b3-4d83-9c71-cdcf8867c669","ios":"levelo://app?vid=25a4e1e9-77b3-4d83-9c71-cdcf8867c669"},"vehicle_type_id":"4","last_reported":1730063274,"current_range_meters":36800,"station_id":"ce4bho12rcd13ifvqh2g","pricing_plan_id":"cebpf4jnsgd1na2vs0mg"},{"bike_id":"d1dacee6-8f47-4ca5-823b-a2ea6c3413e8","system_id":"levelo_inurba_marseille","lat":43.23193,"lon":5.35556,"is_reserved":false,"is_disabled":false,"rental_uris":{"android":"levelo://app?vid=d1dacee6-8f47-4ca5-823b-a2ea6c3413e8","ios":"levelo://app?vid=d1dacee6-8f47-4ca5-823b-a2ea6c3413e8"},"vehicle_type_id":"4","last_reported":1730063274,"current_range_meters":38800,"station_id":"ce4bhu92rcd13ifvqi70","pricing_plan_id":"cebpf4jnsgd1na2vs0mg"},{"bike_id":"a6965f49-eb39-4825-8976-1f87c42f05ca","system_id":"levelo_inurba_marseille","lat":43.28697,"lon":5.39987,"is_reserved":false,"is_disabled":false,"rental_uris":{"android":"levelo://app?vid=a6965f49-eb39-4825-8976-1f87c42f05ca","ios":"levelo://app?vid=a6965f49-eb39-4825-8976-1f87c42f05ca"},"vehicle_type_id":"4","last_reported":1730063274,"current_range_meters":30800,"station_id":"ce4bho92rcd13ifvqh3g","pricing_plan_id":"cebpf4jnsgd1na2vs0mg"},{"bike_id":"1420596e-9006-4b1e-abb8-89eb7361d32b","system_id":"levelo_inurba_marseille","lat":43.29415,"lon":5.3863,"is_reserved":false,"is_disabled":false,"rental_uris":{"android":"levelo://app?vid=1420596e-9006-4b1e-abb8-89eb7361d32b","ios":"levelo://app?vid=1420596e-9006-4b1e-abb8-89eb7361d32b"},"vehicle_type_id":"4","last_reported":1730063274,"current_range_meters":38800,"station_id":"ce4bh2h2rcd13ifvqdh0","pricing_plan_id":"cebpf4jnsgd1na2vs0mg"},{"bike_id":"1f4b5283-d1ae-4fd8-a4b6-e9623f6ef2ff","system_id":"levelo_inurba_marseille","lat":43.25499,"lon":5.37649,"is_reserved":false,"is_disabled":false,"rental_uris":{"android":"levelo://app?vid=1f4b5283-d1ae-4fd8-a4b6-e9623f6ef2ff","ios":"levelo://app?vid=1f4b5283-d1ae-4fd8-a4b6-e9623f6ef2ff"},"vehicle_type_id":"4","last_reported":1730063274,"current_range_meters":38800,"station_id":"ce4bhh12rcd13ifvqff0","pricing_plan_id":"cebpf4jnsgd1na2vs0mg"},{"bike_id":"04fc981b-e568-4fd2-af35-56f656c17d0e","system_id":"levelo_inurba_marseille","lat":43.30144,"lon":5.39883,"is_reserved":false,"is_disabled":false,"rental_uris":{"android":"levelo://app?vid=04fc981b-e568-4fd2-af35-56f656c17d0e","ios":"levelo://app?vid=04fc981b-e568-4fd2-af35-56f656c17d0e"},"vehicle_type_id":"4","last_reported":1730063274,"current_range_meters":23200,"station_id":"ce4bh0h2rcd13ifvqd40","pricing_plan_id":"cebpf4jnsgd1na2vs0mg"},{"bike_id":"afb2bf35-8b5e-4247-805a-fe0c1b6fb966","system_id":"levelo_inurba_marseille","lat":43.26943,"lon":5.40248,"is_reserved":false,"is_disabled":false,"rental_uris":{"android":"levelo://app?vid=afb2bf35-8b5e-4247-805a-fe0c1b6fb966","ios":"levelo://app?vid=afb2bf35-8b5e-4247-805a-fe0c1b6fb966"},"vehicle_type_id":"4","last_reported":1730063274,"current_range_meters":8000,"station_id":"cjm6bp8fraef2m0cb0m0","pricing_plan_id":"cebpf4jnsgd1na2vs0mg"},{"bike_id":"062c37a5-8c98-4262-a368-0baffa13b81a","system_id":"levelo_inurba_marseille","lat":43.29555,"lon":5.42292,"is_reserved":false,"is_disabled":false,"rental_uris":{"android":"levelo://app?vid=062c37a5-8c98-4262-a368-0baffa13b81a","ios":"levelo://app?vid=062c37a5-8c98-4262-a368-0baffa13b81a"},"vehicle_type_id":"4","last_reported":1730063274,"current_range_meters":30000,"station_id":"ce4bhph2rcd13ifvqhdg","pricing_plan_id":"cebpf4jnsgd1na2vs0mg"},{"bike_id":"c617479c-40f2-49ac-ae62-20a0a7b2a8a7","system_id":"levelo_inurba_marseille","lat":43.30607,"lon":5.37229,"is_reserved":false,"is_disabled":false,"rental_uris":{"android":"levelo://app?vid=c617479c-40f2-49ac-ae62-20a0a7b2a8a7","ios":"levelo://app?vid=c617479c-40f2-49ac-ae62-20a0a7b2a8a7"},"vehicle_type_id":"4","last_reported":1730063274,"current_range_meters":32000,"station_id":"ce4bgqh2rcd13ifvqc4g","pricing_plan_id":"cebpf4jnsgd1na2vs0mg"},{"bike_id":"18018d10-1410-4298-a48d-3edaecd10e5d","system_id":"levelo_inurba_marseille","lat":43.29028,"lon":5.38654,"is_reserved":false,"is_disabled":false,"rental_uris":{"android":"levelo://app?vid=18018d10-1410-4298-a48d-3edaecd10e5d","ios":"levelo://app?vid=18018d10-1410-4298-a48d-3edaecd10e5d"},"vehicle_type_id":"4","last_reported":1730063274,"current_range_meters":6400,"station_id":"ce4bh4p2rcd13ifvqe0g","pricing_plan_id":"cebpf4jnsgd1na2vs0mg"},{"bike_id":"9d4e397d-fb4e-4236-9e92-b125710a93c5","system_id":"levelo_inurba_marseille","lat":43.27983,"lon":5.38759,"is_reserved":false,"is_disabled":false,"rental_uris":{"android":"levelo://app?vid=9d4e397d-fb4e-4236-9e92-b125710a93c5","ios":"levelo://app?vid=9d4e397d-fb4e-4236-9e92-b125710a93c5"},"vehicle_type_id":"4","last_reported":1730063274,"current_range_meters":27600,"station_id":"ce4bhg12rcd13ifvqf80","pricing_plan_id":"cebpf4jnsgd1na2vs0mg"},{"bike_id":"e16ba0fb-c8f9-4074-a1c8-ad626ad5602f","system_id":"levelo_inurba_marseille","lat":43.26937,"lon":5.40256,"is_reserved":false,"is_disabled":false,"rental_uris":{"android":"levelo://app?vid=e16ba0fb-c8f9-4074-a1c8-ad626ad5602f","ios":"levelo://app?vid=e16ba0fb-c8f9-4074-a1c8-ad626ad5602f"},"vehicle_type_id":"4","last_reported":1730063274,"current_range_meters":37600,"station_id":"cjm6bp8fraef2m0cb0m0","pricing_plan_id":"cebpf4jnsgd1na2vs0mg"},{"bike_id":"f5acca5b-8d39-4677-b520-9ea8865146f4","system_id":"levelo_inurba_marseille","lat":43.29269,"lon":5.38445,"is_reserved":false,"is_disabled":false,"rental_uris":{"android":"levelo://app?vid=f5acca5b-8d39-4677-b520-9ea8865146f4","ios":"levelo://app?vid=f5acca5b-8d39-4677-b520-9ea8865146f4"},"vehicle_type_id":"4","last_reported":1730063274,"current_range_meters":36000,"station_id":"ce4bh692rcd13ifvqea0","pricing_plan_id":"cebpf4jnsgd1na2vs0mg"},{"bike_id":"49d48a20-ca55-4e3a-abd2-6bef373d1253","system_id":"levelo_inurba_marseille","lat":43.23063,"lon":5.35492,"is_reserved":false,"is_disabled":false,"rental_uris":{"android":"levelo://app?vid=49d48a20-ca55-4e3a-abd2-6bef373d1253","ios":"levelo://app?vid=49d48a20-ca55-4e3a-abd2-6bef373d1253"},"vehicle_type_id":"4","last_reported":1730063274,"current_range_meters":38800,"station_id":"cpo3342slgdg3j2ifvpg","pricing_plan_id":"cebpf4jnsgd1na2vs0mg"},{"bike_id":"e166311b-ab8b-4b53-b2d9-495939d8c0b8","system_id":"levelo_inurba_marseille","lat":43.3021,"lon":5.39463,"is_reserved":false,"is_disabled":false,"rental_uris":{"android":"levelo://app?vid=e166311b-ab8b-4b53-b2d9-495939d8c0b8","ios":"levelo://app?vid=e166311b-ab8b-4b53-b2d9-495939d8c0b8"},"vehicle_type_id":"4","last_reported":1730063274,"current_range_meters":18000,"station_id":"ce4bh0p2rcd13ifvqd70","pricing_plan_id":"cebpf4jnsgd1na2vs0mg"},{"bike_id":"6875a1a6-32b9-4783-93f5-84a3a0c85f67","system_id":"levelo_inurba_marseille","lat":43.23069,"lon":5.35508,"is_reserved":false,"is_disabled":false,"rental_uris":{"android":"levelo://app?vid=6875a1a6-32b9-4783-93f5-84a3a0c85f67","ios":"levelo://app?vid=6875a1a6-32b9-4783-93f5-84a3a0c85f67"},"vehicle_type_id":"4","last_reported":1730063274,"current_range_meters":23200,"station_id":"cpo3342slgdg3j2ifvpg","pricing_plan_id":"cebpf4jnsgd1na2vs0mg"},{"bike_id":"87a74f58-2896-4416-8fd1-40765d16737a","system_id":"levelo_inurba_marseille","lat":43.30127,"lon":5.387825,"is_reserved":false,"is_disabled":false,"rental_uris":{"android":"levelo://app?vid=87a74f58-2896-4416-8fd1-40765d16737a","ios":"levelo://app?vid=87a74f58-2896-4416-8fd1-40765d16737a"},"vehicle_type_id":"4","last_reported":1730063274,"current_range_meters":5600,"station_id":"ce4bghh2rcd13ifvqb60","pricing_plan_id":"cebpf4jnsgd1na2vs0mg"},{"bike_id":"1a680da0-3124-4ddc-a1a0-6d58d1e39ffd","system_id":"levelo_inurba_marseille","lat":43.26028,"lon":5.37549,"is_reserved":false,"is_disabled":false,"rental_uris":{"android":"levelo://app?vid=1a680da0-3124-4ddc-a1a0-6d58d1e39ffd","ios":"levelo://app?vid=1a680da0-3124-4ddc-a1a0-6d58d1e39ffd"},"vehicle_type_id":"4","last_reported":1730063274,"current_range_meters":9200,"station_id":"ce4bhgh2rcd13ifvqfa0","pricing_plan_id":"cebpf4jnsgd1na2vs0mg"},{"bike_id":"069d272f-e430-427b-b418-1447afb3a5fd","system_id":"levelo_inurba_marseille","lat":43.29032,"lon":5.38639,"is_reserved":false,"is_disabled":false,"rental_uris":{"android":"levelo://app?vid=069d272f-e430-427b-b418-1447afb3a5fd","ios":"levelo://app?vid=069d272f-e430-427b-b418-1447afb3a5fd"},"vehicle_type_id":"4","last_reported":1730063274,"current_range_meters":38800,"station_id":"ce4bh4p2rcd13ifvqe0g","pricing_plan_id":"cebpf4jnsgd1na2vs0mg"},{"bike_id":"e89036ab-06cb-459b-91f1-830ff3435de6","system_id":"levelo_inurba_marseille","lat":43.23192,"lon":5.35549,"is_reserved":false,"is_disabled":false,"rental_uris":{"android":"levelo://app?vid=e89036ab-06cb-459b-91f1-830ff3435de6","ios":"levelo://app?vid=e89036ab-06cb-459b-91f1-830ff3435de6"},"vehicle_type_id":"4","last_reported":1730063274,"current_range_meters":38800,"station_id":"ce4bhu92rcd13ifvqi70","pricing_plan_id":"cebpf4jnsgd1na2vs0mg"},{"bike_id":"29e4d27e-c275-400d-963d-7448af940e61","system_id":"levelo_inurba_marseille","lat":43.32334,"lon":5.40621,"is_reserved":false,"is_disabled":false,"rental_uris":{"android":"levelo://app?vid=29e4d27e-c275-400d-963d-7448af940e61","ios":"levelo://app?vid=29e4d27e-c275-400d-963d-7448af940e61"},"vehicle_type_id":"4","last_reported":1730063274,"current_range_meters":22000,"station_id":"ce4bhq92rcd13ifvqhjg","pricing_plan_id":"cebpf4jnsgd1na2vs0mg"},{"bike_id":"66fb00a7-295c-492a-b5c9-538d3dea086f","system_id":"levelo_inurba_marseille","lat":43.23184,"lon":5.4372,"is_reserved":false,"is_disabled":false,"rental_uris":{"android":"levelo://app?vid=66fb00a7-295c-492a-b5c9-538d3dea086f","ios":"levelo://app?vid=66fb00a7-295c-492a-b5c9-538d3dea086f"},"vehicle_type_id":"4","last_reported":1730063274,"current_range_meters":24400,"station_id":"","pricing_plan_id":"cebpf4jnsgd1na2vs0mg"},{"bike_id":"47649c8d-953a-49e4-97ba-ecb896941db1","system_id":"levelo_inurba_marseille","lat":43.29022,"lon":5.38134,"is_reserved":false,"is_disabled":false,"rental_uris":{"android":"levelo://app?vid=47649c8d-953a-49e4-97ba-ecb896941db1","ios":"levelo://app?vid=47649c8d-953a-49e4-97ba-ecb896941db1"},"vehicle_type_id":"4","last_reported":1730063274,"current_range_meters":38800,"station_id":"ce4bh4p2rcd13ifvqe1g","pricing_plan_id":"cebpf4jnsgd1na2vs0mg"},{"bike_id":"37e1f818-39bd-426d-996c-7e8dc6637cba","system_id":"levelo_inurba_marseille","lat":43.29537,"lon":5.38536,"is_reserved":false,"is_disabled":false,"rental_uris":{"android":"levelo://app?vid=37e1f818-39bd-426d-996c-7e8dc6637cba","ios":"levelo://app?vid=37e1f818-39bd-426d-996c-7e8dc6637cba"},"vehicle_type_id":"4","last_reported":1730063274,"current_range_meters":32800,"station_id":"ce4bgih2rcd13ifvqba0","pricing_plan_id":"cebpf4jnsgd1na2vs0mg"},{"bike_id":"9caa3f6b-a894-4e56-bc37-e4603b716603","system_id":"levelo_inurba_marseille","lat":43.29363,"lon":5.37852,"is_reserved":false,"is_disabled":false,"rental_uris":{"android":"levelo://app?vid=9caa3f6b-a894-4e56-bc37-e4603b716603","ios":"levelo://app?vid=9caa3f6b-a894-4e56-bc37-e4603b716603"},"vehicle_type_id":"4","last_reported":1730063274,"current_range_meters":20400,"station_id":"ce4bgjh2rcd13ifvqbf0","pricing_plan_id":"cebpf4jnsgd1na2vs0mg"},{"bike_id":"d464c49d-bc40-4fe1-bdbe-eb5c2433c7e8","system_id":"levelo_inurba_marseille","lat":43.27323,"lon":5.39085,"is_reserved":false,"is_disabled":false,"rental_uris":{"android":"levelo://app?vid=d464c49d-bc40-4fe1-bdbe-eb5c2433c7e8","ios":"levelo://app?vid=d464c49d-bc40-4fe1-bdbe-eb5c2433c7e8"},"vehicle_type_id":"4","last_reported":1730063274,"current_range_meters":39200,"station_id":"ce4bhgp2rcd13ifvqfe0","pricing_plan_id":"cebpf4jnsgd1na2vs0mg"},{"bike_id":"f8f69440-1d84-4a76-a1cf-387af5f50993","system_id":"levelo_inurba_marseille","lat":43.29254,"lon":5.38428,"is_reserved":false,"is_disabled":false,"rental_uris":{"android":"levelo://app?vid=f8f69440-1d84-4a76-a1cf-387af5f50993","ios":"levelo://app?vid=f8f69440-1d84-4a76-a1cf-387af5f50993"},"vehicle_type_id":"4","last_reported":1730063274,"current_range_meters":38800,"station_id":"ce4bh692rcd13ifvqea0","pricing_plan_id":"cebpf4jnsgd1na2vs0mg"},{"bike_id":"15d52012-7d88-4459-b40c-87aa996e966f","system_id":"levelo_inurba_marseille","lat":43.29541,"lon":5.3854,"is_reserved":false,"is_disabled":false,"rental_uris":{"android":"levelo://app?vid=15d52012-7d88-4459-b40c-87aa996e966f","ios":"levelo://app?vid=15d52012-7d88-4459-b40c-87aa996e966f"},"vehicle_type_id":"4","last_reported":1730063274,"current_range_meters":37600,"station_id":"ce4bgih2rcd13ifvqba0","pricing_plan_id":"cebpf4jnsgd1na2vs0mg"},{"bike_id":"a9065413-c83c-40a0-a04d-95b9bc1bed91","system_id":"levelo_inurba_marseille","lat":43.2884,"lon":5.39308,"is_reserved":false,"is_disabled":false,"rental_uris":{"android":"levelo://app?vid=a9065413-c83c-40a0-a04d-95b9bc1bed91","ios":"levelo://app?vid=a9065413-c83c-40a0-a04d-95b9bc1bed91"},"vehicle_type_id":"4","last_reported":1730063274,"current_range_meters":6000,"station_id":"ce4bh2p2rcd13ifvqdi0","pricing_plan_id":"cebpf4jnsgd1na2vs0mg"},{"bike_id":"dc408d0f-b451-4c96-9d06-39735057a541","system_id":"levelo_inurba_marseille","lat":43.28724,"lon":5.36082,"is_reserved":false,"is_disabled":false,"rental_uris":{"android":"levelo://app?vid=dc408d0f-b451-4c96-9d06-39735057a541","ios":"levelo://app?vid=dc408d0f-b451-4c96-9d06-39735057a541"},"vehicle_type_id":"4","last_reported":1730063274,"current_range_meters":24400,"station_id":"cki0cbj6b192h4jlfktg","pricing_plan_id":"cebpf4jnsgd1na2vs0mg"},{"bike_id":"e94ab717-1404-44f7-a8c7-fe6c250f7f06","system_id":"levelo_inurba_marseille","lat":43.28855,"lon":5.35851,"is_reserved":false,"is_disabled":false,"rental_uris":{"android":"levelo://app?vid=e94ab717-1404-44f7-a8c7-fe6c250f7f06","ios":"levelo://app?vid=e94ab717-1404-44f7-a8c7-fe6c250f7f06"},"vehicle_type_id":"4","last_reported":1730063274,"current_range_meters":3200,"station_id":"ce4bhb12rcd13ifvqem0","pricing_plan_id":"cebpf4jnsgd1na2vs0mg"},{"bike_id":"0cc58e01-9be8-443b-89ce-ffb657cd4cdd","system_id":"levelo_inurba_marseille","lat":43.254669,"lon":5.376841,"is_reserved":false,"is_disabled":false,"rental_uris":{"android":"levelo://app?vid=0cc58e01-9be8-443b-89ce-ffb657cd4cdd","ios":"levelo://app?vid=0cc58e01-9be8-443b-89ce-ffb657cd4cdd"},"vehicle_type_id":"4","last_reported":1730063274,"current_range_meters":22400,"station_id":"ce4bhh12rcd13ifvqff0","pricing_plan_id":"cebpf4jnsgd1na2vs0mg"},{"bike_id":"7d6bfedb-2d6e-4015-8289-0a55585f13d6","system_id":"levelo_inurba_marseille","lat":43.27829,"lon":5.39208,"is_reserved":false,"is_disabled":false,"rental_uris":{"android":"levelo://app?vid=7d6bfedb-2d6e-4015-8289-0a55585f13d6","ios":"levelo://app?vid=7d6bfedb-2d6e-4015-8289-0a55585f13d6"},"vehicle_type_id":"4","last_reported":1730063274,"current_range_meters":38800,"station_id":"ce4bhjp2rcd13ifvqga0","pricing_plan_id":"cebpf4jnsgd1na2vs0mg"},{"bike_id":"d8f8d62c-901d-484e-b1ed-6e9f86fc3aaa","system_id":"levelo_inurba_marseille","lat":43.26939,"lon":5.40242,"is_reserved":false,"is_disabled":false,"rental_uris":{"android":"levelo://app?vid=d8f8d62c-901d-484e-b1ed-6e9f86fc3aaa","ios":"levelo://app?vid=d8f8d62c-901d-484e-b1ed-6e9f86fc3aaa"},"vehicle_type_id":"4","last_reported":1730063274,"current_range_meters":14800,"station_id":"cjm6bp8fraef2m0cb0m0","pricing_plan_id":"cebpf4jnsgd1na2vs0mg"},{"bike_id":"0bea5ef3-b7c5-41d1-8066-b7eb876b3d2e","system_id":"levelo_inurba_marseille","lat":43.29267,"lon":5.38441,"is_reserved":false,"is_disabled":false,"rental_uris":{"android":"levelo://app?vid=0bea5ef3-b7c5-41d1-8066-b7eb876b3d2e","ios":"levelo://app?vid=0bea5ef3-b7c5-41d1-8066-b7eb876b3d2e"},"vehicle_type_id":"4","last_reported":1730063274,"current_range_meters":38000,"station_id":"ce4bh692rcd13ifvqea0","pricing_plan_id":"cebpf4jnsgd1na2vs0mg"},{"bike_id":"cd8988cf-34e0-4cd8-92c1-67d3cd8c964e","system_id":"levelo_inurba_marseille","lat":43.23967,"lon":5.36624,"is_reserved":false,"is_disabled":false,"rental_uris":{"android":"levelo://app?vid=cd8988cf-34e0-4cd8-92c1-67d3cd8c964e","ios":"levelo://app?vid=cd8988cf-34e0-4cd8-92c1-67d3cd8c964e"},"vehicle_type_id":"4","last_reported":1730063274,"current_range_meters":14400,"station_id":"ce4bhi12rcd13ifvqfp0","pricing_plan_id":"cebpf4jnsgd1na2vs0mg"},{"bike_id":"ba7d3499-b1cf-4d9b-8af0-bc9b93e7d355","system_id":"levelo_inurba_marseille","lat":43.31712,"lon":5.43711,"is_reserved":false,"is_disabled":false,"rental_uris":{"android":"levelo://app?vid=ba7d3499-b1cf-4d9b-8af0-bc9b93e7d355","ios":"levelo://app?vid=ba7d3499-b1cf-4d9b-8af0-bc9b93e7d355"},"vehicle_type_id":"4","last_reported":1730063274,"current_range_meters":28800,"station_id":"ce4bhp92rcd13ifvqhcg","pricing_plan_id":"cebpf4jnsgd1na2vs0mg"},{"bike_id":"1747cfa9-b040-4698-b581-4316c2e2fdf4","system_id":"levelo_inurba_marseille","lat":43.30207,"lon":5.39453,"is_reserved":false,"is_disabled":false,"rental_uris":{"android":"levelo://app?vid=1747cfa9-b040-4698-b581-4316c2e2fdf4","ios":"levelo://app?vid=1747cfa9-b040-4698-b581-4316c2e2fdf4"},"vehicle_type_id":"4","last_reported":1730063274,"current_range_meters":13600,"station_id":"ce4bh0p2rcd13ifvqd70","pricing_plan_id":"cebpf4jnsgd1na2vs0mg"},{"bike_id":"2a4979b9-6d2a-47bf-80d2-0f23f2f15d3d","system_id":"levelo_inurba_marseille","lat":43.27828,"lon":5.39201,"is_reserved":false,"is_disabled":false,"rental_uris":{"android":"levelo://app?vid=2a4979b9-6d2a-47bf-80d2-0f23f2f15d3d","ios":"levelo://app?vid=2a4979b9-6d2a-47bf-80d2-0f23f2f15d3d"},"vehicle_type_id":"4","last_reported":1730063274,"current_range_meters":29600,"station_id":"ce4bhjp2rcd13ifvqga0","pricing_plan_id":"cebpf4jnsgd1na2vs0mg"},{"bike_id":"2cb4aed5-7884-4d29-8b8a-820d6184fd14","system_id":"levelo_inurba_marseille","lat":43.33023,"lon":5.39041,"is_reserved":false,"is_disabled":false,"rental_uris":{"android":"levelo://app?vid=2cb4aed5-7884-4d29-8b8a-820d6184fd14","ios":"levelo://app?vid=2cb4aed5-7884-4d29-8b8a-820d6184fd14"},"vehicle_type_id":"4","last_reported":1730063274,"current_range_meters":27600,"station_id":"ce4bhr92rcd13ifvqhrg","pricing_plan_id":"cebpf4jnsgd1na2vs0mg"},{"bike_id":"d4477f03-45a1-4b0f-a069-194064f96434","system_id":"levelo_inurba_marseille","lat":43.30139,"lon":5.39882,"is_reserved":false,"is_disabled":false,"rental_uris":{"android":"levelo://app?vid=d4477f03-45a1-4b0f-a069-194064f96434","ios":"levelo://app?vid=d4477f03-45a1-4b0f-a069-194064f96434"},"vehicle_type_id":"4","last_reported":1730063274,"current_range_meters":26800,"station_id":"ce4bh0h2rcd13ifvqd40","pricing_plan_id":"cebpf4jnsgd1na2vs0mg"},{"bike_id":"9cc7ecba-06f6-4341-b6b2-03cea0facdda","system_id":"levelo_inurba_marseille","lat":43.29538,"lon":5.38544,"is_reserved":false,"is_disabled":false,"rental_uris":{"android":"levelo://app?vid=9cc7ecba-06f6-4341-b6b2-03cea0facdda","ios":"levelo://app?vid=9cc7ecba-06f6-4341-b6b2-03cea0facdda"},"vehicle_type_id":"4","last_reported":1730063274,"current_range_meters":24400,"station_id":"ce4bgih2rcd13ifvqba0","pricing_plan_id":"cebpf4jnsgd1na2vs0mg"},{"bike_id":"3f8f3d50-15b0-44c3-a152-e86f7b67aaa2","system_id":"levelo_inurba_marseille","lat":43.29937,"lon":5.40088,"is_reserved":false,"is_disabled":false,"rental_uris":{"android":"levelo://app?vid=3f8f3d50-15b0-44c3-a152-e86f7b67aaa2","ios":"levelo://app?vid=3f8f3d50-15b0-44c3-a152-e86f7b67aaa2"},"vehicle_type_id":"4","last_reported":1730063274,"current_range_meters":28000,"station_id":"","pricing_plan_id":"cebpf4jnsgd1na2vs0mg"},{"bike_id":"321e4906-0df0-4f30-86f0-a1f103aa0d96","system_id":"levelo_inurba_marseille","lat":43.32368,"lon":5.38887,"is_reserved":false,"is_disabled":false,"rental_uris":{"android":"levelo://app?vid=321e4906-0df0-4f30-86f0-a1f103aa0d96","ios":"levelo://app?vid=321e4906-0df0-4f30-86f0-a1f103aa0d96"},"vehicle_type_id":"4","last_reported":1730063274,"current_range_meters":17600,"station_id":"ce4bhqp2rcd13ifvqhog","pricing_plan_id":"cebpf4jnsgd1na2vs0mg"},{"bike_id":"6981206a-d30e-4a3d-914c-c893cef2a8e3","system_id":"levelo_inurba_marseille","lat":43.28702,"lon":5.39988,"is_reserved":false,"is_disabled":false,"rental_uris":{"android":"levelo://app?vid=6981206a-d30e-4a3d-914c-c893cef2a8e3","ios":"levelo://app?vid=6981206a-d30e-4a3d-914c-c893cef2a8e3"},"vehicle_type_id":"4","last_reported":1730063274,"current_range_meters":38800,"station_id":"ce4bho92rcd13ifvqh3g","pricing_plan_id":"cebpf4jnsgd1na2vs0mg"},{"bike_id":"4fb0acb4-ca5f-4c77-b161-7454632dabad","system_id":"levelo_inurba_marseille","lat":43.27427,"lon":5.39407,"is_reserved":false,"is_disabled":false,"rental_uris":{"android":"levelo://app?vid=4fb0acb4-ca5f-4c77-b161-7454632dabad","ios":"levelo://app?vid=4fb0acb4-ca5f-4c77-b161-7454632dabad"},"vehicle_type_id":"4","last_reported":1730063274,"current_range_meters":38800,"station_id":"ce4bhdp2rcd13ifvqf20","pricing_plan_id":"cebpf4jnsgd1na2vs0mg"},{"bike_id":"bff575ca-c255-4a46-8a9d-4bac098e697d","system_id":"levelo_inurba_marseille","lat":43.28455,"lon":5.35884,"is_reserved":false,"is_disabled":false,"rental_uris":{"android":"levelo://app?vid=bff575ca-c255-4a46-8a9d-4bac098e697d","ios":"levelo://app?vid=bff575ca-c255-4a46-8a9d-4bac098e697d"},"vehicle_type_id":"4","last_reported":1730063274,"current_range_meters":25200,"station_id":"ce4bhah2rcd13ifvqei0","pricing_plan_id":"cebpf4jnsgd1na2vs0mg"},{"bike_id":"1fafbe93-2ba4-4077-bfcf-7b3992b30a25","system_id":"levelo_inurba_marseille","lat":43.29553,"lon":5.42285,"is_reserved":false,"is_disabled":false,"rental_uris":{"android":"levelo://app?vid=1fafbe93-2ba4-4077-bfcf-7b3992b30a25","ios":"levelo://app?vid=1fafbe93-2ba4-4077-bfcf-7b3992b30a25"},"vehicle_type_id":"4","last_reported":1730063274,"current_range_meters":40000,"station_id":"ce4bhph2rcd13ifvqhdg","pricing_plan_id":"cebpf4jnsgd1na2vs0mg"},{"bike_id":"0727f7fa-8959-4af5-8998-b27de5da9a6d","system_id":"levelo_inurba_marseille","lat":43.31375,"lon":5.38498,"is_reserved":false,"is_disabled":false,"rental_uris":{"android":"levelo://app?vid=0727f7fa-8959-4af5-8998-b27de5da9a6d","ios":"levelo://app?vid=0727f7fa-8959-4af5-8998-b27de5da9a6d"},"vehicle_type_id":"4","last_reported":1730063274,"current_range_meters":38000,"station_id":"ce4bgt92rcd13ifvqcf0","pricing_plan_id":"cebpf4jnsgd1na2vs0mg"},{"bike_id":"a647fa3a-f1b3-49c6-b9fc-d4e648c3f7cf","system_id":"levelo_inurba_marseille","lat":43.29199,"lon":5.39325,"is_reserved":false,"is_disabled":false,"rental_uris":{"android":"levelo://app?vid=a647fa3a-f1b3-49c6-b9fc-d4e648c3f7cf","ios":"levelo://app?vid=a647fa3a-f1b3-49c6-b9fc-d4e648c3f7cf"},"vehicle_type_id":"4","last_reported":1730063274,"current_range_meters":19200,"station_id":"ce4bh192rcd13ifvqdd0","pricing_plan_id":"cebpf4jnsgd1na2vs0mg"},{"bike_id":"c0cf353b-1df5-4ec8-a066-633b9031ad5b","system_id":"levelo_inurba_marseille","lat":43.30139,"lon":5.38781,"is_reserved":false,"is_disabled":false,"rental_uris":{"android":"levelo://app?vid=c0cf353b-1df5-4ec8-a066-633b9031ad5b","ios":"levelo://app?vid=c0cf353b-1df5-4ec8-a066-633b9031ad5b"},"vehicle_type_id":"4","last_reported":1730063274,"current_range_meters":24400,"station_id":"ce4bghh2rcd13ifvqb60","pricing_plan_id":"cebpf4jnsgd1na2vs0mg"},{"bike_id":"7a32b382-ecbc-4a6c-be57-da0e08aca0dd","system_id":"levelo_inurba_marseille","lat":43.30123,"lon":5.40363,"is_reserved":false,"is_disabled":false,"rental_uris":{"android":"levelo://app?vid=7a32b382-ecbc-4a6c-be57-da0e08aca0dd","ios":"levelo://app?vid=7a32b382-ecbc-4a6c-be57-da0e08aca0dd"},"vehicle_type_id":"4","last_reported":1730063274,"current_range_meters":38800,"station_id":"","pricing_plan_id":"cebpf4jnsgd1na2vs0mg"},{"bike_id":"9d0e8b25-5412-42fa-93da-f9140abef710","system_id":"levelo_inurba_marseille","lat":43.29422,"lon":5.386303,"is_reserved":false,"is_disabled":false,"rental_uris":{"android":"levelo://app?vid=9d0e8b25-5412-42fa-93da-f9140abef710","ios":"levelo://app?vid=9d0e8b25-5412-42fa-93da-f9140abef710"},"vehicle_type_id":"4","last_reported":1730063274,"current_range_meters":38400,"station_id":"ce4bh2h2rcd13ifvqdh0","pricing_plan_id":"cebpf4jnsgd1na2vs0mg"},{"bike_id":"e113f747-4daa-44f7-a218-9e030daa2565","system_id":"levelo_inurba_marseille","lat":43.32105,"lon":5.36773,"is_reserved":false,"is_disabled":false,"rental_uris":{"android":"levelo://app?vid=e113f747-4daa-44f7-a218-9e030daa2565","ios":"levelo://app?vid=e113f747-4daa-44f7-a218-9e030daa2565"},"vehicle_type_id":"4","last_reported":1730063274,"current_range_meters":24800,"station_id":"ce4bhrh2rcd13ifvqhug","pricing_plan_id":"cebpf4jnsgd1na2vs0mg"},{"bike_id":"c83bf92a-895e-4031-90cc-0a4806604b3f","system_id":"levelo_inurba_marseille","lat":43.23053,"lon":5.35497,"is_reserved":false,"is_disabled":false,"rental_uris":{"android":"levelo://app?vid=c83bf92a-895e-4031-90cc-0a4806604b3f","ios":"levelo://app?vid=c83bf92a-895e-4031-90cc-0a4806604b3f"},"vehicle_type_id":"4","last_reported":1730063274,"current_range_meters":38800,"station_id":"cpo3342slgdg3j2ifvpg","pricing_plan_id":"cebpf4jnsgd1na2vs0mg"},{"bike_id":"33e5e27c-5a4e-45f1-9065-6b6ad147ea8d","system_id":"levelo_inurba_marseille","lat":43.29995,"lon":5.37186,"is_reserved":false,"is_disabled":false,"rental_uris":{"android":"levelo://app?vid=33e5e27c-5a4e-45f1-9065-6b6ad147ea8d","ios":"levelo://app?vid=33e5e27c-5a4e-45f1-9065-6b6ad147ea8d"},"vehicle_type_id":"4","last_reported":1730063274,"current_range_meters":28800,"station_id":"ce4bgr92rcd13ifvqc7g","pricing_plan_id":"cebpf4jnsgd1na2vs0mg"},{"bike_id":"9fd56fad-5f3d-42b4-b491-7b57b76bc0cf","system_id":"levelo_inurba_marseille","lat":43.27814,"lon":5.40718,"is_reserved":false,"is_disabled":false,"rental_uris":{"android":"levelo://app?vid=9fd56fad-5f3d-42b4-b491-7b57b76bc0cf","ios":"levelo://app?vid=9fd56fad-5f3d-42b4-b491-7b57b76bc0cf"},"vehicle_type_id":"4","last_reported":1730063274,"current_range_meters":21600,"station_id":"ce4bhnh2rcd13ifvqgtg","pricing_plan_id":"cebpf4jnsgd1na2vs0mg"},{"bike_id":"67239e3e-59b1-45ae-ba43-a51f048c9c05","system_id":"levelo_inurba_marseille","lat":43.29205,"lon":5.3933,"is_reserved":false,"is_disabled":false,"rental_uris":{"android":"levelo://app?vid=67239e3e-59b1-45ae-ba43-a51f048c9c05","ios":"levelo://app?vid=67239e3e-59b1-45ae-ba43-a51f048c9c05"},"vehicle_type_id":"4","last_reported":1730063274,"current_range_meters":14400,"station_id":"ce4bh192rcd13ifvqdd0","pricing_plan_id":"cebpf4jnsgd1na2vs0mg"},{"bike_id":"0aadb7f3-1d93-4a23-b511-49b5dc291063","system_id":"levelo_inurba_marseille","lat":43.29908,"lon":5.38143,"is_reserved":false,"is_disabled":false,"rental_uris":{"android":"levelo://app?vid=0aadb7f3-1d93-4a23-b511-49b5dc291063","ios":"levelo://app?vid=0aadb7f3-1d93-4a23-b511-49b5dc291063"},"vehicle_type_id":"4","last_reported":1730063274,"current_range_meters":17200,"station_id":"ce4bgj12rcd13ifvqbc0","pricing_plan_id":"cebpf4jnsgd1na2vs0mg"},{"bike_id":"b502ad4f-4825-42a7-9380-4b1fe6eb7c94","system_id":"levelo_inurba_marseille","lat":43.29959,"lon":5.41323,"is_reserved":false,"is_disabled":false,"rental_uris":{"android":"levelo://app?vid=b502ad4f-4825-42a7-9380-4b1fe6eb7c94","ios":"levelo://app?vid=b502ad4f-4825-42a7-9380-4b1fe6eb7c94"},"vehicle_type_id":"4","last_reported":1730063274,"current_range_meters":37600,"station_id":"ce4bhp12rcd13ifvqh9g","pricing_plan_id":"cebpf4jnsgd1na2vs0mg"},{"bike_id":"8915ea8a-535c-40ab-b1cc-423818978796","system_id":"levelo_inurba_marseille","lat":43.27435,"lon":5.3941,"is_reserved":false,"is_disabled":false,"rental_uris":{"android":"levelo://app?vid=8915ea8a-535c-40ab-b1cc-423818978796","ios":"levelo://app?vid=8915ea8a-535c-40ab-b1cc-423818978796"},"vehicle_type_id":"4","last_reported":1730063274,"current_range_meters":10800,"station_id":"ce4bhdp2rcd13ifvqf20","pricing_plan_id":"cebpf4jnsgd1na2vs0mg"},{"bike_id":"158d128e-ca3e-47b3-9a87-9117aff99047","system_id":"levelo_inurba_marseille","lat":43.29715,"lon":5.39066,"is_reserved":false,"is_disabled":false,"rental_uris":{"android":"levelo://app?vid=158d128e-ca3e-47b3-9a87-9117aff99047","ios":"levelo://app?vid=158d128e-ca3e-47b3-9a87-9117aff99047"},"vehicle_type_id":"4","last_reported":1730063274,"current_range_meters":38400,"station_id":"","pricing_plan_id":"cebpf4jnsgd1na2vs0mg"},{"bike_id":"1d0d92b7-f6c1-4ccd-8c1f-6182976eb675","system_id":"levelo_inurba_marseille","lat":43.26209,"lon":5.37928,"is_reserved":false,"is_disabled":false,"rental_uris":{"android":"levelo://app?vid=1d0d92b7-f6c1-4ccd-8c1f-6182976eb675","ios":"levelo://app?vid=1d0d92b7-f6c1-4ccd-8c1f-6182976eb675"},"vehicle_type_id":"4","last_reported":1730063274,"current_range_meters":36800,"station_id":"ce4bhjp2rcd13ifvqg90","pricing_plan_id":"cebpf4jnsgd1na2vs0mg"},{"bike_id":"b95d4017-8669-4bd2-97fa-870dffb33df1","system_id":"levelo_inurba_marseille","lat":43.29267,"lon":5.38422,"is_reserved":false,"is_disabled":false,"rental_uris":{"android":"levelo://app?vid=b95d4017-8669-4bd2-97fa-870dffb33df1","ios":"levelo://app?vid=b95d4017-8669-4bd2-97fa-870dffb33df1"},"vehicle_type_id":"4","last_reported":1730063274,"current_range_meters":24000,"station_id":"ce4bh692rcd13ifvqea0","pricing_plan_id":"cebpf4jnsgd1na2vs0mg"},{"bike_id":"f1704452-cc24-4a74-8351-c1aa1bec66cb","system_id":"levelo_inurba_marseille","lat":43.28846,"lon":5.35851,"is_reserved":false,"is_disabled":false,"rental_uris":{"android":"levelo://app?vid=f1704452-cc24-4a74-8351-c1aa1bec66cb","ios":"levelo://app?vid=f1704452-cc24-4a74-8351-c1aa1bec66cb"},"vehicle_type_id":"4","last_reported":1730063274,"current_range_meters":30000,"station_id":"ce4bhb12rcd13ifvqem0","pricing_plan_id":"cebpf4jnsgd1na2vs0mg"},{"bike_id":"e516d94a-f497-42b0-a157-abab532d6c65","system_id":"levelo_inurba_marseille","lat":43.29524,"lon":5.39051,"is_reserved":false,"is_disabled":false,"rental_uris":{"android":"levelo://app?vid=e516d94a-f497-42b0-a157-abab532d6c65","ios":"levelo://app?vid=e516d94a-f497-42b0-a157-abab532d6c65"},"vehicle_type_id":"4","last_reported":1730063274,"current_range_meters":36000,"station_id":"ce4bh3p2rcd13ifvqdp0","pricing_plan_id":"cebpf4jnsgd1na2vs0mg"},{"bike_id":"0529f3c7-f8cd-46e2-b424-4c806f6294ac","system_id":"levelo_inurba_marseille","lat":43.28003,"lon":5.40019,"is_reserved":false,"is_disabled":false,"rental_uris":{"android":"levelo://app?vid=0529f3c7-f8cd-46e2-b424-4c806f6294ac","ios":"levelo://app?vid=0529f3c7-f8cd-46e2-b424-4c806f6294ac"},"vehicle_type_id":"4","last_reported":1730063274,"current_range_meters":22000,"station_id":"ce4bho92rcd13ifvqh4g","pricing_plan_id":"cebpf4jnsgd1na2vs0mg"},{"bike_id":"b8199a3a-a79b-449e-9a5f-c4f97c829179","system_id":"levelo_inurba_marseille","lat":43.29256,"lon":5.38432,"is_reserved":false,"is_disabled":false,"rental_uris":{"android":"levelo://app?vid=b8199a3a-a79b-449e-9a5f-c4f97c829179","ios":"levelo://app?vid=b8199a3a-a79b-449e-9a5f-c4f97c829179"},"vehicle_type_id":"4","last_reported":1730063274,"current_range_meters":27600,"station_id":"ce4bh692rcd13ifvqea0","pricing_plan_id":"cebpf4jnsgd1na2vs0mg"},{"bike_id":"04bea5fa-6c54-46bc-b7fd-75068383b614","system_id":"levelo_inurba_marseille","lat":43.27433,"lon":5.39417,"is_reserved":false,"is_disabled":false,"rental_uris":{"android":"levelo://app?vid=04bea5fa-6c54-46bc-b7fd-75068383b614","ios":"levelo://app?vid=04bea5fa-6c54-46bc-b7fd-75068383b614"},"vehicle_type_id":"4","last_reported":1730063274,"current_range_meters":29600,"station_id":"ce4bhdp2rcd13ifvqf20","pricing_plan_id":"cebpf4jnsgd1na2vs0mg"},{"bike_id":"b37e96b1-66a8-418c-925e-62e6a3974e6c","system_id":"levelo_inurba_marseille","lat":43.2962,"lon":5.3716,"is_reserved":false,"is_disabled":false,"rental_uris":{"android":"levelo://app?vid=b37e96b1-66a8-418c-925e-62e6a3974e6c","ios":"levelo://app?vid=b37e96b1-66a8-418c-925e-62e6a3974e6c"},"vehicle_type_id":"4","last_reported":1730063274,"current_range_meters":11600,"station_id":"ce4bgnh2rcd13ifvqc0g","pricing_plan_id":"cebpf4jnsgd1na2vs0mg"},{"bike_id":"ba7ff12b-4fb3-47ea-b304-85ab8fca1364","system_id":"levelo_inurba_marseille","lat":43.32289,"lon":5.38271,"is_reserved":false,"is_disabled":false,"rental_uris":{"android":"levelo://app?vid=ba7ff12b-4fb3-47ea-b304-85ab8fca1364","ios":"levelo://app?vid=ba7ff12b-4fb3-47ea-b304-85ab8fca1364"},"vehicle_type_id":"4","last_reported":1730063274,"current_range_meters":38000,"station_id":"ce4bhr12rcd13ifvqhqg","pricing_plan_id":"cebpf4jnsgd1na2vs0mg"},{"bike_id":"c2e7e342-96c6-4bd2-9386-4547a78b4921","system_id":"levelo_inurba_marseille","lat":43.3014,"lon":5.38776,"is_reserved":false,"is_disabled":false,"rental_uris":{"android":"levelo://app?vid=c2e7e342-96c6-4bd2-9386-4547a78b4921","ios":"levelo://app?vid=c2e7e342-96c6-4bd2-9386-4547a78b4921"},"vehicle_type_id":"4","last_reported":1730063274,"current_range_meters":13600,"station_id":"ce4bghh2rcd13ifvqb60","pricing_plan_id":"cebpf4jnsgd1na2vs0mg"},{"bike_id":"7b747315-2231-4da7-847b-aaed05a02b50","system_id":"levelo_inurba_marseille","lat":43.29255,"lon":5.3843,"is_reserved":false,"is_disabled":false,"rental_uris":{"android":"levelo://app?vid=7b747315-2231-4da7-847b-aaed05a02b50","ios":"levelo://app?vid=7b747315-2231-4da7-847b-aaed05a02b50"},"vehicle_type_id":"4","last_reported":1730063274,"current_range_meters":22800,"station_id":"ce4bh692rcd13ifvqea0","pricing_plan_id":"cebpf4jnsgd1na2vs0mg"},{"bike_id":"7cf6ce5b-0001-4f60-89f6-c9705203bdd3","system_id":"levelo_inurba_marseille","lat":43.26786,"lon":5.39403,"is_reserved":false,"is_disabled":false,"rental_uris":{"android":"levelo://app?vid=7cf6ce5b-0001-4f60-89f6-c9705203bdd3","ios":"levelo://app?vid=7cf6ce5b-0001-4f60-89f6-c9705203bdd3"},"vehicle_type_id":"4","last_reported":1730063274,"current_range_meters":8400,"station_id":"ce4bh292rcd13ifvqdg0","pricing_plan_id":"cebpf4jnsgd1na2vs0mg"},{"bike_id":"5436984f-20f5-4b7e-b8d9-ee8495b6cc9b","system_id":"levelo_inurba_marseille","lat":43.28467,"lon":5.38418,"is_reserved":false,"is_disabled":false,"rental_uris":{"android":"levelo://app?vid=5436984f-20f5-4b7e-b8d9-ee8495b6cc9b","ios":"levelo://app?vid=5436984f-20f5-4b7e-b8d9-ee8495b6cc9b"},"vehicle_type_id":"4","last_reported":1730063274,"current_range_meters":35200,"station_id":"ce4bh512rcd13ifvqe3g","pricing_plan_id":"cebpf4jnsgd1na2vs0mg"},{"bike_id":"4bfe12b8-7195-43ef-9ce7-8c95fe5bfb47","system_id":"levelo_inurba_marseille","lat":43.30307,"lon":5.39209,"is_reserved":false,"is_disabled":false,"rental_uris":{"android":"levelo://app?vid=4bfe12b8-7195-43ef-9ce7-8c95fe5bfb47","ios":"levelo://app?vid=4bfe12b8-7195-43ef-9ce7-8c95fe5bfb47"},"vehicle_type_id":"4","last_reported":1730063274,"current_range_meters":34000,"station_id":"ce4bgkh2rcd13ifvqbk0","pricing_plan_id":"cebpf4jnsgd1na2vs0mg"},{"bike_id":"f7a50275-88a4-4be4-ac33-5cce1242cfaa","system_id":"levelo_inurba_marseille","lat":43.31708,"lon":5.37746,"is_reserved":false,"is_disabled":false,"rental_uris":{"android":"levelo://app?vid=f7a50275-88a4-4be4-ac33-5cce1242cfaa","ios":"levelo://app?vid=f7a50275-88a4-4be4-ac33-5cce1242cfaa"},"vehicle_type_id":"4","last_reported":1730063274,"current_range_meters":38800,"station_id":"ce4bgth2rcd13ifvqch0","pricing_plan_id":"cebpf4jnsgd1na2vs0mg"},{"bike_id":"fa0b4bbd-eb47-44a3-a85f-8cf6702f18ae","system_id":"levelo_inurba_marseille","lat":43.31171,"lon":5.38715,"is_reserved":false,"is_disabled":false,"rental_uris":{"android":"levelo://app?vid=fa0b4bbd-eb47-44a3-a85f-8cf6702f18ae","ios":"levelo://app?vid=fa0b4bbd-eb47-44a3-a85f-8cf6702f18ae"},"vehicle_type_id":"4","last_reported":1730063274,"current_range_meters":20000,"station_id":"ce4bgv12rcd13ifvqcp0","pricing_plan_id":"cebpf4jnsgd1na2vs0mg"},{"bike_id":"59e82a4e-1841-4082-84ae-50a5176e85f8","system_id":"levelo_inurba_marseille","lat":43.29681,"lon":5.37286,"is_reserved":false,"is_disabled":false,"rental_uris":{"android":"levelo://app?vid=59e82a4e-1841-4082-84ae-50a5176e85f8","ios":"levelo://app?vid=59e82a4e-1841-4082-84ae-50a5176e85f8"},"vehicle_type_id":"4","last_reported":1730063274,"current_range_meters":38400,"station_id":"ce4bgk12rcd13ifvqbj0","pricing_plan_id":"cebpf4jnsgd1na2vs0mg"},{"bike_id":"2af0357b-0b54-4de4-84ca-424bad4ad85a","system_id":"levelo_inurba_marseille","lat":43.29259,"lon":5.38446,"is_reserved":false,"is_disabled":false,"rental_uris":{"android":"levelo://app?vid=2af0357b-0b54-4de4-84ca-424bad4ad85a","ios":"levelo://app?vid=2af0357b-0b54-4de4-84ca-424bad4ad85a"},"vehicle_type_id":"4","last_reported":1730063274,"current_range_meters":38800,"station_id":"ce4bh692rcd13ifvqea0","pricing_plan_id":"cebpf4jnsgd1na2vs0mg"},{"bike_id":"4cf016cf-222a-4af0-b71c-5001d7c7e17d","system_id":"levelo_inurba_marseille","lat":43.25093,"lon":5.39511,"is_reserved":false,"is_disabled":false,"rental_uris":{"android":"levelo://app?vid=4cf016cf-222a-4af0-b71c-5001d7c7e17d","ios":"levelo://app?vid=4cf016cf-222a-4af0-b71c-5001d7c7e17d"},"vehicle_type_id":"4","last_reported":1730063274,"current_range_meters":35600,"station_id":"ce4bhm12rcd13ifvqgkg","pricing_plan_id":"cebpf4jnsgd1na2vs0mg"},{"bike_id":"0dd7a080-656a-4e8d-bd83-0349ab243d8d","system_id":"levelo_inurba_marseille","lat":43.26556,"lon":5.37283,"is_reserved":false,"is_disabled":false,"rental_uris":{"android":"levelo://app?vid=0dd7a080-656a-4e8d-bd83-0349ab243d8d","ios":"levelo://app?vid=0dd7a080-656a-4e8d-bd83-0349ab243d8d"},"vehicle_type_id":"4","last_reported":1730063274,"current_range_meters":25200,"station_id":"ce4bhg12rcd13ifvqf70","pricing_plan_id":"cebpf4jnsgd1na2vs0mg"},{"bike_id":"b7593b9f-bec6-480e-834f-c0321bab379e","system_id":"levelo_inurba_marseille","lat":43.2731,"lon":5.39088,"is_reserved":false,"is_disabled":false,"rental_uris":{"android":"levelo://app?vid=b7593b9f-bec6-480e-834f-c0321bab379e","ios":"levelo://app?vid=b7593b9f-bec6-480e-834f-c0321bab379e"},"vehicle_type_id":"4","last_reported":1730063274,"current_range_meters":20400,"station_id":"ce4bhgp2rcd13ifvqfe0","pricing_plan_id":"cebpf4jnsgd1na2vs0mg"},{"bike_id":"f92ab607-37b6-4d8b-aa31-73b6e9b0973c","system_id":"levelo_inurba_marseille","lat":43.29263,"lon":5.38432,"is_reserved":false,"is_disabled":false,"rental_uris":{"android":"levelo://app?vid=f92ab607-37b6-4d8b-aa31-73b6e9b0973c","ios":"levelo://app?vid=f92ab607-37b6-4d8b-aa31-73b6e9b0973c"},"vehicle_type_id":"4","last_reported":1730063274,"current_range_meters":28400,"station_id":"ce4bh692rcd13ifvqea0","pricing_plan_id":"cebpf4jnsgd1na2vs0mg"},{"bike_id":"8d1224ea-8c67-414f-8e8e-8dff85dd0343","system_id":"levelo_inurba_marseille","lat":43.25002,"lon":5.38925,"is_reserved":false,"is_disabled":false,"rental_uris":{"android":"levelo://app?vid=8d1224ea-8c67-414f-8e8e-8dff85dd0343","ios":"levelo://app?vid=8d1224ea-8c67-414f-8e8e-8dff85dd0343"},"vehicle_type_id":"4","last_reported":1730063274,"current_range_meters":35600,"station_id":"ce4bhgp2rcd13ifvqfd0","pricing_plan_id":"cebpf4jnsgd1na2vs0mg"},{"bike_id":"9befed88-9f8c-464c-b07b-093bd97066bb","system_id":"levelo_inurba_marseille","lat":43.29805,"lon":5.37136,"is_reserved":false,"is_disabled":false,"rental_uris":{"android":"levelo://app?vid=9befed88-9f8c-464c-b07b-093bd97066bb","ios":"levelo://app?vid=9befed88-9f8c-464c-b07b-093bd97066bb"},"vehicle_type_id":"4","last_reported":1730063274,"current_range_meters":18000,"station_id":"","pricing_plan_id":"cebpf4jnsgd1na2vs0mg"},{"bike_id":"f37e3b02-a49c-4c4e-b112-f9c8c24edf90","system_id":"levelo_inurba_marseille","lat":43.2319,"lon":5.35552,"is_reserved":false,"is_disabled":false,"rental_uris":{"android":"levelo://app?vid=f37e3b02-a49c-4c4e-b112-f9c8c24edf90","ios":"levelo://app?vid=f37e3b02-a49c-4c4e-b112-f9c8c24edf90"},"vehicle_type_id":"4","last_reported":1730063274,"current_range_meters":14400,"station_id":"ce4bhu92rcd13ifvqi70","pricing_plan_id":"cebpf4jnsgd1na2vs0mg"},{"bike_id":"4652e07f-6120-439c-b1de-6fdd8652dbf2","system_id":"levelo_inurba_marseille","lat":43.29262,"lon":5.38435,"is_reserved":false,"is_disabled":false,"rental_uris":{"android":"levelo://app?vid=4652e07f-6120-439c-b1de-6fdd8652dbf2","ios":"levelo://app?vid=4652e07f-6120-439c-b1de-6fdd8652dbf2"},"vehicle_type_id":"4","last_reported":1730063274,"current_range_meters":36800,"station_id":"ce4bh692rcd13ifvqea0","pricing_plan_id":"cebpf4jnsgd1na2vs0mg"},{"bike_id":"a5d4a866-812f-43c1-8082-3f1f44771528","system_id":"levelo_inurba_marseille","lat":43.28723,"lon":5.37939,"is_reserved":false,"is_disabled":false,"rental_uris":{"android":"levelo://app?vid=a5d4a866-812f-43c1-8082-3f1f44771528","ios":"levelo://app?vid=a5d4a866-812f-43c1-8082-3f1f44771528"},"vehicle_type_id":"4","last_reported":1730063274,"current_range_meters":38800,"station_id":"ce4bh9p2rcd13ifvqec0","pricing_plan_id":"cebpf4jnsgd1na2vs0mg"},{"bike_id":"e03b0508-ff7b-4228-9b57-f4355a06cb01","system_id":"levelo_inurba_marseille","lat":43.29262,"lon":5.38437,"is_reserved":false,"is_disabled":false,"rental_uris":{"android":"levelo://app?vid=e03b0508-ff7b-4228-9b57-f4355a06cb01","ios":"levelo://app?vid=e03b0508-ff7b-4228-9b57-f4355a06cb01"},"vehicle_type_id":"4","last_reported":1730063274,"current_range_meters":38800,"station_id":"ce4bh692rcd13ifvqea0","pricing_plan_id":"cebpf4jnsgd1na2vs0mg"},{"bike_id":"d3413428-2497-4b85-9dbe-c75aaff6cb06","system_id":"levelo_inurba_marseille","lat":43.292984,"lon":5.369022,"is_reserved":false,"is_disabled":false,"rental_uris":{"android":"levelo://app?vid=d3413428-2497-4b85-9dbe-c75aaff6cb06","ios":"levelo://app?vid=d3413428-2497-4b85-9dbe-c75aaff6cb06"},"vehicle_type_id":"4","last_reported":1730063274,"current_range_meters":8800,"station_id":"ce4bhbp2rcd13ifvqesg","pricing_plan_id":"cebpf4jnsgd1na2vs0mg"},{"bike_id":"d2d6dae7-fe90-4222-b120-2832e30f799c","system_id":"levelo_inurba_marseille","lat":43.29267,"lon":5.38445,"is_reserved":false,"is_disabled":false,"rental_uris":{"android":"levelo://app?vid=d2d6dae7-fe90-4222-b120-2832e30f799c","ios":"levelo://app?vid=d2d6dae7-fe90-4222-b120-2832e30f799c"},"vehicle_type_id":"4","last_reported":1730063274,"current_range_meters":36000,"station_id":"ce4bh692rcd13ifvqea0","pricing_plan_id":"cebpf4jnsgd1na2vs0mg"},{"bike_id":"9ac03f4f-c6df-4bb5-9a66-665d8fac8401","system_id":"levelo_inurba_marseille","lat":43.29415,"lon":5.38645,"is_reserved":false,"is_disabled":false,"rental_uris":{"android":"levelo://app?vid=9ac03f4f-c6df-4bb5-9a66-665d8fac8401","ios":"levelo://app?vid=9ac03f4f-c6df-4bb5-9a66-665d8fac8401"},"vehicle_type_id":"4","last_reported":1730063274,"current_range_meters":17200,"station_id":"ce4bh2h2rcd13ifvqdh0","pricing_plan_id":"cebpf4jnsgd1na2vs0mg"},{"bike_id":"beef5695-1301-40c5-b411-df858ad941b0","system_id":"levelo_inurba_marseille","lat":43.29274,"lon":5.3685,"is_reserved":false,"is_disabled":false,"rental_uris":{"android":"levelo://app?vid=beef5695-1301-40c5-b411-df858ad941b0","ios":"levelo://app?vid=beef5695-1301-40c5-b411-df858ad941b0"},"vehicle_type_id":"4","last_reported":1730063274,"current_range_meters":38800,"station_id":"ce4bhbp2rcd13ifvqesg","pricing_plan_id":"cebpf4jnsgd1na2vs0mg"},{"bike_id":"9c975ea9-79b8-44be-86c3-0afb0514a4ca","system_id":"levelo_inurba_marseille","lat":43.28149,"lon":5.42644,"is_reserved":false,"is_disabled":false,"rental_uris":{"android":"levelo://app?vid=9c975ea9-79b8-44be-86c3-0afb0514a4ca","ios":"levelo://app?vid=9c975ea9-79b8-44be-86c3-0afb0514a4ca"},"vehicle_type_id":"4","last_reported":1730063274,"current_range_meters":23200,"station_id":"ce4bhnh2rcd13ifvqgug","pricing_plan_id":"cebpf4jnsgd1na2vs0mg"},{"bike_id":"f841edd2-586d-4da7-8f7b-36f477262ced","system_id":"levelo_inurba_marseille","lat":43.3014,"lon":5.39867,"is_reserved":false,"is_disabled":false,"rental_uris":{"android":"levelo://app?vid=f841edd2-586d-4da7-8f7b-36f477262ced","ios":"levelo://app?vid=f841edd2-586d-4da7-8f7b-36f477262ced"},"vehicle_type_id":"4","last_reported":1730063274,"current_range_meters":22000,"station_id":"ce4bh0h2rcd13ifvqd40","pricing_plan_id":"cebpf4jnsgd1na2vs0mg"},{"bike_id":"8acc9946-2581-42fb-ab53-6b04917b659e","system_id":"levelo_inurba_marseille","lat":43.2968,"lon":5.37295,"is_reserved":false,"is_disabled":false,"rental_uris":{"android":"levelo://app?vid=8acc9946-2581-42fb-ab53-6b04917b659e","ios":"levelo://app?vid=8acc9946-2581-42fb-ab53-6b04917b659e"},"vehicle_type_id":"4","last_reported":1730063274,"current_range_meters":37600,"station_id":"ce4bgk12rcd13ifvqbj0","pricing_plan_id":"cebpf4jnsgd1na2vs0mg"},{"bike_id":"e39645c5-87ac-4e87-90ca-e4c6f3ff67ce","system_id":"levelo_inurba_marseille","lat":43.299364,"lon":5.365573,"is_reserved":false,"is_disabled":false,"rental_uris":{"android":"levelo://app?vid=e39645c5-87ac-4e87-90ca-e4c6f3ff67ce","ios":"levelo://app?vid=e39645c5-87ac-4e87-90ca-e4c6f3ff67ce"},"vehicle_type_id":"4","last_reported":1730063274,"current_range_meters":34000,"station_id":"ce4bgm92rcd13ifvqbr0","pricing_plan_id":"cebpf4jnsgd1na2vs0mg"},{"bike_id":"625623ef-f1da-4a28-8f5e-a9ea3ef24976","system_id":"levelo_inurba_marseille","lat":43.29794,"lon":5.39342,"is_reserved":false,"is_disabled":false,"rental_uris":{"android":"levelo://app?vid=625623ef-f1da-4a28-8f5e-a9ea3ef24976","ios":"levelo://app?vid=625623ef-f1da-4a28-8f5e-a9ea3ef24976"},"vehicle_type_id":"4","last_reported":1730063274,"current_range_meters":37600,"station_id":"chh1huq6cuj3fo74tm60","pricing_plan_id":"cebpf4jnsgd1na2vs0mg"},{"bike_id":"cb2c4ade-c541-4fb2-bf85-388f712029ee","system_id":"levelo_inurba_marseille","lat":43.29024,"lon":5.38133,"is_reserved":false,"is_disabled":false,"rental_uris":{"android":"levelo://app?vid=cb2c4ade-c541-4fb2-bf85-388f712029ee","ios":"levelo://app?vid=cb2c4ade-c541-4fb2-bf85-388f712029ee"},"vehicle_type_id":"4","last_reported":1730063274,"current_range_meters":38000,"station_id":"ce4bh4p2rcd13ifvqe1g","pricing_plan_id":"cebpf4jnsgd1na2vs0mg"},{"bike_id":"65eb9f76-1be8-4bfe-a299-ac6c2f91a291","system_id":"levelo_inurba_marseille","lat":43.29254,"lon":5.38441,"is_reserved":false,"is_disabled":false,"rental_uris":{"android":"levelo://app?vid=65eb9f76-1be8-4bfe-a299-ac6c2f91a291","ios":"levelo://app?vid=65eb9f76-1be8-4bfe-a299-ac6c2f91a291"},"vehicle_type_id":"4","last_reported":1730063274,"current_range_meters":27600,"station_id":"ce4bh692rcd13ifvqea0","pricing_plan_id":"cebpf4jnsgd1na2vs0mg"},{"bike_id":"6b72aac1-bd6a-4710-a789-d97f5626b82c","system_id":"levelo_inurba_marseille","lat":43.296967,"lon":5.366557,"is_reserved":false,"is_disabled":false,"rental_uris":{"android":"levelo://app?vid=6b72aac1-bd6a-4710-a789-d97f5626b82c","ios":"levelo://app?vid=6b72aac1-bd6a-4710-a789-d97f5626b82c"},"vehicle_type_id":"4","last_reported":1730063274,"current_range_meters":34800,"station_id":"ce4bgn12rcd13ifvqbt0","pricing_plan_id":"cebpf4jnsgd1na2vs0mg"},{"bike_id":"3d729504-3198-4bd2-a0c7-ff4fc02f56e0","system_id":"levelo_inurba_marseille","lat":43.3168,"lon":5.37675,"is_reserved":false,"is_disabled":false,"rental_uris":{"android":"levelo://app?vid=3d729504-3198-4bd2-a0c7-ff4fc02f56e0","ios":"levelo://app?vid=3d729504-3198-4bd2-a0c7-ff4fc02f56e0"},"vehicle_type_id":"4","last_reported":1730063274,"current_range_meters":16000,"station_id":"ce4bgt12rcd13ifvqcd0","pricing_plan_id":"cebpf4jnsgd1na2vs0mg"},{"bike_id":"d015ac57-82e2-43b1-82cc-56c7eea3fcfc","system_id":"levelo_inurba_marseille","lat":43.27319,"lon":5.39077,"is_reserved":false,"is_disabled":false,"rental_uris":{"android":"levelo://app?vid=d015ac57-82e2-43b1-82cc-56c7eea3fcfc","ios":"levelo://app?vid=d015ac57-82e2-43b1-82cc-56c7eea3fcfc"},"vehicle_type_id":"4","last_reported":1730063274,"current_range_meters":8400,"station_id":"ce4bhgp2rcd13ifvqfe0","pricing_plan_id":"cebpf4jnsgd1na2vs0mg"},{"bike_id":"a08296db-b3f4-4d7c-b368-674ac3a21b1e","system_id":"levelo_inurba_marseille","lat":43.23061,"lon":5.35491,"is_reserved":false,"is_disabled":false,"rental_uris":{"android":"levelo://app?vid=a08296db-b3f4-4d7c-b368-674ac3a21b1e","ios":"levelo://app?vid=a08296db-b3f4-4d7c-b368-674ac3a21b1e"},"vehicle_type_id":"4","last_reported":1730063274,"current_range_meters":38800,"station_id":"cpo3342slgdg3j2ifvpg","pricing_plan_id":"cebpf4jnsgd1na2vs0mg"},{"bike_id":"15df30d1-16dd-4abd-ba4c-da9443f98a9c","system_id":"levelo_inurba_marseille","lat":43.29274,"lon":5.38431,"is_reserved":false,"is_disabled":false,"rental_uris":{"android":"levelo://app?vid=15df30d1-16dd-4abd-ba4c-da9443f98a9c","ios":"levelo://app?vid=15df30d1-16dd-4abd-ba4c-da9443f98a9c"},"vehicle_type_id":"4","last_reported":1730063274,"current_range_meters":24400,"station_id":"ce4bh692rcd13ifvqea0","pricing_plan_id":"cebpf4jnsgd1na2vs0mg"},{"bike_id":"b86d2c51-3632-4b6c-a98c-d6fa3cc2ba94","system_id":"levelo_inurba_marseille","lat":43.29259,"lon":5.38444,"is_reserved":false,"is_disabled":false,"rental_uris":{"android":"levelo://app?vid=b86d2c51-3632-4b6c-a98c-d6fa3cc2ba94","ios":"levelo://app?vid=b86d2c51-3632-4b6c-a98c-d6fa3cc2ba94"},"vehicle_type_id":"4","last_reported":1730063274,"current_range_meters":24000,"station_id":"ce4bh692rcd13ifvqea0","pricing_plan_id":"cebpf4jnsgd1na2vs0mg"},{"bike_id":"477cd90a-8a9d-4f2c-8ef4-702382168c43","system_id":"levelo_inurba_marseille","lat":43.276,"lon":5.41255,"is_reserved":false,"is_disabled":false,"rental_uris":{"android":"levelo://app?vid=477cd90a-8a9d-4f2c-8ef4-702382168c43","ios":"levelo://app?vid=477cd90a-8a9d-4f2c-8ef4-702382168c43"},"vehicle_type_id":"4","last_reported":1730063274,"current_range_meters":16000,"station_id":"","pricing_plan_id":"cebpf4jnsgd1na2vs0mg"},{"bike_id":"94d37431-9977-49e8-bd19-4bd6c3eb0cd0","system_id":"levelo_inurba_marseille","lat":43.29968,"lon":5.38501,"is_reserved":false,"is_disabled":false,"rental_uris":{"android":"levelo://app?vid=94d37431-9977-49e8-bd19-4bd6c3eb0cd0","ios":"levelo://app?vid=94d37431-9977-49e8-bd19-4bd6c3eb0cd0"},"vehicle_type_id":"4","last_reported":1730063274,"current_range_meters":38400,"station_id":"ce4bgj92rcd13ifvqbd0","pricing_plan_id":"cebpf4jnsgd1na2vs0mg"},{"bike_id":"73b2e096-bc42-4a5b-abae-105e49dcdd27","system_id":"levelo_inurba_marseille","lat":43.29408,"lon":5.38656,"is_reserved":false,"is_disabled":false,"rental_uris":{"android":"levelo://app?vid=73b2e096-bc42-4a5b-abae-105e49dcdd27","ios":"levelo://app?vid=73b2e096-bc42-4a5b-abae-105e49dcdd27"},"vehicle_type_id":"4","last_reported":1730063274,"current_range_meters":38400,"station_id":"ce4bh2h2rcd13ifvqdh0","pricing_plan_id":"cebpf4jnsgd1na2vs0mg"},{"bike_id":"fc54002c-c5a8-498b-8033-305979afe3a2","system_id":"levelo_inurba_marseille","lat":43.26944,"lon":5.40251,"is_reserved":false,"is_disabled":false,"rental_uris":{"android":"levelo://app?vid=fc54002c-c5a8-498b-8033-305979afe3a2","ios":"levelo://app?vid=fc54002c-c5a8-498b-8033-305979afe3a2"},"vehicle_type_id":"4","last_reported":1730063274,"current_range_meters":6800,"station_id":"cjm6bp8fraef2m0cb0m0","pricing_plan_id":"cebpf4jnsgd1na2vs0mg"},{"bike_id":"c6a8a819-dc43-4b40-a269-20489f7f4d28","system_id":"levelo_inurba_marseille","lat":43.28842,"lon":5.39303,"is_reserved":false,"is_disabled":false,"rental_uris":{"android":"levelo://app?vid=c6a8a819-dc43-4b40-a269-20489f7f4d28","ios":"levelo://app?vid=c6a8a819-dc43-4b40-a269-20489f7f4d28"},"vehicle_type_id":"4","last_reported":1730063274,"current_range_meters":33200,"station_id":"ce4bh2p2rcd13ifvqdi0","pricing_plan_id":"cebpf4jnsgd1na2vs0mg"},{"bike_id":"72f33990-5a0c-44ef-9d09-66d93400b4a5","system_id":"levelo_inurba_marseille","lat":43.31715,"lon":5.37729,"is_reserved":false,"is_disabled":false,"rental_uris":{"android":"levelo://app?vid=72f33990-5a0c-44ef-9d09-66d93400b4a5","ios":"levelo://app?vid=72f33990-5a0c-44ef-9d09-66d93400b4a5"},"vehicle_type_id":"4","last_reported":1730063274,"current_range_meters":36800,"station_id":"ce4bgth2rcd13ifvqch0","pricing_plan_id":"cebpf4jnsgd1na2vs0mg"},{"bike_id":"046b3e95-a220-472a-bde1-b8ee30a2ba1f","system_id":"levelo_inurba_marseille","lat":43.27207,"lon":5.39185,"is_reserved":false,"is_disabled":false,"rental_uris":{"android":"levelo://app?vid=046b3e95-a220-472a-bde1-b8ee30a2ba1f","ios":"levelo://app?vid=046b3e95-a220-472a-bde1-b8ee30a2ba1f"},"vehicle_type_id":"4","last_reported":1730063274,"current_range_meters":38800,"station_id":"ce4bhhp2rcd13ifvqfm0","pricing_plan_id":"cebpf4jnsgd1na2vs0mg"},{"bike_id":"9165fff1-34c0-43a9-b3a3-7c14ebdb7cbd","system_id":"levelo_inurba_marseille","lat":43.29261,"lon":5.38446,"is_reserved":false,"is_disabled":false,"rental_uris":{"android":"levelo://app?vid=9165fff1-34c0-43a9-b3a3-7c14ebdb7cbd","ios":"levelo://app?vid=9165fff1-34c0-43a9-b3a3-7c14ebdb7cbd"},"vehicle_type_id":"4","last_reported":1730063274,"current_range_meters":30400,"station_id":"ce4bh692rcd13ifvqea0","pricing_plan_id":"cebpf4jnsgd1na2vs0mg"},{"bike_id":"28dccaf3-d918-4dd8-8dc4-73cbd314cf3c","system_id":"levelo_inurba_marseille","lat":43.26208,"lon":5.3744,"is_reserved":false,"is_disabled":false,"rental_uris":{"android":"levelo://app?vid=28dccaf3-d918-4dd8-8dc4-73cbd314cf3c","ios":"levelo://app?vid=28dccaf3-d918-4dd8-8dc4-73cbd314cf3c"},"vehicle_type_id":"4","last_reported":1730063274,"current_range_meters":32400,"station_id":"ce4bhgp2rcd13ifvqfc0","pricing_plan_id":"cebpf4jnsgd1na2vs0mg"},{"bike_id":"76588601-f0de-444c-8708-6d6ae74a37db","system_id":"levelo_inurba_marseille","lat":43.23969,"lon":5.36637,"is_reserved":false,"is_disabled":false,"rental_uris":{"android":"levelo://app?vid=76588601-f0de-444c-8708-6d6ae74a37db","ios":"levelo://app?vid=76588601-f0de-444c-8708-6d6ae74a37db"},"vehicle_type_id":"4","last_reported":1730063274,"current_range_meters":38400,"station_id":"ce4bhi12rcd13ifvqfp0","pricing_plan_id":"cebpf4jnsgd1na2vs0mg"},{"bike_id":"7cdd88d2-5824-40fa-8faf-90ef733261c2","system_id":"levelo_inurba_marseille","lat":43.23969,"lon":5.36638,"is_reserved":false,"is_disabled":false,"rental_uris":{"android":"levelo://app?vid=7cdd88d2-5824-40fa-8faf-90ef733261c2","ios":"levelo://app?vid=7cdd88d2-5824-40fa-8faf-90ef733261c2"},"vehicle_type_id":"4","last_reported":1730063274,"current_range_meters":14400,"station_id":"ce4bhi12rcd13ifvqfp0","pricing_plan_id":"cebpf4jnsgd1na2vs0mg"},{"bike_id":"82c21484-3bb9-46cc-b462-a09db9c90b24","system_id":"levelo_inurba_marseille","lat":43.29261,"lon":5.38439,"is_reserved":false,"is_disabled":false,"rental_uris":{"android":"levelo://app?vid=82c21484-3bb9-46cc-b462-a09db9c90b24","ios":"levelo://app?vid=82c21484-3bb9-46cc-b462-a09db9c90b24"},"vehicle_type_id":"4","last_reported":1730063274,"current_range_meters":38800,"station_id":"ce4bh692rcd13ifvqea0","pricing_plan_id":"cebpf4jnsgd1na2vs0mg"},{"bike_id":"1f7be560-5521-4cbd-84d6-ae00ba43a2c0","system_id":"levelo_inurba_marseille","lat":43.30541,"lon":5.384239,"is_reserved":false,"is_disabled":false,"rental_uris":{"android":"levelo://app?vid=1f7be560-5521-4cbd-84d6-ae00ba43a2c0","ios":"levelo://app?vid=1f7be560-5521-4cbd-84d6-ae00ba43a2c0"},"vehicle_type_id":"4","last_reported":1730063274,"current_range_meters":26800,"station_id":"chh1huq6cuj3fo74tm60","pricing_plan_id":"cebpf4jnsgd1na2vs0mg"},{"bike_id":"9403ad19-9050-4623-81ae-08b1b66bb37c","system_id":"levelo_inurba_marseille","lat":43.23184,"lon":5.39984,"is_reserved":false,"is_disabled":false,"rental_uris":{"android":"levelo://app?vid=9403ad19-9050-4623-81ae-08b1b66bb37c","ios":"levelo://app?vid=9403ad19-9050-4623-81ae-08b1b66bb37c"},"vehicle_type_id":"4","last_reported":1730063274,"current_range_meters":22000,"station_id":"ce4bhn12rcd13ifvqgqg","pricing_plan_id":"cebpf4jnsgd1na2vs0mg"},{"bike_id":"4d5d1a61-2d95-46a5-90d7-17d152732de7","system_id":"levelo_inurba_marseille","lat":43.23964,"lon":5.36634,"is_reserved":false,"is_disabled":false,"rental_uris":{"android":"levelo://app?vid=4d5d1a61-2d95-46a5-90d7-17d152732de7","ios":"levelo://app?vid=4d5d1a61-2d95-46a5-90d7-17d152732de7"},"vehicle_type_id":"4","last_reported":1730063274,"current_range_meters":6800,"station_id":"ce4bhi12rcd13ifvqfp0","pricing_plan_id":"cebpf4jnsgd1na2vs0mg"},{"bike_id":"d5a1c7ae-9162-4121-b272-151b950895e5","system_id":"levelo_inurba_marseille","lat":43.27943,"lon":5.41053,"is_reserved":false,"is_disabled":false,"rental_uris":{"android":"levelo://app?vid=d5a1c7ae-9162-4121-b272-151b950895e5","ios":"levelo://app?vid=d5a1c7ae-9162-4121-b272-151b950895e5"},"vehicle_type_id":"4","last_reported":1730063274,"current_range_meters":18800,"station_id":"ce4bhnp2rcd13ifvqh0g","pricing_plan_id":"cebpf4jnsgd1na2vs0mg"},{"bike_id":"52ecacba-15ba-4ed7-b7e6-263a0a9ba727","system_id":"levelo_inurba_marseille","lat":43.28458,"lon":5.35889,"is_reserved":false,"is_disabled":false,"rental_uris":{"android":"levelo://app?vid=52ecacba-15ba-4ed7-b7e6-263a0a9ba727","ios":"levelo://app?vid=52ecacba-15ba-4ed7-b7e6-263a0a9ba727"},"vehicle_type_id":"4","last_reported":1730063274,"current_range_meters":6800,"station_id":"ce4bhah2rcd13ifvqei0","pricing_plan_id":"cebpf4jnsgd1na2vs0mg"},{"bike_id":"79b412b6-7504-41de-b13f-6567b5a9d93f","system_id":"levelo_inurba_marseille","lat":43.315308,"lon":5.380401,"is_reserved":false,"is_disabled":false,"rental_uris":{"android":"levelo://app?vid=79b412b6-7504-41de-b13f-6567b5a9d93f","ios":"levelo://app?vid=79b412b6-7504-41de-b13f-6567b5a9d93f"},"vehicle_type_id":"4","last_reported":1730063274,"current_range_meters":20000,"station_id":"ce4bhsp2rcd13ifvqi50","pricing_plan_id":"cebpf4jnsgd1na2vs0mg"},{"bike_id":"bd998f17-00bd-495a-b9fb-e99a3793875c","system_id":"levelo_inurba_marseille","lat":43.29416,"lon":5.38625,"is_reserved":false,"is_disabled":false,"rental_uris":{"android":"levelo://app?vid=bd998f17-00bd-495a-b9fb-e99a3793875c","ios":"levelo://app?vid=bd998f17-00bd-495a-b9fb-e99a3793875c"},"vehicle_type_id":"4","last_reported":1730063274,"current_range_meters":34800,"station_id":"ce4bh2h2rcd13ifvqdh0","pricing_plan_id":"cebpf4jnsgd1na2vs0mg"},{"bike_id":"cd68f1dc-3134-4c22-9fa5-8490da02f071","system_id":"levelo_inurba_marseille","lat":43.2315,"lon":5.43717,"is_reserved":false,"is_disabled":false,"rental_uris":{"android":"levelo://app?vid=cd68f1dc-3134-4c22-9fa5-8490da02f071","ios":"levelo://app?vid=cd68f1dc-3134-4c22-9fa5-8490da02f071"},"vehicle_type_id":"4","last_reported":1730063274,"current_range_meters":14000,"station_id":"ce4bhmp2rcd13ifvqgog","pricing_plan_id":"cebpf4jnsgd1na2vs0mg"},{"bike_id":"cb84e40b-81ff-4627-b0ce-8cbfe51443c2","system_id":"levelo_inurba_marseille","lat":43.27554,"lon":5.3842,"is_reserved":false,"is_disabled":false,"rental_uris":{"android":"levelo://app?vid=cb84e40b-81ff-4627-b0ce-8cbfe51443c2","ios":"levelo://app?vid=cb84e40b-81ff-4627-b0ce-8cbfe51443c2"},"vehicle_type_id":"4","last_reported":1730063274,"current_range_meters":26000,"station_id":"ce4bhh92rcd13ifvqfi0","pricing_plan_id":"cebpf4jnsgd1na2vs0mg"},{"bike_id":"395f0b43-7bbd-4779-b601-9f454e712f94","system_id":"levelo_inurba_marseille","lat":43.269373,"lon":5.402748,"is_reserved":false,"is_disabled":false,"rental_uris":{"android":"levelo://app?vid=395f0b43-7bbd-4779-b601-9f454e712f94","ios":"levelo://app?vid=395f0b43-7bbd-4779-b601-9f454e712f94"},"vehicle_type_id":"4","last_reported":1730063274,"current_range_meters":25600,"station_id":"cjm6bp8fraef2m0cb0m0","pricing_plan_id":"cebpf4jnsgd1na2vs0mg"},{"bike_id":"ee2495dc-0633-456b-9e5a-46edd252e1bd","system_id":"levelo_inurba_marseille","lat":43.25861,"lon":5.39898,"is_reserved":false,"is_disabled":false,"rental_uris":{"android":"levelo://app?vid=ee2495dc-0633-456b-9e5a-46edd252e1bd","ios":"levelo://app?vid=ee2495dc-0633-456b-9e5a-46edd252e1bd"},"vehicle_type_id":"4","last_reported":1730063274,"current_range_meters":17200,"station_id":"ce4bhl92rcd13ifvqghg","pricing_plan_id":"cebpf4jnsgd1na2vs0mg"},{"bike_id":"9fdd618c-9d4c-4d0c-83e5-693c5e6c8942","system_id":"levelo_inurba_marseille","lat":43.28034,"lon":5.36954,"is_reserved":false,"is_disabled":false,"rental_uris":{"android":"levelo://app?vid=9fdd618c-9d4c-4d0c-83e5-693c5e6c8942","ios":"levelo://app?vid=9fdd618c-9d4c-4d0c-83e5-693c5e6c8942"},"vehicle_type_id":"4","last_reported":1730063274,"current_range_meters":28400,"station_id":"ce4bha12rcd13ifvqef0","pricing_plan_id":"cebpf4jnsgd1na2vs0mg"},{"bike_id":"4a9a4c82-1cff-4384-bfc5-2b50d6587cfb","system_id":"levelo_inurba_marseille","lat":43.27818,"lon":5.40721,"is_reserved":false,"is_disabled":false,"rental_uris":{"android":"levelo://app?vid=4a9a4c82-1cff-4384-bfc5-2b50d6587cfb","ios":"levelo://app?vid=4a9a4c82-1cff-4384-bfc5-2b50d6587cfb"},"vehicle_type_id":"4","last_reported":1730063274,"current_range_meters":24800,"station_id":"ce4bhnh2rcd13ifvqgtg","pricing_plan_id":"cebpf4jnsgd1na2vs0mg"},{"bike_id":"a7c6eb8e-227c-4432-958d-8969596fd179","system_id":"levelo_inurba_marseille","lat":43.25727,"lon":5.41109,"is_reserved":false,"is_disabled":false,"rental_uris":{"android":"levelo://app?vid=a7c6eb8e-227c-4432-958d-8969596fd179","ios":"levelo://app?vid=a7c6eb8e-227c-4432-958d-8969596fd179"},"vehicle_type_id":"4","last_reported":1730063274,"current_range_meters":39200,"station_id":"ce4bhkp2rcd13ifvqgd0","pricing_plan_id":"cebpf4jnsgd1na2vs0mg"},{"bike_id":"e89316dc-a19a-469f-a9cd-dc00b495757e","system_id":"levelo_inurba_marseille","lat":43.27439,"lon":5.40638,"is_reserved":false,"is_disabled":false,"rental_uris":{"android":"levelo://app?vid=e89316dc-a19a-469f-a9cd-dc00b495757e","ios":"levelo://app?vid=e89316dc-a19a-469f-a9cd-dc00b495757e"},"vehicle_type_id":"4","last_reported":1730063274,"current_range_meters":8400,"station_id":"","pricing_plan_id":"cebpf4jnsgd1na2vs0mg"},{"bike_id":"88d679ce-bf81-422c-88c5-977567915cf3","system_id":"levelo_inurba_marseille","lat":43.27496,"lon":5.42455,"is_reserved":false,"is_disabled":false,"rental_uris":{"android":"levelo://app?vid=88d679ce-bf81-422c-88c5-977567915cf3","ios":"levelo://app?vid=88d679ce-bf81-422c-88c5-977567915cf3"},"vehicle_type_id":"4","last_reported":1730063274,"current_range_meters":10800,"station_id":"ce4bhn92rcd13ifvqgrg","pricing_plan_id":"cebpf4jnsgd1na2vs0mg"},{"bike_id":"4ba65b00-9e24-44a1-9d03-986d720a223c","system_id":"levelo_inurba_marseille","lat":43.25934,"lon":5.40909,"is_reserved":false,"is_disabled":false,"rental_uris":{"android":"levelo://app?vid=4ba65b00-9e24-44a1-9d03-986d720a223c","ios":"levelo://app?vid=4ba65b00-9e24-44a1-9d03-986d720a223c"},"vehicle_type_id":"4","last_reported":1730063274,"current_range_meters":24400,"station_id":"ce4bhm92rcd13ifvqglg","pricing_plan_id":"cebpf4jnsgd1na2vs0mg"},{"bike_id":"04dd23bb-f238-4eba-90d1-d80bc6673779","system_id":"levelo_inurba_marseille","lat":43.31167,"lon":5.38712,"is_reserved":false,"is_disabled":false,"rental_uris":{"android":"levelo://app?vid=04dd23bb-f238-4eba-90d1-d80bc6673779","ios":"levelo://app?vid=04dd23bb-f238-4eba-90d1-d80bc6673779"},"vehicle_type_id":"4","last_reported":1730063274,"current_range_meters":32800,"station_id":"ce4bgv12rcd13ifvqcp0","pricing_plan_id":"cebpf4jnsgd1na2vs0mg"},{"bike_id":"81e500be-3ff6-45b1-af40-237783c8efb0","system_id":"levelo_inurba_marseille","lat":43.27815,"lon":5.40714,"is_reserved":false,"is_disabled":false,"rental_uris":{"android":"levelo://app?vid=81e500be-3ff6-45b1-af40-237783c8efb0","ios":"levelo://app?vid=81e500be-3ff6-45b1-af40-237783c8efb0"},"vehicle_type_id":"4","last_reported":1730063274,"current_range_meters":12000,"station_id":"ce4bhnh2rcd13ifvqgtg","pricing_plan_id":"cebpf4jnsgd1na2vs0mg"},{"bike_id":"d1e8ce45-c463-4f89-ac74-a97eb436bb80","system_id":"levelo_inurba_marseille","lat":43.29851,"lon":5.36292,"is_reserved":false,"is_disabled":false,"rental_uris":{"android":"levelo://app?vid=d1e8ce45-c463-4f89-ac74-a97eb436bb80","ios":"levelo://app?vid=d1e8ce45-c463-4f89-ac74-a97eb436bb80"},"vehicle_type_id":"4","last_reported":1730063274,"current_range_meters":20400,"station_id":"ce4bgpp2rcd13ifvqc3g","pricing_plan_id":"cebpf4jnsgd1na2vs0mg"},{"bike_id":"2d0159d3-2254-4f28-96a3-7118f6490834","system_id":"levelo_inurba_marseille","lat":43.29032,"lon":5.38659,"is_reserved":false,"is_disabled":false,"rental_uris":{"android":"levelo://app?vid=2d0159d3-2254-4f28-96a3-7118f6490834","ios":"levelo://app?vid=2d0159d3-2254-4f28-96a3-7118f6490834"},"vehicle_type_id":"4","last_reported":1730063274,"current_range_meters":38800,"station_id":"ce4bh4p2rcd13ifvqe0g","pricing_plan_id":"cebpf4jnsgd1na2vs0mg"},{"bike_id":"1af7e080-1332-4911-8205-774cf596cdc7","system_id":"levelo_inurba_marseille","lat":43.29557,"lon":5.42294,"is_reserved":false,"is_disabled":false,"rental_uris":{"android":"levelo://app?vid=1af7e080-1332-4911-8205-774cf596cdc7","ios":"levelo://app?vid=1af7e080-1332-4911-8205-774cf596cdc7"},"vehicle_type_id":"4","last_reported":1730063274,"current_range_meters":24000,"station_id":"ce4bhph2rcd13ifvqhdg","pricing_plan_id":"cebpf4jnsgd1na2vs0mg"},{"bike_id":"32350967-9ffa-4cf7-8040-cf1beee718c9","system_id":"levelo_inurba_marseille","lat":43.29569,"lon":5.37532,"is_reserved":false,"is_disabled":false,"rental_uris":{"android":"levelo://app?vid=32350967-9ffa-4cf7-8040-cf1beee718c9","ios":"levelo://app?vid=32350967-9ffa-4cf7-8040-cf1beee718c9"},"vehicle_type_id":"4","last_reported":1730063274,"current_range_meters":35600,"station_id":"ce4bgh92rcd13ifvqb50","pricing_plan_id":"cebpf4jnsgd1na2vs0mg"},{"bike_id":"532a8a50-a172-4493-81c1-f1c7d1ff38b6","system_id":"levelo_inurba_marseille","lat":43.28941,"lon":5.36636,"is_reserved":false,"is_disabled":false,"rental_uris":{"android":"levelo://app?vid=532a8a50-a172-4493-81c1-f1c7d1ff38b6","ios":"levelo://app?vid=532a8a50-a172-4493-81c1-f1c7d1ff38b6"},"vehicle_type_id":"4","last_reported":1730063274,"current_range_meters":36000,"station_id":"ce4bhap2rcd13ifvqek0","pricing_plan_id":"cebpf4jnsgd1na2vs0mg"},{"bike_id":"38c2f697-c44f-4998-acd0-cd2c4add28af","system_id":"levelo_inurba_marseille","lat":43.2942,"lon":5.38646,"is_reserved":false,"is_disabled":false,"rental_uris":{"android":"levelo://app?vid=38c2f697-c44f-4998-acd0-cd2c4add28af","ios":"levelo://app?vid=38c2f697-c44f-4998-acd0-cd2c4add28af"},"vehicle_type_id":"4","last_reported":1730063274,"current_range_meters":12800,"station_id":"ce4bh2h2rcd13ifvqdh0","pricing_plan_id":"cebpf4jnsgd1na2vs0mg"},{"bike_id":"f57b35df-8b2b-448e-8757-7e05aa11ecb9","system_id":"levelo_inurba_marseille","lat":43.26203,"lon":5.37926,"is_reserved":false,"is_disabled":false,"rental_uris":{"android":"levelo://app?vid=f57b35df-8b2b-448e-8757-7e05aa11ecb9","ios":"levelo://app?vid=f57b35df-8b2b-448e-8757-7e05aa11ecb9"},"vehicle_type_id":"4","last_reported":1730063274,"current_range_meters":38800,"station_id":"ce4bhjp2rcd13ifvqg90","pricing_plan_id":"cebpf4jnsgd1na2vs0mg"},{"bike_id":"4f40e012-ea5b-4575-9527-1f943967bef1","system_id":"levelo_inurba_marseille","lat":43.23964,"lon":5.3664,"is_reserved":false,"is_disabled":false,"rental_uris":{"android":"levelo://app?vid=4f40e012-ea5b-4575-9527-1f943967bef1","ios":"levelo://app?vid=4f40e012-ea5b-4575-9527-1f943967bef1"},"vehicle_type_id":"4","last_reported":1730063274,"current_range_meters":8800,"station_id":"ce4bhi12rcd13ifvqfp0","pricing_plan_id":"cebpf4jnsgd1na2vs0mg"},{"bike_id":"e7d10e46-db22-405f-aa54-83379ef50215","system_id":"levelo_inurba_marseille","lat":43.32485,"lon":5.36557,"is_reserved":false,"is_disabled":false,"rental_uris":{"android":"levelo://app?vid=e7d10e46-db22-405f-aa54-83379ef50215","ios":"levelo://app?vid=e7d10e46-db22-405f-aa54-83379ef50215"},"vehicle_type_id":"4","last_reported":1730063274,"current_range_meters":20000,"station_id":"ce4bhs12rcd13ifvqhvg","pricing_plan_id":"cebpf4jnsgd1na2vs0mg"},{"bike_id":"137cadb4-d671-4029-8729-5f827b1dde94","system_id":"levelo_inurba_marseille","lat":43.29411,"lon":5.38651,"is_reserved":false,"is_disabled":false,"rental_uris":{"android":"levelo://app?vid=137cadb4-d671-4029-8729-5f827b1dde94","ios":"levelo://app?vid=137cadb4-d671-4029-8729-5f827b1dde94"},"vehicle_type_id":"4","last_reported":1730063274,"current_range_meters":28800,"station_id":"ce4bh2h2rcd13ifvqdh0","pricing_plan_id":"cebpf4jnsgd1na2vs0mg"},{"bike_id":"15d1f5fd-729d-4f5c-bf28-4896101a5508","system_id":"levelo_inurba_marseille","lat":43.2894,"lon":5.39626,"is_reserved":false,"is_disabled":false,"rental_uris":{"android":"levelo://app?vid=15d1f5fd-729d-4f5c-bf28-4896101a5508","ios":"levelo://app?vid=15d1f5fd-729d-4f5c-bf28-4896101a5508"},"vehicle_type_id":"4","last_reported":1730063274,"current_range_meters":30400,"station_id":"ce4bh3h2rcd13ifvqdn0","pricing_plan_id":"cebpf4jnsgd1na2vs0mg"},{"bike_id":"cdba29c0-c574-4ba6-8698-33e6a2e3dcd7","system_id":"levelo_inurba_marseille","lat":43.25934,"lon":5.40911,"is_reserved":false,"is_disabled":false,"rental_uris":{"android":"levelo://app?vid=cdba29c0-c574-4ba6-8698-33e6a2e3dcd7","ios":"levelo://app?vid=cdba29c0-c574-4ba6-8698-33e6a2e3dcd7"},"vehicle_type_id":"4","last_reported":1730063274,"current_range_meters":32800,"station_id":"ce4bhm92rcd13ifvqglg","pricing_plan_id":"cebpf4jnsgd1na2vs0mg"},{"bike_id":"397e19e1-70d1-4c1a-82ef-1ec9a560a69f","system_id":"levelo_inurba_marseille","lat":43.28612,"lon":5.35102,"is_reserved":false,"is_disabled":false,"rental_uris":{"android":"levelo://app?vid=397e19e1-70d1-4c1a-82ef-1ec9a560a69f","ios":"levelo://app?vid=397e19e1-70d1-4c1a-82ef-1ec9a560a69f"},"vehicle_type_id":"4","last_reported":1730063274,"current_range_meters":38800,"station_id":"ce4bhch2rcd13ifvqeug","pricing_plan_id":"cebpf4jnsgd1na2vs0mg"},{"bike_id":"004333c7-3c88-45b5-b6a7-6f5b0c88a5bb","system_id":"levelo_inurba_marseille","lat":43.2695,"lon":5.40241,"is_reserved":false,"is_disabled":false,"rental_uris":{"android":"levelo://app?vid=004333c7-3c88-45b5-b6a7-6f5b0c88a5bb","ios":"levelo://app?vid=004333c7-3c88-45b5-b6a7-6f5b0c88a5bb"},"vehicle_type_id":"4","last_reported":1730063274,"current_range_meters":6000,"station_id":"cjm6bp8fraef2m0cb0m0","pricing_plan_id":"cebpf4jnsgd1na2vs0mg"},{"bike_id":"a792347a-d158-4403-9c48-1b4e0c6fc790","system_id":"levelo_inurba_marseille","lat":43.27069,"lon":5.42281,"is_reserved":false,"is_disabled":false,"rental_uris":{"android":"levelo://app?vid=a792347a-d158-4403-9c48-1b4e0c6fc790","ios":"levelo://app?vid=a792347a-d158-4403-9c48-1b4e0c6fc790"},"vehicle_type_id":"4","last_reported":1730063274,"current_range_meters":38800,"station_id":"ce4bhk92rcd13ifvqgb0","pricing_plan_id":"cebpf4jnsgd1na2vs0mg"},{"bike_id":"aff5cf44-79dc-4c8b-bf18-4ee4c8b6c9e8","system_id":"levelo_inurba_marseille","lat":43.284637,"lon":5.35898,"is_reserved":false,"is_disabled":false,"rental_uris":{"android":"levelo://app?vid=aff5cf44-79dc-4c8b-bf18-4ee4c8b6c9e8","ios":"levelo://app?vid=aff5cf44-79dc-4c8b-bf18-4ee4c8b6c9e8"},"vehicle_type_id":"4","last_reported":1730063274,"current_range_meters":20400,"station_id":"ce4bhah2rcd13ifvqei0","pricing_plan_id":"cebpf4jnsgd1na2vs0mg"},{"bike_id":"615da492-04b7-43cd-939c-f3cf84f28f19","system_id":"levelo_inurba_marseille","lat":43.29538,"lon":5.38546,"is_reserved":false,"is_disabled":false,"rental_uris":{"android":"levelo://app?vid=615da492-04b7-43cd-939c-f3cf84f28f19","ios":"levelo://app?vid=615da492-04b7-43cd-939c-f3cf84f28f19"},"vehicle_type_id":"4","last_reported":1730063274,"current_range_meters":18000,"station_id":"ce4bgih2rcd13ifvqba0","pricing_plan_id":"cebpf4jnsgd1na2vs0mg"},{"bike_id":"e114d299-3b0f-4472-b512-92f05ab4ddd6","system_id":"levelo_inurba_marseille","lat":43.275617,"lon":5.384356,"is_reserved":false,"is_disabled":false,"rental_uris":{"android":"levelo://app?vid=e114d299-3b0f-4472-b512-92f05ab4ddd6","ios":"levelo://app?vid=e114d299-3b0f-4472-b512-92f05ab4ddd6"},"vehicle_type_id":"4","last_reported":1730063274,"current_range_meters":11600,"station_id":"ce4bhh92rcd13ifvqfi0","pricing_plan_id":"cebpf4jnsgd1na2vs0mg"},{"bike_id":"e0bf05b6-3eb6-4872-8e8d-82b38f035f72","system_id":"levelo_inurba_marseille","lat":43.23186,"lon":5.39989,"is_reserved":false,"is_disabled":false,"rental_uris":{"android":"levelo://app?vid=e0bf05b6-3eb6-4872-8e8d-82b38f035f72","ios":"levelo://app?vid=e0bf05b6-3eb6-4872-8e8d-82b38f035f72"},"vehicle_type_id":"4","last_reported":1730063274,"current_range_meters":12800,"station_id":"ce4bhn12rcd13ifvqgqg","pricing_plan_id":"cebpf4jnsgd1na2vs0mg"},{"bike_id":"5e81a657-aff4-41c2-a537-60bab321f891","system_id":"levelo_inurba_marseille","lat":43.284898,"lon":5.385625,"is_reserved":false,"is_disabled":false,"rental_uris":{"android":"levelo://app?vid=5e81a657-aff4-41c2-a537-60bab321f891","ios":"levelo://app?vid=5e81a657-aff4-41c2-a537-60bab321f891"},"vehicle_type_id":"4","last_reported":1730063274,"current_range_meters":36400,"station_id":"ce4bh8p2rcd13ifvqeb0","pricing_plan_id":"cebpf4jnsgd1na2vs0mg"},{"bike_id":"03ffeab1-71a3-48a9-9c51-d04215d91470","system_id":"levelo_inurba_marseille","lat":43.28148,"lon":5.42651,"is_reserved":false,"is_disabled":false,"rental_uris":{"android":"levelo://app?vid=03ffeab1-71a3-48a9-9c51-d04215d91470","ios":"levelo://app?vid=03ffeab1-71a3-48a9-9c51-d04215d91470"},"vehicle_type_id":"4","last_reported":1730063274,"current_range_meters":24400,"station_id":"ce4bhnh2rcd13ifvqgug","pricing_plan_id":"cebpf4jnsgd1na2vs0mg"},{"bike_id":"939919aa-88e9-4fd9-b76e-8fa245378ffc","system_id":"levelo_inurba_marseille","lat":43.301382,"lon":5.38077,"is_reserved":false,"is_disabled":false,"rental_uris":{"android":"levelo://app?vid=939919aa-88e9-4fd9-b76e-8fa245378ffc","ios":"levelo://app?vid=939919aa-88e9-4fd9-b76e-8fa245378ffc"},"vehicle_type_id":"4","last_reported":1730063274,"current_range_meters":8400,"station_id":"ce4bha92rcd13ifvqeh0","pricing_plan_id":"cebpf4jnsgd1na2vs0mg"},{"bike_id":"016fc884-44e1-4e58-afe4-7e18f6f1d442","system_id":"levelo_inurba_marseille","lat":43.27883,"lon":5.38,"is_reserved":false,"is_disabled":false,"rental_uris":{"android":"levelo://app?vid=016fc884-44e1-4e58-afe4-7e18f6f1d442","ios":"levelo://app?vid=016fc884-44e1-4e58-afe4-7e18f6f1d442"},"vehicle_type_id":"4","last_reported":1730063274,"current_range_meters":10000,"station_id":"ce4bhf92rcd13ifvqf50","pricing_plan_id":"cebpf4jnsgd1na2vs0mg"},{"bike_id":"e2732363-8e1b-45e7-a618-8dda5d1a4482","system_id":"levelo_inurba_marseille","lat":43.23971,"lon":5.36632,"is_reserved":false,"is_disabled":false,"rental_uris":{"android":"levelo://app?vid=e2732363-8e1b-45e7-a618-8dda5d1a4482","ios":"levelo://app?vid=e2732363-8e1b-45e7-a618-8dda5d1a4482"},"vehicle_type_id":"4","last_reported":1730063274,"current_range_meters":8800,"station_id":"ce4bhi12rcd13ifvqfp0","pricing_plan_id":"cebpf4jnsgd1na2vs0mg"},{"bike_id":"0c0bdbd4-962a-4608-a595-94e7794fe001","system_id":"levelo_inurba_marseille","lat":43.30938,"lon":5.40144,"is_reserved":false,"is_disabled":false,"rental_uris":{"android":"levelo://app?vid=0c0bdbd4-962a-4608-a595-94e7794fe001","ios":"levelo://app?vid=0c0bdbd4-962a-4608-a595-94e7794fe001"},"vehicle_type_id":"4","last_reported":1730063274,"current_range_meters":27600,"station_id":"ce4bgvp2rcd13ifvqct0","pricing_plan_id":"cebpf4jnsgd1na2vs0mg"},{"bike_id":"bfc06a53-8f3b-4e44-a4b2-5fa2b39fa730","system_id":"levelo_inurba_marseille","lat":43.31227,"lon":5.36859,"is_reserved":false,"is_disabled":false,"rental_uris":{"android":"levelo://app?vid=bfc06a53-8f3b-4e44-a4b2-5fa2b39fa730","ios":"levelo://app?vid=bfc06a53-8f3b-4e44-a4b2-5fa2b39fa730"},"vehicle_type_id":"4","last_reported":1730063274,"current_range_meters":4000,"station_id":"ce4bgl92rcd13ifvqbq0","pricing_plan_id":"cebpf4jnsgd1na2vs0mg"},{"bike_id":"6a41d150-6ecb-43b9-80a3-28b47ecefd30","system_id":"levelo_inurba_marseille","lat":43.30616,"lon":5.37217,"is_reserved":false,"is_disabled":false,"rental_uris":{"android":"levelo://app?vid=6a41d150-6ecb-43b9-80a3-28b47ecefd30","ios":"levelo://app?vid=6a41d150-6ecb-43b9-80a3-28b47ecefd30"},"vehicle_type_id":"4","last_reported":1730063274,"current_range_meters":23200,"station_id":"ce4bgqh2rcd13ifvqc4g","pricing_plan_id":"cebpf4jnsgd1na2vs0mg"},{"bike_id":"20be0ab0-3dc4-4c4b-8cde-57c903ccb953","system_id":"levelo_inurba_marseille","lat":43.23152,"lon":5.43725,"is_reserved":false,"is_disabled":false,"rental_uris":{"android":"levelo://app?vid=20be0ab0-3dc4-4c4b-8cde-57c903ccb953","ios":"levelo://app?vid=20be0ab0-3dc4-4c4b-8cde-57c903ccb953"},"vehicle_type_id":"4","last_reported":1730063274,"current_range_meters":26000,"station_id":"ce4bhmp2rcd13ifvqgog","pricing_plan_id":"cebpf4jnsgd1na2vs0mg"},{"bike_id":"7d0d6da2-ea58-46a9-b143-ef11153901da","system_id":"levelo_inurba_marseille","lat":43.28152,"lon":5.42645,"is_reserved":false,"is_disabled":false,"rental_uris":{"android":"levelo://app?vid=7d0d6da2-ea58-46a9-b143-ef11153901da","ios":"levelo://app?vid=7d0d6da2-ea58-46a9-b143-ef11153901da"},"vehicle_type_id":"4","last_reported":1730063274,"current_range_meters":38800,"station_id":"ce4bhnh2rcd13ifvqgug","pricing_plan_id":"cebpf4jnsgd1na2vs0mg"},{"bike_id":"e320d203-b760-4387-959d-77602c820fe5","system_id":"levelo_inurba_marseille","lat":43.28374,"lon":5.38629,"is_reserved":false,"is_disabled":false,"rental_uris":{"android":"levelo://app?vid=e320d203-b760-4387-959d-77602c820fe5","ios":"levelo://app?vid=e320d203-b760-4387-959d-77602c820fe5"},"vehicle_type_id":"4","last_reported":1730063274,"current_range_meters":21600,"station_id":"ce4bh492rcd13ifvqdvg","pricing_plan_id":"cebpf4jnsgd1na2vs0mg"},{"bike_id":"48db3a37-a8a1-442a-877a-bb8ad16603a2","system_id":"levelo_inurba_marseille","lat":43.30354,"lon":5.41881,"is_reserved":false,"is_disabled":false,"rental_uris":{"android":"levelo://app?vid=48db3a37-a8a1-442a-877a-bb8ad16603a2","ios":"levelo://app?vid=48db3a37-a8a1-442a-877a-bb8ad16603a2"},"vehicle_type_id":"4","last_reported":1730063274,"current_range_meters":38800,"station_id":"ce4bhop2rcd13ifvqh7g","pricing_plan_id":"cebpf4jnsgd1na2vs0mg"},{"bike_id":"d73f2c65-fb5c-44d5-807b-50e17f33e81e","system_id":"levelo_inurba_marseille","lat":43.24165,"lon":5.36394,"is_reserved":false,"is_disabled":false,"rental_uris":{"android":"levelo://app?vid=d73f2c65-fb5c-44d5-807b-50e17f33e81e","ios":"levelo://app?vid=d73f2c65-fb5c-44d5-807b-50e17f33e81e"},"vehicle_type_id":"4","last_reported":1730063274,"current_range_meters":8800,"station_id":"cpo36qri1sfpv3e86is0","pricing_plan_id":"cebpf4jnsgd1na2vs0mg"},{"bike_id":"95629df0-6083-4ea9-99b7-1acf73394ce1","system_id":"levelo_inurba_marseille","lat":43.31174,"lon":5.38723,"is_reserved":false,"is_disabled":false,"rental_uris":{"android":"levelo://app?vid=95629df0-6083-4ea9-99b7-1acf73394ce1","ios":"levelo://app?vid=95629df0-6083-4ea9-99b7-1acf73394ce1"},"vehicle_type_id":"4","last_reported":1730063274,"current_range_meters":12000,"station_id":"ce4bgv12rcd13ifvqcp0","pricing_plan_id":"cebpf4jnsgd1na2vs0mg"},{"bike_id":"1de5f522-7fcc-4c8c-a204-17b4b025b5db","system_id":"levelo_inurba_marseille","lat":43.30135,"lon":5.38775,"is_reserved":false,"is_disabled":false,"rental_uris":{"android":"levelo://app?vid=1de5f522-7fcc-4c8c-a204-17b4b025b5db","ios":"levelo://app?vid=1de5f522-7fcc-4c8c-a204-17b4b025b5db"},"vehicle_type_id":"4","last_reported":1730063274,"current_range_meters":19600,"station_id":"ce4bghh2rcd13ifvqb60","pricing_plan_id":"cebpf4jnsgd1na2vs0mg"},{"bike_id":"af776b23-3a65-44e6-b57b-f550c8c430b6","system_id":"levelo_inurba_marseille","lat":43.28154,"lon":5.42648,"is_reserved":false,"is_disabled":false,"rental_uris":{"android":"levelo://app?vid=af776b23-3a65-44e6-b57b-f550c8c430b6","ios":"levelo://app?vid=af776b23-3a65-44e6-b57b-f550c8c430b6"},"vehicle_type_id":"4","last_reported":1730063274,"current_range_meters":14400,"station_id":"ce4bhnh2rcd13ifvqgug","pricing_plan_id":"cebpf4jnsgd1na2vs0mg"},{"bike_id":"08308684-cbd6-4895-9fa1-ca472202de6c","system_id":"levelo_inurba_marseille","lat":43.26936,"lon":5.38922,"is_reserved":false,"is_disabled":false,"rental_uris":{"android":"levelo://app?vid=08308684-cbd6-4895-9fa1-ca472202de6c","ios":"levelo://app?vid=08308684-cbd6-4895-9fa1-ca472202de6c"},"vehicle_type_id":"4","last_reported":1730063274,"current_range_meters":18000,"station_id":"ce4bhhh2rcd13ifvqfl0","pricing_plan_id":"cebpf4jnsgd1na2vs0mg"},{"bike_id":"c9eb749b-627f-4321-b6c5-4885d0ce6d28","system_id":"levelo_inurba_marseille","lat":43.27322,"lon":5.39081,"is_reserved":false,"is_disabled":false,"rental_uris":{"android":"levelo://app?vid=c9eb749b-627f-4321-b6c5-4885d0ce6d28","ios":"levelo://app?vid=c9eb749b-627f-4321-b6c5-4885d0ce6d28"},"vehicle_type_id":"4","last_reported":1730063274,"current_range_meters":6800,"station_id":"ce4bhgp2rcd13ifvqfe0","pricing_plan_id":"cebpf4jnsgd1na2vs0mg"},{"bike_id":"320dbaf5-a218-4f36-9c17-024548f9641a","system_id":"levelo_inurba_marseille","lat":43.27201,"lon":5.3919,"is_reserved":false,"is_disabled":false,"rental_uris":{"android":"levelo://app?vid=320dbaf5-a218-4f36-9c17-024548f9641a","ios":"levelo://app?vid=320dbaf5-a218-4f36-9c17-024548f9641a"},"vehicle_type_id":"4","last_reported":1730063274,"current_range_meters":38800,"station_id":"ce4bhhp2rcd13ifvqfm0","pricing_plan_id":"cebpf4jnsgd1na2vs0mg"},{"bike_id":"aea18959-def8-4c0c-bca6-5d2d92845fa4","system_id":"levelo_inurba_marseille","lat":43.26956,"lon":5.40249,"is_reserved":false,"is_disabled":false,"rental_uris":{"android":"levelo://app?vid=aea18959-def8-4c0c-bca6-5d2d92845fa4","ios":"levelo://app?vid=aea18959-def8-4c0c-bca6-5d2d92845fa4"},"vehicle_type_id":"4","last_reported":1730063274,"current_range_meters":8400,"station_id":"cjm6bp8fraef2m0cb0m0","pricing_plan_id":"cebpf4jnsgd1na2vs0mg"},{"bike_id":"d0fa5c93-bf34-4830-b8f1-106df6a258c8","system_id":"levelo_inurba_marseille","lat":43.2903,"lon":5.38638,"is_reserved":false,"is_disabled":false,"rental_uris":{"android":"levelo://app?vid=d0fa5c93-bf34-4830-b8f1-106df6a258c8","ios":"levelo://app?vid=d0fa5c93-bf34-4830-b8f1-106df6a258c8"},"vehicle_type_id":"4","last_reported":1730063274,"current_range_meters":17600,"station_id":"ce4bh4p2rcd13ifvqe0g","pricing_plan_id":"cebpf4jnsgd1na2vs0mg"},{"bike_id":"a415f33a-500b-4202-a6d6-2570d0276dfd","system_id":"levelo_inurba_marseille","lat":43.292663,"lon":5.384405,"is_reserved":false,"is_disabled":false,"rental_uris":{"android":"levelo://app?vid=a415f33a-500b-4202-a6d6-2570d0276dfd","ios":"levelo://app?vid=a415f33a-500b-4202-a6d6-2570d0276dfd"},"vehicle_type_id":"4","last_reported":1730063274,"current_range_meters":24400,"station_id":"ce4bhnh2rcd13ifvqgug","pricing_plan_id":"cebpf4jnsgd1na2vs0mg"},{"bike_id":"8d245f49-c0af-48d4-a4fe-e2cbd8b9633c","system_id":"levelo_inurba_marseille","lat":43.34139,"lon":5.40906,"is_reserved":false,"is_disabled":false,"rental_uris":{"android":"levelo://app?vid=8d245f49-c0af-48d4-a4fe-e2cbd8b9633c","ios":"levelo://app?vid=8d245f49-c0af-48d4-a4fe-e2cbd8b9633c"},"vehicle_type_id":"4","last_reported":1730063274,"current_range_meters":10000,"station_id":"ce4bhqh2rcd13ifvqhlg","pricing_plan_id":"cebpf4jnsgd1na2vs0mg"},{"bike_id":"5f634c6e-3f19-4755-8091-89f0a6218cca","system_id":"levelo_inurba_marseille","lat":43.30787,"lon":5.3765,"is_reserved":false,"is_disabled":false,"rental_uris":{"android":"levelo://app?vid=5f634c6e-3f19-4755-8091-89f0a6218cca","ios":"levelo://app?vid=5f634c6e-3f19-4755-8091-89f0a6218cca"},"vehicle_type_id":"4","last_reported":1730063274,"current_range_meters":32400,"station_id":"ce4bgv92rcd13ifvqcq0","pricing_plan_id":"cebpf4jnsgd1na2vs0mg"},{"bike_id":"98ab8048-b082-4269-98ba-e8072dfc5d37","system_id":"levelo_inurba_marseille","lat":43.28148,"lon":5.42648,"is_reserved":false,"is_disabled":false,"rental_uris":{"android":"levelo://app?vid=98ab8048-b082-4269-98ba-e8072dfc5d37","ios":"levelo://app?vid=98ab8048-b082-4269-98ba-e8072dfc5d37"},"vehicle_type_id":"4","last_reported":1730063274,"current_range_meters":27600,"station_id":"ce4bhnh2rcd13ifvqgug","pricing_plan_id":"cebpf4jnsgd1na2vs0mg"},{"bike_id":"e9161169-bf96-4d0e-aa7b-58a20bb22718","system_id":"levelo_inurba_marseille","lat":43.2942,"lon":5.38615,"is_reserved":false,"is_disabled":false,"rental_uris":{"android":"levelo://app?vid=e9161169-bf96-4d0e-aa7b-58a20bb22718","ios":"levelo://app?vid=e9161169-bf96-4d0e-aa7b-58a20bb22718"},"vehicle_type_id":"4","last_reported":1730063274,"current_range_meters":38400,"station_id":"ce4bh2h2rcd13ifvqdh0","pricing_plan_id":"cebpf4jnsgd1na2vs0mg"},{"bike_id":"ed727ce0-4608-43be-95e3-31746842f91b","system_id":"levelo_inurba_marseille","lat":43.284734,"lon":5.359044,"is_reserved":false,"is_disabled":false,"rental_uris":{"android":"levelo://app?vid=ed727ce0-4608-43be-95e3-31746842f91b","ios":"levelo://app?vid=ed727ce0-4608-43be-95e3-31746842f91b"},"vehicle_type_id":"4","last_reported":1730063274,"current_range_meters":22000,"station_id":"ce4bhah2rcd13ifvqei0","pricing_plan_id":"cebpf4jnsgd1na2vs0mg"},{"bike_id":"3d06f455-5415-45a7-8e2b-1aa5d7fa64ff","system_id":"levelo_inurba_marseille","lat":43.26949,"lon":5.40228,"is_reserved":false,"is_disabled":false,"rental_uris":{"android":"levelo://app?vid=3d06f455-5415-45a7-8e2b-1aa5d7fa64ff","ios":"levelo://app?vid=3d06f455-5415-45a7-8e2b-1aa5d7fa64ff"},"vehicle_type_id":"4","last_reported":1730063274,"current_range_meters":30400,"station_id":"cjm6bp8fraef2m0cb0m0","pricing_plan_id":"cebpf4jnsgd1na2vs0mg"},{"bike_id":"6a6df775-b493-4dfb-aa28-0845f3f3e259","system_id":"levelo_inurba_marseille","lat":43.2694,"lon":5.40253,"is_reserved":false,"is_disabled":false,"rental_uris":{"android":"levelo://app?vid=6a6df775-b493-4dfb-aa28-0845f3f3e259","ios":"levelo://app?vid=6a6df775-b493-4dfb-aa28-0845f3f3e259"},"vehicle_type_id":"4","last_reported":1730063274,"current_range_meters":39200,"station_id":"cjm6bp8fraef2m0cb0m0","pricing_plan_id":"cebpf4jnsgd1na2vs0mg"},{"bike_id":"df78770c-b0f4-4070-8fa1-1c92f463d944","system_id":"levelo_inurba_marseille","lat":43.29264,"lon":5.38445,"is_reserved":false,"is_disabled":false,"rental_uris":{"android":"levelo://app?vid=df78770c-b0f4-4070-8fa1-1c92f463d944","ios":"levelo://app?vid=df78770c-b0f4-4070-8fa1-1c92f463d944"},"vehicle_type_id":"4","last_reported":1730063274,"current_range_meters":20400,"station_id":"ce4bh692rcd13ifvqea0","pricing_plan_id":"cebpf4jnsgd1na2vs0mg"},{"bike_id":"b215c5e9-0df5-44a1-9449-e6b2441bbad2","system_id":"levelo_inurba_marseille","lat":43.25109,"lon":5.40325,"is_reserved":false,"is_disabled":false,"rental_uris":{"android":"levelo://app?vid=b215c5e9-0df5-44a1-9449-e6b2441bbad2","ios":"levelo://app?vid=b215c5e9-0df5-44a1-9449-e6b2441bbad2"},"vehicle_type_id":"4","last_reported":1730063274,"current_range_meters":9600,"station_id":"ce4bhlh2rcd13ifvqgig","pricing_plan_id":"cebpf4jnsgd1na2vs0mg"},{"bike_id":"3ee5338e-54fb-4d6a-82b8-91df6ceb3dc7","system_id":"levelo_inurba_marseille","lat":43.2904,"lon":5.39966,"is_reserved":false,"is_disabled":false,"rental_uris":{"android":"levelo://app?vid=3ee5338e-54fb-4d6a-82b8-91df6ceb3dc7","ios":"levelo://app?vid=3ee5338e-54fb-4d6a-82b8-91df6ceb3dc7"},"vehicle_type_id":"4","last_reported":1730063274,"current_range_meters":38800,"station_id":"ce4bh392rcd13ifvqdm0","pricing_plan_id":"cebpf4jnsgd1na2vs0mg"},{"bike_id":"f8e01ab3-45d5-45d1-883c-e666d16be367","system_id":"levelo_inurba_marseille","lat":43.29537,"lon":5.38541,"is_reserved":false,"is_disabled":false,"rental_uris":{"android":"levelo://app?vid=f8e01ab3-45d5-45d1-883c-e666d16be367","ios":"levelo://app?vid=f8e01ab3-45d5-45d1-883c-e666d16be367"},"vehicle_type_id":"4","last_reported":1730063274,"current_range_meters":30400,"station_id":"ce4bgih2rcd13ifvqba0","pricing_plan_id":"cebpf4jnsgd1na2vs0mg"},