{"last_updated":1775139358,"ttl":60,"version":"2.2","data":{"bikes":[{"bike_id":"521fdd5c-22f2-444b-870e-16f0ca92be9e","system_id":"levelo_inurba_marseille","lat":43.29525,"lon":5.38653,"is_reserved":false,"is_disabled":false,"rental_uris":{"android":"levelo://app?vid=521fdd5c-22f2-444b-870e-16f0ca92be9e","ios":"levelo://app?vid=521fdd5c-22f2-444b-870e-16f0ca92be9e"},"vehicle_type_id":"4","last_reported":1775139359,"current_range_meters":2800,"station_id":"","pricing_plan_id":"cebpf4jnsgd1na2vs0mg"},{"bike_id":"5ff8da46-d50f-41b2-8eee-8fa1fd7c4ed1","system_id":"levelo_inurba_marseille","lat":43.25004,"lon":5.38938,"is_reserved":false,"is_disabled":false,"rental_uris":{"android":"levelo://app?vid=5ff8da46-d50f-41b2-8eee-8fa1fd7c4ed1","ios":"levelo://app?vid=5ff8da46-d50f-41b2-8eee-8fa1fd7c4ed1"},"vehicle_type_id":"4","last_reported":1775139359,"current_range_meters":2800,"station_id":"ce4bhgp2rcd13ifvqfd0","pricing_plan_id":"cebpf4jnsgd1na2vs0mg"},{"bike_id":"ace8d92c-665e-46a4-858d-e12872c8b9f0","system_id":"levelo_inurba_marseille","lat":43.28475,"lon":5.48404,"is_reserved":false,"is_disabled":false,"rental_uris":{"android":"levelo://app?vid=ace8d92c-665e-46a4-858d-e12872c8b9f0","ios":"levelo://app?vid=ace8d92c-665e-46a4-858d-e12872c8b9f0"},"vehicle_type_id":"4","last_reported":1775139359,"current_range_meters":2800,"station_id":"","pricing_plan_id":"cebpf4jnsgd1na2vs0mg"},{"bike_id":"6179595b-a790-436d-9557-b83fbb560404","system_id":"levelo_inurba_marseille","lat":43.23164,"lon":5.43692,"is_reserved":false,"is_disabled":false,"rental_uris":{"android":"levelo://app?vid=6179595b-a790-436d-9557-b83fbb560404","ios":"levelo://app?vid=6179595b-a790-436d-9557-b83fbb560404"},"vehicle_type_id":"4","last_reported":1775139359,"current_range_meters":2800,"station_id":"ce4bhmp2rcd13ifvqgog","pricing_plan_id":"cebpf4jnsgd1na2vs0mg"},{"bike_id":"50236813-bf88-46a5-ace1-dd5e5784f3e0","system_id":"levelo_inurba_marseille","lat":43.3318,"lon":5.37614,"is_reserved":false,"is_disabled":false,"rental_uris":{"android":"levelo://app?vid=50236813-bf88-46a5-ace1-dd5e5784f3e0","ios":"levelo://app?vid=50236813-bf88-46a5-ace1-dd5e5784f3e0"},"vehicle_type_id":"4","last_reported":1775139359,"current_range_meters":2800,"station_id":"st_d46cu089ee8s73dldbu0","pricing_plan_id":"cebpf4jnsgd1na2vs0mg"},{"bike_id":"e41e3697-59e4-4346-81a5-c14ee6c184fd","system_id":"levelo_inurba_marseille","lat":43.22548,"lon":5.34828,"is_reserved":false,"is_disabled":false,"rental_uris":{"android":"levelo://app?vid=e41e3697-59e4-4346-81a5-c14ee6c184fd","ios":"levelo://app?vid=e41e3697-59e4-4346-81a5-c14ee6c184fd"},"vehicle_type_id":"4","last_reported":1775139359,"current_range_meters":2800,"station_id":"st_cvj5dfep6f1abm77gieg","pricing_plan_id":"cebpf4jnsgd1na2vs0mg"},{"bike_id":"63f62f34-62d8-4c59-8d2b-7d93107f84e0","system_id":"levelo_inurba_marseille","lat":43.27999,"lon":5.41629,"is_reserved":false,"is_disabled":false,"rental_uris":{"android":"levelo://app?vid=63f62f34-62d8-4c59-8d2b-7d93107f84e0","ios":"levelo://app?vid=63f62f34-62d8-4c59-8d2b-7d93107f84e0"},"vehicle_type_id":"4","last_reported":1775139359,"current_range_meters":2800,"station_id":"ce4bho12rcd13ifvqh1g","pricing_plan_id":"cebpf4jnsgd1na2vs0mg"},{"bike_id":"ee94955b-5cf9-4ccb-9856-989ac4c7a5a9","system_id":"levelo_inurba_marseille","lat":43.28651,"lon":5.38661,"is_reserved":false,"is_disabled":false,"rental_uris":{"android":"levelo://app?vid=ee94955b-5cf9-4ccb-9856-989ac4c7a5a9","ios":"levelo://app?vid=ee94955b-5cf9-4ccb-9856-989ac4c7a5a9"},"vehicle_type_id":"4","last_reported":1775139359,"current_range_meters":2800,"station_id":"ce4bh492rcd13ifvqdug","pricing_plan_id":"cebpf4jnsgd1na2vs0mg"},{"bike_id":"5594fef1-50b5-4719-8406-506999474c85","system_id":"levelo_inurba_marseille","lat":43.23053,"lon":5.35493,"is_reserved":false,"is_disabled":false,"rental_uris":{"android":"levelo://app?vid=5594fef1-50b5-4719-8406-506999474c85","ios":"levelo://app?vid=5594fef1-50b5-4719-8406-506999474c85"},"vehicle_type_id":"4","last_reported":1775139359,"current_range_meters":2800,"station_id":"cpo3342slgdg3j2ifvpg","pricing_plan_id":"cebpf4jnsgd1na2vs0mg"},{"bike_id":"c21d8b7a-95b7-42b7-85d9-f304224d7048","system_id":"levelo_inurba_marseille","lat":43.27311,"lon":5.39075,"is_reserved":false,"is_disabled":false,"rental_uris":{"android":"levelo://app?vid=c21d8b7a-95b7-42b7-85d9-f304224d7048","ios":"levelo://app?vid=c21d8b7a-95b7-42b7-85d9-f304224d7048"},"vehicle_type_id":"4","last_reported":1775139359,"current_range_meters":2800,"station_id":"ce4bhgp2rcd13ifvqfe0","pricing_plan_id":"cebpf4jnsgd1na2vs0mg"},{"bike_id":"7d221536-c309-4cb7-98fe-5bdf54751499","system_id":"levelo_inurba_marseille","lat":43.28482,"lon":5.48396,"is_reserved":false,"is_disabled":false,"rental_uris":{"android":"levelo://app?vid=7d221536-c309-4cb7-98fe-5bdf54751499","ios":"levelo://app?vid=7d221536-c309-4cb7-98fe-5bdf54751499"},"vehicle_type_id":"4","last_reported":1775139359,"current_range_meters":2800,"station_id":"","pricing_plan_id":"cebpf4jnsgd1na2vs0mg"},{"bike_id":"5499cded-0a77-49c0-a198-528671e8d02f","system_id":"levelo_inurba_marseille","lat":43.28574,"lon":5.37032,"is_reserved":false,"is_disabled":false,"rental_uris":{"android":"levelo://app?vid=5499cded-0a77-49c0-a198-528671e8d02f","ios":"levelo://app?vid=5499cded-0a77-49c0-a198-528671e8d02f"},"vehicle_type_id":"4","last_reported":1775139359,"current_range_meters":2800,"station_id":"","pricing_plan_id":"cebpf4jnsgd1na2vs0mg"},{"bike_id":"0351c064-b05d-45c2-9da9-5f6e70f5aa65","system_id":"levelo_inurba_marseille","lat":43.24183,"lon":5.3638,"is_reserved":false,"is_disabled":false,"rental_uris":{"android":"levelo://app?vid=0351c064-b05d-45c2-9da9-5f6e70f5aa65","ios":"levelo://app?vid=0351c064-b05d-45c2-9da9-5f6e70f5aa65"},"vehicle_type_id":"4","last_reported":1775139359,"current_range_meters":3200,"station_id":"cpo36qri1sfpv3e86is0","pricing_plan_id":"cebpf4jnsgd1na2vs0mg"},{"bike_id":"982951ba-d1eb-42d4-bb65-5d98050aa6ef","system_id":"levelo_inurba_marseille","lat":43.28482,"lon":5.48401,"is_reserved":false,"is_disabled":false,"rental_uris":{"android":"levelo://app?vid=982951ba-d1eb-42d4-bb65-5d98050aa6ef","ios":"levelo://app?vid=982951ba-d1eb-42d4-bb65-5d98050aa6ef"},"vehicle_type_id":"4","last_reported":1775139359,"current_range_meters":3200,"station_id":"","pricing_plan_id":"cebpf4jnsgd1na2vs0mg"},{"bike_id":"23a1f004-01c9-4416-9d3b-31e26d56c169","system_id":"levelo_inurba_marseille","lat":43.24114,"lon":5.37747,"is_reserved":false,"is_disabled":false,"rental_uris":{"android":"levelo://app?vid=23a1f004-01c9-4416-9d3b-31e26d56c169","ios":"levelo://app?vid=23a1f004-01c9-4416-9d3b-31e26d56c169"},"vehicle_type_id":"4","last_reported":1775139359,"current_range_meters":3200,"station_id":"ce4bhnp2rcd13ifvqgvg","pricing_plan_id":"cebpf4jnsgd1na2vs0mg"},{"bike_id":"d41d5ff3-651c-4e70-8a12-e8a105b53c64","system_id":"levelo_inurba_marseille","lat":43.31574,"lon":5.44529,"is_reserved":false,"is_disabled":false,"rental_uris":{"android":"levelo://app?vid=d41d5ff3-651c-4e70-8a12-e8a105b53c64","ios":"levelo://app?vid=d41d5ff3-651c-4e70-8a12-e8a105b53c64"},"vehicle_type_id":"4","last_reported":1775139359,"current_range_meters":3200,"station_id":"","pricing_plan_id":"cebpf4jnsgd1na2vs0mg"},{"bike_id":"54c2b8bb-7259-470c-a906-fdbbea78bb9c","system_id":"levelo_inurba_marseille","lat":43.28527,"lon":5.44108,"is_reserved":false,"is_disabled":false,"rental_uris":{"android":"levelo://app?vid=54c2b8bb-7259-470c-a906-fdbbea78bb9c","ios":"levelo://app?vid=54c2b8bb-7259-470c-a906-fdbbea78bb9c"},"vehicle_type_id":"4","last_reported":1775139359,"current_range_meters":3200,"station_id":"st_d3j3df2ikq2c7380ej80","pricing_plan_id":"cebpf4jnsgd1na2vs0mg"},{"bike_id":"6c3b2188-ad26-44f1-97bc-4de5c5fe5d74","system_id":"levelo_inurba_marseille","lat":43.28482,"lon":5.48383,"is_reserved":false,"is_disabled":false,"rental_uris":{"android":"levelo://app?vid=6c3b2188-ad26-44f1-97bc-4de5c5fe5d74","ios":"levelo://app?vid=6c3b2188-ad26-44f1-97bc-4de5c5fe5d74"},"vehicle_type_id":"4","last_reported":1775139359,"current_range_meters":3200,"station_id":"","pricing_plan_id":"cebpf4jnsgd1na2vs0mg"},{"bike_id":"9b3d824a-f568-498c-b346-522c78e14cc8","system_id":"levelo_inurba_marseille","lat":43.23149,"lon":5.43717,"is_reserved":false,"is_disabled":false,"rental_uris":{"android":"levelo://app?vid=9b3d824a-f568-498c-b346-522c78e14cc8","ios":"levelo://app?vid=9b3d824a-f568-498c-b346-522c78e14cc8"},"vehicle_type_id":"4","last_reported":1775139359,"current_range_meters":3200,"station_id":"ce4bhmp2rcd13ifvqgog","pricing_plan_id":"cebpf4jnsgd1na2vs0mg"},{"bike_id":"3583369a-0c91-4ed7-baa2-0892ebaed48e","system_id":"levelo_inurba_marseille","lat":43.24158,"lon":5.36406,"is_reserved":false,"is_disabled":false,"rental_uris":{"android":"levelo://app?vid=3583369a-0c91-4ed7-baa2-0892ebaed48e","ios":"levelo://app?vid=3583369a-0c91-4ed7-baa2-0892ebaed48e"},"vehicle_type_id":"4","last_reported":1775139359,"current_range_meters":3200,"station_id":"cpo36qri1sfpv3e86is0","pricing_plan_id":"cebpf4jnsgd1na2vs0mg"},{"bike_id":"d5028219-9b54-410e-a159-72afd13d6b76","system_id":"levelo_inurba_marseille","lat":43.25574,"lon":5.38224,"is_reserved":false,"is_disabled":false,"rental_uris":{"android":"levelo://app?vid=d5028219-9b54-410e-a159-72afd13d6b76","ios":"levelo://app?vid=d5028219-9b54-410e-a159-72afd13d6b76"},"vehicle_type_id":"4","last_reported":1775139359,"current_range_meters":3200,"station_id":"ce4bhih2rcd13ifvqfs0","pricing_plan_id":"cebpf4jnsgd1na2vs0mg"},{"bike_id":"d094f093-ad16-4776-a6fd-332e1d75184d","system_id":"levelo_inurba_marseille","lat":43.29599,"lon":5.37514,"is_reserved":false,"is_disabled":false,"rental_uris":{"android":"levelo://app?vid=d094f093-ad16-4776-a6fd-332e1d75184d","ios":"levelo://app?vid=d094f093-ad16-4776-a6fd-332e1d75184d"},"vehicle_type_id":"4","last_reported":1775139359,"current_range_meters":3200,"station_id":"ce4bgh92rcd13ifvqb50","pricing_plan_id":"cebpf4jnsgd1na2vs0mg"},{"bike_id":"e700e3e5-d5ab-48f7-9278-55f1ea4ba0d8","system_id":"levelo_inurba_marseille","lat":43.24075,"lon":5.3775,"is_reserved":false,"is_disabled":false,"rental_uris":{"android":"levelo://app?vid=e700e3e5-d5ab-48f7-9278-55f1ea4ba0d8","ios":"levelo://app?vid=e700e3e5-d5ab-48f7-9278-55f1ea4ba0d8"},"vehicle_type_id":"4","last_reported":1775139359,"current_range_meters":3200,"station_id":"ce4bhnp2rcd13ifvqgvg","pricing_plan_id":"cebpf4jnsgd1na2vs0mg"},{"bike_id":"3b00fc1e-e36b-481b-a2bc-3dac3c178dbc","system_id":"levelo_inurba_marseille","lat":43.27749,"lon":5.40644,"is_reserved":false,"is_disabled":true,"rental_uris":{"android":"levelo://app?vid=3b00fc1e-e36b-481b-a2bc-3dac3c178dbc","ios":"levelo://app?vid=3b00fc1e-e36b-481b-a2bc-3dac3c178dbc"},"vehicle_type_id":"4","last_reported":1775139359,"current_range_meters":3600,"station_id":"","pricing_plan_id":"cebpf4jnsgd1na2vs0mg"},{"bike_id":"7b9afc77-0e17-48ba-b360-a407675726ad","system_id":"levelo_inurba_marseille","lat":43.28855,"lon":5.4251,"is_reserved":false,"is_disabled":false,"rental_uris":{"android":"levelo://app?vid=7b9afc77-0e17-48ba-b360-a407675726ad","ios":"levelo://app?vid=7b9afc77-0e17-48ba-b360-a407675726ad"},"vehicle_type_id":"4","last_reported":1775139359,"current_range_meters":3600,"station_id":"st_d3b462108ojc7389ooeg","pricing_plan_id":"cebpf4jnsgd1na2vs0mg"},{"bike_id":"c2e7728f-c323-4fcc-a752-e96078414027","system_id":"levelo_inurba_marseille","lat":43.30856,"lon":5.38862,"is_reserved":false,"is_disabled":false,"rental_uris":{"android":"levelo://app?vid=c2e7728f-c323-4fcc-a752-e96078414027","ios":"levelo://app?vid=c2e7728f-c323-4fcc-a752-e96078414027"},"vehicle_type_id":"4","last_reported":1775139359,"current_range_meters":3600,"station_id":"","pricing_plan_id":"cebpf4jnsgd1na2vs0mg"},{"bike_id":"cb5b1ee0-fb07-4fe9-8d2d-7bd39e547d09","system_id":"levelo_inurba_marseille","lat":43.33656,"lon":5.40969,"is_reserved":false,"is_disabled":true,"rental_uris":{"android":"levelo://app?vid=cb5b1ee0-fb07-4fe9-8d2d-7bd39e547d09","ios":"levelo://app?vid=cb5b1ee0-fb07-4fe9-8d2d-7bd39e547d09"},"vehicle_type_id":"4","last_reported":1775139359,"current_range_meters":3600,"station_id":"","pricing_plan_id":"cebpf4jnsgd1na2vs0mg"},{"bike_id":"bed085cd-e643-4cf8-a83c-4e3f37218df7","system_id":"levelo_inurba_marseille","lat":43.23153,"lon":5.40171,"is_reserved":false,"is_disabled":false,"rental_uris":{"android":"levelo://app?vid=bed085cd-e643-4cf8-a83c-4e3f37218df7","ios":"levelo://app?vid=bed085cd-e643-4cf8-a83c-4e3f37218df7"},"vehicle_type_id":"4","last_reported":1775139359,"current_range_meters":3600,"station_id":"","pricing_plan_id":"cebpf4jnsgd1na2vs0mg"},{"bike_id":"38c8471a-99f6-4191-b93c-98923dcb2172","system_id":"levelo_inurba_marseille","lat":43.29199,"lon":5.39307,"is_reserved":false,"is_disabled":false,"rental_uris":{"android":"levelo://app?vid=38c8471a-99f6-4191-b93c-98923dcb2172","ios":"levelo://app?vid=38c8471a-99f6-4191-b93c-98923dcb2172"},"vehicle_type_id":"4","last_reported":1775139359,"current_range_meters":3600,"station_id":"ce4bh192rcd13ifvqdd0","pricing_plan_id":"cebpf4jnsgd1na2vs0mg"},{"bike_id":"2c78b9d7-6797-4c09-ad87-2e1c14443b34","system_id":"levelo_inurba_marseille","lat":43.28571,"lon":5.42925,"is_reserved":false,"is_disabled":false,"rental_uris":{"android":"levelo://app?vid=2c78b9d7-6797-4c09-ad87-2e1c14443b34","ios":"levelo://app?vid=2c78b9d7-6797-4c09-ad87-2e1c14443b34"},"vehicle_type_id":"4","last_reported":1775139359,"current_range_meters":3600,"station_id":"","pricing_plan_id":"cebpf4jnsgd1na2vs0mg"},{"bike_id":"dbafccf7-0909-44bd-86f0-abe7aa0ed694","system_id":"levelo_inurba_marseille","lat":43.29068,"lon":5.43696,"is_reserved":false,"is_disabled":false,"rental_uris":{"android":"levelo://app?vid=dbafccf7-0909-44bd-86f0-abe7aa0ed694","ios":"levelo://app?vid=dbafccf7-0909-44bd-86f0-abe7aa0ed694"},"vehicle_type_id":"4","last_reported":1775139359,"current_range_meters":4000,"station_id":"","pricing_plan_id":"cebpf4jnsgd1na2vs0mg"},{"bike_id":"62bf82c9-a7d6-485f-b660-bbbb2d4f54e9","system_id":"levelo_inurba_marseille","lat":43.24389,"lon":5.37048,"is_reserved":false,"is_disabled":false,"rental_uris":{"android":"levelo://app?vid=62bf82c9-a7d6-485f-b660-bbbb2d4f54e9","ios":"levelo://app?vid=62bf82c9-a7d6-485f-b660-bbbb2d4f54e9"},"vehicle_type_id":"4","last_reported":1775139359,"current_range_meters":4000,"station_id":"ce4bhhh2rcd13ifvqfk0","pricing_plan_id":"cebpf4jnsgd1na2vs0mg"},{"bike_id":"b9a2dc0a-a78c-4ec1-b214-1ebc47ea2ab0","system_id":"levelo_inurba_marseille","lat":43.22548,"lon":5.41646,"is_reserved":false,"is_disabled":false,"rental_uris":{"android":"levelo://app?vid=b9a2dc0a-a78c-4ec1-b214-1ebc47ea2ab0","ios":"levelo://app?vid=b9a2dc0a-a78c-4ec1-b214-1ebc47ea2ab0"},"vehicle_type_id":"4","last_reported":1775139359,"current_range_meters":4000,"station_id":"st_d2o4gvlbi1j2169b742g","pricing_plan_id":"cebpf4jnsgd1na2vs0mg"},{"bike_id":"cbf4e2b4-6c14-47f4-94d4-48a9bb9424b0","system_id":"levelo_inurba_marseille","lat":43.26565,"lon":5.39012,"is_reserved":false,"is_disabled":false,"rental_uris":{"android":"levelo://app?vid=cbf4e2b4-6c14-47f4-94d4-48a9bb9424b0","ios":"levelo://app?vid=cbf4e2b4-6c14-47f4-94d4-48a9bb9424b0"},"vehicle_type_id":"4","last_reported":1775139359,"current_range_meters":4000,"station_id":"ce4bhe12rcd13ifvqf30","pricing_plan_id":"cebpf4jnsgd1na2vs0mg"},{"bike_id":"ffde6a95-5dec-426a-943f-3ce4b714e7dc","system_id":"levelo_inurba_marseille","lat":43.21762,"lon":5.34595,"is_reserved":false,"is_disabled":false,"rental_uris":{"android":"levelo://app?vid=ffde6a95-5dec-426a-943f-3ce4b714e7dc","ios":"levelo://app?vid=ffde6a95-5dec-426a-943f-3ce4b714e7dc"},"vehicle_type_id":"4","last_reported":1775139359,"current_range_meters":4000,"station_id":"st_cvj6r9ubvosntc0bgbag","pricing_plan_id":"cebpf4jnsgd1na2vs0mg"},{"bike_id":"7d6b5e22-9aed-4bc4-989d-b50007d7f5f5","system_id":"levelo_inurba_marseille","lat":43.26247,"lon":5.40442,"is_reserved":false,"is_disabled":false,"rental_uris":{"android":"levelo://app?vid=7d6b5e22-9aed-4bc4-989d-b50007d7f5f5","ios":"levelo://app?vid=7d6b5e22-9aed-4bc4-989d-b50007d7f5f5"},"vehicle_type_id":"4","last_reported":1775139359,"current_range_meters":4000,"station_id":"ce4bhmh2rcd13ifvqgmg","pricing_plan_id":"cebpf4jnsgd1na2vs0mg"},{"bike_id":"68945dd7-fcc7-4d4c-a459-6c84a8a17358","system_id":"levelo_inurba_marseille","lat":43.23996,"lon":5.36623,"is_reserved":false,"is_disabled":false,"rental_uris":{"android":"levelo://app?vid=68945dd7-fcc7-4d4c-a459-6c84a8a17358","ios":"levelo://app?vid=68945dd7-fcc7-4d4c-a459-6c84a8a17358"},"vehicle_type_id":"4","last_reported":1775139359,"current_range_meters":4000,"station_id":"ce4bhi12rcd13ifvqfp0","pricing_plan_id":"cebpf4jnsgd1na2vs0mg"},{"bike_id":"da46a4c6-14ff-4547-851e-67aeaa7cd5b0","system_id":"levelo_inurba_marseille","lat":43.24816,"lon":5.37461,"is_reserved":false,"is_disabled":false,"rental_uris":{"android":"levelo://app?vid=da46a4c6-14ff-4547-851e-67aeaa7cd5b0","ios":"levelo://app?vid=da46a4c6-14ff-4547-851e-67aeaa7cd5b0"},"vehicle_type_id":"4","last_reported":1775139359,"current_range_meters":4000,"station_id":"ce4bhgh2rcd13ifvqfb0","pricing_plan_id":"cebpf4jnsgd1na2vs0mg"},{"bike_id":"a17dbbf9-2919-4aa7-a6bc-4d101b9dc30c","system_id":"levelo_inurba_marseille","lat":43.27523,"lon":5.40932,"is_reserved":false,"is_disabled":false,"rental_uris":{"android":"levelo://app?vid=a17dbbf9-2919-4aa7-a6bc-4d101b9dc30c","ios":"levelo://app?vid=a17dbbf9-2919-4aa7-a6bc-4d101b9dc30c"},"vehicle_type_id":"4","last_reported":1775139359,"current_range_meters":4000,"station_id":"","pricing_plan_id":"cebpf4jnsgd1na2vs0mg"},{"bike_id":"0d9578d7-7fbe-4007-8717-7fd49a431059","system_id":"levelo_inurba_marseille","lat":43.31105,"lon":5.37757,"is_reserved":false,"is_disabled":false,"rental_uris":{"android":"levelo://app?vid=0d9578d7-7fbe-4007-8717-7fd49a431059","ios":"levelo://app?vid=0d9578d7-7fbe-4007-8717-7fd49a431059"},"vehicle_type_id":"4","last_reported":1775139359,"current_range_meters":4000,"station_id":"ce4bgt92rcd13ifvqcg0","pricing_plan_id":"cebpf4jnsgd1na2vs0mg"},{"bike_id":"c01d9e49-fff9-456c-8c86-45ce90e055c7","system_id":"levelo_inurba_marseille","lat":43.31178,"lon":5.3686,"is_reserved":false,"is_disabled":false,"rental_uris":{"android":"levelo://app?vid=c01d9e49-fff9-456c-8c86-45ce90e055c7","ios":"levelo://app?vid=c01d9e49-fff9-456c-8c86-45ce90e055c7"},"vehicle_type_id":"4","last_reported":1775139359,"current_range_meters":4000,"station_id":"","pricing_plan_id":"cebpf4jnsgd1na2vs0mg"},{"bike_id":"bd745af4-b1d4-4322-9723-4db0fa7083f7","system_id":"levelo_inurba_marseille","lat":43.30954,"lon":5.39061,"is_reserved":false,"is_disabled":false,"rental_uris":{"android":"levelo://app?vid=bd745af4-b1d4-4322-9723-4db0fa7083f7","ios":"levelo://app?vid=bd745af4-b1d4-4322-9723-4db0fa7083f7"},"vehicle_type_id":"4","last_reported":1775139359,"current_range_meters":4000,"station_id":"ce4bgup2rcd13ifvqco0","pricing_plan_id":"cebpf4jnsgd1na2vs0mg"},{"bike_id":"c267eaf3-200a-4a1c-8074-fa1f1a8154c6","system_id":"levelo_inurba_marseille","lat":43.21754,"lon":5.34586,"is_reserved":false,"is_disabled":false,"rental_uris":{"android":"levelo://app?vid=c267eaf3-200a-4a1c-8074-fa1f1a8154c6","ios":"levelo://app?vid=c267eaf3-200a-4a1c-8074-fa1f1a8154c6"},"vehicle_type_id":"4","last_reported":1775139359,"current_range_meters":4000,"station_id":"st_cvj6r9ubvosntc0bgbag","pricing_plan_id":"cebpf4jnsgd1na2vs0mg"},{"bike_id":"28902c85-2ce9-4ec9-adfe-51cf4064fa09","system_id":"levelo_inurba_marseille","lat":43.28439,"lon":5.39193,"is_reserved":false,"is_disabled":true,"rental_uris":{"android":"levelo://app?vid=28902c85-2ce9-4ec9-adfe-51cf4064fa09","ios":"levelo://app?vid=28902c85-2ce9-4ec9-adfe-51cf4064fa09"},"vehicle_type_id":"4","last_reported":1775139359,"current_range_meters":4400,"station_id":"ce4bhoh2rcd13ifvqh5g","pricing_plan_id":"cebpf4jnsgd1na2vs0mg"},{"bike_id":"3e5c296a-37eb-4356-9409-5bacaaf65b15","system_id":"levelo_inurba_marseille","lat":43.3009,"lon":5.39092,"is_reserved":false,"is_disabled":false,"rental_uris":{"android":"levelo://app?vid=3e5c296a-37eb-4356-9409-5bacaaf65b15","ios":"levelo://app?vid=3e5c296a-37eb-4356-9409-5bacaaf65b15"},"vehicle_type_id":"4","last_reported":1775139359,"current_range_meters":4400,"station_id":"ce4bh192rcd13ifvqdb0","pricing_plan_id":"cebpf4jnsgd1na2vs0mg"},{"bike_id":"32bbc785-7878-457c-9b63-c753cac045af","system_id":"levelo_inurba_marseille","lat":43.21768,"lon":5.34598,"is_reserved":false,"is_disabled":false,"rental_uris":{"android":"levelo://app?vid=32bbc785-7878-457c-9b63-c753cac045af","ios":"levelo://app?vid=32bbc785-7878-457c-9b63-c753cac045af"},"vehicle_type_id":"4","last_reported":1775139359,"current_range_meters":4400,"station_id":"st_cvj6r9ubvosntc0bgbag","pricing_plan_id":"cebpf4jnsgd1na2vs0mg"},{"bike_id":"d60bfc57-c330-45ad-9992-eff7028131c8","system_id":"levelo_inurba_marseille","lat":43.24379,"lon":5.37064,"is_reserved":false,"is_disabled":false,"rental_uris":{"android":"levelo://app?vid=d60bfc57-c330-45ad-9992-eff7028131c8","ios":"levelo://app?vid=d60bfc57-c330-45ad-9992-eff7028131c8"},"vehicle_type_id":"4","last_reported":1775139359,"current_range_meters":4400,"station_id":"ce4bhhh2rcd13ifvqfk0","pricing_plan_id":"cebpf4jnsgd1na2vs0mg"},{"bike_id":"62c602a9-aa57-40f9-aee4-0b99578b631c","system_id":"levelo_inurba_marseille","lat":43.28291,"lon":5.35046,"is_reserved":false,"is_disabled":false,"rental_uris":{"android":"levelo://app?vid=62c602a9-aa57-40f9-aee4-0b99578b631c","ios":"levelo://app?vid=62c602a9-aa57-40f9-aee4-0b99578b631c"},"vehicle_type_id":"4","last_reported":1775139359,"current_range_meters":4400,"station_id":"ce4bhbp2rcd13ifvqerg","pricing_plan_id":"cebpf4jnsgd1na2vs0mg"},{"bike_id":"ef8d4fc8-6bc3-4a9f-a476-2d23d9d29968","system_id":"levelo_inurba_marseille","lat":43.29267,"lon":5.40129,"is_reserved":false,"is_disabled":true,"rental_uris":{"android":"levelo://app?vid=ef8d4fc8-6bc3-4a9f-a476-2d23d9d29968","ios":"levelo://app?vid=ef8d4fc8-6bc3-4a9f-a476-2d23d9d29968"},"vehicle_type_id":"4","last_reported":1775139359,"current_range_meters":4400,"station_id":"ce4bh312rcd13ifvqdk0","pricing_plan_id":"cebpf4jnsgd1na2vs0mg"},{"bike_id":"465c3b97-fa3b-4987-a0da-c02fe6cfecbd","system_id":"levelo_inurba_marseille","lat":43.31048,"lon":5.3718,"is_reserved":false,"is_disabled":false,"rental_uris":{"android":"levelo://app?vid=465c3b97-fa3b-4987-a0da-c02fe6cfecbd","ios":"levelo://app?vid=465c3b97-fa3b-4987-a0da-c02fe6cfecbd"},"vehicle_type_id":"4","last_reported":1775139359,"current_range_meters":4800,"station_id":"st_d4kl2rp97mjs73e7tdfg","pricing_plan_id":"cebpf4jnsgd1na2vs0mg"},{"bike_id":"044d0e04-4a13-414f-aa0d-6345aea274e6","system_id":"levelo_inurba_marseille","lat":43.29539,"lon":5.37469,"is_reserved":false,"is_disabled":true,"rental_uris":{"android":"levelo://app?vid=044d0e04-4a13-414f-aa0d-6345aea274e6","ios":"levelo://app?vid=044d0e04-4a13-414f-aa0d-6345aea274e6"},"vehicle_type_id":"4","last_reported":1775139359,"current_range_meters":4800,"station_id":"ce4bgkp2rcd13ifvqbmg","pricing_plan_id":"cebpf4jnsgd1na2vs0mg"},{"bike_id":"1b89f2e1-0726-4a0a-ba7f-f4397fe41860","system_id":"levelo_inurba_marseille","lat":43.28616,"lon":5.38342,"is_reserved":false,"is_disabled":false,"rental_uris":{"android":"levelo://app?vid=1b89f2e1-0726-4a0a-ba7f-f4397fe41860","ios":"levelo://app?vid=1b89f2e1-0726-4a0a-ba7f-f4397fe41860"},"vehicle_type_id":"4","last_reported":1775139359,"current_range_meters":4800,"station_id":"","pricing_plan_id":"cebpf4jnsgd1na2vs0mg"},{"bike_id":"8d67b323-4095-4405-9704-9e7776fd3be7","system_id":"levelo_inurba_marseille","lat":43.212,"lon":5.3503,"is_reserved":false,"is_disabled":false,"rental_uris":{"android":"levelo://app?vid=8d67b323-4095-4405-9704-9e7776fd3be7","ios":"levelo://app?vid=8d67b323-4095-4405-9704-9e7776fd3be7"},"vehicle_type_id":"4","last_reported":1775139359,"current_range_meters":4800,"station_id":"","pricing_plan_id":"cebpf4jnsgd1na2vs0mg"},{"bike_id":"54ed8ed4-a295-4f05-a94c-10db1e3683a2","system_id":"levelo_inurba_marseille","lat":43.3123,"lon":5.36838,"is_reserved":false,"is_disabled":false,"rental_uris":{"android":"levelo://app?vid=54ed8ed4-a295-4f05-a94c-10db1e3683a2","ios":"levelo://app?vid=54ed8ed4-a295-4f05-a94c-10db1e3683a2"},"vehicle_type_id":"4","last_reported":1775139359,"current_range_meters":4800,"station_id":"ce4bgl92rcd13ifvqbq0","pricing_plan_id":"cebpf4jnsgd1na2vs0mg"},{"bike_id":"17b8fc26-3ba8-4cf9-a457-0b2cc0ec871e","system_id":"levelo_inurba_marseille","lat":43.27463,"lon":5.41651,"is_reserved":false,"is_disabled":false,"rental_uris":{"android":"levelo://app?vid=17b8fc26-3ba8-4cf9-a457-0b2cc0ec871e","ios":"levelo://app?vid=17b8fc26-3ba8-4cf9-a457-0b2cc0ec871e"},"vehicle_type_id":"4","last_reported":1775139359,"current_range_meters":4800,"station_id":"","pricing_plan_id":"cebpf4jnsgd1na2vs0mg"},{"bike_id":"e9b3f906-3c96-41d2-bde3-70019147dd95","system_id":"levelo_inurba_marseille","lat":43.22559,"lon":5.41652,"is_reserved":false,"is_disabled":false,"rental_uris":{"android":"levelo://app?vid=e9b3f906-3c96-41d2-bde3-70019147dd95","ios":"levelo://app?vid=e9b3f906-3c96-41d2-bde3-70019147dd95"},"vehicle_type_id":"4","last_reported":1775139359,"current_range_meters":4800,"station_id":"st_d2o4gvlbi1j2169b742g","pricing_plan_id":"cebpf4jnsgd1na2vs0mg"},{"bike_id":"efa15f77-5d90-412f-bab6-85d01af132c2","system_id":"levelo_inurba_marseille","lat":43.26187,"lon":5.37931,"is_reserved":false,"is_disabled":false,"rental_uris":{"android":"levelo://app?vid=efa15f77-5d90-412f-bab6-85d01af132c2","ios":"levelo://app?vid=efa15f77-5d90-412f-bab6-85d01af132c2"},"vehicle_type_id":"4","last_reported":1775139359,"current_range_meters":4800,"station_id":"ce4bhjp2rcd13ifvqg90","pricing_plan_id":"cebpf4jnsgd1na2vs0mg"},{"bike_id":"1bdbf982-d656-4173-91b1-d3055e78d6cd","system_id":"levelo_inurba_marseille","lat":43.22563,"lon":5.41619,"is_reserved":false,"is_disabled":false,"rental_uris":{"android":"levelo://app?vid=1bdbf982-d656-4173-91b1-d3055e78d6cd","ios":"levelo://app?vid=1bdbf982-d656-4173-91b1-d3055e78d6cd"},"vehicle_type_id":"4","last_reported":1775139359,"current_range_meters":4800,"station_id":"st_d2o4gvlbi1j2169b742g","pricing_plan_id":"cebpf4jnsgd1na2vs0mg"},{"bike_id":"2b176618-2114-4a94-bc43-fa6914887efb","system_id":"levelo_inurba_marseille","lat":43.33529,"lon":5.37467,"is_reserved":false,"is_disabled":false,"rental_uris":{"android":"levelo://app?vid=2b176618-2114-4a94-bc43-fa6914887efb","ios":"levelo://app?vid=2b176618-2114-4a94-bc43-fa6914887efb"},"vehicle_type_id":"4","last_reported":1775139359,"current_range_meters":4800,"station_id":"st_d46tts09ee8s73dlu43g","pricing_plan_id":"cebpf4jnsgd1na2vs0mg"},{"bike_id":"b49cb049-4451-422a-852a-64e0cc0965dc","system_id":"levelo_inurba_marseille","lat":43.26957,"lon":5.38627,"is_reserved":false,"is_disabled":false,"rental_uris":{"android":"levelo://app?vid=b49cb049-4451-422a-852a-64e0cc0965dc","ios":"levelo://app?vid=b49cb049-4451-422a-852a-64e0cc0965dc"},"vehicle_type_id":"4","last_reported":1775139359,"current_range_meters":4800,"station_id":"ce4bhh92rcd13ifvqfh0","pricing_plan_id":"cebpf4jnsgd1na2vs0mg"},{"bike_id":"052f68eb-b3d2-4c29-a99d-37f9d3e34be6","system_id":"levelo_inurba_marseille","lat":43.24896,"lon":5.42657,"is_reserved":false,"is_disabled":false,"rental_uris":{"android":"levelo://app?vid=052f68eb-b3d2-4c29-a99d-37f9d3e34be6","ios":"levelo://app?vid=052f68eb-b3d2-4c29-a99d-37f9d3e34be6"},"vehicle_type_id":"4","last_reported":1775139359,"current_range_meters":4800,"station_id":"","pricing_plan_id":"cebpf4jnsgd1na2vs0mg"},{"bike_id":"41cd8bf1-f074-41ef-a621-11928c4a85e3","system_id":"levelo_inurba_marseille","lat":43.31029,"lon":5.37173,"is_reserved":false,"is_disabled":false,"rental_uris":{"android":"levelo://app?vid=41cd8bf1-f074-41ef-a621-11928c4a85e3","ios":"levelo://app?vid=41cd8bf1-f074-41ef-a621-11928c4a85e3"},"vehicle_type_id":"4","last_reported":1775139359,"current_range_meters":4800,"station_id":"st_d4kl2rp97mjs73e7tdfg","pricing_plan_id":"cebpf4jnsgd1na2vs0mg"},{"bike_id":"6402886e-e3eb-4964-b679-963d0dfa8ace","system_id":"levelo_inurba_marseille","lat":43.31692,"lon":5.40472,"is_reserved":false,"is_disabled":false,"rental_uris":{"android":"levelo://app?vid=6402886e-e3eb-4964-b679-963d0dfa8ace","ios":"levelo://app?vid=6402886e-e3eb-4964-b679-963d0dfa8ace"},"vehicle_type_id":"4","last_reported":1775139359,"current_range_meters":4800,"station_id":"ce4bh012rcd13ifvqd00","pricing_plan_id":"cebpf4jnsgd1na2vs0mg"},{"bike_id":"541ebc29-ffda-43d1-a299-5228156b2368","system_id":"levelo_inurba_marseille","lat":43.3032,"lon":5.40429,"is_reserved":false,"is_disabled":false,"rental_uris":{"android":"levelo://app?vid=541ebc29-ffda-43d1-a299-5228156b2368","ios":"levelo://app?vid=541ebc29-ffda-43d1-a299-5228156b2368"},"vehicle_type_id":"4","last_reported":1775139359,"current_range_meters":4800,"station_id":"ce4bh012rcd13ifvqd10","pricing_plan_id":"cebpf4jnsgd1na2vs0mg"},{"bike_id":"fa52ce35-6ea9-4f46-bfd2-c8715437ce36","system_id":"levelo_inurba_marseille","lat":43.31047,"lon":5.37146,"is_reserved":false,"is_disabled":false,"rental_uris":{"android":"levelo://app?vid=fa52ce35-6ea9-4f46-bfd2-c8715437ce36","ios":"levelo://app?vid=fa52ce35-6ea9-4f46-bfd2-c8715437ce36"},"vehicle_type_id":"4","last_reported":1775139359,"current_range_meters":5600,"station_id":"st_d4kl2rp97mjs73e7tdfg","pricing_plan_id":"cebpf4jnsgd1na2vs0mg"},{"bike_id":"78151f0b-d096-4bc8-9d04-f28fec21246f","system_id":"levelo_inurba_marseille","lat":43.23185,"lon":5.3998,"is_reserved":false,"is_disabled":false,"rental_uris":{"android":"levelo://app?vid=78151f0b-d096-4bc8-9d04-f28fec21246f","ios":"levelo://app?vid=78151f0b-d096-4bc8-9d04-f28fec21246f"},"vehicle_type_id":"4","last_reported":1775139359,"current_range_meters":5600,"station_id":"ce4bhn12rcd13ifvqgqg","pricing_plan_id":"cebpf4jnsgd1na2vs0mg"},{"bike_id":"c69f7b18-98a2-454c-bac1-287f873aa573","system_id":"levelo_inurba_marseille","lat":43.262123,"lon":5.374489,"is_reserved":false,"is_disabled":true,"rental_uris":{"android":"levelo://app?vid=c69f7b18-98a2-454c-bac1-287f873aa573","ios":"levelo://app?vid=c69f7b18-98a2-454c-bac1-287f873aa573"},"vehicle_type_id":"4","last_reported":1775139359,"current_range_meters":5600,"station_id":"ce4bhbh2rcd13ifvqepg","pricing_plan_id":"cebpf4jnsgd1na2vs0mg"},{"bike_id":"4b3c825a-c5e6-42c6-af30-700063fa913d","system_id":"levelo_inurba_marseille","lat":43.25981,"lon":5.37596,"is_reserved":false,"is_disabled":true,"rental_uris":{"android":"levelo://app?vid=4b3c825a-c5e6-42c6-af30-700063fa913d","ios":"levelo://app?vid=4b3c825a-c5e6-42c6-af30-700063fa913d"},"vehicle_type_id":"4","last_reported":1775139359,"current_range_meters":5600,"station_id":"","pricing_plan_id":"cebpf4jnsgd1na2vs0mg"},{"bike_id":"14406371-10d8-4bf4-9140-3f7b7594685f","system_id":"levelo_inurba_marseille","lat":43.293,"lon":5.37448,"is_reserved":false,"is_disabled":false,"rental_uris":{"android":"levelo://app?vid=14406371-10d8-4bf4-9140-3f7b7594685f","ios":"levelo://app?vid=14406371-10d8-4bf4-9140-3f7b7594685f"},"vehicle_type_id":"4","last_reported":1775139359,"current_range_meters":5600,"station_id":"ce4bgi12rcd13ifvqb70","pricing_plan_id":"cebpf4jnsgd1na2vs0mg"},{"bike_id":"7a44b039-836a-4b6a-b321-6853ea723941","system_id":"levelo_inurba_marseille","lat":43.24174,"lon":5.36378,"is_reserved":false,"is_disabled":false,"rental_uris":{"android":"levelo://app?vid=7a44b039-836a-4b6a-b321-6853ea723941","ios":"levelo://app?vid=7a44b039-836a-4b6a-b321-6853ea723941"},"vehicle_type_id":"4","last_reported":1775139359,"current_range_meters":5600,"station_id":"cpo36qri1sfpv3e86is0","pricing_plan_id":"cebpf4jnsgd1na2vs0mg"},{"bike_id":"c68c44d0-bb21-47ad-a977-a28a9e71073e","system_id":"levelo_inurba_marseille","lat":43.29734,"lon":5.37336,"is_reserved":false,"is_disabled":false,"rental_uris":{"android":"levelo://app?vid=c68c44d0-bb21-47ad-a977-a28a9e71073e","ios":"levelo://app?vid=c68c44d0-bb21-47ad-a977-a28a9e71073e"},"vehicle_type_id":"4","last_reported":1775139359,"current_range_meters":5600,"station_id":"","pricing_plan_id":"cebpf4jnsgd1na2vs0mg"},{"bike_id":"79e3edcb-2b92-4d65-92ff-dcad43359865","system_id":"levelo_inurba_marseille","lat":43.28845,"lon":5.39317,"is_reserved":false,"is_disabled":false,"rental_uris":{"android":"levelo://app?vid=79e3edcb-2b92-4d65-92ff-dcad43359865","ios":"levelo://app?vid=79e3edcb-2b92-4d65-92ff-dcad43359865"},"vehicle_type_id":"4","last_reported":1775139359,"current_range_meters":5600,"station_id":"ce4bh2p2rcd13ifvqdi0","pricing_plan_id":"cebpf4jnsgd1na2vs0mg"},{"bike_id":"a55f30e6-cff6-47a2-9ba2-74cf3c3af771","system_id":"levelo_inurba_marseille","lat":43.26205,"lon":5.37924,"is_reserved":false,"is_disabled":false,"rental_uris":{"android":"levelo://app?vid=a55f30e6-cff6-47a2-9ba2-74cf3c3af771","ios":"levelo://app?vid=a55f30e6-cff6-47a2-9ba2-74cf3c3af771"},"vehicle_type_id":"4","last_reported":1775139359,"current_range_meters":5600,"station_id":"ce4bhjp2rcd13ifvqg90","pricing_plan_id":"cebpf4jnsgd1na2vs0mg"},{"bike_id":"751823b1-fecf-476f-a14d-b22ea92d3e4c","system_id":"levelo_inurba_marseille","lat":43.29187,"lon":5.42681,"is_reserved":false,"is_disabled":false,"rental_uris":{"android":"levelo://app?vid=751823b1-fecf-476f-a14d-b22ea92d3e4c","ios":"levelo://app?vid=751823b1-fecf-476f-a14d-b22ea92d3e4c"},"vehicle_type_id":"4","last_reported":1775139359,"current_range_meters":5600,"station_id":"","pricing_plan_id":"cebpf4jnsgd1na2vs0mg"},{"bike_id":"cce71867-af00-4efb-acca-1ad994ce58c1","system_id":"levelo_inurba_marseille","lat":43.33164,"lon":5.37687,"is_reserved":false,"is_disabled":false,"rental_uris":{"android":"levelo://app?vid=cce71867-af00-4efb-acca-1ad994ce58c1","ios":"levelo://app?vid=cce71867-af00-4efb-acca-1ad994ce58c1"},"vehicle_type_id":"4","last_reported":1775139359,"current_range_meters":5600,"station_id":"st_d46cu089ee8s73dldbu0","pricing_plan_id":"cebpf4jnsgd1na2vs0mg"},{"bike_id":"85844a9c-a993-495a-be4d-4c12ee28db09","system_id":"levelo_inurba_marseille","lat":43.24956,"lon":5.40489,"is_reserved":false,"is_disabled":false,"rental_uris":{"android":"levelo://app?vid=85844a9c-a993-495a-be4d-4c12ee28db09","ios":"levelo://app?vid=85844a9c-a993-495a-be4d-4c12ee28db09"},"vehicle_type_id":"4","last_reported":1775139359,"current_range_meters":5600,"station_id":"st_d2ngiaodas8pm72gd1h0","pricing_plan_id":"cebpf4jnsgd1na2vs0mg"},{"bike_id":"0c7b7146-ea70-46cb-8ebb-6ecd2332c233","system_id":"levelo_inurba_marseille","lat":43.29005,"lon":5.3561,"is_reserved":false,"is_disabled":false,"rental_uris":{"android":"levelo://app?vid=0c7b7146-ea70-46cb-8ebb-6ecd2332c233","ios":"levelo://app?vid=0c7b7146-ea70-46cb-8ebb-6ecd2332c233"},"vehicle_type_id":"4","last_reported":1775139359,"current_range_meters":5600,"station_id":"ce4bhb92rcd13ifvqen0","pricing_plan_id":"cebpf4jnsgd1na2vs0mg"},{"bike_id":"4e48773f-30f8-41cd-9be2-e8fe81c25162","system_id":"levelo_inurba_marseille","lat":43.21245,"lon":5.35069,"is_reserved":false,"is_disabled":false,"rental_uris":{"android":"levelo://app?vid=4e48773f-30f8-41cd-9be2-e8fe81c25162","ios":"levelo://app?vid=4e48773f-30f8-41cd-9be2-e8fe81c25162"},"vehicle_type_id":"4","last_reported":1775139359,"current_range_meters":6000,"station_id":"","pricing_plan_id":"cebpf4jnsgd1na2vs0mg"},{"bike_id":"eb1dc476-538d-4bab-a0e5-6a32e006e93b","system_id":"levelo_inurba_marseille","lat":43.28858,"lon":5.35853,"is_reserved":false,"is_disabled":false,"rental_uris":{"android":"levelo://app?vid=eb1dc476-538d-4bab-a0e5-6a32e006e93b","ios":"levelo://app?vid=eb1dc476-538d-4bab-a0e5-6a32e006e93b"},"vehicle_type_id":"4","last_reported":1775139359,"current_range_meters":6000,"station_id":"ce4bhb12rcd13ifvqem0","pricing_plan_id":"cebpf4jnsgd1na2vs0mg"},{"bike_id":"fd8a1152-1ce7-4d23-9abe-23b669815d8a","system_id":"levelo_inurba_marseille","lat":43.31209,"lon":5.36821,"is_reserved":false,"is_disabled":false,"rental_uris":{"android":"levelo://app?vid=fd8a1152-1ce7-4d23-9abe-23b669815d8a","ios":"levelo://app?vid=fd8a1152-1ce7-4d23-9abe-23b669815d8a"},"vehicle_type_id":"4","last_reported":1775139359,"current_range_meters":6000,"station_id":"ce4bgl92rcd13ifvqbq0","pricing_plan_id":"cebpf4jnsgd1na2vs0mg"},{"bike_id":"8429f855-c4a0-4803-9ce7-0d1fb93dbfe8","system_id":"levelo_inurba_marseille","lat":43.28556,"lon":5.48336,"is_reserved":false,"is_disabled":false,"rental_uris":{"android":"levelo://app?vid=8429f855-c4a0-4803-9ce7-0d1fb93dbfe8","ios":"levelo://app?vid=8429f855-c4a0-4803-9ce7-0d1fb93dbfe8"},"vehicle_type_id":"4","last_reported":1775139359,"current_range_meters":6000,"station_id":"","pricing_plan_id":"cebpf4jnsgd1na2vs0mg"},{"bike_id":"11d19dab-7798-472d-a3cd-c1ff1cf623a6","system_id":"levelo_inurba_marseille","lat":43.25023,"lon":5.38915,"is_reserved":false,"is_disabled":false,"rental_uris":{"android":"levelo://app?vid=11d19dab-7798-472d-a3cd-c1ff1cf623a6","ios":"levelo://app?vid=11d19dab-7798-472d-a3cd-c1ff1cf623a6"},"vehicle_type_id":"4","last_reported":1775139359,"current_range_meters":6000,"station_id":"ce4bhgp2rcd13ifvqfd0","pricing_plan_id":"cebpf4jnsgd1na2vs0mg"},{"bike_id":"a5ccb9c6-4f2b-438b-b0de-c6c999b11fec","system_id":"levelo_inurba_marseille","lat":43.28427,"lon":5.34975,"is_reserved":false,"is_disabled":false,"rental_uris":{"android":"levelo://app?vid=a5ccb9c6-4f2b-438b-b0de-c6c999b11fec","ios":"levelo://app?vid=a5ccb9c6-4f2b-438b-b0de-c6c999b11fec"},"vehicle_type_id":"4","last_reported":1775139359,"current_range_meters":6000,"station_id":"ce4bhbh2rcd13ifvqepg","pricing_plan_id":"cebpf4jnsgd1na2vs0mg"},{"bike_id":"b149b05d-17dc-4174-91fd-6a2d9bb13c8f","system_id":"levelo_inurba_marseille","lat":43.31667,"lon":5.38156,"is_reserved":false,"is_disabled":false,"rental_uris":{"android":"levelo://app?vid=b149b05d-17dc-4174-91fd-6a2d9bb13c8f","ios":"levelo://app?vid=b149b05d-17dc-4174-91fd-6a2d9bb13c8f"},"vehicle_type_id":"4","last_reported":1775139359,"current_range_meters":6000,"station_id":"","pricing_plan_id":"cebpf4jnsgd1na2vs0mg"},{"bike_id":"cac3c55f-dcf5-4706-9051-185e14264ce9","system_id":"levelo_inurba_marseille","lat":43.26024,"lon":5.37541,"is_reserved":false,"is_disabled":false,"rental_uris":{"android":"levelo://app?vid=cac3c55f-dcf5-4706-9051-185e14264ce9","ios":"levelo://app?vid=cac3c55f-dcf5-4706-9051-185e14264ce9"},"vehicle_type_id":"4","last_reported":1775139359,"current_range_meters":6000,"station_id":"ce4bhgh2rcd13ifvqfa0","pricing_plan_id":"cebpf4jnsgd1na2vs0mg"},{"bike_id":"2be64f19-432b-4d07-98a7-6e9bfd23e981","system_id":"levelo_inurba_marseille","lat":43.29747,"lon":5.42769,"is_reserved":false,"is_disabled":false,"rental_uris":{"android":"levelo://app?vid=2be64f19-432b-4d07-98a7-6e9bfd23e981","ios":"levelo://app?vid=2be64f19-432b-4d07-98a7-6e9bfd23e981"},"vehicle_type_id":"4","last_reported":1775139359,"current_range_meters":6000,"station_id":"st_d3md5207bmas73dh9klg","pricing_plan_id":"cebpf4jnsgd1na2vs0mg"},{"bike_id":"36324448-9147-4274-9bae-5f508f780811","system_id":"levelo_inurba_marseille","lat":43.2719,"lon":5.39188,"is_reserved":false,"is_disabled":false,"rental_uris":{"android":"levelo://app?vid=36324448-9147-4274-9bae-5f508f780811","ios":"levelo://app?vid=36324448-9147-4274-9bae-5f508f780811"},"vehicle_type_id":"4","last_reported":1775139359,"current_range_meters":6000,"station_id":"ce4bhhp2rcd13ifvqfm0","pricing_plan_id":"cebpf4jnsgd1na2vs0mg"},{"bike_id":"d79043de-c8e5-4bdb-aecd-cc4044485d69","system_id":"levelo_inurba_marseille","lat":43.33161,"lon":5.37694,"is_reserved":false,"is_disabled":false,"rental_uris":{"android":"levelo://app?vid=d79043de-c8e5-4bdb-aecd-cc4044485d69","ios":"levelo://app?vid=d79043de-c8e5-4bdb-aecd-cc4044485d69"},"vehicle_type_id":"4","last_reported":1775139359,"current_range_meters":6000,"station_id":"st_d46cu089ee8s73dldbu0","pricing_plan_id":"cebpf4jnsgd1na2vs0mg"},{"bike_id":"db39c05e-dc3c-4438-9b29-8a9fb9770741","system_id":"levelo_inurba_marseille","lat":43.28458,"lon":5.3589,"is_reserved":false,"is_disabled":false,"rental_uris":{"android":"levelo://app?vid=db39c05e-dc3c-4438-9b29-8a9fb9770741","ios":"levelo://app?vid=db39c05e-dc3c-4438-9b29-8a9fb9770741"},"vehicle_type_id":"4","last_reported":1775139359,"current_range_meters":6000,"station_id":"ce4bhah2rcd13ifvqei0","pricing_plan_id":"cebpf4jnsgd1na2vs0mg"},{"bike_id":"e0153599-85e1-4ac9-b149-1d4ee90b7012","system_id":"levelo_inurba_marseille","lat":43.27069,"lon":5.42276,"is_reserved":false,"is_disabled":false,"rental_uris":{"android":"levelo://app?vid=e0153599-85e1-4ac9-b149-1d4ee90b7012","ios":"levelo://app?vid=e0153599-85e1-4ac9-b149-1d4ee90b7012"},"vehicle_type_id":"4","last_reported":1775139359,"current_range_meters":6000,"station_id":"ce4bhk92rcd13ifvqgb0","pricing_plan_id":"cebpf4jnsgd1na2vs0mg"},{"bike_id":"54836f75-e8a3-41ee-b1d4-c12cba7dde74","system_id":"levelo_inurba_marseille","lat":43.25824,"lon":5.39439,"is_reserved":false,"is_disabled":false,"rental_uris":{"android":"levelo://app?vid=54836f75-e8a3-41ee-b1d4-c12cba7dde74","ios":"levelo://app?vid=54836f75-e8a3-41ee-b1d4-c12cba7dde74"},"vehicle_type_id":"4","last_reported":1775139359,"current_range_meters":6400,"station_id":"ce4bhip2rcd13ifvqft0","pricing_plan_id":"cebpf4jnsgd1na2vs0mg"},{"bike_id":"b97544d4-fc20-4746-a137-2d69f3584b87","system_id":"levelo_inurba_marseille","lat":43.22555,"lon":5.34824,"is_reserved":false,"is_disabled":false,"rental_uris":{"android":"levelo://app?vid=b97544d4-fc20-4746-a137-2d69f3584b87","ios":"levelo://app?vid=b97544d4-fc20-4746-a137-2d69f3584b87"},"vehicle_type_id":"4","last_reported":1775139359,"current_range_meters":6400,"station_id":"st_cvj5dfep6f1abm77gieg","pricing_plan_id":"cebpf4jnsgd1na2vs0mg"},{"bike_id":"a0d27ebf-177a-4383-8e91-9db7292a751e","system_id":"levelo_inurba_marseille","lat":43.217771,"lon":5.346095,"is_reserved":false,"is_disabled":false,"rental_uris":{"android":"levelo://app?vid=a0d27ebf-177a-4383-8e91-9db7292a751e","ios":"levelo://app?vid=a0d27ebf-177a-4383-8e91-9db7292a751e"},"vehicle_type_id":"4","last_reported":1775139359,"current_range_meters":6400,"station_id":"st_cvj6sg6p6f1abm77japg","pricing_plan_id":"cebpf4jnsgd1na2vs0mg"},{"bike_id":"bd0ac768-7c9c-45a3-a37e-3f8f101dd4fa","system_id":"levelo_inurba_marseille","lat":43.22535,"lon":5.34808,"is_reserved":false,"is_disabled":false,"rental_uris":{"android":"levelo://app?vid=bd0ac768-7c9c-45a3-a37e-3f8f101dd4fa","ios":"levelo://app?vid=bd0ac768-7c9c-45a3-a37e-3f8f101dd4fa"},"vehicle_type_id":"4","last_reported":1775139359,"current_range_meters":6400,"station_id":"st_cvj5dfep6f1abm77gieg","pricing_plan_id":"cebpf4jnsgd1na2vs0mg"},{"bike_id":"11a3575c-a967-4750-a89c-f077d62c5247","system_id":"levelo_inurba_marseille","lat":43.24665,"lon":5.38112,"is_reserved":false,"is_disabled":false,"rental_uris":{"android":"levelo://app?vid=11a3575c-a967-4750-a89c-f077d62c5247","ios":"levelo://app?vid=11a3575c-a967-4750-a89c-f077d62c5247"},"vehicle_type_id":"4","last_reported":1775139359,"current_range_meters":6400,"station_id":"ce4bhih2rcd13ifvqfr0","pricing_plan_id":"cebpf4jnsgd1na2vs0mg"},{"bike_id":"34c3abef-cbf4-4d01-80af-d9cb2f894f66","system_id":"levelo_inurba_marseille","lat":43.29005,"lon":5.35599,"is_reserved":false,"is_disabled":false,"rental_uris":{"android":"levelo://app?vid=34c3abef-cbf4-4d01-80af-d9cb2f894f66","ios":"levelo://app?vid=34c3abef-cbf4-4d01-80af-d9cb2f894f66"},"vehicle_type_id":"4","last_reported":1775139359,"current_range_meters":6400,"station_id":"ce4bhb92rcd13ifvqen0","pricing_plan_id":"cebpf4jnsgd1na2vs0mg"},{"bike_id":"7d8f3bc3-46ff-4802-82b9-2bf86ded1c15","system_id":"levelo_inurba_marseille","lat":43.33758,"lon":5.37459,"is_reserved":false,"is_disabled":true,"rental_uris":{"android":"levelo://app?vid=7d8f3bc3-46ff-4802-82b9-2bf86ded1c15","ios":"levelo://app?vid=7d8f3bc3-46ff-4802-82b9-2bf86ded1c15"},"vehicle_type_id":"4","last_reported":1775139359,"current_range_meters":6400,"station_id":"","pricing_plan_id":"cebpf4jnsgd1na2vs0mg"},{"bike_id":"0bccd438-ccc6-4db5-a746-92db398465e4","system_id":"levelo_inurba_marseille","lat":43.31457,"lon":5.36985,"is_reserved":false,"is_disabled":false,"rental_uris":{"android":"levelo://app?vid=0bccd438-ccc6-4db5-a746-92db398465e4","ios":"levelo://app?vid=0bccd438-ccc6-4db5-a746-92db398465e4"},"vehicle_type_id":"4","last_reported":1775139359,"current_range_meters":6400,"station_id":"","pricing_plan_id":"cebpf4jnsgd1na2vs0mg"},{"bike_id":"4d5384d3-8484-4fd4-ab3e-42cf8d8ddb2b","system_id":"levelo_inurba_marseille","lat":43.28864,"lon":5.42503,"is_reserved":false,"is_disabled":false,"rental_uris":{"android":"levelo://app?vid=4d5384d3-8484-4fd4-ab3e-42cf8d8ddb2b","ios":"levelo://app?vid=4d5384d3-8484-4fd4-ab3e-42cf8d8ddb2b"},"vehicle_type_id":"4","last_reported":1775139359,"current_range_meters":6400,"station_id":"st_d3b462108ojc7389ooeg","pricing_plan_id":"cebpf4jnsgd1na2vs0mg"},{"bike_id":"90f7d793-d998-4b8c-9a23-2fda31fcdd1a","system_id":"levelo_inurba_marseille","lat":43.27964,"lon":5.38728,"is_reserved":false,"is_disabled":false,"rental_uris":{"android":"levelo://app?vid=90f7d793-d998-4b8c-9a23-2fda31fcdd1a","ios":"levelo://app?vid=90f7d793-d998-4b8c-9a23-2fda31fcdd1a"},"vehicle_type_id":"4","last_reported":1775139359,"current_range_meters":6400,"station_id":"ce4bhg12rcd13ifvqf80","pricing_plan_id":"cebpf4jnsgd1na2vs0mg"},{"bike_id":"62210ce0-a99a-4686-acce-34a5c68d8cfd","system_id":"levelo_inurba_marseille","lat":43.2402,"lon":5.3778,"is_reserved":false,"is_disabled":false,"rental_uris":{"android":"levelo://app?vid=62210ce0-a99a-4686-acce-34a5c68d8cfd","ios":"levelo://app?vid=62210ce0-a99a-4686-acce-34a5c68d8cfd"},"vehicle_type_id":"4","last_reported":1775139359,"current_range_meters":6400,"station_id":"","pricing_plan_id":"cebpf4jnsgd1na2vs0mg"},{"bike_id":"50dbb98a-b975-4f0e-b47f-dfca01a844ad","system_id":"levelo_inurba_marseille","lat":43.25821,"lon":5.39424,"is_reserved":false,"is_disabled":false,"rental_uris":{"android":"levelo://app?vid=50dbb98a-b975-4f0e-b47f-dfca01a844ad","ios":"levelo://app?vid=50dbb98a-b975-4f0e-b47f-dfca01a844ad"},"vehicle_type_id":"4","last_reported":1775139359,"current_range_meters":6400,"station_id":"ce4bhip2rcd13ifvqft0","pricing_plan_id":"cebpf4jnsgd1na2vs0mg"},{"bike_id":"9291dae7-b61f-4b45-8de8-0e850c2d1049","system_id":"levelo_inurba_marseille","lat":43.25589,"lon":5.3822,"is_reserved":false,"is_disabled":false,"rental_uris":{"android":"levelo://app?vid=9291dae7-b61f-4b45-8de8-0e850c2d1049","ios":"levelo://app?vid=9291dae7-b61f-4b45-8de8-0e850c2d1049"},"vehicle_type_id":"4","last_reported":1775139359,"current_range_meters":6400,"station_id":"ce4bhih2rcd13ifvqfs0","pricing_plan_id":"cebpf4jnsgd1na2vs0mg"},{"bike_id":"93b54f12-6027-40ee-aaaf-52c4a5342eb2","system_id":"levelo_inurba_marseille","lat":43.2119,"lon":5.35072,"is_reserved":false,"is_disabled":false,"rental_uris":{"android":"levelo://app?vid=93b54f12-6027-40ee-aaaf-52c4a5342eb2","ios":"levelo://app?vid=93b54f12-6027-40ee-aaaf-52c4a5342eb2"},"vehicle_type_id":"4","last_reported":1775139359,"current_range_meters":6400,"station_id":"st_cvj6sg6p6f1abm77japg","pricing_plan_id":"cebpf4jnsgd1na2vs0mg"},{"bike_id":"023cd25a-3a5c-404f-8d54-b375a56464ca","system_id":"levelo_inurba_marseille","lat":43.27352,"lon":5.42398,"is_reserved":false,"is_disabled":false,"rental_uris":{"android":"levelo://app?vid=023cd25a-3a5c-404f-8d54-b375a56464ca","ios":"levelo://app?vid=023cd25a-3a5c-404f-8d54-b375a56464ca"},"vehicle_type_id":"4","last_reported":1775139359,"current_range_meters":6400,"station_id":"","pricing_plan_id":"cebpf4jnsgd1na2vs0mg"},{"bike_id":"7ec93daf-bae4-4c79-9a9f-c866e3f33531","system_id":"levelo_inurba_marseille","lat":43.25577,"lon":5.38241,"is_reserved":false,"is_disabled":false,"rental_uris":{"android":"levelo://app?vid=7ec93daf-bae4-4c79-9a9f-c866e3f33531","ios":"levelo://app?vid=7ec93daf-bae4-4c79-9a9f-c866e3f33531"},"vehicle_type_id":"4","last_reported":1775139359,"current_range_meters":6400,"station_id":"ce4bhih2rcd13ifvqfs0","pricing_plan_id":"cebpf4jnsgd1na2vs0mg"},{"bike_id":"d0111825-3017-4e03-aba5-c350420e66fe","system_id":"levelo_inurba_marseille","lat":43.2119,"lon":5.35062,"is_reserved":false,"is_disabled":false,"rental_uris":{"android":"levelo://app?vid=d0111825-3017-4e03-aba5-c350420e66fe","ios":"levelo://app?vid=d0111825-3017-4e03-aba5-c350420e66fe"},"vehicle_type_id":"4","last_reported":1775139359,"current_range_meters":6800,"station_id":"st_cvj6sg6p6f1abm77japg","pricing_plan_id":"cebpf4jnsgd1na2vs0mg"},{"bike_id":"1ddada69-e90e-42d5-84c6-ca6acdb9f7a2","system_id":"levelo_inurba_marseille","lat":43.30055,"lon":5.43892,"is_reserved":false,"is_disabled":false,"rental_uris":{"android":"levelo://app?vid=1ddada69-e90e-42d5-84c6-ca6acdb9f7a2","ios":"levelo://app?vid=1ddada69-e90e-42d5-84c6-ca6acdb9f7a2"},"vehicle_type_id":"4","last_reported":1775139359,"current_range_meters":6800,"station_id":"","pricing_plan_id":"cebpf4jnsgd1na2vs0mg"},{"bike_id":"9ce35c88-41e7-4083-ae1a-c79e4dc1d827","system_id":"levelo_inurba_marseille","lat":43.23152,"lon":5.43707,"is_reserved":false,"is_disabled":false,"rental_uris":{"android":"levelo://app?vid=9ce35c88-41e7-4083-ae1a-c79e4dc1d827","ios":"levelo://app?vid=9ce35c88-41e7-4083-ae1a-c79e4dc1d827"},"vehicle_type_id":"4","last_reported":1775139359,"current_range_meters":6800,"station_id":"ce4bhmp2rcd13ifvqgog","pricing_plan_id":"cebpf4jnsgd1na2vs0mg"},{"bike_id":"58d91ae1-8063-4e7d-870c-f6392dad8fd9","system_id":"levelo_inurba_marseille","lat":43.28474,"lon":5.48396,"is_reserved":false,"is_disabled":false,"rental_uris":{"android":"levelo://app?vid=58d91ae1-8063-4e7d-870c-f6392dad8fd9","ios":"levelo://app?vid=58d91ae1-8063-4e7d-870c-f6392dad8fd9"},"vehicle_type_id":"4","last_reported":1775139359,"current_range_meters":6800,"station_id":"","pricing_plan_id":"cebpf4jnsgd1na2vs0mg"},{"bike_id":"e4efbd43-fad5-4706-ace3-1d8941ceef9e","system_id":"levelo_inurba_marseille","lat":43.30423,"lon":5.4127,"is_reserved":false,"is_disabled":false,"rental_uris":{"android":"levelo://app?vid=e4efbd43-fad5-4706-ace3-1d8941ceef9e","ios":"levelo://app?vid=e4efbd43-fad5-4706-ace3-1d8941ceef9e"},"vehicle_type_id":"4","last_reported":1775139359,"current_range_meters":6800,"station_id":"ce4bhop2rcd13ifvqh8g","pricing_plan_id":"cebpf4jnsgd1na2vs0mg"},{"bike_id":"6535518c-804f-447b-a494-407b4e1dbc8e","system_id":"levelo_inurba_marseille","lat":43.31134,"lon":5.36817,"is_reserved":false,"is_disabled":false,"rental_uris":{"android":"levelo://app?vid=6535518c-804f-447b-a494-407b4e1dbc8e","ios":"levelo://app?vid=6535518c-804f-447b-a494-407b4e1dbc8e"},"vehicle_type_id":"4","last_reported":1775139359,"current_range_meters":6800,"station_id":"ce4bgl92rcd13ifvqbq0","pricing_plan_id":"cebpf4jnsgd1na2vs0mg"},{"bike_id":"227c4b90-6d3f-4c25-bd68-cedf9188c30e","system_id":"levelo_inurba_marseille","lat":43.31369,"lon":5.38486,"is_reserved":false,"is_disabled":false,"rental_uris":{"android":"levelo://app?vid=227c4b90-6d3f-4c25-bd68-cedf9188c30e","ios":"levelo://app?vid=227c4b90-6d3f-4c25-bd68-cedf9188c30e"},"vehicle_type_id":"4","last_reported":1775139359,"current_range_meters":6800,"station_id":"ce4bgt92rcd13ifvqcf0","pricing_plan_id":"cebpf4jnsgd1na2vs0mg"},{"bike_id":"f5856427-70be-4419-8be4-1f0531f43bad","system_id":"levelo_inurba_marseille","lat":43.27366,"lon":5.36254,"is_reserved":false,"is_disabled":false,"rental_uris":{"android":"levelo://app?vid=f5856427-70be-4419-8be4-1f0531f43bad","ios":"levelo://app?vid=f5856427-70be-4419-8be4-1f0531f43bad"},"vehicle_type_id":"4","last_reported":1775139359,"current_range_meters":6800,"station_id":"ce4bhbh2rcd13ifvqeo0","pricing_plan_id":"cebpf4jnsgd1na2vs0mg"},{"bike_id":"fe0a3fa3-1a01-4338-919a-e9d1fe0b671b","system_id":"levelo_inurba_marseille","lat":43.26669,"lon":5.38278,"is_reserved":false,"is_disabled":false,"rental_uris":{"android":"levelo://app?vid=fe0a3fa3-1a01-4338-919a-e9d1fe0b671b","ios":"levelo://app?vid=fe0a3fa3-1a01-4338-919a-e9d1fe0b671b"},"vehicle_type_id":"4","last_reported":1775139359,"current_range_meters":6800,"station_id":"ce4bhg92rcd13ifvqf90","pricing_plan_id":"cebpf4jnsgd1na2vs0mg"},{"bike_id":"b1cb2378-66e2-4e73-a135-28bf0dec66f1","system_id":"levelo_inurba_marseille","lat":43.31305,"lon":5.44077,"is_reserved":false,"is_disabled":false,"rental_uris":{"android":"levelo://app?vid=b1cb2378-66e2-4e73-a135-28bf0dec66f1","ios":"levelo://app?vid=b1cb2378-66e2-4e73-a135-28bf0dec66f1"},"vehicle_type_id":"4","last_reported":1775139359,"current_range_meters":6800,"station_id":"","pricing_plan_id":"cebpf4jnsgd1na2vs0mg"},{"bike_id":"b3fdb3c6-13b8-4611-957c-1ad249219f8c","system_id":"levelo_inurba_marseille","lat":43.24463,"lon":5.42532,"is_reserved":false,"is_disabled":false,"rental_uris":{"android":"levelo://app?vid=b3fdb3c6-13b8-4611-957c-1ad249219f8c","ios":"levelo://app?vid=b3fdb3c6-13b8-4611-957c-1ad249219f8c"},"vehicle_type_id":"4","last_reported":1775139359,"current_range_meters":6800,"station_id":"st_d4a3vfp97mjs738cd8kg","pricing_plan_id":"cebpf4jnsgd1na2vs0mg"},{"bike_id":"4a770e19-6a68-4542-8368-d45a5ea13fcc","system_id":"levelo_inurba_marseille","lat":43.28909,"lon":5.3638,"is_reserved":false,"is_disabled":false,"rental_uris":{"android":"levelo://app?vid=4a770e19-6a68-4542-8368-d45a5ea13fcc","ios":"levelo://app?vid=4a770e19-6a68-4542-8368-d45a5ea13fcc"},"vehicle_type_id":"4","last_reported":1775139359,"current_range_meters":6800,"station_id":"ce4bhc92rcd13ifvqetg","pricing_plan_id":"cebpf4jnsgd1na2vs0mg"},{"bike_id":"01aecd18-45d4-4eef-b486-94b6abd0cca9","system_id":"levelo_inurba_marseille","lat":43.25581,"lon":5.38232,"is_reserved":false,"is_disabled":false,"rental_uris":{"android":"levelo://app?vid=01aecd18-45d4-4eef-b486-94b6abd0cca9","ios":"levelo://app?vid=01aecd18-45d4-4eef-b486-94b6abd0cca9"},"vehicle_type_id":"4","last_reported":1775139359,"current_range_meters":6800,"station_id":"ce4bhih2rcd13ifvqfs0","pricing_plan_id":"cebpf4jnsgd1na2vs0mg"},{"bike_id":"59af559a-c64a-4a65-8006-da8e36a6f86b","system_id":"levelo_inurba_marseille","lat":43.33536,"lon":5.3746,"is_reserved":false,"is_disabled":false,"rental_uris":{"android":"levelo://app?vid=59af559a-c64a-4a65-8006-da8e36a6f86b","ios":"levelo://app?vid=59af559a-c64a-4a65-8006-da8e36a6f86b"},"vehicle_type_id":"4","last_reported":1775139359,"current_range_meters":6800,"station_id":"st_d46tts09ee8s73dlu43g","pricing_plan_id":"cebpf4jnsgd1na2vs0mg"},{"bike_id":"bb435da3-856a-4144-9704-d052e66aeded","system_id":"levelo_inurba_marseille","lat":43.33161,"lon":5.37705,"is_reserved":false,"is_disabled":false,"rental_uris":{"android":"levelo://app?vid=bb435da3-856a-4144-9704-d052e66aeded","ios":"levelo://app?vid=bb435da3-856a-4144-9704-d052e66aeded"},"vehicle_type_id":"4","last_reported":1775139359,"current_range_meters":6800,"station_id":"st_d46cu089ee8s73dldbu0","pricing_plan_id":"cebpf4jnsgd1na2vs0mg"},{"bike_id":"ab06f0c1-dd3c-4093-aae2-11693a90ca5c","system_id":"levelo_inurba_marseille","lat":43.23977,"lon":5.36612,"is_reserved":false,"is_disabled":false,"rental_uris":{"android":"levelo://app?vid=ab06f0c1-dd3c-4093-aae2-11693a90ca5c","ios":"levelo://app?vid=ab06f0c1-dd3c-4093-aae2-11693a90ca5c"},"vehicle_type_id":"4","last_reported":1775139359,"current_range_meters":6800,"station_id":"ce4bhi12rcd13ifvqfp0","pricing_plan_id":"cebpf4jnsgd1na2vs0mg"},{"bike_id":"5017ed3e-5ae8-4a2b-bc3b-d1157886d715","system_id":"levelo_inurba_marseille","lat":43.26557,"lon":5.37262,"is_reserved":false,"is_disabled":false,"rental_uris":{"android":"levelo://app?vid=5017ed3e-5ae8-4a2b-bc3b-d1157886d715","ios":"levelo://app?vid=5017ed3e-5ae8-4a2b-bc3b-d1157886d715"},"vehicle_type_id":"4","last_reported":1775139359,"current_range_meters":6800,"station_id":"ce4bhg12rcd13ifvqf70","pricing_plan_id":"cebpf4jnsgd1na2vs0mg"},{"bike_id":"542d2dae-7cb3-41cb-b03c-cc1fe9db4665","system_id":"levelo_inurba_marseille","lat":43.27995,"lon":5.38745,"is_reserved":false,"is_disabled":false,"rental_uris":{"android":"levelo://app?vid=542d2dae-7cb3-41cb-b03c-cc1fe9db4665","ios":"levelo://app?vid=542d2dae-7cb3-41cb-b03c-cc1fe9db4665"},"vehicle_type_id":"4","last_reported":1775139359,"current_range_meters":6800,"station_id":"ce4bhg12rcd13ifvqf80","pricing_plan_id":"cebpf4jnsgd1na2vs0mg"},{"bike_id":"d6349826-5510-4834-ae61-5f416883040f","system_id":"levelo_inurba_marseille","lat":43.2175,"lon":5.34598,"is_reserved":false,"is_disabled":false,"rental_uris":{"android":"levelo://app?vid=d6349826-5510-4834-ae61-5f416883040f","ios":"levelo://app?vid=d6349826-5510-4834-ae61-5f416883040f"},"vehicle_type_id":"4","last_reported":1775139359,"current_range_meters":6800,"station_id":"st_cvj6r9ubvosntc0bgbag","pricing_plan_id":"cebpf4jnsgd1na2vs0mg"},{"bike_id":"793b472f-3246-4295-8dc2-cf0dac98a9ac","system_id":"levelo_inurba_marseille","lat":43.29541,"lon":5.39057,"is_reserved":false,"is_disabled":false,"rental_uris":{"android":"levelo://app?vid=793b472f-3246-4295-8dc2-cf0dac98a9ac","ios":"levelo://app?vid=793b472f-3246-4295-8dc2-cf0dac98a9ac"},"vehicle_type_id":"4","last_reported":1775139359,"current_range_meters":7200,"station_id":"ce4bh3p2rcd13ifvqdp0","pricing_plan_id":"cebpf4jnsgd1na2vs0mg"},{"bike_id":"38229089-2eba-460d-8fa7-69cd48d52f91","system_id":"levelo_inurba_marseille","lat":43.28867,"lon":5.42529,"is_reserved":false,"is_disabled":false,"rental_uris":{"android":"levelo://app?vid=38229089-2eba-460d-8fa7-69cd48d52f91","ios":"levelo://app?vid=38229089-2eba-460d-8fa7-69cd48d52f91"},"vehicle_type_id":"4","last_reported":1775139359,"current_range_meters":7200,"station_id":"st_d3b462108ojc7389ooeg","pricing_plan_id":"cebpf4jnsgd1na2vs0mg"},{"bike_id":"e2d4538e-989f-404e-b5fb-58cfe29ddc03","system_id":"levelo_inurba_marseille","lat":43.24451,"lon":5.42534,"is_reserved":false,"is_disabled":false,"rental_uris":{"android":"levelo://app?vid=e2d4538e-989f-404e-b5fb-58cfe29ddc03","ios":"levelo://app?vid=e2d4538e-989f-404e-b5fb-58cfe29ddc03"},"vehicle_type_id":"4","last_reported":1775139359,"current_range_meters":7200,"station_id":"st_d4a3vfp97mjs738cd8kg","pricing_plan_id":"cebpf4jnsgd1na2vs0mg"},{"bike_id":"993554b6-0de0-483c-81a8-74355d0900be","system_id":"levelo_inurba_marseille","lat":43.29602,"lon":5.3809,"is_reserved":false,"is_disabled":false,"rental_uris":{"android":"levelo://app?vid=993554b6-0de0-483c-81a8-74355d0900be","ios":"levelo://app?vid=993554b6-0de0-483c-81a8-74355d0900be"},"vehicle_type_id":"4","last_reported":1775139359,"current_range_meters":7200,"station_id":"ce4bgl12rcd13ifvqbo0","pricing_plan_id":"cebpf4jnsgd1na2vs0mg"},{"bike_id":"443ec70c-2f5b-431d-8ec5-5fd2af1a6ada","system_id":"levelo_inurba_marseille","lat":43.30538,"lon":5.36686,"is_reserved":false,"is_disabled":false,"rental_uris":{"android":"levelo://app?vid=443ec70c-2f5b-431d-8ec5-5fd2af1a6ada","ios":"levelo://app?vid=443ec70c-2f5b-431d-8ec5-5fd2af1a6ada"},"vehicle_type_id":"4","last_reported":1775139359,"current_range_meters":7200,"station_id":"ce4bgrp2rcd13ifvqc9g","pricing_plan_id":"cebpf4jnsgd1na2vs0mg"},{"bike_id":"ec0ea3f5-b876-40c0-9685-6a21a332cf42","system_id":"levelo_inurba_marseille","lat":43.29167,"lon":5.37155,"is_reserved":false,"is_disabled":false,"rental_uris":{"android":"levelo://app?vid=ec0ea3f5-b876-40c0-9685-6a21a332cf42","ios":"levelo://app?vid=ec0ea3f5-b876-40c0-9685-6a21a332cf42"},"vehicle_type_id":"4","last_reported":1775139359,"current_range_meters":7200,"station_id":"ce4bha92rcd13ifvqeh0","pricing_plan_id":"cebpf4jnsgd1na2vs0mg"},{"bike_id":"17e1349c-2875-4c80-8b7f-edefe8fdfd05","system_id":"levelo_inurba_marseille","lat":43.23187,"lon":5.4369,"is_reserved":false,"is_disabled":false,"rental_uris":{"android":"levelo://app?vid=17e1349c-2875-4c80-8b7f-edefe8fdfd05","ios":"levelo://app?vid=17e1349c-2875-4c80-8b7f-edefe8fdfd05"},"vehicle_type_id":"4","last_reported":1775139359,"current_range_meters":7200,"station_id":"ce4bhmp2rcd13ifvqgog","pricing_plan_id":"cebpf4jnsgd1na2vs0mg"},{"bike_id":"9b76a430-1715-4bdf-ba95-ccb004ee3579","system_id":"levelo_inurba_marseille","lat":43.27322,"lon":5.39104,"is_reserved":false,"is_disabled":false,"rental_uris":{"android":"levelo://app?vid=9b76a430-1715-4bdf-ba95-ccb004ee3579","ios":"levelo://app?vid=9b76a430-1715-4bdf-ba95-ccb004ee3579"},"vehicle_type_id":"4","last_reported":1775139359,"current_range_meters":7200,"station_id":"ce4bhgp2rcd13ifvqfe0","pricing_plan_id":"cebpf4jnsgd1na2vs0mg"},{"bike_id":"ace76a94-ea86-4544-a0ad-b6082b39722f","system_id":"levelo_inurba_marseille","lat":43.25919,"lon":5.40901,"is_reserved":false,"is_disabled":false,"rental_uris":{"android":"levelo://app?vid=ace76a94-ea86-4544-a0ad-b6082b39722f","ios":"levelo://app?vid=ace76a94-ea86-4544-a0ad-b6082b39722f"},"vehicle_type_id":"4","last_reported":1775139359,"current_range_meters":7200,"station_id":"ce4bhm92rcd13ifvqglg","pricing_plan_id":"cebpf4jnsgd1na2vs0mg"},{"bike_id":"fc6395ad-d62f-4a87-ac5d-6a2edf2e75a8","system_id":"levelo_inurba_marseille","lat":43.31202,"lon":5.36865,"is_reserved":false,"is_disabled":false,"rental_uris":{"android":"levelo://app?vid=fc6395ad-d62f-4a87-ac5d-6a2edf2e75a8","ios":"levelo://app?vid=fc6395ad-d62f-4a87-ac5d-6a2edf2e75a8"},"vehicle_type_id":"4","last_reported":1775139359,"current_range_meters":7200,"station_id":"ce4bgl92rcd13ifvqbq0","pricing_plan_id":"cebpf4jnsgd1na2vs0mg"},{"bike_id":"91f6c6e4-3173-430a-922a-ed24dba3f564","system_id":"levelo_inurba_marseille","lat":43.31384,"lon":5.36756,"is_reserved":false,"is_disabled":false,"rental_uris":{"android":"levelo://app?vid=91f6c6e4-3173-430a-922a-ed24dba3f564","ios":"levelo://app?vid=91f6c6e4-3173-430a-922a-ed24dba3f564"},"vehicle_type_id":"4","last_reported":1775139359,"current_range_meters":7200,"station_id":"ce4bgr92rcd13ifvqc6g","pricing_plan_id":"cebpf4jnsgd1na2vs0mg"},{"bike_id":"a3e023e2-d4d4-4709-b2ae-04a06b5ecc63","system_id":"levelo_inurba_marseille","lat":43.22557,"lon":5.41632,"is_reserved":false,"is_disabled":false,"rental_uris":{"android":"levelo://app?vid=a3e023e2-d4d4-4709-b2ae-04a06b5ecc63","ios":"levelo://app?vid=a3e023e2-d4d4-4709-b2ae-04a06b5ecc63"},"vehicle_type_id":"4","last_reported":1775139359,"current_range_meters":7200,"station_id":"st_d2o4gvlbi1j2169b742g","pricing_plan_id":"cebpf4jnsgd1na2vs0mg"},{"bike_id":"9917d801-fb7e-4725-b871-ab9dc4af15bb","system_id":"levelo_inurba_marseille","lat":43.27082,"lon":5.42272,"is_reserved":false,"is_disabled":false,"rental_uris":{"android":"levelo://app?vid=9917d801-fb7e-4725-b871-ab9dc4af15bb","ios":"levelo://app?vid=9917d801-fb7e-4725-b871-ab9dc4af15bb"},"vehicle_type_id":"4","last_reported":1775139359,"current_range_meters":7200,"station_id":"ce4bhk92rcd13ifvqgb0","pricing_plan_id":"cebpf4jnsgd1na2vs0mg"},{"bike_id":"13713002-484d-442d-8d88-c09ee25b68e4","system_id":"levelo_inurba_marseille","lat":43.27792,"lon":5.42354,"is_reserved":false,"is_disabled":false,"rental_uris":{"android":"levelo://app?vid=13713002-484d-442d-8d88-c09ee25b68e4","ios":"levelo://app?vid=13713002-484d-442d-8d88-c09ee25b68e4"},"vehicle_type_id":"4","last_reported":1775139359,"current_range_meters":7200,"station_id":"","pricing_plan_id":"cebpf4jnsgd1na2vs0mg"},{"bike_id":"ba33614c-a307-4e62-b0d9-643b797f7d62","system_id":"levelo_inurba_marseille","lat":43.30229,"lon":5.38531,"is_reserved":false,"is_disabled":false,"rental_uris":{"android":"levelo://app?vid=ba33614c-a307-4e62-b0d9-643b797f7d62","ios":"levelo://app?vid=ba33614c-a307-4e62-b0d9-643b797f7d62"},"vehicle_type_id":"4","last_reported":1775139359,"current_range_meters":7200,"station_id":"","pricing_plan_id":"cebpf4jnsgd1na2vs0mg"},{"bike_id":"63e9c27e-df35-4221-a72b-372775ab28af","system_id":"levelo_inurba_marseille","lat":43.24649,"lon":5.38889,"is_reserved":false,"is_disabled":false,"rental_uris":{"android":"levelo://app?vid=63e9c27e-df35-4221-a72b-372775ab28af","ios":"levelo://app?vid=63e9c27e-df35-4221-a72b-372775ab28af"},"vehicle_type_id":"4","last_reported":1775139359,"current_range_meters":7200,"station_id":"ce4bhg12rcd13ifvqf60","pricing_plan_id":"cebpf4jnsgd1na2vs0mg"},{"bike_id":"b17c4f99-f264-4929-869c-2e7e7176ce13","system_id":"levelo_inurba_marseille","lat":43.28664,"lon":5.38667,"is_reserved":false,"is_disabled":true,"rental_uris":{"android":"levelo://app?vid=b17c4f99-f264-4929-869c-2e7e7176ce13","ios":"levelo://app?vid=b17c4f99-f264-4929-869c-2e7e7176ce13"},"vehicle_type_id":"4","last_reported":1775139359,"current_range_meters":7200,"station_id":"ce4bh492rcd13ifvqdug","pricing_plan_id":"cebpf4jnsgd1na2vs0mg"},{"bike_id":"cd782c4b-dfe7-4611-8644-4089b1d5db5c","system_id":"levelo_inurba_marseille","lat":43.29666,"lon":5.37185,"is_reserved":false,"is_disabled":false,"rental_uris":{"android":"levelo://app?vid=cd782c4b-dfe7-4611-8644-4089b1d5db5c","ios":"levelo://app?vid=cd782c4b-dfe7-4611-8644-4089b1d5db5c"},"vehicle_type_id":"4","last_reported":1775139359,"current_range_meters":7200,"station_id":"","pricing_plan_id":"cebpf4jnsgd1na2vs0mg"},{"bike_id":"cd094d68-c486-495d-8791-d913bc1c9fae","system_id":"levelo_inurba_marseille","lat":43.29409,"lon":5.37839,"is_reserved":false,"is_disabled":false,"rental_uris":{"android":"levelo://app?vid=cd094d68-c486-495d-8791-d913bc1c9fae","ios":"levelo://app?vid=cd094d68-c486-495d-8791-d913bc1c9fae"},"vehicle_type_id":"4","last_reported":1775139359,"current_range_meters":7200,"station_id":"ce4bgjh2rcd13ifvqbf0","pricing_plan_id":"cebpf4jnsgd1na2vs0mg"},{"bike_id":"53f1d28b-559d-4aa7-a3f8-4e3935f7c03a","system_id":"levelo_inurba_marseille","lat":43.3063,"lon":5.42935,"is_reserved":false,"is_disabled":false,"rental_uris":{"android":"levelo://app?vid=53f1d28b-559d-4aa7-a3f8-4e3935f7c03a","ios":"levelo://app?vid=53f1d28b-559d-4aa7-a3f8-4e3935f7c03a"},"vehicle_type_id":"4","last_reported":1775139359,"current_range_meters":7200,"station_id":"","pricing_plan_id":"cebpf4jnsgd1na2vs0mg"},{"bike_id":"094d9b13-1962-4687-a19b-a28fbe36c836","system_id":"levelo_inurba_marseille","lat":43.30298,"lon":5.36855,"is_reserved":false,"is_disabled":false,"rental_uris":{"android":"levelo://app?vid=094d9b13-1962-4687-a19b-a28fbe36c836","ios":"levelo://app?vid=094d9b13-1962-4687-a19b-a28fbe36c836"},"vehicle_type_id":"4","last_reported":1775139359,"current_range_meters":8000,"station_id":"ce4bgqh2rcd13ifvqc5g","pricing_plan_id":"cebpf4jnsgd1na2vs0mg"},{"bike_id":"905289e5-7113-4e8f-9100-1778260d107a","system_id":"levelo_inurba_marseille","lat":43.24403,"lon":5.37047,"is_reserved":false,"is_disabled":false,"rental_uris":{"android":"levelo://app?vid=905289e5-7113-4e8f-9100-1778260d107a","ios":"levelo://app?vid=905289e5-7113-4e8f-9100-1778260d107a"},"vehicle_type_id":"4","last_reported":1775139359,"current_range_meters":8000,"station_id":"ce4bhhh2rcd13ifvqfk0","pricing_plan_id":"cebpf4jnsgd1na2vs0mg"},{"bike_id":"a26e0612-5996-4080-8567-451a7c6785da","system_id":"levelo_inurba_marseille","lat":43.28479,"lon":5.4839,"is_reserved":false,"is_disabled":false,"rental_uris":{"android":"levelo://app?vid=a26e0612-5996-4080-8567-451a7c6785da","ios":"levelo://app?vid=a26e0612-5996-4080-8567-451a7c6785da"},"vehicle_type_id":"4","last_reported":1775139359,"current_range_meters":8000,"station_id":"","pricing_plan_id":"cebpf4jnsgd1na2vs0mg"},{"bike_id":"098e8815-3e64-4909-8df2-77e838f74cbe","system_id":"levelo_inurba_marseille","lat":43.25104,"lon":5.40321,"is_reserved":false,"is_disabled":false,"rental_uris":{"android":"levelo://app?vid=098e8815-3e64-4909-8df2-77e838f74cbe","ios":"levelo://app?vid=098e8815-3e64-4909-8df2-77e838f74cbe"},"vehicle_type_id":"4","last_reported":1775139359,"current_range_meters":8000,"station_id":"ce4bhlh2rcd13ifvqgig","pricing_plan_id":"cebpf4jnsgd1na2vs0mg"},{"bike_id":"9acc761d-a57f-4588-b645-fe60fa4320c4","system_id":"levelo_inurba_marseille","lat":43.29756,"lon":5.37103,"is_reserved":false,"is_disabled":false,"rental_uris":{"android":"levelo://app?vid=9acc761d-a57f-4588-b645-fe60fa4320c4","ios":"levelo://app?vid=9acc761d-a57f-4588-b645-fe60fa4320c4"},"vehicle_type_id":"4","last_reported":1775139359,"current_range_meters":8000,"station_id":"ce4bgop2rcd13ifvqc1g","pricing_plan_id":"cebpf4jnsgd1na2vs0mg"},{"bike_id":"baaa819f-f621-4bbc-b8f6-009cbb2eb24c","system_id":"levelo_inurba_marseille","lat":43.23214,"lon":5.35552,"is_reserved":false,"is_disabled":false,"rental_uris":{"android":"levelo://app?vid=baaa819f-f621-4bbc-b8f6-009cbb2eb24c","ios":"levelo://app?vid=baaa819f-f621-4bbc-b8f6-009cbb2eb24c"},"vehicle_type_id":"4","last_reported":1775139359,"current_range_meters":8000,"station_id":"ce4bhu92rcd13ifvqi70","pricing_plan_id":"cebpf4jnsgd1na2vs0mg"},{"bike_id":"4662ce83-961a-43fe-b5d2-6ce767222e0c","system_id":"levelo_inurba_marseille","lat":43.28613,"lon":5.35097,"is_reserved":false,"is_disabled":false,"rental_uris":{"android":"levelo://app?vid=4662ce83-961a-43fe-b5d2-6ce767222e0c","ios":"levelo://app?vid=4662ce83-961a-43fe-b5d2-6ce767222e0c"},"vehicle_type_id":"4","last_reported":1775139359,"current_range_meters":8000,"station_id":"ce4bhch2rcd13ifvqeug","pricing_plan_id":"cebpf4jnsgd1na2vs0mg"},{"bike_id":"ebf8d41b-af9e-48cd-b4ac-c559138fc501","system_id":"levelo_inurba_marseille","lat":43.24167,"lon":5.364,"is_reserved":false,"is_disabled":false,"rental_uris":{"android":"levelo://app?vid=ebf8d41b-af9e-48cd-b4ac-c559138fc501","ios":"levelo://app?vid=ebf8d41b-af9e-48cd-b4ac-c559138fc501"},"vehicle_type_id":"4","last_reported":1775139359,"current_range_meters":8000,"station_id":"cpo36qri1sfpv3e86is0","pricing_plan_id":"cebpf4jnsgd1na2vs0mg"},{"bike_id":"7454e20f-aeeb-429e-8370-29d207e4b480","system_id":"levelo_inurba_marseille","lat":43.25487,"lon":5.37649,"is_reserved":false,"is_disabled":false,"rental_uris":{"android":"levelo://app?vid=7454e20f-aeeb-429e-8370-29d207e4b480","ios":"levelo://app?vid=7454e20f-aeeb-429e-8370-29d207e4b480"},"vehicle_type_id":"4","last_reported":1775139359,"current_range_meters":8000,"station_id":"ce4bhh12rcd13ifvqff0","pricing_plan_id":"cebpf4jnsgd1na2vs0mg"},{"bike_id":"7b93e255-4d4f-467e-8eb6-0b90f4c65fe9","system_id":"levelo_inurba_marseille","lat":43.30542,"lon":5.36683,"is_reserved":false,"is_disabled":false,"rental_uris":{"android":"levelo://app?vid=7b93e255-4d4f-467e-8eb6-0b90f4c65fe9","ios":"levelo://app?vid=7b93e255-4d4f-467e-8eb6-0b90f4c65fe9"},"vehicle_type_id":"4","last_reported":1775139359,"current_range_meters":8000,"station_id":"ce4bgrp2rcd13ifvqc9g","pricing_plan_id":"cebpf4jnsgd1na2vs0mg"},{"bike_id":"1940d166-2394-445f-8437-598fdaf6d659","system_id":"levelo_inurba_marseille","lat":43.2846,"lon":5.35899,"is_reserved":false,"is_disabled":false,"rental_uris":{"android":"levelo://app?vid=1940d166-2394-445f-8437-598fdaf6d659","ios":"levelo://app?vid=1940d166-2394-445f-8437-598fdaf6d659"},"vehicle_type_id":"4","last_reported":1775139359,"current_range_meters":8000,"station_id":"ce4bhah2rcd13ifvqei0","pricing_plan_id":"cebpf4jnsgd1na2vs0mg"},{"bike_id":"229f0e67-0671-4c17-8f2a-9394f3ccb1c5","system_id":"levelo_inurba_marseille","lat":43.24381,"lon":5.37048,"is_reserved":false,"is_disabled":false,"rental_uris":{"android":"levelo://app?vid=229f0e67-0671-4c17-8f2a-9394f3ccb1c5","ios":"levelo://app?vid=229f0e67-0671-4c17-8f2a-9394f3ccb1c5"},"vehicle_type_id":"4","last_reported":1775139359,"current_range_meters":8000,"station_id":"ce4bhhh2rcd13ifvqfk0","pricing_plan_id":"cebpf4jnsgd1na2vs0mg"},{"bike_id":"639bf485-2132-4186-aa12-f2e5d0396a31","system_id":"levelo_inurba_marseille","lat":43.28694,"lon":5.46677,"is_reserved":false,"is_disabled":false,"rental_uris":{"android":"levelo://app?vid=639bf485-2132-4186-aa12-f2e5d0396a31","ios":"levelo://app?vid=639bf485-2132-4186-aa12-f2e5d0396a31"},"vehicle_type_id":"4","last_reported":1775139359,"current_range_meters":8000,"station_id":"st_d6tc3vkotcvc738tfjhg","pricing_plan_id":"cebpf4jnsgd1na2vs0mg"},{"bike_id":"2821d6b0-26b2-47c1-a75a-c38c967d84c8","system_id":"levelo_inurba_marseille","lat":43.2798,"lon":5.41655,"is_reserved":false,"is_disabled":false,"rental_uris":{"android":"levelo://app?vid=2821d6b0-26b2-47c1-a75a-c38c967d84c8","ios":"levelo://app?vid=2821d6b0-26b2-47c1-a75a-c38c967d84c8"},"vehicle_type_id":"4","last_reported":1775139359,"current_range_meters":8000,"station_id":"ce4bho12rcd13ifvqh1g","pricing_plan_id":"cebpf4jnsgd1na2vs0mg"},{"bike_id":"70bd5822-47e3-45de-9242-8d30a995fd35","system_id":"levelo_inurba_marseille","lat":43.21734,"lon":5.34607,"is_reserved":false,"is_disabled":false,"rental_uris":{"android":"levelo://app?vid=70bd5822-47e3-45de-9242-8d30a995fd35","ios":"levelo://app?vid=70bd5822-47e3-45de-9242-8d30a995fd35"},"vehicle_type_id":"4","last_reported":1775139359,"current_range_meters":8000,"station_id":"st_cvj6r9ubvosntc0bgbag","pricing_plan_id":"cebpf4jnsgd1na2vs0mg"},{"bike_id":"25ecbe01-97bc-41bb-85d2-9dcd83631a19","system_id":"levelo_inurba_marseille","lat":43.24167,"lon":5.36397,"is_reserved":false,"is_disabled":false,"rental_uris":{"android":"levelo://app?vid=25ecbe01-97bc-41bb-85d2-9dcd83631a19","ios":"levelo://app?vid=25ecbe01-97bc-41bb-85d2-9dcd83631a19"},"vehicle_type_id":"4","last_reported":1775139359,"current_range_meters":8000,"station_id":"cpo36qri1sfpv3e86is0","pricing_plan_id":"cebpf4jnsgd1na2vs0mg"},{"bike_id":"ff259b83-c24b-48cf-bb19-caebf228d015","system_id":"levelo_inurba_marseille","lat":43.24392,"lon":5.37068,"is_reserved":false,"is_disabled":false,"rental_uris":{"android":"levelo://app?vid=ff259b83-c24b-48cf-bb19-caebf228d015","ios":"levelo://app?vid=ff259b83-c24b-48cf-bb19-caebf228d015"},"vehicle_type_id":"4","last_reported":1775139359,"current_range_meters":8000,"station_id":"ce4bhhh2rcd13ifvqfk0","pricing_plan_id":"cebpf4jnsgd1na2vs0mg"},{"bike_id":"f62ff8d5-3d47-4bb4-906e-344e9b5207aa","system_id":"levelo_inurba_marseille","lat":43.21191,"lon":5.35068,"is_reserved":false,"is_disabled":false,"rental_uris":{"android":"levelo://app?vid=f62ff8d5-3d47-4bb4-906e-344e9b5207aa","ios":"levelo://app?vid=f62ff8d5-3d47-4bb4-906e-344e9b5207aa"},"vehicle_type_id":"4","last_reported":1775139359,"current_range_meters":8000,"station_id":"","pricing_plan_id":"cebpf4jnsgd1na2vs0mg"},{"bike_id":"e3ccc183-2d52-483d-b306-8ec417ed00fd","system_id":"levelo_inurba_marseille","lat":43.31029,"lon":5.37166,"is_reserved":false,"is_disabled":false,"rental_uris":{"android":"levelo://app?vid=e3ccc183-2d52-483d-b306-8ec417ed00fd","ios":"levelo://app?vid=e3ccc183-2d52-483d-b306-8ec417ed00fd"},"vehicle_type_id":"4","last_reported":1775139359,"current_range_meters":8000,"station_id":"st_d4kl2rp97mjs73e7tdfg","pricing_plan_id":"cebpf4jnsgd1na2vs0mg"},{"bike_id":"1b64360e-9898-4b81-a7f9-be218b181f53","system_id":"levelo_inurba_marseille","lat":43.30135,"lon":5.39861,"is_reserved":false,"is_disabled":false,"rental_uris":{"android":"levelo://app?vid=1b64360e-9898-4b81-a7f9-be218b181f53","ios":"levelo://app?vid=1b64360e-9898-4b81-a7f9-be218b181f53"},"vehicle_type_id":"4","last_reported":1775139359,"current_range_meters":8000,"station_id":"ce4bh0h2rcd13ifvqd40","pricing_plan_id":"cebpf4jnsgd1na2vs0mg"},{"bike_id":"b9deea86-0f72-4142-84f7-995fe6fb893d","system_id":"levelo_inurba_marseille","lat":43.25086,"lon":5.39521,"is_reserved":false,"is_disabled":false,"rental_uris":{"android":"levelo://app?vid=b9deea86-0f72-4142-84f7-995fe6fb893d","ios":"levelo://app?vid=b9deea86-0f72-4142-84f7-995fe6fb893d"},"vehicle_type_id":"4","last_reported":1775139359,"current_range_meters":8000,"station_id":"ce4bhm12rcd13ifvqgkg","pricing_plan_id":"cebpf4jnsgd1na2vs0mg"},{"bike_id":"4b626325-cc12-4c30-b32c-a9eae71ae167","system_id":"levelo_inurba_marseille","lat":43.29248,"lon":5.42681,"is_reserved":false,"is_disabled":false,"rental_uris":{"android":"levelo://app?vid=4b626325-cc12-4c30-b32c-a9eae71ae167","ios":"levelo://app?vid=4b626325-cc12-4c30-b32c-a9eae71ae167"},"vehicle_type_id":"4","last_reported":1775139359,"current_range_meters":8000,"station_id":"","pricing_plan_id":"cebpf4jnsgd1na2vs0mg"},{"bike_id":"b5b7b5b4-c639-4ac9-9d3f-a00a19d1fa51","system_id":"levelo_inurba_marseille","lat":43.26547,"lon":5.3729,"is_reserved":false,"is_disabled":false,"rental_uris":{"android":"levelo://app?vid=b5b7b5b4-c639-4ac9-9d3f-a00a19d1fa51","ios":"levelo://app?vid=b5b7b5b4-c639-4ac9-9d3f-a00a19d1fa51"},"vehicle_type_id":"4","last_reported":1775139359,"current_range_meters":8000,"station_id":"ce4bhg12rcd13ifvqf70","pricing_plan_id":"cebpf4jnsgd1na2vs0mg"},{"bike_id":"63afbea1-9a2c-4718-b112-74e3e5f62cb0","system_id":"levelo_inurba_marseille","lat":43.29007,"lon":5.35613,"is_reserved":false,"is_disabled":false,"rental_uris":{"android":"levelo://app?vid=63afbea1-9a2c-4718-b112-74e3e5f62cb0","ios":"levelo://app?vid=63afbea1-9a2c-4718-b112-74e3e5f62cb0"},"vehicle_type_id":"4","last_reported":1775139359,"current_range_meters":8000,"station_id":"ce4bhb92rcd13ifvqen0","pricing_plan_id":"cebpf4jnsgd1na2vs0mg"},{"bike_id":"7a5a210d-61fc-4d03-a557-eb846b17279b","system_id":"levelo_inurba_marseille","lat":43.28605,"lon":5.44605,"is_reserved":false,"is_disabled":false,"rental_uris":{"android":"levelo://app?vid=7a5a210d-61fc-4d03-a557-eb846b17279b","ios":"levelo://app?vid=7a5a210d-61fc-4d03-a557-eb846b17279b"},"vehicle_type_id":"4","last_reported":1775139359,"current_range_meters":8000,"station_id":"","pricing_plan_id":"cebpf4jnsgd1na2vs0mg"},{"bike_id":"c0244268-1300-41a7-9a33-8160575e0bc7","system_id":"levelo_inurba_marseille","lat":43.23194,"lon":5.35546,"is_reserved":false,"is_disabled":false,"rental_uris":{"android":"levelo://app?vid=c0244268-1300-41a7-9a33-8160575e0bc7","ios":"levelo://app?vid=c0244268-1300-41a7-9a33-8160575e0bc7"},"vehicle_type_id":"4","last_reported":1775139359,"current_range_meters":8000,"station_id":"ce4bhu92rcd13ifvqi70","pricing_plan_id":"cebpf4jnsgd1na2vs0mg"},{"bike_id":"ec8b19fe-643e-4f00-8b29-5c9b3d9fb7d0","system_id":"levelo_inurba_marseille","lat":43.27234,"lon":5.39204,"is_reserved":false,"is_disabled":false,"rental_uris":{"android":"levelo://app?vid=ec8b19fe-643e-4f00-8b29-5c9b3d9fb7d0","ios":"levelo://app?vid=ec8b19fe-643e-4f00-8b29-5c9b3d9fb7d0"},"vehicle_type_id":"4","last_reported":1775139359,"current_range_meters":8000,"station_id":"ce4bhhp2rcd13ifvqfm0","pricing_plan_id":"cebpf4jnsgd1na2vs0mg"},{"bike_id":"ec73d10f-d000-4d7d-ab9a-4a1d96a7ccc2","system_id":"levelo_inurba_marseille","lat":43.31252,"lon":5.36864,"is_reserved":false,"is_disabled":false,"rental_uris":{"android":"levelo://app?vid=ec73d10f-d000-4d7d-ab9a-4a1d96a7ccc2","ios":"levelo://app?vid=ec73d10f-d000-4d7d-ab9a-4a1d96a7ccc2"},"vehicle_type_id":"4","last_reported":1775139359,"current_range_meters":8000,"station_id":"ce4bgl92rcd13ifvqbq0","pricing_plan_id":"cebpf4jnsgd1na2vs0mg"},{"bike_id":"87e346fe-57ff-40e1-bc30-332765acdf33","system_id":"levelo_inurba_marseille","lat":43.22961,"lon":5.35391,"is_reserved":false,"is_disabled":false,"rental_uris":{"android":"levelo://app?vid=87e346fe-57ff-40e1-bc30-332765acdf33","ios":"levelo://app?vid=87e346fe-57ff-40e1-bc30-332765acdf33"},"vehicle_type_id":"4","last_reported":1775139359,"current_range_meters":8400,"station_id":"cpo3532slgdg3j2ikp40","pricing_plan_id":"cebpf4jnsgd1na2vs0mg"},{"bike_id":"f9889cfc-1d44-4a74-b59e-2e0cc04a8762","system_id":"levelo_inurba_marseille","lat":43.21239,"lon":5.35064,"is_reserved":false,"is_disabled":false,"rental_uris":{"android":"levelo://app?vid=f9889cfc-1d44-4a74-b59e-2e0cc04a8762","ios":"levelo://app?vid=f9889cfc-1d44-4a74-b59e-2e0cc04a8762"},"vehicle_type_id":"4","last_reported":1775139359,"current_range_meters":8400,"station_id":"","pricing_plan_id":"cebpf4jnsgd1na2vs0mg"},{"bike_id":"ed2bc61f-72aa-4fa8-b592-aa4e71f2e4da","system_id":"levelo_inurba_marseille","lat":43.22539,"lon":5.34822,"is_reserved":false,"is_disabled":false,"rental_uris":{"android":"levelo://app?vid=ed2bc61f-72aa-4fa8-b592-aa4e71f2e4da","ios":"levelo://app?vid=ed2bc61f-72aa-4fa8-b592-aa4e71f2e4da"},"vehicle_type_id":"4","last_reported":1775139359,"current_range_meters":8400,"station_id":"st_cvj5dfep6f1abm77gieg","pricing_plan_id":"cebpf4jnsgd1na2vs0mg"},{"bike_id":"7d31d8a2-7959-4f70-9cf2-b08e0c08fe38","system_id":"levelo_inurba_marseille","lat":43.24463,"lon":5.42532,"is_reserved":false,"is_disabled":false,"rental_uris":{"android":"levelo://app?vid=7d31d8a2-7959-4f70-9cf2-b08e0c08fe38","ios":"levelo://app?vid=7d31d8a2-7959-4f70-9cf2-b08e0c08fe38"},"vehicle_type_id":"4","last_reported":1775139359,"current_range_meters":8400,"station_id":"st_d4a3vfp97mjs738cd8kg","pricing_plan_id":"cebpf4jnsgd1na2vs0mg"},{"bike_id":"b99da45f-b890-4b92-ad87-4c26ace5150b","system_id":"levelo_inurba_marseille","lat":43.26691,"lon":5.38264,"is_reserved":false,"is_disabled":false,"rental_uris":{"android":"levelo://app?vid=b99da45f-b890-4b92-ad87-4c26ace5150b","ios":"levelo://app?vid=b99da45f-b890-4b92-ad87-4c26ace5150b"},"vehicle_type_id":"4","last_reported":1775139359,"current_range_meters":8400,"station_id":"ce4bhg92rcd13ifvqf90","pricing_plan_id":"cebpf4jnsgd1na2vs0mg"},{"bike_id":"8ad91a42-b4c8-4044-99d3-7cbe628645b3","system_id":"levelo_inurba_marseille","lat":43.22565,"lon":5.41622,"is_reserved":false,"is_disabled":false,"rental_uris":{"android":"levelo://app?vid=8ad91a42-b4c8-4044-99d3-7cbe628645b3","ios":"levelo://app?vid=8ad91a42-b4c8-4044-99d3-7cbe628645b3"},"vehicle_type_id":"4","last_reported":1775139359,"current_range_meters":8400,"station_id":"st_d2o4gvlbi1j2169b742g","pricing_plan_id":"cebpf4jnsgd1na2vs0mg"},{"bike_id":"0b85b5b1-8f4a-4a5a-a0ae-c630049fbd5d","system_id":"levelo_inurba_marseille","lat":43.29636,"lon":5.37166,"is_reserved":false,"is_disabled":false,"rental_uris":{"android":"levelo://app?vid=0b85b5b1-8f4a-4a5a-a0ae-c630049fbd5d","ios":"levelo://app?vid=0b85b5b1-8f4a-4a5a-a0ae-c630049fbd5d"},"vehicle_type_id":"4","last_reported":1775139359,"current_range_meters":8400,"station_id":"ce4bgnh2rcd13ifvqc0g","pricing_plan_id":"cebpf4jnsgd1na2vs0mg"},{"bike_id":"aa1d76c6-fdd6-48cf-b275-3c7e0fed08e5","system_id":"levelo_inurba_marseille","lat":43.30525,"lon":5.36712,"is_reserved":false,"is_disabled":false,"rental_uris":{"android":"levelo://app?vid=aa1d76c6-fdd6-48cf-b275-3c7e0fed08e5","ios":"levelo://app?vid=aa1d76c6-fdd6-48cf-b275-3c7e0fed08e5"},"vehicle_type_id":"4","last_reported":1775139359,"current_range_meters":8400,"station_id":"ce4bgrp2rcd13ifvqc9g","pricing_plan_id":"cebpf4jnsgd1na2vs0mg"},{"bike_id":"4806d180-f360-4add-becf-82d18feb28c6","system_id":"levelo_inurba_marseille","lat":43.32672,"lon":5.38711,"is_reserved":false,"is_disabled":false,"rental_uris":{"android":"levelo://app?vid=4806d180-f360-4add-becf-82d18feb28c6","ios":"levelo://app?vid=4806d180-f360-4add-becf-82d18feb28c6"},"vehicle_type_id":"4","last_reported":1775139359,"current_range_meters":8400,"station_id":"","pricing_plan_id":"cebpf4jnsgd1na2vs0mg"},{"bike_id":"53da873f-e6f8-4606-b48f-0cf820bdc3de","system_id":"levelo_inurba_marseille","lat":43.24659,"lon":5.38132,"is_reserved":false,"is_disabled":false,"rental_uris":{"android":"levelo://app?vid=53da873f-e6f8-4606-b48f-0cf820bdc3de","ios":"levelo://app?vid=53da873f-e6f8-4606-b48f-0cf820bdc3de"},"vehicle_type_id":"4","last_reported":1775139359,"current_range_meters":8400,"station_id":"ce4bhih2rcd13ifvqfr0","pricing_plan_id":"cebpf4jnsgd1na2vs0mg"},{"bike_id":"0cfb8b93-62d3-455d-8ddc-2a098cd03197","system_id":"levelo_inurba_marseille","lat":43.32358,"lon":5.36757,"is_reserved":false,"is_disabled":false,"rental_uris":{"android":"levelo://app?vid=0cfb8b93-62d3-455d-8ddc-2a098cd03197","ios":"levelo://app?vid=0cfb8b93-62d3-455d-8ddc-2a098cd03197"},"vehicle_type_id":"4","last_reported":1775139359,"current_range_meters":8400,"station_id":"ce4bhsh2rcd13ifvqi2g","pricing_plan_id":"cebpf4jnsgd1na2vs0mg"},{"bike_id":"7f331a45-ab18-4a20-bb31-96c6e9325d41","system_id":"levelo_inurba_marseille","lat":43.2966,"lon":5.37166,"is_reserved":false,"is_disabled":false,"rental_uris":{"android":"levelo://app?vid=7f331a45-ab18-4a20-bb31-96c6e9325d41","ios":"levelo://app?vid=7f331a45-ab18-4a20-bb31-96c6e9325d41"},"vehicle_type_id":"4","last_reported":1775139359,"current_range_meters":8400,"station_id":"","pricing_plan_id":"cebpf4jnsgd1na2vs0mg"},{"bike_id":"f98e4f88-8b4b-4518-8d83-cba82e19aac5","system_id":"levelo_inurba_marseille","lat":43.2953,"lon":5.3867,"is_reserved":false,"is_disabled":false,"rental_uris":{"android":"levelo://app?vid=f98e4f88-8b4b-4518-8d83-cba82e19aac5","ios":"levelo://app?vid=f98e4f88-8b4b-4518-8d83-cba82e19aac5"},"vehicle_type_id":"4","last_reported":1775139359,"current_range_meters":8400,"station_id":"","pricing_plan_id":"cebpf4jnsgd1na2vs0mg"},{"bike_id":"a0bbc992-87da-4583-a529-59d0980f5448","system_id":"levelo_inurba_marseille","lat":43.29813,"lon":5.44117,"is_reserved":false,"is_disabled":false,"rental_uris":{"android":"levelo://app?vid=a0bbc992-87da-4583-a529-59d0980f5448","ios":"levelo://app?vid=a0bbc992-87da-4583-a529-59d0980f5448"},"vehicle_type_id":"4","last_reported":1775139359,"current_range_meters":8400,"station_id":"","pricing_plan_id":"cebpf4jnsgd1na2vs0mg"},{"bike_id":"b276c3c2-7b5b-4cdf-a8b7-da86be0ddfc7","system_id":"levelo_inurba_marseille","lat":43.23788,"lon":5.36626,"is_reserved":false,"is_disabled":false,"rental_uris":{"android":"levelo://app?vid=b276c3c2-7b5b-4cdf-a8b7-da86be0ddfc7","ios":"levelo://app?vid=b276c3c2-7b5b-4cdf-a8b7-da86be0ddfc7"},"vehicle_type_id":"4","last_reported":1775139359,"current_range_meters":8400,"station_id":"st_d3nk18o9ro0c73en2l3g","pricing_plan_id":"cebpf4jnsgd1na2vs0mg"},{"bike_id":"45908942-a8be-43ff-8c64-a221cdc4ec59","system_id":"levelo_inurba_marseille","lat":43.2955,"lon":5.39989,"is_reserved":false,"is_disabled":false,"rental_uris":{"android":"levelo://app?vid=45908942-a8be-43ff-8c64-a221cdc4ec59","ios":"levelo://app?vid=45908942-a8be-43ff-8c64-a221cdc4ec59"},"vehicle_type_id":"4","last_reported":1775139359,"current_range_meters":8400,"station_id":"ce4bh312rcd13ifvqdj0","pricing_plan_id":"cebpf4jnsgd1na2vs0mg"},{"bike_id":"e2d1ce23-fac0-4bc3-8cdd-1623ba12336c","system_id":"levelo_inurba_marseille","lat":43.28792,"lon":5.43808,"is_reserved":false,"is_disabled":false,"rental_uris":{"android":"levelo://app?vid=e2d1ce23-fac0-4bc3-8cdd-1623ba12336c","ios":"levelo://app?vid=e2d1ce23-fac0-4bc3-8cdd-1623ba12336c"},"vehicle_type_id":"4","last_reported":1775139359,"current_range_meters":8400,"station_id":"","pricing_plan_id":"cebpf4jnsgd1na2vs0mg"},{"bike_id":"a4040622-d5db-4fb9-9c6e-fad0896668e3","system_id":"levelo_inurba_marseille","lat":43.29042,"lon":5.39965,"is_reserved":false,"is_disabled":false,"rental_uris":{"android":"levelo://app?vid=a4040622-d5db-4fb9-9c6e-fad0896668e3","ios":"levelo://app?vid=a4040622-d5db-4fb9-9c6e-fad0896668e3"},"vehicle_type_id":"4","last_reported":1775139359,"current_range_meters":8400,"station_id":"ce4bh392rcd13ifvqdm0","pricing_plan_id":"cebpf4jnsgd1na2vs0mg"},{"bike_id":"7e76070b-db38-429d-8668-6726a0f67ea4","system_id":"levelo_inurba_marseille","lat":43.32489,"lon":5.3829,"is_reserved":false,"is_disabled":false,"rental_uris":{"android":"levelo://app?vid=7e76070b-db38-429d-8668-6726a0f67ea4","ios":"levelo://app?vid=7e76070b-db38-429d-8668-6726a0f67ea4"},"vehicle_type_id":"4","last_reported":1775139359,"current_range_meters":8400,"station_id":"st_d4asgbiv49dc73anf9m0","pricing_plan_id":"cebpf4jnsgd1na2vs0mg"},{"bike_id":"778df578-6123-4128-bfc7-a9b6e8590d02","system_id":"levelo_inurba_marseille","lat":43.22928,"lon":5.35376,"is_reserved":false,"is_disabled":false,"rental_uris":{"android":"levelo://app?vid=778df578-6123-4128-bfc7-a9b6e8590d02","ios":"levelo://app?vid=778df578-6123-4128-bfc7-a9b6e8590d02"},"vehicle_type_id":"4","last_reported":1775139359,"current_range_meters":8400,"station_id":"cpo3532slgdg3j2ikp40","pricing_plan_id":"cebpf4jnsgd1na2vs0mg"},{"bike_id":"63b3799a-ab41-421e-ba54-170ad074cc67","system_id":"levelo_inurba_marseille","lat":43.25573,"lon":5.3823,"is_reserved":false,"is_disabled":false,"rental_uris":{"android":"levelo://app?vid=63b3799a-ab41-421e-ba54-170ad074cc67","ios":"levelo://app?vid=63b3799a-ab41-421e-ba54-170ad074cc67"},"vehicle_type_id":"4","last_reported":1775139359,"current_range_meters":8400,"station_id":"ce4bhih2rcd13ifvqfs0","pricing_plan_id":"cebpf4jnsgd1na2vs0mg"},{"bike_id":"3b22d7ff-60ef-4c70-a9fd-796d6e8cc5e7","system_id":"levelo_inurba_marseille","lat":43.29024,"lon":5.38118,"is_reserved":false,"is_disabled":false,"rental_uris":{"android":"levelo://app?vid=3b22d7ff-60ef-4c70-a9fd-796d6e8cc5e7","ios":"levelo://app?vid=3b22d7ff-60ef-4c70-a9fd-796d6e8cc5e7"},"vehicle_type_id":"4","last_reported":1775139359,"current_range_meters":8400,"station_id":"ce4bho92rcd13ifvqh3g","pricing_plan_id":"cebpf4jnsgd1na2vs0mg"},{"bike_id":"cc9dfb4b-a2a7-417b-9104-b896c029449e","system_id":"levelo_inurba_marseille","lat":43.31357,"lon":5.36716,"is_reserved":false,"is_disabled":false,"rental_uris":{"android":"levelo://app?vid=cc9dfb4b-a2a7-417b-9104-b896c029449e","ios":"levelo://app?vid=cc9dfb4b-a2a7-417b-9104-b896c029449e"},"vehicle_type_id":"4","last_reported":1775139359,"current_range_meters":8400,"station_id":"ce4bgr92rcd13ifvqc6g","pricing_plan_id":"cebpf4jnsgd1na2vs0mg"},{"bike_id":"4f8f5385-39c1-4dec-9d6d-a684cb55e9e7","system_id":"levelo_inurba_marseille","lat":43.32121,"lon":5.3678,"is_reserved":false,"is_disabled":false,"rental_uris":{"android":"levelo://app?vid=4f8f5385-39c1-4dec-9d6d-a684cb55e9e7","ios":"levelo://app?vid=4f8f5385-39c1-4dec-9d6d-a684cb55e9e7"},"vehicle_type_id":"4","last_reported":1775139359,"current_range_meters":8400,"station_id":"ce4bhrh2rcd13ifvqhug","pricing_plan_id":"cebpf4jnsgd1na2vs0mg"},{"bike_id":"109eb2e3-485d-43d8-8d5c-3310b3cd9225","system_id":"levelo_inurba_marseille","lat":43.29717,"lon":5.37666,"is_reserved":false,"is_disabled":false,"rental_uris":{"android":"levelo://app?vid=109eb2e3-485d-43d8-8d5c-3310b3cd9225","ios":"levelo://app?vid=109eb2e3-485d-43d8-8d5c-3310b3cd9225"},"vehicle_type_id":"4","last_reported":1775139359,"current_range_meters":8400,"station_id":"ce4bgkh2rcd13ifvqbl0","pricing_plan_id":"cebpf4jnsgd1na2vs0mg"},{"bike_id":"102c7519-e7e3-4de8-8a1e-2a86a3f7c287","system_id":"levelo_inurba_marseille","lat":43.31249,"lon":5.36801,"is_reserved":false,"is_disabled":false,"rental_uris":{"android":"levelo://app?vid=102c7519-e7e3-4de8-8a1e-2a86a3f7c287","ios":"levelo://app?vid=102c7519-e7e3-4de8-8a1e-2a86a3f7c287"},"vehicle_type_id":"4","last_reported":1775139359,"current_range_meters":8400,"station_id":"","pricing_plan_id":"cebpf4jnsgd1na2vs0mg"},{"bike_id":"26538423-cad0-45fb-9a92-330fec3cadfb","system_id":"levelo_inurba_marseille","lat":43.21741,"lon":5.34605,"is_reserved":false,"is_disabled":false,"rental_uris":{"android":"levelo://app?vid=26538423-cad0-45fb-9a92-330fec3cadfb","ios":"levelo://app?vid=26538423-cad0-45fb-9a92-330fec3cadfb"},"vehicle_type_id":"4","last_reported":1775139359,"current_range_meters":8400,"station_id":"st_cvj6r9ubvosntc0bgbag","pricing_plan_id":"cebpf4jnsgd1na2vs0mg"},{"bike_id":"85bd7590-dc00-4396-a5c7-552ad5f06944","system_id":"levelo_inurba_marseille","lat":43.24163,"lon":5.36387,"is_reserved":false,"is_disabled":false,"rental_uris":{"android":"levelo://app?vid=85bd7590-dc00-4396-a5c7-552ad5f06944","ios":"levelo://app?vid=85bd7590-dc00-4396-a5c7-552ad5f06944"},"vehicle_type_id":"4","last_reported":1775139359,"current_range_meters":8400,"station_id":"cpo36qri1sfpv3e86is0","pricing_plan_id":"cebpf4jnsgd1na2vs0mg"},{"bike_id":"baf72c15-ed7c-4867-b742-bd2cafe8606b","system_id":"levelo_inurba_marseille","lat":43.27617,"lon":5.36104,"is_reserved":false,"is_disabled":false,"rental_uris":{"android":"levelo://app?vid=baf72c15-ed7c-4867-b742-bd2cafe8606b","ios":"levelo://app?vid=baf72c15-ed7c-4867-b742-bd2cafe8606b"},"vehicle_type_id":"4","last_reported":1775139359,"current_range_meters":8400,"station_id":"ce4bgj92rcd13ifvqbe0","pricing_plan_id":"cebpf4jnsgd1na2vs0mg"},{"bike_id":"e39e497c-3dd5-45d2-91ed-0eedd7a5a54a","system_id":"levelo_inurba_marseille","lat":43.23395,"lon":5.41198,"is_reserved":false,"is_disabled":false,"rental_uris":{"android":"levelo://app?vid=e39e497c-3dd5-45d2-91ed-0eedd7a5a54a","ios":"levelo://app?vid=e39e497c-3dd5-45d2-91ed-0eedd7a5a54a"},"vehicle_type_id":"4","last_reported":1775139359,"current_range_meters":8400,"station_id":"st_d75pvndhf9lc73cqq3eg","pricing_plan_id":"cebpf4jnsgd1na2vs0mg"},{"bike_id":"0293c3e8-b002-46e4-80ac-ea31ffd0f0ef","system_id":"levelo_inurba_marseille","lat":43.2706,"lon":5.38296,"is_reserved":false,"is_disabled":false,"rental_uris":{"android":"levelo://app?vid=0293c3e8-b002-46e4-80ac-ea31ffd0f0ef","ios":"levelo://app?vid=0293c3e8-b002-46e4-80ac-ea31ffd0f0ef"},"vehicle_type_id":"4","last_reported":1775139359,"current_range_meters":8400,"station_id":"st_d3n2fo6cfp8s73cte1j0","pricing_plan_id":"cebpf4jnsgd1na2vs0mg"},{"bike_id":"9c2a148a-b4dc-4778-b6a5-71107edcfcda","system_id":"levelo_inurba_marseille","lat":43.30588,"lon":5.39347,"is_reserved":false,"is_disabled":false,"rental_uris":{"android":"levelo://app?vid=9c2a148a-b4dc-4778-b6a5-71107edcfcda","ios":"levelo://app?vid=9c2a148a-b4dc-4778-b6a5-71107edcfcda"},"vehicle_type_id":"4","last_reported":1775139359,"current_range_meters":8400,"station_id":"ce4bh0p2rcd13ifvqd80","pricing_plan_id":"cebpf4jnsgd1na2vs0mg"},{"bike_id":"2e0545ad-d824-454e-b745-a6d9a8bc929b","system_id":"levelo_inurba_marseille","lat":43.3236,"lon":5.36766,"is_reserved":false,"is_disabled":false,"rental_uris":{"android":"levelo://app?vid=2e0545ad-d824-454e-b745-a6d9a8bc929b","ios":"levelo://app?vid=2e0545ad-d824-454e-b745-a6d9a8bc929b"},"vehicle_type_id":"4","last_reported":1775139359,"current_range_meters":8800,"station_id":"ce4bhsh2rcd13ifvqi2g","pricing_plan_id":"cebpf4jnsgd1na2vs0mg"},{"bike_id":"63f54104-1358-46d5-b04e-dbd776a1d3a2","system_id":"levelo_inurba_marseille","lat":43.21758,"lon":5.34593,"is_reserved":false,"is_disabled":false,"rental_uris":{"android":"levelo://app?vid=63f54104-1358-46d5-b04e-dbd776a1d3a2","ios":"levelo://app?vid=63f54104-1358-46d5-b04e-dbd776a1d3a2"},"vehicle_type_id":"4","last_reported":1775139359,"current_range_meters":8800,"station_id":"st_cvj6r9ubvosntc0bgbag","pricing_plan_id":"cebpf4jnsgd1na2vs0mg"},{"bike_id":"5ace48d1-14c7-47ef-91fa-9c22cd23e8a5","system_id":"levelo_inurba_marseille","lat":43.3244,"lon":5.40763,"is_reserved":false,"is_disabled":false,"rental_uris":{"android":"levelo://app?vid=5ace48d1-14c7-47ef-91fa-9c22cd23e8a5","ios":"levelo://app?vid=5ace48d1-14c7-47ef-91fa-9c22cd23e8a5"},"vehicle_type_id":"4","last_reported":1775139359,"current_range_meters":8800,"station_id":"","pricing_plan_id":"cebpf4jnsgd1na2vs0mg"},{"bike_id":"4889bd04-51ca-47ea-acb6-aa443ae65231","system_id":"levelo_inurba_marseille","lat":43.2119,"lon":5.35065,"is_reserved":false,"is_disabled":false,"rental_uris":{"android":"levelo://app?vid=4889bd04-51ca-47ea-acb6-aa443ae65231","ios":"levelo://app?vid=4889bd04-51ca-47ea-acb6-aa443ae65231"},"vehicle_type_id":"4","last_reported":1775139359,"current_range_meters":8800,"station_id":"st_cvj6sg6p6f1abm77japg","pricing_plan_id":"cebpf4jnsgd1na2vs0mg"},{"bike_id":"d0941af4-40ad-4e0c-8925-495878c93550","system_id":"levelo_inurba_marseille","lat":43.29972,"lon":5.38484,"is_reserved":false,"is_disabled":false,"rental_uris":{"android":"levelo://app?vid=d0941af4-40ad-4e0c-8925-495878c93550","ios":"levelo://app?vid=d0941af4-40ad-4e0c-8925-495878c93550"},"vehicle_type_id":"4","last_reported":1775139359,"current_range_meters":8800,"station_id":"ce4bgj92rcd13ifvqbd0","pricing_plan_id":"cebpf4jnsgd1na2vs0mg"},{"bike_id":"6c2e718c-9cd4-4781-bcf8-cc3f17ff5abd","system_id":"levelo_inurba_marseille","lat":43.23929,"lon":5.43668,"is_reserved":false,"is_disabled":false,"rental_uris":{"android":"levelo://app?vid=6c2e718c-9cd4-4781-bcf8-cc3f17ff5abd","ios":"levelo://app?vid=6c2e718c-9cd4-4781-bcf8-cc3f17ff5abd"},"vehicle_type_id":"4","last_reported":1775139359,"current_range_meters":8800,"station_id":"","pricing_plan_id":"cebpf4jnsgd1na2vs0mg"},{"bike_id":"0245e7db-688b-48e6-a6fc-cc29f4d96761","system_id":"levelo_inurba_marseille","lat":43.24169,"lon":5.36395,"is_reserved":false,"is_disabled":false,"rental_uris":{"android":"levelo://app?vid=0245e7db-688b-48e6-a6fc-cc29f4d96761","ios":"levelo://app?vid=0245e7db-688b-48e6-a6fc-cc29f4d96761"},"vehicle_type_id":"4","last_reported":1775139359,"current_range_meters":8800,"station_id":"cpo36qri1sfpv3e86is0","pricing_plan_id":"cebpf4jnsgd1na2vs0mg"},{"bike_id":"cf4c26af-f132-483d-bbcf-6abe2b12da64","system_id":"levelo_inurba_marseille","lat":43.30136,"lon":5.3742,"is_reserved":false,"is_disabled":false,"rental_uris":{"android":"levelo://app?vid=cf4c26af-f132-483d-bbcf-6abe2b12da64","ios":"levelo://app?vid=cf4c26af-f132-483d-bbcf-6abe2b12da64"},"vehicle_type_id":"4","last_reported":1775139359,"current_range_meters":8800,"station_id":"ce4bgs92rcd13ifvqcc0","pricing_plan_id":"cebpf4jnsgd1na2vs0mg"},{"bike_id":"e29e1953-b5e2-42ad-b863-e11d2fd568e7","system_id":"levelo_inurba_marseille","lat":43.33596,"lon":5.37487,"is_reserved":false,"is_disabled":false,"rental_uris":{"android":"levelo://app?vid=e29e1953-b5e2-42ad-b863-e11d2fd568e7","ios":"levelo://app?vid=e29e1953-b5e2-42ad-b863-e11d2fd568e7"},"vehicle_type_id":"4","last_reported":1775139359,"current_range_meters":8800,"station_id":"st_d46tts09ee8s73dlu43g","pricing_plan_id":"cebpf4jnsgd1na2vs0mg"},{"bike_id":"fa77b7e1-6746-492a-bff6-fe7a17478ec7","system_id":"levelo_inurba_marseille","lat":43.32354,"lon":5.36741,"is_reserved":false,"is_disabled":false,"rental_uris":{"android":"levelo://app?vid=fa77b7e1-6746-492a-bff6-fe7a17478ec7","ios":"levelo://app?vid=fa77b7e1-6746-492a-bff6-fe7a17478ec7"},"vehicle_type_id":"4","last_reported":1775139359,"current_range_meters":8800,"station_id":"ce4bhsh2rcd13ifvqi2g","pricing_plan_id":"cebpf4jnsgd1na2vs0mg"},{"bike_id":"5b00fba5-d32f-403f-adaa-6496c17d9a5a","system_id":"levelo_inurba_marseille","lat":43.290929,"lon":5.375277,"is_reserved":false,"is_disabled":false,"rental_uris":{"android":"levelo://app?vid=5b00fba5-d32f-403f-adaa-6496c17d9a5a","ios":"levelo://app?vid=5b00fba5-d32f-403f-adaa-6496c17d9a5a"},"vehicle_type_id":"4","last_reported":1775139359,"current_range_meters":8800,"station_id":"","pricing_plan_id":"cebpf4jnsgd1na2vs0mg"},{"bike_id":"59e73161-8af4-47f1-b776-4575abfef627","system_id":"levelo_inurba_marseille","lat":43.24192,"lon":5.39739,"is_reserved":false,"is_disabled":false,"rental_uris":{"android":"levelo://app?vid=59e73161-8af4-47f1-b776-4575abfef627","ios":"levelo://app?vid=59e73161-8af4-47f1-b776-4575abfef627"},"vehicle_type_id":"4","last_reported":1775139359,"current_range_meters":8800,"station_id":"ce4bhn12rcd13ifvqgpg","pricing_plan_id":"cebpf4jnsgd1na2vs0mg"},{"bike_id":"34a7e93e-ce18-49ce-bd47-99b3d6c022d2","system_id":"levelo_inurba_marseille","lat":43.24171,"lon":5.36402,"is_reserved":false,"is_disabled":false,"rental_uris":{"android":"levelo://app?vid=34a7e93e-ce18-49ce-bd47-99b3d6c022d2","ios":"levelo://app?vid=34a7e93e-ce18-49ce-bd47-99b3d6c022d2"},"vehicle_type_id":"4","last_reported":1775139359,"current_range_meters":8800,"station_id":"cpo36qri1sfpv3e86is0","pricing_plan_id":"cebpf4jnsgd1na2vs0mg"},{"bike_id":"68397c04-f610-4538-9fdd-7a0e0e31e158","system_id":"levelo_inurba_marseille","lat":43.28762,"lon":5.38978,"is_reserved":false,"is_disabled":false,"rental_uris":{"android":"levelo://app?vid=68397c04-f610-4538-9fdd-7a0e0e31e158","ios":"levelo://app?vid=68397c04-f610-4538-9fdd-7a0e0e31e158"},"vehicle_type_id":"4","last_reported":1775139359,"current_range_meters":8800,"station_id":"","pricing_plan_id":"cebpf4jnsgd1na2vs0mg"},{"bike_id":"564828c8-2f6b-45a3-bc31-059f045c0eda","system_id":"levelo_inurba_marseille","lat":43.28926,"lon":5.36632,"is_reserved":false,"is_disabled":false,"rental_uris":{"android":"levelo://app?vid=564828c8-2f6b-45a3-bc31-059f045c0eda","ios":"levelo://app?vid=564828c8-2f6b-45a3-bc31-059f045c0eda"},"vehicle_type_id":"4","last_reported":1775139359,"current_range_meters":8800,"station_id":"ce4bhap2rcd13ifvqek0","pricing_plan_id":"cebpf4jnsgd1na2vs0mg"},{"bike_id":"c0376655-340c-4916-9ccc-fa8b92194b47","system_id":"levelo_inurba_marseille","lat":43.28851,"lon":5.42525,"is_reserved":false,"is_disabled":false,"rental_uris":{"android":"levelo://app?vid=c0376655-340c-4916-9ccc-fa8b92194b47","ios":"levelo://app?vid=c0376655-340c-4916-9ccc-fa8b92194b47"},"vehicle_type_id":"4","last_reported":1775139359,"current_range_meters":8800,"station_id":"st_d3b462108ojc7389ooeg","pricing_plan_id":"cebpf4jnsgd1na2vs0mg"},