{"last_updated":1736863744,"ttl":60,"version":"2.2","data":{"bikes":[{"bike_id":"9fe70871-88a2-4335-8c3c-189b1fa594f6","system_id":"levelo_inurba_marseille","lat":43.290053,"lon":5.356155,"is_reserved":false,"is_disabled":false,"rental_uris":{"android":"levelo://app?vid=9fe70871-88a2-4335-8c3c-189b1fa594f6","ios":"levelo://app?vid=9fe70871-88a2-4335-8c3c-189b1fa594f6"},"vehicle_type_id":"4","last_reported":1736863745,"current_range_meters":11200,"station_id":"ce4bhb92rcd13ifvqen0","pricing_plan_id":"cebpf4jnsgd1na2vs0mg"},{"bike_id":"63f0c0a8-8ba1-4793-8a26-16e38fddc426","system_id":"levelo_inurba_marseille","lat":43.290159,"lon":5.386412,"is_reserved":false,"is_disabled":false,"rental_uris":{"android":"levelo://app?vid=63f0c0a8-8ba1-4793-8a26-16e38fddc426","ios":"levelo://app?vid=63f0c0a8-8ba1-4793-8a26-16e38fddc426"},"vehicle_type_id":"4","last_reported":1736863745,"current_range_meters":36000,"station_id":"ce4bh4p2rcd13ifvqe0g","pricing_plan_id":"cebpf4jnsgd1na2vs0mg"},{"bike_id":"094f2b9d-982b-42a3-8932-981369abda5b","system_id":"levelo_inurba_marseille","lat":43.26934,"lon":5.40258,"is_reserved":false,"is_disabled":false,"rental_uris":{"android":"levelo://app?vid=094f2b9d-982b-42a3-8932-981369abda5b","ios":"levelo://app?vid=094f2b9d-982b-42a3-8932-981369abda5b"},"vehicle_type_id":"4","last_reported":1736863745,"current_range_meters":28800,"station_id":"cjm6bp8fraef2m0cb0m0","pricing_plan_id":"cebpf4jnsgd1na2vs0mg"},{"bike_id":"fc202dea-b0c2-4e7a-82c8-0912767c1570","system_id":"levelo_inurba_marseille","lat":43.29623,"lon":5.37154,"is_reserved":false,"is_disabled":false,"rental_uris":{"android":"levelo://app?vid=fc202dea-b0c2-4e7a-82c8-0912767c1570","ios":"levelo://app?vid=fc202dea-b0c2-4e7a-82c8-0912767c1570"},"vehicle_type_id":"4","last_reported":1736863745,"current_range_meters":32800,"station_id":"ce4bgnh2rcd13ifvqc0g","pricing_plan_id":"cebpf4jnsgd1na2vs0mg"},{"bike_id":"44908263-41cf-426a-9c84-0425048ca86d","system_id":"levelo_inurba_marseille","lat":43.29689,"lon":5.37292,"is_reserved":false,"is_disabled":false,"rental_uris":{"android":"levelo://app?vid=44908263-41cf-426a-9c84-0425048ca86d","ios":"levelo://app?vid=44908263-41cf-426a-9c84-0425048ca86d"},"vehicle_type_id":"4","last_reported":1736863745,"current_range_meters":35200,"station_id":"ce4bgk12rcd13ifvqbj0","pricing_plan_id":"cebpf4jnsgd1na2vs0mg"},{"bike_id":"8d6311d7-b749-42c0-b0d2-27a05b9a6499","system_id":"levelo_inurba_marseille","lat":43.28375,"lon":5.38639,"is_reserved":false,"is_disabled":false,"rental_uris":{"android":"levelo://app?vid=8d6311d7-b749-42c0-b0d2-27a05b9a6499","ios":"levelo://app?vid=8d6311d7-b749-42c0-b0d2-27a05b9a6499"},"vehicle_type_id":"4","last_reported":1736863745,"current_range_meters":39200,"station_id":"ce4bh492rcd13ifvqdvg","pricing_plan_id":"cebpf4jnsgd1na2vs0mg"},{"bike_id":"552903a6-6639-4d4e-b744-9b46ab71e9a3","system_id":"levelo_inurba_marseille","lat":43.28488,"lon":5.38424,"is_reserved":false,"is_disabled":false,"rental_uris":{"android":"levelo://app?vid=552903a6-6639-4d4e-b744-9b46ab71e9a3","ios":"levelo://app?vid=552903a6-6639-4d4e-b744-9b46ab71e9a3"},"vehicle_type_id":"4","last_reported":1736863745,"current_range_meters":17600,"station_id":"ce4bh512rcd13ifvqe3g","pricing_plan_id":"cebpf4jnsgd1na2vs0mg"},{"bike_id":"a9caf45c-9b62-4fad-bb25-cf9cfd1dff86","system_id":"levelo_inurba_marseille","lat":43.33744,"lon":5.39205,"is_reserved":false,"is_disabled":false,"rental_uris":{"android":"levelo://app?vid=a9caf45c-9b62-4fad-bb25-cf9cfd1dff86","ios":"levelo://app?vid=a9caf45c-9b62-4fad-bb25-cf9cfd1dff86"},"vehicle_type_id":"4","last_reported":1736863745,"current_range_meters":38800,"station_id":"ce4bhr92rcd13ifvqhsg","pricing_plan_id":"cebpf4jnsgd1na2vs0mg"},{"bike_id":"83c05730-c74e-4333-98de-3397043b2b60","system_id":"levelo_inurba_marseille","lat":43.27612,"lon":5.36119,"is_reserved":false,"is_disabled":false,"rental_uris":{"android":"levelo://app?vid=83c05730-c74e-4333-98de-3397043b2b60","ios":"levelo://app?vid=83c05730-c74e-4333-98de-3397043b2b60"},"vehicle_type_id":"4","last_reported":1736863745,"current_range_meters":19600,"station_id":"ce4bgj92rcd13ifvqbe0","pricing_plan_id":"cebpf4jnsgd1na2vs0mg"},{"bike_id":"5e0b46d4-53a6-4a9b-81ed-42b3629948b7","system_id":"levelo_inurba_marseille","lat":43.32129,"lon":5.36768,"is_reserved":false,"is_disabled":false,"rental_uris":{"android":"levelo://app?vid=5e0b46d4-53a6-4a9b-81ed-42b3629948b7","ios":"levelo://app?vid=5e0b46d4-53a6-4a9b-81ed-42b3629948b7"},"vehicle_type_id":"4","last_reported":1736863745,"current_range_meters":38000,"station_id":"ce4bhrh2rcd13ifvqhug","pricing_plan_id":"cebpf4jnsgd1na2vs0mg"},{"bike_id":"8a45f352-1bd5-4ce5-830f-577b5a725b6f","system_id":"levelo_inurba_marseille","lat":43.26213,"lon":5.37442,"is_reserved":false,"is_disabled":true,"rental_uris":{"android":"levelo://app?vid=8a45f352-1bd5-4ce5-830f-577b5a725b6f","ios":"levelo://app?vid=8a45f352-1bd5-4ce5-830f-577b5a725b6f"},"vehicle_type_id":"4","last_reported":1736863745,"current_range_meters":0,"station_id":"ce4bhgp2rcd13ifvqfc0","pricing_plan_id":"cebpf4jnsgd1na2vs0mg"},{"bike_id":"5bb5758f-37be-496e-ac0a-3712e6b43125","system_id":"levelo_inurba_marseille","lat":43.26202,"lon":5.37922,"is_reserved":false,"is_disabled":false,"rental_uris":{"android":"levelo://app?vid=5bb5758f-37be-496e-ac0a-3712e6b43125","ios":"levelo://app?vid=5bb5758f-37be-496e-ac0a-3712e6b43125"},"vehicle_type_id":"4","last_reported":1736863745,"current_range_meters":39200,"station_id":"ce4bhjp2rcd13ifvqg90","pricing_plan_id":"cebpf4jnsgd1na2vs0mg"},{"bike_id":"fc6e0326-6e10-4788-9698-0650bfe06d8d","system_id":"levelo_inurba_marseille","lat":43.2928,"lon":5.36852,"is_reserved":false,"is_disabled":false,"rental_uris":{"android":"levelo://app?vid=fc6e0326-6e10-4788-9698-0650bfe06d8d","ios":"levelo://app?vid=fc6e0326-6e10-4788-9698-0650bfe06d8d"},"vehicle_type_id":"4","last_reported":1736863745,"current_range_meters":6400,"station_id":"ce4bhbp2rcd13ifvqesg","pricing_plan_id":"cebpf4jnsgd1na2vs0mg"},{"bike_id":"b42ee5f2-9246-4302-ae0d-1a0103a3e080","system_id":"levelo_inurba_marseille","lat":43.23149,"lon":5.43722,"is_reserved":false,"is_disabled":true,"rental_uris":{"android":"levelo://app?vid=b42ee5f2-9246-4302-ae0d-1a0103a3e080","ios":"levelo://app?vid=b42ee5f2-9246-4302-ae0d-1a0103a3e080"},"vehicle_type_id":"4","last_reported":1736863745,"current_range_meters":0,"station_id":"ce4bhmp2rcd13ifvqgog","pricing_plan_id":"cebpf4jnsgd1na2vs0mg"},{"bike_id":"f2ee1619-1c9f-4d06-ad7b-254050daeab7","system_id":"levelo_inurba_marseille","lat":43.27996,"lon":5.38696,"is_reserved":false,"is_disabled":false,"rental_uris":{"android":"levelo://app?vid=f2ee1619-1c9f-4d06-ad7b-254050daeab7","ios":"levelo://app?vid=f2ee1619-1c9f-4d06-ad7b-254050daeab7"},"vehicle_type_id":"4","last_reported":1736863745,"current_range_meters":38800,"station_id":"ce4bhg12rcd13ifvqf80","pricing_plan_id":"cebpf4jnsgd1na2vs0mg"},{"bike_id":"962cc5cc-fec7-46f8-84df-102fbfaf51f6","system_id":"levelo_inurba_marseille","lat":43.2593,"lon":5.40852,"is_reserved":false,"is_disabled":false,"rental_uris":{"android":"levelo://app?vid=962cc5cc-fec7-46f8-84df-102fbfaf51f6","ios":"levelo://app?vid=962cc5cc-fec7-46f8-84df-102fbfaf51f6"},"vehicle_type_id":"4","last_reported":1736863745,"current_range_meters":38000,"station_id":"ce4bhm92rcd13ifvqglg","pricing_plan_id":"cebpf4jnsgd1na2vs0mg"},{"bike_id":"9290931e-4a74-4545-bd24-e372dcbb1e87","system_id":"levelo_inurba_marseille","lat":43.29708,"lon":5.37701,"is_reserved":false,"is_disabled":false,"rental_uris":{"android":"levelo://app?vid=9290931e-4a74-4545-bd24-e372dcbb1e87","ios":"levelo://app?vid=9290931e-4a74-4545-bd24-e372dcbb1e87"},"vehicle_type_id":"4","last_reported":1736863745,"current_range_meters":37600,"station_id":"ce4bgkh2rcd13ifvqbl0","pricing_plan_id":"cebpf4jnsgd1na2vs0mg"},{"bike_id":"366c5159-c96c-4271-a83d-a7e777ba5d6e","system_id":"levelo_inurba_marseille","lat":43.30921,"lon":5.36833,"is_reserved":false,"is_disabled":false,"rental_uris":{"android":"levelo://app?vid=366c5159-c96c-4271-a83d-a7e777ba5d6e","ios":"levelo://app?vid=366c5159-c96c-4271-a83d-a7e777ba5d6e"},"vehicle_type_id":"4","last_reported":1736863745,"current_range_meters":38400,"station_id":"ce4bgn92rcd13ifvqbvg","pricing_plan_id":"cebpf4jnsgd1na2vs0mg"},{"bike_id":"17f09387-9cb5-44c3-a53f-60088dd09cc9","system_id":"levelo_inurba_marseille","lat":43.309126,"lon":5.368495,"is_reserved":false,"is_disabled":false,"rental_uris":{"android":"levelo://app?vid=17f09387-9cb5-44c3-a53f-60088dd09cc9","ios":"levelo://app?vid=17f09387-9cb5-44c3-a53f-60088dd09cc9"},"vehicle_type_id":"4","last_reported":1736863745,"current_range_meters":38000,"station_id":"ce4bgn92rcd13ifvqbvg","pricing_plan_id":"cebpf4jnsgd1na2vs0mg"},{"bike_id":"8fca025f-4823-4cd4-9186-ae7acab50595","system_id":"levelo_inurba_marseille","lat":43.32551,"lon":5.41439,"is_reserved":false,"is_disabled":false,"rental_uris":{"android":"levelo://app?vid=8fca025f-4823-4cd4-9186-ae7acab50595","ios":"levelo://app?vid=8fca025f-4823-4cd4-9186-ae7acab50595"},"vehicle_type_id":"4","last_reported":1736863745,"current_range_meters":26800,"station_id":"ce4bhq12rcd13ifvqhhg","pricing_plan_id":"cebpf4jnsgd1na2vs0mg"},{"bike_id":"e0ca69a2-8f04-4664-9d47-26dea82cc9f8","system_id":"levelo_inurba_marseille","lat":43.29986,"lon":5.38493,"is_reserved":false,"is_disabled":true,"rental_uris":{"android":"levelo://app?vid=e0ca69a2-8f04-4664-9d47-26dea82cc9f8","ios":"levelo://app?vid=e0ca69a2-8f04-4664-9d47-26dea82cc9f8"},"vehicle_type_id":"4","last_reported":1736863745,"current_range_meters":38800,"station_id":"ce4bgj92rcd13ifvqbd0","pricing_plan_id":"cebpf4jnsgd1na2vs0mg"},{"bike_id":"32df4778-5715-48d5-b17c-014e29871d89","system_id":"levelo_inurba_marseille","lat":43.33602,"lon":5.41028,"is_reserved":false,"is_disabled":false,"rental_uris":{"android":"levelo://app?vid=32df4778-5715-48d5-b17c-014e29871d89","ios":"levelo://app?vid=32df4778-5715-48d5-b17c-014e29871d89"},"vehicle_type_id":"4","last_reported":1736863745,"current_range_meters":27600,"station_id":"ce4bhqh2rcd13ifvqhmg","pricing_plan_id":"cebpf4jnsgd1na2vs0mg"},{"bike_id":"3a154d79-06d4-4814-bd52-2ebbe8926e69","system_id":"levelo_inurba_marseille","lat":43.29792,"lon":5.39345,"is_reserved":false,"is_disabled":true,"rental_uris":{"android":"levelo://app?vid=3a154d79-06d4-4814-bd52-2ebbe8926e69","ios":"levelo://app?vid=3a154d79-06d4-4814-bd52-2ebbe8926e69"},"vehicle_type_id":"4","last_reported":1736863745,"current_range_meters":38000,"station_id":"chh1huq6cuj3fo74tm60","pricing_plan_id":"cebpf4jnsgd1na2vs0mg"},{"bike_id":"1ca9fc25-ccc8-4a68-82aa-93e184d4ffee","system_id":"levelo_inurba_marseille","lat":43.309487,"lon":5.390557,"is_reserved":false,"is_disabled":true,"rental_uris":{"android":"levelo://app?vid=1ca9fc25-ccc8-4a68-82aa-93e184d4ffee","ios":"levelo://app?vid=1ca9fc25-ccc8-4a68-82aa-93e184d4ffee"},"vehicle_type_id":"4","last_reported":1736863745,"current_range_meters":0,"station_id":"ce4bgup2rcd13ifvqco0","pricing_plan_id":"cebpf4jnsgd1na2vs0mg"},{"bike_id":"7a21df82-547b-4b80-9251-7611391c1ad0","system_id":"levelo_inurba_marseille","lat":43.2993,"lon":5.37476,"is_reserved":false,"is_disabled":false,"rental_uris":{"android":"levelo://app?vid=7a21df82-547b-4b80-9251-7611391c1ad0","ios":"levelo://app?vid=7a21df82-547b-4b80-9251-7611391c1ad0"},"vehicle_type_id":"4","last_reported":1736863745,"current_range_meters":34800,"station_id":"ce4bgjh2rcd13ifvqbg0","pricing_plan_id":"cebpf4jnsgd1na2vs0mg"},{"bike_id":"459ac55f-cb34-44c7-adc3-2f83da59a726","system_id":"levelo_inurba_marseille","lat":43.28666,"lon":5.38667,"is_reserved":false,"is_disabled":false,"rental_uris":{"android":"levelo://app?vid=459ac55f-cb34-44c7-adc3-2f83da59a726","ios":"levelo://app?vid=459ac55f-cb34-44c7-adc3-2f83da59a726"},"vehicle_type_id":"4","last_reported":1736863745,"current_range_meters":22000,"station_id":"ce4bh492rcd13ifvqdug","pricing_plan_id":"cebpf4jnsgd1na2vs0mg"},{"bike_id":"dde99e90-f142-49d5-bda5-1d67ce639c58","system_id":"levelo_inurba_marseille","lat":43.28164,"lon":5.42642,"is_reserved":false,"is_disabled":false,"rental_uris":{"android":"levelo://app?vid=dde99e90-f142-49d5-bda5-1d67ce639c58","ios":"levelo://app?vid=dde99e90-f142-49d5-bda5-1d67ce639c58"},"vehicle_type_id":"4","last_reported":1736863745,"current_range_meters":27600,"station_id":"ce4bhnh2rcd13ifvqgug","pricing_plan_id":"cebpf4jnsgd1na2vs0mg"},{"bike_id":"29a5cbd9-65c4-419c-9a97-09f4fd054b93","system_id":"levelo_inurba_marseille","lat":43.30553,"lon":5.36526,"is_reserved":false,"is_disabled":false,"rental_uris":{"android":"levelo://app?vid=29a5cbd9-65c4-419c-9a97-09f4fd054b93","ios":"levelo://app?vid=29a5cbd9-65c4-419c-9a97-09f4fd054b93"},"vehicle_type_id":"4","last_reported":1736863745,"current_range_meters":24000,"station_id":"ce4bgs12rcd13ifvqcag","pricing_plan_id":"cebpf4jnsgd1na2vs0mg"},{"bike_id":"1d796cee-7c75-4072-8f7a-6db57e5091d1","system_id":"levelo_inurba_marseille","lat":43.297303,"lon":5.376843,"is_reserved":false,"is_disabled":false,"rental_uris":{"android":"levelo://app?vid=1d796cee-7c75-4072-8f7a-6db57e5091d1","ios":"levelo://app?vid=1d796cee-7c75-4072-8f7a-6db57e5091d1"},"vehicle_type_id":"4","last_reported":1736863745,"current_range_meters":29600,"station_id":"ce4bgkh2rcd13ifvqbl0","pricing_plan_id":"cebpf4jnsgd1na2vs0mg"},{"bike_id":"ebc3987c-56a4-4f31-8c7b-d4f7d5ee23e1","system_id":"levelo_inurba_marseille","lat":43.29604,"lon":5.38089,"is_reserved":false,"is_disabled":false,"rental_uris":{"android":"levelo://app?vid=ebc3987c-56a4-4f31-8c7b-d4f7d5ee23e1","ios":"levelo://app?vid=ebc3987c-56a4-4f31-8c7b-d4f7d5ee23e1"},"vehicle_type_id":"4","last_reported":1736863745,"current_range_meters":38800,"station_id":"ce4bgl12rcd13ifvqbo0","pricing_plan_id":"cebpf4jnsgd1na2vs0mg"},{"bike_id":"46884546-5849-49c1-8129-a7978a36c969","system_id":"levelo_inurba_marseille","lat":43.25916,"lon":5.40871,"is_reserved":false,"is_disabled":false,"rental_uris":{"android":"levelo://app?vid=46884546-5849-49c1-8129-a7978a36c969","ios":"levelo://app?vid=46884546-5849-49c1-8129-a7978a36c969"},"vehicle_type_id":"4","last_reported":1736863745,"current_range_meters":12400,"station_id":"ce4bhm92rcd13ifvqglg","pricing_plan_id":"cebpf4jnsgd1na2vs0mg"},{"bike_id":"0aabd402-c7ba-4f9a-a3b1-7e08907fd1bd","system_id":"levelo_inurba_marseille","lat":43.28607,"lon":5.37061,"is_reserved":false,"is_disabled":false,"rental_uris":{"android":"levelo://app?vid=0aabd402-c7ba-4f9a-a3b1-7e08907fd1bd","ios":"levelo://app?vid=0aabd402-c7ba-4f9a-a3b1-7e08907fd1bd"},"vehicle_type_id":"4","last_reported":1736863745,"current_range_meters":33600,"station_id":"ce4bht12rcd13ifvqi60","pricing_plan_id":"cebpf4jnsgd1na2vs0mg"},{"bike_id":"22ac1234-0178-4f8b-ac6c-ba87658c545c","system_id":"levelo_inurba_marseille","lat":43.2885,"lon":5.35851,"is_reserved":false,"is_disabled":false,"rental_uris":{"android":"levelo://app?vid=22ac1234-0178-4f8b-ac6c-ba87658c545c","ios":"levelo://app?vid=22ac1234-0178-4f8b-ac6c-ba87658c545c"},"vehicle_type_id":"4","last_reported":1736863745,"current_range_meters":39200,"station_id":"ce4bhb12rcd13ifvqem0","pricing_plan_id":"cebpf4jnsgd1na2vs0mg"},{"bike_id":"63df150a-72d7-477a-b1d7-35c8dc98dbd4","system_id":"levelo_inurba_marseille","lat":43.2811,"lon":5.37829,"is_reserved":false,"is_disabled":false,"rental_uris":{"android":"levelo://app?vid=63df150a-72d7-477a-b1d7-35c8dc98dbd4","ios":"levelo://app?vid=63df150a-72d7-477a-b1d7-35c8dc98dbd4"},"vehicle_type_id":"4","last_reported":1736863745,"current_range_meters":14400,"station_id":"ce4bha12rcd13ifvqee0","pricing_plan_id":"cebpf4jnsgd1na2vs0mg"},{"bike_id":"eaab1b00-64ea-4375-99df-db172fb0e2ca","system_id":"levelo_inurba_marseille","lat":43.28561,"lon":5.39503,"is_reserved":false,"is_disabled":false,"rental_uris":{"android":"levelo://app?vid=eaab1b00-64ea-4375-99df-db172fb0e2ca","ios":"levelo://app?vid=eaab1b00-64ea-4375-99df-db172fb0e2ca"},"vehicle_type_id":"4","last_reported":1736863745,"current_range_meters":27600,"station_id":"ce4bh292rcd13ifvqdg0","pricing_plan_id":"cebpf4jnsgd1na2vs0mg"},{"bike_id":"a402044d-1041-4786-a63f-9d18af3bc82f","system_id":"levelo_inurba_marseille","lat":43.24168,"lon":5.36398,"is_reserved":false,"is_disabled":false,"rental_uris":{"android":"levelo://app?vid=a402044d-1041-4786-a63f-9d18af3bc82f","ios":"levelo://app?vid=a402044d-1041-4786-a63f-9d18af3bc82f"},"vehicle_type_id":"4","last_reported":1736863745,"current_range_meters":38800,"station_id":"cpo36qri1sfpv3e86is0","pricing_plan_id":"cebpf4jnsgd1na2vs0mg"},{"bike_id":"6b93b291-0b00-4b9e-bfd0-9bfc27cb6c48","system_id":"levelo_inurba_marseille","lat":43.2619,"lon":5.37478,"is_reserved":false,"is_disabled":false,"rental_uris":{"android":"levelo://app?vid=6b93b291-0b00-4b9e-bfd0-9bfc27cb6c48","ios":"levelo://app?vid=6b93b291-0b00-4b9e-bfd0-9bfc27cb6c48"},"vehicle_type_id":"4","last_reported":1736863745,"current_range_meters":32000,"station_id":"ce4bhgp2rcd13ifvqfc0","pricing_plan_id":"cebpf4jnsgd1na2vs0mg"},{"bike_id":"cdb77309-ec50-4bf6-b47c-c0d6a7c459f3","system_id":"levelo_inurba_marseille","lat":43.26935,"lon":5.38646,"is_reserved":false,"is_disabled":false,"rental_uris":{"android":"levelo://app?vid=cdb77309-ec50-4bf6-b47c-c0d6a7c459f3","ios":"levelo://app?vid=cdb77309-ec50-4bf6-b47c-c0d6a7c459f3"},"vehicle_type_id":"4","last_reported":1736863745,"current_range_meters":6400,"station_id":"ce4bhh92rcd13ifvqfh0","pricing_plan_id":"cebpf4jnsgd1na2vs0mg"},{"bike_id":"aac8885d-98ab-44b5-a5e4-7f098cde586b","system_id":"levelo_inurba_marseille","lat":43.27263,"lon":5.40945,"is_reserved":false,"is_disabled":false,"rental_uris":{"android":"levelo://app?vid=aac8885d-98ab-44b5-a5e4-7f098cde586b","ios":"levelo://app?vid=aac8885d-98ab-44b5-a5e4-7f098cde586b"},"vehicle_type_id":"4","last_reported":1736863745,"current_range_meters":39200,"station_id":"ce4bhl12rcd13ifvqgf0","pricing_plan_id":"cebpf4jnsgd1na2vs0mg"},{"bike_id":"c8e997c0-8580-4d0f-8d9f-0766596381e1","system_id":"levelo_inurba_marseille","lat":43.33921,"lon":5.37566,"is_reserved":false,"is_disabled":true,"rental_uris":{"android":"levelo://app?vid=c8e997c0-8580-4d0f-8d9f-0766596381e1","ios":"levelo://app?vid=c8e997c0-8580-4d0f-8d9f-0766596381e1"},"vehicle_type_id":"4","last_reported":1736863745,"current_range_meters":0,"station_id":"","pricing_plan_id":"cebpf4jnsgd1na2vs0mg"},{"bike_id":"70665fe7-a5c0-4f45-8270-918728c20ed0","system_id":"levelo_inurba_marseille","lat":43.32506,"lon":5.36566,"is_reserved":false,"is_disabled":false,"rental_uris":{"android":"levelo://app?vid=70665fe7-a5c0-4f45-8270-918728c20ed0","ios":"levelo://app?vid=70665fe7-a5c0-4f45-8270-918728c20ed0"},"vehicle_type_id":"4","last_reported":1736863745,"current_range_meters":17200,"station_id":"ce4bhs12rcd13ifvqhvg","pricing_plan_id":"cebpf4jnsgd1na2vs0mg"},{"bike_id":"ba5df164-d25c-4a1c-8679-1bd1a1db0642","system_id":"levelo_inurba_marseille","lat":43.337421,"lon":5.391984,"is_reserved":false,"is_disabled":false,"rental_uris":{"android":"levelo://app?vid=ba5df164-d25c-4a1c-8679-1bd1a1db0642","ios":"levelo://app?vid=ba5df164-d25c-4a1c-8679-1bd1a1db0642"},"vehicle_type_id":"4","last_reported":1736863745,"current_range_meters":36000,"station_id":"ce4bhr92rcd13ifvqhsg","pricing_plan_id":"cebpf4jnsgd1na2vs0mg"},{"bike_id":"4b0c9a61-893d-44b2-8f86-22412d13dd7a","system_id":"levelo_inurba_marseille","lat":43.28265,"lon":5.35052,"is_reserved":false,"is_disabled":false,"rental_uris":{"android":"levelo://app?vid=4b0c9a61-893d-44b2-8f86-22412d13dd7a","ios":"levelo://app?vid=4b0c9a61-893d-44b2-8f86-22412d13dd7a"},"vehicle_type_id":"4","last_reported":1736863745,"current_range_meters":37600,"station_id":"ce4bhbp2rcd13ifvqerg","pricing_plan_id":"cebpf4jnsgd1na2vs0mg"},{"bike_id":"ddb41cf1-08d5-4912-801d-fd0c3b376b8a","system_id":"levelo_inurba_marseille","lat":43.29977,"lon":5.3719,"is_reserved":false,"is_disabled":false,"rental_uris":{"android":"levelo://app?vid=ddb41cf1-08d5-4912-801d-fd0c3b376b8a","ios":"levelo://app?vid=ddb41cf1-08d5-4912-801d-fd0c3b376b8a"},"vehicle_type_id":"4","last_reported":1736863745,"current_range_meters":34800,"station_id":"ce4bgr92rcd13ifvqc7g","pricing_plan_id":"cebpf4jnsgd1na2vs0mg"},{"bike_id":"1482d095-f803-4d87-9f20-733180ee2ebd","system_id":"levelo_inurba_marseille","lat":43.27994,"lon":5.41656,"is_reserved":false,"is_disabled":false,"rental_uris":{"android":"levelo://app?vid=1482d095-f803-4d87-9f20-733180ee2ebd","ios":"levelo://app?vid=1482d095-f803-4d87-9f20-733180ee2ebd"},"vehicle_type_id":"4","last_reported":1736863745,"current_range_meters":38800,"station_id":"ce4bho12rcd13ifvqh1g","pricing_plan_id":"cebpf4jnsgd1na2vs0mg"},{"bike_id":"c0864203-b7cc-4899-90cd-4baf26325c05","system_id":"levelo_inurba_marseille","lat":43.26192,"lon":5.37447,"is_reserved":false,"is_disabled":false,"rental_uris":{"android":"levelo://app?vid=c0864203-b7cc-4899-90cd-4baf26325c05","ios":"levelo://app?vid=c0864203-b7cc-4899-90cd-4baf26325c05"},"vehicle_type_id":"4","last_reported":1736863745,"current_range_meters":24400,"station_id":"ce4bhgp2rcd13ifvqfc0","pricing_plan_id":"cebpf4jnsgd1na2vs0mg"},{"bike_id":"bcef9621-8bba-46a3-8484-66516e6f67d7","system_id":"levelo_inurba_marseille","lat":43.31285,"lon":5.36733,"is_reserved":false,"is_disabled":false,"rental_uris":{"android":"levelo://app?vid=bcef9621-8bba-46a3-8484-66516e6f67d7","ios":"levelo://app?vid=bcef9621-8bba-46a3-8484-66516e6f67d7"},"vehicle_type_id":"4","last_reported":1736863745,"current_range_meters":8400,"station_id":"","pricing_plan_id":"cebpf4jnsgd1na2vs0mg"},{"bike_id":"3e76b52b-ae3b-4425-a3c6-32e8f560a2db","system_id":"levelo_inurba_marseille","lat":43.26682,"lon":5.38272,"is_reserved":false,"is_disabled":false,"rental_uris":{"android":"levelo://app?vid=3e76b52b-ae3b-4425-a3c6-32e8f560a2db","ios":"levelo://app?vid=3e76b52b-ae3b-4425-a3c6-32e8f560a2db"},"vehicle_type_id":"4","last_reported":1736863745,"current_range_meters":38400,"station_id":"ce4bhg92rcd13ifvqf90","pricing_plan_id":"cebpf4jnsgd1na2vs0mg"},{"bike_id":"780b4cd7-cc4f-48a3-954b-1159aae91c52","system_id":"levelo_inurba_marseille","lat":43.29099,"lon":5.3812,"is_reserved":false,"is_disabled":false,"rental_uris":{"android":"levelo://app?vid=780b4cd7-cc4f-48a3-954b-1159aae91c52","ios":"levelo://app?vid=780b4cd7-cc4f-48a3-954b-1159aae91c52"},"vehicle_type_id":"4","last_reported":1736863745,"current_range_meters":36400,"station_id":"ce4bh512rcd13ifvqe2g","pricing_plan_id":"cebpf4jnsgd1na2vs0mg"},{"bike_id":"42cfeef1-ded8-43ac-8888-284da4376b57","system_id":"levelo_inurba_marseille","lat":43.32479,"lon":5.36547,"is_reserved":false,"is_disabled":false,"rental_uris":{"android":"levelo://app?vid=42cfeef1-ded8-43ac-8888-284da4376b57","ios":"levelo://app?vid=42cfeef1-ded8-43ac-8888-284da4376b57"},"vehicle_type_id":"4","last_reported":1736863745,"current_range_meters":28000,"station_id":"ce4bhs12rcd13ifvqhvg","pricing_plan_id":"cebpf4jnsgd1na2vs0mg"},{"bike_id":"4c97236a-c75c-4110-ad92-8bd9b832d8f4","system_id":"levelo_inurba_marseille","lat":43.29794,"lon":5.40415,"is_reserved":false,"is_disabled":false,"rental_uris":{"android":"levelo://app?vid=4c97236a-c75c-4110-ad92-8bd9b832d8f4","ios":"levelo://app?vid=4c97236a-c75c-4110-ad92-8bd9b832d8f4"},"vehicle_type_id":"4","last_reported":1736863745,"current_range_meters":34000,"station_id":"ce4bh112rcd13ifvqd90","pricing_plan_id":"cebpf4jnsgd1na2vs0mg"},{"bike_id":"59d914a9-7941-4d0c-ad3f-66ae0befc663","system_id":"levelo_inurba_marseille","lat":43.28044,"lon":5.36934,"is_reserved":false,"is_disabled":false,"rental_uris":{"android":"levelo://app?vid=59d914a9-7941-4d0c-ad3f-66ae0befc663","ios":"levelo://app?vid=59d914a9-7941-4d0c-ad3f-66ae0befc663"},"vehicle_type_id":"4","last_reported":1736863745,"current_range_meters":8000,"station_id":"ce4bha12rcd13ifvqef0","pricing_plan_id":"cebpf4jnsgd1na2vs0mg"},{"bike_id":"e9ddb0fd-25b5-4380-b7cd-6db0463f30c2","system_id":"levelo_inurba_marseille","lat":43.25579,"lon":5.38237,"is_reserved":false,"is_disabled":false,"rental_uris":{"android":"levelo://app?vid=e9ddb0fd-25b5-4380-b7cd-6db0463f30c2","ios":"levelo://app?vid=e9ddb0fd-25b5-4380-b7cd-6db0463f30c2"},"vehicle_type_id":"4","last_reported":1736863745,"current_range_meters":12400,"station_id":"ce4bhih2rcd13ifvqfs0","pricing_plan_id":"cebpf4jnsgd1na2vs0mg"},{"bike_id":"426ee80e-06b0-4d0f-86a5-ea8ad64aaa11","system_id":"levelo_inurba_marseille","lat":43.289113,"lon":5.437741,"is_reserved":false,"is_disabled":false,"rental_uris":{"android":"levelo://app?vid=426ee80e-06b0-4d0f-86a5-ea8ad64aaa11","ios":"levelo://app?vid=426ee80e-06b0-4d0f-86a5-ea8ad64aaa11"},"vehicle_type_id":"4","last_reported":1736863745,"current_range_meters":5600,"station_id":"","pricing_plan_id":"cebpf4jnsgd1na2vs0mg"},{"bike_id":"24128752-966f-46f0-bcaa-fe72ab84876b","system_id":"levelo_inurba_marseille","lat":43.32676,"lon":5.40989,"is_reserved":false,"is_disabled":false,"rental_uris":{"android":"levelo://app?vid=24128752-966f-46f0-bcaa-fe72ab84876b","ios":"levelo://app?vid=24128752-966f-46f0-bcaa-fe72ab84876b"},"vehicle_type_id":"4","last_reported":1736863745,"current_range_meters":16400,"station_id":"ce4bhpp2rcd13ifvqhgg","pricing_plan_id":"cebpf4jnsgd1na2vs0mg"},{"bike_id":"192943ff-6579-4067-8b54-834fbf6d8760","system_id":"levelo_inurba_marseille","lat":43.27632,"lon":5.36118,"is_reserved":false,"is_disabled":false,"rental_uris":{"android":"levelo://app?vid=192943ff-6579-4067-8b54-834fbf6d8760","ios":"levelo://app?vid=192943ff-6579-4067-8b54-834fbf6d8760"},"vehicle_type_id":"4","last_reported":1736863745,"current_range_meters":38800,"station_id":"ce4bgj92rcd13ifvqbe0","pricing_plan_id":"cebpf4jnsgd1na2vs0mg"},{"bike_id":"fea1b24d-bbfb-474a-b028-8645483cd7e6","system_id":"levelo_inurba_marseille","lat":43.27383,"lon":5.36263,"is_reserved":false,"is_disabled":true,"rental_uris":{"android":"levelo://app?vid=fea1b24d-bbfb-474a-b028-8645483cd7e6","ios":"levelo://app?vid=fea1b24d-bbfb-474a-b028-8645483cd7e6"},"vehicle_type_id":"4","last_reported":1736863745,"current_range_meters":0,"station_id":"ce4bhbh2rcd13ifvqeo0","pricing_plan_id":"cebpf4jnsgd1na2vs0mg"},{"bike_id":"01113ffd-a35e-4e3e-ba22-63405d83b020","system_id":"levelo_inurba_marseille","lat":43.30185,"lon":5.36614,"is_reserved":false,"is_disabled":false,"rental_uris":{"android":"levelo://app?vid=01113ffd-a35e-4e3e-ba22-63405d83b020","ios":"levelo://app?vid=01113ffd-a35e-4e3e-ba22-63405d83b020"},"vehicle_type_id":"4","last_reported":1736863745,"current_range_meters":30400,"station_id":"ce4bgrh2rcd13ifvqc8g","pricing_plan_id":"cebpf4jnsgd1na2vs0mg"},{"bike_id":"35308051-0024-4acc-857e-6a6380a237b9","system_id":"levelo_inurba_marseille","lat":43.29526,"lon":5.37504,"is_reserved":false,"is_disabled":true,"rental_uris":{"android":"levelo://app?vid=35308051-0024-4acc-857e-6a6380a237b9","ios":"levelo://app?vid=35308051-0024-4acc-857e-6a6380a237b9"},"vehicle_type_id":"4","last_reported":1736863745,"current_range_meters":0,"station_id":"ce4bgkp2rcd13ifvqbmg","pricing_plan_id":"cebpf4jnsgd1na2vs0mg"},{"bike_id":"c0c28c2a-168a-40f0-bd78-2ea6392233b5","system_id":"levelo_inurba_marseille","lat":43.28656,"lon":5.36353,"is_reserved":false,"is_disabled":false,"rental_uris":{"android":"levelo://app?vid=c0c28c2a-168a-40f0-bd78-2ea6392233b5","ios":"levelo://app?vid=c0c28c2a-168a-40f0-bd78-2ea6392233b5"},"vehicle_type_id":"4","last_reported":1736863745,"current_range_meters":27600,"station_id":"ce4bhah2rcd13ifvqej0","pricing_plan_id":"cebpf4jnsgd1na2vs0mg"},{"bike_id":"ab10846d-13f2-4f21-8075-25b6583e29b0","system_id":"levelo_inurba_marseille","lat":43.25925,"lon":5.40895,"is_reserved":false,"is_disabled":false,"rental_uris":{"android":"levelo://app?vid=ab10846d-13f2-4f21-8075-25b6583e29b0","ios":"levelo://app?vid=ab10846d-13f2-4f21-8075-25b6583e29b0"},"vehicle_type_id":"4","last_reported":1736863745,"current_range_meters":18000,"station_id":"ce4bhm92rcd13ifvqglg","pricing_plan_id":"cebpf4jnsgd1na2vs0mg"},{"bike_id":"affbef9a-bbe2-45e2-b464-7b8c49d9b066","system_id":"levelo_inurba_marseille","lat":43.30884,"lon":5.39646,"is_reserved":false,"is_disabled":false,"rental_uris":{"android":"levelo://app?vid=affbef9a-bbe2-45e2-b464-7b8c49d9b066","ios":"levelo://app?vid=affbef9a-bbe2-45e2-b464-7b8c49d9b066"},"vehicle_type_id":"4","last_reported":1736863745,"current_range_meters":38800,"station_id":"ce4bh012rcd13ifvqcv0","pricing_plan_id":"cebpf4jnsgd1na2vs0mg"},{"bike_id":"1774f8b0-c7aa-4f17-81a0-ace9f349859b","system_id":"levelo_inurba_marseille","lat":43.2962,"lon":5.37149,"is_reserved":false,"is_disabled":false,"rental_uris":{"android":"levelo://app?vid=1774f8b0-c7aa-4f17-81a0-ace9f349859b","ios":"levelo://app?vid=1774f8b0-c7aa-4f17-81a0-ace9f349859b"},"vehicle_type_id":"4","last_reported":1736863745,"current_range_meters":39200,"station_id":"ce4bgnh2rcd13ifvqc0g","pricing_plan_id":"cebpf4jnsgd1na2vs0mg"},{"bike_id":"f4dbc556-58b0-4dfd-be99-18a51c032520","system_id":"levelo_inurba_marseille","lat":43.24167,"lon":5.39722,"is_reserved":false,"is_disabled":false,"rental_uris":{"android":"levelo://app?vid=f4dbc556-58b0-4dfd-be99-18a51c032520","ios":"levelo://app?vid=f4dbc556-58b0-4dfd-be99-18a51c032520"},"vehicle_type_id":"4","last_reported":1736863745,"current_range_meters":27600,"station_id":"ce4bhn12rcd13ifvqgpg","pricing_plan_id":"cebpf4jnsgd1na2vs0mg"},{"bike_id":"f0ea1ba0-fb2b-407d-960f-3f53f4b44a1c","system_id":"levelo_inurba_marseille","lat":43.30938,"lon":5.40143,"is_reserved":false,"is_disabled":false,"rental_uris":{"android":"levelo://app?vid=f0ea1ba0-fb2b-407d-960f-3f53f4b44a1c","ios":"levelo://app?vid=f0ea1ba0-fb2b-407d-960f-3f53f4b44a1c"},"vehicle_type_id":"4","last_reported":1736863745,"current_range_meters":7200,"station_id":"ce4bgvp2rcd13ifvqct0","pricing_plan_id":"cebpf4jnsgd1na2vs0mg"},{"bike_id":"41612e37-0e28-4823-a0a0-362607a651f8","system_id":"levelo_inurba_marseille","lat":43.28969,"lon":5.3783,"is_reserved":false,"is_disabled":false,"rental_uris":{"android":"levelo://app?vid=41612e37-0e28-4823-a0a0-362607a651f8","ios":"levelo://app?vid=41612e37-0e28-4823-a0a0-362607a651f8"},"vehicle_type_id":"4","last_reported":1736863745,"current_range_meters":20000,"station_id":"ce4bh9p2rcd13ifvqed0","pricing_plan_id":"cebpf4jnsgd1na2vs0mg"},{"bike_id":"2c706f5e-b3a2-4f62-b5b0-817900f3e0ad","system_id":"levelo_inurba_marseille","lat":43.30564,"lon":5.36699,"is_reserved":false,"is_disabled":false,"rental_uris":{"android":"levelo://app?vid=2c706f5e-b3a2-4f62-b5b0-817900f3e0ad","ios":"levelo://app?vid=2c706f5e-b3a2-4f62-b5b0-817900f3e0ad"},"vehicle_type_id":"4","last_reported":1736863745,"current_range_meters":38800,"station_id":"ce4bgrp2rcd13ifvqc9g","pricing_plan_id":"cebpf4jnsgd1na2vs0mg"},{"bike_id":"2b2619d2-a23f-4637-8bb4-0a751d59c14c","system_id":"levelo_inurba_marseille","lat":43.29929,"lon":5.36532,"is_reserved":false,"is_disabled":false,"rental_uris":{"android":"levelo://app?vid=2b2619d2-a23f-4637-8bb4-0a751d59c14c","ios":"levelo://app?vid=2b2619d2-a23f-4637-8bb4-0a751d59c14c"},"vehicle_type_id":"4","last_reported":1736863745,"current_range_meters":32000,"station_id":"ce4bgm92rcd13ifvqbr0","pricing_plan_id":"cebpf4jnsgd1na2vs0mg"},{"bike_id":"4f5f61c6-4d7b-4249-b6c7-8167fdeefc38","system_id":"levelo_inurba_marseille","lat":43.29036,"lon":5.37566,"is_reserved":false,"is_disabled":false,"rental_uris":{"android":"levelo://app?vid=4f5f61c6-4d7b-4249-b6c7-8167fdeefc38","ios":"levelo://app?vid=4f5f61c6-4d7b-4249-b6c7-8167fdeefc38"},"vehicle_type_id":"4","last_reported":1736863745,"current_range_meters":18800,"station_id":"ce4bh692rcd13ifvqe90","pricing_plan_id":"cebpf4jnsgd1na2vs0mg"},{"bike_id":"55c39b2a-a11a-4e3f-9ac3-cdd697a2367b","system_id":"levelo_inurba_marseille","lat":43.29918,"lon":5.3748,"is_reserved":false,"is_disabled":false,"rental_uris":{"android":"levelo://app?vid=55c39b2a-a11a-4e3f-9ac3-cdd697a2367b","ios":"levelo://app?vid=55c39b2a-a11a-4e3f-9ac3-cdd697a2367b"},"vehicle_type_id":"4","last_reported":1736863745,"current_range_meters":33200,"station_id":"ce4bgjh2rcd13ifvqbg0","pricing_plan_id":"cebpf4jnsgd1na2vs0mg"},{"bike_id":"9f6f071c-7c59-4d08-9963-df26a1256e44","system_id":"levelo_inurba_marseille","lat":43.24639,"lon":5.38915,"is_reserved":false,"is_disabled":false,"rental_uris":{"android":"levelo://app?vid=9f6f071c-7c59-4d08-9963-df26a1256e44","ios":"levelo://app?vid=9f6f071c-7c59-4d08-9963-df26a1256e44"},"vehicle_type_id":"4","last_reported":1736863745,"current_range_meters":39200,"station_id":"ce4bhg12rcd13ifvqf60","pricing_plan_id":"cebpf4jnsgd1na2vs0mg"},{"bike_id":"7c66e748-739e-4a7c-8a36-5827340d5287","system_id":"levelo_inurba_marseille","lat":43.29796,"lon":5.38081,"is_reserved":false,"is_disabled":false,"rental_uris":{"android":"levelo://app?vid=7c66e748-739e-4a7c-8a36-5827340d5287","ios":"levelo://app?vid=7c66e748-739e-4a7c-8a36-5827340d5287"},"vehicle_type_id":"4","last_reported":1736863745,"current_range_meters":31200,"station_id":"ce4bgip2rcd13ifvqbb0","pricing_plan_id":"cebpf4jnsgd1na2vs0mg"},{"bike_id":"9b220643-3cb3-4be7-8946-ee26e257ac5b","system_id":"levelo_inurba_marseille","lat":43.23195,"lon":5.35557,"is_reserved":false,"is_disabled":false,"rental_uris":{"android":"levelo://app?vid=9b220643-3cb3-4be7-8946-ee26e257ac5b","ios":"levelo://app?vid=9b220643-3cb3-4be7-8946-ee26e257ac5b"},"vehicle_type_id":"4","last_reported":1736863745,"current_range_meters":36800,"station_id":"ce4bhu92rcd13ifvqi70","pricing_plan_id":"cebpf4jnsgd1na2vs0mg"},{"bike_id":"ade1ffd7-379f-44ee-93e1-8c261178e187","system_id":"levelo_inurba_marseille","lat":43.24804,"lon":5.37456,"is_reserved":false,"is_disabled":false,"rental_uris":{"android":"levelo://app?vid=ade1ffd7-379f-44ee-93e1-8c261178e187","ios":"levelo://app?vid=ade1ffd7-379f-44ee-93e1-8c261178e187"},"vehicle_type_id":"4","last_reported":1736863745,"current_range_meters":20000,"station_id":"ce4bhgh2rcd13ifvqfb0","pricing_plan_id":"cebpf4jnsgd1na2vs0mg"},{"bike_id":"7a3acdef-7d5f-4678-b674-f30bc9b590a8","system_id":"levelo_inurba_marseille","lat":43.32543,"lon":5.41435,"is_reserved":false,"is_disabled":false,"rental_uris":{"android":"levelo://app?vid=7a3acdef-7d5f-4678-b674-f30bc9b590a8","ios":"levelo://app?vid=7a3acdef-7d5f-4678-b674-f30bc9b590a8"},"vehicle_type_id":"4","last_reported":1736863745,"current_range_meters":8000,"station_id":"ce4bhq12rcd13ifvqhhg","pricing_plan_id":"cebpf4jnsgd1na2vs0mg"},{"bike_id":"755e5c0a-8de7-4ee5-9d4e-5ec609711170","system_id":"levelo_inurba_marseille","lat":43.295813,"lon":5.38103,"is_reserved":false,"is_disabled":true,"rental_uris":{"android":"levelo://app?vid=755e5c0a-8de7-4ee5-9d4e-5ec609711170","ios":"levelo://app?vid=755e5c0a-8de7-4ee5-9d4e-5ec609711170"},"vehicle_type_id":"4","last_reported":1736863745,"current_range_meters":30400,"station_id":"ce4bgl12rcd13ifvqbo0","pricing_plan_id":"cebpf4jnsgd1na2vs0mg"},{"bike_id":"335de6a0-c2e6-4c2c-8e0c-bc6135256a6a","system_id":"levelo_inurba_marseille","lat":43.30135,"lon":5.3878,"is_reserved":false,"is_disabled":false,"rental_uris":{"android":"levelo://app?vid=335de6a0-c2e6-4c2c-8e0c-bc6135256a6a","ios":"levelo://app?vid=335de6a0-c2e6-4c2c-8e0c-bc6135256a6a"},"vehicle_type_id":"4","last_reported":1736863745,"current_range_meters":36000,"station_id":"ce4bghh2rcd13ifvqb60","pricing_plan_id":"cebpf4jnsgd1na2vs0mg"},{"bike_id":"cc9cf4e4-bd05-4828-9c34-27bb5e5951f4","system_id":"levelo_inurba_marseille","lat":43.25914,"lon":5.40947,"is_reserved":false,"is_disabled":false,"rental_uris":{"android":"levelo://app?vid=cc9cf4e4-bd05-4828-9c34-27bb5e5951f4","ios":"levelo://app?vid=cc9cf4e4-bd05-4828-9c34-27bb5e5951f4"},"vehicle_type_id":"4","last_reported":1736863745,"current_range_meters":4000,"station_id":"ce4bhm92rcd13ifvqglg","pricing_plan_id":"cebpf4jnsgd1na2vs0mg"},{"bike_id":"a15980ac-c225-4e68-8982-6cc8c4cbfd79","system_id":"levelo_inurba_marseille","lat":43.23186,"lon":5.35558,"is_reserved":false,"is_disabled":false,"rental_uris":{"android":"levelo://app?vid=a15980ac-c225-4e68-8982-6cc8c4cbfd79","ios":"levelo://app?vid=a15980ac-c225-4e68-8982-6cc8c4cbfd79"},"vehicle_type_id":"4","last_reported":1736863745,"current_range_meters":6800,"station_id":"ce4bhu92rcd13ifvqi70","pricing_plan_id":"cebpf4jnsgd1na2vs0mg"},{"bike_id":"0659b689-8aa4-41f5-a39c-461fa4891cd3","system_id":"levelo_inurba_marseille","lat":43.28938,"lon":5.36641,"is_reserved":false,"is_disabled":false,"rental_uris":{"android":"levelo://app?vid=0659b689-8aa4-41f5-a39c-461fa4891cd3","ios":"levelo://app?vid=0659b689-8aa4-41f5-a39c-461fa4891cd3"},"vehicle_type_id":"4","last_reported":1736863745,"current_range_meters":38800,"station_id":"ce4bhap2rcd13ifvqek0","pricing_plan_id":"cebpf4jnsgd1na2vs0mg"},{"bike_id":"665d259b-317d-40f1-b909-db8fa31f6b35","system_id":"levelo_inurba_marseille","lat":43.28442,"lon":5.39195,"is_reserved":false,"is_disabled":false,"rental_uris":{"android":"levelo://app?vid=665d259b-317d-40f1-b909-db8fa31f6b35","ios":"levelo://app?vid=665d259b-317d-40f1-b909-db8fa31f6b35"},"vehicle_type_id":"4","last_reported":1736863745,"current_range_meters":26800,"station_id":"ce4bhoh2rcd13ifvqh5g","pricing_plan_id":"cebpf4jnsgd1na2vs0mg"},{"bike_id":"58db1729-d720-429e-a5b0-01f841a4111b","system_id":"levelo_inurba_marseille","lat":43.29506,"lon":5.378742,"is_reserved":false,"is_disabled":false,"rental_uris":{"android":"levelo://app?vid=58db1729-d720-429e-a5b0-01f841a4111b","ios":"levelo://app?vid=58db1729-d720-429e-a5b0-01f841a4111b"},"vehicle_type_id":"4","last_reported":1736863745,"current_range_meters":29600,"station_id":"ce4bgjh2rcd13ifvqbf0","pricing_plan_id":"cebpf4jnsgd1na2vs0mg"},{"bike_id":"3b74a056-c0cf-4f44-8772-22ed33115fcd","system_id":"levelo_inurba_marseille","lat":43.231841,"lon":5.399871,"is_reserved":false,"is_disabled":false,"rental_uris":{"android":"levelo://app?vid=3b74a056-c0cf-4f44-8772-22ed33115fcd","ios":"levelo://app?vid=3b74a056-c0cf-4f44-8772-22ed33115fcd"},"vehicle_type_id":"4","last_reported":1736863745,"current_range_meters":38400,"station_id":"ce4bhn12rcd13ifvqgqg","pricing_plan_id":"cebpf4jnsgd1na2vs0mg"},{"bike_id":"1553599e-6810-4423-9490-79f154d8a962","system_id":"levelo_inurba_marseille","lat":43.29715,"lon":5.37692,"is_reserved":false,"is_disabled":false,"rental_uris":{"android":"levelo://app?vid=1553599e-6810-4423-9490-79f154d8a962","ios":"levelo://app?vid=1553599e-6810-4423-9490-79f154d8a962"},"vehicle_type_id":"4","last_reported":1736863745,"current_range_meters":28000,"station_id":"ce4bgkh2rcd13ifvqbl0","pricing_plan_id":"cebpf4jnsgd1na2vs0mg"},{"bike_id":"3f404148-f2c7-44b8-a466-977741fe2f8d","system_id":"levelo_inurba_marseille","lat":43.2792,"lon":5.39589,"is_reserved":false,"is_disabled":false,"rental_uris":{"android":"levelo://app?vid=3f404148-f2c7-44b8-a466-977741fe2f8d","ios":"levelo://app?vid=3f404148-f2c7-44b8-a466-977741fe2f8d"},"vehicle_type_id":"4","last_reported":1736863745,"current_range_meters":28800,"station_id":"ce4bhf92rcd13ifvqf40","pricing_plan_id":"cebpf4jnsgd1na2vs0mg"},{"bike_id":"9616601e-4bf2-40cf-b683-7530143e1fa7","system_id":"levelo_inurba_marseille","lat":43.26934,"lon":5.38668,"is_reserved":false,"is_disabled":false,"rental_uris":{"android":"levelo://app?vid=9616601e-4bf2-40cf-b683-7530143e1fa7","ios":"levelo://app?vid=9616601e-4bf2-40cf-b683-7530143e1fa7"},"vehicle_type_id":"4","last_reported":1736863745,"current_range_meters":39200,"station_id":"ce4bhh92rcd13ifvqfh0","pricing_plan_id":"cebpf4jnsgd1na2vs0mg"},{"bike_id":"8bbee6d9-283a-4e88-8290-c90cf2dc52eb","system_id":"levelo_inurba_marseille","lat":43.2841,"lon":5.37519,"is_reserved":false,"is_disabled":false,"rental_uris":{"android":"levelo://app?vid=8bbee6d9-283a-4e88-8290-c90cf2dc52eb","ios":"levelo://app?vid=8bbee6d9-283a-4e88-8290-c90cf2dc52eb"},"vehicle_type_id":"4","last_reported":1736863745,"current_range_meters":24400,"station_id":"ce4bh412rcd13ifvqds0","pricing_plan_id":"cebpf4jnsgd1na2vs0mg"},{"bike_id":"e37b8d0a-fb99-491e-adfa-c0a2653cd732","system_id":"levelo_inurba_marseille","lat":43.275704,"lon":5.384195,"is_reserved":false,"is_disabled":false,"rental_uris":{"android":"levelo://app?vid=e37b8d0a-fb99-491e-adfa-c0a2653cd732","ios":"levelo://app?vid=e37b8d0a-fb99-491e-adfa-c0a2653cd732"},"vehicle_type_id":"4","last_reported":1736863745,"current_range_meters":39200,"station_id":"ce4bhh92rcd13ifvqfi0","pricing_plan_id":"cebpf4jnsgd1na2vs0mg"},{"bike_id":"51bb6953-dea8-4e82-96bf-52696267905f","system_id":"levelo_inurba_marseille","lat":43.23069,"lon":5.35491,"is_reserved":false,"is_disabled":false,"rental_uris":{"android":"levelo://app?vid=51bb6953-dea8-4e82-96bf-52696267905f","ios":"levelo://app?vid=51bb6953-dea8-4e82-96bf-52696267905f"},"vehicle_type_id":"4","last_reported":1736863745,"current_range_meters":8800,"station_id":"cpo3342slgdg3j2ifvpg","pricing_plan_id":"cebpf4jnsgd1na2vs0mg"},{"bike_id":"b4d2fb64-79fe-432f-80df-64b6718d9f84","system_id":"levelo_inurba_marseille","lat":43.24639,"lon":5.38897,"is_reserved":false,"is_disabled":false,"rental_uris":{"android":"levelo://app?vid=b4d2fb64-79fe-432f-80df-64b6718d9f84","ios":"levelo://app?vid=b4d2fb64-79fe-432f-80df-64b6718d9f84"},"vehicle_type_id":"4","last_reported":1736863745,"current_range_meters":6400,"station_id":"ce4bhg12rcd13ifvqf60","pricing_plan_id":"cebpf4jnsgd1na2vs0mg"},{"bike_id":"207ab073-df26-4b08-9454-53c2fca0ada9","system_id":"levelo_inurba_marseille","lat":43.27198,"lon":5.39185,"is_reserved":false,"is_disabled":false,"rental_uris":{"android":"levelo://app?vid=207ab073-df26-4b08-9454-53c2fca0ada9","ios":"levelo://app?vid=207ab073-df26-4b08-9454-53c2fca0ada9"},"vehicle_type_id":"4","last_reported":1736863745,"current_range_meters":38800,"station_id":"ce4bhhp2rcd13ifvqfm0","pricing_plan_id":"cebpf4jnsgd1na2vs0mg"},{"bike_id":"8d7c0853-4014-4978-9094-18f4b823cfce","system_id":"levelo_inurba_marseille","lat":43.28927,"lon":5.3838,"is_reserved":false,"is_disabled":false,"rental_uris":{"android":"levelo://app?vid=8d7c0853-4014-4978-9094-18f4b823cfce","ios":"levelo://app?vid=8d7c0853-4014-4978-9094-18f4b823cfce"},"vehicle_type_id":"4","last_reported":1736863745,"current_range_meters":19200,"station_id":"ce4bh612rcd13ifvqe6g","pricing_plan_id":"cebpf4jnsgd1na2vs0mg"},{"bike_id":"9c1c7da6-2a03-48b8-b0f6-66d3a6bec012","system_id":"levelo_inurba_marseille","lat":43.30794,"lon":5.38151,"is_reserved":false,"is_disabled":false,"rental_uris":{"android":"levelo://app?vid=9c1c7da6-2a03-48b8-b0f6-66d3a6bec012","ios":"levelo://app?vid=9c1c7da6-2a03-48b8-b0f6-66d3a6bec012"},"vehicle_type_id":"4","last_reported":1736863745,"current_range_meters":36800,"station_id":"ce4bgt12rcd13ifvqce0","pricing_plan_id":"cebpf4jnsgd1na2vs0mg"},{"bike_id":"a4e288a5-ac6a-42fd-81ad-5d913c49f177","system_id":"levelo_inurba_marseille","lat":43.27626,"lon":5.36118,"is_reserved":false,"is_disabled":false,"rental_uris":{"android":"levelo://app?vid=a4e288a5-ac6a-42fd-81ad-5d913c49f177","ios":"levelo://app?vid=a4e288a5-ac6a-42fd-81ad-5d913c49f177"},"vehicle_type_id":"4","last_reported":1736863745,"current_range_meters":38000,"station_id":"ce4bgj92rcd13ifvqbe0","pricing_plan_id":"cebpf4jnsgd1na2vs0mg"},{"bike_id":"3949fb0a-4091-4b98-b55c-cd98f515ad82","system_id":"levelo_inurba_marseille","lat":43.29274,"lon":5.36845,"is_reserved":false,"is_disabled":false,"rental_uris":{"android":"levelo://app?vid=3949fb0a-4091-4b98-b55c-cd98f515ad82","ios":"levelo://app?vid=3949fb0a-4091-4b98-b55c-cd98f515ad82"},"vehicle_type_id":"4","last_reported":1736863745,"current_range_meters":14400,"station_id":"ce4bhbp2rcd13ifvqesg","pricing_plan_id":"cebpf4jnsgd1na2vs0mg"},{"bike_id":"399477ae-0fdc-4fd6-a2ff-431430209881","system_id":"levelo_inurba_marseille","lat":43.2559,"lon":5.38236,"is_reserved":false,"is_disabled":false,"rental_uris":{"android":"levelo://app?vid=399477ae-0fdc-4fd6-a2ff-431430209881","ios":"levelo://app?vid=399477ae-0fdc-4fd6-a2ff-431430209881"},"vehicle_type_id":"4","last_reported":1736863745,"current_range_meters":6800,"station_id":"ce4bhih2rcd13ifvqfs0","pricing_plan_id":"cebpf4jnsgd1na2vs0mg"},{"bike_id":"4824d47a-04f0-4a5a-95e2-4edd14e6ff71","system_id":"levelo_inurba_marseille","lat":43.24693,"lon":5.38151,"is_reserved":false,"is_disabled":false,"rental_uris":{"android":"levelo://app?vid=4824d47a-04f0-4a5a-95e2-4edd14e6ff71","ios":"levelo://app?vid=4824d47a-04f0-4a5a-95e2-4edd14e6ff71"},"vehicle_type_id":"4","last_reported":1736863745,"current_range_meters":38800,"station_id":"ce4bhih2rcd13ifvqfr0","pricing_plan_id":"cebpf4jnsgd1na2vs0mg"},{"bike_id":"56a37990-c381-414a-8c27-59f20eae88ce","system_id":"levelo_inurba_marseille","lat":43.25024,"lon":5.38898,"is_reserved":false,"is_disabled":false,"rental_uris":{"android":"levelo://app?vid=56a37990-c381-414a-8c27-59f20eae88ce","ios":"levelo://app?vid=56a37990-c381-414a-8c27-59f20eae88ce"},"vehicle_type_id":"4","last_reported":1736863745,"current_range_meters":37600,"station_id":"ce4bhgp2rcd13ifvqfd0","pricing_plan_id":"cebpf4jnsgd1na2vs0mg"},{"bike_id":"b328758c-1306-4f48-9fa3-7f9b48fccfe1","system_id":"levelo_inurba_marseille","lat":43.23188,"lon":5.39987,"is_reserved":false,"is_disabled":false,"rental_uris":{"android":"levelo://app?vid=b328758c-1306-4f48-9fa3-7f9b48fccfe1","ios":"levelo://app?vid=b328758c-1306-4f48-9fa3-7f9b48fccfe1"},"vehicle_type_id":"4","last_reported":1736863745,"current_range_meters":19200,"station_id":"ce4bhn12rcd13ifvqgqg","pricing_plan_id":"cebpf4jnsgd1na2vs0mg"},{"bike_id":"a56bdef2-14b8-4e02-b3bc-538917283971","system_id":"levelo_inurba_marseille","lat":43.25097,"lon":5.39505,"is_reserved":false,"is_disabled":false,"rental_uris":{"android":"levelo://app?vid=a56bdef2-14b8-4e02-b3bc-538917283971","ios":"levelo://app?vid=a56bdef2-14b8-4e02-b3bc-538917283971"},"vehicle_type_id":"4","last_reported":1736863745,"current_range_meters":31200,"station_id":"ce4bhm12rcd13ifvqgkg","pricing_plan_id":"cebpf4jnsgd1na2vs0mg"},{"bike_id":"94b531fd-b9b9-4b9b-815c-cde89557e918","system_id":"levelo_inurba_marseille","lat":43.27667,"lon":5.38877,"is_reserved":false,"is_disabled":true,"rental_uris":{"android":"levelo://app?vid=94b531fd-b9b9-4b9b-815c-cde89557e918","ios":"levelo://app?vid=94b531fd-b9b9-4b9b-815c-cde89557e918"},"vehicle_type_id":"4","last_reported":1736863745,"current_range_meters":1600,"station_id":"ce4bhi12rcd13ifvqfo0","pricing_plan_id":"cebpf4jnsgd1na2vs0mg"},{"bike_id":"97074487-ff52-4540-9973-450053117464","system_id":"levelo_inurba_marseille","lat":43.28951,"lon":5.36615,"is_reserved":false,"is_disabled":false,"rental_uris":{"android":"levelo://app?vid=97074487-ff52-4540-9973-450053117464","ios":"levelo://app?vid=97074487-ff52-4540-9973-450053117464"},"vehicle_type_id":"4","last_reported":1736863745,"current_range_meters":35600,"station_id":"ce4bhap2rcd13ifvqek0","pricing_plan_id":"cebpf4jnsgd1na2vs0mg"},{"bike_id":"835aabc0-9c98-4d76-bb79-380bc69b249f","system_id":"levelo_inurba_marseille","lat":43.29903,"lon":5.43637,"is_reserved":false,"is_disabled":false,"rental_uris":{"android":"levelo://app?vid=835aabc0-9c98-4d76-bb79-380bc69b249f","ios":"levelo://app?vid=835aabc0-9c98-4d76-bb79-380bc69b249f"},"vehicle_type_id":"4","last_reported":1736863745,"current_range_meters":24000,"station_id":"ce4bhpp2rcd13ifvqhfg","pricing_plan_id":"cebpf4jnsgd1na2vs0mg"},{"bike_id":"b51b8509-c21e-40ac-802b-edd56e55cdd0","system_id":"levelo_inurba_marseille","lat":43.30364,"lon":5.41881,"is_reserved":false,"is_disabled":true,"rental_uris":{"android":"levelo://app?vid=b51b8509-c21e-40ac-802b-edd56e55cdd0","ios":"levelo://app?vid=b51b8509-c21e-40ac-802b-edd56e55cdd0"},"vehicle_type_id":"4","last_reported":1736863745,"current_range_meters":20000,"station_id":"ce4bhop2rcd13ifvqh7g","pricing_plan_id":"cebpf4jnsgd1na2vs0mg"},{"bike_id":"55d2a299-54bf-4b8c-83ad-08782d81d543","system_id":"levelo_inurba_marseille","lat":43.30531,"lon":5.36711,"is_reserved":false,"is_disabled":false,"rental_uris":{"android":"levelo://app?vid=55d2a299-54bf-4b8c-83ad-08782d81d543","ios":"levelo://app?vid=55d2a299-54bf-4b8c-83ad-08782d81d543"},"vehicle_type_id":"4","last_reported":1736863745,"current_range_meters":10000,"station_id":"ce4bgrp2rcd13ifvqc9g","pricing_plan_id":"cebpf4jnsgd1na2vs0mg"},{"bike_id":"ad53973a-8d2f-4fc7-9952-6ccb15f5647f","system_id":"levelo_inurba_marseille","lat":43.29613,"lon":5.37722,"is_reserved":false,"is_disabled":false,"rental_uris":{"android":"levelo://app?vid=ad53973a-8d2f-4fc7-9952-6ccb15f5647f","ios":"levelo://app?vid=ad53973a-8d2f-4fc7-9952-6ccb15f5647f"},"vehicle_type_id":"4","last_reported":1736863745,"current_range_meters":30000,"station_id":"ce4bgi92rcd13ifvqb90","pricing_plan_id":"cebpf4jnsgd1na2vs0mg"},{"bike_id":"2ce28097-677d-4db6-8dd0-9821f77a743d","system_id":"levelo_inurba_marseille","lat":43.27808,"lon":5.40708,"is_reserved":false,"is_disabled":false,"rental_uris":{"android":"levelo://app?vid=2ce28097-677d-4db6-8dd0-9821f77a743d","ios":"levelo://app?vid=2ce28097-677d-4db6-8dd0-9821f77a743d"},"vehicle_type_id":"4","last_reported":1736863745,"current_range_meters":17600,"station_id":"ce4bhnh2rcd13ifvqgtg","pricing_plan_id":"cebpf4jnsgd1na2vs0mg"},{"bike_id":"c6b75558-26d2-4235-a36f-fe3afe453362","system_id":"levelo_inurba_marseille","lat":43.30562,"lon":5.36518,"is_reserved":false,"is_disabled":false,"rental_uris":{"android":"levelo://app?vid=c6b75558-26d2-4235-a36f-fe3afe453362","ios":"levelo://app?vid=c6b75558-26d2-4235-a36f-fe3afe453362"},"vehicle_type_id":"4","last_reported":1736863745,"current_range_meters":29600,"station_id":"ce4bgs12rcd13ifvqcag","pricing_plan_id":"cebpf4jnsgd1na2vs0mg"},{"bike_id":"d09b7c4d-66d2-4671-b9b2-f154e2135bf9","system_id":"levelo_inurba_marseille","lat":43.29104,"lon":5.38144,"is_reserved":false,"is_disabled":false,"rental_uris":{"android":"levelo://app?vid=d09b7c4d-66d2-4671-b9b2-f154e2135bf9","ios":"levelo://app?vid=d09b7c4d-66d2-4671-b9b2-f154e2135bf9"},"vehicle_type_id":"4","last_reported":1736863745,"current_range_meters":35200,"station_id":"ce4bh512rcd13ifvqe2g","pricing_plan_id":"cebpf4jnsgd1na2vs0mg"},{"bike_id":"9679fb69-98c5-4b1c-9f57-4dfe59cc31a4","system_id":"levelo_inurba_marseille","lat":43.2695,"lon":5.38635,"is_reserved":false,"is_disabled":false,"rental_uris":{"android":"levelo://app?vid=9679fb69-98c5-4b1c-9f57-4dfe59cc31a4","ios":"levelo://app?vid=9679fb69-98c5-4b1c-9f57-4dfe59cc31a4"},"vehicle_type_id":"4","last_reported":1736863745,"current_range_meters":33600,"station_id":"ce4bhh92rcd13ifvqfh0","pricing_plan_id":"cebpf4jnsgd1na2vs0mg"},{"bike_id":"446c15fe-c178-4a66-a753-a3c1d5c3afea","system_id":"levelo_inurba_marseille","lat":43.29084,"lon":5.38148,"is_reserved":false,"is_disabled":false,"rental_uris":{"android":"levelo://app?vid=446c15fe-c178-4a66-a753-a3c1d5c3afea","ios":"levelo://app?vid=446c15fe-c178-4a66-a753-a3c1d5c3afea"},"vehicle_type_id":"4","last_reported":1736863745,"current_range_meters":28800,"station_id":"ce4bh512rcd13ifvqe2g","pricing_plan_id":"cebpf4jnsgd1na2vs0mg"},{"bike_id":"1a9f1a12-ccea-4250-ba92-414fdd324d1e","system_id":"levelo_inurba_marseille","lat":43.27315,"lon":5.3913,"is_reserved":false,"is_disabled":false,"rental_uris":{"android":"levelo://app?vid=1a9f1a12-ccea-4250-ba92-414fdd324d1e","ios":"levelo://app?vid=1a9f1a12-ccea-4250-ba92-414fdd324d1e"},"vehicle_type_id":"4","last_reported":1736863745,"current_range_meters":20000,"station_id":"ce4bhgp2rcd13ifvqfe0","pricing_plan_id":"cebpf4jnsgd1na2vs0mg"},{"bike_id":"24017be9-d1a6-4333-9509-641e776c3c03","system_id":"levelo_inurba_marseille","lat":43.24645,"lon":5.38891,"is_reserved":false,"is_disabled":false,"rental_uris":{"android":"levelo://app?vid=24017be9-d1a6-4333-9509-641e776c3c03","ios":"levelo://app?vid=24017be9-d1a6-4333-9509-641e776c3c03"},"vehicle_type_id":"4","last_reported":1736863745,"current_range_meters":39200,"station_id":"ce4bhg12rcd13ifvqf60","pricing_plan_id":"cebpf4jnsgd1na2vs0mg"},{"bike_id":"803aa2d7-73f9-45b2-b4c1-4d0b6cf6068d","system_id":"levelo_inurba_marseille","lat":43.2717,"lon":5.40995,"is_reserved":false,"is_disabled":false,"rental_uris":{"android":"levelo://app?vid=803aa2d7-73f9-45b2-b4c1-4d0b6cf6068d","ios":"levelo://app?vid=803aa2d7-73f9-45b2-b4c1-4d0b6cf6068d"},"vehicle_type_id":"4","last_reported":1736863745,"current_range_meters":26000,"station_id":"ce4bhl12rcd13ifvqgf0","pricing_plan_id":"cebpf4jnsgd1na2vs0mg"},{"bike_id":"bd01f10b-dc0e-420f-bd5c-058aa6946842","system_id":"levelo_inurba_marseille","lat":43.27231,"lon":5.39173,"is_reserved":false,"is_disabled":false,"rental_uris":{"android":"levelo://app?vid=bd01f10b-dc0e-420f-bd5c-058aa6946842","ios":"levelo://app?vid=bd01f10b-dc0e-420f-bd5c-058aa6946842"},"vehicle_type_id":"4","last_reported":1736863745,"current_range_meters":36400,"station_id":"ce4bhhp2rcd13ifvqfm0","pricing_plan_id":"cebpf4jnsgd1na2vs0mg"},{"bike_id":"45324790-abcf-4a91-8b9e-6b7c17eae013","system_id":"levelo_inurba_marseille","lat":43.27362,"lon":5.36235,"is_reserved":false,"is_disabled":false,"rental_uris":{"android":"levelo://app?vid=45324790-abcf-4a91-8b9e-6b7c17eae013","ios":"levelo://app?vid=45324790-abcf-4a91-8b9e-6b7c17eae013"},"vehicle_type_id":"4","last_reported":1736863745,"current_range_meters":4800,"station_id":"ce4bhbh2rcd13ifvqeo0","pricing_plan_id":"cebpf4jnsgd1na2vs0mg"},{"bike_id":"f222dac3-de77-4946-9f0c-9ac074227934","system_id":"levelo_inurba_marseille","lat":43.33024,"lon":5.3904,"is_reserved":false,"is_disabled":false,"rental_uris":{"android":"levelo://app?vid=f222dac3-de77-4946-9f0c-9ac074227934","ios":"levelo://app?vid=f222dac3-de77-4946-9f0c-9ac074227934"},"vehicle_type_id":"4","last_reported":1736863745,"current_range_meters":18000,"station_id":"ce4bhr92rcd13ifvqhrg","pricing_plan_id":"cebpf4jnsgd1na2vs0mg"},{"bike_id":"81d5593a-d359-468e-93a0-1de6e76a9a28","system_id":"levelo_inurba_marseille","lat":43.23959,"lon":5.36636,"is_reserved":false,"is_disabled":false,"rental_uris":{"android":"levelo://app?vid=81d5593a-d359-468e-93a0-1de6e76a9a28","ios":"levelo://app?vid=81d5593a-d359-468e-93a0-1de6e76a9a28"},"vehicle_type_id":"4","last_reported":1736863745,"current_range_meters":38800,"station_id":"ce4bhi12rcd13ifvqfp0","pricing_plan_id":"cebpf4jnsgd1na2vs0mg"},{"bike_id":"d24d9040-6ad2-4db2-8347-cd569298245a","system_id":"levelo_inurba_marseille","lat":43.27099,"lon":5.38977,"is_reserved":false,"is_disabled":false,"rental_uris":{"android":"levelo://app?vid=d24d9040-6ad2-4db2-8347-cd569298245a","ios":"levelo://app?vid=d24d9040-6ad2-4db2-8347-cd569298245a"},"vehicle_type_id":"4","last_reported":1736863745,"current_range_meters":39200,"station_id":"ce4bhhp2rcd13ifvqfm0","pricing_plan_id":"cebpf4jnsgd1na2vs0mg"},{"bike_id":"814111f1-e2a8-4194-98ab-5ffe1d396acd","system_id":"levelo_inurba_marseille","lat":43.29612,"lon":5.37724,"is_reserved":false,"is_disabled":false,"rental_uris":{"android":"levelo://app?vid=814111f1-e2a8-4194-98ab-5ffe1d396acd","ios":"levelo://app?vid=814111f1-e2a8-4194-98ab-5ffe1d396acd"},"vehicle_type_id":"4","last_reported":1736863745,"current_range_meters":39200,"station_id":"ce4bgi92rcd13ifvqb90","pricing_plan_id":"cebpf4jnsgd1na2vs0mg"},{"bike_id":"a86fe1f4-7545-4b33-8097-0e91725c0bb3","system_id":"levelo_inurba_marseille","lat":43.32484,"lon":5.36596,"is_reserved":false,"is_disabled":true,"rental_uris":{"android":"levelo://app?vid=a86fe1f4-7545-4b33-8097-0e91725c0bb3","ios":"levelo://app?vid=a86fe1f4-7545-4b33-8097-0e91725c0bb3"},"vehicle_type_id":"4","last_reported":1736863745,"current_range_meters":0,"station_id":"ce4bhs12rcd13ifvqhvg","pricing_plan_id":"cebpf4jnsgd1na2vs0mg"},{"bike_id":"96288e4c-2217-4363-a43b-27b3c199235a","system_id":"levelo_inurba_marseille","lat":43.28373,"lon":5.39186,"is_reserved":false,"is_disabled":false,"rental_uris":{"android":"levelo://app?vid=96288e4c-2217-4363-a43b-27b3c199235a","ios":"levelo://app?vid=96288e4c-2217-4363-a43b-27b3c199235a"},"vehicle_type_id":"4","last_reported":1736863745,"current_range_meters":23200,"station_id":"ce4bhoh2rcd13ifvqh5g","pricing_plan_id":"cebpf4jnsgd1na2vs0mg"},{"bike_id":"d9af3aa6-5d49-4b84-9760-ae442a19b76b","system_id":"levelo_inurba_marseille","lat":43.29717,"lon":5.377,"is_reserved":false,"is_disabled":false,"rental_uris":{"android":"levelo://app?vid=d9af3aa6-5d49-4b84-9760-ae442a19b76b","ios":"levelo://app?vid=d9af3aa6-5d49-4b84-9760-ae442a19b76b"},"vehicle_type_id":"4","last_reported":1736863745,"current_range_meters":34000,"station_id":"ce4bgkh2rcd13ifvqbl0","pricing_plan_id":"cebpf4jnsgd1na2vs0mg"},{"bike_id":"978fb29c-98ff-4562-ab1f-5fae6d5333de","system_id":"levelo_inurba_marseille","lat":43.26946,"lon":5.38646,"is_reserved":false,"is_disabled":false,"rental_uris":{"android":"levelo://app?vid=978fb29c-98ff-4562-ab1f-5fae6d5333de","ios":"levelo://app?vid=978fb29c-98ff-4562-ab1f-5fae6d5333de"},"vehicle_type_id":"4","last_reported":1736863745,"current_range_meters":32400,"station_id":"ce4bhh92rcd13ifvqfh0","pricing_plan_id":"cebpf4jnsgd1na2vs0mg"},{"bike_id":"c43815d3-4f9e-4fbb-a00a-ff6f383b06d7","system_id":"levelo_inurba_marseille","lat":43.29932,"lon":5.37473,"is_reserved":false,"is_disabled":false,"rental_uris":{"android":"levelo://app?vid=c43815d3-4f9e-4fbb-a00a-ff6f383b06d7","ios":"levelo://app?vid=c43815d3-4f9e-4fbb-a00a-ff6f383b06d7"},"vehicle_type_id":"4","last_reported":1736863745,"current_range_meters":28800,"station_id":"ce4bgjh2rcd13ifvqbg0","pricing_plan_id":"cebpf4jnsgd1na2vs0mg"},{"bike_id":"6cd98f2a-3383-4cb1-a4a7-55d48a2f8ea9","system_id":"levelo_inurba_marseille","lat":43.31071,"lon":5.38359,"is_reserved":false,"is_disabled":false,"rental_uris":{"android":"levelo://app?vid=6cd98f2a-3383-4cb1-a4a7-55d48a2f8ea9","ios":"levelo://app?vid=6cd98f2a-3383-4cb1-a4a7-55d48a2f8ea9"},"vehicle_type_id":"4","last_reported":1736863745,"current_range_meters":20400,"station_id":"ce4bgv92rcd13ifvqcr0","pricing_plan_id":"cebpf4jnsgd1na2vs0mg"},{"bike_id":"a4c108d4-411d-4a66-ac0a-33ca30029180","system_id":"levelo_inurba_marseille","lat":43.23967,"lon":5.36631,"is_reserved":false,"is_disabled":false,"rental_uris":{"android":"levelo://app?vid=a4c108d4-411d-4a66-ac0a-33ca30029180","ios":"levelo://app?vid=a4c108d4-411d-4a66-ac0a-33ca30029180"},"vehicle_type_id":"4","last_reported":1736863745,"current_range_meters":38800,"station_id":"ce4bhi12rcd13ifvqfp0","pricing_plan_id":"cebpf4jnsgd1na2vs0mg"},{"bike_id":"3f1871b0-62e6-472a-a371-7699a3389f00","system_id":"levelo_inurba_marseille","lat":43.25823,"lon":5.39443,"is_reserved":false,"is_disabled":false,"rental_uris":{"android":"levelo://app?vid=3f1871b0-62e6-472a-a371-7699a3389f00","ios":"levelo://app?vid=3f1871b0-62e6-472a-a371-7699a3389f00"},"vehicle_type_id":"4","last_reported":1736863745,"current_range_meters":38800,"station_id":"ce4bhip2rcd13ifvqft0","pricing_plan_id":"cebpf4jnsgd1na2vs0mg"},{"bike_id":"689ec8eb-fa3e-40ff-b037-74ab04760f2f","system_id":"levelo_inurba_marseille","lat":43.30897,"lon":5.37177,"is_reserved":false,"is_disabled":false,"rental_uris":{"android":"levelo://app?vid=689ec8eb-fa3e-40ff-b037-74ab04760f2f","ios":"levelo://app?vid=689ec8eb-fa3e-40ff-b037-74ab04760f2f"},"vehicle_type_id":"4","last_reported":1736863745,"current_range_meters":24000,"station_id":"ce4bguh2rcd13ifvqckg","pricing_plan_id":"cebpf4jnsgd1na2vs0mg"},{"bike_id":"161fa44b-11d4-4a31-83c8-0bd613731f54","system_id":"levelo_inurba_marseille","lat":43.28391,"lon":5.38627,"is_reserved":false,"is_disabled":false,"rental_uris":{"android":"levelo://app?vid=161fa44b-11d4-4a31-83c8-0bd613731f54","ios":"levelo://app?vid=161fa44b-11d4-4a31-83c8-0bd613731f54"},"vehicle_type_id":"4","last_reported":1736863745,"current_range_meters":39200,"station_id":"ce4bh492rcd13ifvqdvg","pricing_plan_id":"cebpf4jnsgd1na2vs0mg"},{"bike_id":"624fd665-76a1-4073-91c0-a4db8dfd6228","system_id":"levelo_inurba_marseille","lat":43.31354,"lon":5.36576,"is_reserved":false,"is_disabled":false,"rental_uris":{"android":"levelo://app?vid=624fd665-76a1-4073-91c0-a4db8dfd6228","ios":"levelo://app?vid=624fd665-76a1-4073-91c0-a4db8dfd6228"},"vehicle_type_id":"4","last_reported":1736863745,"current_range_meters":29600,"station_id":"","pricing_plan_id":"cebpf4jnsgd1na2vs0mg"},{"bike_id":"820b335e-07fe-4de9-b614-393670e44a0c","system_id":"levelo_inurba_marseille","lat":43.25003,"lon":5.38923,"is_reserved":false,"is_disabled":false,"rental_uris":{"android":"levelo://app?vid=820b335e-07fe-4de9-b614-393670e44a0c","ios":"levelo://app?vid=820b335e-07fe-4de9-b614-393670e44a0c"},"vehicle_type_id":"4","last_reported":1736863745,"current_range_meters":38800,"station_id":"ce4bhgp2rcd13ifvqfd0","pricing_plan_id":"cebpf4jnsgd1na2vs0mg"},{"bike_id":"3998a784-c7ad-483e-9a67-f053c11efe1d","system_id":"levelo_inurba_marseille","lat":43.2621,"lon":5.37466,"is_reserved":false,"is_disabled":false,"rental_uris":{"android":"levelo://app?vid=3998a784-c7ad-483e-9a67-f053c11efe1d","ios":"levelo://app?vid=3998a784-c7ad-483e-9a67-f053c11efe1d"},"vehicle_type_id":"4","last_reported":1736863745,"current_range_meters":32800,"station_id":"ce4bhgp2rcd13ifvqfc0","pricing_plan_id":"cebpf4jnsgd1na2vs0mg"},{"bike_id":"2c3676e1-bf75-4f1c-9c1b-8a353f57bb9b","system_id":"levelo_inurba_marseille","lat":43.30879,"lon":5.3966,"is_reserved":false,"is_disabled":false,"rental_uris":{"android":"levelo://app?vid=2c3676e1-bf75-4f1c-9c1b-8a353f57bb9b","ios":"levelo://app?vid=2c3676e1-bf75-4f1c-9c1b-8a353f57bb9b"},"vehicle_type_id":"4","last_reported":1736863745,"current_range_meters":30800,"station_id":"ce4bh012rcd13ifvqcv0","pricing_plan_id":"cebpf4jnsgd1na2vs0mg"},{"bike_id":"868ed982-14b0-443a-86d7-d438c962d6f6","system_id":"levelo_inurba_marseille","lat":43.28415,"lon":5.3751,"is_reserved":false,"is_disabled":false,"rental_uris":{"android":"levelo://app?vid=868ed982-14b0-443a-86d7-d438c962d6f6","ios":"levelo://app?vid=868ed982-14b0-443a-86d7-d438c962d6f6"},"vehicle_type_id":"4","last_reported":1736863745,"current_range_meters":27600,"station_id":"ce4bh412rcd13ifvqds0","pricing_plan_id":"cebpf4jnsgd1na2vs0mg"},{"bike_id":"2d0273d2-ef3b-437a-aea9-9e57e1c068aa","system_id":"levelo_inurba_marseille","lat":43.298008,"lon":5.40409,"is_reserved":false,"is_disabled":false,"rental_uris":{"android":"levelo://app?vid=2d0273d2-ef3b-437a-aea9-9e57e1c068aa","ios":"levelo://app?vid=2d0273d2-ef3b-437a-aea9-9e57e1c068aa"},"vehicle_type_id":"4","last_reported":1736863745,"current_range_meters":38000,"station_id":"ce4bh112rcd13ifvqd90","pricing_plan_id":"cebpf4jnsgd1na2vs0mg"},{"bike_id":"8780406c-0f05-4389-a692-93042b8afc8b","system_id":"levelo_inurba_marseille","lat":43.29029,"lon":5.38151,"is_reserved":false,"is_disabled":false,"rental_uris":{"android":"levelo://app?vid=8780406c-0f05-4389-a692-93042b8afc8b","ios":"levelo://app?vid=8780406c-0f05-4389-a692-93042b8afc8b"},"vehicle_type_id":"4","last_reported":1736863745,"current_range_meters":22000,"station_id":"ce4bh4p2rcd13ifvqe1g","pricing_plan_id":"cebpf4jnsgd1na2vs0mg"},{"bike_id":"31ca8b0e-c72e-47d4-a59b-a2766db72931","system_id":"levelo_inurba_marseille","lat":43.28419,"lon":5.40938,"is_reserved":false,"is_disabled":true,"rental_uris":{"android":"levelo://app?vid=31ca8b0e-c72e-47d4-a59b-a2766db72931","ios":"levelo://app?vid=31ca8b0e-c72e-47d4-a59b-a2766db72931"},"vehicle_type_id":"4","last_reported":1736863745,"current_range_meters":35200,"station_id":"","pricing_plan_id":"cebpf4jnsgd1na2vs0mg"},{"bike_id":"3cc4f8d9-abe9-44eb-b280-5b30a4d3b388","system_id":"levelo_inurba_marseille","lat":43.26214,"lon":5.37445,"is_reserved":false,"is_disabled":false,"rental_uris":{"android":"levelo://app?vid=3cc4f8d9-abe9-44eb-b280-5b30a4d3b388","ios":"levelo://app?vid=3cc4f8d9-abe9-44eb-b280-5b30a4d3b388"},"vehicle_type_id":"4","last_reported":1736863745,"current_range_meters":38000,"station_id":"ce4bhgp2rcd13ifvqfc0","pricing_plan_id":"cebpf4jnsgd1na2vs0mg"},{"bike_id":"260935da-2653-4646-a2a3-199b9f690a67","system_id":"levelo_inurba_marseille","lat":43.30422,"lon":5.39738,"is_reserved":false,"is_disabled":false,"rental_uris":{"android":"levelo://app?vid=260935da-2653-4646-a2a3-199b9f690a67","ios":"levelo://app?vid=260935da-2653-4646-a2a3-199b9f690a67"},"vehicle_type_id":"4","last_reported":1736863745,"current_range_meters":37600,"station_id":"ce4bh092rcd13ifvqd20","pricing_plan_id":"cebpf4jnsgd1na2vs0mg"},{"bike_id":"60c48e84-151f-4edd-83cd-789ff87c7f63","system_id":"levelo_inurba_marseille","lat":43.28694,"lon":5.37394,"is_reserved":false,"is_disabled":true,"rental_uris":{"android":"levelo://app?vid=60c48e84-151f-4edd-83cd-789ff87c7f63","ios":"levelo://app?vid=60c48e84-151f-4edd-83cd-789ff87c7f63"},"vehicle_type_id":"4","last_reported":1736863745,"current_range_meters":33200,"station_id":"ce4bh3p2rcd13ifvqdq0","pricing_plan_id":"cebpf4jnsgd1na2vs0mg"},{"bike_id":"171bee60-8200-4bb4-b2dd-6ab7fce75054","system_id":"levelo_inurba_marseille","lat":43.28845,"lon":5.35853,"is_reserved":false,"is_disabled":false,"rental_uris":{"android":"levelo://app?vid=171bee60-8200-4bb4-b2dd-6ab7fce75054","ios":"levelo://app?vid=171bee60-8200-4bb4-b2dd-6ab7fce75054"},"vehicle_type_id":"4","last_reported":1736863745,"current_range_meters":36400,"station_id":"ce4bhb12rcd13ifvqem0","pricing_plan_id":"cebpf4jnsgd1na2vs0mg"},{"bike_id":"d4bd3ca0-48a8-4b8f-8823-cc0d13d0ab16","system_id":"levelo_inurba_marseille","lat":43.28078,"lon":5.39645,"is_reserved":false,"is_disabled":false,"rental_uris":{"android":"levelo://app?vid=d4bd3ca0-48a8-4b8f-8823-cc0d13d0ab16","ios":"levelo://app?vid=d4bd3ca0-48a8-4b8f-8823-cc0d13d0ab16"},"vehicle_type_id":"4","last_reported":1736863745,"current_range_meters":27200,"station_id":"ce4bho12rcd13ifvqh2g","pricing_plan_id":"cebpf4jnsgd1na2vs0mg"},{"bike_id":"fa8a30c7-7295-4469-b66e-9b5a43015aac","system_id":"levelo_inurba_marseille","lat":43.33027,"lon":5.39042,"is_reserved":false,"is_disabled":false,"rental_uris":{"android":"levelo://app?vid=fa8a30c7-7295-4469-b66e-9b5a43015aac","ios":"levelo://app?vid=fa8a30c7-7295-4469-b66e-9b5a43015aac"},"vehicle_type_id":"4","last_reported":1736863745,"current_range_meters":38800,"station_id":"ce4bhr92rcd13ifvqhrg","pricing_plan_id":"cebpf4jnsgd1na2vs0mg"},{"bike_id":"1e3242c3-f55f-4dca-a80b-fb3d7c81e5c6","system_id":"levelo_inurba_marseille","lat":43.28079,"lon":5.39661,"is_reserved":false,"is_disabled":false,"rental_uris":{"android":"levelo://app?vid=1e3242c3-f55f-4dca-a80b-fb3d7c81e5c6","ios":"levelo://app?vid=1e3242c3-f55f-4dca-a80b-fb3d7c81e5c6"},"vehicle_type_id":"4","last_reported":1736863745,"current_range_meters":33200,"station_id":"ce4bho12rcd13ifvqh2g","pricing_plan_id":"cebpf4jnsgd1na2vs0mg"},{"bike_id":"e459271b-0d7a-49b4-bd91-d7462ead9879","system_id":"levelo_inurba_marseille","lat":43.28848,"lon":5.35847,"is_reserved":false,"is_disabled":false,"rental_uris":{"android":"levelo://app?vid=e459271b-0d7a-49b4-bd91-d7462ead9879","ios":"levelo://app?vid=e459271b-0d7a-49b4-bd91-d7462ead9879"},"vehicle_type_id":"4","last_reported":1736863745,"current_range_meters":32000,"station_id":"ce4bhb12rcd13ifvqem0","pricing_plan_id":"cebpf4jnsgd1na2vs0mg"},{"bike_id":"de05f028-7450-4792-8d5b-e268410faa9d","system_id":"levelo_inurba_marseille","lat":43.32114,"lon":5.36778,"is_reserved":false,"is_disabled":false,"rental_uris":{"android":"levelo://app?vid=de05f028-7450-4792-8d5b-e268410faa9d","ios":"levelo://app?vid=de05f028-7450-4792-8d5b-e268410faa9d"},"vehicle_type_id":"4","last_reported":1736863745,"current_range_meters":28400,"station_id":"ce4bhrh2rcd13ifvqhug","pricing_plan_id":"cebpf4jnsgd1na2vs0mg"},{"bike_id":"23ac8795-e86f-490f-b612-4c7c3c0011e6","system_id":"levelo_inurba_marseille","lat":43.3008,"lon":5.3909,"is_reserved":false,"is_disabled":false,"rental_uris":{"android":"levelo://app?vid=23ac8795-e86f-490f-b612-4c7c3c0011e6","ios":"levelo://app?vid=23ac8795-e86f-490f-b612-4c7c3c0011e6"},"vehicle_type_id":"4","last_reported":1736863745,"current_range_meters":24000,"station_id":"ce4bh192rcd13ifvqdb0","pricing_plan_id":"cebpf4jnsgd1na2vs0mg"},{"bike_id":"4218abb1-97a1-4e69-a779-b2859c95cf9a","system_id":"levelo_inurba_marseille","lat":43.23947,"lon":5.36628,"is_reserved":false,"is_disabled":false,"rental_uris":{"android":"levelo://app?vid=4218abb1-97a1-4e69-a779-b2859c95cf9a","ios":"levelo://app?vid=4218abb1-97a1-4e69-a779-b2859c95cf9a"},"vehicle_type_id":"4","last_reported":1736863745,"current_range_meters":14400,"station_id":"ce4bhi12rcd13ifvqfp0","pricing_plan_id":"cebpf4jnsgd1na2vs0mg"},{"bike_id":"697e6ace-d673-4abf-ab6d-187906fe3096","system_id":"levelo_inurba_marseille","lat":43.29987,"lon":5.37174,"is_reserved":false,"is_disabled":false,"rental_uris":{"android":"levelo://app?vid=697e6ace-d673-4abf-ab6d-187906fe3096","ios":"levelo://app?vid=697e6ace-d673-4abf-ab6d-187906fe3096"},"vehicle_type_id":"4","last_reported":1736863745,"current_range_meters":22800,"station_id":"ce4bgr92rcd13ifvqc7g","pricing_plan_id":"cebpf4jnsgd1na2vs0mg"},{"bike_id":"d85168cd-cda5-48df-a191-5048004ec8d2","system_id":"levelo_inurba_marseille","lat":43.250847,"lon":5.39512,"is_reserved":false,"is_disabled":false,"rental_uris":{"android":"levelo://app?vid=d85168cd-cda5-48df-a191-5048004ec8d2","ios":"levelo://app?vid=d85168cd-cda5-48df-a191-5048004ec8d2"},"vehicle_type_id":"4","last_reported":1736863745,"current_range_meters":3200,"station_id":"ce4bhm12rcd13ifvqgkg","pricing_plan_id":"cebpf4jnsgd1na2vs0mg"},{"bike_id":"969807cf-216d-4cee-82aa-f5f2990bf61a","system_id":"levelo_inurba_marseille","lat":43.24079,"lon":5.37732,"is_reserved":false,"is_disabled":false,"rental_uris":{"android":"levelo://app?vid=969807cf-216d-4cee-82aa-f5f2990bf61a","ios":"levelo://app?vid=969807cf-216d-4cee-82aa-f5f2990bf61a"},"vehicle_type_id":"4","last_reported":1736863745,"current_range_meters":37600,"station_id":"ce4bhnp2rcd13ifvqgvg","pricing_plan_id":"cebpf4jnsgd1na2vs0mg"},{"bike_id":"34d1187a-0d2f-42da-8bcd-6376169d385a","system_id":"levelo_inurba_marseille","lat":43.25937,"lon":5.40905,"is_reserved":false,"is_disabled":false,"rental_uris":{"android":"levelo://app?vid=34d1187a-0d2f-42da-8bcd-6376169d385a","ios":"levelo://app?vid=34d1187a-0d2f-42da-8bcd-6376169d385a"},"vehicle_type_id":"4","last_reported":1736863745,"current_range_meters":36800,"station_id":"ce4bhm92rcd13ifvqglg","pricing_plan_id":"cebpf4jnsgd1na2vs0mg"},{"bike_id":"8f3d19ca-6788-4fa8-a3b9-31a1f06d17f5","system_id":"levelo_inurba_marseille","lat":43.28048,"lon":5.3699,"is_reserved":false,"is_disabled":true,"rental_uris":{"android":"levelo://app?vid=8f3d19ca-6788-4fa8-a3b9-31a1f06d17f5","ios":"levelo://app?vid=8f3d19ca-6788-4fa8-a3b9-31a1f06d17f5"},"vehicle_type_id":"4","last_reported":1736863745,"current_range_meters":0,"station_id":"ce4bha12rcd13ifvqef0","pricing_plan_id":"cebpf4jnsgd1na2vs0mg"},{"bike_id":"abd352d1-e9eb-4bbd-86a4-019f7b2264e5","system_id":"levelo_inurba_marseille","lat":43.28038,"lon":5.36946,"is_reserved":false,"is_disabled":false,"rental_uris":{"android":"levelo://app?vid=abd352d1-e9eb-4bbd-86a4-019f7b2264e5","ios":"levelo://app?vid=abd352d1-e9eb-4bbd-86a4-019f7b2264e5"},"vehicle_type_id":"4","last_reported":1736863745,"current_range_meters":24800,"station_id":"ce4bha12rcd13ifvqef0","pricing_plan_id":"cebpf4jnsgd1na2vs0mg"},{"bike_id":"a43739c9-34f8-4528-bc90-c6ded97f6129","system_id":"levelo_inurba_marseille","lat":43.30422,"lon":5.4129,"is_reserved":false,"is_disabled":false,"rental_uris":{"android":"levelo://app?vid=a43739c9-34f8-4528-bc90-c6ded97f6129","ios":"levelo://app?vid=a43739c9-34f8-4528-bc90-c6ded97f6129"},"vehicle_type_id":"4","last_reported":1736863745,"current_range_meters":38800,"station_id":"ce4bhop2rcd13ifvqh8g","pricing_plan_id":"cebpf4jnsgd1na2vs0mg"},{"bike_id":"6280e12b-8c99-470a-acaf-04cfe5b073d5","system_id":"levelo_inurba_marseille","lat":43.27215,"lon":5.40974,"is_reserved":false,"is_disabled":false,"rental_uris":{"android":"levelo://app?vid=6280e12b-8c99-470a-acaf-04cfe5b073d5","ios":"levelo://app?vid=6280e12b-8c99-470a-acaf-04cfe5b073d5"},"vehicle_type_id":"4","last_reported":1736863745,"current_range_meters":38800,"station_id":"ce4bhl12rcd13ifvqgf0","pricing_plan_id":"cebpf4jnsgd1na2vs0mg"},{"bike_id":"f62a7ed4-7c80-4ed8-9568-a4dea62069d1","system_id":"levelo_inurba_marseille","lat":43.280772,"lon":5.396708,"is_reserved":false,"is_disabled":false,"rental_uris":{"android":"levelo://app?vid=f62a7ed4-7c80-4ed8-9568-a4dea62069d1","ios":"levelo://app?vid=f62a7ed4-7c80-4ed8-9568-a4dea62069d1"},"vehicle_type_id":"4","last_reported":1736863745,"current_range_meters":24800,"station_id":"ce4bho12rcd13ifvqh2g","pricing_plan_id":"cebpf4jnsgd1na2vs0mg"},{"bike_id":"ddda7598-97c1-41e4-8980-d36ea2918dfb","system_id":"levelo_inurba_marseille","lat":43.30447,"lon":5.36746,"is_reserved":false,"is_disabled":false,"rental_uris":{"android":"levelo://app?vid=ddda7598-97c1-41e4-8980-d36ea2918dfb","ios":"levelo://app?vid=ddda7598-97c1-41e4-8980-d36ea2918dfb"},"vehicle_type_id":"4","last_reported":1736863745,"current_range_meters":20000,"station_id":"","pricing_plan_id":"cebpf4jnsgd1na2vs0mg"},{"bike_id":"2d299aa8-68d1-40ea-a1d0-c766b33ee2bf","system_id":"levelo_inurba_marseille","lat":43.26941,"lon":5.40245,"is_reserved":false,"is_disabled":false,"rental_uris":{"android":"levelo://app?vid=2d299aa8-68d1-40ea-a1d0-c766b33ee2bf","ios":"levelo://app?vid=2d299aa8-68d1-40ea-a1d0-c766b33ee2bf"},"vehicle_type_id":"4","last_reported":1736863745,"current_range_meters":38000,"station_id":"cjm6bp8fraef2m0cb0m0","pricing_plan_id":"cebpf4jnsgd1na2vs0mg"},{"bike_id":"edac291a-8c2c-4dbb-819f-0d903cf2f53b","system_id":"levelo_inurba_marseille","lat":43.28937,"lon":5.36639,"is_reserved":false,"is_disabled":false,"rental_uris":{"android":"levelo://app?vid=edac291a-8c2c-4dbb-819f-0d903cf2f53b","ios":"levelo://app?vid=edac291a-8c2c-4dbb-819f-0d903cf2f53b"},"vehicle_type_id":"4","last_reported":1736863745,"current_range_meters":25200,"station_id":"ce4bhap2rcd13ifvqek0","pricing_plan_id":"cebpf4jnsgd1na2vs0mg"},{"bike_id":"1f4361f6-1ad1-40a5-8ab9-ca6dc8bbb9c0","system_id":"levelo_inurba_marseille","lat":43.3014,"lon":5.37417,"is_reserved":false,"is_disabled":false,"rental_uris":{"android":"levelo://app?vid=1f4361f6-1ad1-40a5-8ab9-ca6dc8bbb9c0","ios":"levelo://app?vid=1f4361f6-1ad1-40a5-8ab9-ca6dc8bbb9c0"},"vehicle_type_id":"4","last_reported":1736863745,"current_range_meters":4000,"station_id":"ce4bgs92rcd13ifvqcc0","pricing_plan_id":"cebpf4jnsgd1na2vs0mg"},{"bike_id":"2288c987-ef9d-4a19-975c-00459c2ec98b","system_id":"levelo_inurba_marseille","lat":43.26939,"lon":5.38641,"is_reserved":false,"is_disabled":false,"rental_uris":{"android":"levelo://app?vid=2288c987-ef9d-4a19-975c-00459c2ec98b","ios":"levelo://app?vid=2288c987-ef9d-4a19-975c-00459c2ec98b"},"vehicle_type_id":"4","last_reported":1736863745,"current_range_meters":22000,"station_id":"ce4bhh92rcd13ifvqfh0","pricing_plan_id":"cebpf4jnsgd1na2vs0mg"},{"bike_id":"d55036c6-38e5-4a28-b707-e62458d2fb03","system_id":"levelo_inurba_marseille","lat":43.24065,"lon":5.37766,"is_reserved":false,"is_disabled":false,"rental_uris":{"android":"levelo://app?vid=d55036c6-38e5-4a28-b707-e62458d2fb03","ios":"levelo://app?vid=d55036c6-38e5-4a28-b707-e62458d2fb03"},"vehicle_type_id":"4","last_reported":1736863745,"current_range_meters":22800,"station_id":"ce4bhnp2rcd13ifvqgvg","pricing_plan_id":"cebpf4jnsgd1na2vs0mg"},{"bike_id":"34178983-66e1-4a2c-8604-3eecf4dbeebe","system_id":"levelo_inurba_marseille","lat":43.29844,"lon":5.36277,"is_reserved":false,"is_disabled":false,"rental_uris":{"android":"levelo://app?vid=34178983-66e1-4a2c-8604-3eecf4dbeebe","ios":"levelo://app?vid=34178983-66e1-4a2c-8604-3eecf4dbeebe"},"vehicle_type_id":"4","last_reported":1736863745,"current_range_meters":38000,"station_id":"ce4bgpp2rcd13ifvqc3g","pricing_plan_id":"cebpf4jnsgd1na2vs0mg"},{"bike_id":"c57da018-bfbb-4cbc-9a23-aaed6c1fa365","system_id":"levelo_inurba_marseille","lat":43.27625,"lon":5.36108,"is_reserved":false,"is_disabled":false,"rental_uris":{"android":"levelo://app?vid=c57da018-bfbb-4cbc-9a23-aaed6c1fa365","ios":"levelo://app?vid=c57da018-bfbb-4cbc-9a23-aaed6c1fa365"},"vehicle_type_id":"4","last_reported":1736863745,"current_range_meters":32400,"station_id":"ce4bgj92rcd13ifvqbe0","pricing_plan_id":"cebpf4jnsgd1na2vs0mg"},{"bike_id":"d8756689-0b5d-4720-8f00-f33f9ad2c418","system_id":"levelo_inurba_marseille","lat":43.29803,"lon":5.3809,"is_reserved":false,"is_disabled":false,"rental_uris":{"android":"levelo://app?vid=d8756689-0b5d-4720-8f00-f33f9ad2c418","ios":"levelo://app?vid=d8756689-0b5d-4720-8f00-f33f9ad2c418"},"vehicle_type_id":"4","last_reported":1736863745,"current_range_meters":24000,"station_id":"ce4bgip2rcd13ifvqbb0","pricing_plan_id":"cebpf4jnsgd1na2vs0mg"},{"bike_id":"84993ed4-8b4b-432e-a748-ebeba522351f","system_id":"levelo_inurba_marseille","lat":43.29606,"lon":5.37721,"is_reserved":false,"is_disabled":false,"rental_uris":{"android":"levelo://app?vid=84993ed4-8b4b-432e-a748-ebeba522351f","ios":"levelo://app?vid=84993ed4-8b4b-432e-a748-ebeba522351f"},"vehicle_type_id":"4","last_reported":1736863745,"current_range_meters":36400,"station_id":"ce4bgi92rcd13ifvqb90","pricing_plan_id":"cebpf4jnsgd1na2vs0mg"},{"bike_id":"e18ca637-0940-4ac9-84c4-c3ecffd5e4c4","system_id":"levelo_inurba_marseille","lat":43.26045,"lon":5.37543,"is_reserved":false,"is_disabled":false,"rental_uris":{"android":"levelo://app?vid=e18ca637-0940-4ac9-84c4-c3ecffd5e4c4","ios":"levelo://app?vid=e18ca637-0940-4ac9-84c4-c3ecffd5e4c4"},"vehicle_type_id":"4","last_reported":1736863745,"current_range_meters":24400,"station_id":"ce4bhgh2rcd13ifvqfa0","pricing_plan_id":"cebpf4jnsgd1na2vs0mg"},{"bike_id":"c9fd064c-a8cf-449b-9f0f-7e2bd4c738bd","system_id":"levelo_inurba_marseille","lat":43.25501,"lon":5.37653,"is_reserved":false,"is_disabled":false,"rental_uris":{"android":"levelo://app?vid=c9fd064c-a8cf-449b-9f0f-7e2bd4c738bd","ios":"levelo://app?vid=c9fd064c-a8cf-449b-9f0f-7e2bd4c738bd"},"vehicle_type_id":"4","last_reported":1736863745,"current_range_meters":39200,"station_id":"ce4bhh12rcd13ifvqff0","pricing_plan_id":"cebpf4jnsgd1na2vs0mg"},{"bike_id":"656938f6-29e6-4592-aec9-6c0b4897db53","system_id":"levelo_inurba_marseille","lat":43.27217,"lon":5.39193,"is_reserved":false,"is_disabled":false,"rental_uris":{"android":"levelo://app?vid=656938f6-29e6-4592-aec9-6c0b4897db53","ios":"levelo://app?vid=656938f6-29e6-4592-aec9-6c0b4897db53"},"vehicle_type_id":"4","last_reported":1736863745,"current_range_meters":38800,"station_id":"ce4bhhp2rcd13ifvqfm0","pricing_plan_id":"cebpf4jnsgd1na2vs0mg"},{"bike_id":"f39f0fa8-8526-4936-b827-fbcc97c02e79","system_id":"levelo_inurba_marseille","lat":43.30296,"lon":5.39208,"is_reserved":false,"is_disabled":false,"rental_uris":{"android":"levelo://app?vid=f39f0fa8-8526-4936-b827-fbcc97c02e79","ios":"levelo://app?vid=f39f0fa8-8526-4936-b827-fbcc97c02e79"},"vehicle_type_id":"4","last_reported":1736863745,"current_range_meters":26800,"station_id":"ce4bgkh2rcd13ifvqbk0","pricing_plan_id":"cebpf4jnsgd1na2vs0mg"},{"bike_id":"a836bbf6-cc30-4238-a0af-12e1dba6445b","system_id":"levelo_inurba_marseille","lat":43.23163,"lon":5.43719,"is_reserved":false,"is_disabled":false,"rental_uris":{"android":"levelo://app?vid=a836bbf6-cc30-4238-a0af-12e1dba6445b","ios":"levelo://app?vid=a836bbf6-cc30-4238-a0af-12e1dba6445b"},"vehicle_type_id":"4","last_reported":1736863745,"current_range_meters":24400,"station_id":"ce4bhmp2rcd13ifvqgog","pricing_plan_id":"cebpf4jnsgd1na2vs0mg"},{"bike_id":"2c8aa28b-b50b-46d1-a1ce-c6730e2ff8bd","system_id":"levelo_inurba_marseille","lat":43.30394,"lon":5.36494,"is_reserved":false,"is_disabled":false,"rental_uris":{"android":"levelo://app?vid=2c8aa28b-b50b-46d1-a1ce-c6730e2ff8bd","ios":"levelo://app?vid=2c8aa28b-b50b-46d1-a1ce-c6730e2ff8bd"},"vehicle_type_id":"4","last_reported":1736863745,"current_range_meters":36400,"station_id":"ce4bgnh2rcd13ifvqc0g","pricing_plan_id":"cebpf4jnsgd1na2vs0mg"},{"bike_id":"718dc4c6-a230-4ea7-bad0-c4ecf5aaedef","system_id":"levelo_inurba_marseille","lat":43.2962,"lon":5.37167,"is_reserved":false,"is_disabled":false,"rental_uris":{"android":"levelo://app?vid=718dc4c6-a230-4ea7-bad0-c4ecf5aaedef","ios":"levelo://app?vid=718dc4c6-a230-4ea7-bad0-c4ecf5aaedef"},"vehicle_type_id":"4","last_reported":1736863745,"current_range_meters":26800,"station_id":"ce4bgnh2rcd13ifvqc0g","pricing_plan_id":"cebpf4jnsgd1na2vs0mg"},{"bike_id":"d12d0d4b-6c32-4fac-8f18-2af46f7242dc","system_id":"levelo_inurba_marseille","lat":43.30961,"lon":5.39034,"is_reserved":false,"is_disabled":false,"rental_uris":{"android":"levelo://app?vid=d12d0d4b-6c32-4fac-8f18-2af46f7242dc","ios":"levelo://app?vid=d12d0d4b-6c32-4fac-8f18-2af46f7242dc"},"vehicle_type_id":"4","last_reported":1736863745,"current_range_meters":35200,"station_id":"ce4bgup2rcd13ifvqco0","pricing_plan_id":"cebpf4jnsgd1na2vs0mg"},{"bike_id":"41922604-c7b8-4e93-9da5-3903771d7233","system_id":"levelo_inurba_marseille","lat":43.24803,"lon":5.37454,"is_reserved":false,"is_disabled":false,"rental_uris":{"android":"levelo://app?vid=41922604-c7b8-4e93-9da5-3903771d7233","ios":"levelo://app?vid=41922604-c7b8-4e93-9da5-3903771d7233"},"vehicle_type_id":"4","last_reported":1736863745,"current_range_meters":22400,"station_id":"ce4bhgh2rcd13ifvqfb0","pricing_plan_id":"cebpf4jnsgd1na2vs0mg"},{"bike_id":"4a052bef-d121-4854-82e0-1730db1a76d2","system_id":"levelo_inurba_marseille","lat":43.2621,"lon":5.37448,"is_reserved":false,"is_disabled":false,"rental_uris":{"android":"levelo://app?vid=4a052bef-d121-4854-82e0-1730db1a76d2","ios":"levelo://app?vid=4a052bef-d121-4854-82e0-1730db1a76d2"},"vehicle_type_id":"4","last_reported":1736863745,"current_range_meters":29600,"station_id":"ce4bhgp2rcd13ifvqfc0","pricing_plan_id":"cebpf4jnsgd1na2vs0mg"},{"bike_id":"306db636-fa13-4023-a4f6-43177835b6db","system_id":"levelo_inurba_marseille","lat":43.25941,"lon":5.40904,"is_reserved":false,"is_disabled":false,"rental_uris":{"android":"levelo://app?vid=306db636-fa13-4023-a4f6-43177835b6db","ios":"levelo://app?vid=306db636-fa13-4023-a4f6-43177835b6db"},"vehicle_type_id":"4","last_reported":1736863745,"current_range_meters":29600,"station_id":"ce4bhm92rcd13ifvqglg","pricing_plan_id":"cebpf4jnsgd1na2vs0mg"},{"bike_id":"595b281f-ee3a-4ec1-a6b4-ec4a8205c8e3","system_id":"levelo_inurba_marseille","lat":43.2902,"lon":5.38626,"is_reserved":false,"is_disabled":false,"rental_uris":{"android":"levelo://app?vid=595b281f-ee3a-4ec1-a6b4-ec4a8205c8e3","ios":"levelo://app?vid=595b281f-ee3a-4ec1-a6b4-ec4a8205c8e3"},"vehicle_type_id":"4","last_reported":1736863745,"current_range_meters":33600,"station_id":"ce4bh4p2rcd13ifvqe0g","pricing_plan_id":"cebpf4jnsgd1na2vs0mg"},{"bike_id":"ab870789-4728-43c7-b6e5-719645f9dfc0","system_id":"levelo_inurba_marseille","lat":43.30193,"lon":5.36622,"is_reserved":false,"is_disabled":false,"rental_uris":{"android":"levelo://app?vid=ab870789-4728-43c7-b6e5-719645f9dfc0","ios":"levelo://app?vid=ab870789-4728-43c7-b6e5-719645f9dfc0"},"vehicle_type_id":"4","last_reported":1736863745,"current_range_meters":36400,"station_id":"ce4bgrh2rcd13ifvqc8g","pricing_plan_id":"cebpf4jnsgd1na2vs0mg"},{"bike_id":"8832f1d0-2427-493b-8456-cac2b4047c3a","system_id":"levelo_inurba_marseille","lat":43.24542,"lon":5.39534,"is_reserved":false,"is_disabled":false,"rental_uris":{"android":"levelo://app?vid=8832f1d0-2427-493b-8456-cac2b4047c3a","ios":"levelo://app?vid=8832f1d0-2427-493b-8456-cac2b4047c3a"},"vehicle_type_id":"4","last_reported":1736863745,"current_range_meters":11200,"station_id":"ce4bhlp2rcd13ifvqgjg","pricing_plan_id":"cebpf4jnsgd1na2vs0mg"},{"bike_id":"70a4d228-2c41-4af9-a3eb-23abb00e4e21","system_id":"levelo_inurba_marseille","lat":43.2607,"lon":5.3938,"is_reserved":false,"is_disabled":false,"rental_uris":{"android":"levelo://app?vid=70a4d228-2c41-4af9-a3eb-23abb00e4e21","ios":"levelo://app?vid=70a4d228-2c41-4af9-a3eb-23abb00e4e21"},"vehicle_type_id":"4","last_reported":1736863745,"current_range_meters":14000,"station_id":"ce4bhh92rcd13ifvqfj0","pricing_plan_id":"cebpf4jnsgd1na2vs0mg"},{"bike_id":"e2c772f4-31c8-4d52-9c46-c064b6ec396f","system_id":"levelo_inurba_marseille","lat":43.28678,"lon":5.39595,"is_reserved":false,"is_disabled":false,"rental_uris":{"android":"levelo://app?vid=e2c772f4-31c8-4d52-9c46-c064b6ec396f","ios":"levelo://app?vid=e2c772f4-31c8-4d52-9c46-c064b6ec396f"},"vehicle_type_id":"4","last_reported":1736863745,"current_range_meters":32400,"station_id":"ce4bh292rcd13ifvqdg0","pricing_plan_id":"cebpf4jnsgd1na2vs0mg"},{"bike_id":"bc35a029-8a76-43a7-b191-cbcb438b657d","system_id":"levelo_inurba_marseille","lat":43.26564,"lon":5.39006,"is_reserved":false,"is_disabled":false,"rental_uris":{"android":"levelo://app?vid=bc35a029-8a76-43a7-b191-cbcb438b657d","ios":"levelo://app?vid=bc35a029-8a76-43a7-b191-cbcb438b657d"},"vehicle_type_id":"4","last_reported":1736863745,"current_range_meters":30800,"station_id":"ce4bhe12rcd13ifvqf30","pricing_plan_id":"cebpf4jnsgd1na2vs0mg"},{"bike_id":"4ca4be0a-6368-47fa-871a-914312f9653e","system_id":"levelo_inurba_marseille","lat":43.24549,"lon":5.39526,"is_reserved":false,"is_disabled":false,"rental_uris":{"android":"levelo://app?vid=4ca4be0a-6368-47fa-871a-914312f9653e","ios":"levelo://app?vid=4ca4be0a-6368-47fa-871a-914312f9653e"},"vehicle_type_id":"4","last_reported":1736863745,"current_range_meters":24800,"station_id":"ce4bhlp2rcd13ifvqgjg","pricing_plan_id":"cebpf4jnsgd1na2vs0mg"},{"bike_id":"5bb528b0-7ae2-48e6-ab60-167f85952f7b","system_id":"levelo_inurba_marseille","lat":43.287,"lon":5.37367,"is_reserved":false,"is_disabled":false,"rental_uris":{"android":"levelo://app?vid=5bb528b0-7ae2-48e6-ab60-167f85952f7b","ios":"levelo://app?vid=5bb528b0-7ae2-48e6-ab60-167f85952f7b"},"vehicle_type_id":"4","last_reported":1736863745,"current_range_meters":38400,"station_id":"ce4bh3p2rcd13ifvqdq0","pricing_plan_id":"cebpf4jnsgd1na2vs0mg"},{"bike_id":"ef3a1383-6b67-4eb1-b00a-d710cdfae89a","system_id":"levelo_inurba_marseille","lat":43.32339,"lon":5.40628,"is_reserved":false,"is_disabled":false,"rental_uris":{"android":"levelo://app?vid=ef3a1383-6b67-4eb1-b00a-d710cdfae89a","ios":"levelo://app?vid=ef3a1383-6b67-4eb1-b00a-d710cdfae89a"},"vehicle_type_id":"4","last_reported":1736863745,"current_range_meters":38800,"station_id":"ce4bhq92rcd13ifvqhjg","pricing_plan_id":"cebpf4jnsgd1na2vs0mg"},{"bike_id":"a02620a2-818b-4464-b2c4-016bf20c3041","system_id":"levelo_inurba_marseille","lat":43.28936,"lon":5.36638,"is_reserved":false,"is_disabled":false,"rental_uris":{"android":"levelo://app?vid=a02620a2-818b-4464-b2c4-016bf20c3041","ios":"levelo://app?vid=a02620a2-818b-4464-b2c4-016bf20c3041"},"vehicle_type_id":"4","last_reported":1736863745,"current_range_meters":24800,"station_id":"ce4bhap2rcd13ifvqek0","pricing_plan_id":"cebpf4jnsgd1na2vs0mg"},{"bike_id":"87339157-d961-4cf9-9dd5-00fb3246061f","system_id":"levelo_inurba_marseille","lat":43.25946,"lon":5.40911,"is_reserved":false,"is_disabled":false,"rental_uris":{"android":"levelo://app?vid=87339157-d961-4cf9-9dd5-00fb3246061f","ios":"levelo://app?vid=87339157-d961-4cf9-9dd5-00fb3246061f"},"vehicle_type_id":"4","last_reported":1736863745,"current_range_meters":27600,"station_id":"ce4bhm92rcd13ifvqglg","pricing_plan_id":"cebpf4jnsgd1na2vs0mg"},{"bike_id":"36ad50bc-d9bb-4836-81ae-1fb5f3c17c9e","system_id":"levelo_inurba_marseille","lat":43.28372,"lon":5.38625,"is_reserved":false,"is_disabled":false,"rental_uris":{"android":"levelo://app?vid=36ad50bc-d9bb-4836-81ae-1fb5f3c17c9e","ios":"levelo://app?vid=36ad50bc-d9bb-4836-81ae-1fb5f3c17c9e"},"vehicle_type_id":"4","last_reported":1736863745,"current_range_meters":39200,"station_id":"ce4bh492rcd13ifvqdvg","pricing_plan_id":"cebpf4jnsgd1na2vs0mg"},{"bike_id":"1dc64d76-fff0-460c-af84-eaea7614f529","system_id":"levelo_inurba_marseille","lat":43.26971,"lon":5.40232,"is_reserved":false,"is_disabled":false,"rental_uris":{"android":"levelo://app?vid=1dc64d76-fff0-460c-af84-eaea7614f529","ios":"levelo://app?vid=1dc64d76-fff0-460c-af84-eaea7614f529"},"vehicle_type_id":"4","last_reported":1736863745,"current_range_meters":38800,"station_id":"cjm6bp8fraef2m0cb0m0","pricing_plan_id":"cebpf4jnsgd1na2vs0mg"},{"bike_id":"a8750585-0715-4d02-92f4-12b0ba163807","system_id":"levelo_inurba_marseille","lat":43.29597,"lon":5.38086,"is_reserved":false,"is_disabled":false,"rental_uris":{"android":"levelo://app?vid=a8750585-0715-4d02-92f4-12b0ba163807","ios":"levelo://app?vid=a8750585-0715-4d02-92f4-12b0ba163807"},"vehicle_type_id":"4","last_reported":1736863745,"current_range_meters":29600,"station_id":"ce4bgl12rcd13ifvqbo0","pricing_plan_id":"cebpf4jnsgd1na2vs0mg"},{"bike_id":"7613a28d-3621-4754-a8e0-5cb4c404c0d4","system_id":"levelo_inurba_marseille","lat":43.27945,"lon":5.41045,"is_reserved":false,"is_disabled":false,"rental_uris":{"android":"levelo://app?vid=7613a28d-3621-4754-a8e0-5cb4c404c0d4","ios":"levelo://app?vid=7613a28d-3621-4754-a8e0-5cb4c404c0d4"},"vehicle_type_id":"4","last_reported":1736863745,"current_range_meters":36400,"station_id":"ce4bhnp2rcd13ifvqh0g","pricing_plan_id":"cebpf4jnsgd1na2vs0mg"},{"bike_id":"df28f796-5a0c-416c-8088-630e87a8cc6b","system_id":"levelo_inurba_marseille","lat":43.30312,"lon":5.3691,"is_reserved":false,"is_disabled":false,"rental_uris":{"android":"levelo://app?vid=df28f796-5a0c-416c-8088-630e87a8cc6b","ios":"levelo://app?vid=df28f796-5a0c-416c-8088-630e87a8cc6b"},"vehicle_type_id":"4","last_reported":1736863745,"current_range_meters":36400,"station_id":"ce4bgqh2rcd13ifvqc5g","pricing_plan_id":"cebpf4jnsgd1na2vs0mg"},{"bike_id":"c0fd2063-31ae-4171-af17-771dbb4fa212","system_id":"levelo_inurba_marseille","lat":43.22943,"lon":5.35377,"is_reserved":false,"is_disabled":false,"rental_uris":{"android":"levelo://app?vid=c0fd2063-31ae-4171-af17-771dbb4fa212","ios":"levelo://app?vid=c0fd2063-31ae-4171-af17-771dbb4fa212"},"vehicle_type_id":"4","last_reported":1736863745,"current_range_meters":38800,"station_id":"cpo3532slgdg3j2ikp40","pricing_plan_id":"cebpf4jnsgd1na2vs0mg"},{"bike_id":"f0b2ff43-c111-44f5-aeac-ce95fe758fba","system_id":"levelo_inurba_marseille","lat":43.29586,"lon":5.38112,"is_reserved":false,"is_disabled":false,"rental_uris":{"android":"levelo://app?vid=f0b2ff43-c111-44f5-aeac-ce95fe758fba","ios":"levelo://app?vid=f0b2ff43-c111-44f5-aeac-ce95fe758fba"},"vehicle_type_id":"4","last_reported":1736863745,"current_range_meters":39200,"station_id":"ce4bgl12rcd13ifvqbo0","pricing_plan_id":"cebpf4jnsgd1na2vs0mg"},{"bike_id":"b10e130e-a841-4205-b8d3-3385853b06e9","system_id":"levelo_inurba_marseille","lat":43.29602,"lon":5.3773,"is_reserved":false,"is_disabled":false,"rental_uris":{"android":"levelo://app?vid=b10e130e-a841-4205-b8d3-3385853b06e9","ios":"levelo://app?vid=b10e130e-a841-4205-b8d3-3385853b06e9"},"vehicle_type_id":"4","last_reported":1736863745,"current_range_meters":35600,"station_id":"ce4bgi92rcd13ifvqb90","pricing_plan_id":"cebpf4jnsgd1na2vs0mg"},{"bike_id":"f48415c3-6dea-4d9f-b682-074689fd450f","system_id":"levelo_inurba_marseille","lat":43.23152,"lon":5.43714,"is_reserved":false,"is_disabled":false,"rental_uris":{"android":"levelo://app?vid=f48415c3-6dea-4d9f-b682-074689fd450f","ios":"levelo://app?vid=f48415c3-6dea-4d9f-b682-074689fd450f"},"vehicle_type_id":"4","last_reported":1736863745,"current_range_meters":39200,"station_id":"ce4bhmp2rcd13ifvqgog","pricing_plan_id":"cebpf4jnsgd1na2vs0mg"},{"bike_id":"2da09f15-f00b-4ba6-822b-fe594399bf44","system_id":"levelo_inurba_marseille","lat":43.25493,"lon":5.37649,"is_reserved":false,"is_disabled":false,"rental_uris":{"android":"levelo://app?vid=2da09f15-f00b-4ba6-822b-fe594399bf44","ios":"levelo://app?vid=2da09f15-f00b-4ba6-822b-fe594399bf44"},"vehicle_type_id":"4","last_reported":1736863745,"current_range_meters":32800,"station_id":"ce4bhh12rcd13ifvqff0","pricing_plan_id":"cebpf4jnsgd1na2vs0mg"},{"bike_id":"4a5dfa0f-2f36-4bf6-91c5-f508632984a7","system_id":"levelo_inurba_marseille","lat":43.293704,"lon":5.378811,"is_reserved":false,"is_disabled":false,"rental_uris":{"android":"levelo://app?vid=4a5dfa0f-2f36-4bf6-91c5-f508632984a7","ios":"levelo://app?vid=4a5dfa0f-2f36-4bf6-91c5-f508632984a7"},"vehicle_type_id":"4","last_reported":1736863745,"current_range_meters":19600,"station_id":"ce4bgjh2rcd13ifvqbf0","pricing_plan_id":"cebpf4jnsgd1na2vs0mg"},{"bike_id":"c70d34d8-aed3-473e-977b-5539a95134f6","system_id":"levelo_inurba_marseille","lat":43.29901,"lon":5.38144,"is_reserved":false,"is_disabled":true,"rental_uris":{"android":"levelo://app?vid=c70d34d8-aed3-473e-977b-5539a95134f6","ios":"levelo://app?vid=c70d34d8-aed3-473e-977b-5539a95134f6"},"vehicle_type_id":"4","last_reported":1736863745,"current_range_meters":36800,"station_id":"ce4bgj12rcd13ifvqbc0","pricing_plan_id":"cebpf4jnsgd1na2vs0mg"},{"bike_id":"35fd5a18-3aee-41f8-9a59-d08ac1a36a9a","system_id":"levelo_inurba_marseille","lat":43.26947,"lon":5.38642,"is_reserved":false,"is_disabled":false,"rental_uris":{"android":"levelo://app?vid=35fd5a18-3aee-41f8-9a59-d08ac1a36a9a","ios":"levelo://app?vid=35fd5a18-3aee-41f8-9a59-d08ac1a36a9a"},"vehicle_type_id":"4","last_reported":1736863745,"current_range_meters":27200,"station_id":"ce4bhh92rcd13ifvqfh0","pricing_plan_id":"cebpf4jnsgd1na2vs0mg"},{"bike_id":"8e1700e2-2825-47f3-9373-6fc227095b7d","system_id":"levelo_inurba_marseille","lat":43.24162,"lon":5.36398,"is_reserved":false,"is_disabled":false,"rental_uris":{"android":"levelo://app?vid=8e1700e2-2825-47f3-9373-6fc227095b7d","ios":"levelo://app?vid=8e1700e2-2825-47f3-9373-6fc227095b7d"},"vehicle_type_id":"4","last_reported":1736863745,"current_range_meters":38800,"station_id":"cpo36qri1sfpv3e86is0","pricing_plan_id":"cebpf4jnsgd1na2vs0mg"},{"bike_id":"e5573715-09fa-4dab-b1d8-e7410696aa39","system_id":"levelo_inurba_marseille","lat":43.32364,"lon":5.36757,"is_reserved":false,"is_disabled":false,"rental_uris":{"android":"levelo://app?vid=e5573715-09fa-4dab-b1d8-e7410696aa39","ios":"levelo://app?vid=e5573715-09fa-4dab-b1d8-e7410696aa39"},"vehicle_type_id":"4","last_reported":1736863745,"current_range_meters":24400,"station_id":"ce4bhsh2rcd13ifvqi2g","pricing_plan_id":"cebpf4jnsgd1na2vs0mg"},{"bike_id":"df41006e-4366-4c07-8317-7cb669d059cc","system_id":"levelo_inurba_marseille","lat":43.28493,"lon":5.38415,"is_reserved":false,"is_disabled":false,"rental_uris":{"android":"levelo://app?vid=df41006e-4366-4c07-8317-7cb669d059cc","ios":"levelo://app?vid=df41006e-4366-4c07-8317-7cb669d059cc"},"vehicle_type_id":"4","last_reported":1736863745,"current_range_meters":24000,"station_id":"ce4bh512rcd13ifvqe3g","pricing_plan_id":"cebpf4jnsgd1na2vs0mg"},{"bike_id":"065e4cd0-50f7-4aa9-ae84-4166193516a6","system_id":"levelo_inurba_marseille","lat":43.23202,"lon":5.35563,"is_reserved":false,"is_disabled":false,"rental_uris":{"android":"levelo://app?vid=065e4cd0-50f7-4aa9-ae84-4166193516a6","ios":"levelo://app?vid=065e4cd0-50f7-4aa9-ae84-4166193516a6"},"vehicle_type_id":"4","last_reported":1736863745,"current_range_meters":30000,"station_id":"ce4bhu92rcd13ifvqi70","pricing_plan_id":"cebpf4jnsgd1na2vs0mg"},{"bike_id":"4a4d296c-e71a-4d73-8515-0b49a9079d8d","system_id":"levelo_inurba_marseille","lat":43.23189,"lon":5.39983,"is_reserved":false,"is_disabled":false,"rental_uris":{"android":"levelo://app?vid=4a4d296c-e71a-4d73-8515-0b49a9079d8d","ios":"levelo://app?vid=4a4d296c-e71a-4d73-8515-0b49a9079d8d"},"vehicle_type_id":"4","last_reported":1736863745,"current_range_meters":28800,"station_id":"ce4bhn12rcd13ifvqgqg","pricing_plan_id":"cebpf4jnsgd1na2vs0mg"},{"bike_id":"d28c64db-672d-4dc2-9aa8-36d7327fadae","system_id":"levelo_inurba_marseille","lat":43.31419,"lon":5.37404,"is_reserved":false,"is_disabled":false,"rental_uris":{"android":"levelo://app?vid=d28c64db-672d-4dc2-9aa8-36d7327fadae","ios":"levelo://app?vid=d28c64db-672d-4dc2-9aa8-36d7327fadae"},"vehicle_type_id":"4","last_reported":1736863745,"current_range_meters":11200,"station_id":"","pricing_plan_id":"cebpf4jnsgd1na2vs0mg"},{"bike_id":"12a77688-55d2-40a5-9210-63376f169f15","system_id":"levelo_inurba_marseille","lat":43.24996,"lon":5.38948,"is_reserved":false,"is_disabled":false,"rental_uris":{"android":"levelo://app?vid=12a77688-55d2-40a5-9210-63376f169f15","ios":"levelo://app?vid=12a77688-55d2-40a5-9210-63376f169f15"},"vehicle_type_id":"4","last_reported":1736863745,"current_range_meters":16800,"station_id":"ce4bhgp2rcd13ifvqfd0","pricing_plan_id":"cebpf4jnsgd1na2vs0mg"},{"bike_id":"97ba5494-7315-4fbe-94a8-ff45695ec7af","system_id":"levelo_inurba_marseille","lat":43.31707,"lon":5.37729,"is_reserved":false,"is_disabled":false,"rental_uris":{"android":"levelo://app?vid=97ba5494-7315-4fbe-94a8-ff45695ec7af","ios":"levelo://app?vid=97ba5494-7315-4fbe-94a8-ff45695ec7af"},"vehicle_type_id":"4","last_reported":1736863745,"current_range_meters":30800,"station_id":"ce4bgth2rcd13ifvqch0","pricing_plan_id":"cebpf4jnsgd1na2vs0mg"},{"bike_id":"16ef1338-d530-4211-96e9-39ba778f8e52","system_id":"levelo_inurba_marseille","lat":43.32063,"lon":5.4154,"is_reserved":false,"is_disabled":false,"rental_uris":{"android":"levelo://app?vid=16ef1338-d530-4211-96e9-39ba778f8e52","ios":"levelo://app?vid=16ef1338-d530-4211-96e9-39ba778f8e52"},"vehicle_type_id":"4","last_reported":1736863745,"current_range_meters":37600,"station_id":"ce4bhq92rcd13ifvqhkg","pricing_plan_id":"cebpf4jnsgd1na2vs0mg"},{"bike_id":"899f1ec4-8cb9-4bae-96ba-9b1408d80c6d","system_id":"levelo_inurba_marseille","lat":43.25497,"lon":5.37653,"is_reserved":false,"is_disabled":false,"rental_uris":{"android":"levelo://app?vid=899f1ec4-8cb9-4bae-96ba-9b1408d80c6d","ios":"levelo://app?vid=899f1ec4-8cb9-4bae-96ba-9b1408d80c6d"},"vehicle_type_id":"4","last_reported":1736863745,"current_range_meters":38800,"station_id":"ce4bhh12rcd13ifvqff0","pricing_plan_id":"cebpf4jnsgd1na2vs0mg"},{"bike_id":"4725ae05-b600-47b7-ba70-7352c8181ea5","system_id":"levelo_inurba_marseille","lat":43.27422,"lon":5.39028,"is_reserved":false,"is_disabled":true,"rental_uris":{"android":"levelo://app?vid=4725ae05-b600-47b7-ba70-7352c8181ea5","ios":"levelo://app?vid=4725ae05-b600-47b7-ba70-7352c8181ea5"},"vehicle_type_id":"4","last_reported":1736863745,"current_range_meters":0,"station_id":"","pricing_plan_id":"cebpf4jnsgd1na2vs0mg"},{"bike_id":"bdcc334a-2277-4196-affd-e55eef8a10d8","system_id":"levelo_inurba_marseille","lat":43.29798,"lon":5.38112,"is_reserved":false,"is_disabled":false,"rental_uris":{"android":"levelo://app?vid=bdcc334a-2277-4196-affd-e55eef8a10d8","ios":"levelo://app?vid=bdcc334a-2277-4196-affd-e55eef8a10d8"},"vehicle_type_id":"4","last_reported":1736863745,"current_range_meters":35600,"station_id":"ce4bgip2rcd13ifvqbb0","pricing_plan_id":"cebpf4jnsgd1na2vs0mg"},{"bike_id":"816aaa5d-55a2-4962-b4ce-765207637729","system_id":"levelo_inurba_marseille","lat":43.2705,"lon":5.40259,"is_reserved":false,"is_disabled":false,"rental_uris":{"android":"levelo://app?vid=816aaa5d-55a2-4962-b4ce-765207637729","ios":"levelo://app?vid=816aaa5d-55a2-4962-b4ce-765207637729"},"vehicle_type_id":"4","last_reported":1736863745,"current_range_meters":17600,"station_id":"ce4bhk92rcd13ifvqgc0","pricing_plan_id":"cebpf4jnsgd1na2vs0mg"},{"bike_id":"641e004e-9f75-4adc-a9cc-397d6a3cfc40","system_id":"levelo_inurba_marseille","lat":43.31359,"lon":5.36736,"is_reserved":false,"is_disabled":false,"rental_uris":{"android":"levelo://app?vid=641e004e-9f75-4adc-a9cc-397d6a3cfc40","ios":"levelo://app?vid=641e004e-9f75-4adc-a9cc-397d6a3cfc40"},"vehicle_type_id":"4","last_reported":1736863745,"current_range_meters":30000,"station_id":"ce4bgr92rcd13ifvqc6g","pricing_plan_id":"cebpf4jnsgd1na2vs0mg"},{"bike_id":"149a0840-bbfd-48b2-84c9-2a791f3253b3","system_id":"levelo_inurba_marseille","lat":43.3171,"lon":5.37761,"is_reserved":false,"is_disabled":false,"rental_uris":{"android":"levelo://app?vid=149a0840-bbfd-48b2-84c9-2a791f3253b3","ios":"levelo://app?vid=149a0840-bbfd-48b2-84c9-2a791f3253b3"},"vehicle_type_id":"4","last_reported":1736863745,"current_range_meters":34000,"station_id":"ce4bgth2rcd13ifvqch0","pricing_plan_id":"cebpf4jnsgd1na2vs0mg"},{"bike_id":"074a022d-d410-4c95-a343-24a02504a42e","system_id":"levelo_inurba_marseille","lat":43.29007,"lon":5.35612,"is_reserved":false,"is_disabled":false,"rental_uris":{"android":"levelo://app?vid=074a022d-d410-4c95-a343-24a02504a42e","ios":"levelo://app?vid=074a022d-d410-4c95-a343-24a02504a42e"},"vehicle_type_id":"4","last_reported":1736863745,"current_range_meters":35600,"station_id":"ce4bhb92rcd13ifvqen0","pricing_plan_id":"cebpf4jnsgd1na2vs0mg"},