{"last_updated":1745244581,"ttl":60,"version":"2.2","data":{"bikes":[{"bike_id":"44240549-9421-4c03-95d2-2098cbf479c3","system_id":"levelo_inurba_marseille","lat":43.28078,"lon":5.39656,"is_reserved":false,"is_disabled":false,"rental_uris":{"android":"levelo://app?vid=44240549-9421-4c03-95d2-2098cbf479c3","ios":"levelo://app?vid=44240549-9421-4c03-95d2-2098cbf479c3"},"vehicle_type_id":"4","last_reported":1745244581,"current_range_meters":2800,"station_id":"ce4bho12rcd13ifvqh2g","pricing_plan_id":"cebpf4jnsgd1na2vs0mg"},{"bike_id":"f5966543-4ece-494f-8e62-881304b2c88b","system_id":"levelo_inurba_marseille","lat":43.254972,"lon":5.376468,"is_reserved":false,"is_disabled":false,"rental_uris":{"android":"levelo://app?vid=f5966543-4ece-494f-8e62-881304b2c88b","ios":"levelo://app?vid=f5966543-4ece-494f-8e62-881304b2c88b"},"vehicle_type_id":"4","last_reported":1745244581,"current_range_meters":2800,"station_id":"ce4bhh12rcd13ifvqff0","pricing_plan_id":"cebpf4jnsgd1na2vs0mg"},{"bike_id":"137e9eb6-c22e-4414-9486-5cf179771147","system_id":"levelo_inurba_marseille","lat":43.26556,"lon":5.37281,"is_reserved":false,"is_disabled":false,"rental_uris":{"android":"levelo://app?vid=137e9eb6-c22e-4414-9486-5cf179771147","ios":"levelo://app?vid=137e9eb6-c22e-4414-9486-5cf179771147"},"vehicle_type_id":"4","last_reported":1745244581,"current_range_meters":2800,"station_id":"ce4bhg12rcd13ifvqf70","pricing_plan_id":"cebpf4jnsgd1na2vs0mg"},{"bike_id":"9475ad5d-b37e-4376-9999-f342ff9bcda3","system_id":"levelo_inurba_marseille","lat":43.30218,"lon":5.39465,"is_reserved":false,"is_disabled":false,"rental_uris":{"android":"levelo://app?vid=9475ad5d-b37e-4376-9999-f342ff9bcda3","ios":"levelo://app?vid=9475ad5d-b37e-4376-9999-f342ff9bcda3"},"vehicle_type_id":"4","last_reported":1745244581,"current_range_meters":2800,"station_id":"ce4bh0p2rcd13ifvqd70","pricing_plan_id":"cebpf4jnsgd1na2vs0mg"},{"bike_id":"24eebf7b-1ea1-4c27-bad0-beb476a3f302","system_id":"levelo_inurba_marseille","lat":43.23193,"lon":5.35552,"is_reserved":false,"is_disabled":false,"rental_uris":{"android":"levelo://app?vid=24eebf7b-1ea1-4c27-bad0-beb476a3f302","ios":"levelo://app?vid=24eebf7b-1ea1-4c27-bad0-beb476a3f302"},"vehicle_type_id":"4","last_reported":1745244581,"current_range_meters":2800,"station_id":"ce4bhu92rcd13ifvqi70","pricing_plan_id":"cebpf4jnsgd1na2vs0mg"},{"bike_id":"8cb3cccd-728a-46f3-8372-b8158bb4fe1f","system_id":"levelo_inurba_marseille","lat":43.2396,"lon":5.36642,"is_reserved":false,"is_disabled":false,"rental_uris":{"android":"levelo://app?vid=8cb3cccd-728a-46f3-8372-b8158bb4fe1f","ios":"levelo://app?vid=8cb3cccd-728a-46f3-8372-b8158bb4fe1f"},"vehicle_type_id":"4","last_reported":1745244581,"current_range_meters":2800,"station_id":"ce4bhi12rcd13ifvqfp0","pricing_plan_id":"cebpf4jnsgd1na2vs0mg"},{"bike_id":"9231847e-be55-43f3-9407-03f29a924ec4","system_id":"levelo_inurba_marseille","lat":43.21749,"lon":5.34601,"is_reserved":false,"is_disabled":false,"rental_uris":{"android":"levelo://app?vid=9231847e-be55-43f3-9407-03f29a924ec4","ios":"levelo://app?vid=9231847e-be55-43f3-9407-03f29a924ec4"},"vehicle_type_id":"4","last_reported":1745244581,"current_range_meters":2800,"station_id":"st_cvj6r9ubvosntc0bgbag","pricing_plan_id":"cebpf4jnsgd1na2vs0mg"},{"bike_id":"003bd80f-89c8-49fe-ae5e-4fd6b208ff80","system_id":"levelo_inurba_marseille","lat":43.29538,"lon":5.38538,"is_reserved":false,"is_disabled":false,"rental_uris":{"android":"levelo://app?vid=003bd80f-89c8-49fe-ae5e-4fd6b208ff80","ios":"levelo://app?vid=003bd80f-89c8-49fe-ae5e-4fd6b208ff80"},"vehicle_type_id":"4","last_reported":1745244581,"current_range_meters":2800,"station_id":"ce4bgih2rcd13ifvqba0","pricing_plan_id":"cebpf4jnsgd1na2vs0mg"},{"bike_id":"0c5a6920-3166-49ea-9045-51027bc82142","system_id":"levelo_inurba_marseille","lat":43.27208,"lon":5.3918,"is_reserved":false,"is_disabled":false,"rental_uris":{"android":"levelo://app?vid=0c5a6920-3166-49ea-9045-51027bc82142","ios":"levelo://app?vid=0c5a6920-3166-49ea-9045-51027bc82142"},"vehicle_type_id":"4","last_reported":1745244581,"current_range_meters":2800,"station_id":"ce4bhhp2rcd13ifvqfm0","pricing_plan_id":"cebpf4jnsgd1na2vs0mg"},{"bike_id":"4e415154-9182-46f7-a737-cb27a1d7448b","system_id":"levelo_inurba_marseille","lat":43.27372,"lon":5.36255,"is_reserved":false,"is_disabled":false,"rental_uris":{"android":"levelo://app?vid=4e415154-9182-46f7-a737-cb27a1d7448b","ios":"levelo://app?vid=4e415154-9182-46f7-a737-cb27a1d7448b"},"vehicle_type_id":"4","last_reported":1745244581,"current_range_meters":3200,"station_id":"ce4bhbh2rcd13ifvqeo0","pricing_plan_id":"cebpf4jnsgd1na2vs0mg"},{"bike_id":"0131acde-1f98-4483-b987-283339794b75","system_id":"levelo_inurba_marseille","lat":43.29977,"lon":5.38486,"is_reserved":false,"is_disabled":false,"rental_uris":{"android":"levelo://app?vid=0131acde-1f98-4483-b987-283339794b75","ios":"levelo://app?vid=0131acde-1f98-4483-b987-283339794b75"},"vehicle_type_id":"4","last_reported":1745244581,"current_range_meters":4400,"station_id":"ce4bgj92rcd13ifvqbd0","pricing_plan_id":"cebpf4jnsgd1na2vs0mg"},{"bike_id":"54444363-46de-4101-8445-696b18774d89","system_id":"levelo_inurba_marseille","lat":43.28516,"lon":5.38367,"is_reserved":false,"is_disabled":false,"rental_uris":{"android":"levelo://app?vid=54444363-46de-4101-8445-696b18774d89","ios":"levelo://app?vid=54444363-46de-4101-8445-696b18774d89"},"vehicle_type_id":"4","last_reported":1745244581,"current_range_meters":3200,"station_id":"","pricing_plan_id":"cebpf4jnsgd1na2vs0mg"},{"bike_id":"8a18319a-579e-47ed-8342-d660cda7f48b","system_id":"levelo_inurba_marseille","lat":43.241668,"lon":5.363958,"is_reserved":false,"is_disabled":false,"rental_uris":{"android":"levelo://app?vid=8a18319a-579e-47ed-8342-d660cda7f48b","ios":"levelo://app?vid=8a18319a-579e-47ed-8342-d660cda7f48b"},"vehicle_type_id":"4","last_reported":1745244581,"current_range_meters":3600,"station_id":"cpo36qri1sfpv3e86is0","pricing_plan_id":"cebpf4jnsgd1na2vs0mg"},{"bike_id":"d8910626-57f9-46fd-9f88-cb9f8bb81597","system_id":"levelo_inurba_marseille","lat":43.28037,"lon":5.36942,"is_reserved":false,"is_disabled":false,"rental_uris":{"android":"levelo://app?vid=d8910626-57f9-46fd-9f88-cb9f8bb81597","ios":"levelo://app?vid=d8910626-57f9-46fd-9f88-cb9f8bb81597"},"vehicle_type_id":"4","last_reported":1745244581,"current_range_meters":3600,"station_id":"ce4bha12rcd13ifvqef0","pricing_plan_id":"cebpf4jnsgd1na2vs0mg"},{"bike_id":"d8671470-41f9-4fdf-8b52-399b2de50204","system_id":"levelo_inurba_marseille","lat":43.217465,"lon":5.345987,"is_reserved":false,"is_disabled":false,"rental_uris":{"android":"levelo://app?vid=d8671470-41f9-4fdf-8b52-399b2de50204","ios":"levelo://app?vid=d8671470-41f9-4fdf-8b52-399b2de50204"},"vehicle_type_id":"4","last_reported":1745244581,"current_range_meters":3200,"station_id":"ce4bh0h2rcd13ifvqd40","pricing_plan_id":"cebpf4jnsgd1na2vs0mg"},{"bike_id":"c6023d7b-0c8f-4a5e-8eb4-dd919f7bc1c0","system_id":"levelo_inurba_marseille","lat":43.27374,"lon":5.36248,"is_reserved":false,"is_disabled":true,"rental_uris":{"android":"levelo://app?vid=c6023d7b-0c8f-4a5e-8eb4-dd919f7bc1c0","ios":"levelo://app?vid=c6023d7b-0c8f-4a5e-8eb4-dd919f7bc1c0"},"vehicle_type_id":"4","last_reported":1745244581,"current_range_meters":3600,"station_id":"ce4bhbh2rcd13ifvqeo0","pricing_plan_id":"cebpf4jnsgd1na2vs0mg"},{"bike_id":"d6ec3e92-59fa-4f6e-b80c-79b3fdc4417c","system_id":"levelo_inurba_marseille","lat":43.309886,"lon":5.401058,"is_reserved":false,"is_disabled":false,"rental_uris":{"android":"levelo://app?vid=d6ec3e92-59fa-4f6e-b80c-79b3fdc4417c","ios":"levelo://app?vid=d6ec3e92-59fa-4f6e-b80c-79b3fdc4417c"},"vehicle_type_id":"4","last_reported":1745244581,"current_range_meters":3600,"station_id":"ce4bh112rcd13ifvqda0","pricing_plan_id":"cebpf4jnsgd1na2vs0mg"},{"bike_id":"4520da38-f2ee-475e-9e95-86ada3042bbd","system_id":"levelo_inurba_marseille","lat":43.28615,"lon":5.35101,"is_reserved":false,"is_disabled":false,"rental_uris":{"android":"levelo://app?vid=4520da38-f2ee-475e-9e95-86ada3042bbd","ios":"levelo://app?vid=4520da38-f2ee-475e-9e95-86ada3042bbd"},"vehicle_type_id":"4","last_reported":1745244581,"current_range_meters":4000,"station_id":"ce4bhch2rcd13ifvqeug","pricing_plan_id":"cebpf4jnsgd1na2vs0mg"},{"bike_id":"6d41a1f2-2786-40c1-bb3e-69aff59d45e7","system_id":"levelo_inurba_marseille","lat":43.21746,"lon":5.346,"is_reserved":false,"is_disabled":false,"rental_uris":{"android":"levelo://app?vid=6d41a1f2-2786-40c1-bb3e-69aff59d45e7","ios":"levelo://app?vid=6d41a1f2-2786-40c1-bb3e-69aff59d45e7"},"vehicle_type_id":"4","last_reported":1745244581,"current_range_meters":4000,"station_id":"st_cvj6r9ubvosntc0bgbag","pricing_plan_id":"cebpf4jnsgd1na2vs0mg"},{"bike_id":"d2606be6-657c-4219-aeab-7f46231214e7","system_id":"levelo_inurba_marseille","lat":43.23194,"lon":5.35553,"is_reserved":false,"is_disabled":false,"rental_uris":{"android":"levelo://app?vid=d2606be6-657c-4219-aeab-7f46231214e7","ios":"levelo://app?vid=d2606be6-657c-4219-aeab-7f46231214e7"},"vehicle_type_id":"4","last_reported":1745244581,"current_range_meters":4000,"station_id":"ce4bhu92rcd13ifvqi70","pricing_plan_id":"cebpf4jnsgd1na2vs0mg"},{"bike_id":"38a0bc52-7e00-486e-a093-47ed153541ca","system_id":"levelo_inurba_marseille","lat":43.23181,"lon":5.3555,"is_reserved":false,"is_disabled":false,"rental_uris":{"android":"levelo://app?vid=38a0bc52-7e00-486e-a093-47ed153541ca","ios":"levelo://app?vid=38a0bc52-7e00-486e-a093-47ed153541ca"},"vehicle_type_id":"4","last_reported":1745244581,"current_range_meters":4400,"station_id":"ce4bhu92rcd13ifvqi70","pricing_plan_id":"cebpf4jnsgd1na2vs0mg"},{"bike_id":"dea4c88b-2c2f-43a7-bd81-9c9b914276fd","system_id":"levelo_inurba_marseille","lat":43.231913,"lon":5.355539,"is_reserved":false,"is_disabled":false,"rental_uris":{"android":"levelo://app?vid=dea4c88b-2c2f-43a7-bd81-9c9b914276fd","ios":"levelo://app?vid=dea4c88b-2c2f-43a7-bd81-9c9b914276fd"},"vehicle_type_id":"4","last_reported":1745244581,"current_range_meters":4400,"station_id":"ce4bhu92rcd13ifvqi70","pricing_plan_id":"cebpf4jnsgd1na2vs0mg"},{"bike_id":"b2a81ebd-ff90-4ade-b826-1627f5c9a31e","system_id":"levelo_inurba_marseille","lat":43.26552,"lon":5.37283,"is_reserved":false,"is_disabled":false,"rental_uris":{"android":"levelo://app?vid=b2a81ebd-ff90-4ade-b826-1627f5c9a31e","ios":"levelo://app?vid=b2a81ebd-ff90-4ade-b826-1627f5c9a31e"},"vehicle_type_id":"4","last_reported":1745244581,"current_range_meters":4400,"station_id":"ce4bhg12rcd13ifvqf70","pricing_plan_id":"cebpf4jnsgd1na2vs0mg"},{"bike_id":"e5e03387-f01f-4bc1-a445-92cab0caf200","system_id":"levelo_inurba_marseille","lat":43.293748,"lon":5.378481,"is_reserved":false,"is_disabled":false,"rental_uris":{"android":"levelo://app?vid=e5e03387-f01f-4bc1-a445-92cab0caf200","ios":"levelo://app?vid=e5e03387-f01f-4bc1-a445-92cab0caf200"},"vehicle_type_id":"4","last_reported":1745244581,"current_range_meters":3200,"station_id":"ce4bgjh2rcd13ifvqbf0","pricing_plan_id":"cebpf4jnsgd1na2vs0mg"},{"bike_id":"c9e99fda-014f-4def-b440-f973e4d167dc","system_id":"levelo_inurba_marseille","lat":43.23192,"lon":5.35549,"is_reserved":false,"is_disabled":false,"rental_uris":{"android":"levelo://app?vid=c9e99fda-014f-4def-b440-f973e4d167dc","ios":"levelo://app?vid=c9e99fda-014f-4def-b440-f973e4d167dc"},"vehicle_type_id":"4","last_reported":1745244581,"current_range_meters":4400,"station_id":"ce4bhu92rcd13ifvqi70","pricing_plan_id":"cebpf4jnsgd1na2vs0mg"},{"bike_id":"9bbbf7dc-1ad2-4002-b85d-f84566322539","system_id":"levelo_inurba_marseille","lat":43.23148,"lon":5.43708,"is_reserved":false,"is_disabled":false,"rental_uris":{"android":"levelo://app?vid=9bbbf7dc-1ad2-4002-b85d-f84566322539","ios":"levelo://app?vid=9bbbf7dc-1ad2-4002-b85d-f84566322539"},"vehicle_type_id":"4","last_reported":1745244581,"current_range_meters":4800,"station_id":"ce4bhmp2rcd13ifvqgog","pricing_plan_id":"cebpf4jnsgd1na2vs0mg"},{"bike_id":"4a28d7de-16fb-4e47-aea7-d5adc3d56811","system_id":"levelo_inurba_marseille","lat":43.31037,"lon":5.40067,"is_reserved":false,"is_disabled":false,"rental_uris":{"android":"levelo://app?vid=4a28d7de-16fb-4e47-aea7-d5adc3d56811","ios":"levelo://app?vid=4a28d7de-16fb-4e47-aea7-d5adc3d56811"},"vehicle_type_id":"4","last_reported":1745244581,"current_range_meters":4800,"station_id":"ce4bh092rcd13ifvqd30","pricing_plan_id":"cebpf4jnsgd1na2vs0mg"},{"bike_id":"195484ef-2d5e-42f8-a62c-e16be74213f7","system_id":"levelo_inurba_marseille","lat":43.23191,"lon":5.39978,"is_reserved":false,"is_disabled":false,"rental_uris":{"android":"levelo://app?vid=195484ef-2d5e-42f8-a62c-e16be74213f7","ios":"levelo://app?vid=195484ef-2d5e-42f8-a62c-e16be74213f7"},"vehicle_type_id":"4","last_reported":1745244581,"current_range_meters":4800,"station_id":"ce4bhn12rcd13ifvqgqg","pricing_plan_id":"cebpf4jnsgd1na2vs0mg"},{"bike_id":"c82056fa-be43-4e8c-bee3-9e92f3a8ce5a","system_id":"levelo_inurba_marseille","lat":43.24076,"lon":5.37756,"is_reserved":false,"is_disabled":false,"rental_uris":{"android":"levelo://app?vid=c82056fa-be43-4e8c-bee3-9e92f3a8ce5a","ios":"levelo://app?vid=c82056fa-be43-4e8c-bee3-9e92f3a8ce5a"},"vehicle_type_id":"4","last_reported":1745244581,"current_range_meters":4800,"station_id":"ce4bhnp2rcd13ifvqgvg","pricing_plan_id":"cebpf4jnsgd1na2vs0mg"},{"bike_id":"e1682aac-61e1-4dd7-8d99-ae768e416cec","system_id":"levelo_inurba_marseille","lat":43.22929,"lon":5.35376,"is_reserved":false,"is_disabled":false,"rental_uris":{"android":"levelo://app?vid=e1682aac-61e1-4dd7-8d99-ae768e416cec","ios":"levelo://app?vid=e1682aac-61e1-4dd7-8d99-ae768e416cec"},"vehicle_type_id":"4","last_reported":1745244581,"current_range_meters":4800,"station_id":"cpo3532slgdg3j2ikp40","pricing_plan_id":"cebpf4jnsgd1na2vs0mg"},{"bike_id":"2bee7ce7-c705-482e-9827-7659a27d57a1","system_id":"levelo_inurba_marseille","lat":43.29845,"lon":5.36273,"is_reserved":false,"is_disabled":false,"rental_uris":{"android":"levelo://app?vid=2bee7ce7-c705-482e-9827-7659a27d57a1","ios":"levelo://app?vid=2bee7ce7-c705-482e-9827-7659a27d57a1"},"vehicle_type_id":"4","last_reported":1745244581,"current_range_meters":5600,"station_id":"ce4bgpp2rcd13ifvqc3g","pricing_plan_id":"cebpf4jnsgd1na2vs0mg"},{"bike_id":"ccf372df-3711-43dc-b90a-ebe0f39b179b","system_id":"levelo_inurba_marseille","lat":43.28666,"lon":5.36347,"is_reserved":false,"is_disabled":false,"rental_uris":{"android":"levelo://app?vid=ccf372df-3711-43dc-b90a-ebe0f39b179b","ios":"levelo://app?vid=ccf372df-3711-43dc-b90a-ebe0f39b179b"},"vehicle_type_id":"4","last_reported":1745244581,"current_range_meters":5600,"station_id":"ce4bhah2rcd13ifvqej0","pricing_plan_id":"cebpf4jnsgd1na2vs0mg"},{"bike_id":"b0df153f-c0a2-4966-87fb-785b5737680b","system_id":"levelo_inurba_marseille","lat":43.299487,"lon":5.385071,"is_reserved":false,"is_disabled":false,"rental_uris":{"android":"levelo://app?vid=b0df153f-c0a2-4966-87fb-785b5737680b","ios":"levelo://app?vid=b0df153f-c0a2-4966-87fb-785b5737680b"},"vehicle_type_id":"4","last_reported":1745244581,"current_range_meters":5600,"station_id":"ce4bhbh2rcd13ifvqeo0","pricing_plan_id":"cebpf4jnsgd1na2vs0mg"},{"bike_id":"d8cd8970-9c5b-4da2-b902-5d9bd63f3b82","system_id":"levelo_inurba_marseille","lat":43.28617,"lon":5.35102,"is_reserved":false,"is_disabled":false,"rental_uris":{"android":"levelo://app?vid=d8cd8970-9c5b-4da2-b902-5d9bd63f3b82","ios":"levelo://app?vid=d8cd8970-9c5b-4da2-b902-5d9bd63f3b82"},"vehicle_type_id":"4","last_reported":1745244581,"current_range_meters":5600,"station_id":"ce4bhch2rcd13ifvqeug","pricing_plan_id":"cebpf4jnsgd1na2vs0mg"},{"bike_id":"45b4cd11-ed39-4f58-89ff-e7aeb4eb2ed5","system_id":"levelo_inurba_marseille","lat":43.317269,"lon":5.424022,"is_reserved":false,"is_disabled":false,"rental_uris":{"android":"levelo://app?vid=45b4cd11-ed39-4f58-89ff-e7aeb4eb2ed5","ios":"levelo://app?vid=45b4cd11-ed39-4f58-89ff-e7aeb4eb2ed5"},"vehicle_type_id":"4","last_reported":1745244581,"current_range_meters":5600,"station_id":"ce4bhp92rcd13ifvqhbg","pricing_plan_id":"cebpf4jnsgd1na2vs0mg"},{"bike_id":"3d780dc8-a8f8-43bd-b6ee-aea363baaae3","system_id":"levelo_inurba_marseille","lat":43.301433,"lon":5.38079,"is_reserved":false,"is_disabled":false,"rental_uris":{"android":"levelo://app?vid=3d780dc8-a8f8-43bd-b6ee-aea363baaae3","ios":"levelo://app?vid=3d780dc8-a8f8-43bd-b6ee-aea363baaae3"},"vehicle_type_id":"4","last_reported":1745244581,"current_range_meters":5600,"station_id":"ce4bgs12rcd13ifvqcag","pricing_plan_id":"cebpf4jnsgd1na2vs0mg"},{"bike_id":"44d8eb12-0299-4b05-bc0b-b65d9bedf914","system_id":"levelo_inurba_marseille","lat":43.27374,"lon":5.36253,"is_reserved":false,"is_disabled":false,"rental_uris":{"android":"levelo://app?vid=44d8eb12-0299-4b05-bc0b-b65d9bedf914","ios":"levelo://app?vid=44d8eb12-0299-4b05-bc0b-b65d9bedf914"},"vehicle_type_id":"4","last_reported":1745244581,"current_range_meters":4800,"station_id":"ce4bhbh2rcd13ifvqeo0","pricing_plan_id":"cebpf4jnsgd1na2vs0mg"},{"bike_id":"e2130d6b-52b6-4883-903d-c1659f0ea64d","system_id":"levelo_inurba_marseille","lat":43.23191,"lon":5.39973,"is_reserved":false,"is_disabled":false,"rental_uris":{"android":"levelo://app?vid=e2130d6b-52b6-4883-903d-c1659f0ea64d","ios":"levelo://app?vid=e2130d6b-52b6-4883-903d-c1659f0ea64d"},"vehicle_type_id":"4","last_reported":1745244581,"current_range_meters":6000,"station_id":"ce4bhn12rcd13ifvqgqg","pricing_plan_id":"cebpf4jnsgd1na2vs0mg"},{"bike_id":"943451fc-f92f-49cf-a034-81d39812a3fc","system_id":"levelo_inurba_marseille","lat":43.288732,"lon":5.372324,"is_reserved":false,"is_disabled":false,"rental_uris":{"android":"levelo://app?vid=943451fc-f92f-49cf-a034-81d39812a3fc","ios":"levelo://app?vid=943451fc-f92f-49cf-a034-81d39812a3fc"},"vehicle_type_id":"4","last_reported":1745244581,"current_range_meters":5600,"station_id":"ce4bh9p2rcd13ifvqec0","pricing_plan_id":"cebpf4jnsgd1na2vs0mg"},{"bike_id":"74ed3342-9d25-478b-9688-bb28831f7a4d","system_id":"levelo_inurba_marseille","lat":43.29266,"lon":5.37625,"is_reserved":false,"is_disabled":false,"rental_uris":{"android":"levelo://app?vid=74ed3342-9d25-478b-9688-bb28831f7a4d","ios":"levelo://app?vid=74ed3342-9d25-478b-9688-bb28831f7a4d"},"vehicle_type_id":"4","last_reported":1745244581,"current_range_meters":6000,"station_id":"ce4bgi12rcd13ifvqb80","pricing_plan_id":"cebpf4jnsgd1na2vs0mg"},{"bike_id":"8cc2d7d0-b85e-4afa-b4a5-09ea64073393","system_id":"levelo_inurba_marseille","lat":43.23188,"lon":5.35566,"is_reserved":false,"is_disabled":false,"rental_uris":{"android":"levelo://app?vid=8cc2d7d0-b85e-4afa-b4a5-09ea64073393","ios":"levelo://app?vid=8cc2d7d0-b85e-4afa-b4a5-09ea64073393"},"vehicle_type_id":"4","last_reported":1745244581,"current_range_meters":6000,"station_id":"ce4bhu92rcd13ifvqi70","pricing_plan_id":"cebpf4jnsgd1na2vs0mg"},{"bike_id":"13dcc10c-4cac-4cf2-9318-07e242720dc9","system_id":"levelo_inurba_marseille","lat":43.312,"lon":5.37715,"is_reserved":false,"is_disabled":false,"rental_uris":{"android":"levelo://app?vid=13dcc10c-4cac-4cf2-9318-07e242720dc9","ios":"levelo://app?vid=13dcc10c-4cac-4cf2-9318-07e242720dc9"},"vehicle_type_id":"4","last_reported":1745244581,"current_range_meters":6000,"station_id":"","pricing_plan_id":"cebpf4jnsgd1na2vs0mg"},{"bike_id":"c9ddea62-7da4-478b-a027-29ffcbf4cece","system_id":"levelo_inurba_marseille","lat":43.23178,"lon":5.39987,"is_reserved":false,"is_disabled":false,"rental_uris":{"android":"levelo://app?vid=c9ddea62-7da4-478b-a027-29ffcbf4cece","ios":"levelo://app?vid=c9ddea62-7da4-478b-a027-29ffcbf4cece"},"vehicle_type_id":"4","last_reported":1745244581,"current_range_meters":5600,"station_id":"ce4bhn12rcd13ifvqgqg","pricing_plan_id":"cebpf4jnsgd1na2vs0mg"},{"bike_id":"60d0185c-ff68-4880-96e6-b57a05e17bd1","system_id":"levelo_inurba_marseille","lat":43.24387,"lon":5.37058,"is_reserved":false,"is_disabled":false,"rental_uris":{"android":"levelo://app?vid=60d0185c-ff68-4880-96e6-b57a05e17bd1","ios":"levelo://app?vid=60d0185c-ff68-4880-96e6-b57a05e17bd1"},"vehicle_type_id":"4","last_reported":1745244581,"current_range_meters":6000,"station_id":"ce4bhhh2rcd13ifvqfk0","pricing_plan_id":"cebpf4jnsgd1na2vs0mg"},{"bike_id":"d4424e18-5f4e-40ce-bd9c-43c06e5e73a5","system_id":"levelo_inurba_marseille","lat":43.31727,"lon":5.42398,"is_reserved":false,"is_disabled":false,"rental_uris":{"android":"levelo://app?vid=d4424e18-5f4e-40ce-bd9c-43c06e5e73a5","ios":"levelo://app?vid=d4424e18-5f4e-40ce-bd9c-43c06e5e73a5"},"vehicle_type_id":"4","last_reported":1745244581,"current_range_meters":6400,"station_id":"ce4bhp92rcd13ifvqhbg","pricing_plan_id":"cebpf4jnsgd1na2vs0mg"},{"bike_id":"b7ca711f-a2ee-4682-8001-7a1562f9265f","system_id":"levelo_inurba_marseille","lat":43.2603,"lon":5.37544,"is_reserved":false,"is_disabled":false,"rental_uris":{"android":"levelo://app?vid=b7ca711f-a2ee-4682-8001-7a1562f9265f","ios":"levelo://app?vid=b7ca711f-a2ee-4682-8001-7a1562f9265f"},"vehicle_type_id":"4","last_reported":1745244581,"current_range_meters":6000,"station_id":"ce4bhgh2rcd13ifvqfa0","pricing_plan_id":"cebpf4jnsgd1na2vs0mg"},{"bike_id":"f0bd0b81-28f5-497b-8ab0-1a33e9f15689","system_id":"levelo_inurba_marseille","lat":43.23966,"lon":5.36627,"is_reserved":false,"is_disabled":false,"rental_uris":{"android":"levelo://app?vid=f0bd0b81-28f5-497b-8ab0-1a33e9f15689","ios":"levelo://app?vid=f0bd0b81-28f5-497b-8ab0-1a33e9f15689"},"vehicle_type_id":"4","last_reported":1745244581,"current_range_meters":6400,"station_id":"ce4bhi12rcd13ifvqfp0","pricing_plan_id":"cebpf4jnsgd1na2vs0mg"},{"bike_id":"0b2e5337-5d94-4794-8229-06b76993f9e2","system_id":"levelo_inurba_marseille","lat":43.26199,"lon":5.3793,"is_reserved":false,"is_disabled":false,"rental_uris":{"android":"levelo://app?vid=0b2e5337-5d94-4794-8229-06b76993f9e2","ios":"levelo://app?vid=0b2e5337-5d94-4794-8229-06b76993f9e2"},"vehicle_type_id":"4","last_reported":1745244581,"current_range_meters":6400,"station_id":"ce4bhjp2rcd13ifvqg90","pricing_plan_id":"cebpf4jnsgd1na2vs0mg"},{"bike_id":"4f0b25c3-2f51-4c00-9f56-69333455e756","system_id":"levelo_inurba_marseille","lat":43.278675,"lon":5.392935,"is_reserved":false,"is_disabled":false,"rental_uris":{"android":"levelo://app?vid=4f0b25c3-2f51-4c00-9f56-69333455e756","ios":"levelo://app?vid=4f0b25c3-2f51-4c00-9f56-69333455e756"},"vehicle_type_id":"4","last_reported":1745244581,"current_range_meters":6400,"station_id":"","pricing_plan_id":"cebpf4jnsgd1na2vs0mg"},{"bike_id":"7529a6da-3a71-4c8d-be91-bc88aa90bd81","system_id":"levelo_inurba_marseille","lat":43.24805,"lon":5.37456,"is_reserved":false,"is_disabled":false,"rental_uris":{"android":"levelo://app?vid=7529a6da-3a71-4c8d-be91-bc88aa90bd81","ios":"levelo://app?vid=7529a6da-3a71-4c8d-be91-bc88aa90bd81"},"vehicle_type_id":"4","last_reported":1745244581,"current_range_meters":6400,"station_id":"ce4bhgh2rcd13ifvqfb0","pricing_plan_id":"cebpf4jnsgd1na2vs0mg"},{"bike_id":"ba1e2be4-e982-434d-ad42-5f3c0cd515c3","system_id":"levelo_inurba_marseille","lat":43.24168,"lon":5.36394,"is_reserved":false,"is_disabled":false,"rental_uris":{"android":"levelo://app?vid=ba1e2be4-e982-434d-ad42-5f3c0cd515c3","ios":"levelo://app?vid=ba1e2be4-e982-434d-ad42-5f3c0cd515c3"},"vehicle_type_id":"4","last_reported":1745244581,"current_range_meters":6800,"station_id":"cpo36qri1sfpv3e86is0","pricing_plan_id":"cebpf4jnsgd1na2vs0mg"},{"bike_id":"d10dcf77-c395-41eb-a135-40aae42ae603","system_id":"levelo_inurba_marseille","lat":43.26034,"lon":5.3754,"is_reserved":false,"is_disabled":false,"rental_uris":{"android":"levelo://app?vid=d10dcf77-c395-41eb-a135-40aae42ae603","ios":"levelo://app?vid=d10dcf77-c395-41eb-a135-40aae42ae603"},"vehicle_type_id":"4","last_reported":1745244581,"current_range_meters":6800,"station_id":"ce4bhgh2rcd13ifvqfa0","pricing_plan_id":"cebpf4jnsgd1na2vs0mg"},{"bike_id":"adee58d8-963d-416c-8a37-f41852b9af58","system_id":"levelo_inurba_marseille","lat":43.2293,"lon":5.35375,"is_reserved":false,"is_disabled":false,"rental_uris":{"android":"levelo://app?vid=adee58d8-963d-416c-8a37-f41852b9af58","ios":"levelo://app?vid=adee58d8-963d-416c-8a37-f41852b9af58"},"vehicle_type_id":"4","last_reported":1745244581,"current_range_meters":6800,"station_id":"cpo3532slgdg3j2ikp40","pricing_plan_id":"cebpf4jnsgd1na2vs0mg"},{"bike_id":"93ad5fdd-d873-41a7-ae6d-d37b1569e718","system_id":"levelo_inurba_marseille","lat":43.284821,"lon":5.384154,"is_reserved":false,"is_disabled":false,"rental_uris":{"android":"levelo://app?vid=93ad5fdd-d873-41a7-ae6d-d37b1569e718","ios":"levelo://app?vid=93ad5fdd-d873-41a7-ae6d-d37b1569e718"},"vehicle_type_id":"4","last_reported":1745244581,"current_range_meters":6800,"station_id":"ce4bh512rcd13ifvqe3g","pricing_plan_id":"cebpf4jnsgd1na2vs0mg"},{"bike_id":"26beeca4-1a02-4260-b34b-0b8e9d920559","system_id":"levelo_inurba_marseille","lat":43.23967,"lon":5.36627,"is_reserved":false,"is_disabled":false,"rental_uris":{"android":"levelo://app?vid=26beeca4-1a02-4260-b34b-0b8e9d920559","ios":"levelo://app?vid=26beeca4-1a02-4260-b34b-0b8e9d920559"},"vehicle_type_id":"4","last_reported":1745244581,"current_range_meters":6800,"station_id":"ce4bhi12rcd13ifvqfp0","pricing_plan_id":"cebpf4jnsgd1na2vs0mg"},{"bike_id":"e09634ee-16cf-4c84-8d0d-584cc95807ef","system_id":"levelo_inurba_marseille","lat":43.27359,"lon":5.36247,"is_reserved":false,"is_disabled":false,"rental_uris":{"android":"levelo://app?vid=e09634ee-16cf-4c84-8d0d-584cc95807ef","ios":"levelo://app?vid=e09634ee-16cf-4c84-8d0d-584cc95807ef"},"vehicle_type_id":"4","last_reported":1745244581,"current_range_meters":6800,"station_id":"ce4bhbh2rcd13ifvqeo0","pricing_plan_id":"cebpf4jnsgd1na2vs0mg"},{"bike_id":"02207823-565e-4c4a-829b-42236c0c12f2","system_id":"levelo_inurba_marseille","lat":43.21194,"lon":5.35066,"is_reserved":false,"is_disabled":false,"rental_uris":{"android":"levelo://app?vid=02207823-565e-4c4a-829b-42236c0c12f2","ios":"levelo://app?vid=02207823-565e-4c4a-829b-42236c0c12f2"},"vehicle_type_id":"4","last_reported":1745244581,"current_range_meters":7200,"station_id":"st_cvj6sg6p6f1abm77japg","pricing_plan_id":"cebpf4jnsgd1na2vs0mg"},{"bike_id":"d1ec427a-b7da-41aa-ba05-de4a4348f35c","system_id":"levelo_inurba_marseille","lat":43.27207,"lon":5.39183,"is_reserved":false,"is_disabled":false,"rental_uris":{"android":"levelo://app?vid=d1ec427a-b7da-41aa-ba05-de4a4348f35c","ios":"levelo://app?vid=d1ec427a-b7da-41aa-ba05-de4a4348f35c"},"vehicle_type_id":"4","last_reported":1745244581,"current_range_meters":7200,"station_id":"ce4bhhp2rcd13ifvqfm0","pricing_plan_id":"cebpf4jnsgd1na2vs0mg"},{"bike_id":"6e7d2935-fa60-4396-8fd6-4589e4ac4634","system_id":"levelo_inurba_marseille","lat":43.23188,"lon":5.35546,"is_reserved":false,"is_disabled":false,"rental_uris":{"android":"levelo://app?vid=6e7d2935-fa60-4396-8fd6-4589e4ac4634","ios":"levelo://app?vid=6e7d2935-fa60-4396-8fd6-4589e4ac4634"},"vehicle_type_id":"4","last_reported":1745244581,"current_range_meters":7200,"station_id":"ce4bhu92rcd13ifvqi70","pricing_plan_id":"cebpf4jnsgd1na2vs0mg"},{"bike_id":"6d0b1e09-0778-4875-a9ec-ebd4ab3c5c71","system_id":"levelo_inurba_marseille","lat":43.21186,"lon":5.35068,"is_reserved":false,"is_disabled":true,"rental_uris":{"android":"levelo://app?vid=6d0b1e09-0778-4875-a9ec-ebd4ab3c5c71","ios":"levelo://app?vid=6d0b1e09-0778-4875-a9ec-ebd4ab3c5c71"},"vehicle_type_id":"4","last_reported":1745244581,"current_range_meters":7200,"station_id":"","pricing_plan_id":"cebpf4jnsgd1na2vs0mg"},{"bike_id":"666d0bc6-e154-41a7-a400-97d10f70a69e","system_id":"levelo_inurba_marseille","lat":43.28259,"lon":5.35077,"is_reserved":false,"is_disabled":false,"rental_uris":{"android":"levelo://app?vid=666d0bc6-e154-41a7-a400-97d10f70a69e","ios":"levelo://app?vid=666d0bc6-e154-41a7-a400-97d10f70a69e"},"vehicle_type_id":"4","last_reported":1745244581,"current_range_meters":7200,"station_id":"ce4bhbp2rcd13ifvqerg","pricing_plan_id":"cebpf4jnsgd1na2vs0mg"},{"bike_id":"2f22eb91-436d-4245-bacb-88a79a6fea15","system_id":"levelo_inurba_marseille","lat":43.27374,"lon":5.36252,"is_reserved":false,"is_disabled":false,"rental_uris":{"android":"levelo://app?vid=2f22eb91-436d-4245-bacb-88a79a6fea15","ios":"levelo://app?vid=2f22eb91-436d-4245-bacb-88a79a6fea15"},"vehicle_type_id":"4","last_reported":1745244581,"current_range_meters":7200,"station_id":"ce4bhbh2rcd13ifvqeo0","pricing_plan_id":"cebpf4jnsgd1na2vs0mg"},{"bike_id":"a690620e-886f-4a7e-b000-db663d32c7b3","system_id":"levelo_inurba_marseille","lat":43.29894,"lon":5.43686,"is_reserved":false,"is_disabled":false,"rental_uris":{"android":"levelo://app?vid=a690620e-886f-4a7e-b000-db663d32c7b3","ios":"levelo://app?vid=a690620e-886f-4a7e-b000-db663d32c7b3"},"vehicle_type_id":"4","last_reported":1745244581,"current_range_meters":8000,"station_id":"ce4bhpp2rcd13ifvqhfg","pricing_plan_id":"cebpf4jnsgd1na2vs0mg"},{"bike_id":"d9c8aef7-dc3c-4873-8cc1-7143494995c9","system_id":"levelo_inurba_marseille","lat":43.23068,"lon":5.35495,"is_reserved":false,"is_disabled":false,"rental_uris":{"android":"levelo://app?vid=d9c8aef7-dc3c-4873-8cc1-7143494995c9","ios":"levelo://app?vid=d9c8aef7-dc3c-4873-8cc1-7143494995c9"},"vehicle_type_id":"4","last_reported":1745244581,"current_range_meters":8000,"station_id":"cpo3342slgdg3j2ifvpg","pricing_plan_id":"cebpf4jnsgd1na2vs0mg"},{"bike_id":"8f7ac973-fa1b-4323-a058-f845f8586219","system_id":"levelo_inurba_marseille","lat":43.26202,"lon":5.37929,"is_reserved":false,"is_disabled":false,"rental_uris":{"android":"levelo://app?vid=8f7ac973-fa1b-4323-a058-f845f8586219","ios":"levelo://app?vid=8f7ac973-fa1b-4323-a058-f845f8586219"},"vehicle_type_id":"4","last_reported":1745244581,"current_range_meters":8000,"station_id":"ce4bhjp2rcd13ifvqg90","pricing_plan_id":"cebpf4jnsgd1na2vs0mg"},{"bike_id":"4d54b607-2c00-4023-87bf-d4a973fbeb92","system_id":"levelo_inurba_marseille","lat":43.24417,"lon":5.37076,"is_reserved":false,"is_disabled":false,"rental_uris":{"android":"levelo://app?vid=4d54b607-2c00-4023-87bf-d4a973fbeb92","ios":"levelo://app?vid=4d54b607-2c00-4023-87bf-d4a973fbeb92"},"vehicle_type_id":"4","last_reported":1745244581,"current_range_meters":8000,"station_id":"ce4bhhh2rcd13ifvqfk0","pricing_plan_id":"cebpf4jnsgd1na2vs0mg"},{"bike_id":"e1590f4f-9f87-44b7-9a08-3418b8b7f586","system_id":"levelo_inurba_marseille","lat":43.23147,"lon":5.43691,"is_reserved":false,"is_disabled":false,"rental_uris":{"android":"levelo://app?vid=e1590f4f-9f87-44b7-9a08-3418b8b7f586","ios":"levelo://app?vid=e1590f4f-9f87-44b7-9a08-3418b8b7f586"},"vehicle_type_id":"4","last_reported":1745244581,"current_range_meters":8400,"station_id":"ce4bhmp2rcd13ifvqgog","pricing_plan_id":"cebpf4jnsgd1na2vs0mg"},{"bike_id":"5861242e-476e-40e0-add2-f5fb80b0a6a0","system_id":"levelo_inurba_marseille","lat":43.24169,"lon":5.36397,"is_reserved":false,"is_disabled":false,"rental_uris":{"android":"levelo://app?vid=5861242e-476e-40e0-add2-f5fb80b0a6a0","ios":"levelo://app?vid=5861242e-476e-40e0-add2-f5fb80b0a6a0"},"vehicle_type_id":"4","last_reported":1745244581,"current_range_meters":8400,"station_id":"cpo36qri1sfpv3e86is0","pricing_plan_id":"cebpf4jnsgd1na2vs0mg"},{"bike_id":"36f5c011-55aa-4e0a-8409-662adac88f3c","system_id":"levelo_inurba_marseille","lat":43.29548,"lon":5.39385,"is_reserved":false,"is_disabled":false,"rental_uris":{"android":"levelo://app?vid=36f5c011-55aa-4e0a-8409-662adac88f3c","ios":"levelo://app?vid=36f5c011-55aa-4e0a-8409-662adac88f3c"},"vehicle_type_id":"4","last_reported":1745244581,"current_range_meters":8000,"station_id":"ce4bh292rcd13ifvqdf0","pricing_plan_id":"cebpf4jnsgd1na2vs0mg"},{"bike_id":"ebfc3841-491c-4713-98e3-7298dc6b55d0","system_id":"levelo_inurba_marseille","lat":43.23138,"lon":5.43723,"is_reserved":false,"is_disabled":false,"rental_uris":{"android":"levelo://app?vid=ebfc3841-491c-4713-98e3-7298dc6b55d0","ios":"levelo://app?vid=ebfc3841-491c-4713-98e3-7298dc6b55d0"},"vehicle_type_id":"4","last_reported":1745244581,"current_range_meters":8400,"station_id":"ce4bhmp2rcd13ifvqgog","pricing_plan_id":"cebpf4jnsgd1na2vs0mg"},{"bike_id":"b74d2149-b261-409b-ada5-70cce9fad823","system_id":"levelo_inurba_marseille","lat":43.29126,"lon":5.38306,"is_reserved":false,"is_disabled":false,"rental_uris":{"android":"levelo://app?vid=b74d2149-b261-409b-ada5-70cce9fad823","ios":"levelo://app?vid=b74d2149-b261-409b-ada5-70cce9fad823"},"vehicle_type_id":"4","last_reported":1745244581,"current_range_meters":8400,"station_id":"","pricing_plan_id":"cebpf4jnsgd1na2vs0mg"},{"bike_id":"b63192e9-df06-41be-b6cd-e30abb57a45d","system_id":"levelo_inurba_marseille","lat":43.23154,"lon":5.43701,"is_reserved":false,"is_disabled":false,"rental_uris":{"android":"levelo://app?vid=b63192e9-df06-41be-b6cd-e30abb57a45d","ios":"levelo://app?vid=b63192e9-df06-41be-b6cd-e30abb57a45d"},"vehicle_type_id":"4","last_reported":1745244581,"current_range_meters":8400,"station_id":"ce4bhmp2rcd13ifvqgog","pricing_plan_id":"cebpf4jnsgd1na2vs0mg"},{"bike_id":"fa7b31b9-c592-472f-8bc3-f45ed72065e6","system_id":"levelo_inurba_marseille","lat":43.27498,"lon":5.42445,"is_reserved":false,"is_disabled":false,"rental_uris":{"android":"levelo://app?vid=fa7b31b9-c592-472f-8bc3-f45ed72065e6","ios":"levelo://app?vid=fa7b31b9-c592-472f-8bc3-f45ed72065e6"},"vehicle_type_id":"4","last_reported":1745244581,"current_range_meters":9200,"station_id":"ce4bhn92rcd13ifvqgrg","pricing_plan_id":"cebpf4jnsgd1na2vs0mg"},{"bike_id":"bc5a9d50-3ef0-4430-8f19-3e947adba837","system_id":"levelo_inurba_marseille","lat":43.24999,"lon":5.38927,"is_reserved":false,"is_disabled":false,"rental_uris":{"android":"levelo://app?vid=bc5a9d50-3ef0-4430-8f19-3e947adba837","ios":"levelo://app?vid=bc5a9d50-3ef0-4430-8f19-3e947adba837"},"vehicle_type_id":"4","last_reported":1745244581,"current_range_meters":8800,"station_id":"ce4bhgp2rcd13ifvqfd0","pricing_plan_id":"cebpf4jnsgd1na2vs0mg"},{"bike_id":"5051e740-8b92-4afd-bde5-f02eebfc3b83","system_id":"levelo_inurba_marseille","lat":43.31474,"lon":5.39553,"is_reserved":false,"is_disabled":false,"rental_uris":{"android":"levelo://app?vid=5051e740-8b92-4afd-bde5-f02eebfc3b83","ios":"levelo://app?vid=5051e740-8b92-4afd-bde5-f02eebfc3b83"},"vehicle_type_id":"4","last_reported":1745244581,"current_range_meters":8800,"station_id":"","pricing_plan_id":"cebpf4jnsgd1na2vs0mg"},{"bike_id":"054a6f2c-552f-413b-b13d-9cdf2c399c94","system_id":"levelo_inurba_marseille","lat":43.31501,"lon":5.37281,"is_reserved":false,"is_disabled":false,"rental_uris":{"android":"levelo://app?vid=054a6f2c-552f-413b-b13d-9cdf2c399c94","ios":"levelo://app?vid=054a6f2c-552f-413b-b13d-9cdf2c399c94"},"vehicle_type_id":"4","last_reported":1745244581,"current_range_meters":8800,"station_id":"ce4bgt12rcd13ifvqcd0","pricing_plan_id":"cebpf4jnsgd1na2vs0mg"},{"bike_id":"b992098c-aef4-4600-9360-89f81afadcba","system_id":"levelo_inurba_marseille","lat":43.282733,"lon":5.35074,"is_reserved":false,"is_disabled":false,"rental_uris":{"android":"levelo://app?vid=b992098c-aef4-4600-9360-89f81afadcba","ios":"levelo://app?vid=b992098c-aef4-4600-9360-89f81afadcba"},"vehicle_type_id":"4","last_reported":1745244581,"current_range_meters":8400,"station_id":"ce4bhbp2rcd13ifvqerg","pricing_plan_id":"cebpf4jnsgd1na2vs0mg"},{"bike_id":"2055c28c-bbae-40f3-a9e4-b62b43151fb2","system_id":"levelo_inurba_marseille","lat":43.28418,"lon":5.34983,"is_reserved":false,"is_disabled":false,"rental_uris":{"android":"levelo://app?vid=2055c28c-bbae-40f3-a9e4-b62b43151fb2","ios":"levelo://app?vid=2055c28c-bbae-40f3-a9e4-b62b43151fb2"},"vehicle_type_id":"4","last_reported":1745244581,"current_range_meters":8800,"station_id":"ce4bhbh2rcd13ifvqepg","pricing_plan_id":"cebpf4jnsgd1na2vs0mg"},{"bike_id":"16cb5006-8cc4-4abd-ab98-0e64efe311b9","system_id":"levelo_inurba_marseille","lat":43.22934,"lon":5.35379,"is_reserved":false,"is_disabled":false,"rental_uris":{"android":"levelo://app?vid=16cb5006-8cc4-4abd-ab98-0e64efe311b9","ios":"levelo://app?vid=16cb5006-8cc4-4abd-ab98-0e64efe311b9"},"vehicle_type_id":"4","last_reported":1745244581,"current_range_meters":8800,"station_id":"cpo3532slgdg3j2ikp40","pricing_plan_id":"cebpf4jnsgd1na2vs0mg"},{"bike_id":"1c2ef555-e505-487e-af6a-15e8c23bdd48","system_id":"levelo_inurba_marseille","lat":43.21189,"lon":5.35068,"is_reserved":false,"is_disabled":false,"rental_uris":{"android":"levelo://app?vid=1c2ef555-e505-487e-af6a-15e8c23bdd48","ios":"levelo://app?vid=1c2ef555-e505-487e-af6a-15e8c23bdd48"},"vehicle_type_id":"4","last_reported":1745244581,"current_range_meters":9200,"station_id":"st_cvj6sg6p6f1abm77japg","pricing_plan_id":"cebpf4jnsgd1na2vs0mg"},{"bike_id":"8ac16eab-2edd-4580-9a4a-af830092f641","system_id":"levelo_inurba_marseille","lat":43.23963,"lon":5.36628,"is_reserved":false,"is_disabled":false,"rental_uris":{"android":"levelo://app?vid=8ac16eab-2edd-4580-9a4a-af830092f641","ios":"levelo://app?vid=8ac16eab-2edd-4580-9a4a-af830092f641"},"vehicle_type_id":"4","last_reported":1745244581,"current_range_meters":9200,"station_id":"ce4bhi12rcd13ifvqfp0","pricing_plan_id":"cebpf4jnsgd1na2vs0mg"},{"bike_id":"001f3b80-2ade-4258-8e51-886014b5cc1f","system_id":"levelo_inurba_marseille","lat":43.23188,"lon":5.39988,"is_reserved":false,"is_disabled":false,"rental_uris":{"android":"levelo://app?vid=001f3b80-2ade-4258-8e51-886014b5cc1f","ios":"levelo://app?vid=001f3b80-2ade-4258-8e51-886014b5cc1f"},"vehicle_type_id":"4","last_reported":1745244581,"current_range_meters":9200,"station_id":"ce4bhn12rcd13ifvqgqg","pricing_plan_id":"cebpf4jnsgd1na2vs0mg"},{"bike_id":"71ba706d-44b3-4246-8ed3-aabd9045a352","system_id":"levelo_inurba_marseille","lat":43.28262,"lon":5.35062,"is_reserved":false,"is_disabled":false,"rental_uris":{"android":"levelo://app?vid=71ba706d-44b3-4246-8ed3-aabd9045a352","ios":"levelo://app?vid=71ba706d-44b3-4246-8ed3-aabd9045a352"},"vehicle_type_id":"4","last_reported":1745244581,"current_range_meters":9200,"station_id":"ce4bhbp2rcd13ifvqerg","pricing_plan_id":"cebpf4jnsgd1na2vs0mg"},{"bike_id":"ba01c468-f18c-4520-8c7d-9a0e432e91d4","system_id":"levelo_inurba_marseille","lat":43.23192,"lon":5.35548,"is_reserved":false,"is_disabled":false,"rental_uris":{"android":"levelo://app?vid=ba01c468-f18c-4520-8c7d-9a0e432e91d4","ios":"levelo://app?vid=ba01c468-f18c-4520-8c7d-9a0e432e91d4"},"vehicle_type_id":"4","last_reported":1745244581,"current_range_meters":9200,"station_id":"ce4bhu92rcd13ifvqi70","pricing_plan_id":"cebpf4jnsgd1na2vs0mg"},{"bike_id":"5346a1fa-39ff-4c5e-846b-8bf32cd79d1b","system_id":"levelo_inurba_marseille","lat":43.239643,"lon":5.366277,"is_reserved":false,"is_disabled":false,"rental_uris":{"android":"levelo://app?vid=5346a1fa-39ff-4c5e-846b-8bf32cd79d1b","ios":"levelo://app?vid=5346a1fa-39ff-4c5e-846b-8bf32cd79d1b"},"vehicle_type_id":"4","last_reported":1745244581,"current_range_meters":9200,"station_id":"ce4bhi12rcd13ifvqfp0","pricing_plan_id":"cebpf4jnsgd1na2vs0mg"},{"bike_id":"59541059-42fb-459d-b3fd-f0e4e60989d3","system_id":"levelo_inurba_marseille","lat":43.21758,"lon":5.34573,"is_reserved":false,"is_disabled":false,"rental_uris":{"android":"levelo://app?vid=59541059-42fb-459d-b3fd-f0e4e60989d3","ios":"levelo://app?vid=59541059-42fb-459d-b3fd-f0e4e60989d3"},"vehicle_type_id":"4","last_reported":1745244581,"current_range_meters":9600,"station_id":"st_cvj6r9ubvosntc0bgbag","pricing_plan_id":"cebpf4jnsgd1na2vs0mg"},{"bike_id":"6996d513-ee17-4c16-9f25-1167a06858c7","system_id":"levelo_inurba_marseille","lat":43.23191,"lon":5.35557,"is_reserved":false,"is_disabled":false,"rental_uris":{"android":"levelo://app?vid=6996d513-ee17-4c16-9f25-1167a06858c7","ios":"levelo://app?vid=6996d513-ee17-4c16-9f25-1167a06858c7"},"vehicle_type_id":"4","last_reported":1745244581,"current_range_meters":9600,"station_id":"ce4bhu92rcd13ifvqi70","pricing_plan_id":"cebpf4jnsgd1na2vs0mg"},{"bike_id":"a94e8fd5-54fc-4bb7-8821-e62419424ae9","system_id":"levelo_inurba_marseille","lat":43.29276,"lon":5.36835,"is_reserved":false,"is_disabled":false,"rental_uris":{"android":"levelo://app?vid=a94e8fd5-54fc-4bb7-8821-e62419424ae9","ios":"levelo://app?vid=a94e8fd5-54fc-4bb7-8821-e62419424ae9"},"vehicle_type_id":"4","last_reported":1745244581,"current_range_meters":9600,"station_id":"ce4bhbp2rcd13ifvqesg","pricing_plan_id":"cebpf4jnsgd1na2vs0mg"},{"bike_id":"5b45984f-79c7-4480-b822-a957c8c061f1","system_id":"levelo_inurba_marseille","lat":43.28615,"lon":5.35103,"is_reserved":false,"is_disabled":false,"rental_uris":{"android":"levelo://app?vid=5b45984f-79c7-4480-b822-a957c8c061f1","ios":"levelo://app?vid=5b45984f-79c7-4480-b822-a957c8c061f1"},"vehicle_type_id":"4","last_reported":1745244581,"current_range_meters":9600,"station_id":"ce4bhch2rcd13ifvqeug","pricing_plan_id":"cebpf4jnsgd1na2vs0mg"},{"bike_id":"6e3daac8-71d7-4190-9ce6-93984212c044","system_id":"levelo_inurba_marseille","lat":43.33757,"lon":5.39189,"is_reserved":false,"is_disabled":false,"rental_uris":{"android":"levelo://app?vid=6e3daac8-71d7-4190-9ce6-93984212c044","ios":"levelo://app?vid=6e3daac8-71d7-4190-9ce6-93984212c044"},"vehicle_type_id":"4","last_reported":1745244581,"current_range_meters":9600,"station_id":"ce4bhr92rcd13ifvqhsg","pricing_plan_id":"cebpf4jnsgd1na2vs0mg"},{"bike_id":"f739f7ca-d1d9-47b1-9b19-897cc65cece9","system_id":"levelo_inurba_marseille","lat":43.25089,"lon":5.39521,"is_reserved":false,"is_disabled":false,"rental_uris":{"android":"levelo://app?vid=f739f7ca-d1d9-47b1-9b19-897cc65cece9","ios":"levelo://app?vid=f739f7ca-d1d9-47b1-9b19-897cc65cece9"},"vehicle_type_id":"4","last_reported":1745244581,"current_range_meters":9600,"station_id":"ce4bhm12rcd13ifvqgkg","pricing_plan_id":"cebpf4jnsgd1na2vs0mg"},{"bike_id":"fdbc58b9-db0a-4708-8d0c-eb95236b1f43","system_id":"levelo_inurba_marseille","lat":43.28036,"lon":5.36947,"is_reserved":false,"is_disabled":false,"rental_uris":{"android":"levelo://app?vid=fdbc58b9-db0a-4708-8d0c-eb95236b1f43","ios":"levelo://app?vid=fdbc58b9-db0a-4708-8d0c-eb95236b1f43"},"vehicle_type_id":"4","last_reported":1745244581,"current_range_meters":9600,"station_id":"ce4bha12rcd13ifvqef0","pricing_plan_id":"cebpf4jnsgd1na2vs0mg"},{"bike_id":"1f84f51f-d2f4-4d4c-982d-d184ffe24a02","system_id":"levelo_inurba_marseille","lat":43.32371,"lon":5.38892,"is_reserved":false,"is_disabled":true,"rental_uris":{"android":"levelo://app?vid=1f84f51f-d2f4-4d4c-982d-d184ffe24a02","ios":"levelo://app?vid=1f84f51f-d2f4-4d4c-982d-d184ffe24a02"},"vehicle_type_id":"4","last_reported":1745244581,"current_range_meters":9600,"station_id":"ce4bhqp2rcd13ifvqhog","pricing_plan_id":"cebpf4jnsgd1na2vs0mg"},{"bike_id":"980c609e-f7a1-4141-b2a2-864e31b75026","system_id":"levelo_inurba_marseille","lat":43.27379,"lon":5.36262,"is_reserved":false,"is_disabled":false,"rental_uris":{"android":"levelo://app?vid=980c609e-f7a1-4141-b2a2-864e31b75026","ios":"levelo://app?vid=980c609e-f7a1-4141-b2a2-864e31b75026"},"vehicle_type_id":"4","last_reported":1745244581,"current_range_meters":9600,"station_id":"ce4bhbh2rcd13ifvqeo0","pricing_plan_id":"cebpf4jnsgd1na2vs0mg"},{"bike_id":"835b0226-be96-422c-8246-b8bdf3f49cba","system_id":"levelo_inurba_marseille","lat":43.288539,"lon":5.35847,"is_reserved":false,"is_disabled":false,"rental_uris":{"android":"levelo://app?vid=835b0226-be96-422c-8246-b8bdf3f49cba","ios":"levelo://app?vid=835b0226-be96-422c-8246-b8bdf3f49cba"},"vehicle_type_id":"4","last_reported":1745244581,"current_range_meters":9600,"station_id":"ce4bh4p2rcd13ifvqe1g","pricing_plan_id":"cebpf4jnsgd1na2vs0mg"},{"bike_id":"52d9b90a-8b87-40f4-9606-8f1e19c24898","system_id":"levelo_inurba_marseille","lat":43.243086,"lon":5.368603,"is_reserved":false,"is_disabled":false,"rental_uris":{"android":"levelo://app?vid=52d9b90a-8b87-40f4-9606-8f1e19c24898","ios":"levelo://app?vid=52d9b90a-8b87-40f4-9606-8f1e19c24898"},"vehicle_type_id":"4","last_reported":1745244581,"current_range_meters":9600,"station_id":"ce4bhi12rcd13ifvqfp0","pricing_plan_id":"cebpf4jnsgd1na2vs0mg"},{"bike_id":"d5d51c1e-5704-4018-a2f3-0bd7d359ead1","system_id":"levelo_inurba_marseille","lat":43.28615,"lon":5.35108,"is_reserved":false,"is_disabled":false,"rental_uris":{"android":"levelo://app?vid=d5d51c1e-5704-4018-a2f3-0bd7d359ead1","ios":"levelo://app?vid=d5d51c1e-5704-4018-a2f3-0bd7d359ead1"},"vehicle_type_id":"4","last_reported":1745244581,"current_range_meters":9200,"station_id":"ce4bhch2rcd13ifvqeug","pricing_plan_id":"cebpf4jnsgd1na2vs0mg"},{"bike_id":"f0fc08d3-7a88-4f75-b4cf-5f63d6e59a14","system_id":"levelo_inurba_marseille","lat":43.23133,"lon":5.4374,"is_reserved":false,"is_disabled":false,"rental_uris":{"android":"levelo://app?vid=f0fc08d3-7a88-4f75-b4cf-5f63d6e59a14","ios":"levelo://app?vid=f0fc08d3-7a88-4f75-b4cf-5f63d6e59a14"},"vehicle_type_id":"4","last_reported":1745244581,"current_range_meters":10000,"station_id":"ce4bhmp2rcd13ifvqgog","pricing_plan_id":"cebpf4jnsgd1na2vs0mg"},{"bike_id":"543790c0-5481-4f05-b56f-5e89ea044913","system_id":"levelo_inurba_marseille","lat":43.273663,"lon":5.36253,"is_reserved":false,"is_disabled":false,"rental_uris":{"android":"levelo://app?vid=543790c0-5481-4f05-b56f-5e89ea044913","ios":"levelo://app?vid=543790c0-5481-4f05-b56f-5e89ea044913"},"vehicle_type_id":"4","last_reported":1745244581,"current_range_meters":10000,"station_id":"ce4bhbh2rcd13ifvqeo0","pricing_plan_id":"cebpf4jnsgd1na2vs0mg"},{"bike_id":"3bb5843f-e845-43f5-b69c-3daa03beabbb","system_id":"levelo_inurba_marseille","lat":43.23153,"lon":5.43708,"is_reserved":false,"is_disabled":false,"rental_uris":{"android":"levelo://app?vid=3bb5843f-e845-43f5-b69c-3daa03beabbb","ios":"levelo://app?vid=3bb5843f-e845-43f5-b69c-3daa03beabbb"},"vehicle_type_id":"4","last_reported":1745244581,"current_range_meters":10000,"station_id":"ce4bhmp2rcd13ifvqgog","pricing_plan_id":"cebpf4jnsgd1na2vs0mg"},{"bike_id":"4fdd0893-26f2-4bc5-b7cd-78fc9b11b538","system_id":"levelo_inurba_marseille","lat":43.28265,"lon":5.35067,"is_reserved":false,"is_disabled":false,"rental_uris":{"android":"levelo://app?vid=4fdd0893-26f2-4bc5-b7cd-78fc9b11b538","ios":"levelo://app?vid=4fdd0893-26f2-4bc5-b7cd-78fc9b11b538"},"vehicle_type_id":"4","last_reported":1745244581,"current_range_meters":10000,"station_id":"ce4bhbp2rcd13ifvqerg","pricing_plan_id":"cebpf4jnsgd1na2vs0mg"},{"bike_id":"3353ac52-0a05-48ca-8e2d-5a2a12e8da89","system_id":"levelo_inurba_marseille","lat":43.2969,"lon":5.37274,"is_reserved":false,"is_disabled":false,"rental_uris":{"android":"levelo://app?vid=3353ac52-0a05-48ca-8e2d-5a2a12e8da89","ios":"levelo://app?vid=3353ac52-0a05-48ca-8e2d-5a2a12e8da89"},"vehicle_type_id":"4","last_reported":1745244581,"current_range_meters":10000,"station_id":"ce4bgk12rcd13ifvqbj0","pricing_plan_id":"cebpf4jnsgd1na2vs0mg"},{"bike_id":"08adba7b-eac3-4cfc-9923-2ccf0cc4ffef","system_id":"levelo_inurba_marseille","lat":43.24538,"lon":5.41296,"is_reserved":false,"is_disabled":false,"rental_uris":{"android":"levelo://app?vid=08adba7b-eac3-4cfc-9923-2ccf0cc4ffef","ios":"levelo://app?vid=08adba7b-eac3-4cfc-9923-2ccf0cc4ffef"},"vehicle_type_id":"4","last_reported":1745244581,"current_range_meters":10000,"station_id":"","pricing_plan_id":"cebpf4jnsgd1na2vs0mg"},{"bike_id":"d510ae40-53d7-4e77-9c23-4325a95a4a61","system_id":"levelo_inurba_marseille","lat":43.21747,"lon":5.34607,"is_reserved":false,"is_disabled":false,"rental_uris":{"android":"levelo://app?vid=d510ae40-53d7-4e77-9c23-4325a95a4a61","ios":"levelo://app?vid=d510ae40-53d7-4e77-9c23-4325a95a4a61"},"vehicle_type_id":"4","last_reported":1745244581,"current_range_meters":10000,"station_id":"st_cvj6r9ubvosntc0bgbag","pricing_plan_id":"cebpf4jnsgd1na2vs0mg"},{"bike_id":"b525f5ca-a225-4d3f-9623-3a9610f29f73","system_id":"levelo_inurba_marseille","lat":43.21743,"lon":5.34604,"is_reserved":false,"is_disabled":false,"rental_uris":{"android":"levelo://app?vid=b525f5ca-a225-4d3f-9623-3a9610f29f73","ios":"levelo://app?vid=b525f5ca-a225-4d3f-9623-3a9610f29f73"},"vehicle_type_id":"4","last_reported":1745244581,"current_range_meters":10000,"station_id":"st_cvj6r9ubvosntc0bgbag","pricing_plan_id":"cebpf4jnsgd1na2vs0mg"},{"bike_id":"a9f3a92e-1420-4bda-bf3d-88328bea9c14","system_id":"levelo_inurba_marseille","lat":43.26062,"lon":5.393937,"is_reserved":false,"is_disabled":false,"rental_uris":{"android":"levelo://app?vid=a9f3a92e-1420-4bda-bf3d-88328bea9c14","ios":"levelo://app?vid=a9f3a92e-1420-4bda-bf3d-88328bea9c14"},"vehicle_type_id":"4","last_reported":1745244581,"current_range_meters":10800,"station_id":"ce4bhh92rcd13ifvqfj0","pricing_plan_id":"cebpf4jnsgd1na2vs0mg"},{"bike_id":"4526c344-855d-4c4a-bef6-2378f4916029","system_id":"levelo_inurba_marseille","lat":43.232,"lon":5.39954,"is_reserved":false,"is_disabled":false,"rental_uris":{"android":"levelo://app?vid=4526c344-855d-4c4a-bef6-2378f4916029","ios":"levelo://app?vid=4526c344-855d-4c4a-bef6-2378f4916029"},"vehicle_type_id":"4","last_reported":1745244581,"current_range_meters":10800,"station_id":"ce4bhn12rcd13ifvqgqg","pricing_plan_id":"cebpf4jnsgd1na2vs0mg"},{"bike_id":"6357c32d-8df8-4c5b-a3dc-bcf5b3f65f0b","system_id":"levelo_inurba_marseille","lat":43.24077,"lon":5.37758,"is_reserved":false,"is_disabled":false,"rental_uris":{"android":"levelo://app?vid=6357c32d-8df8-4c5b-a3dc-bcf5b3f65f0b","ios":"levelo://app?vid=6357c32d-8df8-4c5b-a3dc-bcf5b3f65f0b"},"vehicle_type_id":"4","last_reported":1745244581,"current_range_meters":10800,"station_id":"ce4bhnp2rcd13ifvqgvg","pricing_plan_id":"cebpf4jnsgd1na2vs0mg"},{"bike_id":"c0a9b2ca-b81a-47ca-8ccc-899217fe91e4","system_id":"levelo_inurba_marseille","lat":43.261961,"lon":5.374448,"is_reserved":false,"is_disabled":false,"rental_uris":{"android":"levelo://app?vid=c0a9b2ca-b81a-47ca-8ccc-899217fe91e4","ios":"levelo://app?vid=c0a9b2ca-b81a-47ca-8ccc-899217fe91e4"},"vehicle_type_id":"4","last_reported":1745244581,"current_range_meters":10800,"station_id":"ce4bhpp2rcd13ifvqhgg","pricing_plan_id":"cebpf4jnsgd1na2vs0mg"},{"bike_id":"e173cc0f-e5fd-42dc-8a2b-c65b5c30ccd9","system_id":"levelo_inurba_marseille","lat":43.31275,"lon":5.40154,"is_reserved":false,"is_disabled":false,"rental_uris":{"android":"levelo://app?vid=e173cc0f-e5fd-42dc-8a2b-c65b5c30ccd9","ios":"levelo://app?vid=e173cc0f-e5fd-42dc-8a2b-c65b5c30ccd9"},"vehicle_type_id":"4","last_reported":1745244581,"current_range_meters":10800,"station_id":"ce4bh092rcd13ifvqd30","pricing_plan_id":"cebpf4jnsgd1na2vs0mg"},{"bike_id":"28105f12-b355-49c8-9376-d2bf24643575","system_id":"levelo_inurba_marseille","lat":43.23189,"lon":5.35546,"is_reserved":false,"is_disabled":false,"rental_uris":{"android":"levelo://app?vid=28105f12-b355-49c8-9376-d2bf24643575","ios":"levelo://app?vid=28105f12-b355-49c8-9376-d2bf24643575"},"vehicle_type_id":"4","last_reported":1745244581,"current_range_meters":10800,"station_id":"ce4bhu92rcd13ifvqi70","pricing_plan_id":"cebpf4jnsgd1na2vs0mg"},{"bike_id":"26a31d78-4b30-4adc-b3ae-c5c4b65154fc","system_id":"levelo_inurba_marseille","lat":43.22501,"lon":5.34775,"is_reserved":false,"is_disabled":false,"rental_uris":{"android":"levelo://app?vid=26a31d78-4b30-4adc-b3ae-c5c4b65154fc","ios":"levelo://app?vid=26a31d78-4b30-4adc-b3ae-c5c4b65154fc"},"vehicle_type_id":"4","last_reported":1745244581,"current_range_meters":11200,"station_id":"st_cvj5dfep6f1abm77gieg","pricing_plan_id":"cebpf4jnsgd1na2vs0mg"},{"bike_id":"2bf3c47c-b638-45d2-b81c-318f9b50b88b","system_id":"levelo_inurba_marseille","lat":43.23149,"lon":5.43711,"is_reserved":false,"is_disabled":false,"rental_uris":{"android":"levelo://app?vid=2bf3c47c-b638-45d2-b81c-318f9b50b88b","ios":"levelo://app?vid=2bf3c47c-b638-45d2-b81c-318f9b50b88b"},"vehicle_type_id":"4","last_reported":1745244581,"current_range_meters":11200,"station_id":"ce4bhmp2rcd13ifvqgog","pricing_plan_id":"cebpf4jnsgd1na2vs0mg"},{"bike_id":"8765e62e-f541-4ea6-aaf0-9e1d1ddc64b3","system_id":"levelo_inurba_marseille","lat":43.24398,"lon":5.37052,"is_reserved":false,"is_disabled":false,"rental_uris":{"android":"levelo://app?vid=8765e62e-f541-4ea6-aaf0-9e1d1ddc64b3","ios":"levelo://app?vid=8765e62e-f541-4ea6-aaf0-9e1d1ddc64b3"},"vehicle_type_id":"4","last_reported":1745244581,"current_range_meters":11200,"station_id":"","pricing_plan_id":"cebpf4jnsgd1na2vs0mg"},{"bike_id":"560325e2-0dbe-4e60-af29-b561e3f0bae1","system_id":"levelo_inurba_marseille","lat":43.27372,"lon":5.36256,"is_reserved":false,"is_disabled":false,"rental_uris":{"android":"levelo://app?vid=560325e2-0dbe-4e60-af29-b561e3f0bae1","ios":"levelo://app?vid=560325e2-0dbe-4e60-af29-b561e3f0bae1"},"vehicle_type_id":"4","last_reported":1745244581,"current_range_meters":7200,"station_id":"ce4bhbh2rcd13ifvqeo0","pricing_plan_id":"cebpf4jnsgd1na2vs0mg"},{"bike_id":"2d4adf37-799c-47c4-8a74-57f8fc763462","system_id":"levelo_inurba_marseille","lat":43.26009,"lon":5.41753,"is_reserved":false,"is_disabled":false,"rental_uris":{"android":"levelo://app?vid=2d4adf37-799c-47c4-8a74-57f8fc763462","ios":"levelo://app?vid=2d4adf37-799c-47c4-8a74-57f8fc763462"},"vehicle_type_id":"4","last_reported":1745244581,"current_range_meters":11200,"station_id":"","pricing_plan_id":"cebpf4jnsgd1na2vs0mg"},{"bike_id":"f3e693c9-106a-477b-aada-0c03c2910d50","system_id":"levelo_inurba_marseille","lat":43.21186,"lon":5.3507,"is_reserved":false,"is_disabled":false,"rental_uris":{"android":"levelo://app?vid=f3e693c9-106a-477b-aada-0c03c2910d50","ios":"levelo://app?vid=f3e693c9-106a-477b-aada-0c03c2910d50"},"vehicle_type_id":"4","last_reported":1745244581,"current_range_meters":11600,"station_id":"st_cvj6sg6p6f1abm77japg","pricing_plan_id":"cebpf4jnsgd1na2vs0mg"},{"bike_id":"c633ffb6-a2e4-43ee-bc04-55b3730fd199","system_id":"levelo_inurba_marseille","lat":43.29419,"lon":5.38614,"is_reserved":false,"is_disabled":true,"rental_uris":{"android":"levelo://app?vid=c633ffb6-a2e4-43ee-bc04-55b3730fd199","ios":"levelo://app?vid=c633ffb6-a2e4-43ee-bc04-55b3730fd199"},"vehicle_type_id":"4","last_reported":1745244581,"current_range_meters":11600,"station_id":"ce4bh2h2rcd13ifvqdh0","pricing_plan_id":"cebpf4jnsgd1na2vs0mg"},{"bike_id":"6a88aa6f-178d-4204-9ade-3133045c580b","system_id":"levelo_inurba_marseille","lat":43.23966,"lon":5.3662,"is_reserved":false,"is_disabled":false,"rental_uris":{"android":"levelo://app?vid=6a88aa6f-178d-4204-9ade-3133045c580b","ios":"levelo://app?vid=6a88aa6f-178d-4204-9ade-3133045c580b"},"vehicle_type_id":"4","last_reported":1745244581,"current_range_meters":11600,"station_id":"ce4bhi12rcd13ifvqfp0","pricing_plan_id":"cebpf4jnsgd1na2vs0mg"},{"bike_id":"f3654e84-209c-4b67-8946-6f3a4e03c0cd","system_id":"levelo_inurba_marseille","lat":43.29966,"lon":5.38496,"is_reserved":false,"is_disabled":false,"rental_uris":{"android":"levelo://app?vid=f3654e84-209c-4b67-8946-6f3a4e03c0cd","ios":"levelo://app?vid=f3654e84-209c-4b67-8946-6f3a4e03c0cd"},"vehicle_type_id":"4","last_reported":1745244581,"current_range_meters":7200,"station_id":"ce4bgj92rcd13ifvqbd0","pricing_plan_id":"cebpf4jnsgd1na2vs0mg"},{"bike_id":"3245389c-6311-4b2e-9ecc-862d1164644f","system_id":"levelo_inurba_marseille","lat":43.31265,"lon":5.40168,"is_reserved":false,"is_disabled":false,"rental_uris":{"android":"levelo://app?vid=3245389c-6311-4b2e-9ecc-862d1164644f","ios":"levelo://app?vid=3245389c-6311-4b2e-9ecc-862d1164644f"},"vehicle_type_id":"4","last_reported":1745244581,"current_range_meters":14800,"station_id":"ce4bh092rcd13ifvqd30","pricing_plan_id":"cebpf4jnsgd1na2vs0mg"},{"bike_id":"1c755526-7610-4241-9257-348acde561d3","system_id":"levelo_inurba_marseille","lat":43.24855,"lon":5.38199,"is_reserved":false,"is_disabled":false,"rental_uris":{"android":"levelo://app?vid=1c755526-7610-4241-9257-348acde561d3","ios":"levelo://app?vid=1c755526-7610-4241-9257-348acde561d3"},"vehicle_type_id":"4","last_reported":1745244581,"current_range_meters":12000,"station_id":"","pricing_plan_id":"cebpf4jnsgd1na2vs0mg"},{"bike_id":"3b0eea9a-4ae4-428c-9021-19babc4ebfcf","system_id":"levelo_inurba_marseille","lat":43.23203,"lon":5.35561,"is_reserved":false,"is_disabled":false,"rental_uris":{"android":"levelo://app?vid=3b0eea9a-4ae4-428c-9021-19babc4ebfcf","ios":"levelo://app?vid=3b0eea9a-4ae4-428c-9021-19babc4ebfcf"},"vehicle_type_id":"4","last_reported":1745244581,"current_range_meters":12000,"station_id":"ce4bhu92rcd13ifvqi70","pricing_plan_id":"cebpf4jnsgd1na2vs0mg"},{"bike_id":"97d10ffb-b1af-4386-a8da-1fc1de2e82e4","system_id":"levelo_inurba_marseille","lat":43.246647,"lon":5.381662,"is_reserved":false,"is_disabled":false,"rental_uris":{"android":"levelo://app?vid=97d10ffb-b1af-4386-a8da-1fc1de2e82e4","ios":"levelo://app?vid=97d10ffb-b1af-4386-a8da-1fc1de2e82e4"},"vehicle_type_id":"4","last_reported":1745244581,"current_range_meters":12000,"station_id":"ce4bhih2rcd13ifvqfr0","pricing_plan_id":"cebpf4jnsgd1na2vs0mg"},{"bike_id":"2b08e6f0-480a-4e4d-9604-8897d74d338f","system_id":"levelo_inurba_marseille","lat":43.29196,"lon":5.35801,"is_reserved":false,"is_disabled":false,"rental_uris":{"android":"levelo://app?vid=2b08e6f0-480a-4e4d-9604-8897d74d338f","ios":"levelo://app?vid=2b08e6f0-480a-4e4d-9604-8897d74d338f"},"vehicle_type_id":"4","last_reported":1745244581,"current_range_meters":11600,"station_id":"ce4bhb12rcd13ifvqel0","pricing_plan_id":"cebpf4jnsgd1na2vs0mg"},{"bike_id":"ac2669a9-1ff9-4a25-a2d3-56ac2cfb824b","system_id":"levelo_inurba_marseille","lat":43.24902,"lon":5.4022,"is_reserved":false,"is_disabled":false,"rental_uris":{"android":"levelo://app?vid=ac2669a9-1ff9-4a25-a2d3-56ac2cfb824b","ios":"levelo://app?vid=ac2669a9-1ff9-4a25-a2d3-56ac2cfb824b"},"vehicle_type_id":"4","last_reported":1745244581,"current_range_meters":12000,"station_id":"ce4bh2h2rcd13ifvqdh0","pricing_plan_id":"cebpf4jnsgd1na2vs0mg"},{"bike_id":"3b754bbf-caa1-4497-9939-d3a30e53da60","system_id":"levelo_inurba_marseille","lat":43.28263,"lon":5.35073,"is_reserved":false,"is_disabled":false,"rental_uris":{"android":"levelo://app?vid=3b754bbf-caa1-4497-9939-d3a30e53da60","ios":"levelo://app?vid=3b754bbf-caa1-4497-9939-d3a30e53da60"},"vehicle_type_id":"4","last_reported":1745244581,"current_range_meters":12400,"station_id":"ce4bhbp2rcd13ifvqerg","pricing_plan_id":"cebpf4jnsgd1na2vs0mg"},{"bike_id":"3d0f69f6-26cb-457f-a1e5-e82a5c1b226c","system_id":"levelo_inurba_marseille","lat":43.28844,"lon":5.35847,"is_reserved":false,"is_disabled":false,"rental_uris":{"android":"levelo://app?vid=3d0f69f6-26cb-457f-a1e5-e82a5c1b226c","ios":"levelo://app?vid=3d0f69f6-26cb-457f-a1e5-e82a5c1b226c"},"vehicle_type_id":"4","last_reported":1745244581,"current_range_meters":12800,"station_id":"ce4bhb12rcd13ifvqem0","pricing_plan_id":"cebpf4jnsgd1na2vs0mg"},{"bike_id":"32d0135b-a1cc-4804-9ddc-acacb7254159","system_id":"levelo_inurba_marseille","lat":43.3234,"lon":5.40621,"is_reserved":false,"is_disabled":false,"rental_uris":{"android":"levelo://app?vid=32d0135b-a1cc-4804-9ddc-acacb7254159","ios":"levelo://app?vid=32d0135b-a1cc-4804-9ddc-acacb7254159"},"vehicle_type_id":"4","last_reported":1745244581,"current_range_meters":12800,"station_id":"ce4bhq92rcd13ifvqhjg","pricing_plan_id":"cebpf4jnsgd1na2vs0mg"},{"bike_id":"505267e1-ee4c-49ec-89f5-51ade884ab6a","system_id":"levelo_inurba_marseille","lat":43.23147,"lon":5.4371,"is_reserved":false,"is_disabled":false,"rental_uris":{"android":"levelo://app?vid=505267e1-ee4c-49ec-89f5-51ade884ab6a","ios":"levelo://app?vid=505267e1-ee4c-49ec-89f5-51ade884ab6a"},"vehicle_type_id":"4","last_reported":1745244581,"current_range_meters":12800,"station_id":"ce4bhmp2rcd13ifvqgog","pricing_plan_id":"cebpf4jnsgd1na2vs0mg"},{"bike_id":"b52b9383-70a6-4483-8ef1-20533ea5a1d0","system_id":"levelo_inurba_marseille","lat":43.27371,"lon":5.36255,"is_reserved":false,"is_disabled":false,"rental_uris":{"android":"levelo://app?vid=b52b9383-70a6-4483-8ef1-20533ea5a1d0","ios":"levelo://app?vid=b52b9383-70a6-4483-8ef1-20533ea5a1d0"},"vehicle_type_id":"4","last_reported":1745244581,"current_range_meters":12800,"station_id":"ce4bhbh2rcd13ifvqeo0","pricing_plan_id":"cebpf4jnsgd1na2vs0mg"},{"bike_id":"e77ae347-f37e-4c4c-969c-28c30cf9cb72","system_id":"levelo_inurba_marseille","lat":43.23975,"lon":5.36657,"is_reserved":false,"is_disabled":false,"rental_uris":{"android":"levelo://app?vid=e77ae347-f37e-4c4c-969c-28c30cf9cb72","ios":"levelo://app?vid=e77ae347-f37e-4c4c-969c-28c30cf9cb72"},"vehicle_type_id":"4","last_reported":1745244581,"current_range_meters":12800,"station_id":"ce4bhi12rcd13ifvqfp0","pricing_plan_id":"cebpf4jnsgd1na2vs0mg"},{"bike_id":"a567e3aa-50b1-48de-88c7-ba55d41ddd2a","system_id":"levelo_inurba_marseille","lat":43.28265,"lon":5.35081,"is_reserved":false,"is_disabled":false,"rental_uris":{"android":"levelo://app?vid=a567e3aa-50b1-48de-88c7-ba55d41ddd2a","ios":"levelo://app?vid=a567e3aa-50b1-48de-88c7-ba55d41ddd2a"},"vehicle_type_id":"4","last_reported":1745244581,"current_range_meters":12800,"station_id":"ce4bhbp2rcd13ifvqerg","pricing_plan_id":"cebpf4jnsgd1na2vs0mg"},{"bike_id":"65316918-7830-43bb-b73d-e8bfd86fc8c3","system_id":"levelo_inurba_marseille","lat":43.27206,"lon":5.39178,"is_reserved":false,"is_disabled":false,"rental_uris":{"android":"levelo://app?vid=65316918-7830-43bb-b73d-e8bfd86fc8c3","ios":"levelo://app?vid=65316918-7830-43bb-b73d-e8bfd86fc8c3"},"vehicle_type_id":"4","last_reported":1745244581,"current_range_meters":13600,"station_id":"ce4bhhp2rcd13ifvqfm0","pricing_plan_id":"cebpf4jnsgd1na2vs0mg"},{"bike_id":"be04ba16-53ed-4d6b-b9a5-fd609125c922","system_id":"levelo_inurba_marseille","lat":43.26553,"lon":5.37281,"is_reserved":false,"is_disabled":false,"rental_uris":{"android":"levelo://app?vid=be04ba16-53ed-4d6b-b9a5-fd609125c922","ios":"levelo://app?vid=be04ba16-53ed-4d6b-b9a5-fd609125c922"},"vehicle_type_id":"4","last_reported":1745244581,"current_range_meters":13600,"station_id":"ce4bhg12rcd13ifvqf70","pricing_plan_id":"cebpf4jnsgd1na2vs0mg"},{"bike_id":"6ff41629-37fe-4b76-a72c-8c570dc1d96d","system_id":"levelo_inurba_marseille","lat":43.337319,"lon":5.391862,"is_reserved":false,"is_disabled":false,"rental_uris":{"android":"levelo://app?vid=6ff41629-37fe-4b76-a72c-8c570dc1d96d","ios":"levelo://app?vid=6ff41629-37fe-4b76-a72c-8c570dc1d96d"},"vehicle_type_id":"4","last_reported":1745244581,"current_range_meters":13600,"station_id":"ce4bhr92rcd13ifvqhsg","pricing_plan_id":"cebpf4jnsgd1na2vs0mg"},{"bike_id":"614f6b07-c6a1-4d0d-b5d2-653d32e59731","system_id":"levelo_inurba_marseille","lat":43.292001,"lon":5.35798,"is_reserved":false,"is_disabled":false,"rental_uris":{"android":"levelo://app?vid=614f6b07-c6a1-4d0d-b5d2-653d32e59731","ios":"levelo://app?vid=614f6b07-c6a1-4d0d-b5d2-653d32e59731"},"vehicle_type_id":"4","last_reported":1745244581,"current_range_meters":13600,"station_id":"ce4bhbh2rcd13ifvqepg","pricing_plan_id":"cebpf4jnsgd1na2vs0mg"},{"bike_id":"3119918a-f670-43fe-bf8d-fb23d61949d2","system_id":"levelo_inurba_marseille","lat":43.28627,"lon":5.35093,"is_reserved":false,"is_disabled":false,"rental_uris":{"android":"levelo://app?vid=3119918a-f670-43fe-bf8d-fb23d61949d2","ios":"levelo://app?vid=3119918a-f670-43fe-bf8d-fb23d61949d2"},"vehicle_type_id":"4","last_reported":1745244581,"current_range_meters":13600,"station_id":"ce4bhch2rcd13ifvqeug","pricing_plan_id":"cebpf4jnsgd1na2vs0mg"},{"bike_id":"653ab908-1999-4c30-ab36-9ad3a8e20169","system_id":"levelo_inurba_marseille","lat":43.24174,"lon":5.3642,"is_reserved":false,"is_disabled":false,"rental_uris":{"android":"levelo://app?vid=653ab908-1999-4c30-ab36-9ad3a8e20169","ios":"levelo://app?vid=653ab908-1999-4c30-ab36-9ad3a8e20169"},"vehicle_type_id":"4","last_reported":1745244581,"current_range_meters":13600,"station_id":"cpo36qri1sfpv3e86is0","pricing_plan_id":"cebpf4jnsgd1na2vs0mg"},{"bike_id":"50db0387-7461-40de-84a7-970e01f0c6a9","system_id":"levelo_inurba_marseille","lat":43.24168,"lon":5.36387,"is_reserved":false,"is_disabled":false,"rental_uris":{"android":"levelo://app?vid=50db0387-7461-40de-84a7-970e01f0c6a9","ios":"levelo://app?vid=50db0387-7461-40de-84a7-970e01f0c6a9"},"vehicle_type_id":"4","last_reported":1745244581,"current_range_meters":13600,"station_id":"cpo36qri1sfpv3e86is0","pricing_plan_id":"cebpf4jnsgd1na2vs0mg"},{"bike_id":"c5b28247-86cb-498f-8aea-1b27bc5053fc","system_id":"levelo_inurba_marseille","lat":43.23961,"lon":5.36658,"is_reserved":false,"is_disabled":false,"rental_uris":{"android":"levelo://app?vid=c5b28247-86cb-498f-8aea-1b27bc5053fc","ios":"levelo://app?vid=c5b28247-86cb-498f-8aea-1b27bc5053fc"},"vehicle_type_id":"4","last_reported":1745244581,"current_range_meters":14000,"station_id":"ce4bhi12rcd13ifvqfp0","pricing_plan_id":"cebpf4jnsgd1na2vs0mg"},{"bike_id":"fc8c7d16-8321-48f3-8a00-4b1204fd4767","system_id":"levelo_inurba_marseille","lat":43.31074,"lon":5.38354,"is_reserved":false,"is_disabled":false,"rental_uris":{"android":"levelo://app?vid=fc8c7d16-8321-48f3-8a00-4b1204fd4767","ios":"levelo://app?vid=fc8c7d16-8321-48f3-8a00-4b1204fd4767"},"vehicle_type_id":"4","last_reported":1745244581,"current_range_meters":14000,"station_id":"ce4bgv92rcd13ifvqcr0","pricing_plan_id":"cebpf4jnsgd1na2vs0mg"},{"bike_id":"23f0d44a-a07d-4a50-8248-1c7075376bb7","system_id":"levelo_inurba_marseille","lat":43.26199,"lon":5.37926,"is_reserved":false,"is_disabled":false,"rental_uris":{"android":"levelo://app?vid=23f0d44a-a07d-4a50-8248-1c7075376bb7","ios":"levelo://app?vid=23f0d44a-a07d-4a50-8248-1c7075376bb7"},"vehicle_type_id":"4","last_reported":1745244581,"current_range_meters":14000,"station_id":"ce4bhjp2rcd13ifvqg90","pricing_plan_id":"cebpf4jnsgd1na2vs0mg"},{"bike_id":"126d8d26-a702-4118-9fca-91b2420852f2","system_id":"levelo_inurba_marseille","lat":43.28467,"lon":5.35884,"is_reserved":false,"is_disabled":false,"rental_uris":{"android":"levelo://app?vid=126d8d26-a702-4118-9fca-91b2420852f2","ios":"levelo://app?vid=126d8d26-a702-4118-9fca-91b2420852f2"},"vehicle_type_id":"4","last_reported":1745244581,"current_range_meters":14000,"station_id":"ce4bhah2rcd13ifvqei0","pricing_plan_id":"cebpf4jnsgd1na2vs0mg"},{"bike_id":"b350769a-cf62-4403-980c-3ef1f0271d7e","system_id":"levelo_inurba_marseille","lat":43.26811,"lon":5.40266,"is_reserved":false,"is_disabled":false,"rental_uris":{"android":"levelo://app?vid=b350769a-cf62-4403-980c-3ef1f0271d7e","ios":"levelo://app?vid=b350769a-cf62-4403-980c-3ef1f0271d7e"},"vehicle_type_id":"4","last_reported":1745244581,"current_range_meters":14000,"station_id":"ce501612rcd8frsf0b60","pricing_plan_id":"cebpf4jnsgd1na2vs0mg"},{"bike_id":"6a6d8e3f-cf68-4084-b141-59d40a9cea4d","system_id":"levelo_inurba_marseille","lat":43.239583,"lon":5.366354,"is_reserved":false,"is_disabled":false,"rental_uris":{"android":"levelo://app?vid=6a6d8e3f-cf68-4084-b141-59d40a9cea4d","ios":"levelo://app?vid=6a6d8e3f-cf68-4084-b141-59d40a9cea4d"},"vehicle_type_id":"4","last_reported":1745244581,"current_range_meters":14400,"station_id":"ce4bhi12rcd13ifvqfp0","pricing_plan_id":"cebpf4jnsgd1na2vs0mg"},{"bike_id":"4dfd87d8-34f8-4608-a5ed-6e53bffaab6f","system_id":"levelo_inurba_marseille","lat":43.23179,"lon":5.3999,"is_reserved":false,"is_disabled":false,"rental_uris":{"android":"levelo://app?vid=4dfd87d8-34f8-4608-a5ed-6e53bffaab6f","ios":"levelo://app?vid=4dfd87d8-34f8-4608-a5ed-6e53bffaab6f"},"vehicle_type_id":"4","last_reported":1745244581,"current_range_meters":14400,"station_id":"ce4bhn12rcd13ifvqgqg","pricing_plan_id":"cebpf4jnsgd1na2vs0mg"},{"bike_id":"1ae85bbb-f179-4165-8cb0-de754d6e0939","system_id":"levelo_inurba_marseille","lat":43.23188,"lon":5.39975,"is_reserved":false,"is_disabled":false,"rental_uris":{"android":"levelo://app?vid=1ae85bbb-f179-4165-8cb0-de754d6e0939","ios":"levelo://app?vid=1ae85bbb-f179-4165-8cb0-de754d6e0939"},"vehicle_type_id":"4","last_reported":1745244581,"current_range_meters":14400,"station_id":"ce4bhn12rcd13ifvqgqg","pricing_plan_id":"cebpf4jnsgd1na2vs0mg"},{"bike_id":"f02a624f-cd27-4d18-807d-7a3fe2349a9d","system_id":"levelo_inurba_marseille","lat":43.273695,"lon":5.362579,"is_reserved":false,"is_disabled":false,"rental_uris":{"android":"levelo://app?vid=f02a624f-cd27-4d18-807d-7a3fe2349a9d","ios":"levelo://app?vid=f02a624f-cd27-4d18-807d-7a3fe2349a9d"},"vehicle_type_id":"4","last_reported":1745244581,"current_range_meters":14400,"station_id":"","pricing_plan_id":"cebpf4jnsgd1na2vs0mg"},{"bike_id":"d8b3394b-d95a-4860-864b-a186af8be01c","system_id":"levelo_inurba_marseille","lat":43.30378,"lon":5.42479,"is_reserved":false,"is_disabled":false,"rental_uris":{"android":"levelo://app?vid=d8b3394b-d95a-4860-864b-a186af8be01c","ios":"levelo://app?vid=d8b3394b-d95a-4860-864b-a186af8be01c"},"vehicle_type_id":"4","last_reported":1745244581,"current_range_meters":14800,"station_id":"ce4bhoh2rcd13ifvqh6g","pricing_plan_id":"cebpf4jnsgd1na2vs0mg"},{"bike_id":"2dc4e79a-33a8-48b0-bf03-f6328f1dc1f6","system_id":"levelo_inurba_marseille","lat":43.32364,"lon":5.38882,"is_reserved":false,"is_disabled":true,"rental_uris":{"android":"levelo://app?vid=2dc4e79a-33a8-48b0-bf03-f6328f1dc1f6","ios":"levelo://app?vid=2dc4e79a-33a8-48b0-bf03-f6328f1dc1f6"},"vehicle_type_id":"4","last_reported":1745244581,"current_range_meters":14800,"station_id":"ce4bhqp2rcd13ifvqhog","pricing_plan_id":"cebpf4jnsgd1na2vs0mg"},{"bike_id":"025cf599-8657-4067-9aec-c4b199d62d65","system_id":"levelo_inurba_marseille","lat":43.310823,"lon":5.424323,"is_reserved":false,"is_disabled":false,"rental_uris":{"android":"levelo://app?vid=025cf599-8657-4067-9aec-c4b199d62d65","ios":"levelo://app?vid=025cf599-8657-4067-9aec-c4b199d62d65"},"vehicle_type_id":"4","last_reported":1745244581,"current_range_meters":14800,"station_id":"ce4bhp92rcd13ifvqhag","pricing_plan_id":"cebpf4jnsgd1na2vs0mg"},{"bike_id":"051301b3-fb96-44bc-be13-8f1c5ff3b17f","system_id":"levelo_inurba_marseille","lat":43.288937,"lon":5.354058,"is_reserved":false,"is_disabled":false,"rental_uris":{"android":"levelo://app?vid=051301b3-fb96-44bc-be13-8f1c5ff3b17f","ios":"levelo://app?vid=051301b3-fb96-44bc-be13-8f1c5ff3b17f"},"vehicle_type_id":"4","last_reported":1745244581,"current_range_meters":14800,"station_id":"ce4bgup2rcd13ifvqcn0","pricing_plan_id":"cebpf4jnsgd1na2vs0mg"},{"bike_id":"a1dd0ac5-c803-4808-b92f-32126a31934e","system_id":"levelo_inurba_marseille","lat":43.27367,"lon":5.36249,"is_reserved":false,"is_disabled":false,"rental_uris":{"android":"levelo://app?vid=a1dd0ac5-c803-4808-b92f-32126a31934e","ios":"levelo://app?vid=a1dd0ac5-c803-4808-b92f-32126a31934e"},"vehicle_type_id":"4","last_reported":1745244581,"current_range_meters":14800,"station_id":"ce4bhbh2rcd13ifvqeo0","pricing_plan_id":"cebpf4jnsgd1na2vs0mg"},{"bike_id":"279c7f94-06a5-4566-a93c-a758228cfe59","system_id":"levelo_inurba_marseille","lat":43.27374,"lon":5.36246,"is_reserved":false,"is_disabled":false,"rental_uris":{"android":"levelo://app?vid=279c7f94-06a5-4566-a93c-a758228cfe59","ios":"levelo://app?vid=279c7f94-06a5-4566-a93c-a758228cfe59"},"vehicle_type_id":"4","last_reported":1745244581,"current_range_meters":16000,"station_id":"ce4bhbh2rcd13ifvqeo0","pricing_plan_id":"cebpf4jnsgd1na2vs0mg"},{"bike_id":"693e6691-a3bc-4030-bc82-a153101ac4f1","system_id":"levelo_inurba_marseille","lat":43.22931,"lon":5.35371,"is_reserved":false,"is_disabled":false,"rental_uris":{"android":"levelo://app?vid=693e6691-a3bc-4030-bc82-a153101ac4f1","ios":"levelo://app?vid=693e6691-a3bc-4030-bc82-a153101ac4f1"},"vehicle_type_id":"4","last_reported":1745244581,"current_range_meters":15200,"station_id":"cpo3532slgdg3j2ikp40","pricing_plan_id":"cebpf4jnsgd1na2vs0mg"},{"bike_id":"9f875adf-a222-4032-a948-6a5830d068ee","system_id":"levelo_inurba_marseille","lat":43.23191,"lon":5.35549,"is_reserved":false,"is_disabled":false,"rental_uris":{"android":"levelo://app?vid=9f875adf-a222-4032-a948-6a5830d068ee","ios":"levelo://app?vid=9f875adf-a222-4032-a948-6a5830d068ee"},"vehicle_type_id":"4","last_reported":1745244581,"current_range_meters":16000,"station_id":"ce4bhu92rcd13ifvqi70","pricing_plan_id":"cebpf4jnsgd1na2vs0mg"},{"bike_id":"5a377d85-9d9e-4be4-aace-903fd2cd7c51","system_id":"levelo_inurba_marseille","lat":43.2657,"lon":5.37297,"is_reserved":false,"is_disabled":false,"rental_uris":{"android":"levelo://app?vid=5a377d85-9d9e-4be4-aace-903fd2cd7c51","ios":"levelo://app?vid=5a377d85-9d9e-4be4-aace-903fd2cd7c51"},"vehicle_type_id":"4","last_reported":1745244581,"current_range_meters":16000,"station_id":"ce4bhg12rcd13ifvqf70","pricing_plan_id":"cebpf4jnsgd1na2vs0mg"},{"bike_id":"5a9b1833-eebf-4fc0-a84d-2bd913724bc8","system_id":"levelo_inurba_marseille","lat":43.23941,"lon":5.36652,"is_reserved":false,"is_disabled":false,"rental_uris":{"android":"levelo://app?vid=5a9b1833-eebf-4fc0-a84d-2bd913724bc8","ios":"levelo://app?vid=5a9b1833-eebf-4fc0-a84d-2bd913724bc8"},"vehicle_type_id":"4","last_reported":1745244581,"current_range_meters":16000,"station_id":"ce4bhi12rcd13ifvqfp0","pricing_plan_id":"cebpf4jnsgd1na2vs0mg"},{"bike_id":"3a9e4e79-76a7-4e9e-986e-c31831c3262d","system_id":"levelo_inurba_marseille","lat":43.2842,"lon":5.34975,"is_reserved":false,"is_disabled":false,"rental_uris":{"android":"levelo://app?vid=3a9e4e79-76a7-4e9e-986e-c31831c3262d","ios":"levelo://app?vid=3a9e4e79-76a7-4e9e-986e-c31831c3262d"},"vehicle_type_id":"4","last_reported":1745244581,"current_range_meters":16000,"station_id":"ce4bhbh2rcd13ifvqepg","pricing_plan_id":"cebpf4jnsgd1na2vs0mg"},{"bike_id":"69436d87-18c0-4312-9fd1-fe79ab491049","system_id":"levelo_inurba_marseille","lat":43.28611,"lon":5.35104,"is_reserved":false,"is_disabled":false,"rental_uris":{"android":"levelo://app?vid=69436d87-18c0-4312-9fd1-fe79ab491049","ios":"levelo://app?vid=69436d87-18c0-4312-9fd1-fe79ab491049"},"vehicle_type_id":"4","last_reported":1745244581,"current_range_meters":16000,"station_id":"ce4bhch2rcd13ifvqeug","pricing_plan_id":"cebpf4jnsgd1na2vs0mg"},{"bike_id":"c681b189-b8fc-4c04-8656-8dbbafad48a5","system_id":"levelo_inurba_marseille","lat":43.28615,"lon":5.35104,"is_reserved":false,"is_disabled":false,"rental_uris":{"android":"levelo://app?vid=c681b189-b8fc-4c04-8656-8dbbafad48a5","ios":"levelo://app?vid=c681b189-b8fc-4c04-8656-8dbbafad48a5"},"vehicle_type_id":"4","last_reported":1745244581,"current_range_meters":16000,"station_id":"ce4bhch2rcd13ifvqeug","pricing_plan_id":"cebpf4jnsgd1na2vs0mg"},{"bike_id":"a277d0b7-be7d-4204-bb75-66b6655a8217","system_id":"levelo_inurba_marseille","lat":43.23968,"lon":5.36628,"is_reserved":false,"is_disabled":false,"rental_uris":{"android":"levelo://app?vid=a277d0b7-be7d-4204-bb75-66b6655a8217","ios":"levelo://app?vid=a277d0b7-be7d-4204-bb75-66b6655a8217"},"vehicle_type_id":"4","last_reported":1745244581,"current_range_meters":16000,"station_id":"ce4bhi12rcd13ifvqfp0","pricing_plan_id":"cebpf4jnsgd1na2vs0mg"},{"bike_id":"a1342985-a19e-4d8f-831e-a21b5110f40f","system_id":"levelo_inurba_marseille","lat":43.273707,"lon":5.362591,"is_reserved":false,"is_disabled":false,"rental_uris":{"android":"levelo://app?vid=a1342985-a19e-4d8f-831e-a21b5110f40f","ios":"levelo://app?vid=a1342985-a19e-4d8f-831e-a21b5110f40f"},"vehicle_type_id":"4","last_reported":1745244581,"current_range_meters":16000,"station_id":"ce4bhbh2rcd13ifvqeo0","pricing_plan_id":"cebpf4jnsgd1na2vs0mg"},{"bike_id":"4032f117-3871-440d-a041-2d606036424c","system_id":"levelo_inurba_marseille","lat":43.24166,"lon":5.36389,"is_reserved":false,"is_disabled":false,"rental_uris":{"android":"levelo://app?vid=4032f117-3871-440d-a041-2d606036424c","ios":"levelo://app?vid=4032f117-3871-440d-a041-2d606036424c"},"vehicle_type_id":"4","last_reported":1745244581,"current_range_meters":16000,"station_id":"cpo36qri1sfpv3e86is0","pricing_plan_id":"cebpf4jnsgd1na2vs0mg"},{"bike_id":"5151fa4d-cd7f-42d0-9fa2-4b32526bb904","system_id":"levelo_inurba_marseille","lat":43.24165,"lon":5.39728,"is_reserved":false,"is_disabled":true,"rental_uris":{"android":"levelo://app?vid=5151fa4d-cd7f-42d0-9fa2-4b32526bb904","ios":"levelo://app?vid=5151fa4d-cd7f-42d0-9fa2-4b32526bb904"},"vehicle_type_id":"4","last_reported":1745244581,"current_range_meters":16400,"station_id":"ce4bhn12rcd13ifvqgpg","pricing_plan_id":"cebpf4jnsgd1na2vs0mg"},{"bike_id":"f718fdb9-7d03-4510-a401-0de2dfaec0aa","system_id":"levelo_inurba_marseille","lat":43.27374,"lon":5.3625,"is_reserved":false,"is_disabled":false,"rental_uris":{"android":"levelo://app?vid=f718fdb9-7d03-4510-a401-0de2dfaec0aa","ios":"levelo://app?vid=f718fdb9-7d03-4510-a401-0de2dfaec0aa"},"vehicle_type_id":"4","last_reported":1745244581,"current_range_meters":16400,"station_id":"ce4bhbh2rcd13ifvqeo0","pricing_plan_id":"cebpf4jnsgd1na2vs0mg"},{"bike_id":"6a360876-b8d9-4d4e-adc9-a625837346ae","system_id":"levelo_inurba_marseille","lat":43.24166,"lon":5.36393,"is_reserved":false,"is_disabled":false,"rental_uris":{"android":"levelo://app?vid=6a360876-b8d9-4d4e-adc9-a625837346ae","ios":"levelo://app?vid=6a360876-b8d9-4d4e-adc9-a625837346ae"},"vehicle_type_id":"4","last_reported":1745244581,"current_range_meters":16400,"station_id":"cpo36qri1sfpv3e86is0","pricing_plan_id":"cebpf4jnsgd1na2vs0mg"},{"bike_id":"8682824e-aca3-4ff4-ab51-e44bf0b8d020","system_id":"levelo_inurba_marseille","lat":43.29025,"lon":5.38129,"is_reserved":false,"is_disabled":false,"rental_uris":{"android":"levelo://app?vid=8682824e-aca3-4ff4-ab51-e44bf0b8d020","ios":"levelo://app?vid=8682824e-aca3-4ff4-ab51-e44bf0b8d020"},"vehicle_type_id":"4","last_reported":1745244581,"current_range_meters":17200,"station_id":"ce4bh4p2rcd13ifvqe1g","pricing_plan_id":"cebpf4jnsgd1na2vs0mg"},{"bike_id":"afca05cb-9dea-4e13-bae3-b0bd83251e29","system_id":"levelo_inurba_marseille","lat":43.21201,"lon":5.35081,"is_reserved":false,"is_disabled":false,"rental_uris":{"android":"levelo://app?vid=afca05cb-9dea-4e13-bae3-b0bd83251e29","ios":"levelo://app?vid=afca05cb-9dea-4e13-bae3-b0bd83251e29"},"vehicle_type_id":"4","last_reported":1745244581,"current_range_meters":16400,"station_id":"st_cvj6sg6p6f1abm77japg","pricing_plan_id":"cebpf4jnsgd1na2vs0mg"},{"bike_id":"5cd15a25-f8ea-4026-8393-713e43d75dc1","system_id":"levelo_inurba_marseille","lat":43.31357,"lon":5.38497,"is_reserved":false,"is_disabled":false,"rental_uris":{"android":"levelo://app?vid=5cd15a25-f8ea-4026-8393-713e43d75dc1","ios":"levelo://app?vid=5cd15a25-f8ea-4026-8393-713e43d75dc1"},"vehicle_type_id":"4","last_reported":1745244581,"current_range_meters":16800,"station_id":"ce4bgt92rcd13ifvqcf0","pricing_plan_id":"cebpf4jnsgd1na2vs0mg"},{"bike_id":"5d515b38-21f5-4fdf-b0d6-8bff8b3f76cd","system_id":"levelo_inurba_marseille","lat":43.2319,"lon":5.35559,"is_reserved":false,"is_disabled":false,"rental_uris":{"android":"levelo://app?vid=5d515b38-21f5-4fdf-b0d6-8bff8b3f76cd","ios":"levelo://app?vid=5d515b38-21f5-4fdf-b0d6-8bff8b3f76cd"},"vehicle_type_id":"4","last_reported":1745244581,"current_range_meters":16400,"station_id":"ce4bhu92rcd13ifvqi70","pricing_plan_id":"cebpf4jnsgd1na2vs0mg"},{"bike_id":"fc688553-a731-4892-b3bd-82642ad2bfcf","system_id":"levelo_inurba_marseille","lat":43.28676,"lon":5.36353,"is_reserved":false,"is_disabled":false,"rental_uris":{"android":"levelo://app?vid=fc688553-a731-4892-b3bd-82642ad2bfcf","ios":"levelo://app?vid=fc688553-a731-4892-b3bd-82642ad2bfcf"},"vehicle_type_id":"4","last_reported":1745244581,"current_range_meters":16800,"station_id":"ce4bhah2rcd13ifvqej0","pricing_plan_id":"cebpf4jnsgd1na2vs0mg"},{"bike_id":"e4ff3e27-6ec4-4fea-9ed1-5682b4527bc8","system_id":"levelo_inurba_marseille","lat":43.29849,"lon":5.3627,"is_reserved":false,"is_disabled":false,"rental_uris":{"android":"levelo://app?vid=e4ff3e27-6ec4-4fea-9ed1-5682b4527bc8","ios":"levelo://app?vid=e4ff3e27-6ec4-4fea-9ed1-5682b4527bc8"},"vehicle_type_id":"4","last_reported":1745244581,"current_range_meters":16800,"station_id":"ce4bgpp2rcd13ifvqc3g","pricing_plan_id":"cebpf4jnsgd1na2vs0mg"},{"bike_id":"b42cddd9-41c3-4d8e-91db-fe0cf577805b","system_id":"levelo_inurba_marseille","lat":43.2656,"lon":5.37279,"is_reserved":false,"is_disabled":false,"rental_uris":{"android":"levelo://app?vid=b42cddd9-41c3-4d8e-91db-fe0cf577805b","ios":"levelo://app?vid=b42cddd9-41c3-4d8e-91db-fe0cf577805b"},"vehicle_type_id":"4","last_reported":1745244581,"current_range_meters":16800,"station_id":"ce4bhg12rcd13ifvqf70","pricing_plan_id":"cebpf4jnsgd1na2vs0mg"},{"bike_id":"f3bbad32-26cf-4121-a8fd-42c8e0cfb6aa","system_id":"levelo_inurba_marseille","lat":43.231887,"lon":5.355573,"is_reserved":false,"is_disabled":false,"rental_uris":{"android":"levelo://app?vid=f3bbad32-26cf-4121-a8fd-42c8e0cfb6aa","ios":"levelo://app?vid=f3bbad32-26cf-4121-a8fd-42c8e0cfb6aa"},"vehicle_type_id":"4","last_reported":1745244581,"current_range_meters":16800,"station_id":"ce4bhu92rcd13ifvqi70","pricing_plan_id":"cebpf4jnsgd1na2vs0mg"},{"bike_id":"d833f896-c9c9-4ebb-9362-a458ef5189b8","system_id":"levelo_inurba_marseille","lat":43.28262,"lon":5.35081,"is_reserved":false,"is_disabled":false,"rental_uris":{"android":"levelo://app?vid=d833f896-c9c9-4ebb-9362-a458ef5189b8","ios":"levelo://app?vid=d833f896-c9c9-4ebb-9362-a458ef5189b8"},"vehicle_type_id":"4","last_reported":1745244581,"current_range_meters":16800,"station_id":"ce4bhbp2rcd13ifvqerg","pricing_plan_id":"cebpf4jnsgd1na2vs0mg"},{"bike_id":"437ba25a-ca27-4693-9456-8b815b84766a","system_id":"levelo_inurba_marseille","lat":43.21186,"lon":5.35079,"is_reserved":false,"is_disabled":false,"rental_uris":{"android":"levelo://app?vid=437ba25a-ca27-4693-9456-8b815b84766a","ios":"levelo://app?vid=437ba25a-ca27-4693-9456-8b815b84766a"},"vehicle_type_id":"4","last_reported":1745244581,"current_range_meters":16800,"station_id":"st_cvj6sg6p6f1abm77japg","pricing_plan_id":"cebpf4jnsgd1na2vs0mg"},{"bike_id":"de3a2dca-69ab-4e4f-8f17-fc4f6cefc81c","system_id":"levelo_inurba_marseille","lat":43.28273,"lon":5.35078,"is_reserved":false,"is_disabled":false,"rental_uris":{"android":"levelo://app?vid=de3a2dca-69ab-4e4f-8f17-fc4f6cefc81c","ios":"levelo://app?vid=de3a2dca-69ab-4e4f-8f17-fc4f6cefc81c"},"vehicle_type_id":"4","last_reported":1745244581,"current_range_meters":16800,"station_id":"ce4bhbp2rcd13ifvqerg","pricing_plan_id":"cebpf4jnsgd1na2vs0mg"},{"bike_id":"52f6683d-5efd-416f-8a0d-a20eea2efb55","system_id":"levelo_inurba_marseille","lat":43.27377,"lon":5.3626,"is_reserved":false,"is_disabled":false,"rental_uris":{"android":"levelo://app?vid=52f6683d-5efd-416f-8a0d-a20eea2efb55","ios":"levelo://app?vid=52f6683d-5efd-416f-8a0d-a20eea2efb55"},"vehicle_type_id":"4","last_reported":1745244581,"current_range_meters":16800,"station_id":"ce4bhbh2rcd13ifvqeo0","pricing_plan_id":"cebpf4jnsgd1na2vs0mg"},{"bike_id":"bf2e0d77-4847-4ad7-b04c-92d3e6a8bd79","system_id":"levelo_inurba_marseille","lat":43.272088,"lon":5.391801,"is_reserved":false,"is_disabled":false,"rental_uris":{"android":"levelo://app?vid=bf2e0d77-4847-4ad7-b04c-92d3e6a8bd79","ios":"levelo://app?vid=bf2e0d77-4847-4ad7-b04c-92d3e6a8bd79"},"vehicle_type_id":"4","last_reported":1745244581,"current_range_meters":17200,"station_id":"ce4bhhp2rcd13ifvqfm0","pricing_plan_id":"cebpf4jnsgd1na2vs0mg"},{"bike_id":"21dc49ee-0f5f-41d0-a8fb-f4a9120ae712","system_id":"levelo_inurba_marseille","lat":43.21753,"lon":5.34596,"is_reserved":false,"is_disabled":false,"rental_uris":{"android":"levelo://app?vid=21dc49ee-0f5f-41d0-a8fb-f4a9120ae712","ios":"levelo://app?vid=21dc49ee-0f5f-41d0-a8fb-f4a9120ae712"},"vehicle_type_id":"4","last_reported":1745244581,"current_range_meters":17200,"station_id":"st_cvj6r9ubvosntc0bgbag","pricing_plan_id":"cebpf4jnsgd1na2vs0mg"},{"bike_id":"a6481c89-3c5d-4544-b240-855aadd2a8f7","system_id":"levelo_inurba_marseille","lat":43.23056,"lon":5.35489,"is_reserved":false,"is_disabled":false,"rental_uris":{"android":"levelo://app?vid=a6481c89-3c5d-4544-b240-855aadd2a8f7","ios":"levelo://app?vid=a6481c89-3c5d-4544-b240-855aadd2a8f7"},"vehicle_type_id":"4","last_reported":1745244581,"current_range_meters":17200,"station_id":"cpo3342slgdg3j2ifvpg","pricing_plan_id":"cebpf4jnsgd1na2vs0mg"},{"bike_id":"38cc4dea-a2a9-4c9b-b0a4-bccc13e13d9f","system_id":"levelo_inurba_marseille","lat":43.26191,"lon":5.37457,"is_reserved":false,"is_disabled":true,"rental_uris":{"android":"levelo://app?vid=38cc4dea-a2a9-4c9b-b0a4-bccc13e13d9f","ios":"levelo://app?vid=38cc4dea-a2a9-4c9b-b0a4-bccc13e13d9f"},"vehicle_type_id":"4","last_reported":1745244581,"current_range_meters":17200,"station_id":"ce4bhgp2rcd13ifvqfc0","pricing_plan_id":"cebpf4jnsgd1na2vs0mg"},{"bike_id":"3f1bab17-9b2d-48f6-bdd4-c057187a5399","system_id":"levelo_inurba_marseille","lat":43.24386,"lon":5.3706,"is_reserved":false,"is_disabled":false,"rental_uris":{"android":"levelo://app?vid=3f1bab17-9b2d-48f6-bdd4-c057187a5399","ios":"levelo://app?vid=3f1bab17-9b2d-48f6-bdd4-c057187a5399"},"vehicle_type_id":"4","last_reported":1745244581,"current_range_meters":17200,"station_id":"ce4bhhh2rcd13ifvqfk0","pricing_plan_id":"cebpf4jnsgd1na2vs0mg"},{"bike_id":"10c5d023-c699-43ea-b1ee-d06f3fde446d","system_id":"levelo_inurba_marseille","lat":43.23158,"lon":5.43688,"is_reserved":false,"is_disabled":false,"rental_uris":{"android":"levelo://app?vid=10c5d023-c699-43ea-b1ee-d06f3fde446d","ios":"levelo://app?vid=10c5d023-c699-43ea-b1ee-d06f3fde446d"},"vehicle_type_id":"4","last_reported":1745244581,"current_range_meters":17200,"station_id":"ce4bhmp2rcd13ifvqgog","pricing_plan_id":"cebpf4jnsgd1na2vs0mg"},{"bike_id":"0f204455-bf7f-457a-9a26-5a476f0e6b02","system_id":"levelo_inurba_marseille","lat":43.26063,"lon":5.39389,"is_reserved":false,"is_disabled":false,"rental_uris":{"android":"levelo://app?vid=0f204455-bf7f-457a-9a26-5a476f0e6b02","ios":"levelo://app?vid=0f204455-bf7f-457a-9a26-5a476f0e6b02"},"vehicle_type_id":"4","last_reported":1745244581,"current_range_meters":17600,"station_id":"ce4bhh92rcd13ifvqfj0","pricing_plan_id":"cebpf4jnsgd1na2vs0mg"},{"bike_id":"6b4282bc-9432-4c95-847b-7452cf13e716","system_id":"levelo_inurba_marseille","lat":43.28605,"lon":5.37057,"is_reserved":false,"is_disabled":true,"rental_uris":{"android":"levelo://app?vid=6b4282bc-9432-4c95-847b-7452cf13e716","ios":"levelo://app?vid=6b4282bc-9432-4c95-847b-7452cf13e716"},"vehicle_type_id":"4","last_reported":1745244581,"current_range_meters":17600,"station_id":"","pricing_plan_id":"cebpf4jnsgd1na2vs0mg"},{"bike_id":"2a35ab10-f416-439f-a4fa-784873cd587f","system_id":"levelo_inurba_marseille","lat":43.26948,"lon":5.38626,"is_reserved":false,"is_disabled":true,"rental_uris":{"android":"levelo://app?vid=2a35ab10-f416-439f-a4fa-784873cd587f","ios":"levelo://app?vid=2a35ab10-f416-439f-a4fa-784873cd587f"},"vehicle_type_id":"4","last_reported":1745244581,"current_range_meters":17600,"station_id":"ce4bhh92rcd13ifvqfh0","pricing_plan_id":"cebpf4jnsgd1na2vs0mg"},{"bike_id":"2818e963-47bc-41f8-a5fb-eeaf62311653","system_id":"levelo_inurba_marseille","lat":43.27374,"lon":5.36252,"is_reserved":false,"is_disabled":false,"rental_uris":{"android":"levelo://app?vid=2818e963-47bc-41f8-a5fb-eeaf62311653","ios":"levelo://app?vid=2818e963-47bc-41f8-a5fb-eeaf62311653"},"vehicle_type_id":"4","last_reported":1745244581,"current_range_meters":17600,"station_id":"ce4bhbh2rcd13ifvqeo0","pricing_plan_id":"cebpf4jnsgd1na2vs0mg"},{"bike_id":"4dd17920-1c99-412b-9781-6ee80217acb4","system_id":"levelo_inurba_marseille","lat":43.282655,"lon":5.350718,"is_reserved":false,"is_disabled":false,"rental_uris":{"android":"levelo://app?vid=4dd17920-1c99-412b-9781-6ee80217acb4","ios":"levelo://app?vid=4dd17920-1c99-412b-9781-6ee80217acb4"},"vehicle_type_id":"4","last_reported":1745244581,"current_range_meters":17600,"station_id":"ce4bhbp2rcd13ifvqerg","pricing_plan_id":"cebpf4jnsgd1na2vs0mg"},{"bike_id":"e6be21ec-d143-4de5-98e0-79740507a349","system_id":"levelo_inurba_marseille","lat":43.23154,"lon":5.43708,"is_reserved":false,"is_disabled":false,"rental_uris":{"android":"levelo://app?vid=e6be21ec-d143-4de5-98e0-79740507a349","ios":"levelo://app?vid=e6be21ec-d143-4de5-98e0-79740507a349"},"vehicle_type_id":"4","last_reported":1745244581,"current_range_meters":17600,"station_id":"ce4bhmp2rcd13ifvqgog","pricing_plan_id":"cebpf4jnsgd1na2vs0mg"},{"bike_id":"137d6f7b-447f-4e55-b338-752dd215843c","system_id":"levelo_inurba_marseille","lat":43.2708,"lon":5.40333,"is_reserved":false,"is_disabled":false,"rental_uris":{"android":"levelo://app?vid=137d6f7b-447f-4e55-b338-752dd215843c","ios":"levelo://app?vid=137d6f7b-447f-4e55-b338-752dd215843c"},"vehicle_type_id":"4","last_reported":1745244581,"current_range_meters":17600,"station_id":"","pricing_plan_id":"cebpf4jnsgd1na2vs0mg"},{"bike_id":"74328d2e-0a97-4101-9783-c7a397937a84","system_id":"levelo_inurba_marseille","lat":43.26056,"lon":5.39397,"is_reserved":false,"is_disabled":false,"rental_uris":{"android":"levelo://app?vid=74328d2e-0a97-4101-9783-c7a397937a84","ios":"levelo://app?vid=74328d2e-0a97-4101-9783-c7a397937a84"},"vehicle_type_id":"4","last_reported":1745244581,"current_range_meters":18000,"station_id":"ce4bhh92rcd13ifvqfj0","pricing_plan_id":"cebpf4jnsgd1na2vs0mg"},{"bike_id":"a0c96b4d-9c16-45e4-8dba-d3257dc91590","system_id":"levelo_inurba_marseille","lat":43.2315,"lon":5.43716,"is_reserved":false,"is_disabled":false,"rental_uris":{"android":"levelo://app?vid=a0c96b4d-9c16-45e4-8dba-d3257dc91590","ios":"levelo://app?vid=a0c96b4d-9c16-45e4-8dba-d3257dc91590"},"vehicle_type_id":"4","last_reported":1745244581,"current_range_meters":18000,"station_id":"ce4bhmp2rcd13ifvqgog","pricing_plan_id":"cebpf4jnsgd1na2vs0mg"},{"bike_id":"b016c3c4-9cba-4c70-8f76-555f43d77271","system_id":"levelo_inurba_marseille","lat":43.28039,"lon":5.36946,"is_reserved":false,"is_disabled":false,"rental_uris":{"android":"levelo://app?vid=b016c3c4-9cba-4c70-8f76-555f43d77271","ios":"levelo://app?vid=b016c3c4-9cba-4c70-8f76-555f43d77271"},"vehicle_type_id":"4","last_reported":1745244581,"current_range_meters":18000,"station_id":"ce4bha12rcd13ifvqef0","pricing_plan_id":"cebpf4jnsgd1na2vs0mg"},{"bike_id":"e5a6012f-a1a2-4c3e-b6da-8f47c28f7b98","system_id":"levelo_inurba_marseille","lat":43.23183,"lon":5.39988,"is_reserved":false,"is_disabled":false,"rental_uris":{"android":"levelo://app?vid=e5a6012f-a1a2-4c3e-b6da-8f47c28f7b98","ios":"levelo://app?vid=e5a6012f-a1a2-4c3e-b6da-8f47c28f7b98"},"vehicle_type_id":"4","last_reported":1745244581,"current_range_meters":18000,"station_id":"ce4bhn12rcd13ifvqgqg","pricing_plan_id":"cebpf4jnsgd1na2vs0mg"},{"bike_id":"e4dfacde-3d76-421d-bbb8-b61c49133675","system_id":"levelo_inurba_marseille","lat":43.29277,"lon":5.40115,"is_reserved":false,"is_disabled":false,"rental_uris":{"android":"levelo://app?vid=e4dfacde-3d76-421d-bbb8-b61c49133675","ios":"levelo://app?vid=e4dfacde-3d76-421d-bbb8-b61c49133675"},"vehicle_type_id":"4","last_reported":1745244581,"current_range_meters":18000,"station_id":"ce4bh312rcd13ifvqdk0","pricing_plan_id":"cebpf4jnsgd1na2vs0mg"},{"bike_id":"19c65f67-dec2-44e4-86ff-ff51fa79e163","system_id":"levelo_inurba_marseille","lat":43.27615,"lon":5.36103,"is_reserved":false,"is_disabled":false,"rental_uris":{"android":"levelo://app?vid=19c65f67-dec2-44e4-86ff-ff51fa79e163","ios":"levelo://app?vid=19c65f67-dec2-44e4-86ff-ff51fa79e163"},"vehicle_type_id":"4","last_reported":1745244581,"current_range_meters":18000,"station_id":"ce4bgj92rcd13ifvqbe0","pricing_plan_id":"cebpf4jnsgd1na2vs0mg"},{"bike_id":"629db482-e3b9-4f10-8f82-76441c5d0529","system_id":"levelo_inurba_marseille","lat":43.23149,"lon":5.43718,"is_reserved":false,"is_disabled":false,"rental_uris":{"android":"levelo://app?vid=629db482-e3b9-4f10-8f82-76441c5d0529","ios":"levelo://app?vid=629db482-e3b9-4f10-8f82-76441c5d0529"},"vehicle_type_id":"4","last_reported":1745244581,"current_range_meters":18000,"station_id":"ce4bhmp2rcd13ifvqgog","pricing_plan_id":"cebpf4jnsgd1na2vs0mg"},{"bike_id":"c349e582-0c24-4f3f-8c56-60cbcd90caf8","system_id":"levelo_inurba_marseille","lat":43.28418,"lon":5.34987,"is_reserved":false,"is_disabled":false,"rental_uris":{"android":"levelo://app?vid=c349e582-0c24-4f3f-8c56-60cbcd90caf8","ios":"levelo://app?vid=c349e582-0c24-4f3f-8c56-60cbcd90caf8"},"vehicle_type_id":"4","last_reported":1745244581,"current_range_meters":18800,"station_id":"ce4bhbh2rcd13ifvqepg","pricing_plan_id":"cebpf4jnsgd1na2vs0mg"},{"bike_id":"17974182-c006-42e7-ac29-632d1bf28b72","system_id":"levelo_inurba_marseille","lat":43.32338,"lon":5.40621,"is_reserved":false,"is_disabled":false,"rental_uris":{"android":"levelo://app?vid=17974182-c006-42e7-ac29-632d1bf28b72","ios":"levelo://app?vid=17974182-c006-42e7-ac29-632d1bf28b72"},"vehicle_type_id":"4","last_reported":1745244581,"current_range_meters":18800,"station_id":"ce4bhq92rcd13ifvqhjg","pricing_plan_id":"cebpf4jnsgd1na2vs0mg"},{"bike_id":"013b0bba-3a8e-4176-aec5-9b030be1a006","system_id":"levelo_inurba_marseille","lat":43.31731,"lon":5.37776,"is_reserved":false,"is_disabled":false,"rental_uris":{"android":"levelo://app?vid=013b0bba-3a8e-4176-aec5-9b030be1a006","ios":"levelo://app?vid=013b0bba-3a8e-4176-aec5-9b030be1a006"},"vehicle_type_id":"4","last_reported":1745244581,"current_range_meters":18800,"station_id":"ce4bgth2rcd13ifvqch0","pricing_plan_id":"cebpf4jnsgd1na2vs0mg"},{"bike_id":"7b2dc864-a4e9-468c-9cee-f3075a20977d","system_id":"levelo_inurba_marseille","lat":43.3113,"lon":5.37796,"is_reserved":false,"is_disabled":false,"rental_uris":{"android":"levelo://app?vid=7b2dc864-a4e9-468c-9cee-f3075a20977d","ios":"levelo://app?vid=7b2dc864-a4e9-468c-9cee-f3075a20977d"},"vehicle_type_id":"4","last_reported":1745244581,"current_range_meters":18800,"station_id":"ce4bgt92rcd13ifvqcg0","pricing_plan_id":"cebpf4jnsgd1na2vs0mg"},{"bike_id":"8b842d15-c357-4aee-b61b-e0a562e5517b","system_id":"levelo_inurba_marseille","lat":43.28034,"lon":5.36948,"is_reserved":false,"is_disabled":false,"rental_uris":{"android":"levelo://app?vid=8b842d15-c357-4aee-b61b-e0a562e5517b","ios":"levelo://app?vid=8b842d15-c357-4aee-b61b-e0a562e5517b"},"vehicle_type_id":"4","last_reported":1745244581,"current_range_meters":18800,"station_id":"ce4bha12rcd13ifvqef0","pricing_plan_id":"cebpf4jnsgd1na2vs0mg"},{"bike_id":"8207d3bc-5fe6-4483-9c6a-ec1bd57e02df","system_id":"levelo_inurba_marseille","lat":43.211979,"lon":5.350689,"is_reserved":false,"is_disabled":false,"rental_uris":{"android":"levelo://app?vid=8207d3bc-5fe6-4483-9c6a-ec1bd57e02df","ios":"levelo://app?vid=8207d3bc-5fe6-4483-9c6a-ec1bd57e02df"},"vehicle_type_id":"4","last_reported":1745244581,"current_range_meters":18800,"station_id":"st_cvj6sg6p6f1abm77japg","pricing_plan_id":"cebpf4jnsgd1na2vs0mg"},{"bike_id":"f3dce5f5-d18b-42fc-a7a5-1c0ae56736af","system_id":"levelo_inurba_marseille","lat":43.29298,"lon":5.38513,"is_reserved":false,"is_disabled":false,"rental_uris":{"android":"levelo://app?vid=f3dce5f5-d18b-42fc-a7a5-1c0ae56736af","ios":"levelo://app?vid=f3dce5f5-d18b-42fc-a7a5-1c0ae56736af"},"vehicle_type_id":"4","last_reported":1745244581,"current_range_meters":18800,"station_id":"","pricing_plan_id":"cebpf4jnsgd1na2vs0mg"},{"bike_id":"f06ea1e3-2cd2-4c86-877e-d99d843b21b0","system_id":"levelo_inurba_marseille","lat":43.21739,"lon":5.34616,"is_reserved":false,"is_disabled":false,"rental_uris":{"android":"levelo://app?vid=f06ea1e3-2cd2-4c86-877e-d99d843b21b0","ios":"levelo://app?vid=f06ea1e3-2cd2-4c86-877e-d99d843b21b0"},"vehicle_type_id":"4","last_reported":1745244581,"current_range_meters":18800,"station_id":"st_cvj6r9ubvosntc0bgbag","pricing_plan_id":"cebpf4jnsgd1na2vs0mg"},{"bike_id":"e7291798-fcc9-4bd4-bdf6-4f1e13732d34","system_id":"levelo_inurba_marseille","lat":43.23969,"lon":5.36618,"is_reserved":false,"is_disabled":false,"rental_uris":{"android":"levelo://app?vid=e7291798-fcc9-4bd4-bdf6-4f1e13732d34","ios":"levelo://app?vid=e7291798-fcc9-4bd4-bdf6-4f1e13732d34"},"vehicle_type_id":"4","last_reported":1745244581,"current_range_meters":18800,"station_id":"ce4bhi12rcd13ifvqfp0","pricing_plan_id":"cebpf4jnsgd1na2vs0mg"},{"bike_id":"1d7aba11-9589-4da6-9c6b-93e185b09aff","system_id":"levelo_inurba_marseille","lat":43.29987,"lon":5.37167,"is_reserved":false,"is_disabled":false,"rental_uris":{"android":"levelo://app?vid=1d7aba11-9589-4da6-9c6b-93e185b09aff","ios":"levelo://app?vid=1d7aba11-9589-4da6-9c6b-93e185b09aff"},"vehicle_type_id":"4","last_reported":1745244581,"current_range_meters":18800,"station_id":"ce4bgr92rcd13ifvqc7g","pricing_plan_id":"cebpf4jnsgd1na2vs0mg"},{"bike_id":"59053fab-c397-43cf-831f-45562dc96dce","system_id":"levelo_inurba_marseille","lat":43.28272,"lon":5.35058,"is_reserved":false,"is_disabled":false,"rental_uris":{"android":"levelo://app?vid=59053fab-c397-43cf-831f-45562dc96dce","ios":"levelo://app?vid=59053fab-c397-43cf-831f-45562dc96dce"},"vehicle_type_id":"4","last_reported":1745244581,"current_range_meters":19200,"station_id":"ce4bhbp2rcd13ifvqerg","pricing_plan_id":"cebpf4jnsgd1na2vs0mg"},{"bike_id":"aad29bb3-cde8-4e41-a646-e0bba09f9fc5","system_id":"levelo_inurba_marseille","lat":43.29897,"lon":5.43679,"is_reserved":false,"is_disabled":false,"rental_uris":{"android":"levelo://app?vid=aad29bb3-cde8-4e41-a646-e0bba09f9fc5","ios":"levelo://app?vid=aad29bb3-cde8-4e41-a646-e0bba09f9fc5"},"vehicle_type_id":"4","last_reported":1745244581,"current_range_meters":19200,"station_id":"ce4bhpp2rcd13ifvqhfg","pricing_plan_id":"cebpf4jnsgd1na2vs0mg"},{"bike_id":"322cb3bd-1b2c-4ec8-9cd5-563729b64d42","system_id":"levelo_inurba_marseille","lat":43.24078,"lon":5.37753,"is_reserved":false,"is_disabled":false,"rental_uris":{"android":"levelo://app?vid=322cb3bd-1b2c-4ec8-9cd5-563729b64d42","ios":"levelo://app?vid=322cb3bd-1b2c-4ec8-9cd5-563729b64d42"},"vehicle_type_id":"4","last_reported":1745244581,"current_range_meters":19200,"station_id":"ce4bhnp2rcd13ifvqgvg","pricing_plan_id":"cebpf4jnsgd1na2vs0mg"},{"bike_id":"ec80a9e5-9c98-42a5-8f2c-0e64d3caeb34","system_id":"levelo_inurba_marseille","lat":43.24171,"lon":5.36395,"is_reserved":false,"is_disabled":false,"rental_uris":{"android":"levelo://app?vid=ec80a9e5-9c98-42a5-8f2c-0e64d3caeb34","ios":"levelo://app?vid=ec80a9e5-9c98-42a5-8f2c-0e64d3caeb34"},"vehicle_type_id":"4","last_reported":1745244581,"current_range_meters":19600,"station_id":"cpo36qri1sfpv3e86is0","pricing_plan_id":"cebpf4jnsgd1na2vs0mg"},{"bike_id":"a0810590-6b60-4e1a-8bb9-1c5b3e4d3960","system_id":"levelo_inurba_marseille","lat":43.24168,"lon":5.36391,"is_reserved":false,"is_disabled":false,"rental_uris":{"android":"levelo://app?vid=a0810590-6b60-4e1a-8bb9-1c5b3e4d3960","ios":"levelo://app?vid=a0810590-6b60-4e1a-8bb9-1c5b3e4d3960"},"vehicle_type_id":"4","last_reported":1745244581,"current_range_meters":19200,"station_id":"cpo36qri1sfpv3e86is0","pricing_plan_id":"cebpf4jnsgd1na2vs0mg"},{"bike_id":"f84d4bee-360a-492e-80c1-289ced59b8c7","system_id":"levelo_inurba_marseille","lat":43.28663,"lon":5.36351,"is_reserved":false,"is_disabled":false,"rental_uris":{"android":"levelo://app?vid=f84d4bee-360a-492e-80c1-289ced59b8c7","ios":"levelo://app?vid=f84d4bee-360a-492e-80c1-289ced59b8c7"},"vehicle_type_id":"4","last_reported":1745244581,"current_range_meters":19200,"station_id":"ce4bhah2rcd13ifvqej0","pricing_plan_id":"cebpf4jnsgd1na2vs0mg"},{"bike_id":"9535d9cc-4841-4346-b960-dadc6ae74b4f","system_id":"levelo_inurba_marseille","lat":43.28262,"lon":5.35073,"is_reserved":false,"is_disabled":false,"rental_uris":{"android":"levelo://app?vid=9535d9cc-4841-4346-b960-dadc6ae74b4f","ios":"levelo://app?vid=9535d9cc-4841-4346-b960-dadc6ae74b4f"},"vehicle_type_id":"4","last_reported":1745244581,"current_range_meters":19200,"station_id":"ce4bhbp2rcd13ifvqerg","pricing_plan_id":"cebpf4jnsgd1na2vs0mg"},{"bike_id":"4c302196-62e4-4163-9525-3e3662955db8","system_id":"levelo_inurba_marseille","lat":43.28245,"lon":5.35061,"is_reserved":false,"is_disabled":false,"rental_uris":{"android":"levelo://app?vid=4c302196-62e4-4163-9525-3e3662955db8","ios":"levelo://app?vid=4c302196-62e4-4163-9525-3e3662955db8"},"vehicle_type_id":"4","last_reported":1745244581,"current_range_meters":19200,"station_id":"ce4bhbp2rcd13ifvqerg","pricing_plan_id":"cebpf4jnsgd1na2vs0mg"},{"bike_id":"65532def-e8f3-4ff3-a172-ee752d92e2c4","system_id":"levelo_inurba_marseille","lat":43.26557,"lon":5.37283,"is_reserved":false,"is_disabled":false,"rental_uris":{"android":"levelo://app?vid=65532def-e8f3-4ff3-a172-ee752d92e2c4","ios":"levelo://app?vid=65532def-e8f3-4ff3-a172-ee752d92e2c4"},"vehicle_type_id":"4","last_reported":1745244581,"current_range_meters":19600,"station_id":"ce4bhg12rcd13ifvqf70","pricing_plan_id":"cebpf4jnsgd1na2vs0mg"},