{"last_updated":1713715680,"ttl":30,"version":"2.2","data":{"bikes":[{"bike_id":"206b1fd1-e3b1-408e-8542-74e0244ea62d","system_id":"levelo_inurba_marseille","lat":43.312419,"lon":5.367583,"is_reserved":false,"is_disabled":false,"rental_uris":{"android":"levelo://app?vid=206b1fd1-e3b1-408e-8542-74e0244ea62d","ios":"levelo://app?vid=206b1fd1-e3b1-408e-8542-74e0244ea62d"},"vehicle_type_id":"4","last_reported":1713715681,"current_range_meters":17600,"station_id":"","pricing_plan_id":"cebpf4jnsgd1na2vs0mg"},{"bike_id":"092bd988-6f11-4c34-8e50-3adfba51c533","system_id":"levelo_inurba_marseille","lat":43.3122,"lon":5.36842,"is_reserved":false,"is_disabled":false,"rental_uris":{"android":"levelo://app?vid=092bd988-6f11-4c34-8e50-3adfba51c533","ios":"levelo://app?vid=092bd988-6f11-4c34-8e50-3adfba51c533"},"vehicle_type_id":"4","last_reported":1713715681,"current_range_meters":0,"station_id":"","pricing_plan_id":"cebpf4jnsgd1na2vs0mg"},{"bike_id":"19509c50-e940-4875-a688-efbbd9249ae8","system_id":"levelo_inurba_marseille","lat":43.309076,"lon":5.368465,"is_reserved":false,"is_disabled":false,"rental_uris":{"android":"levelo://app?vid=19509c50-e940-4875-a688-efbbd9249ae8","ios":"levelo://app?vid=19509c50-e940-4875-a688-efbbd9249ae8"},"vehicle_type_id":"4","last_reported":1713715681,"current_range_meters":0,"station_id":"ce4bgn92rcd13ifvqbvg","pricing_plan_id":"cebpf4jnsgd1na2vs0mg"},{"bike_id":"0a40c872-a16e-4ede-893c-0a20322cc132","system_id":"levelo_inurba_marseille","lat":43.309317,"lon":5.370993,"is_reserved":false,"is_disabled":false,"rental_uris":{"android":"levelo://app?vid=0a40c872-a16e-4ede-893c-0a20322cc132","ios":"levelo://app?vid=0a40c872-a16e-4ede-893c-0a20322cc132"},"vehicle_type_id":"4","last_reported":1713715681,"current_range_meters":0,"station_id":"","pricing_plan_id":"cebpf4jnsgd1na2vs0mg"},{"bike_id":"34cf4b44-2450-4820-a985-3020137903bc","system_id":"levelo_inurba_marseille","lat":43.309076,"lon":5.368465,"is_reserved":false,"is_disabled":false,"rental_uris":{"android":"levelo://app?vid=34cf4b44-2450-4820-a985-3020137903bc","ios":"levelo://app?vid=34cf4b44-2450-4820-a985-3020137903bc"},"vehicle_type_id":"4","last_reported":1713715681,"current_range_meters":0,"station_id":"ce4bgn92rcd13ifvqbvg","pricing_plan_id":"cebpf4jnsgd1na2vs0mg"},{"bike_id":"7ab456fd-df1f-4b98-85df-eb057694efcd","system_id":"levelo_inurba_marseille","lat":43.314811,"lon":5.373103,"is_reserved":false,"is_disabled":false,"rental_uris":{"android":"levelo://app?vid=7ab456fd-df1f-4b98-85df-eb057694efcd","ios":"levelo://app?vid=7ab456fd-df1f-4b98-85df-eb057694efcd"},"vehicle_type_id":"4","last_reported":1713715681,"current_range_meters":0,"station_id":"ce4bgt12rcd13ifvqcd0","pricing_plan_id":"cebpf4jnsgd1na2vs0mg"},{"bike_id":"8dcdf301-5255-4b33-8004-8d6db123569c","system_id":"levelo_inurba_marseille","lat":43.314811,"lon":5.373104,"is_reserved":false,"is_disabled":false,"rental_uris":{"android":"levelo://app?vid=8dcdf301-5255-4b33-8004-8d6db123569c","ios":"levelo://app?vid=8dcdf301-5255-4b33-8004-8d6db123569c"},"vehicle_type_id":"4","last_reported":1713715681,"current_range_meters":6000,"station_id":"ce4bgt12rcd13ifvqcd0","pricing_plan_id":"cebpf4jnsgd1na2vs0mg"},{"bike_id":"93d415be-3979-4d4f-873e-706b823ebdae","system_id":"levelo_inurba_marseille","lat":43.305445,"lon":5.365453,"is_reserved":false,"is_disabled":false,"rental_uris":{"android":"levelo://app?vid=93d415be-3979-4d4f-873e-706b823ebdae","ios":"levelo://app?vid=93d415be-3979-4d4f-873e-706b823ebdae"},"vehicle_type_id":"4","last_reported":1713715681,"current_range_meters":1600,"station_id":"ce4bgs12rcd13ifvqcag","pricing_plan_id":"cebpf4jnsgd1na2vs0mg"},{"bike_id":"82949170-8286-4249-84d4-3ecc60785b31","system_id":"levelo_inurba_marseille","lat":43.305714,"lon":5.365633,"is_reserved":false,"is_disabled":false,"rental_uris":{"android":"levelo://app?vid=82949170-8286-4249-84d4-3ecc60785b31","ios":"levelo://app?vid=82949170-8286-4249-84d4-3ecc60785b31"},"vehicle_type_id":"4","last_reported":1713715681,"current_range_meters":3200,"station_id":"ce4bgs12rcd13ifvqcag","pricing_plan_id":"cebpf4jnsgd1na2vs0mg"},{"bike_id":"75e96707-f745-4666-b41a-cbe3a9126c39","system_id":"levelo_inurba_marseille","lat":43.311131,"lon":5.377651,"is_reserved":false,"is_disabled":false,"rental_uris":{"android":"levelo://app?vid=75e96707-f745-4666-b41a-cbe3a9126c39","ios":"levelo://app?vid=75e96707-f745-4666-b41a-cbe3a9126c39"},"vehicle_type_id":"4","last_reported":1713715681,"current_range_meters":0,"station_id":"ce4bgt92rcd13ifvqcg0","pricing_plan_id":"cebpf4jnsgd1na2vs0mg"},{"bike_id":"ea7b1528-efd9-4ba0-9ace-1e566141f102","system_id":"levelo_inurba_marseille","lat":43.307945,"lon":5.376487,"is_reserved":false,"is_disabled":false,"rental_uris":{"android":"levelo://app?vid=ea7b1528-efd9-4ba0-9ace-1e566141f102","ios":"levelo://app?vid=ea7b1528-efd9-4ba0-9ace-1e566141f102"},"vehicle_type_id":"4","last_reported":1713715681,"current_range_meters":0,"station_id":"ce4bgv92rcd13ifvqcq0","pricing_plan_id":"cebpf4jnsgd1na2vs0mg"},{"bike_id":"77847f54-a091-452e-83d3-c71c72bea392","system_id":"levelo_inurba_marseille","lat":43.317075,"lon":5.377367,"is_reserved":false,"is_disabled":false,"rental_uris":{"android":"levelo://app?vid=77847f54-a091-452e-83d3-c71c72bea392","ios":"levelo://app?vid=77847f54-a091-452e-83d3-c71c72bea392"},"vehicle_type_id":"4","last_reported":1713715681,"current_range_meters":22000,"station_id":"ce4bgth2rcd13ifvqch0","pricing_plan_id":"cebpf4jnsgd1na2vs0mg"},{"bike_id":"7346e259-ab95-49b3-b7d4-57f87b7bea71","system_id":"levelo_inurba_marseille","lat":43.305368,"lon":5.367343,"is_reserved":false,"is_disabled":false,"rental_uris":{"android":"levelo://app?vid=7346e259-ab95-49b3-b7d4-57f87b7bea71","ios":"levelo://app?vid=7346e259-ab95-49b3-b7d4-57f87b7bea71"},"vehicle_type_id":"4","last_reported":1713715681,"current_range_meters":0,"station_id":"ce4bgrp2rcd13ifvqc9g","pricing_plan_id":"cebpf4jnsgd1na2vs0mg"},{"bike_id":"b190c405-dd3b-46f7-bd6f-cf812d35e5df","system_id":"levelo_inurba_marseille","lat":43.30304,"lon":5.368987,"is_reserved":false,"is_disabled":false,"rental_uris":{"android":"levelo://app?vid=b190c405-dd3b-46f7-bd6f-cf812d35e5df","ios":"levelo://app?vid=b190c405-dd3b-46f7-bd6f-cf812d35e5df"},"vehicle_type_id":"4","last_reported":1713715681,"current_range_meters":16000,"station_id":"ce4bgqh2rcd13ifvqc5g","pricing_plan_id":"cebpf4jnsgd1na2vs0mg"},{"bike_id":"98683922-e262-4836-bf36-28f0b612b94d","system_id":"levelo_inurba_marseille","lat":43.303046,"lon":5.368981,"is_reserved":false,"is_disabled":false,"rental_uris":{"android":"levelo://app?vid=98683922-e262-4836-bf36-28f0b612b94d","ios":"levelo://app?vid=98683922-e262-4836-bf36-28f0b612b94d"},"vehicle_type_id":"4","last_reported":1713715681,"current_range_meters":0,"station_id":"ce4bgqh2rcd13ifvqc5g","pricing_plan_id":"cebpf4jnsgd1na2vs0mg"},{"bike_id":"a0516cab-71ee-4ade-b718-f107a1ba4725","system_id":"levelo_inurba_marseille","lat":43.30304,"lon":5.368987,"is_reserved":false,"is_disabled":false,"rental_uris":{"android":"levelo://app?vid=a0516cab-71ee-4ade-b718-f107a1ba4725","ios":"levelo://app?vid=a0516cab-71ee-4ade-b718-f107a1ba4725"},"vehicle_type_id":"4","last_reported":1713715681,"current_range_meters":0,"station_id":"ce4bgqh2rcd13ifvqc5g","pricing_plan_id":"cebpf4jnsgd1na2vs0mg"},{"bike_id":"3c0b7e30-4f12-4a2c-ba9e-447d0a0fc124","system_id":"levelo_inurba_marseille","lat":43.30799,"lon":5.38154,"is_reserved":false,"is_disabled":false,"rental_uris":{"android":"levelo://app?vid=3c0b7e30-4f12-4a2c-ba9e-447d0a0fc124","ios":"levelo://app?vid=3c0b7e30-4f12-4a2c-ba9e-447d0a0fc124"},"vehicle_type_id":"4","last_reported":1713715681,"current_range_meters":0,"station_id":"ce4bgt12rcd13ifvqce0","pricing_plan_id":"cebpf4jnsgd1na2vs0mg"},{"bike_id":"bd2e76cc-d235-4f6e-b05a-ed562b16a300","system_id":"levelo_inurba_marseille","lat":43.308012,"lon":5.381511,"is_reserved":false,"is_disabled":false,"rental_uris":{"android":"levelo://app?vid=bd2e76cc-d235-4f6e-b05a-ed562b16a300","ios":"levelo://app?vid=bd2e76cc-d235-4f6e-b05a-ed562b16a300"},"vehicle_type_id":"4","last_reported":1713715681,"current_range_meters":9600,"station_id":"ce4bgt12rcd13ifvqce0","pricing_plan_id":"cebpf4jnsgd1na2vs0mg"},{"bike_id":"bdc13fbc-ae82-49a4-87eb-60b856230c46","system_id":"levelo_inurba_marseille","lat":43.308012,"lon":5.381511,"is_reserved":false,"is_disabled":false,"rental_uris":{"android":"levelo://app?vid=bdc13fbc-ae82-49a4-87eb-60b856230c46","ios":"levelo://app?vid=bdc13fbc-ae82-49a4-87eb-60b856230c46"},"vehicle_type_id":"4","last_reported":1713715681,"current_range_meters":0,"station_id":"ce4bgt12rcd13ifvqce0","pricing_plan_id":"cebpf4jnsgd1na2vs0mg"},{"bike_id":"24e8f55c-fe27-418d-a9d9-1f7bb999e572","system_id":"levelo_inurba_marseille","lat":43.314811,"lon":5.373103,"is_reserved":false,"is_disabled":false,"rental_uris":{"android":"levelo://app?vid=24e8f55c-fe27-418d-a9d9-1f7bb999e572","ios":"levelo://app?vid=24e8f55c-fe27-418d-a9d9-1f7bb999e572"},"vehicle_type_id":"4","last_reported":1713715681,"current_range_meters":10400,"station_id":"ce4bgt12rcd13ifvqcd0","pricing_plan_id":"cebpf4jnsgd1na2vs0mg"},{"bike_id":"d2fca39b-8ea4-4fd4-9008-dbb1bad304c1","system_id":"levelo_inurba_marseille","lat":43.304606,"lon":5.379026,"is_reserved":false,"is_disabled":false,"rental_uris":{"android":"levelo://app?vid=d2fca39b-8ea4-4fd4-9008-dbb1bad304c1","ios":"levelo://app?vid=d2fca39b-8ea4-4fd4-9008-dbb1bad304c1"},"vehicle_type_id":"4","last_reported":1713715681,"current_range_meters":5200,"station_id":"ce4bgup2rcd13ifvqcn0","pricing_plan_id":"cebpf4jnsgd1na2vs0mg"},{"bike_id":"4b64ed1c-43a1-415d-ba11-b7ffa403d03d","system_id":"levelo_inurba_marseille","lat":43.32472,"lon":5.36567,"is_reserved":false,"is_disabled":false,"rental_uris":{"android":"levelo://app?vid=4b64ed1c-43a1-415d-ba11-b7ffa403d03d","ios":"levelo://app?vid=4b64ed1c-43a1-415d-ba11-b7ffa403d03d"},"vehicle_type_id":"4","last_reported":1713715681,"current_range_meters":2800,"station_id":"ce4bhs12rcd13ifvqhvg","pricing_plan_id":"cebpf4jnsgd1na2vs0mg"},{"bike_id":"df167c0d-50d7-4701-b8a8-ab66122b2fa2","system_id":"levelo_inurba_marseille","lat":43.324735,"lon":5.365567,"is_reserved":false,"is_disabled":false,"rental_uris":{"android":"levelo://app?vid=df167c0d-50d7-4701-b8a8-ab66122b2fa2","ios":"levelo://app?vid=df167c0d-50d7-4701-b8a8-ab66122b2fa2"},"vehicle_type_id":"4","last_reported":1713715681,"current_range_meters":29600,"station_id":"ce4bhs12rcd13ifvqhvg","pricing_plan_id":"cebpf4jnsgd1na2vs0mg"},{"bike_id":"0f377889-8653-4f5d-9fec-8ef6b1d1b381","system_id":"levelo_inurba_marseille","lat":43.324771,"lon":5.36557,"is_reserved":false,"is_disabled":false,"rental_uris":{"android":"levelo://app?vid=0f377889-8653-4f5d-9fec-8ef6b1d1b381","ios":"levelo://app?vid=0f377889-8653-4f5d-9fec-8ef6b1d1b381"},"vehicle_type_id":"4","last_reported":1713715681,"current_range_meters":17600,"station_id":"ce4bhs12rcd13ifvqhvg","pricing_plan_id":"cebpf4jnsgd1na2vs0mg"},{"bike_id":"37762814-e009-4aaa-b8dd-d33fe4f189f9","system_id":"levelo_inurba_marseille","lat":43.324798,"lon":5.365609,"is_reserved":false,"is_disabled":false,"rental_uris":{"android":"levelo://app?vid=37762814-e009-4aaa-b8dd-d33fe4f189f9","ios":"levelo://app?vid=37762814-e009-4aaa-b8dd-d33fe4f189f9"},"vehicle_type_id":"4","last_reported":1713715681,"current_range_meters":24800,"station_id":"ce4bhs12rcd13ifvqhvg","pricing_plan_id":"cebpf4jnsgd1na2vs0mg"},{"bike_id":"2e28a25f-4989-49ec-9ebb-f023c8c7a903","system_id":"levelo_inurba_marseille","lat":43.324771,"lon":5.36557,"is_reserved":false,"is_disabled":false,"rental_uris":{"android":"levelo://app?vid=2e28a25f-4989-49ec-9ebb-f023c8c7a903","ios":"levelo://app?vid=2e28a25f-4989-49ec-9ebb-f023c8c7a903"},"vehicle_type_id":"4","last_reported":1713715681,"current_range_meters":29200,"station_id":"ce4bhs12rcd13ifvqhvg","pricing_plan_id":"cebpf4jnsgd1na2vs0mg"},{"bike_id":"80dacc88-f9a5-4b5f-80f4-57bd33108ecb","system_id":"levelo_inurba_marseille","lat":43.324771,"lon":5.36557,"is_reserved":false,"is_disabled":false,"rental_uris":{"android":"levelo://app?vid=80dacc88-f9a5-4b5f-80f4-57bd33108ecb","ios":"levelo://app?vid=80dacc88-f9a5-4b5f-80f4-57bd33108ecb"},"vehicle_type_id":"4","last_reported":1713715681,"current_range_meters":23600,"station_id":"ce4bhs12rcd13ifvqhvg","pricing_plan_id":"cebpf4jnsgd1na2vs0mg"},{"bike_id":"c17751bf-4b1e-4ed5-8ec6-1aa8f0f5ee16","system_id":"levelo_inurba_marseille","lat":43.324829,"lon":5.365572,"is_reserved":false,"is_disabled":false,"rental_uris":{"android":"levelo://app?vid=c17751bf-4b1e-4ed5-8ec6-1aa8f0f5ee16","ios":"levelo://app?vid=c17751bf-4b1e-4ed5-8ec6-1aa8f0f5ee16"},"vehicle_type_id":"4","last_reported":1713715681,"current_range_meters":25600,"station_id":"ce4bhs12rcd13ifvqhvg","pricing_plan_id":"cebpf4jnsgd1na2vs0mg"},{"bike_id":"6da657ab-00d6-4606-bb0a-fdc1f8bc0b21","system_id":"levelo_inurba_marseille","lat":43.32484,"lon":5.365554,"is_reserved":false,"is_disabled":false,"rental_uris":{"android":"levelo://app?vid=6da657ab-00d6-4606-bb0a-fdc1f8bc0b21","ios":"levelo://app?vid=6da657ab-00d6-4606-bb0a-fdc1f8bc0b21"},"vehicle_type_id":"4","last_reported":1713715681,"current_range_meters":25600,"station_id":"ce4bhs12rcd13ifvqhvg","pricing_plan_id":"cebpf4jnsgd1na2vs0mg"},{"bike_id":"94705610-0593-44bb-b1ad-705e21bc7873","system_id":"levelo_inurba_marseille","lat":43.324847,"lon":5.365587,"is_reserved":false,"is_disabled":false,"rental_uris":{"android":"levelo://app?vid=94705610-0593-44bb-b1ad-705e21bc7873","ios":"levelo://app?vid=94705610-0593-44bb-b1ad-705e21bc7873"},"vehicle_type_id":"4","last_reported":1713715681,"current_range_meters":26000,"station_id":"ce4bhs12rcd13ifvqhvg","pricing_plan_id":"cebpf4jnsgd1na2vs0mg"},{"bike_id":"5b76192b-fc46-4948-80c5-6c37ae23cfca","system_id":"levelo_inurba_marseille","lat":43.324854,"lon":5.365624,"is_reserved":false,"is_disabled":false,"rental_uris":{"android":"levelo://app?vid=5b76192b-fc46-4948-80c5-6c37ae23cfca","ios":"levelo://app?vid=5b76192b-fc46-4948-80c5-6c37ae23cfca"},"vehicle_type_id":"4","last_reported":1713715681,"current_range_meters":28000,"station_id":"ce4bhs12rcd13ifvqhvg","pricing_plan_id":"cebpf4jnsgd1na2vs0mg"},{"bike_id":"7502af9b-06ed-4503-a174-bb779a6b7423","system_id":"levelo_inurba_marseille","lat":43.302784,"lon":5.377158,"is_reserved":false,"is_disabled":false,"rental_uris":{"android":"levelo://app?vid=7502af9b-06ed-4503-a174-bb779a6b7423","ios":"levelo://app?vid=7502af9b-06ed-4503-a174-bb779a6b7423"},"vehicle_type_id":"4","last_reported":1713715681,"current_range_meters":19600,"station_id":"ce4bguh2rcd13ifvqcj0","pricing_plan_id":"cebpf4jnsgd1na2vs0mg"},{"bike_id":"a890cb90-8ac2-4cd3-9099-9e10d73048b7","system_id":"levelo_inurba_marseille","lat":43.310804,"lon":5.38359,"is_reserved":false,"is_disabled":false,"rental_uris":{"android":"levelo://app?vid=a890cb90-8ac2-4cd3-9099-9e10d73048b7","ios":"levelo://app?vid=a890cb90-8ac2-4cd3-9099-9e10d73048b7"},"vehicle_type_id":"4","last_reported":1713715681,"current_range_meters":1200,"station_id":"ce4bgv92rcd13ifvqcr0","pricing_plan_id":"cebpf4jnsgd1na2vs0mg"},{"bike_id":"29535b00-2b03-4097-bf30-1a46695020b6","system_id":"levelo_inurba_marseille","lat":43.292311,"lon":5.360731,"is_reserved":false,"is_disabled":false,"rental_uris":{"android":"levelo://app?vid=29535b00-2b03-4097-bf30-1a46695020b6","ios":"levelo://app?vid=29535b00-2b03-4097-bf30-1a46695020b6"},"vehicle_type_id":"4","last_reported":1713715681,"current_range_meters":0,"station_id":"ce4bhbh2rcd13ifvqeqg","pricing_plan_id":"cebpf4jnsgd1na2vs0mg"},{"bike_id":"61e5037d-2f93-46c3-9e8c-9fc16adf75b0","system_id":"levelo_inurba_marseille","lat":43.302784,"lon":5.377158,"is_reserved":false,"is_disabled":false,"rental_uris":{"android":"levelo://app?vid=61e5037d-2f93-46c3-9e8c-9fc16adf75b0","ios":"levelo://app?vid=61e5037d-2f93-46c3-9e8c-9fc16adf75b0"},"vehicle_type_id":"4","last_reported":1713715681,"current_range_meters":10800,"station_id":"ce4bguh2rcd13ifvqcj0","pricing_plan_id":"cebpf4jnsgd1na2vs0mg"},{"bike_id":"75324f1f-4561-47d9-9676-3f03c5f7a8fe","system_id":"levelo_inurba_marseille","lat":43.301429,"lon":5.37413,"is_reserved":false,"is_disabled":false,"rental_uris":{"android":"levelo://app?vid=75324f1f-4561-47d9-9676-3f03c5f7a8fe","ios":"levelo://app?vid=75324f1f-4561-47d9-9676-3f03c5f7a8fe"},"vehicle_type_id":"4","last_reported":1713715681,"current_range_meters":800,"station_id":"ce4bgs92rcd13ifvqcc0","pricing_plan_id":"cebpf4jnsgd1na2vs0mg"},{"bike_id":"71cf26d6-2800-48dd-ae6e-8eda1eae26de","system_id":"levelo_inurba_marseille","lat":43.305395,"lon":5.380968,"is_reserved":false,"is_disabled":false,"rental_uris":{"android":"levelo://app?vid=71cf26d6-2800-48dd-ae6e-8eda1eae26de","ios":"levelo://app?vid=71cf26d6-2800-48dd-ae6e-8eda1eae26de"},"vehicle_type_id":"4","last_reported":1713715681,"current_range_meters":13200,"station_id":"","pricing_plan_id":"cebpf4jnsgd1na2vs0mg"},{"bike_id":"609fc66d-4188-42d1-ae8a-cb81735257e5","system_id":"levelo_inurba_marseille","lat":43.302784,"lon":5.377158,"is_reserved":false,"is_disabled":false,"rental_uris":{"android":"levelo://app?vid=609fc66d-4188-42d1-ae8a-cb81735257e5","ios":"levelo://app?vid=609fc66d-4188-42d1-ae8a-cb81735257e5"},"vehicle_type_id":"4","last_reported":1713715681,"current_range_meters":10800,"station_id":"ce4bguh2rcd13ifvqcj0","pricing_plan_id":"cebpf4jnsgd1na2vs0mg"},{"bike_id":"d212c281-3522-420a-b06f-b80966290c73","system_id":"levelo_inurba_marseille","lat":43.319908,"lon":5.381537,"is_reserved":false,"is_disabled":false,"rental_uris":{"android":"levelo://app?vid=d212c281-3522-420a-b06f-b80966290c73","ios":"levelo://app?vid=d212c281-3522-420a-b06f-b80966290c73"},"vehicle_type_id":"4","last_reported":1713715681,"current_range_meters":6400,"station_id":"ce4bhr12rcd13ifvqhpg","pricing_plan_id":"cebpf4jnsgd1na2vs0mg"},{"bike_id":"334e3407-4f9b-4b57-a5ef-39033f25d948","system_id":"levelo_inurba_marseille","lat":43.31995,"lon":5.38151,"is_reserved":false,"is_disabled":false,"rental_uris":{"android":"levelo://app?vid=334e3407-4f9b-4b57-a5ef-39033f25d948","ios":"levelo://app?vid=334e3407-4f9b-4b57-a5ef-39033f25d948"},"vehicle_type_id":"4","last_reported":1713715681,"current_range_meters":29200,"station_id":"ce4bhr12rcd13ifvqhpg","pricing_plan_id":"cebpf4jnsgd1na2vs0mg"},{"bike_id":"fc35b83a-f355-4ebd-97ef-f35d9b876a9d","system_id":"levelo_inurba_marseille","lat":43.319935,"lon":5.381699,"is_reserved":false,"is_disabled":false,"rental_uris":{"android":"levelo://app?vid=fc35b83a-f355-4ebd-97ef-f35d9b876a9d","ios":"levelo://app?vid=fc35b83a-f355-4ebd-97ef-f35d9b876a9d"},"vehicle_type_id":"4","last_reported":1713715681,"current_range_meters":20800,"station_id":"ce4bhr12rcd13ifvqhpg","pricing_plan_id":"cebpf4jnsgd1na2vs0mg"},{"bike_id":"d556af53-f0f5-46dc-9ca6-ae45af10a5b0","system_id":"levelo_inurba_marseille","lat":43.319935,"lon":5.381699,"is_reserved":false,"is_disabled":false,"rental_uris":{"android":"levelo://app?vid=d556af53-f0f5-46dc-9ca6-ae45af10a5b0","ios":"levelo://app?vid=d556af53-f0f5-46dc-9ca6-ae45af10a5b0"},"vehicle_type_id":"4","last_reported":1713715681,"current_range_meters":28800,"station_id":"ce4bhr12rcd13ifvqhpg","pricing_plan_id":"cebpf4jnsgd1na2vs0mg"},{"bike_id":"14d44599-ab51-4852-ad81-4865cbede440","system_id":"levelo_inurba_marseille","lat":43.319935,"lon":5.381699,"is_reserved":false,"is_disabled":false,"rental_uris":{"android":"levelo://app?vid=14d44599-ab51-4852-ad81-4865cbede440","ios":"levelo://app?vid=14d44599-ab51-4852-ad81-4865cbede440"},"vehicle_type_id":"4","last_reported":1713715681,"current_range_meters":15200,"station_id":"ce4bhr12rcd13ifvqhpg","pricing_plan_id":"cebpf4jnsgd1na2vs0mg"},{"bike_id":"b265aba0-4cfb-44bd-8ef5-9b88c5912563","system_id":"levelo_inurba_marseille","lat":43.319935,"lon":5.381699,"is_reserved":false,"is_disabled":false,"rental_uris":{"android":"levelo://app?vid=b265aba0-4cfb-44bd-8ef5-9b88c5912563","ios":"levelo://app?vid=b265aba0-4cfb-44bd-8ef5-9b88c5912563"},"vehicle_type_id":"4","last_reported":1713715681,"current_range_meters":29200,"station_id":"ce4bhr12rcd13ifvqhpg","pricing_plan_id":"cebpf4jnsgd1na2vs0mg"},{"bike_id":"f4b79354-8b98-4101-bf0a-c05d49197684","system_id":"levelo_inurba_marseille","lat":43.319935,"lon":5.381699,"is_reserved":false,"is_disabled":false,"rental_uris":{"android":"levelo://app?vid=f4b79354-8b98-4101-bf0a-c05d49197684","ios":"levelo://app?vid=f4b79354-8b98-4101-bf0a-c05d49197684"},"vehicle_type_id":"4","last_reported":1713715681,"current_range_meters":11200,"station_id":"ce4bhr12rcd13ifvqhpg","pricing_plan_id":"cebpf4jnsgd1na2vs0mg"},{"bike_id":"7b4ad446-2855-4f99-aa9c-bfb370297360","system_id":"levelo_inurba_marseille","lat":43.31997,"lon":5.38168,"is_reserved":false,"is_disabled":false,"rental_uris":{"android":"levelo://app?vid=7b4ad446-2855-4f99-aa9c-bfb370297360","ios":"levelo://app?vid=7b4ad446-2855-4f99-aa9c-bfb370297360"},"vehicle_type_id":"4","last_reported":1713715681,"current_range_meters":24800,"station_id":"ce4bhr12rcd13ifvqhpg","pricing_plan_id":"cebpf4jnsgd1na2vs0mg"},{"bike_id":"bd2b5ee8-2cb7-4e0a-9dc3-f182006d6270","system_id":"levelo_inurba_marseille","lat":43.313571,"lon":5.384829,"is_reserved":false,"is_disabled":false,"rental_uris":{"android":"levelo://app?vid=bd2b5ee8-2cb7-4e0a-9dc3-f182006d6270","ios":"levelo://app?vid=bd2b5ee8-2cb7-4e0a-9dc3-f182006d6270"},"vehicle_type_id":"4","last_reported":1713715681,"current_range_meters":10000,"station_id":"ce4bgt92rcd13ifvqcf0","pricing_plan_id":"cebpf4jnsgd1na2vs0mg"},{"bike_id":"adb40b9d-cf08-44e5-8593-a1e4abba960b","system_id":"levelo_inurba_marseille","lat":43.299222,"lon":5.365554,"is_reserved":false,"is_disabled":false,"rental_uris":{"android":"levelo://app?vid=adb40b9d-cf08-44e5-8593-a1e4abba960b","ios":"levelo://app?vid=adb40b9d-cf08-44e5-8593-a1e4abba960b"},"vehicle_type_id":"4","last_reported":1713715681,"current_range_meters":400,"station_id":"ce4bgm92rcd13ifvqbr0","pricing_plan_id":"cebpf4jnsgd1na2vs0mg"},{"bike_id":"e433542c-0621-44a8-b0fe-dfbdc4a6aa02","system_id":"levelo_inurba_marseille","lat":43.29975,"lon":5.37183,"is_reserved":false,"is_disabled":false,"rental_uris":{"android":"levelo://app?vid=e433542c-0621-44a8-b0fe-dfbdc4a6aa02","ios":"levelo://app?vid=e433542c-0621-44a8-b0fe-dfbdc4a6aa02"},"vehicle_type_id":"4","last_reported":1713715681,"current_range_meters":0,"station_id":"ce4bgr92rcd13ifvqc7g","pricing_plan_id":"cebpf4jnsgd1na2vs0mg"},{"bike_id":"d1361a59-6022-40ea-a99c-096cd06a12b6","system_id":"levelo_inurba_marseille","lat":43.290631,"lon":5.359244,"is_reserved":false,"is_disabled":false,"rental_uris":{"android":"levelo://app?vid=d1361a59-6022-40ea-a99c-096cd06a12b6","ios":"levelo://app?vid=d1361a59-6022-40ea-a99c-096cd06a12b6"},"vehicle_type_id":"4","last_reported":1713715681,"current_range_meters":10800,"station_id":"ce4bha92rcd13ifvqeg0","pricing_plan_id":"cebpf4jnsgd1na2vs0mg"},{"bike_id":"13869f20-cd87-4bc5-9b35-68a9ba5a05c4","system_id":"levelo_inurba_marseille","lat":43.29843,"lon":5.36273,"is_reserved":false,"is_disabled":false,"rental_uris":{"android":"levelo://app?vid=13869f20-cd87-4bc5-9b35-68a9ba5a05c4","ios":"levelo://app?vid=13869f20-cd87-4bc5-9b35-68a9ba5a05c4"},"vehicle_type_id":"4","last_reported":1713715681,"current_range_meters":17200,"station_id":"ce4bgpp2rcd13ifvqc3g","pricing_plan_id":"cebpf4jnsgd1na2vs0mg"},{"bike_id":"59c12a80-e207-4399-9736-dcc48aa24552","system_id":"levelo_inurba_marseille","lat":43.29842,"lon":5.36276,"is_reserved":false,"is_disabled":false,"rental_uris":{"android":"levelo://app?vid=59c12a80-e207-4399-9736-dcc48aa24552","ios":"levelo://app?vid=59c12a80-e207-4399-9736-dcc48aa24552"},"vehicle_type_id":"4","last_reported":1713715681,"current_range_meters":14400,"station_id":"ce4bgpp2rcd13ifvqc3g","pricing_plan_id":"cebpf4jnsgd1na2vs0mg"},{"bike_id":"2672a519-87e4-4cc1-aa91-82966a2ce3b9","system_id":"levelo_inurba_marseille","lat":43.297785,"lon":5.371075,"is_reserved":false,"is_disabled":false,"rental_uris":{"android":"levelo://app?vid=2672a519-87e4-4cc1-aa91-82966a2ce3b9","ios":"levelo://app?vid=2672a519-87e4-4cc1-aa91-82966a2ce3b9"},"vehicle_type_id":"4","last_reported":1713715681,"current_range_meters":0,"station_id":"ce4bgop2rcd13ifvqc1g","pricing_plan_id":"cebpf4jnsgd1na2vs0mg"},{"bike_id":"aa38acc2-91cb-407c-ac8c-05b08cc96e3e","system_id":"levelo_inurba_marseille","lat":43.322872,"lon":5.382756,"is_reserved":false,"is_disabled":false,"rental_uris":{"android":"levelo://app?vid=aa38acc2-91cb-407c-ac8c-05b08cc96e3e","ios":"levelo://app?vid=aa38acc2-91cb-407c-ac8c-05b08cc96e3e"},"vehicle_type_id":"4","last_reported":1713715681,"current_range_meters":28000,"station_id":"ce4bhr12rcd13ifvqhqg","pricing_plan_id":"cebpf4jnsgd1na2vs0mg"},{"bike_id":"59c296c1-c1af-4a71-9e20-fa9c7f8757f9","system_id":"levelo_inurba_marseille","lat":43.322872,"lon":5.382756,"is_reserved":false,"is_disabled":false,"rental_uris":{"android":"levelo://app?vid=59c296c1-c1af-4a71-9e20-fa9c7f8757f9","ios":"levelo://app?vid=59c296c1-c1af-4a71-9e20-fa9c7f8757f9"},"vehicle_type_id":"4","last_reported":1713715681,"current_range_meters":27600,"station_id":"ce4bhr12rcd13ifvqhqg","pricing_plan_id":"cebpf4jnsgd1na2vs0mg"},{"bike_id":"c1c913df-b844-406e-83f7-dff5f43f7dc5","system_id":"levelo_inurba_marseille","lat":43.322872,"lon":5.382756,"is_reserved":false,"is_disabled":false,"rental_uris":{"android":"levelo://app?vid=c1c913df-b844-406e-83f7-dff5f43f7dc5","ios":"levelo://app?vid=c1c913df-b844-406e-83f7-dff5f43f7dc5"},"vehicle_type_id":"4","last_reported":1713715681,"current_range_meters":31200,"station_id":"ce4bhr12rcd13ifvqhqg","pricing_plan_id":"cebpf4jnsgd1na2vs0mg"},{"bike_id":"e5df68f6-b1ff-4d0a-b7e9-c02ca9b8210e","system_id":"levelo_inurba_marseille","lat":43.322872,"lon":5.382756,"is_reserved":false,"is_disabled":false,"rental_uris":{"android":"levelo://app?vid=e5df68f6-b1ff-4d0a-b7e9-c02ca9b8210e","ios":"levelo://app?vid=e5df68f6-b1ff-4d0a-b7e9-c02ca9b8210e"},"vehicle_type_id":"4","last_reported":1713715681,"current_range_meters":31200,"station_id":"ce4bhr12rcd13ifvqhqg","pricing_plan_id":"cebpf4jnsgd1na2vs0mg"},{"bike_id":"6a9bcf40-c5f9-44a4-a58e-664576d7b299","system_id":"levelo_inurba_marseille","lat":43.322926,"lon":5.382764,"is_reserved":false,"is_disabled":false,"rental_uris":{"android":"levelo://app?vid=6a9bcf40-c5f9-44a4-a58e-664576d7b299","ios":"levelo://app?vid=6a9bcf40-c5f9-44a4-a58e-664576d7b299"},"vehicle_type_id":"4","last_reported":1713715681,"current_range_meters":12000,"station_id":"ce4bhr12rcd13ifvqhqg","pricing_plan_id":"cebpf4jnsgd1na2vs0mg"},{"bike_id":"1db02aab-65af-4d38-8223-af6cbfeb63a2","system_id":"levelo_inurba_marseille","lat":43.322928,"lon":5.382772,"is_reserved":false,"is_disabled":false,"rental_uris":{"android":"levelo://app?vid=1db02aab-65af-4d38-8223-af6cbfeb63a2","ios":"levelo://app?vid=1db02aab-65af-4d38-8223-af6cbfeb63a2"},"vehicle_type_id":"4","last_reported":1713715681,"current_range_meters":4000,"station_id":"ce4bhr12rcd13ifvqhqg","pricing_plan_id":"cebpf4jnsgd1na2vs0mg"},{"bike_id":"3a777aae-0d2a-4638-8c09-6f1de81534e0","system_id":"levelo_inurba_marseille","lat":43.322872,"lon":5.382756,"is_reserved":false,"is_disabled":false,"rental_uris":{"android":"levelo://app?vid=3a777aae-0d2a-4638-8c09-6f1de81534e0","ios":"levelo://app?vid=3a777aae-0d2a-4638-8c09-6f1de81534e0"},"vehicle_type_id":"4","last_reported":1713715681,"current_range_meters":27600,"station_id":"ce4bhr12rcd13ifvqhqg","pricing_plan_id":"cebpf4jnsgd1na2vs0mg"},{"bike_id":"906a271d-d242-46da-bf83-2ae6ce51b7e1","system_id":"levelo_inurba_marseille","lat":43.29621,"lon":5.37156,"is_reserved":false,"is_disabled":false,"rental_uris":{"android":"levelo://app?vid=906a271d-d242-46da-bf83-2ae6ce51b7e1","ios":"levelo://app?vid=906a271d-d242-46da-bf83-2ae6ce51b7e1"},"vehicle_type_id":"4","last_reported":1713715681,"current_range_meters":2800,"station_id":"ce4bgnh2rcd13ifvqc0g","pricing_plan_id":"cebpf4jnsgd1na2vs0mg"},{"bike_id":"1288735e-290a-4e43-bf7e-a09632235b63","system_id":"levelo_inurba_marseille","lat":43.29618,"lon":5.37152,"is_reserved":false,"is_disabled":false,"rental_uris":{"android":"levelo://app?vid=1288735e-290a-4e43-bf7e-a09632235b63","ios":"levelo://app?vid=1288735e-290a-4e43-bf7e-a09632235b63"},"vehicle_type_id":"4","last_reported":1713715681,"current_range_meters":1200,"station_id":"ce4bgnh2rcd13ifvqc0g","pricing_plan_id":"cebpf4jnsgd1na2vs0mg"},{"bike_id":"dc532f3d-a6d1-4490-be0d-d8292c365b7b","system_id":"levelo_inurba_marseille","lat":43.296131,"lon":5.370791,"is_reserved":false,"is_disabled":false,"rental_uris":{"android":"levelo://app?vid=dc532f3d-a6d1-4490-be0d-d8292c365b7b","ios":"levelo://app?vid=dc532f3d-a6d1-4490-be0d-d8292c365b7b"},"vehicle_type_id":"4","last_reported":1713715681,"current_range_meters":1200,"station_id":"ce4bgnh2rcd13ifvqc0g","pricing_plan_id":"cebpf4jnsgd1na2vs0mg"},{"bike_id":"abbf0a0e-80f3-4932-84ef-29852154369c","system_id":"levelo_inurba_marseille","lat":43.299028,"lon":5.381509,"is_reserved":false,"is_disabled":false,"rental_uris":{"android":"levelo://app?vid=abbf0a0e-80f3-4932-84ef-29852154369c","ios":"levelo://app?vid=abbf0a0e-80f3-4932-84ef-29852154369c"},"vehicle_type_id":"4","last_reported":1713715681,"current_range_meters":4000,"station_id":"ce4bgj12rcd13ifvqbc0","pricing_plan_id":"cebpf4jnsgd1na2vs0mg"},{"bike_id":"e6faed70-3efd-421c-a900-23ba8147621d","system_id":"levelo_inurba_marseille","lat":43.298037,"lon":5.381066,"is_reserved":false,"is_disabled":false,"rental_uris":{"android":"levelo://app?vid=e6faed70-3efd-421c-a900-23ba8147621d","ios":"levelo://app?vid=e6faed70-3efd-421c-a900-23ba8147621d"},"vehicle_type_id":"4","last_reported":1713715681,"current_range_meters":2400,"station_id":"ce4bgip2rcd13ifvqbb0","pricing_plan_id":"cebpf4jnsgd1na2vs0mg"},{"bike_id":"7b8d5040-0204-49ca-a59e-9501ccbe8fd9","system_id":"levelo_inurba_marseille","lat":43.297844,"lon":5.380864,"is_reserved":false,"is_disabled":false,"rental_uris":{"android":"levelo://app?vid=7b8d5040-0204-49ca-a59e-9501ccbe8fd9","ios":"levelo://app?vid=7b8d5040-0204-49ca-a59e-9501ccbe8fd9"},"vehicle_type_id":"4","last_reported":1713715681,"current_range_meters":0,"station_id":"ce4bgip2rcd13ifvqbb0","pricing_plan_id":"cebpf4jnsgd1na2vs0mg"},{"bike_id":"8bfa77f5-4fc5-4083-a361-6e85364dffa6","system_id":"levelo_inurba_marseille","lat":43.298037,"lon":5.381066,"is_reserved":false,"is_disabled":false,"rental_uris":{"android":"levelo://app?vid=8bfa77f5-4fc5-4083-a361-6e85364dffa6","ios":"levelo://app?vid=8bfa77f5-4fc5-4083-a361-6e85364dffa6"},"vehicle_type_id":"4","last_reported":1713715681,"current_range_meters":11600,"station_id":"ce4bgip2rcd13ifvqbb0","pricing_plan_id":"cebpf4jnsgd1na2vs0mg"},{"bike_id":"82937fe0-f289-494d-91d3-eb690231ea44","system_id":"levelo_inurba_marseille","lat":43.295748,"lon":5.37522,"is_reserved":false,"is_disabled":false,"rental_uris":{"android":"levelo://app?vid=82937fe0-f289-494d-91d3-eb690231ea44","ios":"levelo://app?vid=82937fe0-f289-494d-91d3-eb690231ea44"},"vehicle_type_id":"4","last_reported":1713715681,"current_range_meters":0,"station_id":"ce4bgh92rcd13ifvqb50","pricing_plan_id":"cebpf4jnsgd1na2vs0mg"},{"bike_id":"b2985128-dd56-4cd2-9563-5c3aa57cfb57","system_id":"levelo_inurba_marseille","lat":43.296263,"lon":5.377094,"is_reserved":false,"is_disabled":false,"rental_uris":{"android":"levelo://app?vid=b2985128-dd56-4cd2-9563-5c3aa57cfb57","ios":"levelo://app?vid=b2985128-dd56-4cd2-9563-5c3aa57cfb57"},"vehicle_type_id":"4","last_reported":1713715681,"current_range_meters":17600,"station_id":"ce4bgi92rcd13ifvqb90","pricing_plan_id":"cebpf4jnsgd1na2vs0mg"},{"bike_id":"6c3b8276-aea3-4a74-82ab-ccf22bc92423","system_id":"levelo_inurba_marseille","lat":43.296263,"lon":5.377094,"is_reserved":false,"is_disabled":false,"rental_uris":{"android":"levelo://app?vid=6c3b8276-aea3-4a74-82ab-ccf22bc92423","ios":"levelo://app?vid=6c3b8276-aea3-4a74-82ab-ccf22bc92423"},"vehicle_type_id":"4","last_reported":1713715681,"current_range_meters":2800,"station_id":"ce4bgi92rcd13ifvqb90","pricing_plan_id":"cebpf4jnsgd1na2vs0mg"},{"bike_id":"1c14c598-276f-48b6-88f7-d465fecb65ee","system_id":"levelo_inurba_marseille","lat":43.297815,"lon":5.393548,"is_reserved":false,"is_disabled":false,"rental_uris":{"android":"levelo://app?vid=1c14c598-276f-48b6-88f7-d465fecb65ee","ios":"levelo://app?vid=1c14c598-276f-48b6-88f7-d465fecb65ee"},"vehicle_type_id":"4","last_reported":1713715681,"current_range_meters":1600,"station_id":"chh1huq6cuj3fo74tm60","pricing_plan_id":"cebpf4jnsgd1na2vs0mg"},{"bike_id":"bf5dc0c3-c6a2-40c8-97eb-80e0fd318fd2","system_id":"levelo_inurba_marseille","lat":43.29513,"lon":5.37499,"is_reserved":false,"is_disabled":false,"rental_uris":{"android":"levelo://app?vid=bf5dc0c3-c6a2-40c8-97eb-80e0fd318fd2","ios":"levelo://app?vid=bf5dc0c3-c6a2-40c8-97eb-80e0fd318fd2"},"vehicle_type_id":"4","last_reported":1713715681,"current_range_meters":26000,"station_id":"ce4bgkp2rcd13ifvqbmg","pricing_plan_id":"cebpf4jnsgd1na2vs0mg"},{"bike_id":"5ea10e7b-dce2-47df-b6f5-e3b20ad431ef","system_id":"levelo_inurba_marseille","lat":43.299724,"lon":5.384848,"is_reserved":false,"is_disabled":false,"rental_uris":{"android":"levelo://app?vid=5ea10e7b-dce2-47df-b6f5-e3b20ad431ef","ios":"levelo://app?vid=5ea10e7b-dce2-47df-b6f5-e3b20ad431ef"},"vehicle_type_id":"4","last_reported":1713715681,"current_range_meters":400,"station_id":"ce4bgj92rcd13ifvqbd0","pricing_plan_id":"cebpf4jnsgd1na2vs0mg"},{"bike_id":"101d8204-9230-46b7-8d5c-1853b901238c","system_id":"levelo_inurba_marseille","lat":43.33044,"lon":5.35895,"is_reserved":false,"is_disabled":false,"rental_uris":{"android":"levelo://app?vid=101d8204-9230-46b7-8d5c-1853b901238c","ios":"levelo://app?vid=101d8204-9230-46b7-8d5c-1853b901238c"},"vehicle_type_id":"4","last_reported":1713715681,"current_range_meters":6800,"station_id":"","pricing_plan_id":"cebpf4jnsgd1na2vs0mg"},{"bike_id":"3badc561-1b64-4133-95c9-fe248bd3078e","system_id":"levelo_inurba_marseille","lat":43.292749,"lon":5.368402,"is_reserved":false,"is_disabled":false,"rental_uris":{"android":"levelo://app?vid=3badc561-1b64-4133-95c9-fe248bd3078e","ios":"levelo://app?vid=3badc561-1b64-4133-95c9-fe248bd3078e"},"vehicle_type_id":"4","last_reported":1713715681,"current_range_meters":2800,"station_id":"ce4bhbp2rcd13ifvqesg","pricing_plan_id":"cebpf4jnsgd1na2vs0mg"},{"bike_id":"5cc9b3f7-746b-4dc8-a9be-06c6e75a37db","system_id":"levelo_inurba_marseille","lat":43.32368,"lon":5.38882,"is_reserved":false,"is_disabled":false,"rental_uris":{"android":"levelo://app?vid=5cc9b3f7-746b-4dc8-a9be-06c6e75a37db","ios":"levelo://app?vid=5cc9b3f7-746b-4dc8-a9be-06c6e75a37db"},"vehicle_type_id":"4","last_reported":1713715681,"current_range_meters":22000,"station_id":"ce4bhqp2rcd13ifvqhog","pricing_plan_id":"cebpf4jnsgd1na2vs0mg"},{"bike_id":"4d3309a7-9ad7-4e1a-aa2b-f506ef43c3ca","system_id":"levelo_inurba_marseille","lat":43.32366,"lon":5.388886,"is_reserved":false,"is_disabled":false,"rental_uris":{"android":"levelo://app?vid=4d3309a7-9ad7-4e1a-aa2b-f506ef43c3ca","ios":"levelo://app?vid=4d3309a7-9ad7-4e1a-aa2b-f506ef43c3ca"},"vehicle_type_id":"4","last_reported":1713715681,"current_range_meters":23600,"station_id":"ce4bhqp2rcd13ifvqhog","pricing_plan_id":"cebpf4jnsgd1na2vs0mg"},{"bike_id":"a9119818-9106-4214-a405-847e41893877","system_id":"levelo_inurba_marseille","lat":43.32367,"lon":5.388836,"is_reserved":false,"is_disabled":false,"rental_uris":{"android":"levelo://app?vid=a9119818-9106-4214-a405-847e41893877","ios":"levelo://app?vid=a9119818-9106-4214-a405-847e41893877"},"vehicle_type_id":"4","last_reported":1713715681,"current_range_meters":13600,"station_id":"ce4bhqp2rcd13ifvqhog","pricing_plan_id":"cebpf4jnsgd1na2vs0mg"},{"bike_id":"dd11d5cd-5042-41e6-b7dc-e9db6b91bbca","system_id":"levelo_inurba_marseille","lat":43.31431,"lon":5.39374,"is_reserved":false,"is_disabled":false,"rental_uris":{"android":"levelo://app?vid=dd11d5cd-5042-41e6-b7dc-e9db6b91bbca","ios":"levelo://app?vid=dd11d5cd-5042-41e6-b7dc-e9db6b91bbca"},"vehicle_type_id":"4","last_reported":1713715681,"current_range_meters":1200,"station_id":"","pricing_plan_id":"cebpf4jnsgd1na2vs0mg"},{"bike_id":"8d8658b5-9bd2-4a17-879f-8ef28478a6b1","system_id":"levelo_inurba_marseille","lat":43.29602,"lon":5.381084,"is_reserved":false,"is_disabled":false,"rental_uris":{"android":"levelo://app?vid=8d8658b5-9bd2-4a17-879f-8ef28478a6b1","ios":"levelo://app?vid=8d8658b5-9bd2-4a17-879f-8ef28478a6b1"},"vehicle_type_id":"4","last_reported":1713715681,"current_range_meters":9600,"station_id":"ce4bgl12rcd13ifvqbo0","pricing_plan_id":"cebpf4jnsgd1na2vs0mg"},{"bike_id":"b6eda89e-ea21-498f-9690-0b2a9c057a3f","system_id":"levelo_inurba_marseille","lat":43.296039,"lon":5.381141,"is_reserved":false,"is_disabled":false,"rental_uris":{"android":"levelo://app?vid=b6eda89e-ea21-498f-9690-0b2a9c057a3f","ios":"levelo://app?vid=b6eda89e-ea21-498f-9690-0b2a9c057a3f"},"vehicle_type_id":"4","last_reported":1713715681,"current_range_meters":2000,"station_id":"ce4bgl12rcd13ifvqbo0","pricing_plan_id":"cebpf4jnsgd1na2vs0mg"},{"bike_id":"f705e1c0-f48f-4b35-be3d-3cad73b4aa75","system_id":"levelo_inurba_marseille","lat":43.293249,"lon":5.371578,"is_reserved":false,"is_disabled":false,"rental_uris":{"android":"levelo://app?vid=f705e1c0-f48f-4b35-be3d-3cad73b4aa75","ios":"levelo://app?vid=f705e1c0-f48f-4b35-be3d-3cad73b4aa75"},"vehicle_type_id":"4","last_reported":1713715681,"current_range_meters":2000,"station_id":"ce4bgh92rcd13ifvqb40","pricing_plan_id":"cebpf4jnsgd1na2vs0mg"},{"bike_id":"7a2fb91a-7a29-4ca5-bb6b-fdf481df4d2a","system_id":"levelo_inurba_marseille","lat":43.29304,"lon":5.37169,"is_reserved":false,"is_disabled":false,"rental_uris":{"android":"levelo://app?vid=7a2fb91a-7a29-4ca5-bb6b-fdf481df4d2a","ios":"levelo://app?vid=7a2fb91a-7a29-4ca5-bb6b-fdf481df4d2a"},"vehicle_type_id":"4","last_reported":1713715681,"current_range_meters":15600,"station_id":"ce4bgh92rcd13ifvqb40","pricing_plan_id":"cebpf4jnsgd1na2vs0mg"},{"bike_id":"4f6bed82-db35-4f00-9e8b-52ca97d3e05b","system_id":"levelo_inurba_marseille","lat":43.292749,"lon":5.368402,"is_reserved":false,"is_disabled":false,"rental_uris":{"android":"levelo://app?vid=4f6bed82-db35-4f00-9e8b-52ca97d3e05b","ios":"levelo://app?vid=4f6bed82-db35-4f00-9e8b-52ca97d3e05b"},"vehicle_type_id":"4","last_reported":1713715681,"current_range_meters":0,"station_id":"ce4bhbp2rcd13ifvqesg","pricing_plan_id":"cebpf4jnsgd1na2vs0mg"},{"bike_id":"bc7510a7-7fd2-4311-8adf-6581ad0a16a0","system_id":"levelo_inurba_marseille","lat":43.292749,"lon":5.368402,"is_reserved":false,"is_disabled":false,"rental_uris":{"android":"levelo://app?vid=bc7510a7-7fd2-4311-8adf-6581ad0a16a0","ios":"levelo://app?vid=bc7510a7-7fd2-4311-8adf-6581ad0a16a0"},"vehicle_type_id":"4","last_reported":1713715681,"current_range_meters":14800,"station_id":"ce4bhbp2rcd13ifvqesg","pricing_plan_id":"cebpf4jnsgd1na2vs0mg"},{"bike_id":"cc3fa27e-1c6a-457f-a285-e8067df38c90","system_id":"levelo_inurba_marseille","lat":43.2936,"lon":5.37835,"is_reserved":false,"is_disabled":false,"rental_uris":{"android":"levelo://app?vid=cc3fa27e-1c6a-457f-a285-e8067df38c90","ios":"levelo://app?vid=cc3fa27e-1c6a-457f-a285-e8067df38c90"},"vehicle_type_id":"4","last_reported":1713715681,"current_range_meters":13600,"station_id":"ce4bgjh2rcd13ifvqbf0","pricing_plan_id":"cebpf4jnsgd1na2vs0mg"},{"bike_id":"6f393fab-1453-4cb2-91d6-71c1c6e763b6","system_id":"levelo_inurba_marseille","lat":43.30593,"lon":5.39358,"is_reserved":false,"is_disabled":false,"rental_uris":{"android":"levelo://app?vid=6f393fab-1453-4cb2-91d6-71c1c6e763b6","ios":"levelo://app?vid=6f393fab-1453-4cb2-91d6-71c1c6e763b6"},"vehicle_type_id":"4","last_reported":1713715681,"current_range_meters":0,"station_id":"ce4bh0p2rcd13ifvqd80","pricing_plan_id":"cebpf4jnsgd1na2vs0mg"},{"bike_id":"a5698fc5-beb5-422f-ae38-8d4c0e808406","system_id":"levelo_inurba_marseille","lat":43.278401,"lon":5.392152,"is_reserved":false,"is_disabled":false,"rental_uris":{"android":"levelo://app?vid=a5698fc5-beb5-422f-ae38-8d4c0e808406","ios":"levelo://app?vid=a5698fc5-beb5-422f-ae38-8d4c0e808406"},"vehicle_type_id":"4","last_reported":1713715681,"current_range_meters":0,"station_id":"ce4bhjp2rcd13ifvqga0","pricing_plan_id":"cebpf4jnsgd1na2vs0mg"},{"bike_id":"f085f070-00a7-4e2f-ba3b-9a644f42bea8","system_id":"levelo_inurba_marseille","lat":43.302992,"lon":5.392136,"is_reserved":false,"is_disabled":false,"rental_uris":{"android":"levelo://app?vid=f085f070-00a7-4e2f-ba3b-9a644f42bea8","ios":"levelo://app?vid=f085f070-00a7-4e2f-ba3b-9a644f42bea8"},"vehicle_type_id":"4","last_reported":1713715681,"current_range_meters":3200,"station_id":"ce4bgkh2rcd13ifvqbk0","pricing_plan_id":"cebpf4jnsgd1na2vs0mg"},{"bike_id":"ec0b7f9d-0140-41d8-acb5-ce230303d882","system_id":"levelo_inurba_marseille","lat":43.302903,"lon":5.392072,"is_reserved":false,"is_disabled":false,"rental_uris":{"android":"levelo://app?vid=ec0b7f9d-0140-41d8-acb5-ce230303d882","ios":"levelo://app?vid=ec0b7f9d-0140-41d8-acb5-ce230303d882"},"vehicle_type_id":"4","last_reported":1713715681,"current_range_meters":0,"station_id":"ce4bgkh2rcd13ifvqbk0","pricing_plan_id":"cebpf4jnsgd1na2vs0mg"},{"bike_id":"652a858e-5e57-428e-9701-612bde4bec1d","system_id":"levelo_inurba_marseille","lat":43.2936,"lon":5.37835,"is_reserved":false,"is_disabled":false,"rental_uris":{"android":"levelo://app?vid=652a858e-5e57-428e-9701-612bde4bec1d","ios":"levelo://app?vid=652a858e-5e57-428e-9701-612bde4bec1d"},"vehicle_type_id":"4","last_reported":1713715681,"current_range_meters":5200,"station_id":"ce4bgjh2rcd13ifvqbf0","pricing_plan_id":"cebpf4jnsgd1na2vs0mg"},{"bike_id":"b033f162-fb53-4460-910f-84507b44a8b3","system_id":"levelo_inurba_marseille","lat":43.292311,"lon":5.360731,"is_reserved":false,"is_disabled":false,"rental_uris":{"android":"levelo://app?vid=b033f162-fb53-4460-910f-84507b44a8b3","ios":"levelo://app?vid=b033f162-fb53-4460-910f-84507b44a8b3"},"vehicle_type_id":"4","last_reported":1713715681,"current_range_meters":0,"station_id":"ce4bhbh2rcd13ifvqeqg","pricing_plan_id":"cebpf4jnsgd1na2vs0mg"},{"bike_id":"1c76d3b6-46c8-49d3-870d-58d30c3a2bb3","system_id":"levelo_inurba_marseille","lat":43.300852,"lon":5.390859,"is_reserved":false,"is_disabled":false,"rental_uris":{"android":"levelo://app?vid=1c76d3b6-46c8-49d3-870d-58d30c3a2bb3","ios":"levelo://app?vid=1c76d3b6-46c8-49d3-870d-58d30c3a2bb3"},"vehicle_type_id":"4","last_reported":1713715681,"current_range_meters":12800,"station_id":"ce4bh192rcd13ifvqdb0","pricing_plan_id":"cebpf4jnsgd1na2vs0mg"},{"bike_id":"40ad77b7-2362-4a82-8dc0-c1049a33265e","system_id":"levelo_inurba_marseille","lat":43.298764,"lon":5.388973,"is_reserved":false,"is_disabled":false,"rental_uris":{"android":"levelo://app?vid=40ad77b7-2362-4a82-8dc0-c1049a33265e","ios":"levelo://app?vid=40ad77b7-2362-4a82-8dc0-c1049a33265e"},"vehicle_type_id":"4","last_reported":1713715681,"current_range_meters":400,"station_id":"ce4bh392rcd13ifvqdl0","pricing_plan_id":"cebpf4jnsgd1na2vs0mg"},{"bike_id":"847f7d2b-0160-41a2-b61e-9a897adf0f5d","system_id":"levelo_inurba_marseille","lat":43.29882,"lon":5.38908,"is_reserved":false,"is_disabled":false,"rental_uris":{"android":"levelo://app?vid=847f7d2b-0160-41a2-b61e-9a897adf0f5d","ios":"levelo://app?vid=847f7d2b-0160-41a2-b61e-9a897adf0f5d"},"vehicle_type_id":"4","last_reported":1713715681,"current_range_meters":0,"station_id":"ce4bh392rcd13ifvqdl0","pricing_plan_id":"cebpf4jnsgd1na2vs0mg"},{"bike_id":"8ded3d93-6110-4d88-92c0-715bd0598e19","system_id":"levelo_inurba_marseille","lat":43.289184,"lon":5.366408,"is_reserved":false,"is_disabled":false,"rental_uris":{"android":"levelo://app?vid=8ded3d93-6110-4d88-92c0-715bd0598e19","ios":"levelo://app?vid=8ded3d93-6110-4d88-92c0-715bd0598e19"},"vehicle_type_id":"4","last_reported":1713715681,"current_range_meters":5200,"station_id":"ce4bhap2rcd13ifvqek0","pricing_plan_id":"cebpf4jnsgd1na2vs0mg"},{"bike_id":"3bf643a6-8875-4374-9cb4-015527da122c","system_id":"levelo_inurba_marseille","lat":43.309038,"lon":5.396546,"is_reserved":false,"is_disabled":false,"rental_uris":{"android":"levelo://app?vid=3bf643a6-8875-4374-9cb4-015527da122c","ios":"levelo://app?vid=3bf643a6-8875-4374-9cb4-015527da122c"},"vehicle_type_id":"4","last_reported":1713715681,"current_range_meters":0,"station_id":"ce4bh012rcd13ifvqcv0","pricing_plan_id":"cebpf4jnsgd1na2vs0mg"},{"bike_id":"55f449f3-36da-497a-8b7f-f97cb51c3af3","system_id":"levelo_inurba_marseille","lat":43.291994,"lon":5.357886,"is_reserved":false,"is_disabled":false,"rental_uris":{"android":"levelo://app?vid=55f449f3-36da-497a-8b7f-f97cb51c3af3","ios":"levelo://app?vid=55f449f3-36da-497a-8b7f-f97cb51c3af3"},"vehicle_type_id":"4","last_reported":1713715681,"current_range_meters":0,"station_id":"ce4bhb12rcd13ifvqel0","pricing_plan_id":"cebpf4jnsgd1na2vs0mg"},{"bike_id":"1c943955-5d04-4c79-b5c2-1c8126b21165","system_id":"levelo_inurba_marseille","lat":43.291994,"lon":5.357886,"is_reserved":false,"is_disabled":false,"rental_uris":{"android":"levelo://app?vid=1c943955-5d04-4c79-b5c2-1c8126b21165","ios":"levelo://app?vid=1c943955-5d04-4c79-b5c2-1c8126b21165"},"vehicle_type_id":"4","last_reported":1713715681,"current_range_meters":0,"station_id":"ce4bhb12rcd13ifvqel0","pricing_plan_id":"cebpf4jnsgd1na2vs0mg"},{"bike_id":"43525023-230b-4b25-a063-e02dc4425b29","system_id":"levelo_inurba_marseille","lat":43.295442,"lon":5.38545,"is_reserved":false,"is_disabled":false,"rental_uris":{"android":"levelo://app?vid=43525023-230b-4b25-a063-e02dc4425b29","ios":"levelo://app?vid=43525023-230b-4b25-a063-e02dc4425b29"},"vehicle_type_id":"4","last_reported":1713715681,"current_range_meters":0,"station_id":"ce4bgih2rcd13ifvqba0","pricing_plan_id":"cebpf4jnsgd1na2vs0mg"},{"bike_id":"620556b1-de60-4a0a-94dd-107032095250","system_id":"levelo_inurba_marseille","lat":43.291808,"lon":5.357928,"is_reserved":false,"is_disabled":false,"rental_uris":{"android":"levelo://app?vid=620556b1-de60-4a0a-94dd-107032095250","ios":"levelo://app?vid=620556b1-de60-4a0a-94dd-107032095250"},"vehicle_type_id":"4","last_reported":1713715681,"current_range_meters":0,"station_id":"ce4bhb12rcd13ifvqel0","pricing_plan_id":"cebpf4jnsgd1na2vs0mg"},{"bike_id":"001e9b73-2106-4c0f-be95-4821ceecf6f9","system_id":"levelo_inurba_marseille","lat":43.297794,"lon":5.370888,"is_reserved":false,"is_disabled":false,"rental_uris":{"android":"levelo://app?vid=001e9b73-2106-4c0f-be95-4821ceecf6f9","ios":"levelo://app?vid=001e9b73-2106-4c0f-be95-4821ceecf6f9"},"vehicle_type_id":"4","last_reported":1713715681,"current_range_meters":0,"station_id":"ce4bgop2rcd13ifvqc1g","pricing_plan_id":"cebpf4jnsgd1na2vs0mg"},{"bike_id":"59833d52-5873-4642-9b83-b281dc966ff2","system_id":"levelo_inurba_marseille","lat":43.29529,"lon":5.385581,"is_reserved":false,"is_disabled":false,"rental_uris":{"android":"levelo://app?vid=59833d52-5873-4642-9b83-b281dc966ff2","ios":"levelo://app?vid=59833d52-5873-4642-9b83-b281dc966ff2"},"vehicle_type_id":"4","last_reported":1713715681,"current_range_meters":0,"station_id":"ce4bgih2rcd13ifvqba0","pricing_plan_id":"cebpf4jnsgd1na2vs0mg"},{"bike_id":"83dfa886-da44-4752-b4cd-495aa2a28adc","system_id":"levelo_inurba_marseille","lat":43.29529,"lon":5.385581,"is_reserved":false,"is_disabled":false,"rental_uris":{"android":"levelo://app?vid=83dfa886-da44-4752-b4cd-495aa2a28adc","ios":"levelo://app?vid=83dfa886-da44-4752-b4cd-495aa2a28adc"},"vehicle_type_id":"4","last_reported":1713715681,"current_range_meters":0,"station_id":"ce4bgih2rcd13ifvqba0","pricing_plan_id":"cebpf4jnsgd1na2vs0mg"},{"bike_id":"adc11ff5-95a7-4de8-af32-4ec15565f37d","system_id":"levelo_inurba_marseille","lat":43.29529,"lon":5.385581,"is_reserved":false,"is_disabled":false,"rental_uris":{"android":"levelo://app?vid=adc11ff5-95a7-4de8-af32-4ec15565f37d","ios":"levelo://app?vid=adc11ff5-95a7-4de8-af32-4ec15565f37d"},"vehicle_type_id":"4","last_reported":1713715681,"current_range_meters":23200,"station_id":"ce4bgih2rcd13ifvqba0","pricing_plan_id":"cebpf4jnsgd1na2vs0mg"},{"bike_id":"fa746e5c-c9cd-4c93-a8df-b7a0c0d6b35a","system_id":"levelo_inurba_marseille","lat":43.290779,"lon":5.371482,"is_reserved":false,"is_disabled":false,"rental_uris":{"android":"levelo://app?vid=fa746e5c-c9cd-4c93-a8df-b7a0c0d6b35a","ios":"levelo://app?vid=fa746e5c-c9cd-4c93-a8df-b7a0c0d6b35a"},"vehicle_type_id":"4","last_reported":1713715681,"current_range_meters":13200,"station_id":"ce4bh5p2rcd13ifvqe4g","pricing_plan_id":"cebpf4jnsgd1na2vs0mg"},{"bike_id":"80d85936-66b2-4bac-8a62-fea8fb75ae9e","system_id":"levelo_inurba_marseille","lat":43.290456,"lon":5.371264,"is_reserved":false,"is_disabled":false,"rental_uris":{"android":"levelo://app?vid=80d85936-66b2-4bac-8a62-fea8fb75ae9e","ios":"levelo://app?vid=80d85936-66b2-4bac-8a62-fea8fb75ae9e"},"vehicle_type_id":"4","last_reported":1713715681,"current_range_meters":0,"station_id":"ce4bh5p2rcd13ifvqe4g","pricing_plan_id":"cebpf4jnsgd1na2vs0mg"},{"bike_id":"a3351474-d316-4206-ac0d-ae0b1c4da062","system_id":"levelo_inurba_marseille","lat":43.290779,"lon":5.371482,"is_reserved":false,"is_disabled":false,"rental_uris":{"android":"levelo://app?vid=a3351474-d316-4206-ac0d-ae0b1c4da062","ios":"levelo://app?vid=a3351474-d316-4206-ac0d-ae0b1c4da062"},"vehicle_type_id":"4","last_reported":1713715681,"current_range_meters":4400,"station_id":"ce4bh5p2rcd13ifvqe4g","pricing_plan_id":"cebpf4jnsgd1na2vs0mg"},{"bike_id":"5c142082-686e-4cc1-b3ab-6fa8af5a963e","system_id":"levelo_inurba_marseille","lat":43.302008,"lon":5.394694,"is_reserved":false,"is_disabled":false,"rental_uris":{"android":"levelo://app?vid=5c142082-686e-4cc1-b3ab-6fa8af5a963e","ios":"levelo://app?vid=5c142082-686e-4cc1-b3ab-6fa8af5a963e"},"vehicle_type_id":"4","last_reported":1713715681,"current_range_meters":14800,"station_id":"ce4bh0p2rcd13ifvqd70","pricing_plan_id":"cebpf4jnsgd1na2vs0mg"},{"bike_id":"a62ce466-4772-444a-8780-08f2c5193f6c","system_id":"levelo_inurba_marseille","lat":43.302008,"lon":5.394694,"is_reserved":false,"is_disabled":false,"rental_uris":{"android":"levelo://app?vid=a62ce466-4772-444a-8780-08f2c5193f6c","ios":"levelo://app?vid=a62ce466-4772-444a-8780-08f2c5193f6c"},"vehicle_type_id":"4","last_reported":1713715681,"current_range_meters":24400,"station_id":"ce4bh0p2rcd13ifvqd70","pricing_plan_id":"cebpf4jnsgd1na2vs0mg"},{"bike_id":"9d2af414-303a-4e16-a3f5-0be67b554124","system_id":"levelo_inurba_marseille","lat":43.2943,"lon":5.3862,"is_reserved":false,"is_disabled":false,"rental_uris":{"android":"levelo://app?vid=9d2af414-303a-4e16-a3f5-0be67b554124","ios":"levelo://app?vid=9d2af414-303a-4e16-a3f5-0be67b554124"},"vehicle_type_id":"4","last_reported":1713715681,"current_range_meters":1600,"station_id":"","pricing_plan_id":"cebpf4jnsgd1na2vs0mg"},{"bike_id":"1dd4000b-1f63-4a4f-85d2-e2e05fdffa79","system_id":"levelo_inurba_marseille","lat":43.294153,"lon":5.386305,"is_reserved":false,"is_disabled":false,"rental_uris":{"android":"levelo://app?vid=1dd4000b-1f63-4a4f-85d2-e2e05fdffa79","ios":"levelo://app?vid=1dd4000b-1f63-4a4f-85d2-e2e05fdffa79"},"vehicle_type_id":"4","last_reported":1713715681,"current_range_meters":6400,"station_id":"ce4bh2h2rcd13ifvqdh0","pricing_plan_id":"cebpf4jnsgd1na2vs0mg"},{"bike_id":"4976ce7c-50c6-40be-846a-a69af4a31696","system_id":"levelo_inurba_marseille","lat":43.294174,"lon":5.3862,"is_reserved":false,"is_disabled":false,"rental_uris":{"android":"levelo://app?vid=4976ce7c-50c6-40be-846a-a69af4a31696","ios":"levelo://app?vid=4976ce7c-50c6-40be-846a-a69af4a31696"},"vehicle_type_id":"4","last_reported":1713715681,"current_range_meters":0,"station_id":"ce4bh2h2rcd13ifvqdh0","pricing_plan_id":"cebpf4jnsgd1na2vs0mg"},{"bike_id":"c1e73f04-7855-4807-aba6-d29c8ad325f4","system_id":"levelo_inurba_marseille","lat":43.29026,"lon":5.3755,"is_reserved":false,"is_disabled":false,"rental_uris":{"android":"levelo://app?vid=c1e73f04-7855-4807-aba6-d29c8ad325f4","ios":"levelo://app?vid=c1e73f04-7855-4807-aba6-d29c8ad325f4"},"vehicle_type_id":"4","last_reported":1713715681,"current_range_meters":10400,"station_id":"","pricing_plan_id":"cebpf4jnsgd1na2vs0mg"},{"bike_id":"5cf71765-1265-4477-a1cb-f738c89f8af1","system_id":"levelo_inurba_marseille","lat":43.29415,"lon":5.38632,"is_reserved":false,"is_disabled":false,"rental_uris":{"android":"levelo://app?vid=5cf71765-1265-4477-a1cb-f738c89f8af1","ios":"levelo://app?vid=5cf71765-1265-4477-a1cb-f738c89f8af1"},"vehicle_type_id":"4","last_reported":1713715681,"current_range_meters":2400,"station_id":"ce4bh2h2rcd13ifvqdh0","pricing_plan_id":"cebpf4jnsgd1na2vs0mg"},{"bike_id":"02518c8f-5d5b-4483-8a55-7304c199c878","system_id":"levelo_inurba_marseille","lat":43.289389,"lon":5.366381,"is_reserved":false,"is_disabled":false,"rental_uris":{"android":"levelo://app?vid=02518c8f-5d5b-4483-8a55-7304c199c878","ios":"levelo://app?vid=02518c8f-5d5b-4483-8a55-7304c199c878"},"vehicle_type_id":"4","last_reported":1713715681,"current_range_meters":2400,"station_id":"ce4bhap2rcd13ifvqek0","pricing_plan_id":"cebpf4jnsgd1na2vs0mg"},{"bike_id":"3201ac10-300b-4597-9e4e-419f900e8136","system_id":"levelo_inurba_marseille","lat":43.288497,"lon":5.393089,"is_reserved":false,"is_disabled":false,"rental_uris":{"android":"levelo://app?vid=3201ac10-300b-4597-9e4e-419f900e8136","ios":"levelo://app?vid=3201ac10-300b-4597-9e4e-419f900e8136"},"vehicle_type_id":"4","last_reported":1713715681,"current_range_meters":27200,"station_id":"ce4bh2p2rcd13ifvqdi0","pricing_plan_id":"cebpf4jnsgd1na2vs0mg"},{"bike_id":"0c07c9f2-aa8b-43e0-bcc1-def761ae6560","system_id":"levelo_inurba_marseille","lat":43.290319,"lon":5.375732,"is_reserved":false,"is_disabled":false,"rental_uris":{"android":"levelo://app?vid=0c07c9f2-aa8b-43e0-bcc1-def761ae6560","ios":"levelo://app?vid=0c07c9f2-aa8b-43e0-bcc1-def761ae6560"},"vehicle_type_id":"4","last_reported":1713715681,"current_range_meters":5200,"station_id":"ce4bh692rcd13ifvqe90","pricing_plan_id":"cebpf4jnsgd1na2vs0mg"},{"bike_id":"67c46e07-933f-490f-8fe7-38d6ed0f3a47","system_id":"levelo_inurba_marseille","lat":43.292644,"lon":5.384257,"is_reserved":false,"is_disabled":false,"rental_uris":{"android":"levelo://app?vid=67c46e07-933f-490f-8fe7-38d6ed0f3a47","ios":"levelo://app?vid=67c46e07-933f-490f-8fe7-38d6ed0f3a47"},"vehicle_type_id":"4","last_reported":1713715681,"current_range_meters":27200,"station_id":"ce4bh692rcd13ifvqea0","pricing_plan_id":"cebpf4jnsgd1na2vs0mg"},{"bike_id":"23d63f6a-1dfd-45cb-88ed-e25ab463669e","system_id":"levelo_inurba_marseille","lat":43.292642,"lon":5.384254,"is_reserved":false,"is_disabled":false,"rental_uris":{"android":"levelo://app?vid=23d63f6a-1dfd-45cb-88ed-e25ab463669e","ios":"levelo://app?vid=23d63f6a-1dfd-45cb-88ed-e25ab463669e"},"vehicle_type_id":"4","last_reported":1713715681,"current_range_meters":21600,"station_id":"ce4bh692rcd13ifvqea0","pricing_plan_id":"cebpf4jnsgd1na2vs0mg"},{"bike_id":"7ac0f60d-ade9-4869-9149-8e879bbec055","system_id":"levelo_inurba_marseille","lat":43.29259,"lon":5.38442,"is_reserved":false,"is_disabled":false,"rental_uris":{"android":"levelo://app?vid=7ac0f60d-ade9-4869-9149-8e879bbec055","ios":"levelo://app?vid=7ac0f60d-ade9-4869-9149-8e879bbec055"},"vehicle_type_id":"4","last_reported":1713715681,"current_range_meters":11200,"station_id":"ce4bh692rcd13ifvqea0","pricing_plan_id":"cebpf4jnsgd1na2vs0mg"},{"bike_id":"cd505420-fe61-4648-b4ac-55fe1e428d7b","system_id":"levelo_inurba_marseille","lat":43.30424,"lon":5.39754,"is_reserved":false,"is_disabled":false,"rental_uris":{"android":"levelo://app?vid=cd505420-fe61-4648-b4ac-55fe1e428d7b","ios":"levelo://app?vid=cd505420-fe61-4648-b4ac-55fe1e428d7b"},"vehicle_type_id":"4","last_reported":1713715681,"current_range_meters":800,"station_id":"ce4bh092rcd13ifvqd20","pricing_plan_id":"cebpf4jnsgd1na2vs0mg"},{"bike_id":"7bed3397-f278-493d-8b53-e86c52312861","system_id":"levelo_inurba_marseille","lat":43.292563,"lon":5.384423,"is_reserved":false,"is_disabled":false,"rental_uris":{"android":"levelo://app?vid=7bed3397-f278-493d-8b53-e86c52312861","ios":"levelo://app?vid=7bed3397-f278-493d-8b53-e86c52312861"},"vehicle_type_id":"4","last_reported":1713715681,"current_range_meters":24800,"station_id":"ce4bh692rcd13ifvqea0","pricing_plan_id":"cebpf4jnsgd1na2vs0mg"},{"bike_id":"a8c5aa82-b69c-4700-8a4a-c99f951d64ce","system_id":"levelo_inurba_marseille","lat":43.29008,"lon":5.35616,"is_reserved":false,"is_disabled":false,"rental_uris":{"android":"levelo://app?vid=a8c5aa82-b69c-4700-8a4a-c99f951d64ce","ios":"levelo://app?vid=a8c5aa82-b69c-4700-8a4a-c99f951d64ce"},"vehicle_type_id":"4","last_reported":1713715681,"current_range_meters":6400,"station_id":"ce4bhb92rcd13ifvqen0","pricing_plan_id":"cebpf4jnsgd1na2vs0mg"},{"bike_id":"0db573e2-5cad-4ec7-afcd-1240ffd56cf2","system_id":"levelo_inurba_marseille","lat":43.290104,"lon":5.356111,"is_reserved":false,"is_disabled":false,"rental_uris":{"android":"levelo://app?vid=0db573e2-5cad-4ec7-afcd-1240ffd56cf2","ios":"levelo://app?vid=0db573e2-5cad-4ec7-afcd-1240ffd56cf2"},"vehicle_type_id":"4","last_reported":1713715681,"current_range_meters":0,"station_id":"ce4bhb92rcd13ifvqen0","pricing_plan_id":"cebpf4jnsgd1na2vs0mg"},{"bike_id":"cf58feb8-f3c7-4dfc-976c-20744fc734eb","system_id":"levelo_inurba_marseille","lat":43.290104,"lon":5.356111,"is_reserved":false,"is_disabled":false,"rental_uris":{"android":"levelo://app?vid=cf58feb8-f3c7-4dfc-976c-20744fc734eb","ios":"levelo://app?vid=cf58feb8-f3c7-4dfc-976c-20744fc734eb"},"vehicle_type_id":"4","last_reported":1713715681,"current_range_meters":0,"station_id":"ce4bhb92rcd13ifvqen0","pricing_plan_id":"cebpf4jnsgd1na2vs0mg"},{"bike_id":"21aae27c-07f4-4ce6-aa17-6ddbdb5eb500","system_id":"levelo_inurba_marseille","lat":43.290104,"lon":5.356111,"is_reserved":false,"is_disabled":false,"rental_uris":{"android":"levelo://app?vid=21aae27c-07f4-4ce6-aa17-6ddbdb5eb500","ios":"levelo://app?vid=21aae27c-07f4-4ce6-aa17-6ddbdb5eb500"},"vehicle_type_id":"4","last_reported":1713715681,"current_range_meters":17600,"station_id":"ce4bhb92rcd13ifvqen0","pricing_plan_id":"cebpf4jnsgd1na2vs0mg"},{"bike_id":"df092525-5cb0-41f6-b349-fe66091898e2","system_id":"levelo_inurba_marseille","lat":43.290104,"lon":5.356111,"is_reserved":false,"is_disabled":false,"rental_uris":{"android":"levelo://app?vid=df092525-5cb0-41f6-b349-fe66091898e2","ios":"levelo://app?vid=df092525-5cb0-41f6-b349-fe66091898e2"},"vehicle_type_id":"4","last_reported":1713715681,"current_range_meters":0,"station_id":"ce4bhb92rcd13ifvqen0","pricing_plan_id":"cebpf4jnsgd1na2vs0mg"},{"bike_id":"97cd0e7e-c594-4c82-bac9-50f31884b920","system_id":"levelo_inurba_marseille","lat":43.29002,"lon":5.35606,"is_reserved":false,"is_disabled":false,"rental_uris":{"android":"levelo://app?vid=97cd0e7e-c594-4c82-bac9-50f31884b920","ios":"levelo://app?vid=97cd0e7e-c594-4c82-bac9-50f31884b920"},"vehicle_type_id":"4","last_reported":1713715681,"current_range_meters":0,"station_id":"ce4bhb92rcd13ifvqen0","pricing_plan_id":"cebpf4jnsgd1na2vs0mg"},{"bike_id":"cc106637-673d-418c-bc67-bf6536a2c905","system_id":"levelo_inurba_marseille","lat":43.29,"lon":5.3561,"is_reserved":false,"is_disabled":false,"rental_uris":{"android":"levelo://app?vid=cc106637-673d-418c-bc67-bf6536a2c905","ios":"levelo://app?vid=cc106637-673d-418c-bc67-bf6536a2c905"},"vehicle_type_id":"4","last_reported":1713715681,"current_range_meters":0,"station_id":"ce4bhb92rcd13ifvqen0","pricing_plan_id":"cebpf4jnsgd1na2vs0mg"},{"bike_id":"bf18e663-5194-4f7c-adca-b009680d66c1","system_id":"levelo_inurba_marseille","lat":43.290104,"lon":5.356111,"is_reserved":false,"is_disabled":false,"rental_uris":{"android":"levelo://app?vid=bf18e663-5194-4f7c-adca-b009680d66c1","ios":"levelo://app?vid=bf18e663-5194-4f7c-adca-b009680d66c1"},"vehicle_type_id":"4","last_reported":1713715681,"current_range_meters":29200,"station_id":"ce4bhb92rcd13ifvqen0","pricing_plan_id":"cebpf4jnsgd1na2vs0mg"},{"bike_id":"7708a446-531e-4aa3-a52e-fc22f405e4a0","system_id":"levelo_inurba_marseille","lat":43.290995,"lon":5.381361,"is_reserved":false,"is_disabled":false,"rental_uris":{"android":"levelo://app?vid=7708a446-531e-4aa3-a52e-fc22f405e4a0","ios":"levelo://app?vid=7708a446-531e-4aa3-a52e-fc22f405e4a0"},"vehicle_type_id":"4","last_reported":1713715681,"current_range_meters":22000,"station_id":"ce4bh512rcd13ifvqe2g","pricing_plan_id":"cebpf4jnsgd1na2vs0mg"},{"bike_id":"ad8e74e5-f368-44c1-b7c6-0479227e40d2","system_id":"levelo_inurba_marseille","lat":43.290995,"lon":5.381361,"is_reserved":false,"is_disabled":false,"rental_uris":{"android":"levelo://app?vid=ad8e74e5-f368-44c1-b7c6-0479227e40d2","ios":"levelo://app?vid=ad8e74e5-f368-44c1-b7c6-0479227e40d2"},"vehicle_type_id":"4","last_reported":1713715681,"current_range_meters":400,"station_id":"ce4bh512rcd13ifvqe2g","pricing_plan_id":"cebpf4jnsgd1na2vs0mg"},{"bike_id":"2a215257-d9af-4ae1-bd48-15044530cd4d","system_id":"levelo_inurba_marseille","lat":43.29793,"lon":5.393436,"is_reserved":false,"is_disabled":false,"rental_uris":{"android":"levelo://app?vid=2a215257-d9af-4ae1-bd48-15044530cd4d","ios":"levelo://app?vid=2a215257-d9af-4ae1-bd48-15044530cd4d"},"vehicle_type_id":"4","last_reported":1713715681,"current_range_meters":0,"station_id":"chh1huq6cuj3fo74tm60","pricing_plan_id":"cebpf4jnsgd1na2vs0mg"},{"bike_id":"96d1dad2-b9c5-44bf-9742-0ff9744d2fd3","system_id":"levelo_inurba_marseille","lat":43.289743,"lon":5.378304,"is_reserved":false,"is_disabled":false,"rental_uris":{"android":"levelo://app?vid=96d1dad2-b9c5-44bf-9742-0ff9744d2fd3","ios":"levelo://app?vid=96d1dad2-b9c5-44bf-9742-0ff9744d2fd3"},"vehicle_type_id":"4","last_reported":1713715681,"current_range_meters":21600,"station_id":"ce4bh9p2rcd13ifvqed0","pricing_plan_id":"cebpf4jnsgd1na2vs0mg"},{"bike_id":"dd9026d8-f236-4cbc-af64-f22877fc09f6","system_id":"levelo_inurba_marseille","lat":43.289743,"lon":5.378304,"is_reserved":false,"is_disabled":false,"rental_uris":{"android":"levelo://app?vid=dd9026d8-f236-4cbc-af64-f22877fc09f6","ios":"levelo://app?vid=dd9026d8-f236-4cbc-af64-f22877fc09f6"},"vehicle_type_id":"4","last_reported":1713715681,"current_range_meters":0,"station_id":"ce4bh9p2rcd13ifvqed0","pricing_plan_id":"cebpf4jnsgd1na2vs0mg"},{"bike_id":"6c146a47-e83d-404c-87cd-ba2f1bffc6b5","system_id":"levelo_inurba_marseille","lat":43.289741,"lon":5.378306,"is_reserved":false,"is_disabled":false,"rental_uris":{"android":"levelo://app?vid=6c146a47-e83d-404c-87cd-ba2f1bffc6b5","ios":"levelo://app?vid=6c146a47-e83d-404c-87cd-ba2f1bffc6b5"},"vehicle_type_id":"4","last_reported":1713715681,"current_range_meters":28000,"station_id":"ce4bh9p2rcd13ifvqed0","pricing_plan_id":"cebpf4jnsgd1na2vs0mg"},{"bike_id":"fa178904-fd47-46d7-a713-58a9abdf0bc0","system_id":"levelo_inurba_marseille","lat":43.330442,"lon":5.389148,"is_reserved":false,"is_disabled":false,"rental_uris":{"android":"levelo://app?vid=fa178904-fd47-46d7-a713-58a9abdf0bc0","ios":"levelo://app?vid=fa178904-fd47-46d7-a713-58a9abdf0bc0"},"vehicle_type_id":"4","last_reported":1713715681,"current_range_meters":18800,"station_id":"ce4bhr92rcd13ifvqhrg","pricing_plan_id":"cebpf4jnsgd1na2vs0mg"},{"bike_id":"54ff743f-4feb-4662-8ecd-c21268846692","system_id":"levelo_inurba_marseille","lat":43.330442,"lon":5.389148,"is_reserved":false,"is_disabled":false,"rental_uris":{"android":"levelo://app?vid=54ff743f-4feb-4662-8ecd-c21268846692","ios":"levelo://app?vid=54ff743f-4feb-4662-8ecd-c21268846692"},"vehicle_type_id":"4","last_reported":1713715681,"current_range_meters":31600,"station_id":"ce4bhr92rcd13ifvqhrg","pricing_plan_id":"cebpf4jnsgd1na2vs0mg"},{"bike_id":"2f98239b-1746-4d2c-93ec-e92b88bdb8bb","system_id":"levelo_inurba_marseille","lat":43.330442,"lon":5.389148,"is_reserved":false,"is_disabled":false,"rental_uris":{"android":"levelo://app?vid=2f98239b-1746-4d2c-93ec-e92b88bdb8bb","ios":"levelo://app?vid=2f98239b-1746-4d2c-93ec-e92b88bdb8bb"},"vehicle_type_id":"4","last_reported":1713715681,"current_range_meters":20400,"station_id":"ce4bhr92rcd13ifvqhrg","pricing_plan_id":"cebpf4jnsgd1na2vs0mg"},{"bike_id":"29c66e8e-ad35-428e-994a-166171ef10c0","system_id":"levelo_inurba_marseille","lat":43.330442,"lon":5.389148,"is_reserved":false,"is_disabled":false,"rental_uris":{"android":"levelo://app?vid=29c66e8e-ad35-428e-994a-166171ef10c0","ios":"levelo://app?vid=29c66e8e-ad35-428e-994a-166171ef10c0"},"vehicle_type_id":"4","last_reported":1713715681,"current_range_meters":31600,"station_id":"ce4bhr92rcd13ifvqhrg","pricing_plan_id":"cebpf4jnsgd1na2vs0mg"},{"bike_id":"00d22dd6-be08-45a5-9101-f50481b5829c","system_id":"levelo_inurba_marseille","lat":43.290995,"lon":5.381361,"is_reserved":false,"is_disabled":false,"rental_uris":{"android":"levelo://app?vid=00d22dd6-be08-45a5-9101-f50481b5829c","ios":"levelo://app?vid=00d22dd6-be08-45a5-9101-f50481b5829c"},"vehicle_type_id":"4","last_reported":1713715681,"current_range_meters":0,"station_id":"ce4bh512rcd13ifvqe2g","pricing_plan_id":"cebpf4jnsgd1na2vs0mg"},{"bike_id":"bc2bcca4-f276-4b9b-9184-808dabe407e8","system_id":"levelo_inurba_marseille","lat":43.330442,"lon":5.389148,"is_reserved":false,"is_disabled":false,"rental_uris":{"android":"levelo://app?vid=bc2bcca4-f276-4b9b-9184-808dabe407e8","ios":"levelo://app?vid=bc2bcca4-f276-4b9b-9184-808dabe407e8"},"vehicle_type_id":"4","last_reported":1713715681,"current_range_meters":9200,"station_id":"ce4bhr92rcd13ifvqhrg","pricing_plan_id":"cebpf4jnsgd1na2vs0mg"},{"bike_id":"3a8b7401-f062-44c8-8945-ca4bc62da38b","system_id":"levelo_inurba_marseille","lat":43.330881,"lon":5.390011,"is_reserved":false,"is_disabled":false,"rental_uris":{"android":"levelo://app?vid=3a8b7401-f062-44c8-8945-ca4bc62da38b","ios":"levelo://app?vid=3a8b7401-f062-44c8-8945-ca4bc62da38b"},"vehicle_type_id":"4","last_reported":1713715681,"current_range_meters":29200,"station_id":"","pricing_plan_id":"cebpf4jnsgd1na2vs0mg"},{"bike_id":"ba934514-c776-41ee-823f-b82a5cef42b5","system_id":"levelo_inurba_marseille","lat":43.2901,"lon":5.381269,"is_reserved":false,"is_disabled":false,"rental_uris":{"android":"levelo://app?vid=ba934514-c776-41ee-823f-b82a5cef42b5","ios":"levelo://app?vid=ba934514-c776-41ee-823f-b82a5cef42b5"},"vehicle_type_id":"4","last_reported":1713715681,"current_range_meters":2000,"station_id":"ce4bh4p2rcd13ifvqe1g","pricing_plan_id":"cebpf4jnsgd1na2vs0mg"},{"bike_id":"65cc2692-6af6-4b79-990f-50ae3b2ed8d2","system_id":"levelo_inurba_marseille","lat":43.254945,"lon":5.376454,"is_reserved":false,"is_disabled":false,"rental_uris":{"android":"levelo://app?vid=65cc2692-6af6-4b79-990f-50ae3b2ed8d2","ios":"levelo://app?vid=65cc2692-6af6-4b79-990f-50ae3b2ed8d2"},"vehicle_type_id":"4","last_reported":1713715681,"current_range_meters":0,"station_id":"ce4bhh12rcd13ifvqff0","pricing_plan_id":"cebpf4jnsgd1na2vs0mg"},{"bike_id":"fe1e785c-7eef-40bd-aa02-b1870346f249","system_id":"levelo_inurba_marseille","lat":43.28856,"lon":5.358371,"is_reserved":false,"is_disabled":false,"rental_uris":{"android":"levelo://app?vid=fe1e785c-7eef-40bd-aa02-b1870346f249","ios":"levelo://app?vid=fe1e785c-7eef-40bd-aa02-b1870346f249"},"vehicle_type_id":"4","last_reported":1713715681,"current_range_meters":0,"station_id":"ce4bhb12rcd13ifvqem0","pricing_plan_id":"cebpf4jnsgd1na2vs0mg"},{"bike_id":"3d0dedd6-cbca-4ffd-a187-170896a3a69c","system_id":"levelo_inurba_marseille","lat":43.288442,"lon":5.358852,"is_reserved":false,"is_disabled":false,"rental_uris":{"android":"levelo://app?vid=3d0dedd6-cbca-4ffd-a187-170896a3a69c","ios":"levelo://app?vid=3d0dedd6-cbca-4ffd-a187-170896a3a69c"},"vehicle_type_id":"4","last_reported":1713715681,"current_range_meters":6800,"station_id":"ce4bhb12rcd13ifvqem0","pricing_plan_id":"cebpf4jnsgd1na2vs0mg"},{"bike_id":"0f717b72-273a-4641-b4c3-5a92f629d928","system_id":"levelo_inurba_marseille","lat":43.28856,"lon":5.358371,"is_reserved":false,"is_disabled":false,"rental_uris":{"android":"levelo://app?vid=0f717b72-273a-4641-b4c3-5a92f629d928","ios":"levelo://app?vid=0f717b72-273a-4641-b4c3-5a92f629d928"},"vehicle_type_id":"4","last_reported":1713715681,"current_range_meters":0,"station_id":"ce4bhb12rcd13ifvqem0","pricing_plan_id":"cebpf4jnsgd1na2vs0mg"},{"bike_id":"aa93b697-1c09-43a7-8660-2007cd446256","system_id":"levelo_inurba_marseille","lat":43.28856,"lon":5.358371,"is_reserved":false,"is_disabled":false,"rental_uris":{"android":"levelo://app?vid=aa93b697-1c09-43a7-8660-2007cd446256","ios":"levelo://app?vid=aa93b697-1c09-43a7-8660-2007cd446256"},"vehicle_type_id":"4","last_reported":1713715681,"current_range_meters":31200,"station_id":"ce4bhb12rcd13ifvqem0","pricing_plan_id":"cebpf4jnsgd1na2vs0mg"},{"bike_id":"b7c41dcc-925a-4ebc-ac94-d8c5dd2261af","system_id":"levelo_inurba_marseille","lat":43.28856,"lon":5.358371,"is_reserved":false,"is_disabled":false,"rental_uris":{"android":"levelo://app?vid=b7c41dcc-925a-4ebc-ac94-d8c5dd2261af","ios":"levelo://app?vid=b7c41dcc-925a-4ebc-ac94-d8c5dd2261af"},"vehicle_type_id":"4","last_reported":1713715681,"current_range_meters":400,"station_id":"ce4bhb12rcd13ifvqem0","pricing_plan_id":"cebpf4jnsgd1na2vs0mg"},{"bike_id":"0fed2848-e162-4bd0-8e8f-d18a2ad76d03","system_id":"levelo_inurba_marseille","lat":43.337489,"lon":5.374734,"is_reserved":false,"is_disabled":false,"rental_uris":{"android":"levelo://app?vid=0fed2848-e162-4bd0-8e8f-d18a2ad76d03","ios":"levelo://app?vid=0fed2848-e162-4bd0-8e8f-d18a2ad76d03"},"vehicle_type_id":"4","last_reported":1713715681,"current_range_meters":6000,"station_id":"","pricing_plan_id":"cebpf4jnsgd1na2vs0mg"},{"bike_id":"ff2062f6-ee43-47f3-bd26-96f2612f3ff7","system_id":"levelo_inurba_marseille","lat":43.28902,"lon":5.35438,"is_reserved":false,"is_disabled":false,"rental_uris":{"android":"levelo://app?vid=ff2062f6-ee43-47f3-bd26-96f2612f3ff7","ios":"levelo://app?vid=ff2062f6-ee43-47f3-bd26-96f2612f3ff7"},"vehicle_type_id":"4","last_reported":1713715681,"current_range_meters":27200,"station_id":"","pricing_plan_id":"cebpf4jnsgd1na2vs0mg"},{"bike_id":"6ecc9ba7-ecb0-4b79-a999-4623f5aa9fe0","system_id":"levelo_inurba_marseille","lat":43.337561,"lon":5.374519,"is_reserved":false,"is_disabled":false,"rental_uris":{"android":"levelo://app?vid=6ecc9ba7-ecb0-4b79-a999-4623f5aa9fe0","ios":"levelo://app?vid=6ecc9ba7-ecb0-4b79-a999-4623f5aa9fe0"},"vehicle_type_id":"4","last_reported":1713715681,"current_range_meters":1200,"station_id":"","pricing_plan_id":"cebpf4jnsgd1na2vs0mg"},{"bike_id":"4e03fccd-dbbf-4dbc-9ccc-03e8f48f99e2","system_id":"levelo_inurba_marseille","lat":43.337618,"lon":5.37461,"is_reserved":false,"is_disabled":false,"rental_uris":{"android":"levelo://app?vid=4e03fccd-dbbf-4dbc-9ccc-03e8f48f99e2","ios":"levelo://app?vid=4e03fccd-dbbf-4dbc-9ccc-03e8f48f99e2"},"vehicle_type_id":"4","last_reported":1713715681,"current_range_meters":20800,"station_id":"","pricing_plan_id":"cebpf4jnsgd1na2vs0mg"},{"bike_id":"d97f01da-875c-4d15-88a1-96bdbc00b52c","system_id":"levelo_inurba_marseille","lat":43.30647,"lon":5.40102,"is_reserved":false,"is_disabled":false,"rental_uris":{"android":"levelo://app?vid=d97f01da-875c-4d15-88a1-96bdbc00b52c","ios":"levelo://app?vid=d97f01da-875c-4d15-88a1-96bdbc00b52c"},"vehicle_type_id":"4","last_reported":1713715681,"current_range_meters":0,"station_id":"ce4bh112rcd13ifvqda0","pricing_plan_id":"cebpf4jnsgd1na2vs0mg"},{"bike_id":"e2f7856d-370f-4b48-841d-4a43b9e33baa","system_id":"levelo_inurba_marseille","lat":43.286961,"lon":5.373785,"is_reserved":false,"is_disabled":false,"rental_uris":{"android":"levelo://app?vid=e2f7856d-370f-4b48-841d-4a43b9e33baa","ios":"levelo://app?vid=e2f7856d-370f-4b48-841d-4a43b9e33baa"},"vehicle_type_id":"4","last_reported":1713715681,"current_range_meters":4400,"station_id":"ce4bh3p2rcd13ifvqdq0","pricing_plan_id":"cebpf4jnsgd1na2vs0mg"},{"bike_id":"0935381a-f977-431e-a121-497c1ff08b21","system_id":"levelo_inurba_marseille","lat":43.289307,"lon":5.38406,"is_reserved":false,"is_disabled":false,"rental_uris":{"android":"levelo://app?vid=0935381a-f977-431e-a121-497c1ff08b21","ios":"levelo://app?vid=0935381a-f977-431e-a121-497c1ff08b21"},"vehicle_type_id":"4","last_reported":1713715681,"current_range_meters":6800,"station_id":"ce4bh612rcd13ifvqe6g","pricing_plan_id":"cebpf4jnsgd1na2vs0mg"},{"bike_id":"1e574924-b673-413d-94a5-d4d1a7dd97f5","system_id":"levelo_inurba_marseille","lat":43.298681,"lon":5.397225,"is_reserved":false,"is_disabled":false,"rental_uris":{"android":"levelo://app?vid=1e574924-b673-413d-94a5-d4d1a7dd97f5","ios":"levelo://app?vid=1e574924-b673-413d-94a5-d4d1a7dd97f5"},"vehicle_type_id":"4","last_reported":1713715681,"current_range_meters":0,"station_id":"ce4bh0h2rcd13ifvqd50","pricing_plan_id":"cebpf4jnsgd1na2vs0mg"},{"bike_id":"155f2adc-032c-49d4-83eb-a5df03ca4f24","system_id":"levelo_inurba_marseille","lat":43.286961,"lon":5.373785,"is_reserved":false,"is_disabled":false,"rental_uris":{"android":"levelo://app?vid=155f2adc-032c-49d4-83eb-a5df03ca4f24","ios":"levelo://app?vid=155f2adc-032c-49d4-83eb-a5df03ca4f24"},"vehicle_type_id":"4","last_reported":1713715681,"current_range_meters":0,"station_id":"ce4bh3p2rcd13ifvqdq0","pricing_plan_id":"cebpf4jnsgd1na2vs0mg"},{"bike_id":"48213862-1226-4001-a4f3-343eba9b2bc8","system_id":"levelo_inurba_marseille","lat":43.286961,"lon":5.373785,"is_reserved":false,"is_disabled":false,"rental_uris":{"android":"levelo://app?vid=48213862-1226-4001-a4f3-343eba9b2bc8","ios":"levelo://app?vid=48213862-1226-4001-a4f3-343eba9b2bc8"},"vehicle_type_id":"4","last_reported":1713715681,"current_range_meters":18000,"station_id":"ce4bh3p2rcd13ifvqdq0","pricing_plan_id":"cebpf4jnsgd1na2vs0mg"},{"bike_id":"88faf66f-f9ab-4348-b80a-629b91de2509","system_id":"levelo_inurba_marseille","lat":43.290345,"lon":5.38646,"is_reserved":false,"is_disabled":false,"rental_uris":{"android":"levelo://app?vid=88faf66f-f9ab-4348-b80a-629b91de2509","ios":"levelo://app?vid=88faf66f-f9ab-4348-b80a-629b91de2509"},"vehicle_type_id":"4","last_reported":1713715681,"current_range_meters":1600,"station_id":"ce4bh4p2rcd13ifvqe0g","pricing_plan_id":"cebpf4jnsgd1na2vs0mg"},{"bike_id":"c1e8400f-a573-4666-87ef-9faa4a2d0cb7","system_id":"levelo_inurba_marseille","lat":43.295194,"lon":5.39397,"is_reserved":false,"is_disabled":false,"rental_uris":{"android":"levelo://app?vid=c1e8400f-a573-4666-87ef-9faa4a2d0cb7","ios":"levelo://app?vid=c1e8400f-a573-4666-87ef-9faa4a2d0cb7"},"vehicle_type_id":"4","last_reported":1713715681,"current_range_meters":0,"station_id":"ce4bh292rcd13ifvqdf0","pricing_plan_id":"cebpf4jnsgd1na2vs0mg"},{"bike_id":"69bb873f-f404-430a-9b53-ed9611f0facc","system_id":"levelo_inurba_marseille","lat":43.289307,"lon":5.38406,"is_reserved":false,"is_disabled":false,"rental_uris":{"android":"levelo://app?vid=69bb873f-f404-430a-9b53-ed9611f0facc","ios":"levelo://app?vid=69bb873f-f404-430a-9b53-ed9611f0facc"},"vehicle_type_id":"4","last_reported":1713715681,"current_range_meters":14400,"station_id":"ce4bh612rcd13ifvqe6g","pricing_plan_id":"cebpf4jnsgd1na2vs0mg"},{"bike_id":"a2dec56f-999f-41ab-98eb-f933b5247000","system_id":"levelo_inurba_marseille","lat":43.302759,"lon":5.400793,"is_reserved":false,"is_disabled":false,"rental_uris":{"android":"levelo://app?vid=a2dec56f-999f-41ab-98eb-f933b5247000","ios":"levelo://app?vid=a2dec56f-999f-41ab-98eb-f933b5247000"},"vehicle_type_id":"4","last_reported":1713715681,"current_range_meters":3200,"station_id":"ce4bgvh2rcd13ifvqcs0","pricing_plan_id":"cebpf4jnsgd1na2vs0mg"},{"bike_id":"ff0dff04-38de-4f48-8cef-59fa1d10de77","system_id":"levelo_inurba_marseille","lat":43.30234,"lon":5.400538,"is_reserved":false,"is_disabled":false,"rental_uris":{"android":"levelo://app?vid=ff0dff04-38de-4f48-8cef-59fa1d10de77","ios":"levelo://app?vid=ff0dff04-38de-4f48-8cef-59fa1d10de77"},"vehicle_type_id":"4","last_reported":1713715681,"current_range_meters":0,"station_id":"ce4bgvh2rcd13ifvqcs0","pricing_plan_id":"cebpf4jnsgd1na2vs0mg"},{"bike_id":"37b2e6db-8553-4ce1-bbb8-434d69c2f2d5","system_id":"levelo_inurba_marseille","lat":43.289307,"lon":5.38406,"is_reserved":false,"is_disabled":false,"rental_uris":{"android":"levelo://app?vid=37b2e6db-8553-4ce1-bbb8-434d69c2f2d5","ios":"levelo://app?vid=37b2e6db-8553-4ce1-bbb8-434d69c2f2d5"},"vehicle_type_id":"4","last_reported":1713715681,"current_range_meters":3600,"station_id":"ce4bh612rcd13ifvqe6g","pricing_plan_id":"cebpf4jnsgd1na2vs0mg"},{"bike_id":"7b5baca7-e628-4208-8fef-c9221f4ef94e","system_id":"levelo_inurba_marseille","lat":43.31681,"lon":5.40472,"is_reserved":false,"is_disabled":false,"rental_uris":{"android":"levelo://app?vid=7b5baca7-e628-4208-8fef-c9221f4ef94e","ios":"levelo://app?vid=7b5baca7-e628-4208-8fef-c9221f4ef94e"},"vehicle_type_id":"4","last_reported":1713715681,"current_range_meters":0,"station_id":"ce4bh012rcd13ifvqd00","pricing_plan_id":"cebpf4jnsgd1na2vs0mg"},{"bike_id":"f3a58af0-0b8a-4989-848a-ab609be8b870","system_id":"levelo_inurba_marseille","lat":43.299487,"lon":5.400867,"is_reserved":false,"is_disabled":false,"rental_uris":{"android":"levelo://app?vid=f3a58af0-0b8a-4989-848a-ab609be8b870","ios":"levelo://app?vid=f3a58af0-0b8a-4989-848a-ab609be8b870"},"vehicle_type_id":"4","last_reported":1713715681,"current_range_meters":3200,"station_id":"","pricing_plan_id":"cebpf4jnsgd1na2vs0mg"},{"bike_id":"b04c0cdc-71af-4a2a-bdb6-87ebef2c8f0e","system_id":"levelo_inurba_marseille","lat":43.291994,"lon":5.392907,"is_reserved":false,"is_disabled":false,"rental_uris":{"android":"levelo://app?vid=b04c0cdc-71af-4a2a-bdb6-87ebef2c8f0e","ios":"levelo://app?vid=b04c0cdc-71af-4a2a-bdb6-87ebef2c8f0e"},"vehicle_type_id":"4","last_reported":1713715681,"current_range_meters":7200,"station_id":"ce4bh192rcd13ifvqdd0","pricing_plan_id":"cebpf4jnsgd1na2vs0mg"},{"bike_id":"2cab383b-7165-40fa-8a25-a9dbb5c446a4","system_id":"levelo_inurba_marseille","lat":43.331989,"lon":5.395769,"is_reserved":false,"is_disabled":false,"rental_uris":{"android":"levelo://app?vid=2cab383b-7165-40fa-8a25-a9dbb5c446a4","ios":"levelo://app?vid=2cab383b-7165-40fa-8a25-a9dbb5c446a4"},"vehicle_type_id":"4","last_reported":1713715681,"current_range_meters":0,"station_id":"ce4bhr92rcd13ifvqhrg","pricing_plan_id":"cebpf4jnsgd1na2vs0mg"},{"bike_id":"af8eac1b-bb4d-4ccf-a2a2-c93ed64bcc4e","system_id":"levelo_inurba_marseille","lat":43.284538,"lon":5.358657,"is_reserved":false,"is_disabled":false,"rental_uris":{"android":"levelo://app?vid=af8eac1b-bb4d-4ccf-a2a2-c93ed64bcc4e","ios":"levelo://app?vid=af8eac1b-bb4d-4ccf-a2a2-c93ed64bcc4e"},"vehicle_type_id":"4","last_reported":1713715681,"current_range_meters":27600,"station_id":"ce4bhah2rcd13ifvqei0","pricing_plan_id":"cebpf4jnsgd1na2vs0mg"},{"bike_id":"25458549-a131-41fc-ab9e-8bbf3724a5d8","system_id":"levelo_inurba_marseille","lat":43.284538,"lon":5.358657,"is_reserved":false,"is_disabled":false,"rental_uris":{"android":"levelo://app?vid=25458549-a131-41fc-ab9e-8bbf3724a5d8","ios":"levelo://app?vid=25458549-a131-41fc-ab9e-8bbf3724a5d8"},"vehicle_type_id":"4","last_reported":1713715681,"current_range_meters":7600,"station_id":"ce4bhah2rcd13ifvqei0","pricing_plan_id":"cebpf4jnsgd1na2vs0mg"},{"bike_id":"76706fec-8b8a-4721-b4e3-0f88f8f05aee","system_id":"levelo_inurba_marseille","lat":43.315685,"lon":5.406305,"is_reserved":false,"is_disabled":false,"rental_uris":{"android":"levelo://app?vid=76706fec-8b8a-4721-b4e3-0f88f8f05aee","ios":"levelo://app?vid=76706fec-8b8a-4721-b4e3-0f88f8f05aee"},"vehicle_type_id":"4","last_reported":1713715681,"current_range_meters":20800,"station_id":"","pricing_plan_id":"cebpf4jnsgd1na2vs0mg"},{"bike_id":"fe11811e-5fc8-4a45-8d99-2b130f5006f1","system_id":"levelo_inurba_marseille","lat":43.294314,"lon":5.397498,"is_reserved":false,"is_disabled":false,"rental_uris":{"android":"levelo://app?vid=fe11811e-5fc8-4a45-8d99-2b130f5006f1","ios":"levelo://app?vid=fe11811e-5fc8-4a45-8d99-2b130f5006f1"},"vehicle_type_id":"4","last_reported":1713715681,"current_range_meters":11200,"station_id":"ce4bh3h2rcd13ifvqdo0","pricing_plan_id":"cebpf4jnsgd1na2vs0mg"},{"bike_id":"4140f6bb-7f32-48d0-95eb-d7911e2796b9","system_id":"levelo_inurba_marseille","lat":43.294314,"lon":5.397498,"is_reserved":false,"is_disabled":false,"rental_uris":{"android":"levelo://app?vid=4140f6bb-7f32-48d0-95eb-d7911e2796b9","ios":"levelo://app?vid=4140f6bb-7f32-48d0-95eb-d7911e2796b9"},"vehicle_type_id":"4","last_reported":1713715681,"current_range_meters":21200,"station_id":"ce4bh3h2rcd13ifvqdo0","pricing_plan_id":"cebpf4jnsgd1na2vs0mg"},{"bike_id":"8331ad72-2383-4592-a63d-7133b40b0002","system_id":"levelo_inurba_marseille","lat":43.29429,"lon":5.39753,"is_reserved":false,"is_disabled":false,"rental_uris":{"android":"levelo://app?vid=8331ad72-2383-4592-a63d-7133b40b0002","ios":"levelo://app?vid=8331ad72-2383-4592-a63d-7133b40b0002"},"vehicle_type_id":"4","last_reported":1713715681,"current_range_meters":0,"station_id":"ce4bh3h2rcd13ifvqdo0","pricing_plan_id":"cebpf4jnsgd1na2vs0mg"},{"bike_id":"85785f1f-b404-4845-bcca-737b01699449","system_id":"levelo_inurba_marseille","lat":43.283998,"lon":5.375062,"is_reserved":false,"is_disabled":false,"rental_uris":{"android":"levelo://app?vid=85785f1f-b404-4845-bcca-737b01699449","ios":"levelo://app?vid=85785f1f-b404-4845-bcca-737b01699449"},"vehicle_type_id":"4","last_reported":1713715681,"current_range_meters":23200,"station_id":"ce4bh412rcd13ifvqds0","pricing_plan_id":"cebpf4jnsgd1na2vs0mg"},{"bike_id":"bfa1e5b2-55a7-41f4-a195-d4cca65eb9f2","system_id":"levelo_inurba_marseille","lat":43.285848,"lon":5.350787,"is_reserved":false,"is_disabled":false,"rental_uris":{"android":"levelo://app?vid=bfa1e5b2-55a7-41f4-a195-d4cca65eb9f2","ios":"levelo://app?vid=bfa1e5b2-55a7-41f4-a195-d4cca65eb9f2"},"vehicle_type_id":"4","last_reported":1713715681,"current_range_meters":24400,"station_id":"ce4bhch2rcd13ifvqeug","pricing_plan_id":"cebpf4jnsgd1na2vs0mg"},{"bike_id":"3fdeab3e-a06d-4a46-b886-d87a8b940d89","system_id":"levelo_inurba_marseille","lat":43.285848,"lon":5.350787,"is_reserved":false,"is_disabled":false,"rental_uris":{"android":"levelo://app?vid=3fdeab3e-a06d-4a46-b886-d87a8b940d89","ios":"levelo://app?vid=3fdeab3e-a06d-4a46-b886-d87a8b940d89"},"vehicle_type_id":"4","last_reported":1713715681,"current_range_meters":24000,"station_id":"ce4bhch2rcd13ifvqeug","pricing_plan_id":"cebpf4jnsgd1na2vs0mg"},{"bike_id":"fe5f23c7-6457-4eee-8572-a559bb0f80d5","system_id":"levelo_inurba_marseille","lat":43.28616,"lon":5.35101,"is_reserved":false,"is_disabled":false,"rental_uris":{"android":"levelo://app?vid=fe5f23c7-6457-4eee-8572-a559bb0f80d5","ios":"levelo://app?vid=fe5f23c7-6457-4eee-8572-a559bb0f80d5"},"vehicle_type_id":"4","last_reported":1713715681,"current_range_meters":31200,"station_id":"ce4bhch2rcd13ifvqeug","pricing_plan_id":"cebpf4jnsgd1na2vs0mg"},{"bike_id":"cc04cbb8-b327-46e6-8eb3-2a2446722f12","system_id":"levelo_inurba_marseille","lat":43.285856,"lon":5.350771,"is_reserved":false,"is_disabled":false,"rental_uris":{"android":"levelo://app?vid=cc04cbb8-b327-46e6-8eb3-2a2446722f12","ios":"levelo://app?vid=cc04cbb8-b327-46e6-8eb3-2a2446722f12"},"vehicle_type_id":"4","last_reported":1713715681,"current_range_meters":4800,"station_id":"ce4bhch2rcd13ifvqeug","pricing_plan_id":"cebpf4jnsgd1na2vs0mg"},{"bike_id":"c9a5c2fb-04c6-4820-859b-972cf623b059","system_id":"levelo_inurba_marseille","lat":43.28613,"lon":5.35101,"is_reserved":false,"is_disabled":false,"rental_uris":{"android":"levelo://app?vid=c9a5c2fb-04c6-4820-859b-972cf623b059","ios":"levelo://app?vid=c9a5c2fb-04c6-4820-859b-972cf623b059"},"vehicle_type_id":"4","last_reported":1713715681,"current_range_meters":29200,"station_id":"ce4bhch2rcd13ifvqeug","pricing_plan_id":"cebpf4jnsgd1na2vs0mg"},{"bike_id":"961e2c49-fffa-4b61-8039-da3ea60f9d24","system_id":"levelo_inurba_marseille","lat":43.283998,"lon":5.375062,"is_reserved":false,"is_disabled":false,"rental_uris":{"android":"levelo://app?vid=961e2c49-fffa-4b61-8039-da3ea60f9d24","ios":"levelo://app?vid=961e2c49-fffa-4b61-8039-da3ea60f9d24"},"vehicle_type_id":"4","last_reported":1713715681,"current_range_meters":7200,"station_id":"ce4bh412rcd13ifvqds0","pricing_plan_id":"cebpf4jnsgd1na2vs0mg"},{"bike_id":"911eaca6-b40d-422a-82c7-8bd82daba3e5","system_id":"levelo_inurba_marseille","lat":43.295713,"lon":5.399639,"is_reserved":false,"is_disabled":false,"rental_uris":{"android":"levelo://app?vid=911eaca6-b40d-422a-82c7-8bd82daba3e5","ios":"levelo://app?vid=911eaca6-b40d-422a-82c7-8bd82daba3e5"},"vehicle_type_id":"4","last_reported":1713715681,"current_range_meters":1200,"station_id":"ce4bh312rcd13ifvqdj0","pricing_plan_id":"cebpf4jnsgd1na2vs0mg"},{"bike_id":"4a86fed6-237e-4828-aec2-c6d5e6e9c0ea","system_id":"levelo_inurba_marseille","lat":43.28668,"lon":5.38673,"is_reserved":false,"is_disabled":false,"rental_uris":{"android":"levelo://app?vid=4a86fed6-237e-4828-aec2-c6d5e6e9c0ea","ios":"levelo://app?vid=4a86fed6-237e-4828-aec2-c6d5e6e9c0ea"},"vehicle_type_id":"4","last_reported":1713715681,"current_range_meters":0,"station_id":"ce4bh492rcd13ifvqdug","pricing_plan_id":"cebpf4jnsgd1na2vs0mg"},{"bike_id":"7a82965c-75f8-4716-8e87-f516ab512d21","system_id":"levelo_inurba_marseille","lat":43.286595,"lon":5.386795,"is_reserved":false,"is_disabled":false,"rental_uris":{"android":"levelo://app?vid=7a82965c-75f8-4716-8e87-f516ab512d21","ios":"levelo://app?vid=7a82965c-75f8-4716-8e87-f516ab512d21"},"vehicle_type_id":"4","last_reported":1713715681,"current_range_meters":15200,"station_id":"ce4bh492rcd13ifvqdug","pricing_plan_id":"cebpf4jnsgd1na2vs0mg"},{"bike_id":"6eb2e72f-d47e-484b-bc25-4848b5c3413b","system_id":"levelo_inurba_marseille","lat":43.286595,"lon":5.386795,"is_reserved":false,"is_disabled":false,"rental_uris":{"android":"levelo://app?vid=6eb2e72f-d47e-484b-bc25-4848b5c3413b","ios":"levelo://app?vid=6eb2e72f-d47e-484b-bc25-4848b5c3413b"},"vehicle_type_id":"4","last_reported":1713715681,"current_range_meters":0,"station_id":"ce4bh492rcd13ifvqdug","pricing_plan_id":"cebpf4jnsgd1na2vs0mg"},{"bike_id":"3f52e2d4-5d99-43a2-bf96-4400ba756807","system_id":"levelo_inurba_marseille","lat":43.286397,"lon":5.386342,"is_reserved":false,"is_disabled":false,"rental_uris":{"android":"levelo://app?vid=3f52e2d4-5d99-43a2-bf96-4400ba756807","ios":"levelo://app?vid=3f52e2d4-5d99-43a2-bf96-4400ba756807"},"vehicle_type_id":"4","last_reported":1713715681,"current_range_meters":10000,"station_id":"ce4bh492rcd13ifvqdug","pricing_plan_id":"cebpf4jnsgd1na2vs0mg"},{"bike_id":"3bdd0aa9-ec76-40ab-9572-5fff590b6b5b","system_id":"levelo_inurba_marseille","lat":43.319179,"lon":5.407725,"is_reserved":false,"is_disabled":false,"rental_uris":{"android":"levelo://app?vid=3bdd0aa9-ec76-40ab-9572-5fff590b6b5b","ios":"levelo://app?vid=3bdd0aa9-ec76-40ab-9572-5fff590b6b5b"},"vehicle_type_id":"4","last_reported":1713715681,"current_range_meters":27600,"station_id":"ce4bhq12rcd13ifvqhig","pricing_plan_id":"cebpf4jnsgd1na2vs0mg"},{"bike_id":"1444ea02-a9d8-4462-91d4-f62ade0013f0","system_id":"levelo_inurba_marseille","lat":43.28967,"lon":5.39341,"is_reserved":false,"is_disabled":false,"rental_uris":{"android":"levelo://app?vid=1444ea02-a9d8-4462-91d4-f62ade0013f0","ios":"levelo://app?vid=1444ea02-a9d8-4462-91d4-f62ade0013f0"},"vehicle_type_id":"4","last_reported":1713715681,"current_range_meters":20400,"station_id":"","pricing_plan_id":"cebpf4jnsgd1na2vs0mg"},{"bike_id":"6883df57-87cb-4218-9315-f365ef9108e2","system_id":"levelo_inurba_marseille","lat":43.337168,"lon":5.391825,"is_reserved":false,"is_disabled":false,"rental_uris":{"android":"levelo://app?vid=6883df57-87cb-4218-9315-f365ef9108e2","ios":"levelo://app?vid=6883df57-87cb-4218-9315-f365ef9108e2"},"vehicle_type_id":"4","last_reported":1713715681,"current_range_meters":12000,"station_id":"ce4bhr92rcd13ifvqhsg","pricing_plan_id":"cebpf4jnsgd1na2vs0mg"},{"bike_id":"0f5b55fd-72c1-4c14-9c15-e5e9f99b78a2","system_id":"levelo_inurba_marseille","lat":43.284793,"lon":5.384119,"is_reserved":false,"is_disabled":false,"rental_uris":{"android":"levelo://app?vid=0f5b55fd-72c1-4c14-9c15-e5e9f99b78a2","ios":"levelo://app?vid=0f5b55fd-72c1-4c14-9c15-e5e9f99b78a2"},"vehicle_type_id":"4","last_reported":1713715681,"current_range_meters":0,"station_id":"ce4bh512rcd13ifvqe3g","pricing_plan_id":"cebpf4jnsgd1na2vs0mg"},{"bike_id":"fd49c3f7-8188-4e68-b1c6-bd2063cbb3cf","system_id":"levelo_inurba_marseille","lat":43.297946,"lon":5.404063,"is_reserved":false,"is_disabled":false,"rental_uris":{"android":"levelo://app?vid=fd49c3f7-8188-4e68-b1c6-bd2063cbb3cf","ios":"levelo://app?vid=fd49c3f7-8188-4e68-b1c6-bd2063cbb3cf"},"vehicle_type_id":"4","last_reported":1713715681,"current_range_meters":8400,"station_id":"ce4bh112rcd13ifvqd90","pricing_plan_id":"cebpf4jnsgd1na2vs0mg"},{"bike_id":"709fa25d-3ed0-4870-9391-d763290fab82","system_id":"levelo_inurba_marseille","lat":43.288497,"lon":5.393089,"is_reserved":false,"is_disabled":false,"rental_uris":{"android":"levelo://app?vid=709fa25d-3ed0-4870-9391-d763290fab82","ios":"levelo://app?vid=709fa25d-3ed0-4870-9391-d763290fab82"},"vehicle_type_id":"4","last_reported":1713715681,"current_range_meters":7200,"station_id":"ce4bh2p2rcd13ifvqdi0","pricing_plan_id":"cebpf4jnsgd1na2vs0mg"},{"bike_id":"353d92ea-18f8-41b4-9d40-742e2b2c54d3","system_id":"levelo_inurba_marseille","lat":43.32523,"lon":5.40576,"is_reserved":false,"is_disabled":false,"rental_uris":{"android":"levelo://app?vid=353d92ea-18f8-41b4-9d40-742e2b2c54d3","ios":"levelo://app?vid=353d92ea-18f8-41b4-9d40-742e2b2c54d3"},"vehicle_type_id":"4","last_reported":1713715681,"current_range_meters":6400,"station_id":"","pricing_plan_id":"cebpf4jnsgd1na2vs0mg"},{"bike_id":"c606089d-f7ee-436b-b376-05043a6ebf7f","system_id":"levelo_inurba_marseille","lat":43.32526,"lon":5.405792,"is_reserved":false,"is_disabled":false,"rental_uris":{"android":"levelo://app?vid=c606089d-f7ee-436b-b376-05043a6ebf7f","ios":"levelo://app?vid=c606089d-f7ee-436b-b376-05043a6ebf7f"},"vehicle_type_id":"4","last_reported":1713715681,"current_range_meters":3200,"station_id":"","pricing_plan_id":"cebpf4jnsgd1na2vs0mg"},{"bike_id":"139d6be4-31fe-41bc-bdac-47ed5be6b6a7","system_id":"levelo_inurba_marseille","lat":43.28434,"lon":5.34995,"is_reserved":false,"is_disabled":false,"rental_uris":{"android":"levelo://app?vid=139d6be4-31fe-41bc-bdac-47ed5be6b6a7","ios":"levelo://app?vid=139d6be4-31fe-41bc-bdac-47ed5be6b6a7"},"vehicle_type_id":"4","last_reported":1713715681,"current_range_meters":2800,"station_id":"ce4bhbh2rcd13ifvqepg","pricing_plan_id":"cebpf4jnsgd1na2vs0mg"},{"bike_id":"030aa594-8f64-43e6-a225-4ecae9e62017","system_id":"levelo_inurba_marseille","lat":43.28431,"lon":5.34988,"is_reserved":false,"is_disabled":false,"rental_uris":{"android":"levelo://app?vid=030aa594-8f64-43e6-a225-4ecae9e62017","ios":"levelo://app?vid=030aa594-8f64-43e6-a225-4ecae9e62017"},"vehicle_type_id":"4","last_reported":1713715681,"current_range_meters":23600,"station_id":"ce4bhbh2rcd13ifvqepg","pricing_plan_id":"cebpf4jnsgd1na2vs0mg"},{"bike_id":"6a0bf1b8-dd32-4774-b6fc-c8f42ead605e","system_id":"levelo_inurba_marseille","lat":43.28347,"lon":5.38108,"is_reserved":false,"is_disabled":false,"rental_uris":{"android":"levelo://app?vid=6a0bf1b8-dd32-4774-b6fc-c8f42ead605e","ios":"levelo://app?vid=6a0bf1b8-dd32-4774-b6fc-c8f42ead605e"},"vehicle_type_id":"4","last_reported":1713715681,"current_range_meters":4000,"station_id":"","pricing_plan_id":"cebpf4jnsgd1na2vs0mg"},{"bike_id":"c4257e0c-5de1-4040-97ba-efd4ca6cc352","system_id":"levelo_inurba_marseille","lat":43.283494,"lon":5.380945,"is_reserved":false,"is_disabled":false,"rental_uris":{"android":"levelo://app?vid=c4257e0c-5de1-4040-97ba-efd4ca6cc352","ios":"levelo://app?vid=c4257e0c-5de1-4040-97ba-efd4ca6cc352"},"vehicle_type_id":"4","last_reported":1713715681,"current_range_meters":17600,"station_id":"ce4bh412rcd13ifvqdr0","pricing_plan_id":"cebpf4jnsgd1na2vs0mg"},{"bike_id":"8fb8aa91-25fa-4131-aa4e-3c3c598c385a","system_id":"levelo_inurba_marseille","lat":43.286961,"lon":5.373785,"is_reserved":false,"is_disabled":false,"rental_uris":{"android":"levelo://app?vid=8fb8aa91-25fa-4131-aa4e-3c3c598c385a","ios":"levelo://app?vid=8fb8aa91-25fa-4131-aa4e-3c3c598c385a"},"vehicle_type_id":"4","last_reported":1713715681,"current_range_meters":800,"station_id":"ce4bh3p2rcd13ifvqdq0","pricing_plan_id":"cebpf4jnsgd1na2vs0mg"},{"bike_id":"a327f191-5151-4704-8f50-d571feabb21c","system_id":"levelo_inurba_marseille","lat":43.284534,"lon":5.358662,"is_reserved":false,"is_disabled":false,"rental_uris":{"android":"levelo://app?vid=a327f191-5151-4704-8f50-d571feabb21c","ios":"levelo://app?vid=a327f191-5151-4704-8f50-d571feabb21c"},"vehicle_type_id":"4","last_reported":1713715681,"current_range_meters":30800,"station_id":"ce4bhah2rcd13ifvqei0","pricing_plan_id":"cebpf4jnsgd1na2vs0mg"},{"bike_id":"4c88de93-e07c-49b9-b1ad-f1d361f73851","system_id":"levelo_inurba_marseille","lat":43.28416,"lon":5.34977,"is_reserved":false,"is_disabled":false,"rental_uris":{"android":"levelo://app?vid=4c88de93-e07c-49b9-b1ad-f1d361f73851","ios":"levelo://app?vid=4c88de93-e07c-49b9-b1ad-f1d361f73851"},"vehicle_type_id":"4","last_reported":1713715681,"current_range_meters":0,"station_id":"ce4bhbh2rcd13ifvqepg","pricing_plan_id":"cebpf4jnsgd1na2vs0mg"},{"bike_id":"92c265b5-7ab5-41ec-8c7b-705f5239f1f7","system_id":"levelo_inurba_marseille","lat":43.29273,"lon":5.40114,"is_reserved":false,"is_disabled":false,"rental_uris":{"android":"levelo://app?vid=92c265b5-7ab5-41ec-8c7b-705f5239f1f7","ios":"levelo://app?vid=92c265b5-7ab5-41ec-8c7b-705f5239f1f7"},"vehicle_type_id":"4","last_reported":1713715681,"current_range_meters":0,"station_id":"ce4bh312rcd13ifvqdk0","pricing_plan_id":"cebpf4jnsgd1na2vs0mg"},{"bike_id":"a16fbc2d-fb6d-4142-abd8-dcb28e1eafb3","system_id":"levelo_inurba_marseille","lat":43.28279,"lon":5.35071,"is_reserved":false,"is_disabled":false,"rental_uris":{"android":"levelo://app?vid=a16fbc2d-fb6d-4142-abd8-dcb28e1eafb3","ios":"levelo://app?vid=a16fbc2d-fb6d-4142-abd8-dcb28e1eafb3"},"vehicle_type_id":"4","last_reported":1713715681,"current_range_meters":14000,"station_id":"ce4bhbp2rcd13ifvqerg","pricing_plan_id":"cebpf4jnsgd1na2vs0mg"},{"bike_id":"ae3bbd82-4e98-4740-976b-7e6e504badfc","system_id":"levelo_inurba_marseille","lat":43.2828,"lon":5.35063,"is_reserved":false,"is_disabled":false,"rental_uris":{"android":"levelo://app?vid=ae3bbd82-4e98-4740-976b-7e6e504badfc","ios":"levelo://app?vid=ae3bbd82-4e98-4740-976b-7e6e504badfc"},"vehicle_type_id":"4","last_reported":1713715681,"current_range_meters":0,"station_id":"ce4bhbp2rcd13ifvqerg","pricing_plan_id":"cebpf4jnsgd1na2vs0mg"},{"bike_id":"b5efde63-d560-4e61-afaa-cb73aabdb646","system_id":"levelo_inurba_marseille","lat":43.295194,"lon":5.39397,"is_reserved":false,"is_disabled":false,"rental_uris":{"android":"levelo://app?vid=b5efde63-d560-4e61-afaa-cb73aabdb646","ios":"levelo://app?vid=b5efde63-d560-4e61-afaa-cb73aabdb646"},"vehicle_type_id":"4","last_reported":1713715681,"current_range_meters":5600,"station_id":"ce4bh292rcd13ifvqdf0","pricing_plan_id":"cebpf4jnsgd1na2vs0mg"},{"bike_id":"89b9991f-bb8f-40e2-9e91-c174765e3681","system_id":"levelo_inurba_marseille","lat":43.28274,"lon":5.35067,"is_reserved":false,"is_disabled":false,"rental_uris":{"android":"levelo://app?vid=89b9991f-bb8f-40e2-9e91-c174765e3681","ios":"levelo://app?vid=89b9991f-bb8f-40e2-9e91-c174765e3681"},"vehicle_type_id":"4","last_reported":1713715681,"current_range_meters":0,"station_id":"ce4bhbp2rcd13ifvqerg","pricing_plan_id":"cebpf4jnsgd1na2vs0mg"},{"bike_id":"ad3f69bb-4b6e-4cda-8a81-70f25b00b807","system_id":"levelo_inurba_marseille","lat":43.28274,"lon":5.35059,"is_reserved":false,"is_disabled":false,"rental_uris":{"android":"levelo://app?vid=ad3f69bb-4b6e-4cda-8a81-70f25b00b807","ios":"levelo://app?vid=ad3f69bb-4b6e-4cda-8a81-70f25b00b807"},"vehicle_type_id":"4","last_reported":1713715681,"current_range_meters":0,"station_id":"ce4bhbp2rcd13ifvqerg","pricing_plan_id":"cebpf4jnsgd1na2vs0mg"},{"bike_id":"6d6e6500-2e6f-497a-8c81-9b1dfc5fe295","system_id":"levelo_inurba_marseille","lat":43.282656,"lon":5.350666,"is_reserved":false,"is_disabled":false,"rental_uris":{"android":"levelo://app?vid=6d6e6500-2e6f-497a-8c81-9b1dfc5fe295","ios":"levelo://app?vid=6d6e6500-2e6f-497a-8c81-9b1dfc5fe295"},"vehicle_type_id":"4","last_reported":1713715681,"current_range_meters":0,"station_id":"ce4bhbp2rcd13ifvqerg","pricing_plan_id":"cebpf4jnsgd1na2vs0mg"},{"bike_id":"2ea6caa8-4f87-4c4c-b5b1-15eb1059176e","system_id":"levelo_inurba_marseille","lat":43.245581,"lon":5.395069,"is_reserved":false,"is_disabled":false,"rental_uris":{"android":"levelo://app?vid=2ea6caa8-4f87-4c4c-b5b1-15eb1059176e","ios":"levelo://app?vid=2ea6caa8-4f87-4c4c-b5b1-15eb1059176e"},"vehicle_type_id":"4","last_reported":1713715681,"current_range_meters":6800,"station_id":"ce4bhlp2rcd13ifvqgjg","pricing_plan_id":"cebpf4jnsgd1na2vs0mg"},{"bike_id":"649b5748-f3fc-435f-86b0-c32e94d405a2","system_id":"levelo_inurba_marseille","lat":43.28261,"lon":5.35068,"is_reserved":false,"is_disabled":false,"rental_uris":{"android":"levelo://app?vid=649b5748-f3fc-435f-86b0-c32e94d405a2","ios":"levelo://app?vid=649b5748-f3fc-435f-86b0-c32e94d405a2"},"vehicle_type_id":"4","last_reported":1713715681,"current_range_meters":0,"station_id":"ce4bhbp2rcd13ifvqerg","pricing_plan_id":"cebpf4jnsgd1na2vs0mg"},{"bike_id":"b6f091f9-a5c8-41b6-a68b-adc786c66490","system_id":"levelo_inurba_marseille","lat":43.28254,"lon":5.3508,"is_reserved":false,"is_disabled":false,"rental_uris":{"android":"levelo://app?vid=b6f091f9-a5c8-41b6-a68b-adc786c66490","ios":"levelo://app?vid=b6f091f9-a5c8-41b6-a68b-adc786c66490"},"vehicle_type_id":"4","last_reported":1713715681,"current_range_meters":3200,"station_id":"","pricing_plan_id":"cebpf4jnsgd1na2vs0mg"},{"bike_id":"b4459304-f01a-4627-9dfd-48a1a058f7b7","system_id":"levelo_inurba_marseille","lat":43.283502,"lon":5.386471,"is_reserved":false,"is_disabled":false,"rental_uris":{"android":"levelo://app?vid=b4459304-f01a-4627-9dfd-48a1a058f7b7","ios":"levelo://app?vid=b4459304-f01a-4627-9dfd-48a1a058f7b7"},"vehicle_type_id":"4","last_reported":1713715681,"current_range_meters":11600,"station_id":"ce4bh492rcd13ifvqdvg","pricing_plan_id":"cebpf4jnsgd1na2vs0mg"},{"bike_id":"0a179b11-dbbd-4892-89aa-f44daa7d5e85","system_id":"levelo_inurba_marseille","lat":43.282547,"lon":5.350747,"is_reserved":false,"is_disabled":false,"rental_uris":{"android":"levelo://app?vid=0a179b11-dbbd-4892-89aa-f44daa7d5e85","ios":"levelo://app?vid=0a179b11-dbbd-4892-89aa-f44daa7d5e85"},"vehicle_type_id":"4","last_reported":1713715681,"current_range_meters":0,"station_id":"ce4bhbp2rcd13ifvqerg","pricing_plan_id":"cebpf4jnsgd1na2vs0mg"},{"bike_id":"58400874-993c-4ae3-a1d9-d3d36dd5912f","system_id":"levelo_inurba_marseille","lat":43.28039,"lon":5.369297,"is_reserved":false,"is_disabled":false,"rental_uris":{"android":"levelo://app?vid=58400874-993c-4ae3-a1d9-d3d36dd5912f","ios":"levelo://app?vid=58400874-993c-4ae3-a1d9-d3d36dd5912f"},"vehicle_type_id":"4","last_reported":1713715681,"current_range_meters":0,"station_id":"ce4bha12rcd13ifvqef0","pricing_plan_id":"cebpf4jnsgd1na2vs0mg"},{"bike_id":"02fc1df1-17cb-4141-99ec-2d7a9978733d","system_id":"levelo_inurba_marseille","lat":43.28253,"lon":5.35073,"is_reserved":false,"is_disabled":false,"rental_uris":{"android":"levelo://app?vid=02fc1df1-17cb-4141-99ec-2d7a9978733d","ios":"levelo://app?vid=02fc1df1-17cb-4141-99ec-2d7a9978733d"},"vehicle_type_id":"4","last_reported":1713715681,"current_range_meters":24400,"station_id":"ce4bhbp2rcd13ifvqerg","pricing_plan_id":"cebpf4jnsgd1na2vs0mg"},{"bike_id":"0536df6d-10fc-4497-a8e3-414525c4601e","system_id":"levelo_inurba_marseille","lat":43.283502,"lon":5.386471,"is_reserved":false,"is_disabled":false,"rental_uris":{"android":"levelo://app?vid=0536df6d-10fc-4497-a8e3-414525c4601e","ios":"levelo://app?vid=0536df6d-10fc-4497-a8e3-414525c4601e"},"vehicle_type_id":"4","last_reported":1713715681,"current_range_meters":3600,"station_id":"ce4bh492rcd13ifvqdvg","pricing_plan_id":"cebpf4jnsgd1na2vs0mg"},