{"last_updated":1741640914,"ttl":60,"version":"2.2","data":{"bikes":[{"bike_id":"19bbe8da-d7df-496e-a677-cbaab925cf5e","system_id":"levelo_inurba_marseille","lat":43.24882,"lon":5.42512,"is_reserved":false,"is_disabled":false,"rental_uris":{"android":"levelo://app?vid=19bbe8da-d7df-496e-a677-cbaab925cf5e","ios":"levelo://app?vid=19bbe8da-d7df-496e-a677-cbaab925cf5e"},"vehicle_type_id":"4","last_reported":1741640915,"current_range_meters":2800,"station_id":"","pricing_plan_id":"cebpf4jnsgd1na2vs0mg"},{"bike_id":"7e3b6732-5d30-44ba-8ff3-1bbc6583984b","system_id":"levelo_inurba_marseille","lat":43.31288,"lon":5.38516,"is_reserved":false,"is_disabled":false,"rental_uris":{"android":"levelo://app?vid=7e3b6732-5d30-44ba-8ff3-1bbc6583984b","ios":"levelo://app?vid=7e3b6732-5d30-44ba-8ff3-1bbc6583984b"},"vehicle_type_id":"4","last_reported":1741640915,"current_range_meters":3200,"station_id":"","pricing_plan_id":"cebpf4jnsgd1na2vs0mg"},{"bike_id":"c2309335-af79-4267-886b-cf11af772657","system_id":"levelo_inurba_marseille","lat":43.27947,"lon":5.4105,"is_reserved":false,"is_disabled":true,"rental_uris":{"android":"levelo://app?vid=c2309335-af79-4267-886b-cf11af772657","ios":"levelo://app?vid=c2309335-af79-4267-886b-cf11af772657"},"vehicle_type_id":"4","last_reported":1741640915,"current_range_meters":3200,"station_id":"ce4bhnp2rcd13ifvqh0g","pricing_plan_id":"cebpf4jnsgd1na2vs0mg"},{"bike_id":"0eab35a5-dc95-4414-8d94-9322e895d4d5","system_id":"levelo_inurba_marseille","lat":43.29706,"lon":5.36596,"is_reserved":false,"is_disabled":false,"rental_uris":{"android":"levelo://app?vid=0eab35a5-dc95-4414-8d94-9322e895d4d5","ios":"levelo://app?vid=0eab35a5-dc95-4414-8d94-9322e895d4d5"},"vehicle_type_id":"4","last_reported":1741640915,"current_range_meters":4000,"station_id":"ce4bgn12rcd13ifvqbt0","pricing_plan_id":"cebpf4jnsgd1na2vs0mg"},{"bike_id":"0e4912f5-d3df-412e-b42a-4b849748dc4d","system_id":"levelo_inurba_marseille","lat":43.292664,"lon":5.37635,"is_reserved":false,"is_disabled":false,"rental_uris":{"android":"levelo://app?vid=0e4912f5-d3df-412e-b42a-4b849748dc4d","ios":"levelo://app?vid=0e4912f5-d3df-412e-b42a-4b849748dc4d"},"vehicle_type_id":"4","last_reported":1741640915,"current_range_meters":4800,"station_id":"ce4bh092rcd13ifvqd30","pricing_plan_id":"cebpf4jnsgd1na2vs0mg"},{"bike_id":"ffabacd6-59d5-4e93-b987-7e83309d9413","system_id":"levelo_inurba_marseille","lat":43.2976,"lon":5.40063,"is_reserved":false,"is_disabled":false,"rental_uris":{"android":"levelo://app?vid=ffabacd6-59d5-4e93-b987-7e83309d9413","ios":"levelo://app?vid=ffabacd6-59d5-4e93-b987-7e83309d9413"},"vehicle_type_id":"4","last_reported":1741640915,"current_range_meters":4800,"station_id":"","pricing_plan_id":"cebpf4jnsgd1na2vs0mg"},{"bike_id":"4711a0d3-184b-4ba2-86aa-fea8964a4a5c","system_id":"levelo_inurba_marseille","lat":43.31105,"lon":5.42406,"is_reserved":false,"is_disabled":false,"rental_uris":{"android":"levelo://app?vid=4711a0d3-184b-4ba2-86aa-fea8964a4a5c","ios":"levelo://app?vid=4711a0d3-184b-4ba2-86aa-fea8964a4a5c"},"vehicle_type_id":"4","last_reported":1741640915,"current_range_meters":5600,"station_id":"ce4bhp92rcd13ifvqhag","pricing_plan_id":"cebpf4jnsgd1na2vs0mg"},{"bike_id":"089fa96c-06f0-4a31-aa59-e3a83d994d6c","system_id":"levelo_inurba_marseille","lat":43.28158,"lon":5.42644,"is_reserved":false,"is_disabled":false,"rental_uris":{"android":"levelo://app?vid=089fa96c-06f0-4a31-aa59-e3a83d994d6c","ios":"levelo://app?vid=089fa96c-06f0-4a31-aa59-e3a83d994d6c"},"vehicle_type_id":"4","last_reported":1741640915,"current_range_meters":6000,"station_id":"ce4bhnh2rcd13ifvqgug","pricing_plan_id":"cebpf4jnsgd1na2vs0mg"},{"bike_id":"96886562-387d-4deb-8b80-1bc6653e972f","system_id":"levelo_inurba_marseille","lat":43.26221,"lon":5.40461,"is_reserved":false,"is_disabled":false,"rental_uris":{"android":"levelo://app?vid=96886562-387d-4deb-8b80-1bc6653e972f","ios":"levelo://app?vid=96886562-387d-4deb-8b80-1bc6653e972f"},"vehicle_type_id":"4","last_reported":1741640915,"current_range_meters":6400,"station_id":"ce4bhmh2rcd13ifvqgmg","pricing_plan_id":"cebpf4jnsgd1na2vs0mg"},{"bike_id":"07f6b6fd-3961-419e-9fb4-8147c46c9522","system_id":"levelo_inurba_marseille","lat":43.30126,"lon":5.39861,"is_reserved":false,"is_disabled":false,"rental_uris":{"android":"levelo://app?vid=07f6b6fd-3961-419e-9fb4-8147c46c9522","ios":"levelo://app?vid=07f6b6fd-3961-419e-9fb4-8147c46c9522"},"vehicle_type_id":"4","last_reported":1741640915,"current_range_meters":6400,"station_id":"ce4bh0h2rcd13ifvqd40","pricing_plan_id":"cebpf4jnsgd1na2vs0mg"},{"bike_id":"65ebf940-f6f1-4ba2-8b75-2b2127dd3199","system_id":"levelo_inurba_marseille","lat":43.25022,"lon":5.38057,"is_reserved":false,"is_disabled":false,"rental_uris":{"android":"levelo://app?vid=65ebf940-f6f1-4ba2-8b75-2b2127dd3199","ios":"levelo://app?vid=65ebf940-f6f1-4ba2-8b75-2b2127dd3199"},"vehicle_type_id":"4","last_reported":1741640915,"current_range_meters":6400,"station_id":"","pricing_plan_id":"cebpf4jnsgd1na2vs0mg"},{"bike_id":"31539c7e-263f-41a0-9bbd-d84ef61afda0","system_id":"levelo_inurba_marseille","lat":43.24385,"lon":5.37038,"is_reserved":false,"is_disabled":false,"rental_uris":{"android":"levelo://app?vid=31539c7e-263f-41a0-9bbd-d84ef61afda0","ios":"levelo://app?vid=31539c7e-263f-41a0-9bbd-d84ef61afda0"},"vehicle_type_id":"4","last_reported":1741640915,"current_range_meters":6400,"station_id":"ce4bhhh2rcd13ifvqfk0","pricing_plan_id":"cebpf4jnsgd1na2vs0mg"},{"bike_id":"85858945-288d-4d7b-aac5-8cf9d060c580","system_id":"levelo_inurba_marseille","lat":43.32363,"lon":5.36761,"is_reserved":false,"is_disabled":false,"rental_uris":{"android":"levelo://app?vid=85858945-288d-4d7b-aac5-8cf9d060c580","ios":"levelo://app?vid=85858945-288d-4d7b-aac5-8cf9d060c580"},"vehicle_type_id":"4","last_reported":1741640915,"current_range_meters":6400,"station_id":"ce4bhsh2rcd13ifvqi2g","pricing_plan_id":"cebpf4jnsgd1na2vs0mg"},{"bike_id":"a9513c60-8354-4509-925d-b24d71f9c0c5","system_id":"levelo_inurba_marseille","lat":43.258674,"lon":5.398958,"is_reserved":false,"is_disabled":false,"rental_uris":{"android":"levelo://app?vid=a9513c60-8354-4509-925d-b24d71f9c0c5","ios":"levelo://app?vid=a9513c60-8354-4509-925d-b24d71f9c0c5"},"vehicle_type_id":"4","last_reported":1741640915,"current_range_meters":6800,"station_id":"ce4bhl92rcd13ifvqghg","pricing_plan_id":"cebpf4jnsgd1na2vs0mg"},{"bike_id":"e76313b8-3e60-4be6-ad0e-db0ed228236c","system_id":"levelo_inurba_marseille","lat":43.27991,"lon":5.40017,"is_reserved":false,"is_disabled":false,"rental_uris":{"android":"levelo://app?vid=e76313b8-3e60-4be6-ad0e-db0ed228236c","ios":"levelo://app?vid=e76313b8-3e60-4be6-ad0e-db0ed228236c"},"vehicle_type_id":"4","last_reported":1741640915,"current_range_meters":6800,"station_id":"ce4bho92rcd13ifvqh4g","pricing_plan_id":"cebpf4jnsgd1na2vs0mg"},{"bike_id":"35be52e8-6b84-4099-8ea0-f38652827724","system_id":"levelo_inurba_marseille","lat":43.30613,"lon":5.39355,"is_reserved":false,"is_disabled":true,"rental_uris":{"android":"levelo://app?vid=35be52e8-6b84-4099-8ea0-f38652827724","ios":"levelo://app?vid=35be52e8-6b84-4099-8ea0-f38652827724"},"vehicle_type_id":"4","last_reported":1741640915,"current_range_meters":6800,"station_id":"ce4bh0p2rcd13ifvqd80","pricing_plan_id":"cebpf4jnsgd1na2vs0mg"},{"bike_id":"7f5c0b4b-b53d-4d85-a954-23247f299b75","system_id":"levelo_inurba_marseille","lat":43.25111,"lon":5.40319,"is_reserved":false,"is_disabled":false,"rental_uris":{"android":"levelo://app?vid=7f5c0b4b-b53d-4d85-a954-23247f299b75","ios":"levelo://app?vid=7f5c0b4b-b53d-4d85-a954-23247f299b75"},"vehicle_type_id":"4","last_reported":1741640915,"current_range_meters":6800,"station_id":"ce4bhlh2rcd13ifvqgig","pricing_plan_id":"cebpf4jnsgd1na2vs0mg"},{"bike_id":"b104001a-10f7-4c93-b613-2b76cb885027","system_id":"levelo_inurba_marseille","lat":43.31168,"lon":5.3712,"is_reserved":false,"is_disabled":false,"rental_uris":{"android":"levelo://app?vid=b104001a-10f7-4c93-b613-2b76cb885027","ios":"levelo://app?vid=b104001a-10f7-4c93-b613-2b76cb885027"},"vehicle_type_id":"4","last_reported":1741640915,"current_range_meters":6800,"station_id":"","pricing_plan_id":"cebpf4jnsgd1na2vs0mg"},{"bike_id":"73080cc6-5249-4bc5-bafc-597b342be911","system_id":"levelo_inurba_marseille","lat":43.29789,"lon":5.39354,"is_reserved":false,"is_disabled":false,"rental_uris":{"android":"levelo://app?vid=73080cc6-5249-4bc5-bafc-597b342be911","ios":"levelo://app?vid=73080cc6-5249-4bc5-bafc-597b342be911"},"vehicle_type_id":"4","last_reported":1741640915,"current_range_meters":6800,"station_id":"chh1huq6cuj3fo74tm60","pricing_plan_id":"cebpf4jnsgd1na2vs0mg"},{"bike_id":"7e4fb9e0-3677-4bd5-bd29-d1a197242817","system_id":"levelo_inurba_marseille","lat":43.28157,"lon":5.42645,"is_reserved":false,"is_disabled":false,"rental_uris":{"android":"levelo://app?vid=7e4fb9e0-3677-4bd5-bd29-d1a197242817","ios":"levelo://app?vid=7e4fb9e0-3677-4bd5-bd29-d1a197242817"},"vehicle_type_id":"4","last_reported":1741640915,"current_range_meters":6800,"station_id":"ce4bhnh2rcd13ifvqgug","pricing_plan_id":"cebpf4jnsgd1na2vs0mg"},{"bike_id":"390a87cf-eee2-491e-a01b-3fd458e28fc5","system_id":"levelo_inurba_marseille","lat":43.28931,"lon":5.38401,"is_reserved":false,"is_disabled":false,"rental_uris":{"android":"levelo://app?vid=390a87cf-eee2-491e-a01b-3fd458e28fc5","ios":"levelo://app?vid=390a87cf-eee2-491e-a01b-3fd458e28fc5"},"vehicle_type_id":"4","last_reported":1741640915,"current_range_meters":6800,"station_id":"ce4bh612rcd13ifvqe6g","pricing_plan_id":"cebpf4jnsgd1na2vs0mg"},{"bike_id":"61193e8a-8e60-4220-8577-846bbeba5e58","system_id":"levelo_inurba_marseille","lat":43.31399,"lon":5.38623,"is_reserved":false,"is_disabled":false,"rental_uris":{"android":"levelo://app?vid=61193e8a-8e60-4220-8577-846bbeba5e58","ios":"levelo://app?vid=61193e8a-8e60-4220-8577-846bbeba5e58"},"vehicle_type_id":"4","last_reported":1741640915,"current_range_meters":6800,"station_id":"","pricing_plan_id":"cebpf4jnsgd1na2vs0mg"},{"bike_id":"985f52b8-4d4c-4dfb-9514-2c7fb63e1202","system_id":"levelo_inurba_marseille","lat":43.24408,"lon":5.37041,"is_reserved":false,"is_disabled":true,"rental_uris":{"android":"levelo://app?vid=985f52b8-4d4c-4dfb-9514-2c7fb63e1202","ios":"levelo://app?vid=985f52b8-4d4c-4dfb-9514-2c7fb63e1202"},"vehicle_type_id":"4","last_reported":1741640915,"current_range_meters":7200,"station_id":"ce4bhhh2rcd13ifvqfk0","pricing_plan_id":"cebpf4jnsgd1na2vs0mg"},{"bike_id":"7f08542c-3622-4bee-8852-d0974c0ec085","system_id":"levelo_inurba_marseille","lat":43.24162,"lon":5.36339,"is_reserved":false,"is_disabled":false,"rental_uris":{"android":"levelo://app?vid=7f08542c-3622-4bee-8852-d0974c0ec085","ios":"levelo://app?vid=7f08542c-3622-4bee-8852-d0974c0ec085"},"vehicle_type_id":"4","last_reported":1741640915,"current_range_meters":7200,"station_id":"cpo36qri1sfpv3e86is0","pricing_plan_id":"cebpf4jnsgd1na2vs0mg"},{"bike_id":"d998bbbb-f4b1-466a-a43c-0d7ee4894d65","system_id":"levelo_inurba_marseille","lat":43.29255,"lon":5.38677,"is_reserved":false,"is_disabled":false,"rental_uris":{"android":"levelo://app?vid=d998bbbb-f4b1-466a-a43c-0d7ee4894d65","ios":"levelo://app?vid=d998bbbb-f4b1-466a-a43c-0d7ee4894d65"},"vehicle_type_id":"4","last_reported":1741640915,"current_range_meters":7200,"station_id":"ce4bgt12rcd13ifvqce0","pricing_plan_id":"cebpf4jnsgd1na2vs0mg"},{"bike_id":"dd0976d0-a032-429c-a6ac-268a3f64934d","system_id":"levelo_inurba_marseille","lat":43.292967,"lon":5.374638,"is_reserved":false,"is_disabled":false,"rental_uris":{"android":"levelo://app?vid=dd0976d0-a032-429c-a6ac-268a3f64934d","ios":"levelo://app?vid=dd0976d0-a032-429c-a6ac-268a3f64934d"},"vehicle_type_id":"4","last_reported":1741640915,"current_range_meters":7200,"station_id":"ce4bhnh2rcd13ifvqgtg","pricing_plan_id":"cebpf4jnsgd1na2vs0mg"},{"bike_id":"87c40d47-5266-4f6a-9a89-01987f8bf62c","system_id":"levelo_inurba_marseille","lat":43.262269,"lon":5.404497,"is_reserved":false,"is_disabled":false,"rental_uris":{"android":"levelo://app?vid=87c40d47-5266-4f6a-9a89-01987f8bf62c","ios":"levelo://app?vid=87c40d47-5266-4f6a-9a89-01987f8bf62c"},"vehicle_type_id":"4","last_reported":1741640915,"current_range_meters":7200,"station_id":"ce4bhmh2rcd13ifvqgmg","pricing_plan_id":"cebpf4jnsgd1na2vs0mg"},{"bike_id":"dfe85f43-440a-4855-9184-d3de4832bcc7","system_id":"levelo_inurba_marseille","lat":43.26559,"lon":5.37307,"is_reserved":false,"is_disabled":true,"rental_uris":{"android":"levelo://app?vid=dfe85f43-440a-4855-9184-d3de4832bcc7","ios":"levelo://app?vid=dfe85f43-440a-4855-9184-d3de4832bcc7"},"vehicle_type_id":"4","last_reported":1741640915,"current_range_meters":7200,"station_id":"ce4bhg12rcd13ifvqf70","pricing_plan_id":"cebpf4jnsgd1na2vs0mg"},{"bike_id":"693b09f6-2904-41c6-9f31-fc39cbb28911","system_id":"levelo_inurba_marseille","lat":43.25109,"lon":5.40321,"is_reserved":false,"is_disabled":false,"rental_uris":{"android":"levelo://app?vid=693b09f6-2904-41c6-9f31-fc39cbb28911","ios":"levelo://app?vid=693b09f6-2904-41c6-9f31-fc39cbb28911"},"vehicle_type_id":"4","last_reported":1741640915,"current_range_meters":7200,"station_id":"ce4bhlh2rcd13ifvqgig","pricing_plan_id":"cebpf4jnsgd1na2vs0mg"},{"bike_id":"57bb9620-7e1d-4375-9183-8aca42377c8c","system_id":"levelo_inurba_marseille","lat":43.30462,"lon":5.38222,"is_reserved":false,"is_disabled":false,"rental_uris":{"android":"levelo://app?vid=57bb9620-7e1d-4375-9183-8aca42377c8c","ios":"levelo://app?vid=57bb9620-7e1d-4375-9183-8aca42377c8c"},"vehicle_type_id":"4","last_reported":1741640915,"current_range_meters":7200,"station_id":"","pricing_plan_id":"cebpf4jnsgd1na2vs0mg"},{"bike_id":"d99a6f6d-00d6-49e6-9b88-332367f3c40d","system_id":"levelo_inurba_marseille","lat":43.28411,"lon":5.37507,"is_reserved":false,"is_disabled":false,"rental_uris":{"android":"levelo://app?vid=d99a6f6d-00d6-49e6-9b88-332367f3c40d","ios":"levelo://app?vid=d99a6f6d-00d6-49e6-9b88-332367f3c40d"},"vehicle_type_id":"4","last_reported":1741640915,"current_range_meters":8000,"station_id":"ce4bh412rcd13ifvqds0","pricing_plan_id":"cebpf4jnsgd1na2vs0mg"},{"bike_id":"3c57a3fc-75b6-4e79-8a13-aa2e0eee3189","system_id":"levelo_inurba_marseille","lat":43.28156,"lon":5.4266,"is_reserved":false,"is_disabled":false,"rental_uris":{"android":"levelo://app?vid=3c57a3fc-75b6-4e79-8a13-aa2e0eee3189","ios":"levelo://app?vid=3c57a3fc-75b6-4e79-8a13-aa2e0eee3189"},"vehicle_type_id":"4","last_reported":1741640915,"current_range_meters":8000,"station_id":"ce4bhnh2rcd13ifvqgug","pricing_plan_id":"cebpf4jnsgd1na2vs0mg"},{"bike_id":"0237689c-b5f5-4c16-a927-51dc56fce20a","system_id":"levelo_inurba_marseille","lat":43.31183,"lon":5.38716,"is_reserved":false,"is_disabled":false,"rental_uris":{"android":"levelo://app?vid=0237689c-b5f5-4c16-a927-51dc56fce20a","ios":"levelo://app?vid=0237689c-b5f5-4c16-a927-51dc56fce20a"},"vehicle_type_id":"4","last_reported":1741640915,"current_range_meters":8000,"station_id":"ce4bgv12rcd13ifvqcp0","pricing_plan_id":"cebpf4jnsgd1na2vs0mg"},{"bike_id":"5d44eec5-0f76-4d9d-87c9-f425c19e364b","system_id":"levelo_inurba_marseille","lat":43.25086,"lon":5.39512,"is_reserved":false,"is_disabled":false,"rental_uris":{"android":"levelo://app?vid=5d44eec5-0f76-4d9d-87c9-f425c19e364b","ios":"levelo://app?vid=5d44eec5-0f76-4d9d-87c9-f425c19e364b"},"vehicle_type_id":"4","last_reported":1741640915,"current_range_meters":8000,"station_id":"ce4bhm12rcd13ifvqgkg","pricing_plan_id":"cebpf4jnsgd1na2vs0mg"},{"bike_id":"864ee988-28e4-45bc-8ea8-9159eb3bfbea","system_id":"levelo_inurba_marseille","lat":43.32365,"lon":5.38889,"is_reserved":false,"is_disabled":false,"rental_uris":{"android":"levelo://app?vid=864ee988-28e4-45bc-8ea8-9159eb3bfbea","ios":"levelo://app?vid=864ee988-28e4-45bc-8ea8-9159eb3bfbea"},"vehicle_type_id":"4","last_reported":1741640915,"current_range_meters":8000,"station_id":"ce4bhqp2rcd13ifvqhog","pricing_plan_id":"cebpf4jnsgd1na2vs0mg"},{"bike_id":"6469b735-1779-46f3-9fd2-ee0c938dcd3e","system_id":"levelo_inurba_marseille","lat":43.30296,"lon":5.39206,"is_reserved":false,"is_disabled":false,"rental_uris":{"android":"levelo://app?vid=6469b735-1779-46f3-9fd2-ee0c938dcd3e","ios":"levelo://app?vid=6469b735-1779-46f3-9fd2-ee0c938dcd3e"},"vehicle_type_id":"4","last_reported":1741640915,"current_range_meters":8000,"station_id":"ce4bgkh2rcd13ifvqbk0","pricing_plan_id":"cebpf4jnsgd1na2vs0mg"},{"bike_id":"1f72adc6-3d1a-4fad-a905-cb9dcd596e26","system_id":"levelo_inurba_marseille","lat":43.23851,"lon":5.43565,"is_reserved":false,"is_disabled":false,"rental_uris":{"android":"levelo://app?vid=1f72adc6-3d1a-4fad-a905-cb9dcd596e26","ios":"levelo://app?vid=1f72adc6-3d1a-4fad-a905-cb9dcd596e26"},"vehicle_type_id":"4","last_reported":1741640915,"current_range_meters":8000,"station_id":"","pricing_plan_id":"cebpf4jnsgd1na2vs0mg"},{"bike_id":"cff4445f-6b70-4c92-a3aa-728d1723639c","system_id":"levelo_inurba_marseille","lat":43.25097,"lon":5.39504,"is_reserved":false,"is_disabled":false,"rental_uris":{"android":"levelo://app?vid=cff4445f-6b70-4c92-a3aa-728d1723639c","ios":"levelo://app?vid=cff4445f-6b70-4c92-a3aa-728d1723639c"},"vehicle_type_id":"4","last_reported":1741640915,"current_range_meters":8400,"station_id":"ce4bhm12rcd13ifvqgkg","pricing_plan_id":"cebpf4jnsgd1na2vs0mg"},{"bike_id":"4fc82004-ba25-46e8-9d12-a8bf2240aace","system_id":"levelo_inurba_marseille","lat":43.23193,"lon":5.39994,"is_reserved":false,"is_disabled":false,"rental_uris":{"android":"levelo://app?vid=4fc82004-ba25-46e8-9d12-a8bf2240aace","ios":"levelo://app?vid=4fc82004-ba25-46e8-9d12-a8bf2240aace"},"vehicle_type_id":"4","last_reported":1741640915,"current_range_meters":8400,"station_id":"ce4bhn12rcd13ifvqgqg","pricing_plan_id":"cebpf4jnsgd1na2vs0mg"},{"bike_id":"6fc45882-d39a-4a11-8d19-649988fbd318","system_id":"levelo_inurba_marseille","lat":43.32343,"lon":5.40622,"is_reserved":false,"is_disabled":false,"rental_uris":{"android":"levelo://app?vid=6fc45882-d39a-4a11-8d19-649988fbd318","ios":"levelo://app?vid=6fc45882-d39a-4a11-8d19-649988fbd318"},"vehicle_type_id":"4","last_reported":1741640915,"current_range_meters":8400,"station_id":"ce4bhq92rcd13ifvqhjg","pricing_plan_id":"cebpf4jnsgd1na2vs0mg"},{"bike_id":"169b38ad-d958-40d3-89a3-ded19f11a319","system_id":"levelo_inurba_marseille","lat":43.33771,"lon":5.39205,"is_reserved":false,"is_disabled":false,"rental_uris":{"android":"levelo://app?vid=169b38ad-d958-40d3-89a3-ded19f11a319","ios":"levelo://app?vid=169b38ad-d958-40d3-89a3-ded19f11a319"},"vehicle_type_id":"4","last_reported":1741640915,"current_range_meters":8400,"station_id":"","pricing_plan_id":"cebpf4jnsgd1na2vs0mg"},{"bike_id":"96933892-6a46-4281-880c-758d7231ef75","system_id":"levelo_inurba_marseille","lat":43.31063,"lon":5.38338,"is_reserved":false,"is_disabled":false,"rental_uris":{"android":"levelo://app?vid=96933892-6a46-4281-880c-758d7231ef75","ios":"levelo://app?vid=96933892-6a46-4281-880c-758d7231ef75"},"vehicle_type_id":"4","last_reported":1741640915,"current_range_meters":8400,"station_id":"ce4bgv92rcd13ifvqcr0","pricing_plan_id":"cebpf4jnsgd1na2vs0mg"},{"bike_id":"bd363e52-f9b8-455e-b9d8-fba19acd34b4","system_id":"levelo_inurba_marseille","lat":43.29049,"lon":5.35917,"is_reserved":false,"is_disabled":false,"rental_uris":{"android":"levelo://app?vid=bd363e52-f9b8-455e-b9d8-fba19acd34b4","ios":"levelo://app?vid=bd363e52-f9b8-455e-b9d8-fba19acd34b4"},"vehicle_type_id":"4","last_reported":1741640915,"current_range_meters":8400,"station_id":"ce4bha92rcd13ifvqeg0","pricing_plan_id":"cebpf4jnsgd1na2vs0mg"},{"bike_id":"27ec60e3-b2e3-435c-ba4c-8372ab285bb1","system_id":"levelo_inurba_marseille","lat":43.28157,"lon":5.42643,"is_reserved":false,"is_disabled":false,"rental_uris":{"android":"levelo://app?vid=27ec60e3-b2e3-435c-ba4c-8372ab285bb1","ios":"levelo://app?vid=27ec60e3-b2e3-435c-ba4c-8372ab285bb1"},"vehicle_type_id":"4","last_reported":1741640915,"current_range_meters":8400,"station_id":"ce4bhnh2rcd13ifvqgug","pricing_plan_id":"cebpf4jnsgd1na2vs0mg"},{"bike_id":"565245af-1098-4207-83d1-fdf36ab786b5","system_id":"levelo_inurba_marseille","lat":43.28077,"lon":5.44201,"is_reserved":false,"is_disabled":true,"rental_uris":{"android":"levelo://app?vid=565245af-1098-4207-83d1-fdf36ab786b5","ios":"levelo://app?vid=565245af-1098-4207-83d1-fdf36ab786b5"},"vehicle_type_id":"4","last_reported":1741640915,"current_range_meters":8400,"station_id":"","pricing_plan_id":"cebpf4jnsgd1na2vs0mg"},{"bike_id":"11d1feca-2b3c-4840-8830-7eae76d9f9f3","system_id":"levelo_inurba_marseille","lat":43.24553,"lon":5.39499,"is_reserved":false,"is_disabled":false,"rental_uris":{"android":"levelo://app?vid=11d1feca-2b3c-4840-8830-7eae76d9f9f3","ios":"levelo://app?vid=11d1feca-2b3c-4840-8830-7eae76d9f9f3"},"vehicle_type_id":"4","last_reported":1741640915,"current_range_meters":8400,"station_id":"ce4bhlp2rcd13ifvqgjg","pricing_plan_id":"cebpf4jnsgd1na2vs0mg"},{"bike_id":"6ce2a5a9-0f65-44ad-a9ca-ee264a71cd65","system_id":"levelo_inurba_marseille","lat":43.28485,"lon":5.38421,"is_reserved":false,"is_disabled":false,"rental_uris":{"android":"levelo://app?vid=6ce2a5a9-0f65-44ad-a9ca-ee264a71cd65","ios":"levelo://app?vid=6ce2a5a9-0f65-44ad-a9ca-ee264a71cd65"},"vehicle_type_id":"4","last_reported":1741640915,"current_range_meters":8800,"station_id":"ce4bh512rcd13ifvqe3g","pricing_plan_id":"cebpf4jnsgd1na2vs0mg"},{"bike_id":"8ea01432-516f-4f13-ad7d-9dd039355255","system_id":"levelo_inurba_marseille","lat":43.28837,"lon":5.35856,"is_reserved":false,"is_disabled":false,"rental_uris":{"android":"levelo://app?vid=8ea01432-516f-4f13-ad7d-9dd039355255","ios":"levelo://app?vid=8ea01432-516f-4f13-ad7d-9dd039355255"},"vehicle_type_id":"4","last_reported":1741640915,"current_range_meters":8800,"station_id":"ce4bhb12rcd13ifvqem0","pricing_plan_id":"cebpf4jnsgd1na2vs0mg"},{"bike_id":"f102aaa6-742b-41cb-93b1-819991b13a0f","system_id":"levelo_inurba_marseille","lat":43.31318,"lon":5.38845,"is_reserved":false,"is_disabled":false,"rental_uris":{"android":"levelo://app?vid=f102aaa6-742b-41cb-93b1-819991b13a0f","ios":"levelo://app?vid=f102aaa6-742b-41cb-93b1-819991b13a0f"},"vehicle_type_id":"4","last_reported":1741640915,"current_range_meters":8800,"station_id":"","pricing_plan_id":"cebpf4jnsgd1na2vs0mg"},{"bike_id":"199cb7b2-857a-4db4-b08b-30cc2dc0c4f3","system_id":"levelo_inurba_marseille","lat":43.3171,"lon":5.43704,"is_reserved":false,"is_disabled":false,"rental_uris":{"android":"levelo://app?vid=199cb7b2-857a-4db4-b08b-30cc2dc0c4f3","ios":"levelo://app?vid=199cb7b2-857a-4db4-b08b-30cc2dc0c4f3"},"vehicle_type_id":"4","last_reported":1741640915,"current_range_meters":8800,"station_id":"ce4bhp92rcd13ifvqhcg","pricing_plan_id":"cebpf4jnsgd1na2vs0mg"},{"bike_id":"22321c9b-eea6-4540-8918-b3bba3e1485b","system_id":"levelo_inurba_marseille","lat":43.26229,"lon":5.40429,"is_reserved":false,"is_disabled":false,"rental_uris":{"android":"levelo://app?vid=22321c9b-eea6-4540-8918-b3bba3e1485b","ios":"levelo://app?vid=22321c9b-eea6-4540-8918-b3bba3e1485b"},"vehicle_type_id":"4","last_reported":1741640915,"current_range_meters":8800,"station_id":"ce4bhmh2rcd13ifvqgmg","pricing_plan_id":"cebpf4jnsgd1na2vs0mg"},{"bike_id":"1907067d-5e3d-40ca-8a47-ba415b8b2a28","system_id":"levelo_inurba_marseille","lat":43.33627,"lon":5.41016,"is_reserved":false,"is_disabled":true,"rental_uris":{"android":"levelo://app?vid=1907067d-5e3d-40ca-8a47-ba415b8b2a28","ios":"levelo://app?vid=1907067d-5e3d-40ca-8a47-ba415b8b2a28"},"vehicle_type_id":"4","last_reported":1741640915,"current_range_meters":8800,"station_id":"ce4bhqh2rcd13ifvqhmg","pricing_plan_id":"cebpf4jnsgd1na2vs0mg"},{"bike_id":"e24ed85e-3539-42f2-9dbe-4ae80e70329d","system_id":"levelo_inurba_marseille","lat":43.32657,"lon":5.40983,"is_reserved":false,"is_disabled":false,"rental_uris":{"android":"levelo://app?vid=e24ed85e-3539-42f2-9dbe-4ae80e70329d","ios":"levelo://app?vid=e24ed85e-3539-42f2-9dbe-4ae80e70329d"},"vehicle_type_id":"4","last_reported":1741640915,"current_range_meters":8800,"station_id":"ce4bhpp2rcd13ifvqhgg","pricing_plan_id":"cebpf4jnsgd1na2vs0mg"},{"bike_id":"9ad3941c-a1ac-4563-9a21-7dd980942c2e","system_id":"levelo_inurba_marseille","lat":43.26024,"lon":5.37555,"is_reserved":false,"is_disabled":true,"rental_uris":{"android":"levelo://app?vid=9ad3941c-a1ac-4563-9a21-7dd980942c2e","ios":"levelo://app?vid=9ad3941c-a1ac-4563-9a21-7dd980942c2e"},"vehicle_type_id":"4","last_reported":1741640915,"current_range_meters":8800,"station_id":"ce4bhgh2rcd13ifvqfa0","pricing_plan_id":"cebpf4jnsgd1na2vs0mg"},{"bike_id":"855c9330-8b67-4292-9c70-1914a9315508","system_id":"levelo_inurba_marseille","lat":43.27958,"lon":5.41036,"is_reserved":false,"is_disabled":false,"rental_uris":{"android":"levelo://app?vid=855c9330-8b67-4292-9c70-1914a9315508","ios":"levelo://app?vid=855c9330-8b67-4292-9c70-1914a9315508"},"vehicle_type_id":"4","last_reported":1741640915,"current_range_meters":8800,"station_id":"ce4bhnp2rcd13ifvqh0g","pricing_plan_id":"cebpf4jnsgd1na2vs0mg"},{"bike_id":"a37d42aa-085d-4a56-8e08-eaf93bfe5e2b","system_id":"levelo_inurba_marseille","lat":43.31211,"lon":5.38693,"is_reserved":false,"is_disabled":true,"rental_uris":{"android":"levelo://app?vid=a37d42aa-085d-4a56-8e08-eaf93bfe5e2b","ios":"levelo://app?vid=a37d42aa-085d-4a56-8e08-eaf93bfe5e2b"},"vehicle_type_id":"4","last_reported":1741640915,"current_range_meters":8800,"station_id":"","pricing_plan_id":"cebpf4jnsgd1na2vs0mg"},{"bike_id":"a2dc4d03-5373-4e24-812a-94e84b0e6bf8","system_id":"levelo_inurba_marseille","lat":43.29891,"lon":5.39747,"is_reserved":false,"is_disabled":false,"rental_uris":{"android":"levelo://app?vid=a2dc4d03-5373-4e24-812a-94e84b0e6bf8","ios":"levelo://app?vid=a2dc4d03-5373-4e24-812a-94e84b0e6bf8"},"vehicle_type_id":"4","last_reported":1741640915,"current_range_meters":8800,"station_id":"ce4bh0h2rcd13ifvqd50","pricing_plan_id":"cebpf4jnsgd1na2vs0mg"},{"bike_id":"acff2939-c952-4f56-8aac-b02f4b8fce85","system_id":"levelo_inurba_marseille","lat":43.27066,"lon":5.42265,"is_reserved":false,"is_disabled":false,"rental_uris":{"android":"levelo://app?vid=acff2939-c952-4f56-8aac-b02f4b8fce85","ios":"levelo://app?vid=acff2939-c952-4f56-8aac-b02f4b8fce85"},"vehicle_type_id":"4","last_reported":1741640915,"current_range_meters":8800,"station_id":"ce4bhk92rcd13ifvqgb0","pricing_plan_id":"cebpf4jnsgd1na2vs0mg"},{"bike_id":"d8c6013c-d253-4427-aac6-a3e3798286c2","system_id":"levelo_inurba_marseille","lat":43.26951,"lon":5.38637,"is_reserved":false,"is_disabled":false,"rental_uris":{"android":"levelo://app?vid=d8c6013c-d253-4427-aac6-a3e3798286c2","ios":"levelo://app?vid=d8c6013c-d253-4427-aac6-a3e3798286c2"},"vehicle_type_id":"4","last_reported":1741640915,"current_range_meters":8800,"station_id":"ce4bhh92rcd13ifvqfh0","pricing_plan_id":"cebpf4jnsgd1na2vs0mg"},{"bike_id":"54afd193-ee95-4f5e-975a-c9018d9dcb98","system_id":"levelo_inurba_marseille","lat":43.32357,"lon":5.36749,"is_reserved":false,"is_disabled":false,"rental_uris":{"android":"levelo://app?vid=54afd193-ee95-4f5e-975a-c9018d9dcb98","ios":"levelo://app?vid=54afd193-ee95-4f5e-975a-c9018d9dcb98"},"vehicle_type_id":"4","last_reported":1741640915,"current_range_meters":9200,"station_id":"ce4bhsh2rcd13ifvqi2g","pricing_plan_id":"cebpf4jnsgd1na2vs0mg"},{"bike_id":"f46a4b76-6f92-4dee-a263-79134af2e57b","system_id":"levelo_inurba_marseille","lat":43.29283,"lon":5.3684,"is_reserved":false,"is_disabled":false,"rental_uris":{"android":"levelo://app?vid=f46a4b76-6f92-4dee-a263-79134af2e57b","ios":"levelo://app?vid=f46a4b76-6f92-4dee-a263-79134af2e57b"},"vehicle_type_id":"4","last_reported":1741640915,"current_range_meters":9200,"station_id":"ce4bhbp2rcd13ifvqesg","pricing_plan_id":"cebpf4jnsgd1na2vs0mg"},{"bike_id":"94d842f6-27d1-4b82-b594-66b4682ce169","system_id":"levelo_inurba_marseille","lat":43.27994,"lon":5.40006,"is_reserved":false,"is_disabled":false,"rental_uris":{"android":"levelo://app?vid=94d842f6-27d1-4b82-b594-66b4682ce169","ios":"levelo://app?vid=94d842f6-27d1-4b82-b594-66b4682ce169"},"vehicle_type_id":"4","last_reported":1741640915,"current_range_meters":9200,"station_id":"ce4bho92rcd13ifvqh4g","pricing_plan_id":"cebpf4jnsgd1na2vs0mg"},{"bike_id":"373a1af5-2b90-40ba-bdc3-b87140071d00","system_id":"levelo_inurba_marseille","lat":43.31188,"lon":5.40321,"is_reserved":false,"is_disabled":false,"rental_uris":{"android":"levelo://app?vid=373a1af5-2b90-40ba-bdc3-b87140071d00","ios":"levelo://app?vid=373a1af5-2b90-40ba-bdc3-b87140071d00"},"vehicle_type_id":"4","last_reported":1741640915,"current_range_meters":9200,"station_id":"","pricing_plan_id":"cebpf4jnsgd1na2vs0mg"},{"bike_id":"5bf1fd3d-106c-4b23-b455-ae5552f33fa7","system_id":"levelo_inurba_marseille","lat":43.251,"lon":5.39519,"is_reserved":false,"is_disabled":false,"rental_uris":{"android":"levelo://app?vid=5bf1fd3d-106c-4b23-b455-ae5552f33fa7","ios":"levelo://app?vid=5bf1fd3d-106c-4b23-b455-ae5552f33fa7"},"vehicle_type_id":"4","last_reported":1741640915,"current_range_meters":9200,"station_id":"ce4bhm12rcd13ifvqgkg","pricing_plan_id":"cebpf4jnsgd1na2vs0mg"},{"bike_id":"e059ef3d-eb48-427d-b0c6-bf37192fe1ba","system_id":"levelo_inurba_marseille","lat":43.28006,"lon":5.40006,"is_reserved":false,"is_disabled":false,"rental_uris":{"android":"levelo://app?vid=e059ef3d-eb48-427d-b0c6-bf37192fe1ba","ios":"levelo://app?vid=e059ef3d-eb48-427d-b0c6-bf37192fe1ba"},"vehicle_type_id":"4","last_reported":1741640915,"current_range_meters":9200,"station_id":"ce4bho92rcd13ifvqh4g","pricing_plan_id":"cebpf4jnsgd1na2vs0mg"},{"bike_id":"7013c278-5410-48cc-815f-2755f73d5c70","system_id":"levelo_inurba_marseille","lat":43.29941,"lon":5.36561,"is_reserved":false,"is_disabled":false,"rental_uris":{"android":"levelo://app?vid=7013c278-5410-48cc-815f-2755f73d5c70","ios":"levelo://app?vid=7013c278-5410-48cc-815f-2755f73d5c70"},"vehicle_type_id":"4","last_reported":1741640915,"current_range_meters":9200,"station_id":"ce4bgm92rcd13ifvqbr0","pricing_plan_id":"cebpf4jnsgd1na2vs0mg"},{"bike_id":"4f7bbb0b-f0c2-4153-b3e6-744aa43d163b","system_id":"levelo_inurba_marseille","lat":43.26569,"lon":5.3903,"is_reserved":false,"is_disabled":false,"rental_uris":{"android":"levelo://app?vid=4f7bbb0b-f0c2-4153-b3e6-744aa43d163b","ios":"levelo://app?vid=4f7bbb0b-f0c2-4153-b3e6-744aa43d163b"},"vehicle_type_id":"4","last_reported":1741640915,"current_range_meters":9600,"station_id":"ce4bhe12rcd13ifvqf30","pricing_plan_id":"cebpf4jnsgd1na2vs0mg"},{"bike_id":"57dd884a-4a6c-4075-a2d5-bc8c0fdff142","system_id":"levelo_inurba_marseille","lat":43.28139,"lon":5.42622,"is_reserved":false,"is_disabled":false,"rental_uris":{"android":"levelo://app?vid=57dd884a-4a6c-4075-a2d5-bc8c0fdff142","ios":"levelo://app?vid=57dd884a-4a6c-4075-a2d5-bc8c0fdff142"},"vehicle_type_id":"4","last_reported":1741640915,"current_range_meters":9600,"station_id":"ce4bhnh2rcd13ifvqgug","pricing_plan_id":"cebpf4jnsgd1na2vs0mg"},{"bike_id":"ae4913d3-c7b3-4e3b-8b0e-9eedefc8bcf1","system_id":"levelo_inurba_marseille","lat":43.31322,"lon":5.38832,"is_reserved":false,"is_disabled":false,"rental_uris":{"android":"levelo://app?vid=ae4913d3-c7b3-4e3b-8b0e-9eedefc8bcf1","ios":"levelo://app?vid=ae4913d3-c7b3-4e3b-8b0e-9eedefc8bcf1"},"vehicle_type_id":"4","last_reported":1741640915,"current_range_meters":10000,"station_id":"","pricing_plan_id":"cebpf4jnsgd1na2vs0mg"},{"bike_id":"13c1c15c-fa68-475d-a671-72b7305d943c","system_id":"levelo_inurba_marseille","lat":43.27989,"lon":5.40024,"is_reserved":false,"is_disabled":false,"rental_uris":{"android":"levelo://app?vid=13c1c15c-fa68-475d-a671-72b7305d943c","ios":"levelo://app?vid=13c1c15c-fa68-475d-a671-72b7305d943c"},"vehicle_type_id":"4","last_reported":1741640915,"current_range_meters":10000,"station_id":"ce4bho92rcd13ifvqh4g","pricing_plan_id":"cebpf4jnsgd1na2vs0mg"},{"bike_id":"d2ac0aa6-492c-406a-8f30-81aab53fe76b","system_id":"levelo_inurba_marseille","lat":43.2417,"lon":5.39732,"is_reserved":false,"is_disabled":false,"rental_uris":{"android":"levelo://app?vid=d2ac0aa6-492c-406a-8f30-81aab53fe76b","ios":"levelo://app?vid=d2ac0aa6-492c-406a-8f30-81aab53fe76b"},"vehicle_type_id":"4","last_reported":1741640915,"current_range_meters":10000,"station_id":"ce4bhn12rcd13ifvqgpg","pricing_plan_id":"cebpf4jnsgd1na2vs0mg"},{"bike_id":"e1498ebd-a42c-474f-8279-2c2e9cca71d4","system_id":"levelo_inurba_marseille","lat":43.28808,"lon":5.38211,"is_reserved":false,"is_disabled":false,"rental_uris":{"android":"levelo://app?vid=e1498ebd-a42c-474f-8279-2c2e9cca71d4","ios":"levelo://app?vid=e1498ebd-a42c-474f-8279-2c2e9cca71d4"},"vehicle_type_id":"4","last_reported":1741640915,"current_range_meters":10000,"station_id":"","pricing_plan_id":"cebpf4jnsgd1na2vs0mg"},{"bike_id":"7e384d90-9cdb-4adf-a875-0e3113bacef4","system_id":"levelo_inurba_marseille","lat":43.31063,"lon":5.37202,"is_reserved":false,"is_disabled":false,"rental_uris":{"android":"levelo://app?vid=7e384d90-9cdb-4adf-a875-0e3113bacef4","ios":"levelo://app?vid=7e384d90-9cdb-4adf-a875-0e3113bacef4"},"vehicle_type_id":"4","last_reported":1741640915,"current_range_meters":10000,"station_id":"","pricing_plan_id":"cebpf4jnsgd1na2vs0mg"},{"bike_id":"f2c5b4d9-7014-4352-9842-8b654a25747b","system_id":"levelo_inurba_marseille","lat":43.29205,"lon":5.39339,"is_reserved":false,"is_disabled":false,"rental_uris":{"android":"levelo://app?vid=f2c5b4d9-7014-4352-9842-8b654a25747b","ios":"levelo://app?vid=f2c5b4d9-7014-4352-9842-8b654a25747b"},"vehicle_type_id":"4","last_reported":1741640915,"current_range_meters":10000,"station_id":"ce4bh192rcd13ifvqdd0","pricing_plan_id":"cebpf4jnsgd1na2vs0mg"},{"bike_id":"ad9885b8-46bd-41dc-b0e6-4f15bcb85518","system_id":"levelo_inurba_marseille","lat":43.31081,"lon":5.42432,"is_reserved":false,"is_disabled":false,"rental_uris":{"android":"levelo://app?vid=ad9885b8-46bd-41dc-b0e6-4f15bcb85518","ios":"levelo://app?vid=ad9885b8-46bd-41dc-b0e6-4f15bcb85518"},"vehicle_type_id":"4","last_reported":1741640915,"current_range_meters":10000,"station_id":"ce4bhp92rcd13ifvqhag","pricing_plan_id":"cebpf4jnsgd1na2vs0mg"},{"bike_id":"e6bfedde-b8d3-483f-9c12-e45beb87d7c9","system_id":"levelo_inurba_marseille","lat":43.23145,"lon":5.43701,"is_reserved":false,"is_disabled":false,"rental_uris":{"android":"levelo://app?vid=e6bfedde-b8d3-483f-9c12-e45beb87d7c9","ios":"levelo://app?vid=e6bfedde-b8d3-483f-9c12-e45beb87d7c9"},"vehicle_type_id":"4","last_reported":1741640915,"current_range_meters":10000,"station_id":"ce4bhmp2rcd13ifvqgog","pricing_plan_id":"cebpf4jnsgd1na2vs0mg"},{"bike_id":"42813811-e0f7-49cd-9bc8-d7edf65602e3","system_id":"levelo_inurba_marseille","lat":43.27935,"lon":5.41041,"is_reserved":false,"is_disabled":false,"rental_uris":{"android":"levelo://app?vid=42813811-e0f7-49cd-9bc8-d7edf65602e3","ios":"levelo://app?vid=42813811-e0f7-49cd-9bc8-d7edf65602e3"},"vehicle_type_id":"4","last_reported":1741640915,"current_range_meters":10000,"station_id":"ce4bhnp2rcd13ifvqh0g","pricing_plan_id":"cebpf4jnsgd1na2vs0mg"},{"bike_id":"668d7754-9eb2-4494-a339-1b051685cccf","system_id":"levelo_inurba_marseille","lat":43.27997,"lon":5.40015,"is_reserved":false,"is_disabled":false,"rental_uris":{"android":"levelo://app?vid=668d7754-9eb2-4494-a339-1b051685cccf","ios":"levelo://app?vid=668d7754-9eb2-4494-a339-1b051685cccf"},"vehicle_type_id":"4","last_reported":1741640915,"current_range_meters":10000,"station_id":"ce4bho92rcd13ifvqh4g","pricing_plan_id":"cebpf4jnsgd1na2vs0mg"},{"bike_id":"4491a1e2-eb06-49d1-bf0c-ffab94d6b1ae","system_id":"levelo_inurba_marseille","lat":43.24182,"lon":5.39726,"is_reserved":false,"is_disabled":true,"rental_uris":{"android":"levelo://app?vid=4491a1e2-eb06-49d1-bf0c-ffab94d6b1ae","ios":"levelo://app?vid=4491a1e2-eb06-49d1-bf0c-ffab94d6b1ae"},"vehicle_type_id":"4","last_reported":1741640915,"current_range_meters":10800,"station_id":"ce4bhn12rcd13ifvqgpg","pricing_plan_id":"cebpf4jnsgd1na2vs0mg"},{"bike_id":"35c21be5-136d-4361-912d-4b83ae0c4701","system_id":"levelo_inurba_marseille","lat":43.30299,"lon":5.36878,"is_reserved":false,"is_disabled":false,"rental_uris":{"android":"levelo://app?vid=35c21be5-136d-4361-912d-4b83ae0c4701","ios":"levelo://app?vid=35c21be5-136d-4361-912d-4b83ae0c4701"},"vehicle_type_id":"4","last_reported":1741640915,"current_range_meters":10800,"station_id":"ce4bgqh2rcd13ifvqc5g","pricing_plan_id":"cebpf4jnsgd1na2vs0mg"},{"bike_id":"9fee8c94-cefc-4851-bf08-29170b35a1d8","system_id":"levelo_inurba_marseille","lat":43.28155,"lon":5.42665,"is_reserved":false,"is_disabled":false,"rental_uris":{"android":"levelo://app?vid=9fee8c94-cefc-4851-bf08-29170b35a1d8","ios":"levelo://app?vid=9fee8c94-cefc-4851-bf08-29170b35a1d8"},"vehicle_type_id":"4","last_reported":1741640915,"current_range_meters":10800,"station_id":"ce4bhnh2rcd13ifvqgug","pricing_plan_id":"cebpf4jnsgd1na2vs0mg"},{"bike_id":"c1eaa9fa-072f-42f3-ab2c-2cf570a897f5","system_id":"levelo_inurba_marseille","lat":43.30541,"lon":5.36697,"is_reserved":false,"is_disabled":false,"rental_uris":{"android":"levelo://app?vid=c1eaa9fa-072f-42f3-ab2c-2cf570a897f5","ios":"levelo://app?vid=c1eaa9fa-072f-42f3-ab2c-2cf570a897f5"},"vehicle_type_id":"4","last_reported":1741640915,"current_range_meters":10000,"station_id":"ce4bgrp2rcd13ifvqc9g","pricing_plan_id":"cebpf4jnsgd1na2vs0mg"},{"bike_id":"1920f354-c4b5-4d1a-bc6f-aba0c6cd151e","system_id":"levelo_inurba_marseille","lat":43.278149,"lon":5.407211,"is_reserved":false,"is_disabled":false,"rental_uris":{"android":"levelo://app?vid=1920f354-c4b5-4d1a-bc6f-aba0c6cd151e","ios":"levelo://app?vid=1920f354-c4b5-4d1a-bc6f-aba0c6cd151e"},"vehicle_type_id":"4","last_reported":1741640915,"current_range_meters":10800,"station_id":"ce4bhnh2rcd13ifvqgtg","pricing_plan_id":"cebpf4jnsgd1na2vs0mg"},{"bike_id":"3ac23fa3-c691-42c5-bf01-2fc133440e80","system_id":"levelo_inurba_marseille","lat":43.295314,"lon":5.38562,"is_reserved":false,"is_disabled":false,"rental_uris":{"android":"levelo://app?vid=3ac23fa3-c691-42c5-bf01-2fc133440e80","ios":"levelo://app?vid=3ac23fa3-c691-42c5-bf01-2fc133440e80"},"vehicle_type_id":"4","last_reported":1741640915,"current_range_meters":10800,"station_id":"ce4bgih2rcd13ifvqba0","pricing_plan_id":"cebpf4jnsgd1na2vs0mg"},{"bike_id":"8dc2c2dc-de0f-4fd2-b739-faf253fff5e5","system_id":"levelo_inurba_marseille","lat":43.23146,"lon":5.43735,"is_reserved":false,"is_disabled":false,"rental_uris":{"android":"levelo://app?vid=8dc2c2dc-de0f-4fd2-b739-faf253fff5e5","ios":"levelo://app?vid=8dc2c2dc-de0f-4fd2-b739-faf253fff5e5"},"vehicle_type_id":"4","last_reported":1741640915,"current_range_meters":10800,"station_id":"ce4bhmp2rcd13ifvqgog","pricing_plan_id":"cebpf4jnsgd1na2vs0mg"},{"bike_id":"787941c7-68e4-4a9e-b1f1-d3bf469258e1","system_id":"levelo_inurba_marseille","lat":43.24165,"lon":5.39744,"is_reserved":false,"is_disabled":false,"rental_uris":{"android":"levelo://app?vid=787941c7-68e4-4a9e-b1f1-d3bf469258e1","ios":"levelo://app?vid=787941c7-68e4-4a9e-b1f1-d3bf469258e1"},"vehicle_type_id":"4","last_reported":1741640915,"current_range_meters":10800,"station_id":"ce4bhn12rcd13ifvqgpg","pricing_plan_id":"cebpf4jnsgd1na2vs0mg"},{"bike_id":"93cf9ee9-18a9-434d-82f1-fcc1831c2751","system_id":"levelo_inurba_marseille","lat":43.27946,"lon":5.41047,"is_reserved":false,"is_disabled":false,"rental_uris":{"android":"levelo://app?vid=93cf9ee9-18a9-434d-82f1-fcc1831c2751","ios":"levelo://app?vid=93cf9ee9-18a9-434d-82f1-fcc1831c2751"},"vehicle_type_id":"4","last_reported":1741640915,"current_range_meters":10800,"station_id":"ce4bhnp2rcd13ifvqh0g","pricing_plan_id":"cebpf4jnsgd1na2vs0mg"},{"bike_id":"a823a252-79ed-4eab-8ed3-c099ec187b1d","system_id":"levelo_inurba_marseille","lat":43.27055,"lon":5.42259,"is_reserved":false,"is_disabled":false,"rental_uris":{"android":"levelo://app?vid=a823a252-79ed-4eab-8ed3-c099ec187b1d","ios":"levelo://app?vid=a823a252-79ed-4eab-8ed3-c099ec187b1d"},"vehicle_type_id":"4","last_reported":1741640915,"current_range_meters":10800,"station_id":"ce4bhk92rcd13ifvqgb0","pricing_plan_id":"cebpf4jnsgd1na2vs0mg"},{"bike_id":"09bbb690-af86-458c-bbad-70d10e2033ee","system_id":"levelo_inurba_marseille","lat":43.23062,"lon":5.35495,"is_reserved":false,"is_disabled":false,"rental_uris":{"android":"levelo://app?vid=09bbb690-af86-458c-bbad-70d10e2033ee","ios":"levelo://app?vid=09bbb690-af86-458c-bbad-70d10e2033ee"},"vehicle_type_id":"4","last_reported":1741640915,"current_range_meters":10800,"station_id":"cpo3342slgdg3j2ifvpg","pricing_plan_id":"cebpf4jnsgd1na2vs0mg"},{"bike_id":"80771939-f406-42f7-81c5-33180fd8a338","system_id":"levelo_inurba_marseille","lat":43.2319,"lon":5.35554,"is_reserved":false,"is_disabled":false,"rental_uris":{"android":"levelo://app?vid=80771939-f406-42f7-81c5-33180fd8a338","ios":"levelo://app?vid=80771939-f406-42f7-81c5-33180fd8a338"},"vehicle_type_id":"4","last_reported":1741640915,"current_range_meters":10800,"station_id":"ce4bhu92rcd13ifvqi70","pricing_plan_id":"cebpf4jnsgd1na2vs0mg"},{"bike_id":"51772d6c-c0b3-48d9-81cb-ae5466e6f822","system_id":"levelo_inurba_marseille","lat":43.23143,"lon":5.43709,"is_reserved":false,"is_disabled":false,"rental_uris":{"android":"levelo://app?vid=51772d6c-c0b3-48d9-81cb-ae5466e6f822","ios":"levelo://app?vid=51772d6c-c0b3-48d9-81cb-ae5466e6f822"},"vehicle_type_id":"4","last_reported":1741640915,"current_range_meters":10800,"station_id":"ce4bhmp2rcd13ifvqgog","pricing_plan_id":"cebpf4jnsgd1na2vs0mg"},{"bike_id":"6ad8ffcd-2bee-4d10-b80d-ee19163ec617","system_id":"levelo_inurba_marseille","lat":43.27373,"lon":5.36263,"is_reserved":false,"is_disabled":false,"rental_uris":{"android":"levelo://app?vid=6ad8ffcd-2bee-4d10-b80d-ee19163ec617","ios":"levelo://app?vid=6ad8ffcd-2bee-4d10-b80d-ee19163ec617"},"vehicle_type_id":"4","last_reported":1741640915,"current_range_meters":11200,"station_id":"ce4bhbh2rcd13ifvqeo0","pricing_plan_id":"cebpf4jnsgd1na2vs0mg"},{"bike_id":"aef7e77c-e213-4368-91ff-8d1fe2823dfe","system_id":"levelo_inurba_marseille","lat":43.30885,"lon":5.39641,"is_reserved":false,"is_disabled":false,"rental_uris":{"android":"levelo://app?vid=aef7e77c-e213-4368-91ff-8d1fe2823dfe","ios":"levelo://app?vid=aef7e77c-e213-4368-91ff-8d1fe2823dfe"},"vehicle_type_id":"4","last_reported":1741640915,"current_range_meters":11200,"station_id":"ce4bh012rcd13ifvqcv0","pricing_plan_id":"cebpf4jnsgd1na2vs0mg"},{"bike_id":"535bce7a-c0ad-402c-90cc-e0a060a284a4","system_id":"levelo_inurba_marseille","lat":43.28723,"lon":5.39971,"is_reserved":false,"is_disabled":false,"rental_uris":{"android":"levelo://app?vid=535bce7a-c0ad-402c-90cc-e0a060a284a4","ios":"levelo://app?vid=535bce7a-c0ad-402c-90cc-e0a060a284a4"},"vehicle_type_id":"4","last_reported":1741640915,"current_range_meters":10800,"station_id":"ce4bho92rcd13ifvqh3g","pricing_plan_id":"cebpf4jnsgd1na2vs0mg"},{"bike_id":"5ccaa9dd-fd14-42a0-9fd5-b2cb20a90f0c","system_id":"levelo_inurba_marseille","lat":43.25865,"lon":5.39903,"is_reserved":false,"is_disabled":false,"rental_uris":{"android":"levelo://app?vid=5ccaa9dd-fd14-42a0-9fd5-b2cb20a90f0c","ios":"levelo://app?vid=5ccaa9dd-fd14-42a0-9fd5-b2cb20a90f0c"},"vehicle_type_id":"4","last_reported":1741640915,"current_range_meters":11200,"station_id":"ce4bhl92rcd13ifvqghg","pricing_plan_id":"cebpf4jnsgd1na2vs0mg"},{"bike_id":"68d89c40-14e8-4102-a80e-5e09c9fad361","system_id":"levelo_inurba_marseille","lat":43.32347,"lon":5.40618,"is_reserved":false,"is_disabled":false,"rental_uris":{"android":"levelo://app?vid=68d89c40-14e8-4102-a80e-5e09c9fad361","ios":"levelo://app?vid=68d89c40-14e8-4102-a80e-5e09c9fad361"},"vehicle_type_id":"4","last_reported":1741640915,"current_range_meters":11200,"station_id":"ce4bhq92rcd13ifvqhjg","pricing_plan_id":"cebpf4jnsgd1na2vs0mg"},{"bike_id":"c2848185-3b42-44f9-b163-5d9be4b7c26e","system_id":"levelo_inurba_marseille","lat":43.22934,"lon":5.35386,"is_reserved":false,"is_disabled":false,"rental_uris":{"android":"levelo://app?vid=c2848185-3b42-44f9-b163-5d9be4b7c26e","ios":"levelo://app?vid=c2848185-3b42-44f9-b163-5d9be4b7c26e"},"vehicle_type_id":"4","last_reported":1741640915,"current_range_meters":11200,"station_id":"cpo3532slgdg3j2ikp40","pricing_plan_id":"cebpf4jnsgd1na2vs0mg"},{"bike_id":"acc1658b-7ea3-44a5-a65b-40f1faa0438d","system_id":"levelo_inurba_marseille","lat":43.32532,"lon":5.41519,"is_reserved":false,"is_disabled":false,"rental_uris":{"android":"levelo://app?vid=acc1658b-7ea3-44a5-a65b-40f1faa0438d","ios":"levelo://app?vid=acc1658b-7ea3-44a5-a65b-40f1faa0438d"},"vehicle_type_id":"4","last_reported":1741640915,"current_range_meters":11600,"station_id":"ce4bhq12rcd13ifvqhhg","pricing_plan_id":"cebpf4jnsgd1na2vs0mg"},{"bike_id":"e747d5ae-d0eb-47f3-910f-61e3964bf85a","system_id":"levelo_inurba_marseille","lat":43.3088,"lon":5.3964,"is_reserved":false,"is_disabled":false,"rental_uris":{"android":"levelo://app?vid=e747d5ae-d0eb-47f3-910f-61e3964bf85a","ios":"levelo://app?vid=e747d5ae-d0eb-47f3-910f-61e3964bf85a"},"vehicle_type_id":"4","last_reported":1741640915,"current_range_meters":11600,"station_id":"ce4bh012rcd13ifvqcv0","pricing_plan_id":"cebpf4jnsgd1na2vs0mg"},{"bike_id":"a26045c1-1145-4eb4-a1da-7da4f3afe0e6","system_id":"levelo_inurba_marseille","lat":43.28418,"lon":5.35007,"is_reserved":false,"is_disabled":false,"rental_uris":{"android":"levelo://app?vid=a26045c1-1145-4eb4-a1da-7da4f3afe0e6","ios":"levelo://app?vid=a26045c1-1145-4eb4-a1da-7da4f3afe0e6"},"vehicle_type_id":"4","last_reported":1741640915,"current_range_meters":11600,"station_id":"ce4bhbh2rcd13ifvqepg","pricing_plan_id":"cebpf4jnsgd1na2vs0mg"},{"bike_id":"9850477a-ea38-466c-8d00-d7638a0d9437","system_id":"levelo_inurba_marseille","lat":43.29875,"lon":5.389,"is_reserved":false,"is_disabled":false,"rental_uris":{"android":"levelo://app?vid=9850477a-ea38-466c-8d00-d7638a0d9437","ios":"levelo://app?vid=9850477a-ea38-466c-8d00-d7638a0d9437"},"vehicle_type_id":"4","last_reported":1741640915,"current_range_meters":11600,"station_id":"ce4bh392rcd13ifvqdl0","pricing_plan_id":"cebpf4jnsgd1na2vs0mg"},{"bike_id":"d75eea55-7dd3-4fc2-8a90-419753432872","system_id":"levelo_inurba_marseille","lat":43.30643,"lon":5.40085,"is_reserved":false,"is_disabled":false,"rental_uris":{"android":"levelo://app?vid=d75eea55-7dd3-4fc2-8a90-419753432872","ios":"levelo://app?vid=d75eea55-7dd3-4fc2-8a90-419753432872"},"vehicle_type_id":"4","last_reported":1741640915,"current_range_meters":11200,"station_id":"ce4bh112rcd13ifvqda0","pricing_plan_id":"cebpf4jnsgd1na2vs0mg"},{"bike_id":"eedea634-fc2e-45d8-941f-a9451205205f","system_id":"levelo_inurba_marseille","lat":43.29267,"lon":5.40115,"is_reserved":false,"is_disabled":false,"rental_uris":{"android":"levelo://app?vid=eedea634-fc2e-45d8-941f-a9451205205f","ios":"levelo://app?vid=eedea634-fc2e-45d8-941f-a9451205205f"},"vehicle_type_id":"4","last_reported":1741640915,"current_range_meters":11600,"station_id":"ce4bh312rcd13ifvqdk0","pricing_plan_id":"cebpf4jnsgd1na2vs0mg"},{"bike_id":"c41e3247-520d-4edc-8030-5306b79badd5","system_id":"levelo_inurba_marseille","lat":43.24647,"lon":5.38891,"is_reserved":false,"is_disabled":false,"rental_uris":{"android":"levelo://app?vid=c41e3247-520d-4edc-8030-5306b79badd5","ios":"levelo://app?vid=c41e3247-520d-4edc-8030-5306b79badd5"},"vehicle_type_id":"4","last_reported":1741640915,"current_range_meters":12000,"station_id":"ce4bhg12rcd13ifvqf60","pricing_plan_id":"cebpf4jnsgd1na2vs0mg"},{"bike_id":"29cfd7c6-f30d-433f-be23-3816488240c9","system_id":"levelo_inurba_marseille","lat":43.28475,"lon":5.35896,"is_reserved":false,"is_disabled":false,"rental_uris":{"android":"levelo://app?vid=29cfd7c6-f30d-433f-be23-3816488240c9","ios":"levelo://app?vid=29cfd7c6-f30d-433f-be23-3816488240c9"},"vehicle_type_id":"4","last_reported":1741640915,"current_range_meters":12000,"station_id":"ce4bhah2rcd13ifvqei0","pricing_plan_id":"cebpf4jnsgd1na2vs0mg"},{"bike_id":"0f746634-9447-4077-958c-6f079b74ef8f","system_id":"levelo_inurba_marseille","lat":43.28411,"lon":5.37517,"is_reserved":false,"is_disabled":false,"rental_uris":{"android":"levelo://app?vid=0f746634-9447-4077-958c-6f079b74ef8f","ios":"levelo://app?vid=0f746634-9447-4077-958c-6f079b74ef8f"},"vehicle_type_id":"4","last_reported":1741640915,"current_range_meters":12000,"station_id":"ce4bh412rcd13ifvqds0","pricing_plan_id":"cebpf4jnsgd1na2vs0mg"},{"bike_id":"b437b5fa-55a9-4111-a0a3-6e53788b5f2e","system_id":"levelo_inurba_marseille","lat":43.315312,"lon":5.380375,"is_reserved":false,"is_disabled":false,"rental_uris":{"android":"levelo://app?vid=b437b5fa-55a9-4111-a0a3-6e53788b5f2e","ios":"levelo://app?vid=b437b5fa-55a9-4111-a0a3-6e53788b5f2e"},"vehicle_type_id":"4","last_reported":1741640915,"current_range_meters":12000,"station_id":"ce4bhsp2rcd13ifvqi50","pricing_plan_id":"cebpf4jnsgd1na2vs0mg"},{"bike_id":"0fa8885b-a032-4875-8249-a37d20c5b6a2","system_id":"levelo_inurba_marseille","lat":43.28446,"lon":5.35889,"is_reserved":false,"is_disabled":false,"rental_uris":{"android":"levelo://app?vid=0fa8885b-a032-4875-8249-a37d20c5b6a2","ios":"levelo://app?vid=0fa8885b-a032-4875-8249-a37d20c5b6a2"},"vehicle_type_id":"4","last_reported":1741640915,"current_range_meters":12000,"station_id":"ce4bhah2rcd13ifvqei0","pricing_plan_id":"cebpf4jnsgd1na2vs0mg"},{"bike_id":"1e0fe446-79da-4c06-b7fb-836450dc89c4","system_id":"levelo_inurba_marseille","lat":43.29793,"lon":5.39348,"is_reserved":false,"is_disabled":false,"rental_uris":{"android":"levelo://app?vid=1e0fe446-79da-4c06-b7fb-836450dc89c4","ios":"levelo://app?vid=1e0fe446-79da-4c06-b7fb-836450dc89c4"},"vehicle_type_id":"4","last_reported":1741640915,"current_range_meters":12000,"station_id":"chh1huq6cuj3fo74tm60","pricing_plan_id":"cebpf4jnsgd1na2vs0mg"},{"bike_id":"27459785-4edf-4f27-b842-1984a62c6dde","system_id":"levelo_inurba_marseille","lat":43.25085,"lon":5.39523,"is_reserved":false,"is_disabled":false,"rental_uris":{"android":"levelo://app?vid=27459785-4edf-4f27-b842-1984a62c6dde","ios":"levelo://app?vid=27459785-4edf-4f27-b842-1984a62c6dde"},"vehicle_type_id":"4","last_reported":1741640915,"current_range_meters":12000,"station_id":"ce4bhm12rcd13ifvqgkg","pricing_plan_id":"cebpf4jnsgd1na2vs0mg"},{"bike_id":"dcf77e7c-7c54-43f5-bbe0-4bb9819eefd0","system_id":"levelo_inurba_marseille","lat":43.270498,"lon":5.402609,"is_reserved":false,"is_disabled":false,"rental_uris":{"android":"levelo://app?vid=dcf77e7c-7c54-43f5-bbe0-4bb9819eefd0","ios":"levelo://app?vid=dcf77e7c-7c54-43f5-bbe0-4bb9819eefd0"},"vehicle_type_id":"4","last_reported":1741640915,"current_range_meters":10800,"station_id":"ce4bhkp2rcd13ifvqgd0","pricing_plan_id":"cebpf4jnsgd1na2vs0mg"},{"bike_id":"9ec52ed9-9c0e-4e61-a378-5327e3711632","system_id":"levelo_inurba_marseille","lat":43.24775,"lon":5.41146,"is_reserved":false,"is_disabled":false,"rental_uris":{"android":"levelo://app?vid=9ec52ed9-9c0e-4e61-a378-5327e3711632","ios":"levelo://app?vid=9ec52ed9-9c0e-4e61-a378-5327e3711632"},"vehicle_type_id":"4","last_reported":1741640915,"current_range_meters":12000,"station_id":"","pricing_plan_id":"cebpf4jnsgd1na2vs0mg"},{"bike_id":"b0dddecf-9116-4a66-9983-62de09dcadf3","system_id":"levelo_inurba_marseille","lat":43.27799,"lon":5.42111,"is_reserved":false,"is_disabled":false,"rental_uris":{"android":"levelo://app?vid=b0dddecf-9116-4a66-9983-62de09dcadf3","ios":"levelo://app?vid=b0dddecf-9116-4a66-9983-62de09dcadf3"},"vehicle_type_id":"4","last_reported":1741640915,"current_range_meters":12400,"station_id":"","pricing_plan_id":"cebpf4jnsgd1na2vs0mg"},{"bike_id":"11682539-aea1-4e9c-abe8-86102f41bf04","system_id":"levelo_inurba_marseille","lat":43.28467,"lon":5.3595,"is_reserved":false,"is_disabled":false,"rental_uris":{"android":"levelo://app?vid=11682539-aea1-4e9c-abe8-86102f41bf04","ios":"levelo://app?vid=11682539-aea1-4e9c-abe8-86102f41bf04"},"vehicle_type_id":"4","last_reported":1741640915,"current_range_meters":12400,"station_id":"ce4bhah2rcd13ifvqei0","pricing_plan_id":"cebpf4jnsgd1na2vs0mg"},{"bike_id":"6b23263d-5b6d-4c0d-af82-e81f833640b8","system_id":"levelo_inurba_marseille","lat":43.27996,"lon":5.41677,"is_reserved":false,"is_disabled":false,"rental_uris":{"android":"levelo://app?vid=6b23263d-5b6d-4c0d-af82-e81f833640b8","ios":"levelo://app?vid=6b23263d-5b6d-4c0d-af82-e81f833640b8"},"vehicle_type_id":"4","last_reported":1741640915,"current_range_meters":12400,"station_id":"ce4bho12rcd13ifvqh1g","pricing_plan_id":"cebpf4jnsgd1na2vs0mg"},{"bike_id":"f8e0aebb-9570-4e43-9f51-19f51db951a0","system_id":"levelo_inurba_marseille","lat":43.26564,"lon":5.39021,"is_reserved":false,"is_disabled":true,"rental_uris":{"android":"levelo://app?vid=f8e0aebb-9570-4e43-9f51-19f51db951a0","ios":"levelo://app?vid=f8e0aebb-9570-4e43-9f51-19f51db951a0"},"vehicle_type_id":"4","last_reported":1741640915,"current_range_meters":12400,"station_id":"ce4bhe12rcd13ifvqf30","pricing_plan_id":"cebpf4jnsgd1na2vs0mg"},{"bike_id":"6e0f5dc3-de54-43fe-886e-f9b93ee0cdf2","system_id":"levelo_inurba_marseille","lat":43.29676,"lon":5.37303,"is_reserved":false,"is_disabled":false,"rental_uris":{"android":"levelo://app?vid=6e0f5dc3-de54-43fe-886e-f9b93ee0cdf2","ios":"levelo://app?vid=6e0f5dc3-de54-43fe-886e-f9b93ee0cdf2"},"vehicle_type_id":"4","last_reported":1741640915,"current_range_meters":11200,"station_id":"ce4bgk12rcd13ifvqbj0","pricing_plan_id":"cebpf4jnsgd1na2vs0mg"},{"bike_id":"6f504b39-a809-429d-a1d0-988c996c482d","system_id":"levelo_inurba_marseille","lat":43.30597,"lon":5.37218,"is_reserved":false,"is_disabled":false,"rental_uris":{"android":"levelo://app?vid=6f504b39-a809-429d-a1d0-988c996c482d","ios":"levelo://app?vid=6f504b39-a809-429d-a1d0-988c996c482d"},"vehicle_type_id":"4","last_reported":1741640915,"current_range_meters":12400,"station_id":"ce4bgqh2rcd13ifvqc4g","pricing_plan_id":"cebpf4jnsgd1na2vs0mg"},{"bike_id":"30d075d2-5455-4c16-a2b4-d7725a1c131a","system_id":"levelo_inurba_marseille","lat":43.2869,"lon":5.38655,"is_reserved":false,"is_disabled":false,"rental_uris":{"android":"levelo://app?vid=30d075d2-5455-4c16-a2b4-d7725a1c131a","ios":"levelo://app?vid=30d075d2-5455-4c16-a2b4-d7725a1c131a"},"vehicle_type_id":"4","last_reported":1741640915,"current_range_meters":12800,"station_id":"ce4bh492rcd13ifvqdug","pricing_plan_id":"cebpf4jnsgd1na2vs0mg"},{"bike_id":"89059245-3b8b-486d-b024-20583b4ae4d8","system_id":"levelo_inurba_marseille","lat":43.30316,"lon":5.36893,"is_reserved":false,"is_disabled":false,"rental_uris":{"android":"levelo://app?vid=89059245-3b8b-486d-b024-20583b4ae4d8","ios":"levelo://app?vid=89059245-3b8b-486d-b024-20583b4ae4d8"},"vehicle_type_id":"4","last_reported":1741640915,"current_range_meters":12800,"station_id":"ce4bgqh2rcd13ifvqc5g","pricing_plan_id":"cebpf4jnsgd1na2vs0mg"},{"bike_id":"3b920211-2668-47dc-b188-555302bf6e3e","system_id":"levelo_inurba_marseille","lat":43.33613,"lon":5.41036,"is_reserved":false,"is_disabled":false,"rental_uris":{"android":"levelo://app?vid=3b920211-2668-47dc-b188-555302bf6e3e","ios":"levelo://app?vid=3b920211-2668-47dc-b188-555302bf6e3e"},"vehicle_type_id":"4","last_reported":1741640915,"current_range_meters":12800,"station_id":"ce4bhqh2rcd13ifvqhmg","pricing_plan_id":"cebpf4jnsgd1na2vs0mg"},{"bike_id":"f640465e-8c9e-425a-8e36-08d8d5201bf6","system_id":"levelo_inurba_marseille","lat":43.23213,"lon":5.35532,"is_reserved":false,"is_disabled":false,"rental_uris":{"android":"levelo://app?vid=f640465e-8c9e-425a-8e36-08d8d5201bf6","ios":"levelo://app?vid=f640465e-8c9e-425a-8e36-08d8d5201bf6"},"vehicle_type_id":"4","last_reported":1741640915,"current_range_meters":12800,"station_id":"ce4bhu92rcd13ifvqi70","pricing_plan_id":"cebpf4jnsgd1na2vs0mg"},{"bike_id":"98d8a154-c6b2-4d96-82cd-afc7786dc4e4","system_id":"levelo_inurba_marseille","lat":43.30806,"lon":5.43519,"is_reserved":false,"is_disabled":false,"rental_uris":{"android":"levelo://app?vid=98d8a154-c6b2-4d96-82cd-afc7786dc4e4","ios":"levelo://app?vid=98d8a154-c6b2-4d96-82cd-afc7786dc4e4"},"vehicle_type_id":"4","last_reported":1741640915,"current_range_meters":12800,"station_id":"ce4bhph2rcd13ifvqheg","pricing_plan_id":"cebpf4jnsgd1na2vs0mg"},{"bike_id":"229d6555-c1cb-4114-b0d7-18be2fc2c415","system_id":"levelo_inurba_marseille","lat":43.28028,"lon":5.3695,"is_reserved":false,"is_disabled":false,"rental_uris":{"android":"levelo://app?vid=229d6555-c1cb-4114-b0d7-18be2fc2c415","ios":"levelo://app?vid=229d6555-c1cb-4114-b0d7-18be2fc2c415"},"vehicle_type_id":"4","last_reported":1741640915,"current_range_meters":12800,"station_id":"ce4bha12rcd13ifvqef0","pricing_plan_id":"cebpf4jnsgd1na2vs0mg"},{"bike_id":"58d1b5b3-d322-4418-97d0-3066ec3d9afc","system_id":"levelo_inurba_marseille","lat":43.23198,"lon":5.35541,"is_reserved":false,"is_disabled":false,"rental_uris":{"android":"levelo://app?vid=58d1b5b3-d322-4418-97d0-3066ec3d9afc","ios":"levelo://app?vid=58d1b5b3-d322-4418-97d0-3066ec3d9afc"},"vehicle_type_id":"4","last_reported":1741640915,"current_range_meters":12800,"station_id":"ce4bhu92rcd13ifvqi70","pricing_plan_id":"cebpf4jnsgd1na2vs0mg"},{"bike_id":"239daea1-d6b9-43b3-a1da-412c2567e506","system_id":"levelo_inurba_marseille","lat":43.30802,"lon":5.43514,"is_reserved":false,"is_disabled":false,"rental_uris":{"android":"levelo://app?vid=239daea1-d6b9-43b3-a1da-412c2567e506","ios":"levelo://app?vid=239daea1-d6b9-43b3-a1da-412c2567e506"},"vehicle_type_id":"4","last_reported":1741640915,"current_range_meters":12800,"station_id":"ce4bhph2rcd13ifvqheg","pricing_plan_id":"cebpf4jnsgd1na2vs0mg"},{"bike_id":"6423918c-790a-4fd7-b29d-6d9df26db5f9","system_id":"levelo_inurba_marseille","lat":43.29439,"lon":5.40873,"is_reserved":false,"is_disabled":false,"rental_uris":{"android":"levelo://app?vid=6423918c-790a-4fd7-b29d-6d9df26db5f9","ios":"levelo://app?vid=6423918c-790a-4fd7-b29d-6d9df26db5f9"},"vehicle_type_id":"4","last_reported":1741640915,"current_range_meters":13600,"station_id":"","pricing_plan_id":"cebpf4jnsgd1na2vs0mg"},{"bike_id":"2f915bc9-0bcd-4347-88cc-9a1fe5e31763","system_id":"levelo_inurba_marseille","lat":43.28704,"lon":5.37401,"is_reserved":false,"is_disabled":false,"rental_uris":{"android":"levelo://app?vid=2f915bc9-0bcd-4347-88cc-9a1fe5e31763","ios":"levelo://app?vid=2f915bc9-0bcd-4347-88cc-9a1fe5e31763"},"vehicle_type_id":"4","last_reported":1741640915,"current_range_meters":13600,"station_id":"ce4bh3p2rcd13ifvqdq0","pricing_plan_id":"cebpf4jnsgd1na2vs0mg"},{"bike_id":"2124a1da-168a-4a07-b64e-54eb1d3933a7","system_id":"levelo_inurba_marseille","lat":43.28103,"lon":5.37842,"is_reserved":false,"is_disabled":false,"rental_uris":{"android":"levelo://app?vid=2124a1da-168a-4a07-b64e-54eb1d3933a7","ios":"levelo://app?vid=2124a1da-168a-4a07-b64e-54eb1d3933a7"},"vehicle_type_id":"4","last_reported":1741640915,"current_range_meters":12800,"station_id":"ce4bha12rcd13ifvqee0","pricing_plan_id":"cebpf4jnsgd1na2vs0mg"},{"bike_id":"fdae8c57-1100-499f-a78a-815b16671136","system_id":"levelo_inurba_marseille","lat":43.24548,"lon":5.39533,"is_reserved":false,"is_disabled":false,"rental_uris":{"android":"levelo://app?vid=fdae8c57-1100-499f-a78a-815b16671136","ios":"levelo://app?vid=fdae8c57-1100-499f-a78a-815b16671136"},"vehicle_type_id":"4","last_reported":1741640915,"current_range_meters":13600,"station_id":"ce4bhlp2rcd13ifvqgjg","pricing_plan_id":"cebpf4jnsgd1na2vs0mg"},{"bike_id":"97ab5a90-2e98-46d6-8214-fa9173ddfa48","system_id":"levelo_inurba_marseille","lat":43.315033,"lon":5.380346,"is_reserved":false,"is_disabled":false,"rental_uris":{"android":"levelo://app?vid=97ab5a90-2e98-46d6-8214-fa9173ddfa48","ios":"levelo://app?vid=97ab5a90-2e98-46d6-8214-fa9173ddfa48"},"vehicle_type_id":"4","last_reported":1741640915,"current_range_meters":13600,"station_id":"ce4bhsp2rcd13ifvqi50","pricing_plan_id":"cebpf4jnsgd1na2vs0mg"},{"bike_id":"714996a6-64f6-41af-a68f-e639f119975d","system_id":"levelo_inurba_marseille","lat":43.25085,"lon":5.39503,"is_reserved":false,"is_disabled":true,"rental_uris":{"android":"levelo://app?vid=714996a6-64f6-41af-a68f-e639f119975d","ios":"levelo://app?vid=714996a6-64f6-41af-a68f-e639f119975d"},"vehicle_type_id":"4","last_reported":1741640915,"current_range_meters":14000,"station_id":"ce4bhm12rcd13ifvqgkg","pricing_plan_id":"cebpf4jnsgd1na2vs0mg"},{"bike_id":"e3e8ee84-c9d8-4027-b7f7-e2a74d4c2adb","system_id":"levelo_inurba_marseille","lat":43.28942,"lon":5.36402,"is_reserved":false,"is_disabled":false,"rental_uris":{"android":"levelo://app?vid=e3e8ee84-c9d8-4027-b7f7-e2a74d4c2adb","ios":"levelo://app?vid=e3e8ee84-c9d8-4027-b7f7-e2a74d4c2adb"},"vehicle_type_id":"4","last_reported":1741640915,"current_range_meters":14000,"station_id":"ce4bhc92rcd13ifvqetg","pricing_plan_id":"cebpf4jnsgd1na2vs0mg"},{"bike_id":"1ee9dbf5-b0e2-4af5-8fd1-f41f66f7bf91","system_id":"levelo_inurba_marseille","lat":43.30777,"lon":5.38124,"is_reserved":false,"is_disabled":false,"rental_uris":{"android":"levelo://app?vid=1ee9dbf5-b0e2-4af5-8fd1-f41f66f7bf91","ios":"levelo://app?vid=1ee9dbf5-b0e2-4af5-8fd1-f41f66f7bf91"},"vehicle_type_id":"4","last_reported":1741640915,"current_range_meters":14000,"station_id":"ce4bgt12rcd13ifvqce0","pricing_plan_id":"cebpf4jnsgd1na2vs0mg"},{"bike_id":"70937581-f9bc-42e0-9cc0-e3d45db3a1d5","system_id":"levelo_inurba_marseille","lat":43.282605,"lon":5.35079,"is_reserved":false,"is_disabled":false,"rental_uris":{"android":"levelo://app?vid=70937581-f9bc-42e0-9cc0-e3d45db3a1d5","ios":"levelo://app?vid=70937581-f9bc-42e0-9cc0-e3d45db3a1d5"},"vehicle_type_id":"4","last_reported":1741640915,"current_range_meters":14000,"station_id":"ce4bhbp2rcd13ifvqerg","pricing_plan_id":"cebpf4jnsgd1na2vs0mg"},{"bike_id":"9e5e5c9b-2dc0-4727-b0db-055726a9a62c","system_id":"levelo_inurba_marseille","lat":43.28406,"lon":5.37523,"is_reserved":false,"is_disabled":false,"rental_uris":{"android":"levelo://app?vid=9e5e5c9b-2dc0-4727-b0db-055726a9a62c","ios":"levelo://app?vid=9e5e5c9b-2dc0-4727-b0db-055726a9a62c"},"vehicle_type_id":"4","last_reported":1741640915,"current_range_meters":14000,"station_id":"ce4bh412rcd13ifvqds0","pricing_plan_id":"cebpf4jnsgd1na2vs0mg"},{"bike_id":"f61dba5c-8160-4a63-8f49-daffec2287bd","system_id":"levelo_inurba_marseille","lat":43.26225,"lon":5.40457,"is_reserved":false,"is_disabled":false,"rental_uris":{"android":"levelo://app?vid=f61dba5c-8160-4a63-8f49-daffec2287bd","ios":"levelo://app?vid=f61dba5c-8160-4a63-8f49-daffec2287bd"},"vehicle_type_id":"4","last_reported":1741640915,"current_range_meters":14000,"station_id":"ce4bhmh2rcd13ifvqgmg","pricing_plan_id":"cebpf4jnsgd1na2vs0mg"},{"bike_id":"7bd9e78b-c884-49a5-bbde-38a46597efa3","system_id":"levelo_inurba_marseille","lat":43.27995,"lon":5.40017,"is_reserved":false,"is_disabled":false,"rental_uris":{"android":"levelo://app?vid=7bd9e78b-c884-49a5-bbde-38a46597efa3","ios":"levelo://app?vid=7bd9e78b-c884-49a5-bbde-38a46597efa3"},"vehicle_type_id":"4","last_reported":1741640915,"current_range_meters":14000,"station_id":"ce4bho92rcd13ifvqh4g","pricing_plan_id":"cebpf4jnsgd1na2vs0mg"},{"bike_id":"aaa6117f-695a-4870-93d8-ce1ed03dac44","system_id":"levelo_inurba_marseille","lat":43.30549,"lon":5.36527,"is_reserved":false,"is_disabled":true,"rental_uris":{"android":"levelo://app?vid=aaa6117f-695a-4870-93d8-ce1ed03dac44","ios":"levelo://app?vid=aaa6117f-695a-4870-93d8-ce1ed03dac44"},"vehicle_type_id":"4","last_reported":1741640915,"current_range_meters":14400,"station_id":"ce4bgs12rcd13ifvqcag","pricing_plan_id":"cebpf4jnsgd1na2vs0mg"},{"bike_id":"37f05d3f-8f67-4488-a200-ae48f65388c1","system_id":"levelo_inurba_marseille","lat":43.30409,"lon":5.41289,"is_reserved":false,"is_disabled":false,"rental_uris":{"android":"levelo://app?vid=37f05d3f-8f67-4488-a200-ae48f65388c1","ios":"levelo://app?vid=37f05d3f-8f67-4488-a200-ae48f65388c1"},"vehicle_type_id":"4","last_reported":1741640915,"current_range_meters":14400,"station_id":"ce4bhop2rcd13ifvqh8g","pricing_plan_id":"cebpf4jnsgd1na2vs0mg"},{"bike_id":"7170985a-2d2e-4f85-93d7-2c8089780cbb","system_id":"levelo_inurba_marseille","lat":43.28159,"lon":5.42638,"is_reserved":false,"is_disabled":false,"rental_uris":{"android":"levelo://app?vid=7170985a-2d2e-4f85-93d7-2c8089780cbb","ios":"levelo://app?vid=7170985a-2d2e-4f85-93d7-2c8089780cbb"},"vehicle_type_id":"4","last_reported":1741640915,"current_range_meters":14400,"station_id":"ce4bhnh2rcd13ifvqgug","pricing_plan_id":"cebpf4jnsgd1na2vs0mg"},{"bike_id":"63efd6b9-d813-429c-b04f-99896658a589","system_id":"levelo_inurba_marseille","lat":43.279428,"lon":5.410425,"is_reserved":false,"is_disabled":false,"rental_uris":{"android":"levelo://app?vid=63efd6b9-d813-429c-b04f-99896658a589","ios":"levelo://app?vid=63efd6b9-d813-429c-b04f-99896658a589"},"vehicle_type_id":"4","last_reported":1741640915,"current_range_meters":14400,"station_id":"ce4bhnp2rcd13ifvqh0g","pricing_plan_id":"cebpf4jnsgd1na2vs0mg"},{"bike_id":"6cfff3c2-4bda-4c12-8d9e-d0c3ce19eb1b","system_id":"levelo_inurba_marseille","lat":43.29095,"lon":5.38142,"is_reserved":false,"is_disabled":false,"rental_uris":{"android":"levelo://app?vid=6cfff3c2-4bda-4c12-8d9e-d0c3ce19eb1b","ios":"levelo://app?vid=6cfff3c2-4bda-4c12-8d9e-d0c3ce19eb1b"},"vehicle_type_id":"4","last_reported":1741640915,"current_range_meters":14400,"station_id":"ce4bh512rcd13ifvqe2g","pricing_plan_id":"cebpf4jnsgd1na2vs0mg"},{"bike_id":"eae61ea7-d7a0-4e24-b5ac-1f5a2df4bfa7","system_id":"levelo_inurba_marseille","lat":43.27177,"lon":5.40997,"is_reserved":false,"is_disabled":false,"rental_uris":{"android":"levelo://app?vid=eae61ea7-d7a0-4e24-b5ac-1f5a2df4bfa7","ios":"levelo://app?vid=eae61ea7-d7a0-4e24-b5ac-1f5a2df4bfa7"},"vehicle_type_id":"4","last_reported":1741640915,"current_range_meters":14400,"station_id":"ce4bhl12rcd13ifvqgf0","pricing_plan_id":"cebpf4jnsgd1na2vs0mg"},{"bike_id":"16f5f6be-d962-46c4-8dc0-be77186dcac4","system_id":"levelo_inurba_marseille","lat":43.25126,"lon":5.4032,"is_reserved":false,"is_disabled":false,"rental_uris":{"android":"levelo://app?vid=16f5f6be-d962-46c4-8dc0-be77186dcac4","ios":"levelo://app?vid=16f5f6be-d962-46c4-8dc0-be77186dcac4"},"vehicle_type_id":"4","last_reported":1741640915,"current_range_meters":11200,"station_id":"ce4bhlh2rcd13ifvqgig","pricing_plan_id":"cebpf4jnsgd1na2vs0mg"},{"bike_id":"6247825b-5dfd-4737-b9f9-aa7055771cb8","system_id":"levelo_inurba_marseille","lat":43.28848,"lon":5.35853,"is_reserved":false,"is_disabled":false,"rental_uris":{"android":"levelo://app?vid=6247825b-5dfd-4737-b9f9-aa7055771cb8","ios":"levelo://app?vid=6247825b-5dfd-4737-b9f9-aa7055771cb8"},"vehicle_type_id":"4","last_reported":1741640915,"current_range_meters":14400,"station_id":"ce4bhb12rcd13ifvqem0","pricing_plan_id":"cebpf4jnsgd1na2vs0mg"},{"bike_id":"8788ba1f-0302-4324-8ff2-c963e4002442","system_id":"levelo_inurba_marseille","lat":43.31067,"lon":5.38344,"is_reserved":false,"is_disabled":false,"rental_uris":{"android":"levelo://app?vid=8788ba1f-0302-4324-8ff2-c963e4002442","ios":"levelo://app?vid=8788ba1f-0302-4324-8ff2-c963e4002442"},"vehicle_type_id":"4","last_reported":1741640915,"current_range_meters":14800,"station_id":"ce4bgv92rcd13ifvqcr0","pricing_plan_id":"cebpf4jnsgd1na2vs0mg"},{"bike_id":"8bf23d8f-6266-48b9-959c-b1f33cd75e0d","system_id":"levelo_inurba_marseille","lat":43.27314,"lon":5.39089,"is_reserved":false,"is_disabled":true,"rental_uris":{"android":"levelo://app?vid=8bf23d8f-6266-48b9-959c-b1f33cd75e0d","ios":"levelo://app?vid=8bf23d8f-6266-48b9-959c-b1f33cd75e0d"},"vehicle_type_id":"4","last_reported":1741640915,"current_range_meters":14800,"station_id":"ce4bhgp2rcd13ifvqfe0","pricing_plan_id":"cebpf4jnsgd1na2vs0mg"},{"bike_id":"99662287-b8db-47fa-9c76-6a6e9c800bdf","system_id":"levelo_inurba_marseille","lat":43.30401,"lon":5.41289,"is_reserved":false,"is_disabled":false,"rental_uris":{"android":"levelo://app?vid=99662287-b8db-47fa-9c76-6a6e9c800bdf","ios":"levelo://app?vid=99662287-b8db-47fa-9c76-6a6e9c800bdf"},"vehicle_type_id":"4","last_reported":1741640915,"current_range_meters":14800,"station_id":"ce4bhop2rcd13ifvqh8g","pricing_plan_id":"cebpf4jnsgd1na2vs0mg"},{"bike_id":"9acab34d-76c9-4fd5-bed6-0265a89df8bb","system_id":"levelo_inurba_marseille","lat":43.25732,"lon":5.41089,"is_reserved":false,"is_disabled":false,"rental_uris":{"android":"levelo://app?vid=9acab34d-76c9-4fd5-bed6-0265a89df8bb","ios":"levelo://app?vid=9acab34d-76c9-4fd5-bed6-0265a89df8bb"},"vehicle_type_id":"4","last_reported":1741640915,"current_range_meters":14800,"station_id":"ce4bhkp2rcd13ifvqgd0","pricing_plan_id":"cebpf4jnsgd1na2vs0mg"},{"bike_id":"deb0418b-d157-47b0-8f34-a18508ee1329","system_id":"levelo_inurba_marseille","lat":43.30579,"lon":5.36799,"is_reserved":false,"is_disabled":false,"rental_uris":{"android":"levelo://app?vid=deb0418b-d157-47b0-8f34-a18508ee1329","ios":"levelo://app?vid=deb0418b-d157-47b0-8f34-a18508ee1329"},"vehicle_type_id":"4","last_reported":1741640915,"current_range_meters":14800,"station_id":"ce4bgrp2rcd13ifvqc9g","pricing_plan_id":"cebpf4jnsgd1na2vs0mg"},{"bike_id":"25e3d1b9-451e-49bf-a160-305203be0a21","system_id":"levelo_inurba_marseille","lat":43.28175,"lon":5.42653,"is_reserved":false,"is_disabled":false,"rental_uris":{"android":"levelo://app?vid=25e3d1b9-451e-49bf-a160-305203be0a21","ios":"levelo://app?vid=25e3d1b9-451e-49bf-a160-305203be0a21"},"vehicle_type_id":"4","last_reported":1741640915,"current_range_meters":14800,"station_id":"ce4bhnh2rcd13ifvqgug","pricing_plan_id":"cebpf4jnsgd1na2vs0mg"},{"bike_id":"62c0e46f-67d4-41aa-afcf-4f33fee17934","system_id":"levelo_inurba_marseille","lat":43.29775,"lon":5.38763,"is_reserved":false,"is_disabled":false,"rental_uris":{"android":"levelo://app?vid=62c0e46f-67d4-41aa-afcf-4f33fee17934","ios":"levelo://app?vid=62c0e46f-67d4-41aa-afcf-4f33fee17934"},"vehicle_type_id":"4","last_reported":1741640915,"current_range_meters":14800,"station_id":"","pricing_plan_id":"cebpf4jnsgd1na2vs0mg"},{"bike_id":"d2fb46e0-e2b4-4c51-811d-22794158f078","system_id":"levelo_inurba_marseille","lat":43.29874,"lon":5.39729,"is_reserved":false,"is_disabled":true,"rental_uris":{"android":"levelo://app?vid=d2fb46e0-e2b4-4c51-811d-22794158f078","ios":"levelo://app?vid=d2fb46e0-e2b4-4c51-811d-22794158f078"},"vehicle_type_id":"4","last_reported":1741640915,"current_range_meters":14800,"station_id":"ce4bh0h2rcd13ifvqd50","pricing_plan_id":"cebpf4jnsgd1na2vs0mg"},{"bike_id":"565883d1-cc8a-44ba-8577-f2ece9d849c9","system_id":"levelo_inurba_marseille","lat":43.28146,"lon":5.42677,"is_reserved":false,"is_disabled":false,"rental_uris":{"android":"levelo://app?vid=565883d1-cc8a-44ba-8577-f2ece9d849c9","ios":"levelo://app?vid=565883d1-cc8a-44ba-8577-f2ece9d849c9"},"vehicle_type_id":"4","last_reported":1741640915,"current_range_meters":14800,"station_id":"ce4bhnh2rcd13ifvqgug","pricing_plan_id":"cebpf4jnsgd1na2vs0mg"},{"bike_id":"415e7a31-245d-4ead-9f33-dad092a04302","system_id":"levelo_inurba_marseille","lat":43.23064,"lon":5.35505,"is_reserved":false,"is_disabled":false,"rental_uris":{"android":"levelo://app?vid=415e7a31-245d-4ead-9f33-dad092a04302","ios":"levelo://app?vid=415e7a31-245d-4ead-9f33-dad092a04302"},"vehicle_type_id":"4","last_reported":1741640915,"current_range_meters":15200,"station_id":"cpo3342slgdg3j2ifvpg","pricing_plan_id":"cebpf4jnsgd1na2vs0mg"},{"bike_id":"02ccda15-ca98-4f66-a5ee-609c485d624e","system_id":"levelo_inurba_marseille","lat":43.2396,"lon":5.36632,"is_reserved":false,"is_disabled":false,"rental_uris":{"android":"levelo://app?vid=02ccda15-ca98-4f66-a5ee-609c485d624e","ios":"levelo://app?vid=02ccda15-ca98-4f66-a5ee-609c485d624e"},"vehicle_type_id":"4","last_reported":1741640915,"current_range_meters":15200,"station_id":"ce4bhi12rcd13ifvqfp0","pricing_plan_id":"cebpf4jnsgd1na2vs0mg"},{"bike_id":"cf84d8bf-14f0-4faf-91c9-3f63b2d72c57","system_id":"levelo_inurba_marseille","lat":43.28002,"lon":5.41664,"is_reserved":false,"is_disabled":false,"rental_uris":{"android":"levelo://app?vid=cf84d8bf-14f0-4faf-91c9-3f63b2d72c57","ios":"levelo://app?vid=cf84d8bf-14f0-4faf-91c9-3f63b2d72c57"},"vehicle_type_id":"4","last_reported":1741640915,"current_range_meters":15200,"station_id":"ce4bho12rcd13ifvqh1g","pricing_plan_id":"cebpf4jnsgd1na2vs0mg"},{"bike_id":"32ae218f-626a-4175-9dd0-f4bcf650afc3","system_id":"levelo_inurba_marseille","lat":43.28264,"lon":5.35106,"is_reserved":false,"is_disabled":false,"rental_uris":{"android":"levelo://app?vid=32ae218f-626a-4175-9dd0-f4bcf650afc3","ios":"levelo://app?vid=32ae218f-626a-4175-9dd0-f4bcf650afc3"},"vehicle_type_id":"4","last_reported":1741640915,"current_range_meters":15200,"station_id":"ce4bhbp2rcd13ifvqerg","pricing_plan_id":"cebpf4jnsgd1na2vs0mg"},{"bike_id":"53d1caad-7d2e-402c-88df-89cde4334633","system_id":"levelo_inurba_marseille","lat":43.29051,"lon":5.35914,"is_reserved":false,"is_disabled":false,"rental_uris":{"android":"levelo://app?vid=53d1caad-7d2e-402c-88df-89cde4334633","ios":"levelo://app?vid=53d1caad-7d2e-402c-88df-89cde4334633"},"vehicle_type_id":"4","last_reported":1741640915,"current_range_meters":16000,"station_id":"ce4bha92rcd13ifvqeg0","pricing_plan_id":"cebpf4jnsgd1na2vs0mg"},{"bike_id":"b2698ce2-131b-4cc0-80ad-6ad1e3fb7123","system_id":"levelo_inurba_marseille","lat":43.28003,"lon":5.40017,"is_reserved":false,"is_disabled":false,"rental_uris":{"android":"levelo://app?vid=b2698ce2-131b-4cc0-80ad-6ad1e3fb7123","ios":"levelo://app?vid=b2698ce2-131b-4cc0-80ad-6ad1e3fb7123"},"vehicle_type_id":"4","last_reported":1741640915,"current_range_meters":16000,"station_id":"ce4bho92rcd13ifvqh4g","pricing_plan_id":"cebpf4jnsgd1na2vs0mg"},{"bike_id":"cdd29a02-0905-4ed7-aa8a-6508ae564de9","system_id":"levelo_inurba_marseille","lat":43.2781,"lon":5.40712,"is_reserved":false,"is_disabled":false,"rental_uris":{"android":"levelo://app?vid=cdd29a02-0905-4ed7-aa8a-6508ae564de9","ios":"levelo://app?vid=cdd29a02-0905-4ed7-aa8a-6508ae564de9"},"vehicle_type_id":"4","last_reported":1741640915,"current_range_meters":16000,"station_id":"ce4bhnh2rcd13ifvqgtg","pricing_plan_id":"cebpf4jnsgd1na2vs0mg"},{"bike_id":"5588af87-5f0b-4ed3-a65f-5f5d17e5af34","system_id":"levelo_inurba_marseille","lat":43.28415,"lon":5.34995,"is_reserved":false,"is_disabled":false,"rental_uris":{"android":"levelo://app?vid=5588af87-5f0b-4ed3-a65f-5f5d17e5af34","ios":"levelo://app?vid=5588af87-5f0b-4ed3-a65f-5f5d17e5af34"},"vehicle_type_id":"4","last_reported":1741640915,"current_range_meters":16000,"station_id":"ce4bhbh2rcd13ifvqepg","pricing_plan_id":"cebpf4jnsgd1na2vs0mg"},{"bike_id":"1a26001d-d49a-47a3-a711-f7ff22c1c811","system_id":"levelo_inurba_marseille","lat":43.28871,"lon":5.37144,"is_reserved":false,"is_disabled":false,"rental_uris":{"android":"levelo://app?vid=1a26001d-d49a-47a3-a711-f7ff22c1c811","ios":"levelo://app?vid=1a26001d-d49a-47a3-a711-f7ff22c1c811"},"vehicle_type_id":"4","last_reported":1741640915,"current_range_meters":16000,"station_id":"","pricing_plan_id":"cebpf4jnsgd1na2vs0mg"},{"bike_id":"f3976558-232a-47ec-91c6-ef1071c74084","system_id":"levelo_inurba_marseille","lat":43.30146,"lon":5.39891,"is_reserved":false,"is_disabled":false,"rental_uris":{"android":"levelo://app?vid=f3976558-232a-47ec-91c6-ef1071c74084","ios":"levelo://app?vid=f3976558-232a-47ec-91c6-ef1071c74084"},"vehicle_type_id":"4","last_reported":1741640915,"current_range_meters":16000,"station_id":"ce4bh0h2rcd13ifvqd40","pricing_plan_id":"cebpf4jnsgd1na2vs0mg"},{"bike_id":"9ee1edb7-b9fb-4f4b-8c55-07c4d3b2fdc6","system_id":"levelo_inurba_marseille","lat":43.27934,"lon":5.39572,"is_reserved":false,"is_disabled":false,"rental_uris":{"android":"levelo://app?vid=9ee1edb7-b9fb-4f4b-8c55-07c4d3b2fdc6","ios":"levelo://app?vid=9ee1edb7-b9fb-4f4b-8c55-07c4d3b2fdc6"},"vehicle_type_id":"4","last_reported":1741640915,"current_range_meters":16000,"station_id":"ce4bhf92rcd13ifvqf40","pricing_plan_id":"cebpf4jnsgd1na2vs0mg"},{"bike_id":"7d34c987-73ce-4ca4-a4f8-fc2f3288cfda","system_id":"levelo_inurba_marseille","lat":43.24171,"lon":5.39724,"is_reserved":false,"is_disabled":false,"rental_uris":{"android":"levelo://app?vid=7d34c987-73ce-4ca4-a4f8-fc2f3288cfda","ios":"levelo://app?vid=7d34c987-73ce-4ca4-a4f8-fc2f3288cfda"},"vehicle_type_id":"4","last_reported":1741640915,"current_range_meters":16000,"station_id":"ce4bhn12rcd13ifvqgpg","pricing_plan_id":"cebpf4jnsgd1na2vs0mg"},{"bike_id":"3e37f03c-e5a4-4e97-951f-7786bb1c3928","system_id":"levelo_inurba_marseille","lat":43.23141,"lon":5.43714,"is_reserved":false,"is_disabled":false,"rental_uris":{"android":"levelo://app?vid=3e37f03c-e5a4-4e97-951f-7786bb1c3928","ios":"levelo://app?vid=3e37f03c-e5a4-4e97-951f-7786bb1c3928"},"vehicle_type_id":"4","last_reported":1741640915,"current_range_meters":16000,"station_id":"ce4bhmp2rcd13ifvqgog","pricing_plan_id":"cebpf4jnsgd1na2vs0mg"},{"bike_id":"602775d1-d9d5-416b-9611-899a0e39b82c","system_id":"levelo_inurba_marseille","lat":43.29119,"lon":5.38396,"is_reserved":false,"is_disabled":false,"rental_uris":{"android":"levelo://app?vid=602775d1-d9d5-416b-9611-899a0e39b82c","ios":"levelo://app?vid=602775d1-d9d5-416b-9611-899a0e39b82c"},"vehicle_type_id":"4","last_reported":1741640915,"current_range_meters":16000,"station_id":"","pricing_plan_id":"cebpf4jnsgd1na2vs0mg"},{"bike_id":"694cd10a-f904-4d3a-9973-83c5c80b97da","system_id":"levelo_inurba_marseille","lat":43.28932,"lon":5.3664,"is_reserved":false,"is_disabled":false,"rental_uris":{"android":"levelo://app?vid=694cd10a-f904-4d3a-9973-83c5c80b97da","ios":"levelo://app?vid=694cd10a-f904-4d3a-9973-83c5c80b97da"},"vehicle_type_id":"4","last_reported":1741640915,"current_range_meters":16000,"station_id":"ce4bhap2rcd13ifvqek0","pricing_plan_id":"cebpf4jnsgd1na2vs0mg"},{"bike_id":"ccdcd581-58af-40eb-ae3b-d6abb307bd5b","system_id":"levelo_inurba_marseille","lat":43.31074,"lon":5.38355,"is_reserved":false,"is_disabled":false,"rental_uris":{"android":"levelo://app?vid=ccdcd581-58af-40eb-ae3b-d6abb307bd5b","ios":"levelo://app?vid=ccdcd581-58af-40eb-ae3b-d6abb307bd5b"},"vehicle_type_id":"4","last_reported":1741640915,"current_range_meters":16400,"station_id":"ce4bgv92rcd13ifvqcr0","pricing_plan_id":"cebpf4jnsgd1na2vs0mg"},{"bike_id":"f6dc7e9d-be33-4c3d-b28e-234510ea7980","system_id":"levelo_inurba_marseille","lat":43.29073,"lon":5.38075,"is_reserved":false,"is_disabled":false,"rental_uris":{"android":"levelo://app?vid=f6dc7e9d-be33-4c3d-b28e-234510ea7980","ios":"levelo://app?vid=f6dc7e9d-be33-4c3d-b28e-234510ea7980"},"vehicle_type_id":"4","last_reported":1741640915,"current_range_meters":16400,"station_id":"","pricing_plan_id":"cebpf4jnsgd1na2vs0mg"},{"bike_id":"40e166c6-6763-422b-bcff-8ddeef29f02c","system_id":"levelo_inurba_marseille","lat":43.30132,"lon":5.3878,"is_reserved":false,"is_disabled":false,"rental_uris":{"android":"levelo://app?vid=40e166c6-6763-422b-bcff-8ddeef29f02c","ios":"levelo://app?vid=40e166c6-6763-422b-bcff-8ddeef29f02c"},"vehicle_type_id":"4","last_reported":1741640915,"current_range_meters":16400,"station_id":"ce4bghh2rcd13ifvqb60","pricing_plan_id":"cebpf4jnsgd1na2vs0mg"},{"bike_id":"4bf9512f-f39e-42ad-8e0a-47b30ee42124","system_id":"levelo_inurba_marseille","lat":43.28674,"lon":5.38676,"is_reserved":false,"is_disabled":false,"rental_uris":{"android":"levelo://app?vid=4bf9512f-f39e-42ad-8e0a-47b30ee42124","ios":"levelo://app?vid=4bf9512f-f39e-42ad-8e0a-47b30ee42124"},"vehicle_type_id":"4","last_reported":1741640915,"current_range_meters":16400,"station_id":"ce4bh492rcd13ifvqdug","pricing_plan_id":"cebpf4jnsgd1na2vs0mg"},{"bike_id":"729cffa0-13e0-4fad-8aca-3e634e65e80c","system_id":"levelo_inurba_marseille","lat":43.29023,"lon":5.35928,"is_reserved":false,"is_disabled":false,"rental_uris":{"android":"levelo://app?vid=729cffa0-13e0-4fad-8aca-3e634e65e80c","ios":"levelo://app?vid=729cffa0-13e0-4fad-8aca-3e634e65e80c"},"vehicle_type_id":"4","last_reported":1741640915,"current_range_meters":16400,"station_id":"ce4bha92rcd13ifvqeg0","pricing_plan_id":"cebpf4jnsgd1na2vs0mg"},{"bike_id":"2e66ac72-c323-46ef-a087-052cb2cea0bd","system_id":"levelo_inurba_marseille","lat":43.28349,"lon":5.38105,"is_reserved":false,"is_disabled":false,"rental_uris":{"android":"levelo://app?vid=2e66ac72-c323-46ef-a087-052cb2cea0bd","ios":"levelo://app?vid=2e66ac72-c323-46ef-a087-052cb2cea0bd"},"vehicle_type_id":"4","last_reported":1741640915,"current_range_meters":16800,"station_id":"ce4bh412rcd13ifvqdr0","pricing_plan_id":"cebpf4jnsgd1na2vs0mg"},{"bike_id":"2cdec81d-2593-4153-a426-2f527f1b29e2","system_id":"levelo_inurba_marseille","lat":43.23595,"lon":5.391,"is_reserved":false,"is_disabled":false,"rental_uris":{"android":"levelo://app?vid=2cdec81d-2593-4153-a426-2f527f1b29e2","ios":"levelo://app?vid=2cdec81d-2593-4153-a426-2f527f1b29e2"},"vehicle_type_id":"4","last_reported":1741640915,"current_range_meters":16800,"station_id":"","pricing_plan_id":"cebpf4jnsgd1na2vs0mg"},{"bike_id":"e9f0ddf6-c638-4a12-8ca0-d2f9784b891b","system_id":"levelo_inurba_marseille","lat":43.27812,"lon":5.4073,"is_reserved":false,"is_disabled":false,"rental_uris":{"android":"levelo://app?vid=e9f0ddf6-c638-4a12-8ca0-d2f9784b891b","ios":"levelo://app?vid=e9f0ddf6-c638-4a12-8ca0-d2f9784b891b"},"vehicle_type_id":"4","last_reported":1741640915,"current_range_meters":16800,"station_id":"ce4bhnh2rcd13ifvqgtg","pricing_plan_id":"cebpf4jnsgd1na2vs0mg"},{"bike_id":"a480f81a-52e6-4f0d-9ea9-6f4b3c2a8f74","system_id":"levelo_inurba_marseille","lat":43.30795,"lon":5.43526,"is_reserved":false,"is_disabled":false,"rental_uris":{"android":"levelo://app?vid=a480f81a-52e6-4f0d-9ea9-6f4b3c2a8f74","ios":"levelo://app?vid=a480f81a-52e6-4f0d-9ea9-6f4b3c2a8f74"},"vehicle_type_id":"4","last_reported":1741640915,"current_range_meters":16800,"station_id":"ce4bhph2rcd13ifvqheg","pricing_plan_id":"cebpf4jnsgd1na2vs0mg"},{"bike_id":"e1d637b9-c6a3-4beb-886b-6fae1d961dfa","system_id":"levelo_inurba_marseille","lat":43.32654,"lon":5.40996,"is_reserved":false,"is_disabled":false,"rental_uris":{"android":"levelo://app?vid=e1d637b9-c6a3-4beb-886b-6fae1d961dfa","ios":"levelo://app?vid=e1d637b9-c6a3-4beb-886b-6fae1d961dfa"},"vehicle_type_id":"4","last_reported":1741640915,"current_range_meters":16400,"station_id":"ce4bhpp2rcd13ifvqhgg","pricing_plan_id":"cebpf4jnsgd1na2vs0mg"},{"bike_id":"9776d519-3376-4f51-aaa3-2da63911d7cc","system_id":"levelo_inurba_marseille","lat":43.25084,"lon":5.39511,"is_reserved":false,"is_disabled":false,"rental_uris":{"android":"levelo://app?vid=9776d519-3376-4f51-aaa3-2da63911d7cc","ios":"levelo://app?vid=9776d519-3376-4f51-aaa3-2da63911d7cc"},"vehicle_type_id":"4","last_reported":1741640915,"current_range_meters":16800,"station_id":"ce4bhm12rcd13ifvqgkg","pricing_plan_id":"cebpf4jnsgd1na2vs0mg"},{"bike_id":"1379d2e7-c153-4a42-87f1-8ff30298dd76","system_id":"levelo_inurba_marseille","lat":43.275635,"lon":5.38417,"is_reserved":false,"is_disabled":true,"rental_uris":{"android":"levelo://app?vid=1379d2e7-c153-4a42-87f1-8ff30298dd76","ios":"levelo://app?vid=1379d2e7-c153-4a42-87f1-8ff30298dd76"},"vehicle_type_id":"4","last_reported":1741640915,"current_range_meters":16800,"station_id":"","pricing_plan_id":"cebpf4jnsgd1na2vs0mg"},{"bike_id":"418c53eb-aa08-4dae-a9a3-6a519cad40e9","system_id":"levelo_inurba_marseille","lat":43.306005,"lon":5.37227,"is_reserved":false,"is_disabled":false,"rental_uris":{"android":"levelo://app?vid=418c53eb-aa08-4dae-a9a3-6a519cad40e9","ios":"levelo://app?vid=418c53eb-aa08-4dae-a9a3-6a519cad40e9"},"vehicle_type_id":"4","last_reported":1741640915,"current_range_meters":17200,"station_id":"ce4bh2h2rcd13ifvqdh0","pricing_plan_id":"cebpf4jnsgd1na2vs0mg"},{"bike_id":"433581c6-17dd-4f04-b588-bc8441917207","system_id":"levelo_inurba_marseille","lat":43.28147,"lon":5.42645,"is_reserved":false,"is_disabled":false,"rental_uris":{"android":"levelo://app?vid=433581c6-17dd-4f04-b588-bc8441917207","ios":"levelo://app?vid=433581c6-17dd-4f04-b588-bc8441917207"},"vehicle_type_id":"4","last_reported":1741640915,"current_range_meters":17200,"station_id":"ce4bhnh2rcd13ifvqgug","pricing_plan_id":"cebpf4jnsgd1na2vs0mg"},{"bike_id":"349ff9f9-1017-4af8-9e62-947604edb6b7","system_id":"levelo_inurba_marseille","lat":43.27991,"lon":5.40013,"is_reserved":false,"is_disabled":false,"rental_uris":{"android":"levelo://app?vid=349ff9f9-1017-4af8-9e62-947604edb6b7","ios":"levelo://app?vid=349ff9f9-1017-4af8-9e62-947604edb6b7"},"vehicle_type_id":"4","last_reported":1741640915,"current_range_meters":17200,"station_id":"ce4bho92rcd13ifvqh4g","pricing_plan_id":"cebpf4jnsgd1na2vs0mg"},{"bike_id":"2d93c67e-330c-4c7b-8517-c03567315b70","system_id":"levelo_inurba_marseille","lat":43.28153,"lon":5.42653,"is_reserved":false,"is_disabled":false,"rental_uris":{"android":"levelo://app?vid=2d93c67e-330c-4c7b-8517-c03567315b70","ios":"levelo://app?vid=2d93c67e-330c-4c7b-8517-c03567315b70"},"vehicle_type_id":"4","last_reported":1741640915,"current_range_meters":17200,"station_id":"ce4bhnh2rcd13ifvqgug","pricing_plan_id":"cebpf4jnsgd1na2vs0mg"},{"bike_id":"716492ae-81b6-4ed5-8177-f4759b370b67","system_id":"levelo_inurba_marseille","lat":43.2816,"lon":5.42639,"is_reserved":false,"is_disabled":false,"rental_uris":{"android":"levelo://app?vid=716492ae-81b6-4ed5-8177-f4759b370b67","ios":"levelo://app?vid=716492ae-81b6-4ed5-8177-f4759b370b67"},"vehicle_type_id":"4","last_reported":1741640915,"current_range_meters":17200,"station_id":"ce4bhnh2rcd13ifvqgug","pricing_plan_id":"cebpf4jnsgd1na2vs0mg"},{"bike_id":"29afafe6-9314-4cd8-9aea-023139050f04","system_id":"levelo_inurba_marseille","lat":43.31592,"lon":5.36871,"is_reserved":false,"is_disabled":false,"rental_uris":{"android":"levelo://app?vid=29afafe6-9314-4cd8-9aea-023139050f04","ios":"levelo://app?vid=29afafe6-9314-4cd8-9aea-023139050f04"},"vehicle_type_id":"4","last_reported":1741640915,"current_range_meters":17200,"station_id":"","pricing_plan_id":"cebpf4jnsgd1na2vs0mg"},{"bike_id":"c1fdf776-5ff6-4f38-96ad-d3bee4a7cebb","system_id":"levelo_inurba_marseille","lat":43.23155,"lon":5.4371,"is_reserved":false,"is_disabled":false,"rental_uris":{"android":"levelo://app?vid=c1fdf776-5ff6-4f38-96ad-d3bee4a7cebb","ios":"levelo://app?vid=c1fdf776-5ff6-4f38-96ad-d3bee4a7cebb"},"vehicle_type_id":"4","last_reported":1741640915,"current_range_meters":17200,"station_id":"ce4bhmp2rcd13ifvqgog","pricing_plan_id":"cebpf4jnsgd1na2vs0mg"},{"bike_id":"85feaa69-281c-4532-9634-3954940480cf","system_id":"levelo_inurba_marseille","lat":43.26691,"lon":5.38288,"is_reserved":false,"is_disabled":true,"rental_uris":{"android":"levelo://app?vid=85feaa69-281c-4532-9634-3954940480cf","ios":"levelo://app?vid=85feaa69-281c-4532-9634-3954940480cf"},"vehicle_type_id":"4","last_reported":1741640915,"current_range_meters":17200,"station_id":"ce4bhg92rcd13ifvqf90","pricing_plan_id":"cebpf4jnsgd1na2vs0mg"},{"bike_id":"531d79c6-b6bf-46c3-a8be-b136f11a667f","system_id":"levelo_inurba_marseille","lat":43.28421,"lon":5.37528,"is_reserved":false,"is_disabled":false,"rental_uris":{"android":"levelo://app?vid=531d79c6-b6bf-46c3-a8be-b136f11a667f","ios":"levelo://app?vid=531d79c6-b6bf-46c3-a8be-b136f11a667f"},"vehicle_type_id":"4","last_reported":1741640915,"current_range_meters":17600,"station_id":"ce4bh412rcd13ifvqds0","pricing_plan_id":"cebpf4jnsgd1na2vs0mg"},{"bike_id":"5a173f57-df2b-4301-b6bb-bdcd3d63859a","system_id":"levelo_inurba_marseille","lat":43.30294,"lon":5.39224,"is_reserved":false,"is_disabled":false,"rental_uris":{"android":"levelo://app?vid=5a173f57-df2b-4301-b6bb-bdcd3d63859a","ios":"levelo://app?vid=5a173f57-df2b-4301-b6bb-bdcd3d63859a"},"vehicle_type_id":"4","last_reported":1741640915,"current_range_meters":17600,"station_id":"ce4bgkh2rcd13ifvqbk0","pricing_plan_id":"cebpf4jnsgd1na2vs0mg"},{"bike_id":"a5c23861-a5a1-42a3-8484-33b25c02b840","system_id":"levelo_inurba_marseille","lat":43.27178,"lon":5.40982,"is_reserved":false,"is_disabled":false,"rental_uris":{"android":"levelo://app?vid=a5c23861-a5a1-42a3-8484-33b25c02b840","ios":"levelo://app?vid=a5c23861-a5a1-42a3-8484-33b25c02b840"},"vehicle_type_id":"4","last_reported":1741640915,"current_range_meters":17600,"station_id":"ce4bhl12rcd13ifvqgf0","pricing_plan_id":"cebpf4jnsgd1na2vs0mg"},{"bike_id":"85d6e77e-5d13-4ede-9def-2859d033e115","system_id":"levelo_inurba_marseille","lat":43.29025,"lon":5.3998,"is_reserved":false,"is_disabled":false,"rental_uris":{"android":"levelo://app?vid=85d6e77e-5d13-4ede-9def-2859d033e115","ios":"levelo://app?vid=85d6e77e-5d13-4ede-9def-2859d033e115"},"vehicle_type_id":"4","last_reported":1741640915,"current_range_meters":17600,"station_id":"ce4bh392rcd13ifvqdm0","pricing_plan_id":"cebpf4jnsgd1na2vs0mg"},{"bike_id":"b82b5477-7e39-427d-89dc-28517f52f237","system_id":"levelo_inurba_marseille","lat":43.2684,"lon":5.41115,"is_reserved":false,"is_disabled":false,"rental_uris":{"android":"levelo://app?vid=b82b5477-7e39-427d-89dc-28517f52f237","ios":"levelo://app?vid=b82b5477-7e39-427d-89dc-28517f52f237"},"vehicle_type_id":"4","last_reported":1741640915,"current_range_meters":17600,"station_id":"","pricing_plan_id":"cebpf4jnsgd1na2vs0mg"},{"bike_id":"f0b5f6b7-161e-4c72-8f30-8d8e8d5c374f","system_id":"levelo_inurba_marseille","lat":43.24576,"lon":5.40433,"is_reserved":false,"is_disabled":false,"rental_uris":{"android":"levelo://app?vid=f0b5f6b7-161e-4c72-8f30-8d8e8d5c374f","ios":"levelo://app?vid=f0b5f6b7-161e-4c72-8f30-8d8e8d5c374f"},"vehicle_type_id":"4","last_reported":1741640915,"current_range_meters":17600,"station_id":"","pricing_plan_id":"cebpf4jnsgd1na2vs0mg"},{"bike_id":"adc75c13-38f6-4cd5-a0b9-13a8ecab8833","system_id":"levelo_inurba_marseille","lat":43.29147,"lon":5.37959,"is_reserved":false,"is_disabled":false,"rental_uris":{"android":"levelo://app?vid=adc75c13-38f6-4cd5-a0b9-13a8ecab8833","ios":"levelo://app?vid=adc75c13-38f6-4cd5-a0b9-13a8ecab8833"},"vehicle_type_id":"4","last_reported":1741640915,"current_range_meters":17600,"station_id":"ce4bhqp2rcd13ifvqhng","pricing_plan_id":"cebpf4jnsgd1na2vs0mg"},{"bike_id":"89796792-fe54-487e-bb10-7b317b67226c","system_id":"levelo_inurba_marseille","lat":43.3118,"lon":5.38726,"is_reserved":false,"is_disabled":false,"rental_uris":{"android":"levelo://app?vid=89796792-fe54-487e-bb10-7b317b67226c","ios":"levelo://app?vid=89796792-fe54-487e-bb10-7b317b67226c"},"vehicle_type_id":"4","last_reported":1741640915,"current_range_meters":17600,"station_id":"ce4bgv12rcd13ifvqcp0","pricing_plan_id":"cebpf4jnsgd1na2vs0mg"},{"bike_id":"1049f159-caa2-43d4-9433-c31a7d2e9249","system_id":"levelo_inurba_marseille","lat":43.30792,"lon":5.3815,"is_reserved":false,"is_disabled":false,"rental_uris":{"android":"levelo://app?vid=1049f159-caa2-43d4-9433-c31a7d2e9249","ios":"levelo://app?vid=1049f159-caa2-43d4-9433-c31a7d2e9249"},"vehicle_type_id":"4","last_reported":1741640915,"current_range_meters":17600,"station_id":"ce4bgt12rcd13ifvqce0","pricing_plan_id":"cebpf4jnsgd1na2vs0mg"},{"bike_id":"0e0b9e80-3172-459b-ab59-4016008cad5a","system_id":"levelo_inurba_marseille","lat":43.27373,"lon":5.36262,"is_reserved":false,"is_disabled":false,"rental_uris":{"android":"levelo://app?vid=0e0b9e80-3172-459b-ab59-4016008cad5a","ios":"levelo://app?vid=0e0b9e80-3172-459b-ab59-4016008cad5a"},"vehicle_type_id":"4","last_reported":1741640915,"current_range_meters":17600,"station_id":"ce4bhbh2rcd13ifvqeo0","pricing_plan_id":"cebpf4jnsgd1na2vs0mg"},{"bike_id":"621a3513-053c-4581-8b4f-1d615fa7cb0f","system_id":"levelo_inurba_marseille","lat":43.31335,"lon":5.38612,"is_reserved":false,"is_disabled":false,"rental_uris":{"android":"levelo://app?vid=621a3513-053c-4581-8b4f-1d615fa7cb0f","ios":"levelo://app?vid=621a3513-053c-4581-8b4f-1d615fa7cb0f"},"vehicle_type_id":"4","last_reported":1741640915,"current_range_meters":18000,"station_id":"","pricing_plan_id":"cebpf4jnsgd1na2vs0mg"},{"bike_id":"2bbfc1dc-382a-426d-814d-d24a23157160","system_id":"levelo_inurba_marseille","lat":43.28478,"lon":5.3589,"is_reserved":false,"is_disabled":false,"rental_uris":{"android":"levelo://app?vid=2bbfc1dc-382a-426d-814d-d24a23157160","ios":"levelo://app?vid=2bbfc1dc-382a-426d-814d-d24a23157160"},"vehicle_type_id":"4","last_reported":1741640915,"current_range_meters":18000,"station_id":"ce4bhah2rcd13ifvqei0","pricing_plan_id":"cebpf4jnsgd1na2vs0mg"},{"bike_id":"90e4636f-5acf-4803-a3ed-f0ba6d29d559","system_id":"levelo_inurba_marseille","lat":43.30446,"lon":5.38892,"is_reserved":false,"is_disabled":true,"rental_uris":{"android":"levelo://app?vid=90e4636f-5acf-4803-a3ed-f0ba6d29d559","ios":"levelo://app?vid=90e4636f-5acf-4803-a3ed-f0ba6d29d559"},"vehicle_type_id":"4","last_reported":1741640915,"current_range_meters":18000,"station_id":"ce4bgk12rcd13ifvqbi0","pricing_plan_id":"cebpf4jnsgd1na2vs0mg"},{"bike_id":"17b872eb-086c-460e-bcad-782a4a781cf9","system_id":"levelo_inurba_marseille","lat":43.2517,"lon":5.42575,"is_reserved":false,"is_disabled":false,"rental_uris":{"android":"levelo://app?vid=17b872eb-086c-460e-bcad-782a4a781cf9","ios":"levelo://app?vid=17b872eb-086c-460e-bcad-782a4a781cf9"},"vehicle_type_id":"4","last_reported":1741640915,"current_range_meters":18000,"station_id":"","pricing_plan_id":"cebpf4jnsgd1na2vs0mg"},{"bike_id":"7ecb9a9c-fd49-452d-9dfa-d10936e96400","system_id":"levelo_inurba_marseille","lat":43.29709,"lon":5.37705,"is_reserved":false,"is_disabled":false,"rental_uris":{"android":"levelo://app?vid=7ecb9a9c-fd49-452d-9dfa-d10936e96400","ios":"levelo://app?vid=7ecb9a9c-fd49-452d-9dfa-d10936e96400"},"vehicle_type_id":"4","last_reported":1741640915,"current_range_meters":18000,"station_id":"ce4bgkh2rcd13ifvqbl0","pricing_plan_id":"cebpf4jnsgd1na2vs0mg"},{"bike_id":"76db3eaa-1489-4959-8155-b02e7f8f20ed","system_id":"levelo_inurba_marseille","lat":43.28924,"lon":5.36636,"is_reserved":false,"is_disabled":false,"rental_uris":{"android":"levelo://app?vid=76db3eaa-1489-4959-8155-b02e7f8f20ed","ios":"levelo://app?vid=76db3eaa-1489-4959-8155-b02e7f8f20ed"},"vehicle_type_id":"4","last_reported":1741640915,"current_range_meters":18000,"station_id":"ce4bhap2rcd13ifvqek0","pricing_plan_id":"cebpf4jnsgd1na2vs0mg"},{"bike_id":"bd5a455a-1fba-43ce-a472-c91e073e744c","system_id":"levelo_inurba_marseille","lat":43.29419,"lon":5.3862,"is_reserved":false,"is_disabled":false,"rental_uris":{"android":"levelo://app?vid=bd5a455a-1fba-43ce-a472-c91e073e744c","ios":"levelo://app?vid=bd5a455a-1fba-43ce-a472-c91e073e744c"},"vehicle_type_id":"4","last_reported":1741640915,"current_range_meters":18000,"station_id":"ce4bh2h2rcd13ifvqdh0","pricing_plan_id":"cebpf4jnsgd1na2vs0mg"},{"bike_id":"1917cb3e-fd18-4d9b-b8c0-e1643a199173","system_id":"levelo_inurba_marseille","lat":43.301529,"lon":5.380884,"is_reserved":false,"is_disabled":false,"rental_uris":{"android":"levelo://app?vid=1917cb3e-fd18-4d9b-b8c0-e1643a199173","ios":"levelo://app?vid=1917cb3e-fd18-4d9b-b8c0-e1643a199173"},"vehicle_type_id":"4","last_reported":1741640915,"current_range_meters":16800,"station_id":"cki0cbj6b192h4jlfktg","pricing_plan_id":"cebpf4jnsgd1na2vs0mg"},{"bike_id":"652c282d-7522-46a8-b99a-0b970b5cdd3a","system_id":"levelo_inurba_marseille","lat":43.29569,"lon":5.39963,"is_reserved":false,"is_disabled":true,"rental_uris":{"android":"levelo://app?vid=652c282d-7522-46a8-b99a-0b970b5cdd3a","ios":"levelo://app?vid=652c282d-7522-46a8-b99a-0b970b5cdd3a"},"vehicle_type_id":"4","last_reported":1741640915,"current_range_meters":18000,"station_id":"ce4bh312rcd13ifvqdj0","pricing_plan_id":"cebpf4jnsgd1na2vs0mg"},{"bike_id":"2986eb70-91a8-48d7-bf9f-67fdb369c622","system_id":"levelo_inurba_marseille","lat":43.23186,"lon":5.39991,"is_reserved":false,"is_disabled":false,"rental_uris":{"android":"levelo://app?vid=2986eb70-91a8-48d7-bf9f-67fdb369c622","ios":"levelo://app?vid=2986eb70-91a8-48d7-bf9f-67fdb369c622"},"vehicle_type_id":"4","last_reported":1741640915,"current_range_meters":18000,"station_id":"ce4bhn12rcd13ifvqgqg","pricing_plan_id":"cebpf4jnsgd1na2vs0mg"},{"bike_id":"70f66af9-0aa6-4db1-9431-c8e34190b648","system_id":"levelo_inurba_marseille","lat":43.270516,"lon":5.402635,"is_reserved":false,"is_disabled":false,"rental_uris":{"android":"levelo://app?vid=70f66af9-0aa6-4db1-9431-c8e34190b648","ios":"levelo://app?vid=70f66af9-0aa6-4db1-9431-c8e34190b648"},"vehicle_type_id":"4","last_reported":1741640915,"current_range_meters":18000,"station_id":"ce4bhk92rcd13ifvqgc0","pricing_plan_id":"cebpf4jnsgd1na2vs0mg"},{"bike_id":"d8f8b9d4-699d-4feb-9a45-c202cb90c6f0","system_id":"levelo_inurba_marseille","lat":43.25078,"lon":5.3951,"is_reserved":false,"is_disabled":false,"rental_uris":{"android":"levelo://app?vid=d8f8b9d4-699d-4feb-9a45-c202cb90c6f0","ios":"levelo://app?vid=d8f8b9d4-699d-4feb-9a45-c202cb90c6f0"},"vehicle_type_id":"4","last_reported":1741640915,"current_range_meters":18000,"station_id":"ce4bhm12rcd13ifvqgkg","pricing_plan_id":"cebpf4jnsgd1na2vs0mg"},{"bike_id":"96ba06bf-2ecc-465c-abce-b5fef04a732c","system_id":"levelo_inurba_marseille","lat":43.27997,"lon":5.40018,"is_reserved":false,"is_disabled":false,"rental_uris":{"android":"levelo://app?vid=96ba06bf-2ecc-465c-abce-b5fef04a732c","ios":"levelo://app?vid=96ba06bf-2ecc-465c-abce-b5fef04a732c"},"vehicle_type_id":"4","last_reported":1741640915,"current_range_meters":18800,"station_id":"ce4bho92rcd13ifvqh4g","pricing_plan_id":"cebpf4jnsgd1na2vs0mg"},{"bike_id":"0c65e6ca-7494-49e4-9cfc-2bac04035b1d","system_id":"levelo_inurba_marseille","lat":43.28705,"lon":5.39992,"is_reserved":false,"is_disabled":true,"rental_uris":{"android":"levelo://app?vid=0c65e6ca-7494-49e4-9cfc-2bac04035b1d","ios":"levelo://app?vid=0c65e6ca-7494-49e4-9cfc-2bac04035b1d"},"vehicle_type_id":"4","last_reported":1741640915,"current_range_meters":18800,"station_id":"ce4bho92rcd13ifvqh3g","pricing_plan_id":"cebpf4jnsgd1na2vs0mg"},{"bike_id":"60d5af22-017b-4d95-921c-4f160845000b","system_id":"levelo_inurba_marseille","lat":43.2799,"lon":5.4005,"is_reserved":false,"is_disabled":false,"rental_uris":{"android":"levelo://app?vid=60d5af22-017b-4d95-921c-4f160845000b","ios":"levelo://app?vid=60d5af22-017b-4d95-921c-4f160845000b"},"vehicle_type_id":"4","last_reported":1741640915,"current_range_meters":18800,"station_id":"ce4bho92rcd13ifvqh4g","pricing_plan_id":"cebpf4jnsgd1na2vs0mg"},{"bike_id":"39925c8f-bdbd-4ae7-b1a9-7eff77011c57","system_id":"levelo_inurba_marseille","lat":43.24807,"lon":5.37456,"is_reserved":false,"is_disabled":false,"rental_uris":{"android":"levelo://app?vid=39925c8f-bdbd-4ae7-b1a9-7eff77011c57","ios":"levelo://app?vid=39925c8f-bdbd-4ae7-b1a9-7eff77011c57"},"vehicle_type_id":"4","last_reported":1741640915,"current_range_meters":18800,"station_id":"ce4bhgh2rcd13ifvqfb0","pricing_plan_id":"cebpf4jnsgd1na2vs0mg"},{"bike_id":"98abb632-e704-4d76-b282-59be888ae42b","system_id":"levelo_inurba_marseille","lat":43.24185,"lon":5.39723,"is_reserved":false,"is_disabled":false,"rental_uris":{"android":"levelo://app?vid=98abb632-e704-4d76-b282-59be888ae42b","ios":"levelo://app?vid=98abb632-e704-4d76-b282-59be888ae42b"},"vehicle_type_id":"4","last_reported":1741640915,"current_range_meters":18800,"station_id":"ce4bhn12rcd13ifvqgpg","pricing_plan_id":"cebpf4jnsgd1na2vs0mg"},{"bike_id":"39999d32-c470-469a-88be-e756f3fb2572","system_id":"levelo_inurba_marseille","lat":43.28954,"lon":5.39626,"is_reserved":false,"is_disabled":false,"rental_uris":{"android":"levelo://app?vid=39999d32-c470-469a-88be-e756f3fb2572","ios":"levelo://app?vid=39999d32-c470-469a-88be-e756f3fb2572"},"vehicle_type_id":"4","last_reported":1741640915,"current_range_meters":18000,"station_id":"ce4bh3h2rcd13ifvqdn0","pricing_plan_id":"cebpf4jnsgd1na2vs0mg"},{"bike_id":"85d0fee5-9e1e-4258-a604-1b615a22b292","system_id":"levelo_inurba_marseille","lat":43.31322,"lon":5.38614,"is_reserved":false,"is_disabled":false,"rental_uris":{"android":"levelo://app?vid=85d0fee5-9e1e-4258-a604-1b615a22b292","ios":"levelo://app?vid=85d0fee5-9e1e-4258-a604-1b615a22b292"},"vehicle_type_id":"4","last_reported":1741640915,"current_range_meters":18800,"station_id":"","pricing_plan_id":"cebpf4jnsgd1na2vs0mg"},{"bike_id":"dd67d184-631d-4d7b-bf8e-0ad7d3cb2c67","system_id":"levelo_inurba_marseille","lat":43.29515,"lon":5.39392,"is_reserved":false,"is_disabled":false,"rental_uris":{"android":"levelo://app?vid=dd67d184-631d-4d7b-bf8e-0ad7d3cb2c67","ios":"levelo://app?vid=dd67d184-631d-4d7b-bf8e-0ad7d3cb2c67"},"vehicle_type_id":"4","last_reported":1741640915,"current_range_meters":18800,"station_id":"ce4bh292rcd13ifvqdf0","pricing_plan_id":"cebpf4jnsgd1na2vs0mg"},