{"last_updated":1722121725,"ttl":30,"version":"2.2","data":{"bikes":[{"bike_id":"bbe25474-5571-419f-9d4e-8cd02ba31564","system_id":"levelo_inurba_marseille","lat":43.313391,"lon":5.36706,"is_reserved":false,"is_disabled":false,"rental_uris":{"android":"levelo://app?vid=bbe25474-5571-419f-9d4e-8cd02ba31564","ios":"levelo://app?vid=bbe25474-5571-419f-9d4e-8cd02ba31564"},"vehicle_type_id":"4","last_reported":1722121726,"current_range_meters":15200,"station_id":"ce4bgr92rcd13ifvqc6g","pricing_plan_id":"cebpf4jnsgd1na2vs0mg"},{"bike_id":"5d7f279a-6e6b-450a-bb18-bb6cca962463","system_id":"levelo_inurba_marseille","lat":43.313391,"lon":5.36706,"is_reserved":false,"is_disabled":false,"rental_uris":{"android":"levelo://app?vid=5d7f279a-6e6b-450a-bb18-bb6cca962463","ios":"levelo://app?vid=5d7f279a-6e6b-450a-bb18-bb6cca962463"},"vehicle_type_id":"4","last_reported":1722121726,"current_range_meters":400,"station_id":"ce4bgr92rcd13ifvqc6g","pricing_plan_id":"cebpf4jnsgd1na2vs0mg"},{"bike_id":"85f4b98a-6280-4452-86d0-e6f85e2a9225","system_id":"levelo_inurba_marseille","lat":43.314811,"lon":5.373103,"is_reserved":false,"is_disabled":false,"rental_uris":{"android":"levelo://app?vid=85f4b98a-6280-4452-86d0-e6f85e2a9225","ios":"levelo://app?vid=85f4b98a-6280-4452-86d0-e6f85e2a9225"},"vehicle_type_id":"4","last_reported":1722121726,"current_range_meters":27200,"station_id":"ce4bgt12rcd13ifvqcd0","pricing_plan_id":"cebpf4jnsgd1na2vs0mg"},{"bike_id":"2365debe-006e-46c6-a6ec-616de72ff3ff","system_id":"levelo_inurba_marseille","lat":43.30892,"lon":5.37192,"is_reserved":false,"is_disabled":false,"rental_uris":{"android":"levelo://app?vid=2365debe-006e-46c6-a6ec-616de72ff3ff","ios":"levelo://app?vid=2365debe-006e-46c6-a6ec-616de72ff3ff"},"vehicle_type_id":"4","last_reported":1722121726,"current_range_meters":31200,"station_id":"ce4bguh2rcd13ifvqckg","pricing_plan_id":"cebpf4jnsgd1na2vs0mg"},{"bike_id":"23a6336b-a068-4d5f-9b07-4cc76a7816b8","system_id":"levelo_inurba_marseille","lat":43.3146,"lon":5.37375,"is_reserved":false,"is_disabled":false,"rental_uris":{"android":"levelo://app?vid=23a6336b-a068-4d5f-9b07-4cc76a7816b8","ios":"levelo://app?vid=23a6336b-a068-4d5f-9b07-4cc76a7816b8"},"vehicle_type_id":"4","last_reported":1722121726,"current_range_meters":26800,"station_id":"","pricing_plan_id":"cebpf4jnsgd1na2vs0mg"},{"bike_id":"0f245f38-532d-4916-ac36-296daa8a399b","system_id":"levelo_inurba_marseille","lat":43.312003,"lon":5.376909,"is_reserved":false,"is_disabled":false,"rental_uris":{"android":"levelo://app?vid=0f245f38-532d-4916-ac36-296daa8a399b","ios":"levelo://app?vid=0f245f38-532d-4916-ac36-296daa8a399b"},"vehicle_type_id":"4","last_reported":1722121726,"current_range_meters":800,"station_id":"","pricing_plan_id":"cebpf4jnsgd1na2vs0mg"},{"bike_id":"64a9588c-342b-4b8f-b424-eda3aa9ec503","system_id":"levelo_inurba_marseille","lat":43.305368,"lon":5.367343,"is_reserved":false,"is_disabled":false,"rental_uris":{"android":"levelo://app?vid=64a9588c-342b-4b8f-b424-eda3aa9ec503","ios":"levelo://app?vid=64a9588c-342b-4b8f-b424-eda3aa9ec503"},"vehicle_type_id":"4","last_reported":1722121726,"current_range_meters":0,"station_id":"ce4bgrp2rcd13ifvqc9g","pricing_plan_id":"cebpf4jnsgd1na2vs0mg"},{"bike_id":"e3d2cf8e-8524-4807-921b-ccf2c973812e","system_id":"levelo_inurba_marseille","lat":43.305989,"lon":5.37225,"is_reserved":false,"is_disabled":false,"rental_uris":{"android":"levelo://app?vid=e3d2cf8e-8524-4807-921b-ccf2c973812e","ios":"levelo://app?vid=e3d2cf8e-8524-4807-921b-ccf2c973812e"},"vehicle_type_id":"4","last_reported":1722121726,"current_range_meters":30000,"station_id":"ce4bgqh2rcd13ifvqc4g","pricing_plan_id":"cebpf4jnsgd1na2vs0mg"},{"bike_id":"480f12f3-5f38-47b9-b9c0-7a8631a3612b","system_id":"levelo_inurba_marseille","lat":43.305989,"lon":5.37225,"is_reserved":false,"is_disabled":false,"rental_uris":{"android":"levelo://app?vid=480f12f3-5f38-47b9-b9c0-7a8631a3612b","ios":"levelo://app?vid=480f12f3-5f38-47b9-b9c0-7a8631a3612b"},"vehicle_type_id":"4","last_reported":1722121726,"current_range_meters":14800,"station_id":"ce4bgqh2rcd13ifvqc4g","pricing_plan_id":"cebpf4jnsgd1na2vs0mg"},{"bike_id":"4c224357-0807-49fa-8de0-edea4985fc92","system_id":"levelo_inurba_marseille","lat":43.305989,"lon":5.37225,"is_reserved":false,"is_disabled":false,"rental_uris":{"android":"levelo://app?vid=4c224357-0807-49fa-8de0-edea4985fc92","ios":"levelo://app?vid=4c224357-0807-49fa-8de0-edea4985fc92"},"vehicle_type_id":"4","last_reported":1722121726,"current_range_meters":31200,"station_id":"ce4bgqh2rcd13ifvqc4g","pricing_plan_id":"cebpf4jnsgd1na2vs0mg"},{"bike_id":"ae29117d-81e9-4cb6-a95a-d30979a8a49c","system_id":"levelo_inurba_marseille","lat":43.305989,"lon":5.37225,"is_reserved":false,"is_disabled":false,"rental_uris":{"android":"levelo://app?vid=ae29117d-81e9-4cb6-a95a-d30979a8a49c","ios":"levelo://app?vid=ae29117d-81e9-4cb6-a95a-d30979a8a49c"},"vehicle_type_id":"4","last_reported":1722121726,"current_range_meters":23200,"station_id":"ce4bgqh2rcd13ifvqc4g","pricing_plan_id":"cebpf4jnsgd1na2vs0mg"},{"bike_id":"2dacfd86-571d-43c0-8abb-f87b88a32aa3","system_id":"levelo_inurba_marseille","lat":43.305989,"lon":5.37225,"is_reserved":false,"is_disabled":false,"rental_uris":{"android":"levelo://app?vid=2dacfd86-571d-43c0-8abb-f87b88a32aa3","ios":"levelo://app?vid=2dacfd86-571d-43c0-8abb-f87b88a32aa3"},"vehicle_type_id":"4","last_reported":1722121726,"current_range_meters":4800,"station_id":"ce4bgqh2rcd13ifvqc4g","pricing_plan_id":"cebpf4jnsgd1na2vs0mg"},{"bike_id":"64c01297-c100-481d-b556-47449d8c77c3","system_id":"levelo_inurba_marseille","lat":43.31124,"lon":5.3776,"is_reserved":false,"is_disabled":false,"rental_uris":{"android":"levelo://app?vid=64c01297-c100-481d-b556-47449d8c77c3","ios":"levelo://app?vid=64c01297-c100-481d-b556-47449d8c77c3"},"vehicle_type_id":"4","last_reported":1722121726,"current_range_meters":27600,"station_id":"ce4bgt92rcd13ifvqcg0","pricing_plan_id":"cebpf4jnsgd1na2vs0mg"},{"bike_id":"3a22b20d-0d9d-4481-b7df-5f769919b509","system_id":"levelo_inurba_marseille","lat":43.311125,"lon":5.377624,"is_reserved":false,"is_disabled":false,"rental_uris":{"android":"levelo://app?vid=3a22b20d-0d9d-4481-b7df-5f769919b509","ios":"levelo://app?vid=3a22b20d-0d9d-4481-b7df-5f769919b509"},"vehicle_type_id":"4","last_reported":1722121726,"current_range_meters":7200,"station_id":"ce4bgt92rcd13ifvqcg0","pricing_plan_id":"cebpf4jnsgd1na2vs0mg"},{"bike_id":"15b76320-a087-4d53-b20d-7b782f5a9115","system_id":"levelo_inurba_marseille","lat":43.311125,"lon":5.377624,"is_reserved":false,"is_disabled":false,"rental_uris":{"android":"levelo://app?vid=15b76320-a087-4d53-b20d-7b782f5a9115","ios":"levelo://app?vid=15b76320-a087-4d53-b20d-7b782f5a9115"},"vehicle_type_id":"4","last_reported":1722121726,"current_range_meters":30800,"station_id":"ce4bgt92rcd13ifvqcg0","pricing_plan_id":"cebpf4jnsgd1na2vs0mg"},{"bike_id":"566e2ea4-a6eb-4527-9cc5-b1724b9dbdad","system_id":"levelo_inurba_marseille","lat":43.307945,"lon":5.376487,"is_reserved":false,"is_disabled":false,"rental_uris":{"android":"levelo://app?vid=566e2ea4-a6eb-4527-9cc5-b1724b9dbdad","ios":"levelo://app?vid=566e2ea4-a6eb-4527-9cc5-b1724b9dbdad"},"vehicle_type_id":"4","last_reported":1722121726,"current_range_meters":12000,"station_id":"ce4bgv92rcd13ifvqcq0","pricing_plan_id":"cebpf4jnsgd1na2vs0mg"},{"bike_id":"ed37829a-2f51-4b7d-93c2-4711c7dd296f","system_id":"levelo_inurba_marseille","lat":43.307945,"lon":5.376487,"is_reserved":false,"is_disabled":false,"rental_uris":{"android":"levelo://app?vid=ed37829a-2f51-4b7d-93c2-4711c7dd296f","ios":"levelo://app?vid=ed37829a-2f51-4b7d-93c2-4711c7dd296f"},"vehicle_type_id":"4","last_reported":1722121726,"current_range_meters":15600,"station_id":"ce4bgv92rcd13ifvqcq0","pricing_plan_id":"cebpf4jnsgd1na2vs0mg"},{"bike_id":"cbe861e5-7b2e-47c4-89ab-0c40de1f6e2a","system_id":"levelo_inurba_marseille","lat":43.307945,"lon":5.376487,"is_reserved":false,"is_disabled":false,"rental_uris":{"android":"levelo://app?vid=cbe861e5-7b2e-47c4-89ab-0c40de1f6e2a","ios":"levelo://app?vid=cbe861e5-7b2e-47c4-89ab-0c40de1f6e2a"},"vehicle_type_id":"4","last_reported":1722121726,"current_range_meters":13200,"station_id":"ce4bgv92rcd13ifvqcq0","pricing_plan_id":"cebpf4jnsgd1na2vs0mg"},{"bike_id":"3ab634b2-2cc6-4203-a1a0-0774f2b466a8","system_id":"levelo_inurba_marseille","lat":43.307945,"lon":5.376487,"is_reserved":false,"is_disabled":false,"rental_uris":{"android":"levelo://app?vid=3ab634b2-2cc6-4203-a1a0-0774f2b466a8","ios":"levelo://app?vid=3ab634b2-2cc6-4203-a1a0-0774f2b466a8"},"vehicle_type_id":"4","last_reported":1722121726,"current_range_meters":28400,"station_id":"ce4bgv92rcd13ifvqcq0","pricing_plan_id":"cebpf4jnsgd1na2vs0mg"},{"bike_id":"1b935d96-4c6a-4b66-9cb6-fd96e9e3cbb4","system_id":"levelo_inurba_marseille","lat":43.307945,"lon":5.376487,"is_reserved":false,"is_disabled":false,"rental_uris":{"android":"levelo://app?vid=1b935d96-4c6a-4b66-9cb6-fd96e9e3cbb4","ios":"levelo://app?vid=1b935d96-4c6a-4b66-9cb6-fd96e9e3cbb4"},"vehicle_type_id":"4","last_reported":1722121726,"current_range_meters":10800,"station_id":"ce4bgv92rcd13ifvqcq0","pricing_plan_id":"cebpf4jnsgd1na2vs0mg"},{"bike_id":"1911d356-3f14-4819-8104-7730ab762002","system_id":"levelo_inurba_marseille","lat":43.317075,"lon":5.377367,"is_reserved":false,"is_disabled":false,"rental_uris":{"android":"levelo://app?vid=1911d356-3f14-4819-8104-7730ab762002","ios":"levelo://app?vid=1911d356-3f14-4819-8104-7730ab762002"},"vehicle_type_id":"4","last_reported":1722121726,"current_range_meters":11600,"station_id":"ce4bgth2rcd13ifvqch0","pricing_plan_id":"cebpf4jnsgd1na2vs0mg"},{"bike_id":"8c9ac3b5-8394-4f11-a254-81c4005e754f","system_id":"levelo_inurba_marseille","lat":43.317075,"lon":5.377367,"is_reserved":false,"is_disabled":false,"rental_uris":{"android":"levelo://app?vid=8c9ac3b5-8394-4f11-a254-81c4005e754f","ios":"levelo://app?vid=8c9ac3b5-8394-4f11-a254-81c4005e754f"},"vehicle_type_id":"4","last_reported":1722121726,"current_range_meters":20400,"station_id":"ce4bgth2rcd13ifvqch0","pricing_plan_id":"cebpf4jnsgd1na2vs0mg"},{"bike_id":"ce2623d7-e957-4a2a-b583-e059331a4f65","system_id":"levelo_inurba_marseille","lat":43.317075,"lon":5.377367,"is_reserved":false,"is_disabled":false,"rental_uris":{"android":"levelo://app?vid=ce2623d7-e957-4a2a-b583-e059331a4f65","ios":"levelo://app?vid=ce2623d7-e957-4a2a-b583-e059331a4f65"},"vehicle_type_id":"4","last_reported":1722121726,"current_range_meters":28800,"station_id":"ce4bgth2rcd13ifvqch0","pricing_plan_id":"cebpf4jnsgd1na2vs0mg"},{"bike_id":"758c32af-f175-47ee-abc0-ca267043b1d6","system_id":"levelo_inurba_marseille","lat":43.317075,"lon":5.377367,"is_reserved":false,"is_disabled":false,"rental_uris":{"android":"levelo://app?vid=758c32af-f175-47ee-abc0-ca267043b1d6","ios":"levelo://app?vid=758c32af-f175-47ee-abc0-ca267043b1d6"},"vehicle_type_id":"4","last_reported":1722121726,"current_range_meters":18800,"station_id":"ce4bgth2rcd13ifvqch0","pricing_plan_id":"cebpf4jnsgd1na2vs0mg"},{"bike_id":"335ac510-43da-4036-be34-daeb21912855","system_id":"levelo_inurba_marseille","lat":43.317075,"lon":5.377367,"is_reserved":false,"is_disabled":false,"rental_uris":{"android":"levelo://app?vid=335ac510-43da-4036-be34-daeb21912855","ios":"levelo://app?vid=335ac510-43da-4036-be34-daeb21912855"},"vehicle_type_id":"4","last_reported":1722121726,"current_range_meters":7600,"station_id":"ce4bgth2rcd13ifvqch0","pricing_plan_id":"cebpf4jnsgd1na2vs0mg"},{"bike_id":"860d37f3-1fb4-4fec-a949-6d6437a511d0","system_id":"levelo_inurba_marseille","lat":43.317075,"lon":5.377367,"is_reserved":false,"is_disabled":false,"rental_uris":{"android":"levelo://app?vid=860d37f3-1fb4-4fec-a949-6d6437a511d0","ios":"levelo://app?vid=860d37f3-1fb4-4fec-a949-6d6437a511d0"},"vehicle_type_id":"4","last_reported":1722121726,"current_range_meters":12800,"station_id":"ce4bgth2rcd13ifvqch0","pricing_plan_id":"cebpf4jnsgd1na2vs0mg"},{"bike_id":"bcb60691-a1f2-4008-ae6a-b46bab0a0956","system_id":"levelo_inurba_marseille","lat":43.30304,"lon":5.368987,"is_reserved":false,"is_disabled":false,"rental_uris":{"android":"levelo://app?vid=bcb60691-a1f2-4008-ae6a-b46bab0a0956","ios":"levelo://app?vid=bcb60691-a1f2-4008-ae6a-b46bab0a0956"},"vehicle_type_id":"4","last_reported":1722121726,"current_range_meters":28000,"station_id":"ce4bgqh2rcd13ifvqc5g","pricing_plan_id":"cebpf4jnsgd1na2vs0mg"},{"bike_id":"8ef7185b-13e5-492e-a244-9b49545fe856","system_id":"levelo_inurba_marseille","lat":43.31532,"lon":5.38026,"is_reserved":false,"is_disabled":false,"rental_uris":{"android":"levelo://app?vid=8ef7185b-13e5-492e-a244-9b49545fe856","ios":"levelo://app?vid=8ef7185b-13e5-492e-a244-9b49545fe856"},"vehicle_type_id":"4","last_reported":1722121726,"current_range_meters":5200,"station_id":"ce4bhsp2rcd13ifvqi50","pricing_plan_id":"cebpf4jnsgd1na2vs0mg"},{"bike_id":"d94862d5-76da-4366-854e-734cd6989fc3","system_id":"levelo_inurba_marseille","lat":43.31531,"lon":5.38027,"is_reserved":false,"is_disabled":false,"rental_uris":{"android":"levelo://app?vid=d94862d5-76da-4366-854e-734cd6989fc3","ios":"levelo://app?vid=d94862d5-76da-4366-854e-734cd6989fc3"},"vehicle_type_id":"4","last_reported":1722121726,"current_range_meters":7200,"station_id":"ce4bhsp2rcd13ifvqi50","pricing_plan_id":"cebpf4jnsgd1na2vs0mg"},{"bike_id":"bef00ca5-bd0d-4b5d-9b9f-aef5c1dd9360","system_id":"levelo_inurba_marseille","lat":43.315289,"lon":5.380349,"is_reserved":false,"is_disabled":false,"rental_uris":{"android":"levelo://app?vid=bef00ca5-bd0d-4b5d-9b9f-aef5c1dd9360","ios":"levelo://app?vid=bef00ca5-bd0d-4b5d-9b9f-aef5c1dd9360"},"vehicle_type_id":"4","last_reported":1722121726,"current_range_meters":17200,"station_id":"ce4bhsp2rcd13ifvqi50","pricing_plan_id":"cebpf4jnsgd1na2vs0mg"},{"bike_id":"008fa898-7730-4207-860d-a89ef41f47ba","system_id":"levelo_inurba_marseille","lat":43.315289,"lon":5.380349,"is_reserved":false,"is_disabled":false,"rental_uris":{"android":"levelo://app?vid=008fa898-7730-4207-860d-a89ef41f47ba","ios":"levelo://app?vid=008fa898-7730-4207-860d-a89ef41f47ba"},"vehicle_type_id":"4","last_reported":1722121726,"current_range_meters":17600,"station_id":"ce4bhsp2rcd13ifvqi50","pricing_plan_id":"cebpf4jnsgd1na2vs0mg"},{"bike_id":"cf6d9d36-a9ce-4c51-a442-965e86d42c84","system_id":"levelo_inurba_marseille","lat":43.31547,"lon":5.38028,"is_reserved":false,"is_disabled":false,"rental_uris":{"android":"levelo://app?vid=cf6d9d36-a9ce-4c51-a442-965e86d42c84","ios":"levelo://app?vid=cf6d9d36-a9ce-4c51-a442-965e86d42c84"},"vehicle_type_id":"4","last_reported":1722121726,"current_range_meters":11200,"station_id":"ce4bhsp2rcd13ifvqi50","pricing_plan_id":"cebpf4jnsgd1na2vs0mg"},{"bike_id":"5d83d89b-4877-44d0-9701-a282a38fd579","system_id":"levelo_inurba_marseille","lat":43.308012,"lon":5.381511,"is_reserved":false,"is_disabled":false,"rental_uris":{"android":"levelo://app?vid=5d83d89b-4877-44d0-9701-a282a38fd579","ios":"levelo://app?vid=5d83d89b-4877-44d0-9701-a282a38fd579"},"vehicle_type_id":"4","last_reported":1722121726,"current_range_meters":26000,"station_id":"ce4bgt12rcd13ifvqce0","pricing_plan_id":"cebpf4jnsgd1na2vs0mg"},{"bike_id":"f0457c3e-53a0-4141-b086-b298418bd14d","system_id":"levelo_inurba_marseille","lat":43.308012,"lon":5.381511,"is_reserved":false,"is_disabled":false,"rental_uris":{"android":"levelo://app?vid=f0457c3e-53a0-4141-b086-b298418bd14d","ios":"levelo://app?vid=f0457c3e-53a0-4141-b086-b298418bd14d"},"vehicle_type_id":"4","last_reported":1722121726,"current_range_meters":0,"station_id":"ce4bgt12rcd13ifvqce0","pricing_plan_id":"cebpf4jnsgd1na2vs0mg"},{"bike_id":"91af9edf-1f3e-4fcc-b95a-2a0918f58e9d","system_id":"levelo_inurba_marseille","lat":43.308012,"lon":5.381511,"is_reserved":false,"is_disabled":false,"rental_uris":{"android":"levelo://app?vid=91af9edf-1f3e-4fcc-b95a-2a0918f58e9d","ios":"levelo://app?vid=91af9edf-1f3e-4fcc-b95a-2a0918f58e9d"},"vehicle_type_id":"4","last_reported":1722121726,"current_range_meters":21600,"station_id":"ce4bgt12rcd13ifvqce0","pricing_plan_id":"cebpf4jnsgd1na2vs0mg"},{"bike_id":"694c9e3f-eab8-4515-aff7-17849e3f7f9b","system_id":"levelo_inurba_marseille","lat":43.308012,"lon":5.381511,"is_reserved":false,"is_disabled":false,"rental_uris":{"android":"levelo://app?vid=694c9e3f-eab8-4515-aff7-17849e3f7f9b","ios":"levelo://app?vid=694c9e3f-eab8-4515-aff7-17849e3f7f9b"},"vehicle_type_id":"4","last_reported":1722121726,"current_range_meters":9200,"station_id":"ce4bgt12rcd13ifvqce0","pricing_plan_id":"cebpf4jnsgd1na2vs0mg"},{"bike_id":"acbae003-6ad3-40f0-aa7e-03b134bffd69","system_id":"levelo_inurba_marseille","lat":43.30792,"lon":5.3817,"is_reserved":false,"is_disabled":false,"rental_uris":{"android":"levelo://app?vid=acbae003-6ad3-40f0-aa7e-03b134bffd69","ios":"levelo://app?vid=acbae003-6ad3-40f0-aa7e-03b134bffd69"},"vehicle_type_id":"4","last_reported":1722121726,"current_range_meters":5600,"station_id":"ce4bgt12rcd13ifvqce0","pricing_plan_id":"cebpf4jnsgd1na2vs0mg"},{"bike_id":"939112b1-33a2-404d-9145-6f388fa81e7b","system_id":"levelo_inurba_marseille","lat":43.304606,"lon":5.379026,"is_reserved":false,"is_disabled":false,"rental_uris":{"android":"levelo://app?vid=939112b1-33a2-404d-9145-6f388fa81e7b","ios":"levelo://app?vid=939112b1-33a2-404d-9145-6f388fa81e7b"},"vehicle_type_id":"4","last_reported":1722121726,"current_range_meters":23600,"station_id":"ce4bgup2rcd13ifvqcn0","pricing_plan_id":"cebpf4jnsgd1na2vs0mg"},{"bike_id":"e3252627-5eca-4bb0-8c46-5d3862521c8f","system_id":"levelo_inurba_marseille","lat":43.304606,"lon":5.379026,"is_reserved":false,"is_disabled":false,"rental_uris":{"android":"levelo://app?vid=e3252627-5eca-4bb0-8c46-5d3862521c8f","ios":"levelo://app?vid=e3252627-5eca-4bb0-8c46-5d3862521c8f"},"vehicle_type_id":"4","last_reported":1722121726,"current_range_meters":10400,"station_id":"ce4bgup2rcd13ifvqcn0","pricing_plan_id":"cebpf4jnsgd1na2vs0mg"},{"bike_id":"74c2b451-9a98-46a8-9d5d-8999a0db260e","system_id":"levelo_inurba_marseille","lat":43.304606,"lon":5.379026,"is_reserved":false,"is_disabled":false,"rental_uris":{"android":"levelo://app?vid=74c2b451-9a98-46a8-9d5d-8999a0db260e","ios":"levelo://app?vid=74c2b451-9a98-46a8-9d5d-8999a0db260e"},"vehicle_type_id":"4","last_reported":1722121726,"current_range_meters":12400,"station_id":"ce4bgup2rcd13ifvqcn0","pricing_plan_id":"cebpf4jnsgd1na2vs0mg"},{"bike_id":"de575bab-ed95-4b2e-9c72-1c11d6c9afaa","system_id":"levelo_inurba_marseille","lat":43.30463,"lon":5.37909,"is_reserved":false,"is_disabled":false,"rental_uris":{"android":"levelo://app?vid=de575bab-ed95-4b2e-9c72-1c11d6c9afaa","ios":"levelo://app?vid=de575bab-ed95-4b2e-9c72-1c11d6c9afaa"},"vehicle_type_id":"4","last_reported":1722121726,"current_range_meters":27200,"station_id":"ce4bgup2rcd13ifvqcn0","pricing_plan_id":"cebpf4jnsgd1na2vs0mg"},{"bike_id":"f4dea794-9add-4996-9d02-b234b99860be","system_id":"levelo_inurba_marseille","lat":43.30457,"lon":5.37911,"is_reserved":false,"is_disabled":false,"rental_uris":{"android":"levelo://app?vid=f4dea794-9add-4996-9d02-b234b99860be","ios":"levelo://app?vid=f4dea794-9add-4996-9d02-b234b99860be"},"vehicle_type_id":"4","last_reported":1722121726,"current_range_meters":6800,"station_id":"ce4bgup2rcd13ifvqcn0","pricing_plan_id":"cebpf4jnsgd1na2vs0mg"},{"bike_id":"1c05e2d9-edb4-4bb7-acee-a96302ac63eb","system_id":"levelo_inurba_marseille","lat":43.324771,"lon":5.36557,"is_reserved":false,"is_disabled":false,"rental_uris":{"android":"levelo://app?vid=1c05e2d9-edb4-4bb7-acee-a96302ac63eb","ios":"levelo://app?vid=1c05e2d9-edb4-4bb7-acee-a96302ac63eb"},"vehicle_type_id":"4","last_reported":1722121726,"current_range_meters":26000,"station_id":"ce4bhs12rcd13ifvqhvg","pricing_plan_id":"cebpf4jnsgd1na2vs0mg"},{"bike_id":"a11cc635-4988-4230-bb0f-36ebabe1b8cd","system_id":"levelo_inurba_marseille","lat":43.324771,"lon":5.36557,"is_reserved":false,"is_disabled":false,"rental_uris":{"android":"levelo://app?vid=a11cc635-4988-4230-bb0f-36ebabe1b8cd","ios":"levelo://app?vid=a11cc635-4988-4230-bb0f-36ebabe1b8cd"},"vehicle_type_id":"4","last_reported":1722121726,"current_range_meters":18400,"station_id":"ce4bhs12rcd13ifvqhvg","pricing_plan_id":"cebpf4jnsgd1na2vs0mg"},{"bike_id":"2f63918a-6371-49db-8c2f-5a5eeefbb1f9","system_id":"levelo_inurba_marseille","lat":43.32478,"lon":5.3657,"is_reserved":false,"is_disabled":false,"rental_uris":{"android":"levelo://app?vid=2f63918a-6371-49db-8c2f-5a5eeefbb1f9","ios":"levelo://app?vid=2f63918a-6371-49db-8c2f-5a5eeefbb1f9"},"vehicle_type_id":"4","last_reported":1722121726,"current_range_meters":18000,"station_id":"ce4bhs12rcd13ifvqhvg","pricing_plan_id":"cebpf4jnsgd1na2vs0mg"},{"bike_id":"7fc59e34-6f40-4e8f-8e9c-e8bea02bf36c","system_id":"levelo_inurba_marseille","lat":43.324771,"lon":5.36557,"is_reserved":false,"is_disabled":false,"rental_uris":{"android":"levelo://app?vid=7fc59e34-6f40-4e8f-8e9c-e8bea02bf36c","ios":"levelo://app?vid=7fc59e34-6f40-4e8f-8e9c-e8bea02bf36c"},"vehicle_type_id":"4","last_reported":1722121726,"current_range_meters":32000,"station_id":"ce4bhs12rcd13ifvqhvg","pricing_plan_id":"cebpf4jnsgd1na2vs0mg"},{"bike_id":"4f6d7f78-6de4-4288-a1ca-f1beedc3b814","system_id":"levelo_inurba_marseille","lat":43.324771,"lon":5.36557,"is_reserved":false,"is_disabled":false,"rental_uris":{"android":"levelo://app?vid=4f6d7f78-6de4-4288-a1ca-f1beedc3b814","ios":"levelo://app?vid=4f6d7f78-6de4-4288-a1ca-f1beedc3b814"},"vehicle_type_id":"4","last_reported":1722121726,"current_range_meters":18800,"station_id":"ce4bhs12rcd13ifvqhvg","pricing_plan_id":"cebpf4jnsgd1na2vs0mg"},{"bike_id":"3b1973cc-3e92-4fc1-b567-dab2cb5a2d48","system_id":"levelo_inurba_marseille","lat":43.324771,"lon":5.36557,"is_reserved":false,"is_disabled":false,"rental_uris":{"android":"levelo://app?vid=3b1973cc-3e92-4fc1-b567-dab2cb5a2d48","ios":"levelo://app?vid=3b1973cc-3e92-4fc1-b567-dab2cb5a2d48"},"vehicle_type_id":"4","last_reported":1722121726,"current_range_meters":30800,"station_id":"ce4bhs12rcd13ifvqhvg","pricing_plan_id":"cebpf4jnsgd1na2vs0mg"},{"bike_id":"d600b238-dd90-4f9e-8c75-6e7c6cf79988","system_id":"levelo_inurba_marseille","lat":43.324771,"lon":5.36557,"is_reserved":false,"is_disabled":false,"rental_uris":{"android":"levelo://app?vid=d600b238-dd90-4f9e-8c75-6e7c6cf79988","ios":"levelo://app?vid=d600b238-dd90-4f9e-8c75-6e7c6cf79988"},"vehicle_type_id":"4","last_reported":1722121726,"current_range_meters":31200,"station_id":"ce4bhs12rcd13ifvqhvg","pricing_plan_id":"cebpf4jnsgd1na2vs0mg"},{"bike_id":"a9bb2acc-40ee-4783-9004-e4537b5713af","system_id":"levelo_inurba_marseille","lat":43.324771,"lon":5.36557,"is_reserved":false,"is_disabled":false,"rental_uris":{"android":"levelo://app?vid=a9bb2acc-40ee-4783-9004-e4537b5713af","ios":"levelo://app?vid=a9bb2acc-40ee-4783-9004-e4537b5713af"},"vehicle_type_id":"4","last_reported":1722121726,"current_range_meters":30400,"station_id":"ce4bhs12rcd13ifvqhvg","pricing_plan_id":"cebpf4jnsgd1na2vs0mg"},{"bike_id":"ae5df007-9a06-49ed-82e2-af7c858a7fde","system_id":"levelo_inurba_marseille","lat":43.324771,"lon":5.36557,"is_reserved":false,"is_disabled":false,"rental_uris":{"android":"levelo://app?vid=ae5df007-9a06-49ed-82e2-af7c858a7fde","ios":"levelo://app?vid=ae5df007-9a06-49ed-82e2-af7c858a7fde"},"vehicle_type_id":"4","last_reported":1722121726,"current_range_meters":31200,"station_id":"ce4bhs12rcd13ifvqhvg","pricing_plan_id":"cebpf4jnsgd1na2vs0mg"},{"bike_id":"a66ac8e0-210d-47ae-b5e4-243ea25de4f8","system_id":"levelo_inurba_marseille","lat":43.31078,"lon":5.38348,"is_reserved":false,"is_disabled":false,"rental_uris":{"android":"levelo://app?vid=a66ac8e0-210d-47ae-b5e4-243ea25de4f8","ios":"levelo://app?vid=a66ac8e0-210d-47ae-b5e4-243ea25de4f8"},"vehicle_type_id":"4","last_reported":1722121726,"current_range_meters":24400,"station_id":"ce4bgv92rcd13ifvqcr0","pricing_plan_id":"cebpf4jnsgd1na2vs0mg"},{"bike_id":"209b9ce1-2a35-44ec-8fa3-8e6cd308766a","system_id":"levelo_inurba_marseille","lat":43.31077,"lon":5.38348,"is_reserved":false,"is_disabled":false,"rental_uris":{"android":"levelo://app?vid=209b9ce1-2a35-44ec-8fa3-8e6cd308766a","ios":"levelo://app?vid=209b9ce1-2a35-44ec-8fa3-8e6cd308766a"},"vehicle_type_id":"4","last_reported":1722121726,"current_range_meters":15200,"station_id":"ce4bgv92rcd13ifvqcr0","pricing_plan_id":"cebpf4jnsgd1na2vs0mg"},{"bike_id":"e6b082eb-9bdb-482f-9bac-dc868b3bc469","system_id":"levelo_inurba_marseille","lat":43.31075,"lon":5.38352,"is_reserved":false,"is_disabled":false,"rental_uris":{"android":"levelo://app?vid=e6b082eb-9bdb-482f-9bac-dc868b3bc469","ios":"levelo://app?vid=e6b082eb-9bdb-482f-9bac-dc868b3bc469"},"vehicle_type_id":"4","last_reported":1722121726,"current_range_meters":22000,"station_id":"ce4bgv92rcd13ifvqcr0","pricing_plan_id":"cebpf4jnsgd1na2vs0mg"},{"bike_id":"010f27ad-f0d6-4ee6-8aa7-176267c49d25","system_id":"levelo_inurba_marseille","lat":43.310804,"lon":5.38359,"is_reserved":false,"is_disabled":false,"rental_uris":{"android":"levelo://app?vid=010f27ad-f0d6-4ee6-8aa7-176267c49d25","ios":"levelo://app?vid=010f27ad-f0d6-4ee6-8aa7-176267c49d25"},"vehicle_type_id":"4","last_reported":1722121726,"current_range_meters":12400,"station_id":"ce4bgv92rcd13ifvqcr0","pricing_plan_id":"cebpf4jnsgd1na2vs0mg"},{"bike_id":"62ae4280-1073-4378-bdc7-5090062fad22","system_id":"levelo_inurba_marseille","lat":43.310804,"lon":5.38359,"is_reserved":false,"is_disabled":false,"rental_uris":{"android":"levelo://app?vid=62ae4280-1073-4378-bdc7-5090062fad22","ios":"levelo://app?vid=62ae4280-1073-4378-bdc7-5090062fad22"},"vehicle_type_id":"4","last_reported":1722121726,"current_range_meters":18000,"station_id":"ce4bgv92rcd13ifvqcr0","pricing_plan_id":"cebpf4jnsgd1na2vs0mg"},{"bike_id":"2142b5c3-722a-4626-83d5-25b95a9cbd68","system_id":"levelo_inurba_marseille","lat":43.310804,"lon":5.38359,"is_reserved":false,"is_disabled":false,"rental_uris":{"android":"levelo://app?vid=2142b5c3-722a-4626-83d5-25b95a9cbd68","ios":"levelo://app?vid=2142b5c3-722a-4626-83d5-25b95a9cbd68"},"vehicle_type_id":"4","last_reported":1722121726,"current_range_meters":30800,"station_id":"ce4bgv92rcd13ifvqcr0","pricing_plan_id":"cebpf4jnsgd1na2vs0mg"},{"bike_id":"2726e801-19a6-44d5-ae45-a42431601d7b","system_id":"levelo_inurba_marseille","lat":43.31071,"lon":5.38355,"is_reserved":false,"is_disabled":false,"rental_uris":{"android":"levelo://app?vid=2726e801-19a6-44d5-ae45-a42431601d7b","ios":"levelo://app?vid=2726e801-19a6-44d5-ae45-a42431601d7b"},"vehicle_type_id":"4","last_reported":1722121726,"current_range_meters":29200,"station_id":"ce4bgv92rcd13ifvqcr0","pricing_plan_id":"cebpf4jnsgd1na2vs0mg"},{"bike_id":"3498bef9-dc04-4ae1-9e4e-e0c2bfa68f1f","system_id":"levelo_inurba_marseille","lat":43.310804,"lon":5.38359,"is_reserved":false,"is_disabled":false,"rental_uris":{"android":"levelo://app?vid=3498bef9-dc04-4ae1-9e4e-e0c2bfa68f1f","ios":"levelo://app?vid=3498bef9-dc04-4ae1-9e4e-e0c2bfa68f1f"},"vehicle_type_id":"4","last_reported":1722121726,"current_range_meters":22400,"station_id":"ce4bgv92rcd13ifvqcr0","pricing_plan_id":"cebpf4jnsgd1na2vs0mg"},{"bike_id":"844b0ab2-5644-4156-a94b-11f40617c288","system_id":"levelo_inurba_marseille","lat":43.310804,"lon":5.38359,"is_reserved":false,"is_disabled":false,"rental_uris":{"android":"levelo://app?vid=844b0ab2-5644-4156-a94b-11f40617c288","ios":"levelo://app?vid=844b0ab2-5644-4156-a94b-11f40617c288"},"vehicle_type_id":"4","last_reported":1722121726,"current_range_meters":15200,"station_id":"ce4bgv92rcd13ifvqcr0","pricing_plan_id":"cebpf4jnsgd1na2vs0mg"},{"bike_id":"71f9d543-8482-42d8-81e3-c5d275659ba6","system_id":"levelo_inurba_marseille","lat":43.310804,"lon":5.38359,"is_reserved":false,"is_disabled":false,"rental_uris":{"android":"levelo://app?vid=71f9d543-8482-42d8-81e3-c5d275659ba6","ios":"levelo://app?vid=71f9d543-8482-42d8-81e3-c5d275659ba6"},"vehicle_type_id":"4","last_reported":1722121726,"current_range_meters":2000,"station_id":"ce4bgv92rcd13ifvqcr0","pricing_plan_id":"cebpf4jnsgd1na2vs0mg"},{"bike_id":"d2d11d88-0849-4803-af4c-19a03090691d","system_id":"levelo_inurba_marseille","lat":43.310804,"lon":5.38359,"is_reserved":false,"is_disabled":false,"rental_uris":{"android":"levelo://app?vid=d2d11d88-0849-4803-af4c-19a03090691d","ios":"levelo://app?vid=d2d11d88-0849-4803-af4c-19a03090691d"},"vehicle_type_id":"4","last_reported":1722121726,"current_range_meters":24800,"station_id":"ce4bgv92rcd13ifvqcr0","pricing_plan_id":"cebpf4jnsgd1na2vs0mg"},{"bike_id":"02fc1663-e502-44f6-9335-0e231b025ede","system_id":"levelo_inurba_marseille","lat":43.302784,"lon":5.377158,"is_reserved":false,"is_disabled":false,"rental_uris":{"android":"levelo://app?vid=02fc1663-e502-44f6-9335-0e231b025ede","ios":"levelo://app?vid=02fc1663-e502-44f6-9335-0e231b025ede"},"vehicle_type_id":"4","last_reported":1722121726,"current_range_meters":30000,"station_id":"ce4bguh2rcd13ifvqcj0","pricing_plan_id":"cebpf4jnsgd1na2vs0mg"},{"bike_id":"a3d41058-a632-49f2-a5bb-92498c9807d3","system_id":"levelo_inurba_marseille","lat":43.301429,"lon":5.37413,"is_reserved":false,"is_disabled":false,"rental_uris":{"android":"levelo://app?vid=a3d41058-a632-49f2-a5bb-92498c9807d3","ios":"levelo://app?vid=a3d41058-a632-49f2-a5bb-92498c9807d3"},"vehicle_type_id":"4","last_reported":1722121726,"current_range_meters":4000,"station_id":"ce4bgs92rcd13ifvqcc0","pricing_plan_id":"cebpf4jnsgd1na2vs0mg"},{"bike_id":"d0d5fe8e-fc2e-4076-8193-0e83b532f319","system_id":"levelo_inurba_marseille","lat":43.301429,"lon":5.37413,"is_reserved":false,"is_disabled":false,"rental_uris":{"android":"levelo://app?vid=d0d5fe8e-fc2e-4076-8193-0e83b532f319","ios":"levelo://app?vid=d0d5fe8e-fc2e-4076-8193-0e83b532f319"},"vehicle_type_id":"4","last_reported":1722121726,"current_range_meters":18800,"station_id":"ce4bgs92rcd13ifvqcc0","pricing_plan_id":"cebpf4jnsgd1na2vs0mg"},{"bike_id":"473cd5ce-d0fd-4815-9f4b-dd4de17e407f","system_id":"levelo_inurba_marseille","lat":43.302784,"lon":5.377158,"is_reserved":false,"is_disabled":false,"rental_uris":{"android":"levelo://app?vid=473cd5ce-d0fd-4815-9f4b-dd4de17e407f","ios":"levelo://app?vid=473cd5ce-d0fd-4815-9f4b-dd4de17e407f"},"vehicle_type_id":"4","last_reported":1722121726,"current_range_meters":22800,"station_id":"ce4bguh2rcd13ifvqcj0","pricing_plan_id":"cebpf4jnsgd1na2vs0mg"},{"bike_id":"da20401e-2ec5-4e8f-b6d9-461bcfcbbce9","system_id":"levelo_inurba_marseille","lat":43.302784,"lon":5.377158,"is_reserved":false,"is_disabled":false,"rental_uris":{"android":"levelo://app?vid=da20401e-2ec5-4e8f-b6d9-461bcfcbbce9","ios":"levelo://app?vid=da20401e-2ec5-4e8f-b6d9-461bcfcbbce9"},"vehicle_type_id":"4","last_reported":1722121726,"current_range_meters":23200,"station_id":"ce4bguh2rcd13ifvqcj0","pricing_plan_id":"cebpf4jnsgd1na2vs0mg"},{"bike_id":"6605a8a9-a534-4f90-8f57-6e3227bcf2f1","system_id":"levelo_inurba_marseille","lat":43.31592,"lon":5.38399,"is_reserved":false,"is_disabled":false,"rental_uris":{"android":"levelo://app?vid=6605a8a9-a534-4f90-8f57-6e3227bcf2f1","ios":"levelo://app?vid=6605a8a9-a534-4f90-8f57-6e3227bcf2f1"},"vehicle_type_id":"4","last_reported":1722121726,"current_range_meters":21200,"station_id":"","pricing_plan_id":"cebpf4jnsgd1na2vs0mg"},{"bike_id":"2e48d301-b6ed-4102-b03f-f73a2381baaa","system_id":"levelo_inurba_marseille","lat":43.319935,"lon":5.381699,"is_reserved":false,"is_disabled":false,"rental_uris":{"android":"levelo://app?vid=2e48d301-b6ed-4102-b03f-f73a2381baaa","ios":"levelo://app?vid=2e48d301-b6ed-4102-b03f-f73a2381baaa"},"vehicle_type_id":"4","last_reported":1722121726,"current_range_meters":22400,"station_id":"ce4bhr12rcd13ifvqhpg","pricing_plan_id":"cebpf4jnsgd1na2vs0mg"},{"bike_id":"59e7221f-41d5-45e8-9e49-ecb13093783a","system_id":"levelo_inurba_marseille","lat":43.319935,"lon":5.381699,"is_reserved":false,"is_disabled":false,"rental_uris":{"android":"levelo://app?vid=59e7221f-41d5-45e8-9e49-ecb13093783a","ios":"levelo://app?vid=59e7221f-41d5-45e8-9e49-ecb13093783a"},"vehicle_type_id":"4","last_reported":1722121726,"current_range_meters":16800,"station_id":"ce4bhr12rcd13ifvqhpg","pricing_plan_id":"cebpf4jnsgd1na2vs0mg"},{"bike_id":"304a61d0-5f0a-4d64-a737-82335553b8da","system_id":"levelo_inurba_marseille","lat":43.319935,"lon":5.381699,"is_reserved":false,"is_disabled":false,"rental_uris":{"android":"levelo://app?vid=304a61d0-5f0a-4d64-a737-82335553b8da","ios":"levelo://app?vid=304a61d0-5f0a-4d64-a737-82335553b8da"},"vehicle_type_id":"4","last_reported":1722121726,"current_range_meters":0,"station_id":"ce4bhr12rcd13ifvqhpg","pricing_plan_id":"cebpf4jnsgd1na2vs0mg"},{"bike_id":"c32730a3-de5a-4225-86e8-10af42c331aa","system_id":"levelo_inurba_marseille","lat":43.319935,"lon":5.381699,"is_reserved":false,"is_disabled":false,"rental_uris":{"android":"levelo://app?vid=c32730a3-de5a-4225-86e8-10af42c331aa","ios":"levelo://app?vid=c32730a3-de5a-4225-86e8-10af42c331aa"},"vehicle_type_id":"4","last_reported":1722121726,"current_range_meters":29200,"station_id":"ce4bhr12rcd13ifvqhpg","pricing_plan_id":"cebpf4jnsgd1na2vs0mg"},{"bike_id":"64efb8ba-933f-47fc-b58f-b13d857f90b0","system_id":"levelo_inurba_marseille","lat":43.31597,"lon":5.38407,"is_reserved":false,"is_disabled":false,"rental_uris":{"android":"levelo://app?vid=64efb8ba-933f-47fc-b58f-b13d857f90b0","ios":"levelo://app?vid=64efb8ba-933f-47fc-b58f-b13d857f90b0"},"vehicle_type_id":"4","last_reported":1722121726,"current_range_meters":30400,"station_id":"","pricing_plan_id":"cebpf4jnsgd1na2vs0mg"},{"bike_id":"01993bfb-570a-466e-8ced-6c2b01f6a8ba","system_id":"levelo_inurba_marseille","lat":43.303383,"lon":5.3792,"is_reserved":false,"is_disabled":false,"rental_uris":{"android":"levelo://app?vid=01993bfb-570a-466e-8ced-6c2b01f6a8ba","ios":"levelo://app?vid=01993bfb-570a-466e-8ced-6c2b01f6a8ba"},"vehicle_type_id":"4","last_reported":1722121726,"current_range_meters":16000,"station_id":"","pricing_plan_id":"cebpf4jnsgd1na2vs0mg"},{"bike_id":"f88ce059-f5ef-404e-a5d0-8112a3e01d16","system_id":"levelo_inurba_marseille","lat":43.319935,"lon":5.381699,"is_reserved":false,"is_disabled":false,"rental_uris":{"android":"levelo://app?vid=f88ce059-f5ef-404e-a5d0-8112a3e01d16","ios":"levelo://app?vid=f88ce059-f5ef-404e-a5d0-8112a3e01d16"},"vehicle_type_id":"4","last_reported":1722121726,"current_range_meters":8800,"station_id":"ce4bhr12rcd13ifvqhpg","pricing_plan_id":"cebpf4jnsgd1na2vs0mg"},{"bike_id":"06f1060a-809e-48e7-b6ac-a7958dd9bc04","system_id":"levelo_inurba_marseille","lat":43.3034,"lon":5.37929,"is_reserved":false,"is_disabled":false,"rental_uris":{"android":"levelo://app?vid=06f1060a-809e-48e7-b6ac-a7958dd9bc04","ios":"levelo://app?vid=06f1060a-809e-48e7-b6ac-a7958dd9bc04"},"vehicle_type_id":"4","last_reported":1722121726,"current_range_meters":0,"station_id":"","pricing_plan_id":"cebpf4jnsgd1na2vs0mg"},{"bike_id":"7a5c07ee-3c9d-4385-a218-5ebdd4a42b22","system_id":"levelo_inurba_marseille","lat":43.313571,"lon":5.384829,"is_reserved":false,"is_disabled":false,"rental_uris":{"android":"levelo://app?vid=7a5c07ee-3c9d-4385-a218-5ebdd4a42b22","ios":"levelo://app?vid=7a5c07ee-3c9d-4385-a218-5ebdd4a42b22"},"vehicle_type_id":"4","last_reported":1722121726,"current_range_meters":8400,"station_id":"ce4bgt92rcd13ifvqcf0","pricing_plan_id":"cebpf4jnsgd1na2vs0mg"},{"bike_id":"4dfa3915-5468-4596-951f-c234a66ed64c","system_id":"levelo_inurba_marseille","lat":43.313571,"lon":5.384829,"is_reserved":false,"is_disabled":false,"rental_uris":{"android":"levelo://app?vid=4dfa3915-5468-4596-951f-c234a66ed64c","ios":"levelo://app?vid=4dfa3915-5468-4596-951f-c234a66ed64c"},"vehicle_type_id":"4","last_reported":1722121726,"current_range_meters":29200,"station_id":"ce4bgt92rcd13ifvqcf0","pricing_plan_id":"cebpf4jnsgd1na2vs0mg"},{"bike_id":"e4bf0b05-fb75-4cde-bf11-2d3c37a708a6","system_id":"levelo_inurba_marseille","lat":43.31386,"lon":5.38489,"is_reserved":false,"is_disabled":false,"rental_uris":{"android":"levelo://app?vid=e4bf0b05-fb75-4cde-bf11-2d3c37a708a6","ios":"levelo://app?vid=e4bf0b05-fb75-4cde-bf11-2d3c37a708a6"},"vehicle_type_id":"4","last_reported":1722121726,"current_range_meters":21200,"station_id":"ce4bgt92rcd13ifvqcf0","pricing_plan_id":"cebpf4jnsgd1na2vs0mg"},{"bike_id":"a3968ab2-a90c-4e78-9dbd-a70edd0ef511","system_id":"levelo_inurba_marseille","lat":43.313571,"lon":5.384829,"is_reserved":false,"is_disabled":false,"rental_uris":{"android":"levelo://app?vid=a3968ab2-a90c-4e78-9dbd-a70edd0ef511","ios":"levelo://app?vid=a3968ab2-a90c-4e78-9dbd-a70edd0ef511"},"vehicle_type_id":"4","last_reported":1722121726,"current_range_meters":5200,"station_id":"ce4bgt92rcd13ifvqcf0","pricing_plan_id":"cebpf4jnsgd1na2vs0mg"},{"bike_id":"3950ae32-56c5-4042-aa3f-8008248b880a","system_id":"levelo_inurba_marseille","lat":43.31371,"lon":5.38492,"is_reserved":false,"is_disabled":false,"rental_uris":{"android":"levelo://app?vid=3950ae32-56c5-4042-aa3f-8008248b880a","ios":"levelo://app?vid=3950ae32-56c5-4042-aa3f-8008248b880a"},"vehicle_type_id":"4","last_reported":1722121726,"current_range_meters":3600,"station_id":"ce4bgt92rcd13ifvqcf0","pricing_plan_id":"cebpf4jnsgd1na2vs0mg"},{"bike_id":"102fef06-acc5-4dd8-a4c3-4544d9b42f9a","system_id":"levelo_inurba_marseille","lat":43.313571,"lon":5.384829,"is_reserved":false,"is_disabled":false,"rental_uris":{"android":"levelo://app?vid=102fef06-acc5-4dd8-a4c3-4544d9b42f9a","ios":"levelo://app?vid=102fef06-acc5-4dd8-a4c3-4544d9b42f9a"},"vehicle_type_id":"4","last_reported":1722121726,"current_range_meters":31200,"station_id":"ce4bgt92rcd13ifvqcf0","pricing_plan_id":"cebpf4jnsgd1na2vs0mg"},{"bike_id":"e6104921-3442-4167-9429-f8d605757a68","system_id":"levelo_inurba_marseille","lat":43.313571,"lon":5.384829,"is_reserved":false,"is_disabled":false,"rental_uris":{"android":"levelo://app?vid=e6104921-3442-4167-9429-f8d605757a68","ios":"levelo://app?vid=e6104921-3442-4167-9429-f8d605757a68"},"vehicle_type_id":"4","last_reported":1722121726,"current_range_meters":16400,"station_id":"ce4bgt92rcd13ifvqcf0","pricing_plan_id":"cebpf4jnsgd1na2vs0mg"},{"bike_id":"62a58e37-962e-4506-b79c-48befacd0d52","system_id":"levelo_inurba_marseille","lat":43.313571,"lon":5.384829,"is_reserved":false,"is_disabled":false,"rental_uris":{"android":"levelo://app?vid=62a58e37-962e-4506-b79c-48befacd0d52","ios":"levelo://app?vid=62a58e37-962e-4506-b79c-48befacd0d52"},"vehicle_type_id":"4","last_reported":1722121726,"current_range_meters":9600,"station_id":"ce4bgt92rcd13ifvqcf0","pricing_plan_id":"cebpf4jnsgd1na2vs0mg"},{"bike_id":"e108370f-6307-495d-92a6-63da5e532e52","system_id":"levelo_inurba_marseille","lat":43.313571,"lon":5.384829,"is_reserved":false,"is_disabled":false,"rental_uris":{"android":"levelo://app?vid=e108370f-6307-495d-92a6-63da5e532e52","ios":"levelo://app?vid=e108370f-6307-495d-92a6-63da5e532e52"},"vehicle_type_id":"4","last_reported":1722121726,"current_range_meters":27200,"station_id":"ce4bgt92rcd13ifvqcf0","pricing_plan_id":"cebpf4jnsgd1na2vs0mg"},{"bike_id":"7aa4fb6a-7484-4f4a-8d77-fe9712114cf6","system_id":"levelo_inurba_marseille","lat":43.31362,"lon":5.384974,"is_reserved":false,"is_disabled":false,"rental_uris":{"android":"levelo://app?vid=7aa4fb6a-7484-4f4a-8d77-fe9712114cf6","ios":"levelo://app?vid=7aa4fb6a-7484-4f4a-8d77-fe9712114cf6"},"vehicle_type_id":"4","last_reported":1722121726,"current_range_meters":9600,"station_id":"ce4bgt92rcd13ifvqcf0","pricing_plan_id":"cebpf4jnsgd1na2vs0mg"},{"bike_id":"d3f39743-3af3-4116-bd1b-a5b84db31c6c","system_id":"levelo_inurba_marseille","lat":43.31362,"lon":5.38499,"is_reserved":false,"is_disabled":false,"rental_uris":{"android":"levelo://app?vid=d3f39743-3af3-4116-bd1b-a5b84db31c6c","ios":"levelo://app?vid=d3f39743-3af3-4116-bd1b-a5b84db31c6c"},"vehicle_type_id":"4","last_reported":1722121726,"current_range_meters":12400,"station_id":"ce4bgt92rcd13ifvqcf0","pricing_plan_id":"cebpf4jnsgd1na2vs0mg"},{"bike_id":"36551618-a605-44da-86bf-40cb039ed3d0","system_id":"levelo_inurba_marseille","lat":43.313571,"lon":5.384829,"is_reserved":false,"is_disabled":false,"rental_uris":{"android":"levelo://app?vid=36551618-a605-44da-86bf-40cb039ed3d0","ios":"levelo://app?vid=36551618-a605-44da-86bf-40cb039ed3d0"},"vehicle_type_id":"4","last_reported":1722121726,"current_range_meters":10000,"station_id":"ce4bgt92rcd13ifvqcf0","pricing_plan_id":"cebpf4jnsgd1na2vs0mg"},{"bike_id":"049a09b8-89a4-406f-b49c-a21f3fa01e9d","system_id":"levelo_inurba_marseille","lat":43.313571,"lon":5.384829,"is_reserved":false,"is_disabled":false,"rental_uris":{"android":"levelo://app?vid=049a09b8-89a4-406f-b49c-a21f3fa01e9d","ios":"levelo://app?vid=049a09b8-89a4-406f-b49c-a21f3fa01e9d"},"vehicle_type_id":"4","last_reported":1722121726,"current_range_meters":10400,"station_id":"ce4bgt92rcd13ifvqcf0","pricing_plan_id":"cebpf4jnsgd1na2vs0mg"},{"bike_id":"dc33b9fb-bca7-47b9-a217-8f55cc86e29e","system_id":"levelo_inurba_marseille","lat":43.31364,"lon":5.385,"is_reserved":false,"is_disabled":false,"rental_uris":{"android":"levelo://app?vid=dc33b9fb-bca7-47b9-a217-8f55cc86e29e","ios":"levelo://app?vid=dc33b9fb-bca7-47b9-a217-8f55cc86e29e"},"vehicle_type_id":"4","last_reported":1722121726,"current_range_meters":31200,"station_id":"ce4bgt92rcd13ifvqcf0","pricing_plan_id":"cebpf4jnsgd1na2vs0mg"},{"bike_id":"8de3c56a-6fd6-46af-afea-a3fe8042fee0","system_id":"levelo_inurba_marseille","lat":43.313571,"lon":5.384829,"is_reserved":false,"is_disabled":false,"rental_uris":{"android":"levelo://app?vid=8de3c56a-6fd6-46af-afea-a3fe8042fee0","ios":"levelo://app?vid=8de3c56a-6fd6-46af-afea-a3fe8042fee0"},"vehicle_type_id":"4","last_reported":1722121726,"current_range_meters":15600,"station_id":"ce4bgt92rcd13ifvqcf0","pricing_plan_id":"cebpf4jnsgd1na2vs0mg"},{"bike_id":"7aed46b6-895f-473d-86e3-deb948ff1d31","system_id":"levelo_inurba_marseille","lat":43.313571,"lon":5.384829,"is_reserved":false,"is_disabled":false,"rental_uris":{"android":"levelo://app?vid=7aed46b6-895f-473d-86e3-deb948ff1d31","ios":"levelo://app?vid=7aed46b6-895f-473d-86e3-deb948ff1d31"},"vehicle_type_id":"4","last_reported":1722121726,"current_range_meters":10000,"station_id":"ce4bgt92rcd13ifvqcf0","pricing_plan_id":"cebpf4jnsgd1na2vs0mg"},{"bike_id":"109b0923-20fc-4606-9c31-41c19b512235","system_id":"levelo_inurba_marseille","lat":43.313571,"lon":5.384829,"is_reserved":false,"is_disabled":false,"rental_uris":{"android":"levelo://app?vid=109b0923-20fc-4606-9c31-41c19b512235","ios":"levelo://app?vid=109b0923-20fc-4606-9c31-41c19b512235"},"vehicle_type_id":"4","last_reported":1722121726,"current_range_meters":11200,"station_id":"ce4bgt92rcd13ifvqcf0","pricing_plan_id":"cebpf4jnsgd1na2vs0mg"},{"bike_id":"70b348b0-e0d3-4f06-950f-1eca7c26bcd7","system_id":"levelo_inurba_marseille","lat":43.29981,"lon":5.3719,"is_reserved":false,"is_disabled":false,"rental_uris":{"android":"levelo://app?vid=70b348b0-e0d3-4f06-950f-1eca7c26bcd7","ios":"levelo://app?vid=70b348b0-e0d3-4f06-950f-1eca7c26bcd7"},"vehicle_type_id":"4","last_reported":1722121726,"current_range_meters":29200,"station_id":"","pricing_plan_id":"cebpf4jnsgd1na2vs0mg"},{"bike_id":"2d704a33-ad94-465a-a68e-73ce597b3d7b","system_id":"levelo_inurba_marseille","lat":43.30039,"lon":5.37456,"is_reserved":false,"is_disabled":false,"rental_uris":{"android":"levelo://app?vid=2d704a33-ad94-465a-a68e-73ce597b3d7b","ios":"levelo://app?vid=2d704a33-ad94-465a-a68e-73ce597b3d7b"},"vehicle_type_id":"4","last_reported":1722121726,"current_range_meters":0,"station_id":"","pricing_plan_id":"cebpf4jnsgd1na2vs0mg"},{"bike_id":"a8ac235a-a31a-4207-9548-4e907e72cbb6","system_id":"levelo_inurba_marseille","lat":43.305364,"lon":5.384119,"is_reserved":false,"is_disabled":false,"rental_uris":{"android":"levelo://app?vid=a8ac235a-a31a-4207-9548-4e907e72cbb6","ios":"levelo://app?vid=a8ac235a-a31a-4207-9548-4e907e72cbb6"},"vehicle_type_id":"4","last_reported":1722121726,"current_range_meters":22400,"station_id":"ce4bgg92rcd13ifvqb30","pricing_plan_id":"cebpf4jnsgd1na2vs0mg"},{"bike_id":"a8653e58-8068-401c-9bb5-d689c965aa04","system_id":"levelo_inurba_marseille","lat":43.305364,"lon":5.384119,"is_reserved":false,"is_disabled":false,"rental_uris":{"android":"levelo://app?vid=a8653e58-8068-401c-9bb5-d689c965aa04","ios":"levelo://app?vid=a8653e58-8068-401c-9bb5-d689c965aa04"},"vehicle_type_id":"4","last_reported":1722121726,"current_range_meters":2400,"station_id":"ce4bgg92rcd13ifvqb30","pricing_plan_id":"cebpf4jnsgd1na2vs0mg"},{"bike_id":"1ae813e7-ffaa-4917-9c4d-dc33974d2855","system_id":"levelo_inurba_marseille","lat":43.305364,"lon":5.384119,"is_reserved":false,"is_disabled":false,"rental_uris":{"android":"levelo://app?vid=1ae813e7-ffaa-4917-9c4d-dc33974d2855","ios":"levelo://app?vid=1ae813e7-ffaa-4917-9c4d-dc33974d2855"},"vehicle_type_id":"4","last_reported":1722121726,"current_range_meters":16800,"station_id":"ce4bgg92rcd13ifvqb30","pricing_plan_id":"cebpf4jnsgd1na2vs0mg"},{"bike_id":"83898b59-199a-4000-9365-9fd9e9fdb350","system_id":"levelo_inurba_marseille","lat":43.305407,"lon":5.3843,"is_reserved":false,"is_disabled":false,"rental_uris":{"android":"levelo://app?vid=83898b59-199a-4000-9365-9fd9e9fdb350","ios":"levelo://app?vid=83898b59-199a-4000-9365-9fd9e9fdb350"},"vehicle_type_id":"4","last_reported":1722121726,"current_range_meters":4800,"station_id":"ce4bgg92rcd13ifvqb30","pricing_plan_id":"cebpf4jnsgd1na2vs0mg"},{"bike_id":"164cf169-0fec-4d05-8479-fecc11318237","system_id":"levelo_inurba_marseille","lat":43.299243,"lon":5.37481,"is_reserved":false,"is_disabled":false,"rental_uris":{"android":"levelo://app?vid=164cf169-0fec-4d05-8479-fecc11318237","ios":"levelo://app?vid=164cf169-0fec-4d05-8479-fecc11318237"},"vehicle_type_id":"4","last_reported":1722121726,"current_range_meters":19600,"station_id":"ce4bgjh2rcd13ifvqbg0","pricing_plan_id":"cebpf4jnsgd1na2vs0mg"},{"bike_id":"c384e9b8-93e5-4537-bd81-16bd1d4ab8cc","system_id":"levelo_inurba_marseille","lat":43.299243,"lon":5.37481,"is_reserved":false,"is_disabled":false,"rental_uris":{"android":"levelo://app?vid=c384e9b8-93e5-4537-bd81-16bd1d4ab8cc","ios":"levelo://app?vid=c384e9b8-93e5-4537-bd81-16bd1d4ab8cc"},"vehicle_type_id":"4","last_reported":1722121726,"current_range_meters":13200,"station_id":"ce4bgjh2rcd13ifvqbg0","pricing_plan_id":"cebpf4jnsgd1na2vs0mg"},{"bike_id":"9aea7ce0-3b6c-4db9-ba41-b0e383e45582","system_id":"levelo_inurba_marseille","lat":43.311722,"lon":5.387247,"is_reserved":false,"is_disabled":false,"rental_uris":{"android":"levelo://app?vid=9aea7ce0-3b6c-4db9-ba41-b0e383e45582","ios":"levelo://app?vid=9aea7ce0-3b6c-4db9-ba41-b0e383e45582"},"vehicle_type_id":"4","last_reported":1722121726,"current_range_meters":11200,"station_id":"ce4bgv12rcd13ifvqcp0","pricing_plan_id":"cebpf4jnsgd1na2vs0mg"},{"bike_id":"bd114f9f-88dd-4485-b9cb-10ae17497bc4","system_id":"levelo_inurba_marseille","lat":43.298433,"lon":5.362774,"is_reserved":false,"is_disabled":false,"rental_uris":{"android":"levelo://app?vid=bd114f9f-88dd-4485-b9cb-10ae17497bc4","ios":"levelo://app?vid=bd114f9f-88dd-4485-b9cb-10ae17497bc4"},"vehicle_type_id":"4","last_reported":1722121726,"current_range_meters":26800,"station_id":"ce4bgpp2rcd13ifvqc3g","pricing_plan_id":"cebpf4jnsgd1na2vs0mg"},{"bike_id":"8ad7d1f0-36ba-4891-8a86-274947aa917f","system_id":"levelo_inurba_marseille","lat":43.322872,"lon":5.382756,"is_reserved":false,"is_disabled":false,"rental_uris":{"android":"levelo://app?vid=8ad7d1f0-36ba-4891-8a86-274947aa917f","ios":"levelo://app?vid=8ad7d1f0-36ba-4891-8a86-274947aa917f"},"vehicle_type_id":"4","last_reported":1722121726,"current_range_meters":25200,"station_id":"ce4bhr12rcd13ifvqhqg","pricing_plan_id":"cebpf4jnsgd1na2vs0mg"},{"bike_id":"22e41778-51bb-4239-91a8-cf2d50ed1db8","system_id":"levelo_inurba_marseille","lat":43.319,"lon":5.38648,"is_reserved":false,"is_disabled":false,"rental_uris":{"android":"levelo://app?vid=22e41778-51bb-4239-91a8-cf2d50ed1db8","ios":"levelo://app?vid=22e41778-51bb-4239-91a8-cf2d50ed1db8"},"vehicle_type_id":"4","last_reported":1722121726,"current_range_meters":30800,"station_id":"","pricing_plan_id":"cebpf4jnsgd1na2vs0mg"},{"bike_id":"9b6e2299-2616-4898-97f1-8d7ce56bfbfd","system_id":"levelo_inurba_marseille","lat":43.324008,"lon":5.382032,"is_reserved":false,"is_disabled":false,"rental_uris":{"android":"levelo://app?vid=9b6e2299-2616-4898-97f1-8d7ce56bfbfd","ios":"levelo://app?vid=9b6e2299-2616-4898-97f1-8d7ce56bfbfd"},"vehicle_type_id":"4","last_reported":1722121726,"current_range_meters":0,"station_id":"","pricing_plan_id":"cebpf4jnsgd1na2vs0mg"},{"bike_id":"5b1c2066-8654-4b69-a3c5-06f0853b5002","system_id":"levelo_inurba_marseille","lat":43.305364,"lon":5.384119,"is_reserved":false,"is_disabled":false,"rental_uris":{"android":"levelo://app?vid=5b1c2066-8654-4b69-a3c5-06f0853b5002","ios":"levelo://app?vid=5b1c2066-8654-4b69-a3c5-06f0853b5002"},"vehicle_type_id":"4","last_reported":1722121726,"current_range_meters":14400,"station_id":"ce4bgg92rcd13ifvqb30","pricing_plan_id":"cebpf4jnsgd1na2vs0mg"},{"bike_id":"a1991f3b-2831-431d-9df3-473798d52e40","system_id":"levelo_inurba_marseille","lat":43.32767,"lon":5.37503,"is_reserved":false,"is_disabled":false,"rental_uris":{"android":"levelo://app?vid=a1991f3b-2831-431d-9df3-473798d52e40","ios":"levelo://app?vid=a1991f3b-2831-431d-9df3-473798d52e40"},"vehicle_type_id":"4","last_reported":1722121726,"current_range_meters":23200,"station_id":"","pricing_plan_id":"cebpf4jnsgd1na2vs0mg"},{"bike_id":"77ebd6f7-0e15-4246-8feb-b1d720ac899a","system_id":"levelo_inurba_marseille","lat":43.300434,"lon":5.382081,"is_reserved":false,"is_disabled":false,"rental_uris":{"android":"levelo://app?vid=77ebd6f7-0e15-4246-8feb-b1d720ac899a","ios":"levelo://app?vid=77ebd6f7-0e15-4246-8feb-b1d720ac899a"},"vehicle_type_id":"4","last_reported":1722121726,"current_range_meters":17600,"station_id":"","pricing_plan_id":"cebpf4jnsgd1na2vs0mg"},{"bike_id":"01581443-f7ad-45cc-a6a3-b8edec53176f","system_id":"levelo_inurba_marseille","lat":43.296921,"lon":5.376579,"is_reserved":false,"is_disabled":false,"rental_uris":{"android":"levelo://app?vid=01581443-f7ad-45cc-a6a3-b8edec53176f","ios":"levelo://app?vid=01581443-f7ad-45cc-a6a3-b8edec53176f"},"vehicle_type_id":"4","last_reported":1722121726,"current_range_meters":7200,"station_id":"ce4bgkh2rcd13ifvqbl0","pricing_plan_id":"cebpf4jnsgd1na2vs0mg"},{"bike_id":"9817a6ff-83a5-4198-a608-79c195b32632","system_id":"levelo_inurba_marseille","lat":43.309589,"lon":5.390258,"is_reserved":false,"is_disabled":false,"rental_uris":{"android":"levelo://app?vid=9817a6ff-83a5-4198-a608-79c195b32632","ios":"levelo://app?vid=9817a6ff-83a5-4198-a608-79c195b32632"},"vehicle_type_id":"4","last_reported":1722121726,"current_range_meters":31600,"station_id":"ce4bgup2rcd13ifvqco0","pricing_plan_id":"cebpf4jnsgd1na2vs0mg"},{"bike_id":"c4db424e-585b-4c54-b16d-f4fa7198de19","system_id":"levelo_inurba_marseille","lat":43.309589,"lon":5.390258,"is_reserved":false,"is_disabled":false,"rental_uris":{"android":"levelo://app?vid=c4db424e-585b-4c54-b16d-f4fa7198de19","ios":"levelo://app?vid=c4db424e-585b-4c54-b16d-f4fa7198de19"},"vehicle_type_id":"4","last_reported":1722121726,"current_range_meters":4800,"station_id":"ce4bgup2rcd13ifvqco0","pricing_plan_id":"cebpf4jnsgd1na2vs0mg"},{"bike_id":"fc6d773b-de3b-4ac2-a83b-c124cb296bed","system_id":"levelo_inurba_marseille","lat":43.317557,"lon":5.390173,"is_reserved":false,"is_disabled":false,"rental_uris":{"android":"levelo://app?vid=fc6d773b-de3b-4ac2-a83b-c124cb296bed","ios":"levelo://app?vid=fc6d773b-de3b-4ac2-a83b-c124cb296bed"},"vehicle_type_id":"4","last_reported":1722121726,"current_range_meters":9600,"station_id":"ce4bhqp2rcd13ifvqhng","pricing_plan_id":"cebpf4jnsgd1na2vs0mg"},{"bike_id":"4496c404-3c32-4a6a-a8d4-fe28ae420eb9","system_id":"levelo_inurba_marseille","lat":43.317557,"lon":5.390173,"is_reserved":false,"is_disabled":false,"rental_uris":{"android":"levelo://app?vid=4496c404-3c32-4a6a-a8d4-fe28ae420eb9","ios":"levelo://app?vid=4496c404-3c32-4a6a-a8d4-fe28ae420eb9"},"vehicle_type_id":"4","last_reported":1722121726,"current_range_meters":16400,"station_id":"ce4bhqp2rcd13ifvqhng","pricing_plan_id":"cebpf4jnsgd1na2vs0mg"},{"bike_id":"6368e13a-5970-4ff6-baf3-b653e2d591af","system_id":"levelo_inurba_marseille","lat":43.317557,"lon":5.390173,"is_reserved":false,"is_disabled":false,"rental_uris":{"android":"levelo://app?vid=6368e13a-5970-4ff6-baf3-b653e2d591af","ios":"levelo://app?vid=6368e13a-5970-4ff6-baf3-b653e2d591af"},"vehicle_type_id":"4","last_reported":1722121726,"current_range_meters":21600,"station_id":"ce4bhqp2rcd13ifvqhng","pricing_plan_id":"cebpf4jnsgd1na2vs0mg"},{"bike_id":"ccfb9ba5-333d-4ec1-8556-46821726af77","system_id":"levelo_inurba_marseille","lat":43.317557,"lon":5.390173,"is_reserved":false,"is_disabled":false,"rental_uris":{"android":"levelo://app?vid=ccfb9ba5-333d-4ec1-8556-46821726af77","ios":"levelo://app?vid=ccfb9ba5-333d-4ec1-8556-46821726af77"},"vehicle_type_id":"4","last_reported":1722121726,"current_range_meters":31200,"station_id":"ce4bhqp2rcd13ifvqhng","pricing_plan_id":"cebpf4jnsgd1na2vs0mg"},{"bike_id":"cfa486a3-74ca-47be-94b2-cd93c6c2cb28","system_id":"levelo_inurba_marseille","lat":43.317557,"lon":5.390173,"is_reserved":false,"is_disabled":false,"rental_uris":{"android":"levelo://app?vid=cfa486a3-74ca-47be-94b2-cd93c6c2cb28","ios":"levelo://app?vid=cfa486a3-74ca-47be-94b2-cd93c6c2cb28"},"vehicle_type_id":"4","last_reported":1722121726,"current_range_meters":30000,"station_id":"ce4bhqp2rcd13ifvqhng","pricing_plan_id":"cebpf4jnsgd1na2vs0mg"},{"bike_id":"e3d81d9f-7b35-49bc-94ac-76ea14b3f795","system_id":"levelo_inurba_marseille","lat":43.317557,"lon":5.390173,"is_reserved":false,"is_disabled":false,"rental_uris":{"android":"levelo://app?vid=e3d81d9f-7b35-49bc-94ac-76ea14b3f795","ios":"levelo://app?vid=e3d81d9f-7b35-49bc-94ac-76ea14b3f795"},"vehicle_type_id":"4","last_reported":1722121726,"current_range_meters":18400,"station_id":"ce4bhqp2rcd13ifvqhng","pricing_plan_id":"cebpf4jnsgd1na2vs0mg"},{"bike_id":"d6a4a827-9200-4d1e-ae9a-30506e3a0fa6","system_id":"levelo_inurba_marseille","lat":43.317557,"lon":5.390173,"is_reserved":false,"is_disabled":false,"rental_uris":{"android":"levelo://app?vid=d6a4a827-9200-4d1e-ae9a-30506e3a0fa6","ios":"levelo://app?vid=d6a4a827-9200-4d1e-ae9a-30506e3a0fa6"},"vehicle_type_id":"4","last_reported":1722121726,"current_range_meters":20400,"station_id":"ce4bhqp2rcd13ifvqhng","pricing_plan_id":"cebpf4jnsgd1na2vs0mg"},{"bike_id":"6d8e9407-b212-4fcf-b0f6-031d73b1226a","system_id":"levelo_inurba_marseille","lat":43.317557,"lon":5.390173,"is_reserved":false,"is_disabled":false,"rental_uris":{"android":"levelo://app?vid=6d8e9407-b212-4fcf-b0f6-031d73b1226a","ios":"levelo://app?vid=6d8e9407-b212-4fcf-b0f6-031d73b1226a"},"vehicle_type_id":"4","last_reported":1722121726,"current_range_meters":31200,"station_id":"ce4bhqp2rcd13ifvqhng","pricing_plan_id":"cebpf4jnsgd1na2vs0mg"},{"bike_id":"eb03e50c-d27b-41e2-9002-7d6161bcf807","system_id":"levelo_inurba_marseille","lat":43.295748,"lon":5.37522,"is_reserved":false,"is_disabled":false,"rental_uris":{"android":"levelo://app?vid=eb03e50c-d27b-41e2-9002-7d6161bcf807","ios":"levelo://app?vid=eb03e50c-d27b-41e2-9002-7d6161bcf807"},"vehicle_type_id":"4","last_reported":1722121726,"current_range_meters":8400,"station_id":"ce4bgh92rcd13ifvqb50","pricing_plan_id":"cebpf4jnsgd1na2vs0mg"},{"bike_id":"7e1131c2-aab1-4fec-b5ef-0a873113623f","system_id":"levelo_inurba_marseille","lat":43.304274,"lon":5.388873,"is_reserved":false,"is_disabled":false,"rental_uris":{"android":"levelo://app?vid=7e1131c2-aab1-4fec-b5ef-0a873113623f","ios":"levelo://app?vid=7e1131c2-aab1-4fec-b5ef-0a873113623f"},"vehicle_type_id":"4","last_reported":1722121726,"current_range_meters":1600,"station_id":"ce4bgk12rcd13ifvqbi0","pricing_plan_id":"cebpf4jnsgd1na2vs0mg"},{"bike_id":"f634f6d8-2558-45ed-b91e-866e8bc7cb38","system_id":"levelo_inurba_marseille","lat":43.304278,"lon":5.388868,"is_reserved":false,"is_disabled":false,"rental_uris":{"android":"levelo://app?vid=f634f6d8-2558-45ed-b91e-866e8bc7cb38","ios":"levelo://app?vid=f634f6d8-2558-45ed-b91e-866e8bc7cb38"},"vehicle_type_id":"4","last_reported":1722121726,"current_range_meters":20800,"station_id":"ce4bgk12rcd13ifvqbi0","pricing_plan_id":"cebpf4jnsgd1na2vs0mg"},{"bike_id":"92952201-8ae6-4bb9-aaab-d1554fd57d61","system_id":"levelo_inurba_marseille","lat":43.304274,"lon":5.388873,"is_reserved":false,"is_disabled":false,"rental_uris":{"android":"levelo://app?vid=92952201-8ae6-4bb9-aaab-d1554fd57d61","ios":"levelo://app?vid=92952201-8ae6-4bb9-aaab-d1554fd57d61"},"vehicle_type_id":"4","last_reported":1722121726,"current_range_meters":9200,"station_id":"ce4bgk12rcd13ifvqbi0","pricing_plan_id":"cebpf4jnsgd1na2vs0mg"},{"bike_id":"e9c10d15-11fe-419a-ba4c-9e69e54d5044","system_id":"levelo_inurba_marseille","lat":43.29597,"lon":5.37723,"is_reserved":false,"is_disabled":false,"rental_uris":{"android":"levelo://app?vid=e9c10d15-11fe-419a-ba4c-9e69e54d5044","ios":"levelo://app?vid=e9c10d15-11fe-419a-ba4c-9e69e54d5044"},"vehicle_type_id":"4","last_reported":1722121726,"current_range_meters":18800,"station_id":"ce4bgi92rcd13ifvqb90","pricing_plan_id":"cebpf4jnsgd1na2vs0mg"},{"bike_id":"b1d633e1-53aa-449e-8760-910183b48922","system_id":"levelo_inurba_marseille","lat":43.296263,"lon":5.377094,"is_reserved":false,"is_disabled":false,"rental_uris":{"android":"levelo://app?vid=b1d633e1-53aa-449e-8760-910183b48922","ios":"levelo://app?vid=b1d633e1-53aa-449e-8760-910183b48922"},"vehicle_type_id":"4","last_reported":1722121726,"current_range_meters":26000,"station_id":"ce4bgi92rcd13ifvqb90","pricing_plan_id":"cebpf4jnsgd1na2vs0mg"},{"bike_id":"a0dedd49-3b24-4315-8b66-d94178475f7f","system_id":"levelo_inurba_marseille","lat":43.299717,"lon":5.384845,"is_reserved":false,"is_disabled":false,"rental_uris":{"android":"levelo://app?vid=a0dedd49-3b24-4315-8b66-d94178475f7f","ios":"levelo://app?vid=a0dedd49-3b24-4315-8b66-d94178475f7f"},"vehicle_type_id":"4","last_reported":1722121726,"current_range_meters":3200,"station_id":"ce4bgj92rcd13ifvqbd0","pricing_plan_id":"cebpf4jnsgd1na2vs0mg"},{"bike_id":"5654f65a-1d99-4b82-b711-950f566296e6","system_id":"levelo_inurba_marseille","lat":43.299717,"lon":5.384845,"is_reserved":false,"is_disabled":false,"rental_uris":{"android":"levelo://app?vid=5654f65a-1d99-4b82-b711-950f566296e6","ios":"levelo://app?vid=5654f65a-1d99-4b82-b711-950f566296e6"},"vehicle_type_id":"4","last_reported":1722121726,"current_range_meters":15200,"station_id":"ce4bgj92rcd13ifvqbd0","pricing_plan_id":"cebpf4jnsgd1na2vs0mg"},{"bike_id":"5b90da1f-a39c-465e-9812-ddffd177d609","system_id":"levelo_inurba_marseille","lat":43.29965,"lon":5.38496,"is_reserved":false,"is_disabled":false,"rental_uris":{"android":"levelo://app?vid=5b90da1f-a39c-465e-9812-ddffd177d609","ios":"levelo://app?vid=5b90da1f-a39c-465e-9812-ddffd177d609"},"vehicle_type_id":"4","last_reported":1722121726,"current_range_meters":12800,"station_id":"ce4bgj92rcd13ifvqbd0","pricing_plan_id":"cebpf4jnsgd1na2vs0mg"},{"bike_id":"12d24323-7d50-4153-b118-40be31b9efad","system_id":"levelo_inurba_marseille","lat":43.301396,"lon":5.387812,"is_reserved":false,"is_disabled":false,"rental_uris":{"android":"levelo://app?vid=12d24323-7d50-4153-b118-40be31b9efad","ios":"levelo://app?vid=12d24323-7d50-4153-b118-40be31b9efad"},"vehicle_type_id":"4","last_reported":1722121726,"current_range_meters":13600,"station_id":"ce4bghh2rcd13ifvqb60","pricing_plan_id":"cebpf4jnsgd1na2vs0mg"},{"bike_id":"e15e0c7b-cce4-42f2-bc94-ae3d1a471a15","system_id":"levelo_inurba_marseille","lat":43.323396,"lon":5.389009,"is_reserved":false,"is_disabled":false,"rental_uris":{"android":"levelo://app?vid=e15e0c7b-cce4-42f2-bc94-ae3d1a471a15","ios":"levelo://app?vid=e15e0c7b-cce4-42f2-bc94-ae3d1a471a15"},"vehicle_type_id":"4","last_reported":1722121726,"current_range_meters":5600,"station_id":"","pricing_plan_id":"cebpf4jnsgd1na2vs0mg"},{"bike_id":"9fe0d033-6375-4c2b-af2f-3ba37097ee29","system_id":"levelo_inurba_marseille","lat":43.32367,"lon":5.388836,"is_reserved":false,"is_disabled":false,"rental_uris":{"android":"levelo://app?vid=9fe0d033-6375-4c2b-af2f-3ba37097ee29","ios":"levelo://app?vid=9fe0d033-6375-4c2b-af2f-3ba37097ee29"},"vehicle_type_id":"4","last_reported":1722121726,"current_range_meters":7200,"station_id":"ce4bhqp2rcd13ifvqhog","pricing_plan_id":"cebpf4jnsgd1na2vs0mg"},{"bike_id":"caa4d158-6046-4836-b60f-41254c6196dc","system_id":"levelo_inurba_marseille","lat":43.32367,"lon":5.388836,"is_reserved":false,"is_disabled":false,"rental_uris":{"android":"levelo://app?vid=caa4d158-6046-4836-b60f-41254c6196dc","ios":"levelo://app?vid=caa4d158-6046-4836-b60f-41254c6196dc"},"vehicle_type_id":"4","last_reported":1722121726,"current_range_meters":14800,"station_id":"ce4bhqp2rcd13ifvqhog","pricing_plan_id":"cebpf4jnsgd1na2vs0mg"},{"bike_id":"dbc3e368-a8d2-4dba-bd46-0aefc801a43f","system_id":"levelo_inurba_marseille","lat":43.32367,"lon":5.388836,"is_reserved":false,"is_disabled":false,"rental_uris":{"android":"levelo://app?vid=dbc3e368-a8d2-4dba-bd46-0aefc801a43f","ios":"levelo://app?vid=dbc3e368-a8d2-4dba-bd46-0aefc801a43f"},"vehicle_type_id":"4","last_reported":1722121726,"current_range_meters":11200,"station_id":"ce4bhqp2rcd13ifvqhog","pricing_plan_id":"cebpf4jnsgd1na2vs0mg"},{"bike_id":"8a85e68b-c274-4603-b0b0-66cb64a76282","system_id":"levelo_inurba_marseille","lat":43.32367,"lon":5.388836,"is_reserved":false,"is_disabled":false,"rental_uris":{"android":"levelo://app?vid=8a85e68b-c274-4603-b0b0-66cb64a76282","ios":"levelo://app?vid=8a85e68b-c274-4603-b0b0-66cb64a76282"},"vehicle_type_id":"4","last_reported":1722121726,"current_range_meters":31200,"station_id":"ce4bhqp2rcd13ifvqhog","pricing_plan_id":"cebpf4jnsgd1na2vs0mg"},{"bike_id":"46ea21a2-842e-41c6-8baf-9934e38eacb8","system_id":"levelo_inurba_marseille","lat":43.32367,"lon":5.388836,"is_reserved":false,"is_disabled":false,"rental_uris":{"android":"levelo://app?vid=46ea21a2-842e-41c6-8baf-9934e38eacb8","ios":"levelo://app?vid=46ea21a2-842e-41c6-8baf-9934e38eacb8"},"vehicle_type_id":"4","last_reported":1722121726,"current_range_meters":31200,"station_id":"ce4bhqp2rcd13ifvqhog","pricing_plan_id":"cebpf4jnsgd1na2vs0mg"},{"bike_id":"10359813-2b7b-4730-b160-e7d4e13710d8","system_id":"levelo_inurba_marseille","lat":43.32367,"lon":5.388836,"is_reserved":false,"is_disabled":false,"rental_uris":{"android":"levelo://app?vid=10359813-2b7b-4730-b160-e7d4e13710d8","ios":"levelo://app?vid=10359813-2b7b-4730-b160-e7d4e13710d8"},"vehicle_type_id":"4","last_reported":1722121726,"current_range_meters":30400,"station_id":"ce4bhqp2rcd13ifvqhog","pricing_plan_id":"cebpf4jnsgd1na2vs0mg"},{"bike_id":"6a60a62a-575f-4518-830c-e8e47c8b46dd","system_id":"levelo_inurba_marseille","lat":43.32367,"lon":5.388836,"is_reserved":false,"is_disabled":false,"rental_uris":{"android":"levelo://app?vid=6a60a62a-575f-4518-830c-e8e47c8b46dd","ios":"levelo://app?vid=6a60a62a-575f-4518-830c-e8e47c8b46dd"},"vehicle_type_id":"4","last_reported":1722121726,"current_range_meters":1200,"station_id":"ce4bhqp2rcd13ifvqhog","pricing_plan_id":"cebpf4jnsgd1na2vs0mg"},{"bike_id":"b5f3930e-a153-4036-86db-c3e12916a35f","system_id":"levelo_inurba_marseille","lat":43.32367,"lon":5.388836,"is_reserved":false,"is_disabled":false,"rental_uris":{"android":"levelo://app?vid=b5f3930e-a153-4036-86db-c3e12916a35f","ios":"levelo://app?vid=b5f3930e-a153-4036-86db-c3e12916a35f"},"vehicle_type_id":"4","last_reported":1722121726,"current_range_meters":12800,"station_id":"ce4bhqp2rcd13ifvqhog","pricing_plan_id":"cebpf4jnsgd1na2vs0mg"},{"bike_id":"fff9ce80-e3a6-4300-a750-f133cdb858c3","system_id":"levelo_inurba_marseille","lat":43.29351,"lon":5.37132,"is_reserved":false,"is_disabled":false,"rental_uris":{"android":"levelo://app?vid=fff9ce80-e3a6-4300-a750-f133cdb858c3","ios":"levelo://app?vid=fff9ce80-e3a6-4300-a750-f133cdb858c3"},"vehicle_type_id":"4","last_reported":1722121726,"current_range_meters":12800,"station_id":"","pricing_plan_id":"cebpf4jnsgd1na2vs0mg"},{"bike_id":"cd7bbbac-ba1b-4ecc-9618-d805ee447539","system_id":"levelo_inurba_marseille","lat":43.29602,"lon":5.381084,"is_reserved":false,"is_disabled":false,"rental_uris":{"android":"levelo://app?vid=cd7bbbac-ba1b-4ecc-9618-d805ee447539","ios":"levelo://app?vid=cd7bbbac-ba1b-4ecc-9618-d805ee447539"},"vehicle_type_id":"4","last_reported":1722121726,"current_range_meters":17200,"station_id":"ce4bgl12rcd13ifvqbo0","pricing_plan_id":"cebpf4jnsgd1na2vs0mg"},{"bike_id":"2017f110-8d1b-43e9-b543-b2e50b2b3a41","system_id":"levelo_inurba_marseille","lat":43.29602,"lon":5.381084,"is_reserved":false,"is_disabled":false,"rental_uris":{"android":"levelo://app?vid=2017f110-8d1b-43e9-b543-b2e50b2b3a41","ios":"levelo://app?vid=2017f110-8d1b-43e9-b543-b2e50b2b3a41"},"vehicle_type_id":"4","last_reported":1722121726,"current_range_meters":5200,"station_id":"ce4bgl12rcd13ifvqbo0","pricing_plan_id":"cebpf4jnsgd1na2vs0mg"},{"bike_id":"ccc7d08f-a0b9-453e-ba31-6407a22c11e2","system_id":"levelo_inurba_marseille","lat":43.293259,"lon":5.371586,"is_reserved":false,"is_disabled":false,"rental_uris":{"android":"levelo://app?vid=ccc7d08f-a0b9-453e-ba31-6407a22c11e2","ios":"levelo://app?vid=ccc7d08f-a0b9-453e-ba31-6407a22c11e2"},"vehicle_type_id":"4","last_reported":1722121726,"current_range_meters":17600,"station_id":"ce4bgh92rcd13ifvqb40","pricing_plan_id":"cebpf4jnsgd1na2vs0mg"},{"bike_id":"e5e18c21-efd9-4355-9fff-e28efe9f72fe","system_id":"levelo_inurba_marseille","lat":43.29232,"lon":5.36623,"is_reserved":false,"is_disabled":false,"rental_uris":{"android":"levelo://app?vid=e5e18c21-efd9-4355-9fff-e28efe9f72fe","ios":"levelo://app?vid=e5e18c21-efd9-4355-9fff-e28efe9f72fe"},"vehicle_type_id":"4","last_reported":1722121726,"current_range_meters":0,"station_id":"","pricing_plan_id":"cebpf4jnsgd1na2vs0mg"},{"bike_id":"55789360-28d7-4a54-88b6-5b504d4a723c","system_id":"levelo_inurba_marseille","lat":43.293,"lon":5.37454,"is_reserved":false,"is_disabled":false,"rental_uris":{"android":"levelo://app?vid=55789360-28d7-4a54-88b6-5b504d4a723c","ios":"levelo://app?vid=55789360-28d7-4a54-88b6-5b504d4a723c"},"vehicle_type_id":"4","last_reported":1722121726,"current_range_meters":0,"station_id":"ce4bgi12rcd13ifvqb70","pricing_plan_id":"cebpf4jnsgd1na2vs0mg"},{"bike_id":"93dc9ee0-e588-4af0-914f-4521b957b63b","system_id":"levelo_inurba_marseille","lat":43.29231,"lon":5.36455,"is_reserved":false,"is_disabled":false,"rental_uris":{"android":"levelo://app?vid=93dc9ee0-e588-4af0-914f-4521b957b63b","ios":"levelo://app?vid=93dc9ee0-e588-4af0-914f-4521b957b63b"},"vehicle_type_id":"4","last_reported":1722121726,"current_range_meters":0,"station_id":"","pricing_plan_id":"cebpf4jnsgd1na2vs0mg"},{"bike_id":"231835da-08bb-4349-925b-1b3af51f9bf5","system_id":"levelo_inurba_marseille","lat":43.293009,"lon":5.374584,"is_reserved":false,"is_disabled":false,"rental_uris":{"android":"levelo://app?vid=231835da-08bb-4349-925b-1b3af51f9bf5","ios":"levelo://app?vid=231835da-08bb-4349-925b-1b3af51f9bf5"},"vehicle_type_id":"4","last_reported":1722121726,"current_range_meters":0,"station_id":"ce4bgi12rcd13ifvqb70","pricing_plan_id":"cebpf4jnsgd1na2vs0mg"},{"bike_id":"15ae903b-0f06-4bf3-98fe-f245bf8de85d","system_id":"levelo_inurba_marseille","lat":43.303002,"lon":5.392142,"is_reserved":false,"is_disabled":false,"rental_uris":{"android":"levelo://app?vid=15ae903b-0f06-4bf3-98fe-f245bf8de85d","ios":"levelo://app?vid=15ae903b-0f06-4bf3-98fe-f245bf8de85d"},"vehicle_type_id":"4","last_reported":1722121726,"current_range_meters":12400,"station_id":"ce4bgkh2rcd13ifvqbk0","pricing_plan_id":"cebpf4jnsgd1na2vs0mg"},{"bike_id":"3e454714-cf17-4cc3-8601-b98a47451122","system_id":"levelo_inurba_marseille","lat":43.2936,"lon":5.37835,"is_reserved":false,"is_disabled":false,"rental_uris":{"android":"levelo://app?vid=3e454714-cf17-4cc3-8601-b98a47451122","ios":"levelo://app?vid=3e454714-cf17-4cc3-8601-b98a47451122"},"vehicle_type_id":"4","last_reported":1722121726,"current_range_meters":0,"station_id":"ce4bgjh2rcd13ifvqbf0","pricing_plan_id":"cebpf4jnsgd1na2vs0mg"},{"bike_id":"f40d3d0b-c11a-4316-a46a-50a74539e499","system_id":"levelo_inurba_marseille","lat":43.2936,"lon":5.37835,"is_reserved":false,"is_disabled":false,"rental_uris":{"android":"levelo://app?vid=f40d3d0b-c11a-4316-a46a-50a74539e499","ios":"levelo://app?vid=f40d3d0b-c11a-4316-a46a-50a74539e499"},"vehicle_type_id":"4","last_reported":1722121726,"current_range_meters":1600,"station_id":"ce4bgjh2rcd13ifvqbf0","pricing_plan_id":"cebpf4jnsgd1na2vs0mg"},{"bike_id":"251fbfcb-d4f2-45b7-a1be-22893092ccdc","system_id":"levelo_inurba_marseille","lat":43.293588,"lon":5.37844,"is_reserved":false,"is_disabled":false,"rental_uris":{"android":"levelo://app?vid=251fbfcb-d4f2-45b7-a1be-22893092ccdc","ios":"levelo://app?vid=251fbfcb-d4f2-45b7-a1be-22893092ccdc"},"vehicle_type_id":"4","last_reported":1722121726,"current_range_meters":0,"station_id":"ce4bgjh2rcd13ifvqbf0","pricing_plan_id":"cebpf4jnsgd1na2vs0mg"},{"bike_id":"9d9bf95b-541b-4940-9f1b-05cf2cc6687a","system_id":"levelo_inurba_marseille","lat":43.292311,"lon":5.360731,"is_reserved":false,"is_disabled":false,"rental_uris":{"android":"levelo://app?vid=9d9bf95b-541b-4940-9f1b-05cf2cc6687a","ios":"levelo://app?vid=9d9bf95b-541b-4940-9f1b-05cf2cc6687a"},"vehicle_type_id":"4","last_reported":1722121726,"current_range_meters":0,"station_id":"ce4bhbh2rcd13ifvqeqg","pricing_plan_id":"cebpf4jnsgd1na2vs0mg"},{"bike_id":"00f32c88-2d17-425e-b2df-4599c7e117de","system_id":"levelo_inurba_marseille","lat":43.292311,"lon":5.360731,"is_reserved":false,"is_disabled":false,"rental_uris":{"android":"levelo://app?vid=00f32c88-2d17-425e-b2df-4599c7e117de","ios":"levelo://app?vid=00f32c88-2d17-425e-b2df-4599c7e117de"},"vehicle_type_id":"4","last_reported":1722121726,"current_range_meters":5200,"station_id":"ce4bhbh2rcd13ifvqeqg","pricing_plan_id":"cebpf4jnsgd1na2vs0mg"},{"bike_id":"f623f033-102a-4137-8205-bc526e75f90f","system_id":"levelo_inurba_marseille","lat":43.300852,"lon":5.390859,"is_reserved":false,"is_disabled":false,"rental_uris":{"android":"levelo://app?vid=f623f033-102a-4137-8205-bc526e75f90f","ios":"levelo://app?vid=f623f033-102a-4137-8205-bc526e75f90f"},"vehicle_type_id":"4","last_reported":1722121726,"current_range_meters":0,"station_id":"ce4bh192rcd13ifvqdb0","pricing_plan_id":"cebpf4jnsgd1na2vs0mg"},{"bike_id":"724ba437-3043-491e-8d26-35d37862e516","system_id":"levelo_inurba_marseille","lat":43.29264,"lon":5.376103,"is_reserved":false,"is_disabled":false,"rental_uris":{"android":"levelo://app?vid=724ba437-3043-491e-8d26-35d37862e516","ios":"levelo://app?vid=724ba437-3043-491e-8d26-35d37862e516"},"vehicle_type_id":"4","last_reported":1722121726,"current_range_meters":19200,"station_id":"ce4bgi12rcd13ifvqb80","pricing_plan_id":"cebpf4jnsgd1na2vs0mg"},{"bike_id":"77a63bed-f4bd-4619-bab5-f3fa726c2cc2","system_id":"levelo_inurba_marseille","lat":43.291675,"lon":5.371583,"is_reserved":false,"is_disabled":false,"rental_uris":{"android":"levelo://app?vid=77a63bed-f4bd-4619-bab5-f3fa726c2cc2","ios":"levelo://app?vid=77a63bed-f4bd-4619-bab5-f3fa726c2cc2"},"vehicle_type_id":"4","last_reported":1722121726,"current_range_meters":0,"station_id":"ce4bha92rcd13ifvqeh0","pricing_plan_id":"cebpf4jnsgd1na2vs0mg"},{"bike_id":"b27a82ad-a505-4b11-a89a-ee05cc727eaa","system_id":"levelo_inurba_marseille","lat":43.31325,"lon":5.39674,"is_reserved":false,"is_disabled":false,"rental_uris":{"android":"levelo://app?vid=b27a82ad-a505-4b11-a89a-ee05cc727eaa","ios":"levelo://app?vid=b27a82ad-a505-4b11-a89a-ee05cc727eaa"},"vehicle_type_id":"4","last_reported":1722121726,"current_range_meters":4000,"station_id":"ce4bgvp2rcd13ifvqcu0","pricing_plan_id":"cebpf4jnsgd1na2vs0mg"},{"bike_id":"2ce45ed7-5930-46aa-929c-ba65bceb5199","system_id":"levelo_inurba_marseille","lat":43.309038,"lon":5.396546,"is_reserved":false,"is_disabled":false,"rental_uris":{"android":"levelo://app?vid=2ce45ed7-5930-46aa-929c-ba65bceb5199","ios":"levelo://app?vid=2ce45ed7-5930-46aa-929c-ba65bceb5199"},"vehicle_type_id":"4","last_reported":1722121726,"current_range_meters":13200,"station_id":"ce4bh012rcd13ifvqcv0","pricing_plan_id":"cebpf4jnsgd1na2vs0mg"},{"bike_id":"e6161d84-8390-44da-a848-27bfcc33a484","system_id":"levelo_inurba_marseille","lat":43.309047,"lon":5.396551,"is_reserved":false,"is_disabled":false,"rental_uris":{"android":"levelo://app?vid=e6161d84-8390-44da-a848-27bfcc33a484","ios":"levelo://app?vid=e6161d84-8390-44da-a848-27bfcc33a484"},"vehicle_type_id":"4","last_reported":1722121726,"current_range_meters":5200,"station_id":"ce4bh012rcd13ifvqcv0","pricing_plan_id":"cebpf4jnsgd1na2vs0mg"},{"bike_id":"672d3c94-3afb-4e09-a926-627ab504985d","system_id":"levelo_inurba_marseille","lat":43.309038,"lon":5.396546,"is_reserved":false,"is_disabled":false,"rental_uris":{"android":"levelo://app?vid=672d3c94-3afb-4e09-a926-627ab504985d","ios":"levelo://app?vid=672d3c94-3afb-4e09-a926-627ab504985d"},"vehicle_type_id":"4","last_reported":1722121726,"current_range_meters":16800,"station_id":"ce4bh012rcd13ifvqcv0","pricing_plan_id":"cebpf4jnsgd1na2vs0mg"},{"bike_id":"b34be8d2-1992-458a-9e76-9d0a4c7c1369","system_id":"levelo_inurba_marseille","lat":43.309038,"lon":5.396546,"is_reserved":false,"is_disabled":false,"rental_uris":{"android":"levelo://app?vid=b34be8d2-1992-458a-9e76-9d0a4c7c1369","ios":"levelo://app?vid=b34be8d2-1992-458a-9e76-9d0a4c7c1369"},"vehicle_type_id":"4","last_reported":1722121726,"current_range_meters":6400,"station_id":"ce4bh012rcd13ifvqcv0","pricing_plan_id":"cebpf4jnsgd1na2vs0mg"},{"bike_id":"e8c2a869-6020-4a38-90ea-5fa8ba0f8dae","system_id":"levelo_inurba_marseille","lat":43.313291,"lon":5.396838,"is_reserved":false,"is_disabled":false,"rental_uris":{"android":"levelo://app?vid=e8c2a869-6020-4a38-90ea-5fa8ba0f8dae","ios":"levelo://app?vid=e8c2a869-6020-4a38-90ea-5fa8ba0f8dae"},"vehicle_type_id":"4","last_reported":1722121726,"current_range_meters":28800,"station_id":"ce4bgvp2rcd13ifvqcu0","pricing_plan_id":"cebpf4jnsgd1na2vs0mg"},{"bike_id":"91294550-bfce-4ffe-9473-8429aafd90b0","system_id":"levelo_inurba_marseille","lat":43.313291,"lon":5.396838,"is_reserved":false,"is_disabled":false,"rental_uris":{"android":"levelo://app?vid=91294550-bfce-4ffe-9473-8429aafd90b0","ios":"levelo://app?vid=91294550-bfce-4ffe-9473-8429aafd90b0"},"vehicle_type_id":"4","last_reported":1722121726,"current_range_meters":13200,"station_id":"ce4bgvp2rcd13ifvqcu0","pricing_plan_id":"cebpf4jnsgd1na2vs0mg"},{"bike_id":"7e4b2a85-423e-4b43-8a44-6836bd060f54","system_id":"levelo_inurba_marseille","lat":43.313291,"lon":5.396838,"is_reserved":false,"is_disabled":false,"rental_uris":{"android":"levelo://app?vid=7e4b2a85-423e-4b43-8a44-6836bd060f54","ios":"levelo://app?vid=7e4b2a85-423e-4b43-8a44-6836bd060f54"},"vehicle_type_id":"4","last_reported":1722121726,"current_range_meters":16800,"station_id":"ce4bgvp2rcd13ifvqcu0","pricing_plan_id":"cebpf4jnsgd1na2vs0mg"},{"bike_id":"410b74d9-a40d-4b6a-8923-92a9a4e24a71","system_id":"levelo_inurba_marseille","lat":43.313291,"lon":5.396838,"is_reserved":false,"is_disabled":false,"rental_uris":{"android":"levelo://app?vid=410b74d9-a40d-4b6a-8923-92a9a4e24a71","ios":"levelo://app?vid=410b74d9-a40d-4b6a-8923-92a9a4e24a71"},"vehicle_type_id":"4","last_reported":1722121726,"current_range_meters":23200,"station_id":"ce4bgvp2rcd13ifvqcu0","pricing_plan_id":"cebpf4jnsgd1na2vs0mg"},{"bike_id":"36d32025-f484-422b-8564-a9b164e0eff2","system_id":"levelo_inurba_marseille","lat":43.31334,"lon":5.39697,"is_reserved":false,"is_disabled":false,"rental_uris":{"android":"levelo://app?vid=36d32025-f484-422b-8564-a9b164e0eff2","ios":"levelo://app?vid=36d32025-f484-422b-8564-a9b164e0eff2"},"vehicle_type_id":"4","last_reported":1722121726,"current_range_meters":14000,"station_id":"ce4bgvp2rcd13ifvqcu0","pricing_plan_id":"cebpf4jnsgd1na2vs0mg"},{"bike_id":"0d796201-fa10-4ec9-b7f6-475359f0ee74","system_id":"levelo_inurba_marseille","lat":43.29054,"lon":5.37143,"is_reserved":false,"is_disabled":false,"rental_uris":{"android":"levelo://app?vid=0d796201-fa10-4ec9-b7f6-475359f0ee74","ios":"levelo://app?vid=0d796201-fa10-4ec9-b7f6-475359f0ee74"},"vehicle_type_id":"4","last_reported":1722121726,"current_range_meters":24400,"station_id":"ce4bh5p2rcd13ifvqe4g","pricing_plan_id":"cebpf4jnsgd1na2vs0mg"},{"bike_id":"788cceab-aacc-40e3-bee1-0507faad732e","system_id":"levelo_inurba_marseille","lat":43.302008,"lon":5.394694,"is_reserved":false,"is_disabled":false,"rental_uris":{"android":"levelo://app?vid=788cceab-aacc-40e3-bee1-0507faad732e","ios":"levelo://app?vid=788cceab-aacc-40e3-bee1-0507faad732e"},"vehicle_type_id":"4","last_reported":1722121726,"current_range_meters":31200,"station_id":"ce4bh0p2rcd13ifvqd70","pricing_plan_id":"cebpf4jnsgd1na2vs0mg"},{"bike_id":"1315d8ca-c9a1-4060-97ff-bb1bc209bb09","system_id":"levelo_inurba_marseille","lat":43.290546,"lon":5.375552,"is_reserved":false,"is_disabled":false,"rental_uris":{"android":"levelo://app?vid=1315d8ca-c9a1-4060-97ff-bb1bc209bb09","ios":"levelo://app?vid=1315d8ca-c9a1-4060-97ff-bb1bc209bb09"},"vehicle_type_id":"4","last_reported":1722121726,"current_range_meters":15600,"station_id":"ce4bh692rcd13ifvqe90","pricing_plan_id":"cebpf4jnsgd1na2vs0mg"},{"bike_id":"1f52a489-7e25-42ea-b2bc-d892dce6c5e8","system_id":"levelo_inurba_marseille","lat":43.290624,"lon":5.359245,"is_reserved":false,"is_disabled":false,"rental_uris":{"android":"levelo://app?vid=1f52a489-7e25-42ea-b2bc-d892dce6c5e8","ios":"levelo://app?vid=1f52a489-7e25-42ea-b2bc-d892dce6c5e8"},"vehicle_type_id":"4","last_reported":1722121726,"current_range_meters":14400,"station_id":"ce4bha92rcd13ifvqeg0","pricing_plan_id":"cebpf4jnsgd1na2vs0mg"},{"bike_id":"e872578d-ba4a-48ac-b75d-0a5ac44d0bb1","system_id":"levelo_inurba_marseille","lat":43.294153,"lon":5.386305,"is_reserved":false,"is_disabled":false,"rental_uris":{"android":"levelo://app?vid=e872578d-ba4a-48ac-b75d-0a5ac44d0bb1","ios":"levelo://app?vid=e872578d-ba4a-48ac-b75d-0a5ac44d0bb1"},"vehicle_type_id":"4","last_reported":1722121726,"current_range_meters":27200,"station_id":"ce4bh2h2rcd13ifvqdh0","pricing_plan_id":"cebpf4jnsgd1na2vs0mg"},{"bike_id":"b3c7d571-81c0-435c-840e-ceaeedb81f08","system_id":"levelo_inurba_marseille","lat":43.290327,"lon":5.375711,"is_reserved":false,"is_disabled":false,"rental_uris":{"android":"levelo://app?vid=b3c7d571-81c0-435c-840e-ceaeedb81f08","ios":"levelo://app?vid=b3c7d571-81c0-435c-840e-ceaeedb81f08"},"vehicle_type_id":"4","last_reported":1722121726,"current_range_meters":0,"station_id":"ce4bh692rcd13ifvqe90","pricing_plan_id":"cebpf4jnsgd1na2vs0mg"},{"bike_id":"da80d5ab-08ff-4634-952c-4ab6983fa961","system_id":"levelo_inurba_marseille","lat":43.2942,"lon":5.38626,"is_reserved":false,"is_disabled":false,"rental_uris":{"android":"levelo://app?vid=da80d5ab-08ff-4634-952c-4ab6983fa961","ios":"levelo://app?vid=da80d5ab-08ff-4634-952c-4ab6983fa961"},"vehicle_type_id":"4","last_reported":1722121726,"current_range_meters":0,"station_id":"ce4bh2h2rcd13ifvqdh0","pricing_plan_id":"cebpf4jnsgd1na2vs0mg"},{"bike_id":"31f263d6-385d-4f7f-9b8c-49aa8d9b6bfd","system_id":"levelo_inurba_marseille","lat":43.294153,"lon":5.386305,"is_reserved":false,"is_disabled":false,"rental_uris":{"android":"levelo://app?vid=31f263d6-385d-4f7f-9b8c-49aa8d9b6bfd","ios":"levelo://app?vid=31f263d6-385d-4f7f-9b8c-49aa8d9b6bfd"},"vehicle_type_id":"4","last_reported":1722121726,"current_range_meters":0,"station_id":"ce4bh2h2rcd13ifvqdh0","pricing_plan_id":"cebpf4jnsgd1na2vs0mg"},{"bike_id":"2adbc6d5-6555-45aa-a8db-d9b16d0cf0e6","system_id":"levelo_inurba_marseille","lat":43.2942,"lon":5.38629,"is_reserved":false,"is_disabled":false,"rental_uris":{"android":"levelo://app?vid=2adbc6d5-6555-45aa-a8db-d9b16d0cf0e6","ios":"levelo://app?vid=2adbc6d5-6555-45aa-a8db-d9b16d0cf0e6"},"vehicle_type_id":"4","last_reported":1722121726,"current_range_meters":0,"station_id":"ce4bh2h2rcd13ifvqdh0","pricing_plan_id":"cebpf4jnsgd1na2vs0mg"},{"bike_id":"037d1413-bab3-4fa8-b4ce-8970ed0b509b","system_id":"levelo_inurba_marseille","lat":43.29417,"lon":5.38627,"is_reserved":false,"is_disabled":false,"rental_uris":{"android":"levelo://app?vid=037d1413-bab3-4fa8-b4ce-8970ed0b509b","ios":"levelo://app?vid=037d1413-bab3-4fa8-b4ce-8970ed0b509b"},"vehicle_type_id":"4","last_reported":1722121726,"current_range_meters":0,"station_id":"ce4bh2h2rcd13ifvqdh0","pricing_plan_id":"cebpf4jnsgd1na2vs0mg"},{"bike_id":"e4166003-c6c4-44ce-9923-0605d4aaeaa0","system_id":"levelo_inurba_marseille","lat":43.294153,"lon":5.386305,"is_reserved":false,"is_disabled":false,"rental_uris":{"android":"levelo://app?vid=e4166003-c6c4-44ce-9923-0605d4aaeaa0","ios":"levelo://app?vid=e4166003-c6c4-44ce-9923-0605d4aaeaa0"},"vehicle_type_id":"4","last_reported":1722121726,"current_range_meters":6000,"station_id":"ce4bh2h2rcd13ifvqdh0","pricing_plan_id":"cebpf4jnsgd1na2vs0mg"},{"bike_id":"c0d77806-3d11-46e9-a260-0f613a52918e","system_id":"levelo_inurba_marseille","lat":43.28942,"lon":5.36635,"is_reserved":false,"is_disabled":false,"rental_uris":{"android":"levelo://app?vid=c0d77806-3d11-46e9-a260-0f613a52918e","ios":"levelo://app?vid=c0d77806-3d11-46e9-a260-0f613a52918e"},"vehicle_type_id":"4","last_reported":1722121726,"current_range_meters":0,"station_id":"ce4bhap2rcd13ifvqek0","pricing_plan_id":"cebpf4jnsgd1na2vs0mg"},{"bike_id":"8e843daf-b907-421a-8a54-c52f12c7796b","system_id":"levelo_inurba_marseille","lat":43.2894,"lon":5.366348,"is_reserved":false,"is_disabled":false,"rental_uris":{"android":"levelo://app?vid=8e843daf-b907-421a-8a54-c52f12c7796b","ios":"levelo://app?vid=8e843daf-b907-421a-8a54-c52f12c7796b"},"vehicle_type_id":"4","last_reported":1722121726,"current_range_meters":0,"station_id":"ce4bhap2rcd13ifvqek0","pricing_plan_id":"cebpf4jnsgd1na2vs0mg"},{"bike_id":"51ba4f18-fa12-4a02-96de-0caa2a9f4c12","system_id":"levelo_inurba_marseille","lat":43.289282,"lon":5.366296,"is_reserved":false,"is_disabled":false,"rental_uris":{"android":"levelo://app?vid=51ba4f18-fa12-4a02-96de-0caa2a9f4c12","ios":"levelo://app?vid=51ba4f18-fa12-4a02-96de-0caa2a9f4c12"},"vehicle_type_id":"4","last_reported":1722121726,"current_range_meters":0,"station_id":"ce4bhap2rcd13ifvqek0","pricing_plan_id":"cebpf4jnsgd1na2vs0mg"},{"bike_id":"31512e68-4540-4e5d-acf8-e0f7e90597d6","system_id":"levelo_inurba_marseille","lat":43.289468,"lon":5.363719,"is_reserved":false,"is_disabled":false,"rental_uris":{"android":"levelo://app?vid=31512e68-4540-4e5d-acf8-e0f7e90597d6","ios":"levelo://app?vid=31512e68-4540-4e5d-acf8-e0f7e90597d6"},"vehicle_type_id":"4","last_reported":1722121726,"current_range_meters":14800,"station_id":"ce4bhc92rcd13ifvqetg","pricing_plan_id":"cebpf4jnsgd1na2vs0mg"},{"bike_id":"6a19b8f3-2a36-48ac-acbf-dcf6150e14ed","system_id":"levelo_inurba_marseille","lat":43.292635,"lon":5.384445,"is_reserved":false,"is_disabled":false,"rental_uris":{"android":"levelo://app?vid=6a19b8f3-2a36-48ac-acbf-dcf6150e14ed","ios":"levelo://app?vid=6a19b8f3-2a36-48ac-acbf-dcf6150e14ed"},"vehicle_type_id":"4","last_reported":1722121726,"current_range_meters":24800,"station_id":"ce4bh692rcd13ifvqea0","pricing_plan_id":"cebpf4jnsgd1na2vs0mg"},{"bike_id":"83e4d784-b22e-497c-bb79-83206a465ec7","system_id":"levelo_inurba_marseille","lat":43.29259,"lon":5.38439,"is_reserved":false,"is_disabled":false,"rental_uris":{"android":"levelo://app?vid=83e4d784-b22e-497c-bb79-83206a465ec7","ios":"levelo://app?vid=83e4d784-b22e-497c-bb79-83206a465ec7"},"vehicle_type_id":"4","last_reported":1722121726,"current_range_meters":0,"station_id":"ce4bh692rcd13ifvqea0","pricing_plan_id":"cebpf4jnsgd1na2vs0mg"},{"bike_id":"9c257649-ba63-4ad9-8053-d4fd91c116f5","system_id":"levelo_inurba_marseille","lat":43.29259,"lon":5.38445,"is_reserved":false,"is_disabled":false,"rental_uris":{"android":"levelo://app?vid=9c257649-ba63-4ad9-8053-d4fd91c116f5","ios":"levelo://app?vid=9c257649-ba63-4ad9-8053-d4fd91c116f5"},"vehicle_type_id":"4","last_reported":1722121726,"current_range_meters":0,"station_id":"ce4bh692rcd13ifvqea0","pricing_plan_id":"cebpf4jnsgd1na2vs0mg"},{"bike_id":"f49932ba-6a5e-416b-a8b7-919c8e18e484","system_id":"levelo_inurba_marseille","lat":43.29255,"lon":5.38438,"is_reserved":false,"is_disabled":false,"rental_uris":{"android":"levelo://app?vid=f49932ba-6a5e-416b-a8b7-919c8e18e484","ios":"levelo://app?vid=f49932ba-6a5e-416b-a8b7-919c8e18e484"},"vehicle_type_id":"4","last_reported":1722121726,"current_range_meters":0,"station_id":"ce4bh692rcd13ifvqea0","pricing_plan_id":"cebpf4jnsgd1na2vs0mg"},{"bike_id":"4e22e31e-8284-435c-a44a-e7a959d32ea9","system_id":"levelo_inurba_marseille","lat":43.304274,"lon":5.397513,"is_reserved":false,"is_disabled":false,"rental_uris":{"android":"levelo://app?vid=4e22e31e-8284-435c-a44a-e7a959d32ea9","ios":"levelo://app?vid=4e22e31e-8284-435c-a44a-e7a959d32ea9"},"vehicle_type_id":"4","last_reported":1722121726,"current_range_meters":0,"station_id":"ce4bh092rcd13ifvqd20","pricing_plan_id":"cebpf4jnsgd1na2vs0mg"},{"bike_id":"75ef441b-cf53-490e-8fae-71b0b4f14aa4","system_id":"levelo_inurba_marseille","lat":43.29256,"lon":5.38441,"is_reserved":false,"is_disabled":false,"rental_uris":{"android":"levelo://app?vid=75ef441b-cf53-490e-8fae-71b0b4f14aa4","ios":"levelo://app?vid=75ef441b-cf53-490e-8fae-71b0b4f14aa4"},"vehicle_type_id":"4","last_reported":1722121726,"current_range_meters":0,"station_id":"ce4bh692rcd13ifvqea0","pricing_plan_id":"cebpf4jnsgd1na2vs0mg"},{"bike_id":"431ed7a4-43cc-401b-940e-28423af700e7","system_id":"levelo_inurba_marseille","lat":43.292642,"lon":5.384254,"is_reserved":false,"is_disabled":false,"rental_uris":{"android":"levelo://app?vid=431ed7a4-43cc-401b-940e-28423af700e7","ios":"levelo://app?vid=431ed7a4-43cc-401b-940e-28423af700e7"},"vehicle_type_id":"4","last_reported":1722121726,"current_range_meters":0,"station_id":"ce4bh692rcd13ifvqea0","pricing_plan_id":"cebpf4jnsgd1na2vs0mg"},{"bike_id":"172bc700-020c-4fc1-aeb8-7967d5da8787","system_id":"levelo_inurba_marseille","lat":43.304296,"lon":5.397513,"is_reserved":false,"is_disabled":false,"rental_uris":{"android":"levelo://app?vid=172bc700-020c-4fc1-aeb8-7967d5da8787","ios":"levelo://app?vid=172bc700-020c-4fc1-aeb8-7967d5da8787"},"vehicle_type_id":"4","last_reported":1722121726,"current_range_meters":31200,"station_id":"ce4bh092rcd13ifvqd20","pricing_plan_id":"cebpf4jnsgd1na2vs0mg"},{"bike_id":"383a5704-5c96-4f9a-b768-48bcf0496111","system_id":"levelo_inurba_marseille","lat":43.304296,"lon":5.397513,"is_reserved":false,"is_disabled":false,"rental_uris":{"android":"levelo://app?vid=383a5704-5c96-4f9a-b768-48bcf0496111","ios":"levelo://app?vid=383a5704-5c96-4f9a-b768-48bcf0496111"},"vehicle_type_id":"4","last_reported":1722121726,"current_range_meters":31200,"station_id":"ce4bh092rcd13ifvqd20","pricing_plan_id":"cebpf4jnsgd1na2vs0mg"},{"bike_id":"ff25d07c-dec7-44d9-af43-3e2e127e5b24","system_id":"levelo_inurba_marseille","lat":43.29006,"lon":5.35616,"is_reserved":false,"is_disabled":false,"rental_uris":{"android":"levelo://app?vid=ff25d07c-dec7-44d9-af43-3e2e127e5b24","ios":"levelo://app?vid=ff25d07c-dec7-44d9-af43-3e2e127e5b24"},"vehicle_type_id":"4","last_reported":1722121726,"current_range_meters":0,"station_id":"ce4bhb92rcd13ifvqen0","pricing_plan_id":"cebpf4jnsgd1na2vs0mg"},{"bike_id":"d19ca995-26fd-4b16-9990-6d3603f6c9ba","system_id":"levelo_inurba_marseille","lat":43.290104,"lon":5.356111,"is_reserved":false,"is_disabled":false,"rental_uris":{"android":"levelo://app?vid=d19ca995-26fd-4b16-9990-6d3603f6c9ba","ios":"levelo://app?vid=d19ca995-26fd-4b16-9990-6d3603f6c9ba"},"vehicle_type_id":"4","last_reported":1722121726,"current_range_meters":0,"station_id":"ce4bhb92rcd13ifvqen0","pricing_plan_id":"cebpf4jnsgd1na2vs0mg"},{"bike_id":"a139f690-26e6-4176-be52-44d9e027f284","system_id":"levelo_inurba_marseille","lat":43.290104,"lon":5.356111,"is_reserved":false,"is_disabled":false,"rental_uris":{"android":"levelo://app?vid=a139f690-26e6-4176-be52-44d9e027f284","ios":"levelo://app?vid=a139f690-26e6-4176-be52-44d9e027f284"},"vehicle_type_id":"4","last_reported":1722121726,"current_range_meters":800,"station_id":"ce4bhb92rcd13ifvqen0","pricing_plan_id":"cebpf4jnsgd1na2vs0mg"},{"bike_id":"c4476cad-f8de-49bc-935a-a268cd3d948f","system_id":"levelo_inurba_marseille","lat":43.28998,"lon":5.35618,"is_reserved":false,"is_disabled":false,"rental_uris":{"android":"levelo://app?vid=c4476cad-f8de-49bc-935a-a268cd3d948f","ios":"levelo://app?vid=c4476cad-f8de-49bc-935a-a268cd3d948f"},"vehicle_type_id":"4","last_reported":1722121726,"current_range_meters":14000,"station_id":"ce4bhb92rcd13ifvqen0","pricing_plan_id":"cebpf4jnsgd1na2vs0mg"},{"bike_id":"b295bae0-edc7-4c95-a67c-325effda7a19","system_id":"levelo_inurba_marseille","lat":43.2902,"lon":5.35493,"is_reserved":false,"is_disabled":false,"rental_uris":{"android":"levelo://app?vid=b295bae0-edc7-4c95-a67c-325effda7a19","ios":"levelo://app?vid=b295bae0-edc7-4c95-a67c-325effda7a19"},"vehicle_type_id":"4","last_reported":1722121726,"current_range_meters":5600,"station_id":"","pricing_plan_id":"cebpf4jnsgd1na2vs0mg"},{"bike_id":"2bff3345-2666-4dd5-812c-c921f6175f9e","system_id":"levelo_inurba_marseille","lat":43.290995,"lon":5.381361,"is_reserved":false,"is_disabled":false,"rental_uris":{"android":"levelo://app?vid=2bff3345-2666-4dd5-812c-c921f6175f9e","ios":"levelo://app?vid=2bff3345-2666-4dd5-812c-c921f6175f9e"},"vehicle_type_id":"4","last_reported":1722121726,"current_range_meters":30000,"station_id":"ce4bh512rcd13ifvqe2g","pricing_plan_id":"cebpf4jnsgd1na2vs0mg"},{"bike_id":"309ad2a1-1051-49cd-adf7-a7b95135ff6d","system_id":"levelo_inurba_marseille","lat":43.289743,"lon":5.378304,"is_reserved":false,"is_disabled":false,"rental_uris":{"android":"levelo://app?vid=309ad2a1-1051-49cd-adf7-a7b95135ff6d","ios":"levelo://app?vid=309ad2a1-1051-49cd-adf7-a7b95135ff6d"},"vehicle_type_id":"4","last_reported":1722121726,"current_range_meters":12800,"station_id":"ce4bh9p2rcd13ifvqed0","pricing_plan_id":"cebpf4jnsgd1na2vs0mg"},{"bike_id":"d3eff502-e8f6-44e7-920e-39684e6093d2","system_id":"levelo_inurba_marseille","lat":43.297815,"lon":5.393548,"is_reserved":false,"is_disabled":false,"rental_uris":{"android":"levelo://app?vid=d3eff502-e8f6-44e7-920e-39684e6093d2","ios":"levelo://app?vid=d3eff502-e8f6-44e7-920e-39684e6093d2"},"vehicle_type_id":"4","last_reported":1722121726,"current_range_meters":3200,"station_id":"chh1huq6cuj3fo74tm60","pricing_plan_id":"cebpf4jnsgd1na2vs0mg"},{"bike_id":"78beacd5-2e3f-4493-919f-f070be744a02","system_id":"levelo_inurba_marseille","lat":43.297807,"lon":5.393533,"is_reserved":false,"is_disabled":false,"rental_uris":{"android":"levelo://app?vid=78beacd5-2e3f-4493-919f-f070be744a02","ios":"levelo://app?vid=78beacd5-2e3f-4493-919f-f070be744a02"},"vehicle_type_id":"4","last_reported":1722121726,"current_range_meters":10000,"station_id":"chh1huq6cuj3fo74tm60","pricing_plan_id":"cebpf4jnsgd1na2vs0mg"},{"bike_id":"e01cb589-5a7e-41c8-945f-3396b4179ee8","system_id":"levelo_inurba_marseille","lat":43.297815,"lon":5.393548,"is_reserved":false,"is_disabled":false,"rental_uris":{"android":"levelo://app?vid=e01cb589-5a7e-41c8-945f-3396b4179ee8","ios":"levelo://app?vid=e01cb589-5a7e-41c8-945f-3396b4179ee8"},"vehicle_type_id":"4","last_reported":1722121726,"current_range_meters":16000,"station_id":"chh1huq6cuj3fo74tm60","pricing_plan_id":"cebpf4jnsgd1na2vs0mg"},{"bike_id":"796c771a-7772-410a-a587-692643b687e6","system_id":"levelo_inurba_marseille","lat":43.297807,"lon":5.393533,"is_reserved":false,"is_disabled":false,"rental_uris":{"android":"levelo://app?vid=796c771a-7772-410a-a587-692643b687e6","ios":"levelo://app?vid=796c771a-7772-410a-a587-692643b687e6"},"vehicle_type_id":"4","last_reported":1722121726,"current_range_meters":31600,"station_id":"chh1huq6cuj3fo74tm60","pricing_plan_id":"cebpf4jnsgd1na2vs0mg"},{"bike_id":"9c228ba2-1e62-48f1-a40d-37e787067012","system_id":"levelo_inurba_marseille","lat":43.297807,"lon":5.393533,"is_reserved":false,"is_disabled":false,"rental_uris":{"android":"levelo://app?vid=9c228ba2-1e62-48f1-a40d-37e787067012","ios":"levelo://app?vid=9c228ba2-1e62-48f1-a40d-37e787067012"},"vehicle_type_id":"4","last_reported":1722121726,"current_range_meters":26000,"station_id":"chh1huq6cuj3fo74tm60","pricing_plan_id":"cebpf4jnsgd1na2vs0mg"},{"bike_id":"d57c0a7a-498a-4b25-8219-5d38c6bdd147","system_id":"levelo_inurba_marseille","lat":43.297815,"lon":5.393548,"is_reserved":false,"is_disabled":false,"rental_uris":{"android":"levelo://app?vid=d57c0a7a-498a-4b25-8219-5d38c6bdd147","ios":"levelo://app?vid=d57c0a7a-498a-4b25-8219-5d38c6bdd147"},"vehicle_type_id":"4","last_reported":1722121726,"current_range_meters":11200,"station_id":"chh1huq6cuj3fo74tm60","pricing_plan_id":"cebpf4jnsgd1na2vs0mg"},{"bike_id":"ca362eb5-eb36-41b9-b119-7711bed0b1a0","system_id":"levelo_inurba_marseille","lat":43.297807,"lon":5.393533,"is_reserved":false,"is_disabled":false,"rental_uris":{"android":"levelo://app?vid=ca362eb5-eb36-41b9-b119-7711bed0b1a0","ios":"levelo://app?vid=ca362eb5-eb36-41b9-b119-7711bed0b1a0"},"vehicle_type_id":"4","last_reported":1722121726,"current_range_meters":2400,"station_id":"chh1huq6cuj3fo74tm60","pricing_plan_id":"cebpf4jnsgd1na2vs0mg"},{"bike_id":"e053964d-cc9c-42ac-b51f-782a20f46005","system_id":"levelo_inurba_marseille","lat":43.297815,"lon":5.393548,"is_reserved":false,"is_disabled":false,"rental_uris":{"android":"levelo://app?vid=e053964d-cc9c-42ac-b51f-782a20f46005","ios":"levelo://app?vid=e053964d-cc9c-42ac-b51f-782a20f46005"},"vehicle_type_id":"4","last_reported":1722121726,"current_range_meters":20000,"station_id":"chh1huq6cuj3fo74tm60","pricing_plan_id":"cebpf4jnsgd1na2vs0mg"},{"bike_id":"828a0e02-1d28-4a34-9442-cab090f76cb9","system_id":"levelo_inurba_marseille","lat":43.330442,"lon":5.389148,"is_reserved":false,"is_disabled":false,"rental_uris":{"android":"levelo://app?vid=828a0e02-1d28-4a34-9442-cab090f76cb9","ios":"levelo://app?vid=828a0e02-1d28-4a34-9442-cab090f76cb9"},"vehicle_type_id":"4","last_reported":1722121726,"current_range_meters":6800,"station_id":"ce4bhr92rcd13ifvqhrg","pricing_plan_id":"cebpf4jnsgd1na2vs0mg"},{"bike_id":"c0f929e3-db66-4cee-9725-28cec2c5d925","system_id":"levelo_inurba_marseille","lat":43.330442,"lon":5.389148,"is_reserved":false,"is_disabled":false,"rental_uris":{"android":"levelo://app?vid=c0f929e3-db66-4cee-9725-28cec2c5d925","ios":"levelo://app?vid=c0f929e3-db66-4cee-9725-28cec2c5d925"},"vehicle_type_id":"4","last_reported":1722121726,"current_range_meters":22400,"station_id":"ce4bhr92rcd13ifvqhrg","pricing_plan_id":"cebpf4jnsgd1na2vs0mg"},{"bike_id":"6ff30825-b9da-4ad9-8075-6cbe0d71cb00","system_id":"levelo_inurba_marseille","lat":43.297815,"lon":5.393548,"is_reserved":false,"is_disabled":false,"rental_uris":{"android":"levelo://app?vid=6ff30825-b9da-4ad9-8075-6cbe0d71cb00","ios":"levelo://app?vid=6ff30825-b9da-4ad9-8075-6cbe0d71cb00"},"vehicle_type_id":"4","last_reported":1722121726,"current_range_meters":18000,"station_id":"chh1huq6cuj3fo74tm60","pricing_plan_id":"cebpf4jnsgd1na2vs0mg"},{"bike_id":"3a8fefc7-fbec-4dcd-bc00-8cb64beeb880","system_id":"levelo_inurba_marseille","lat":43.297807,"lon":5.393533,"is_reserved":false,"is_disabled":false,"rental_uris":{"android":"levelo://app?vid=3a8fefc7-fbec-4dcd-bc00-8cb64beeb880","ios":"levelo://app?vid=3a8fefc7-fbec-4dcd-bc00-8cb64beeb880"},"vehicle_type_id":"4","last_reported":1722121726,"current_range_meters":8000,"station_id":"chh1huq6cuj3fo74tm60","pricing_plan_id":"cebpf4jnsgd1na2vs0mg"},{"bike_id":"909fb947-55c0-4649-acac-596dbb4e1468","system_id":"levelo_inurba_marseille","lat":43.330442,"lon":5.389148,"is_reserved":false,"is_disabled":false,"rental_uris":{"android":"levelo://app?vid=909fb947-55c0-4649-acac-596dbb4e1468","ios":"levelo://app?vid=909fb947-55c0-4649-acac-596dbb4e1468"},"vehicle_type_id":"4","last_reported":1722121726,"current_range_meters":26400,"station_id":"ce4bhr92rcd13ifvqhrg","pricing_plan_id":"cebpf4jnsgd1na2vs0mg"},{"bike_id":"fc7e8259-e080-4497-8b30-96579b11300f","system_id":"levelo_inurba_marseille","lat":43.295206,"lon":5.390456,"is_reserved":false,"is_disabled":false,"rental_uris":{"android":"levelo://app?vid=fc7e8259-e080-4497-8b30-96579b11300f","ios":"levelo://app?vid=fc7e8259-e080-4497-8b30-96579b11300f"},"vehicle_type_id":"4","last_reported":1722121726,"current_range_meters":0,"station_id":"ce4bh3p2rcd13ifvqdp0","pricing_plan_id":"cebpf4jnsgd1na2vs0mg"},{"bike_id":"b244a263-fdc4-4894-b01f-9d8fbdc616eb","system_id":"levelo_inurba_marseille","lat":43.33032,"lon":5.39048,"is_reserved":false,"is_disabled":false,"rental_uris":{"android":"levelo://app?vid=b244a263-fdc4-4894-b01f-9d8fbdc616eb","ios":"levelo://app?vid=b244a263-fdc4-4894-b01f-9d8fbdc616eb"},"vehicle_type_id":"4","last_reported":1722121726,"current_range_meters":21600,"station_id":"ce4bhr92rcd13ifvqhrg","pricing_plan_id":"cebpf4jnsgd1na2vs0mg"},{"bike_id":"b364c1b7-7fa7-4496-b374-9e6e65d4977c","system_id":"levelo_inurba_marseille","lat":43.28856,"lon":5.358371,"is_reserved":false,"is_disabled":false,"rental_uris":{"android":"levelo://app?vid=b364c1b7-7fa7-4496-b374-9e6e65d4977c","ios":"levelo://app?vid=b364c1b7-7fa7-4496-b374-9e6e65d4977c"},"vehicle_type_id":"4","last_reported":1722121726,"current_range_meters":9200,"station_id":"ce4bhb12rcd13ifvqem0","pricing_plan_id":"cebpf4jnsgd1na2vs0mg"},{"bike_id":"2d3ed0a0-6e4d-45e0-9128-329dc9cadbf9","system_id":"levelo_inurba_marseille","lat":43.2901,"lon":5.381269,"is_reserved":false,"is_disabled":false,"rental_uris":{"android":"levelo://app?vid=2d3ed0a0-6e4d-45e0-9128-329dc9cadbf9","ios":"levelo://app?vid=2d3ed0a0-6e4d-45e0-9128-329dc9cadbf9"},"vehicle_type_id":"4","last_reported":1722121726,"current_range_meters":4000,"station_id":"ce4bh4p2rcd13ifvqe1g","pricing_plan_id":"cebpf4jnsgd1na2vs0mg"},{"bike_id":"28ff567c-281c-4a43-913e-e1206badf942","system_id":"levelo_inurba_marseille","lat":43.337367,"lon":5.374676,"is_reserved":false,"is_disabled":false,"rental_uris":{"android":"levelo://app?vid=28ff567c-281c-4a43-913e-e1206badf942","ios":"levelo://app?vid=28ff567c-281c-4a43-913e-e1206badf942"},"vehicle_type_id":"4","last_reported":1722121726,"current_range_meters":23200,"station_id":"","pricing_plan_id":"cebpf4jnsgd1na2vs0mg"},{"bike_id":"c1991561-9fe3-4ecb-8809-d76bddcd17b9","system_id":"levelo_inurba_marseille","lat":43.312609,"lon":5.401662,"is_reserved":false,"is_disabled":false,"rental_uris":{"android":"levelo://app?vid=c1991561-9fe3-4ecb-8809-d76bddcd17b9","ios":"levelo://app?vid=c1991561-9fe3-4ecb-8809-d76bddcd17b9"},"vehicle_type_id":"4","last_reported":1722121726,"current_range_meters":22800,"station_id":"ce4bh092rcd13ifvqd30","pricing_plan_id":"cebpf4jnsgd1na2vs0mg"},{"bike_id":"3e79250c-7764-488c-b465-61fd16d31170","system_id":"levelo_inurba_marseille","lat":43.33736,"lon":5.37477,"is_reserved":false,"is_disabled":false,"rental_uris":{"android":"levelo://app?vid=3e79250c-7764-488c-b465-61fd16d31170","ios":"levelo://app?vid=3e79250c-7764-488c-b465-61fd16d31170"},"vehicle_type_id":"4","last_reported":1722121726,"current_range_meters":27600,"station_id":"","pricing_plan_id":"cebpf4jnsgd1na2vs0mg"},{"bike_id":"1d72af77-ccb9-448f-a3fd-c40cd6473415","system_id":"levelo_inurba_marseille","lat":43.312609,"lon":5.401662,"is_reserved":false,"is_disabled":false,"rental_uris":{"android":"levelo://app?vid=1d72af77-ccb9-448f-a3fd-c40cd6473415","ios":"levelo://app?vid=1d72af77-ccb9-448f-a3fd-c40cd6473415"},"vehicle_type_id":"4","last_reported":1722121726,"current_range_meters":32000,"station_id":"ce4bh092rcd13ifvqd30","pricing_plan_id":"cebpf4jnsgd1na2vs0mg"},{"bike_id":"6a8f0b0d-cfd7-434c-8254-d80e8bddc702","system_id":"levelo_inurba_marseille","lat":43.312609,"lon":5.401662,"is_reserved":false,"is_disabled":false,"rental_uris":{"android":"levelo://app?vid=6a8f0b0d-cfd7-434c-8254-d80e8bddc702","ios":"levelo://app?vid=6a8f0b0d-cfd7-434c-8254-d80e8bddc702"},"vehicle_type_id":"4","last_reported":1722121726,"current_range_meters":9600,"station_id":"ce4bh092rcd13ifvqd30","pricing_plan_id":"cebpf4jnsgd1na2vs0mg"},