{"last_updated":1743502309,"ttl":60,"version":"2.2","data":{"bikes":[{"bike_id":"f28a2132-9d11-411c-a599-c4352a550e43","system_id":"levelo_inurba_marseille","lat":43.249,"lon":5.3938,"is_reserved":false,"is_disabled":true,"rental_uris":{"android":"levelo://app?vid=f28a2132-9d11-411c-a599-c4352a550e43","ios":"levelo://app?vid=f28a2132-9d11-411c-a599-c4352a550e43"},"vehicle_type_id":"4","last_reported":1743502309,"current_range_meters":0,"station_id":"","pricing_plan_id":"cebpf4jnsgd1na2vs0mg"},{"bike_id":"e4023b76-3b3e-4e0a-83d8-f1f2c86a9a1a","system_id":"levelo_inurba_marseille","lat":43.26072,"lon":5.3864,"is_reserved":false,"is_disabled":true,"rental_uris":{"android":"levelo://app?vid=e4023b76-3b3e-4e0a-83d8-f1f2c86a9a1a","ios":"levelo://app?vid=e4023b76-3b3e-4e0a-83d8-f1f2c86a9a1a"},"vehicle_type_id":"4","last_reported":1743502309,"current_range_meters":0,"station_id":"","pricing_plan_id":"cebpf4jnsgd1na2vs0mg"},{"bike_id":"04d84667-80d2-430a-a2ab-b0adb0b8c9ad","system_id":"levelo_inurba_marseille","lat":43.337444,"lon":5.374475,"is_reserved":false,"is_disabled":true,"rental_uris":{"android":"levelo://app?vid=04d84667-80d2-430a-a2ab-b0adb0b8c9ad","ios":"levelo://app?vid=04d84667-80d2-430a-a2ab-b0adb0b8c9ad"},"vehicle_type_id":"4","last_reported":1743502309,"current_range_meters":0,"station_id":"","pricing_plan_id":"cebpf4jnsgd1na2vs0mg"},{"bike_id":"288bb5a4-8592-4715-9f1c-af47147cb3c6","system_id":"levelo_inurba_marseille","lat":43.26151,"lon":5.41629,"is_reserved":false,"is_disabled":true,"rental_uris":{"android":"levelo://app?vid=288bb5a4-8592-4715-9f1c-af47147cb3c6","ios":"levelo://app?vid=288bb5a4-8592-4715-9f1c-af47147cb3c6"},"vehicle_type_id":"4","last_reported":1743502309,"current_range_meters":0,"station_id":"","pricing_plan_id":"cebpf4jnsgd1na2vs0mg"},{"bike_id":"384b53be-0dd1-4ff6-96b3-76e22c52ec3c","system_id":"levelo_inurba_marseille","lat":43.27659,"lon":5.41889,"is_reserved":false,"is_disabled":true,"rental_uris":{"android":"levelo://app?vid=384b53be-0dd1-4ff6-96b3-76e22c52ec3c","ios":"levelo://app?vid=384b53be-0dd1-4ff6-96b3-76e22c52ec3c"},"vehicle_type_id":"4","last_reported":1743502309,"current_range_meters":0,"station_id":"","pricing_plan_id":"cebpf4jnsgd1na2vs0mg"},{"bike_id":"f0d3430d-68f0-4713-b5ae-26bac2803930","system_id":"levelo_inurba_marseille","lat":43.30474,"lon":5.37897,"is_reserved":false,"is_disabled":true,"rental_uris":{"android":"levelo://app?vid=f0d3430d-68f0-4713-b5ae-26bac2803930","ios":"levelo://app?vid=f0d3430d-68f0-4713-b5ae-26bac2803930"},"vehicle_type_id":"4","last_reported":1743502309,"current_range_meters":0,"station_id":"ce4bgup2rcd13ifvqcn0","pricing_plan_id":"cebpf4jnsgd1na2vs0mg"},{"bike_id":"71d0af92-b354-464d-9ecd-0ee8a6643bb7","system_id":"levelo_inurba_marseille","lat":43.31275,"lon":5.40162,"is_reserved":false,"is_disabled":true,"rental_uris":{"android":"levelo://app?vid=71d0af92-b354-464d-9ecd-0ee8a6643bb7","ios":"levelo://app?vid=71d0af92-b354-464d-9ecd-0ee8a6643bb7"},"vehicle_type_id":"4","last_reported":1743502309,"current_range_meters":0,"station_id":"ce4bh092rcd13ifvqd30","pricing_plan_id":"cebpf4jnsgd1na2vs0mg"},{"bike_id":"d9c8ae60-0e74-4e9c-aa65-4ecc52edd557","system_id":"levelo_inurba_marseille","lat":43.28844,"lon":5.39297,"is_reserved":false,"is_disabled":true,"rental_uris":{"android":"levelo://app?vid=d9c8ae60-0e74-4e9c-aa65-4ecc52edd557","ios":"levelo://app?vid=d9c8ae60-0e74-4e9c-aa65-4ecc52edd557"},"vehicle_type_id":"4","last_reported":1743502309,"current_range_meters":0,"station_id":"ce4bh2p2rcd13ifvqdi0","pricing_plan_id":"cebpf4jnsgd1na2vs0mg"},{"bike_id":"96613aa3-10a0-4439-b0f2-2c437bcf535a","system_id":"levelo_inurba_marseille","lat":43.26569,"lon":5.39046,"is_reserved":false,"is_disabled":true,"rental_uris":{"android":"levelo://app?vid=96613aa3-10a0-4439-b0f2-2c437bcf535a","ios":"levelo://app?vid=96613aa3-10a0-4439-b0f2-2c437bcf535a"},"vehicle_type_id":"4","last_reported":1743502309,"current_range_meters":0,"station_id":"ce4bhe12rcd13ifvqf30","pricing_plan_id":"cebpf4jnsgd1na2vs0mg"},{"bike_id":"22e3bd2c-8ef1-496a-b354-844649ada644","system_id":"levelo_inurba_marseille","lat":43.27319,"lon":5.39082,"is_reserved":false,"is_disabled":true,"rental_uris":{"android":"levelo://app?vid=22e3bd2c-8ef1-496a-b354-844649ada644","ios":"levelo://app?vid=22e3bd2c-8ef1-496a-b354-844649ada644"},"vehicle_type_id":"4","last_reported":1743502309,"current_range_meters":0,"station_id":"ce4bhgp2rcd13ifvqfe0","pricing_plan_id":"cebpf4jnsgd1na2vs0mg"},{"bike_id":"d230a30f-8939-4834-bb77-04786707fdd8","system_id":"levelo_inurba_marseille","lat":43.28703,"lon":5.39985,"is_reserved":false,"is_disabled":true,"rental_uris":{"android":"levelo://app?vid=d230a30f-8939-4834-bb77-04786707fdd8","ios":"levelo://app?vid=d230a30f-8939-4834-bb77-04786707fdd8"},"vehicle_type_id":"4","last_reported":1743502309,"current_range_meters":0,"station_id":"ce4bho92rcd13ifvqh3g","pricing_plan_id":"cebpf4jnsgd1na2vs0mg"},{"bike_id":"f0a543d5-3a36-46a7-847b-d8e419d661a5","system_id":"levelo_inurba_marseille","lat":43.2962,"lon":5.37714,"is_reserved":false,"is_disabled":true,"rental_uris":{"android":"levelo://app?vid=f0a543d5-3a36-46a7-847b-d8e419d661a5","ios":"levelo://app?vid=f0a543d5-3a36-46a7-847b-d8e419d661a5"},"vehicle_type_id":"4","last_reported":1743502309,"current_range_meters":800,"station_id":"ce4bgi92rcd13ifvqb90","pricing_plan_id":"cebpf4jnsgd1na2vs0mg"},{"bike_id":"141c8162-ac5a-467a-b32c-a11b5c130423","system_id":"levelo_inurba_marseille","lat":43.31119,"lon":5.37771,"is_reserved":false,"is_disabled":true,"rental_uris":{"android":"levelo://app?vid=141c8162-ac5a-467a-b32c-a11b5c130423","ios":"levelo://app?vid=141c8162-ac5a-467a-b32c-a11b5c130423"},"vehicle_type_id":"4","last_reported":1743502309,"current_range_meters":800,"station_id":"ce4bgt92rcd13ifvqcg0","pricing_plan_id":"cebpf4jnsgd1na2vs0mg"},{"bike_id":"c6201554-e4d1-4da1-a021-30355f6fe9fb","system_id":"levelo_inurba_marseille","lat":43.26958,"lon":5.38651,"is_reserved":false,"is_disabled":true,"rental_uris":{"android":"levelo://app?vid=c6201554-e4d1-4da1-a021-30355f6fe9fb","ios":"levelo://app?vid=c6201554-e4d1-4da1-a021-30355f6fe9fb"},"vehicle_type_id":"4","last_reported":1743502309,"current_range_meters":800,"station_id":"ce4bhh92rcd13ifvqfh0","pricing_plan_id":"cebpf4jnsgd1na2vs0mg"},{"bike_id":"ba0f8447-4ee8-4f0e-8c53-e6c21cfc5c4d","system_id":"levelo_inurba_marseille","lat":43.23156,"lon":5.43699,"is_reserved":false,"is_disabled":true,"rental_uris":{"android":"levelo://app?vid=ba0f8447-4ee8-4f0e-8c53-e6c21cfc5c4d","ios":"levelo://app?vid=ba0f8447-4ee8-4f0e-8c53-e6c21cfc5c4d"},"vehicle_type_id":"4","last_reported":1743502309,"current_range_meters":800,"station_id":"ce4bhmp2rcd13ifvqgog","pricing_plan_id":"cebpf4jnsgd1na2vs0mg"},{"bike_id":"b59d34a6-f9ee-42bf-b24e-a53eafb499a5","system_id":"levelo_inurba_marseille","lat":43.26814,"lon":5.40255,"is_reserved":false,"is_disabled":true,"rental_uris":{"android":"levelo://app?vid=b59d34a6-f9ee-42bf-b24e-a53eafb499a5","ios":"levelo://app?vid=b59d34a6-f9ee-42bf-b24e-a53eafb499a5"},"vehicle_type_id":"4","last_reported":1743502309,"current_range_meters":800,"station_id":"ce501612rcd8frsf0b60","pricing_plan_id":"cebpf4jnsgd1na2vs0mg"},{"bike_id":"d92b8826-b361-41f5-be3a-b865a89cd81d","system_id":"levelo_inurba_marseille","lat":43.304719,"lon":5.367401,"is_reserved":false,"is_disabled":true,"rental_uris":{"android":"levelo://app?vid=d92b8826-b361-41f5-be3a-b865a89cd81d","ios":"levelo://app?vid=d92b8826-b361-41f5-be3a-b865a89cd81d"},"vehicle_type_id":"4","last_reported":1743502309,"current_range_meters":1200,"station_id":"","pricing_plan_id":"cebpf4jnsgd1na2vs0mg"},{"bike_id":"fbd3df86-2e57-4ead-a26a-f6caafaf7f3a","system_id":"levelo_inurba_marseille","lat":43.27914,"lon":5.3959,"is_reserved":false,"is_disabled":true,"rental_uris":{"android":"levelo://app?vid=fbd3df86-2e57-4ead-a26a-f6caafaf7f3a","ios":"levelo://app?vid=fbd3df86-2e57-4ead-a26a-f6caafaf7f3a"},"vehicle_type_id":"4","last_reported":1743502309,"current_range_meters":1200,"station_id":"ce4bhf92rcd13ifvqf40","pricing_plan_id":"cebpf4jnsgd1na2vs0mg"},{"bike_id":"883f48d7-9075-416f-85dd-00699f4cdc39","system_id":"levelo_inurba_marseille","lat":43.2669,"lon":5.38246,"is_reserved":false,"is_disabled":true,"rental_uris":{"android":"levelo://app?vid=883f48d7-9075-416f-85dd-00699f4cdc39","ios":"levelo://app?vid=883f48d7-9075-416f-85dd-00699f4cdc39"},"vehicle_type_id":"4","last_reported":1743502309,"current_range_meters":1200,"station_id":"ce4bhg92rcd13ifvqf90","pricing_plan_id":"cebpf4jnsgd1na2vs0mg"},{"bike_id":"75d56f98-6c75-4a8c-a312-88f4710b478a","system_id":"levelo_inurba_marseille","lat":43.29265,"lon":5.37626,"is_reserved":false,"is_disabled":true,"rental_uris":{"android":"levelo://app?vid=75d56f98-6c75-4a8c-a312-88f4710b478a","ios":"levelo://app?vid=75d56f98-6c75-4a8c-a312-88f4710b478a"},"vehicle_type_id":"4","last_reported":1743502309,"current_range_meters":1600,"station_id":"ce4bgi12rcd13ifvqb80","pricing_plan_id":"cebpf4jnsgd1na2vs0mg"},{"bike_id":"7f1806d6-943f-486d-a68e-bc1d1371e6ef","system_id":"levelo_inurba_marseille","lat":43.28155,"lon":5.42644,"is_reserved":false,"is_disabled":true,"rental_uris":{"android":"levelo://app?vid=7f1806d6-943f-486d-a68e-bc1d1371e6ef","ios":"levelo://app?vid=7f1806d6-943f-486d-a68e-bc1d1371e6ef"},"vehicle_type_id":"4","last_reported":1743502309,"current_range_meters":1600,"station_id":"ce4bhnh2rcd13ifvqgug","pricing_plan_id":"cebpf4jnsgd1na2vs0mg"},{"bike_id":"5ce5d743-a850-4a4b-ae2a-3fd1af629d8f","system_id":"levelo_inurba_marseille","lat":43.282623,"lon":5.350672,"is_reserved":false,"is_disabled":false,"rental_uris":{"android":"levelo://app?vid=5ce5d743-a850-4a4b-ae2a-3fd1af629d8f","ios":"levelo://app?vid=5ce5d743-a850-4a4b-ae2a-3fd1af629d8f"},"vehicle_type_id":"4","last_reported":1743502309,"current_range_meters":2000,"station_id":"ce4bhbp2rcd13ifvqerg","pricing_plan_id":"cebpf4jnsgd1na2vs0mg"},{"bike_id":"2c35b933-c5c9-4614-acbc-15da89c0978d","system_id":"levelo_inurba_marseille","lat":43.27917,"lon":5.39581,"is_reserved":false,"is_disabled":true,"rental_uris":{"android":"levelo://app?vid=2c35b933-c5c9-4614-acbc-15da89c0978d","ios":"levelo://app?vid=2c35b933-c5c9-4614-acbc-15da89c0978d"},"vehicle_type_id":"4","last_reported":1743502309,"current_range_meters":2000,"station_id":"ce4bhf92rcd13ifvqf40","pricing_plan_id":"cebpf4jnsgd1na2vs0mg"},{"bike_id":"f08b3cae-b215-4256-bc52-0457b4265420","system_id":"levelo_inurba_marseille","lat":43.26231,"lon":5.4045,"is_reserved":false,"is_disabled":true,"rental_uris":{"android":"levelo://app?vid=f08b3cae-b215-4256-bc52-0457b4265420","ios":"levelo://app?vid=f08b3cae-b215-4256-bc52-0457b4265420"},"vehicle_type_id":"4","last_reported":1743502309,"current_range_meters":2000,"station_id":"ce4bhmh2rcd13ifvqgmg","pricing_plan_id":"cebpf4jnsgd1na2vs0mg"},{"bike_id":"5fa2b68d-50ad-42ff-8e1d-65ee8a0ef229","system_id":"levelo_inurba_marseille","lat":43.26203,"lon":5.37927,"is_reserved":false,"is_disabled":false,"rental_uris":{"android":"levelo://app?vid=5fa2b68d-50ad-42ff-8e1d-65ee8a0ef229","ios":"levelo://app?vid=5fa2b68d-50ad-42ff-8e1d-65ee8a0ef229"},"vehicle_type_id":"4","last_reported":1743502309,"current_range_meters":2800,"station_id":"ce4bhjp2rcd13ifvqg90","pricing_plan_id":"cebpf4jnsgd1na2vs0mg"},{"bike_id":"b0cf013c-3a8d-4f67-a2c0-abe602e420de","system_id":"levelo_inurba_marseille","lat":43.30733,"lon":5.42446,"is_reserved":false,"is_disabled":false,"rental_uris":{"android":"levelo://app?vid=b0cf013c-3a8d-4f67-a2c0-abe602e420de","ios":"levelo://app?vid=b0cf013c-3a8d-4f67-a2c0-abe602e420de"},"vehicle_type_id":"4","last_reported":1743502309,"current_range_meters":2800,"station_id":"st_cvj6ca6bvosntc0bfgr0","pricing_plan_id":"cebpf4jnsgd1na2vs0mg"},{"bike_id":"854d324c-aec3-4bcf-8829-03d7ca834d0a","system_id":"levelo_inurba_marseille","lat":43.25119,"lon":5.40318,"is_reserved":false,"is_disabled":false,"rental_uris":{"android":"levelo://app?vid=854d324c-aec3-4bcf-8829-03d7ca834d0a","ios":"levelo://app?vid=854d324c-aec3-4bcf-8829-03d7ca834d0a"},"vehicle_type_id":"4","last_reported":1743502309,"current_range_meters":3600,"station_id":"ce4bhlh2rcd13ifvqgig","pricing_plan_id":"cebpf4jnsgd1na2vs0mg"},{"bike_id":"3657115a-869c-4386-a3ce-10d295c9bf97","system_id":"levelo_inurba_marseille","lat":43.291019,"lon":5.381215,"is_reserved":false,"is_disabled":false,"rental_uris":{"android":"levelo://app?vid=3657115a-869c-4386-a3ce-10d295c9bf97","ios":"levelo://app?vid=3657115a-869c-4386-a3ce-10d295c9bf97"},"vehicle_type_id":"4","last_reported":1743502309,"current_range_meters":4000,"station_id":"ce4bh512rcd13ifvqe2g","pricing_plan_id":"cebpf4jnsgd1na2vs0mg"},{"bike_id":"a18206d4-17fe-4270-aaa8-02ce4e107996","system_id":"levelo_inurba_marseille","lat":43.29702,"lon":5.37697,"is_reserved":false,"is_disabled":false,"rental_uris":{"android":"levelo://app?vid=a18206d4-17fe-4270-aaa8-02ce4e107996","ios":"levelo://app?vid=a18206d4-17fe-4270-aaa8-02ce4e107996"},"vehicle_type_id":"4","last_reported":1743502309,"current_range_meters":4400,"station_id":"ce4bgkh2rcd13ifvqbl0","pricing_plan_id":"cebpf4jnsgd1na2vs0mg"},{"bike_id":"d16f1daf-473e-4375-b14d-6cbbc31e9b8d","system_id":"levelo_inurba_marseille","lat":43.30285,"lon":5.37687,"is_reserved":false,"is_disabled":false,"rental_uris":{"android":"levelo://app?vid=d16f1daf-473e-4375-b14d-6cbbc31e9b8d","ios":"levelo://app?vid=d16f1daf-473e-4375-b14d-6cbbc31e9b8d"},"vehicle_type_id":"4","last_reported":1743502309,"current_range_meters":4400,"station_id":"ce4bguh2rcd13ifvqcj0","pricing_plan_id":"cebpf4jnsgd1na2vs0mg"},{"bike_id":"40a66e01-b594-43cc-80a6-bf33d148d0f5","system_id":"levelo_inurba_marseille","lat":43.251157,"lon":5.403232,"is_reserved":false,"is_disabled":false,"rental_uris":{"android":"levelo://app?vid=40a66e01-b594-43cc-80a6-bf33d148d0f5","ios":"levelo://app?vid=40a66e01-b594-43cc-80a6-bf33d148d0f5"},"vehicle_type_id":"4","last_reported":1743502309,"current_range_meters":4400,"station_id":"ce4bhlh2rcd13ifvqgig","pricing_plan_id":"cebpf4jnsgd1na2vs0mg"},{"bike_id":"dc27e4a0-fd82-45e4-bd9c-034b3b61c8b0","system_id":"levelo_inurba_marseille","lat":43.27962,"lon":5.416867,"is_reserved":false,"is_disabled":false,"rental_uris":{"android":"levelo://app?vid=dc27e4a0-fd82-45e4-bd9c-034b3b61c8b0","ios":"levelo://app?vid=dc27e4a0-fd82-45e4-bd9c-034b3b61c8b0"},"vehicle_type_id":"4","last_reported":1743502309,"current_range_meters":4400,"station_id":"ce4bho12rcd13ifvqh1g","pricing_plan_id":"cebpf4jnsgd1na2vs0mg"},{"bike_id":"817e511e-8dd1-453d-b473-58de5d5b609c","system_id":"levelo_inurba_marseille","lat":43.31215,"lon":5.36851,"is_reserved":false,"is_disabled":false,"rental_uris":{"android":"levelo://app?vid=817e511e-8dd1-453d-b473-58de5d5b609c","ios":"levelo://app?vid=817e511e-8dd1-453d-b473-58de5d5b609c"},"vehicle_type_id":"4","last_reported":1743502309,"current_range_meters":4800,"station_id":"ce4bgl92rcd13ifvqbq0","pricing_plan_id":"cebpf4jnsgd1na2vs0mg"},{"bike_id":"d3eb3645-1f53-4dae-a759-de22d6298970","system_id":"levelo_inurba_marseille","lat":43.26933,"lon":5.38898,"is_reserved":false,"is_disabled":false,"rental_uris":{"android":"levelo://app?vid=d3eb3645-1f53-4dae-a759-de22d6298970","ios":"levelo://app?vid=d3eb3645-1f53-4dae-a759-de22d6298970"},"vehicle_type_id":"4","last_reported":1743502309,"current_range_meters":5600,"station_id":"ce4bhhh2rcd13ifvqfl0","pricing_plan_id":"cebpf4jnsgd1na2vs0mg"},{"bike_id":"ea26cff1-876d-4050-af3f-349fed32531f","system_id":"levelo_inurba_marseille","lat":43.23159,"lon":5.43701,"is_reserved":false,"is_disabled":false,"rental_uris":{"android":"levelo://app?vid=ea26cff1-876d-4050-af3f-349fed32531f","ios":"levelo://app?vid=ea26cff1-876d-4050-af3f-349fed32531f"},"vehicle_type_id":"4","last_reported":1743502309,"current_range_meters":5600,"station_id":"ce4bhmp2rcd13ifvqgog","pricing_plan_id":"cebpf4jnsgd1na2vs0mg"},{"bike_id":"2bf31f9f-c5c0-434c-ab3b-b017d7dc966d","system_id":"levelo_inurba_marseille","lat":43.23054,"lon":5.35483,"is_reserved":false,"is_disabled":false,"rental_uris":{"android":"levelo://app?vid=2bf31f9f-c5c0-434c-ab3b-b017d7dc966d","ios":"levelo://app?vid=2bf31f9f-c5c0-434c-ab3b-b017d7dc966d"},"vehicle_type_id":"4","last_reported":1743502309,"current_range_meters":5600,"station_id":"cpo3342slgdg3j2ifvpg","pricing_plan_id":"cebpf4jnsgd1na2vs0mg"},{"bike_id":"97e2fdd5-5226-4465-8ce8-606b8850da92","system_id":"levelo_inurba_marseille","lat":43.22933,"lon":5.35378,"is_reserved":false,"is_disabled":false,"rental_uris":{"android":"levelo://app?vid=97e2fdd5-5226-4465-8ce8-606b8850da92","ios":"levelo://app?vid=97e2fdd5-5226-4465-8ce8-606b8850da92"},"vehicle_type_id":"4","last_reported":1743502309,"current_range_meters":5600,"station_id":"cpo3532slgdg3j2ikp40","pricing_plan_id":"cebpf4jnsgd1na2vs0mg"},{"bike_id":"79a9d532-7e33-4610-b08c-af16bc13c935","system_id":"levelo_inurba_marseille","lat":43.2416,"lon":5.36385,"is_reserved":false,"is_disabled":false,"rental_uris":{"android":"levelo://app?vid=79a9d532-7e33-4610-b08c-af16bc13c935","ios":"levelo://app?vid=79a9d532-7e33-4610-b08c-af16bc13c935"},"vehicle_type_id":"4","last_reported":1743502309,"current_range_meters":5600,"station_id":"cpo36qri1sfpv3e86is0","pricing_plan_id":"cebpf4jnsgd1na2vs0mg"},{"bike_id":"af3cfe8c-ba88-488e-950b-915dc1379ac0","system_id":"levelo_inurba_marseille","lat":43.27366,"lon":5.36258,"is_reserved":false,"is_disabled":false,"rental_uris":{"android":"levelo://app?vid=af3cfe8c-ba88-488e-950b-915dc1379ac0","ios":"levelo://app?vid=af3cfe8c-ba88-488e-950b-915dc1379ac0"},"vehicle_type_id":"4","last_reported":1743502309,"current_range_meters":6000,"station_id":"ce4bhbh2rcd13ifvqeo0","pricing_plan_id":"cebpf4jnsgd1na2vs0mg"},{"bike_id":"dd83c443-49cf-4502-8f87-831710c358c0","system_id":"levelo_inurba_marseille","lat":43.27376,"lon":5.3626,"is_reserved":false,"is_disabled":false,"rental_uris":{"android":"levelo://app?vid=dd83c443-49cf-4502-8f87-831710c358c0","ios":"levelo://app?vid=dd83c443-49cf-4502-8f87-831710c358c0"},"vehicle_type_id":"4","last_reported":1743502309,"current_range_meters":6000,"station_id":"ce4bhbh2rcd13ifvqeo0","pricing_plan_id":"cebpf4jnsgd1na2vs0mg"},{"bike_id":"0326a456-e7e0-493e-9980-d4770dfb36de","system_id":"levelo_inurba_marseille","lat":43.27688,"lon":5.38888,"is_reserved":false,"is_disabled":false,"rental_uris":{"android":"levelo://app?vid=0326a456-e7e0-493e-9980-d4770dfb36de","ios":"levelo://app?vid=0326a456-e7e0-493e-9980-d4770dfb36de"},"vehicle_type_id":"4","last_reported":1743502309,"current_range_meters":6000,"station_id":"ce4bhi12rcd13ifvqfo0","pricing_plan_id":"cebpf4jnsgd1na2vs0mg"},{"bike_id":"7fccf355-a00e-4905-8738-e2b4e7aa24a8","system_id":"levelo_inurba_marseille","lat":43.2315,"lon":5.43723,"is_reserved":false,"is_disabled":false,"rental_uris":{"android":"levelo://app?vid=7fccf355-a00e-4905-8738-e2b4e7aa24a8","ios":"levelo://app?vid=7fccf355-a00e-4905-8738-e2b4e7aa24a8"},"vehicle_type_id":"4","last_reported":1743502309,"current_range_meters":6000,"station_id":"ce4bhmp2rcd13ifvqgog","pricing_plan_id":"cebpf4jnsgd1na2vs0mg"},{"bike_id":"9f2f977c-01e5-4485-8e97-b93dd7439b8c","system_id":"levelo_inurba_marseille","lat":43.336,"lon":5.41012,"is_reserved":false,"is_disabled":false,"rental_uris":{"android":"levelo://app?vid=9f2f977c-01e5-4485-8e97-b93dd7439b8c","ios":"levelo://app?vid=9f2f977c-01e5-4485-8e97-b93dd7439b8c"},"vehicle_type_id":"4","last_reported":1743502309,"current_range_meters":6000,"station_id":"ce4bhqh2rcd13ifvqhmg","pricing_plan_id":"cebpf4jnsgd1na2vs0mg"},{"bike_id":"5cc2911d-7dc4-4b92-9515-09f203743fb8","system_id":"levelo_inurba_marseille","lat":43.31352,"lon":5.36707,"is_reserved":false,"is_disabled":false,"rental_uris":{"android":"levelo://app?vid=5cc2911d-7dc4-4b92-9515-09f203743fb8","ios":"levelo://app?vid=5cc2911d-7dc4-4b92-9515-09f203743fb8"},"vehicle_type_id":"4","last_reported":1743502309,"current_range_meters":6400,"station_id":"ce4bgr92rcd13ifvqc6g","pricing_plan_id":"cebpf4jnsgd1na2vs0mg"},{"bike_id":"9e414957-74dc-4194-88c9-1ed380a0f974","system_id":"levelo_inurba_marseille","lat":43.24651,"lon":5.38888,"is_reserved":false,"is_disabled":false,"rental_uris":{"android":"levelo://app?vid=9e414957-74dc-4194-88c9-1ed380a0f974","ios":"levelo://app?vid=9e414957-74dc-4194-88c9-1ed380a0f974"},"vehicle_type_id":"4","last_reported":1743502309,"current_range_meters":6400,"station_id":"ce4bhg12rcd13ifvqf60","pricing_plan_id":"cebpf4jnsgd1na2vs0mg"},{"bike_id":"d1a4d67b-c4f6-4c82-b90e-ac279dc5003d","system_id":"levelo_inurba_marseille","lat":43.26695,"lon":5.38265,"is_reserved":false,"is_disabled":false,"rental_uris":{"android":"levelo://app?vid=d1a4d67b-c4f6-4c82-b90e-ac279dc5003d","ios":"levelo://app?vid=d1a4d67b-c4f6-4c82-b90e-ac279dc5003d"},"vehicle_type_id":"4","last_reported":1743502309,"current_range_meters":6400,"station_id":"ce4bhg92rcd13ifvqf90","pricing_plan_id":"cebpf4jnsgd1na2vs0mg"},{"bike_id":"6e228972-d4d2-42bc-bac0-8cabb361f502","system_id":"levelo_inurba_marseille","lat":43.24797,"lon":5.37443,"is_reserved":false,"is_disabled":false,"rental_uris":{"android":"levelo://app?vid=6e228972-d4d2-42bc-bac0-8cabb361f502","ios":"levelo://app?vid=6e228972-d4d2-42bc-bac0-8cabb361f502"},"vehicle_type_id":"4","last_reported":1743502309,"current_range_meters":6400,"station_id":"ce4bhgh2rcd13ifvqfb0","pricing_plan_id":"cebpf4jnsgd1na2vs0mg"},{"bike_id":"f50dd1be-9ee4-480d-920f-0721f0997798","system_id":"levelo_inurba_marseille","lat":43.23185,"lon":5.39974,"is_reserved":false,"is_disabled":false,"rental_uris":{"android":"levelo://app?vid=f50dd1be-9ee4-480d-920f-0721f0997798","ios":"levelo://app?vid=f50dd1be-9ee4-480d-920f-0721f0997798"},"vehicle_type_id":"4","last_reported":1743502309,"current_range_meters":6400,"station_id":"ce4bhn12rcd13ifvqgqg","pricing_plan_id":"cebpf4jnsgd1na2vs0mg"},{"bike_id":"139b6feb-730c-4111-9430-d901283db30e","system_id":"levelo_inurba_marseille","lat":43.32659,"lon":5.40995,"is_reserved":false,"is_disabled":false,"rental_uris":{"android":"levelo://app?vid=139b6feb-730c-4111-9430-d901283db30e","ios":"levelo://app?vid=139b6feb-730c-4111-9430-d901283db30e"},"vehicle_type_id":"4","last_reported":1743502309,"current_range_meters":6400,"station_id":"ce4bhpp2rcd13ifvqhgg","pricing_plan_id":"cebpf4jnsgd1na2vs0mg"},{"bike_id":"3cb89fd0-f5af-431c-b7e2-1f949da7b23f","system_id":"levelo_inurba_marseille","lat":43.32329,"lon":5.40618,"is_reserved":false,"is_disabled":false,"rental_uris":{"android":"levelo://app?vid=3cb89fd0-f5af-431c-b7e2-1f949da7b23f","ios":"levelo://app?vid=3cb89fd0-f5af-431c-b7e2-1f949da7b23f"},"vehicle_type_id":"4","last_reported":1743502309,"current_range_meters":6400,"station_id":"ce4bhq92rcd13ifvqhjg","pricing_plan_id":"cebpf4jnsgd1na2vs0mg"},{"bike_id":"1ff01bb2-135b-4117-a7fd-122336c5da48","system_id":"levelo_inurba_marseille","lat":43.30298,"lon":5.39201,"is_reserved":false,"is_disabled":false,"rental_uris":{"android":"levelo://app?vid=1ff01bb2-135b-4117-a7fd-122336c5da48","ios":"levelo://app?vid=1ff01bb2-135b-4117-a7fd-122336c5da48"},"vehicle_type_id":"4","last_reported":1743502309,"current_range_meters":6800,"station_id":"ce4bgkh2rcd13ifvqbk0","pricing_plan_id":"cebpf4jnsgd1na2vs0mg"},{"bike_id":"cd6a8012-37ab-4a9a-bafb-183a2069c500","system_id":"levelo_inurba_marseille","lat":43.299347,"lon":5.401652,"is_reserved":false,"is_disabled":false,"rental_uris":{"android":"levelo://app?vid=cd6a8012-37ab-4a9a-bafb-183a2069c500","ios":"levelo://app?vid=cd6a8012-37ab-4a9a-bafb-183a2069c500"},"vehicle_type_id":"4","last_reported":1743502309,"current_range_meters":6800,"station_id":"ce4bh0h2rcd13ifvqd60","pricing_plan_id":"cebpf4jnsgd1na2vs0mg"},{"bike_id":"e20f073f-5b93-4f88-8143-1e36e5942ea6","system_id":"levelo_inurba_marseille","lat":43.26202,"lon":5.37922,"is_reserved":false,"is_disabled":false,"rental_uris":{"android":"levelo://app?vid=e20f073f-5b93-4f88-8143-1e36e5942ea6","ios":"levelo://app?vid=e20f073f-5b93-4f88-8143-1e36e5942ea6"},"vehicle_type_id":"4","last_reported":1743502309,"current_range_meters":6800,"station_id":"ce4bhjp2rcd13ifvqg90","pricing_plan_id":"cebpf4jnsgd1na2vs0mg"},{"bike_id":"323c49b1-0c8f-495c-899a-003c84f7cf30","system_id":"levelo_inurba_marseille","lat":43.25941,"lon":5.40909,"is_reserved":false,"is_disabled":false,"rental_uris":{"android":"levelo://app?vid=323c49b1-0c8f-495c-899a-003c84f7cf30","ios":"levelo://app?vid=323c49b1-0c8f-495c-899a-003c84f7cf30"},"vehicle_type_id":"4","last_reported":1743502309,"current_range_meters":6800,"station_id":"ce4bhm92rcd13ifvqglg","pricing_plan_id":"cebpf4jnsgd1na2vs0mg"},{"bike_id":"121010d1-d0ea-475b-97a6-f9054736109c","system_id":"levelo_inurba_marseille","lat":43.23183,"lon":5.39994,"is_reserved":false,"is_disabled":false,"rental_uris":{"android":"levelo://app?vid=121010d1-d0ea-475b-97a6-f9054736109c","ios":"levelo://app?vid=121010d1-d0ea-475b-97a6-f9054736109c"},"vehicle_type_id":"4","last_reported":1743502309,"current_range_meters":6800,"station_id":"ce4bhn12rcd13ifvqgqg","pricing_plan_id":"cebpf4jnsgd1na2vs0mg"},{"bike_id":"1db1076c-863a-4786-a4e8-5bce3b31da7a","system_id":"levelo_inurba_marseille","lat":43.29869,"lon":5.39731,"is_reserved":false,"is_disabled":false,"rental_uris":{"android":"levelo://app?vid=1db1076c-863a-4786-a4e8-5bce3b31da7a","ios":"levelo://app?vid=1db1076c-863a-4786-a4e8-5bce3b31da7a"},"vehicle_type_id":"4","last_reported":1743502309,"current_range_meters":7200,"station_id":"ce4bh0h2rcd13ifvqd50","pricing_plan_id":"cebpf4jnsgd1na2vs0mg"},{"bike_id":"47fc67a9-5f54-434b-aea7-643bae57ff9a","system_id":"levelo_inurba_marseille","lat":43.28931,"lon":5.36645,"is_reserved":false,"is_disabled":false,"rental_uris":{"android":"levelo://app?vid=47fc67a9-5f54-434b-aea7-643bae57ff9a","ios":"levelo://app?vid=47fc67a9-5f54-434b-aea7-643bae57ff9a"},"vehicle_type_id":"4","last_reported":1743502309,"current_range_meters":7200,"station_id":"ce4bhap2rcd13ifvqek0","pricing_plan_id":"cebpf4jnsgd1na2vs0mg"},{"bike_id":"5203ccbe-ce3c-4351-a8e9-f9ee5ad38a9c","system_id":"levelo_inurba_marseille","lat":43.23195,"lon":5.39985,"is_reserved":false,"is_disabled":false,"rental_uris":{"android":"levelo://app?vid=5203ccbe-ce3c-4351-a8e9-f9ee5ad38a9c","ios":"levelo://app?vid=5203ccbe-ce3c-4351-a8e9-f9ee5ad38a9c"},"vehicle_type_id":"4","last_reported":1743502309,"current_range_meters":7200,"station_id":"ce4bhn12rcd13ifvqgqg","pricing_plan_id":"cebpf4jnsgd1na2vs0mg"},{"bike_id":"5ccae3de-58e9-4c46-ab98-3dfbadba33ff","system_id":"levelo_inurba_marseille","lat":43.2991,"lon":5.37477,"is_reserved":false,"is_disabled":false,"rental_uris":{"android":"levelo://app?vid=5ccae3de-58e9-4c46-ab98-3dfbadba33ff","ios":"levelo://app?vid=5ccae3de-58e9-4c46-ab98-3dfbadba33ff"},"vehicle_type_id":"4","last_reported":1743502309,"current_range_meters":8000,"station_id":"ce4bgjh2rcd13ifvqbg0","pricing_plan_id":"cebpf4jnsgd1na2vs0mg"},{"bike_id":"32c689bc-72a5-4d13-9a31-3f2e1f4fb44e","system_id":"levelo_inurba_marseille","lat":43.2669,"lon":5.38264,"is_reserved":false,"is_disabled":false,"rental_uris":{"android":"levelo://app?vid=32c689bc-72a5-4d13-9a31-3f2e1f4fb44e","ios":"levelo://app?vid=32c689bc-72a5-4d13-9a31-3f2e1f4fb44e"},"vehicle_type_id":"4","last_reported":1743502309,"current_range_meters":8000,"station_id":"ce4bhg92rcd13ifvqf90","pricing_plan_id":"cebpf4jnsgd1na2vs0mg"},{"bike_id":"256c4cba-d864-4a07-bae1-239380804ee5","system_id":"levelo_inurba_marseille","lat":43.24998,"lon":5.38928,"is_reserved":false,"is_disabled":false,"rental_uris":{"android":"levelo://app?vid=256c4cba-d864-4a07-bae1-239380804ee5","ios":"levelo://app?vid=256c4cba-d864-4a07-bae1-239380804ee5"},"vehicle_type_id":"4","last_reported":1743502309,"current_range_meters":8000,"station_id":"ce4bhgp2rcd13ifvqfd0","pricing_plan_id":"cebpf4jnsgd1na2vs0mg"},{"bike_id":"7e5b4f8b-5831-4add-ac41-6a17bdee50ce","system_id":"levelo_inurba_marseille","lat":43.25934,"lon":5.40912,"is_reserved":false,"is_disabled":false,"rental_uris":{"android":"levelo://app?vid=7e5b4f8b-5831-4add-ac41-6a17bdee50ce","ios":"levelo://app?vid=7e5b4f8b-5831-4add-ac41-6a17bdee50ce"},"vehicle_type_id":"4","last_reported":1743502309,"current_range_meters":8000,"station_id":"ce4bhm92rcd13ifvqglg","pricing_plan_id":"cebpf4jnsgd1na2vs0mg"},{"bike_id":"b84efb85-49db-41ac-b871-1e20490349ec","system_id":"levelo_inurba_marseille","lat":43.28707,"lon":5.39966,"is_reserved":false,"is_disabled":false,"rental_uris":{"android":"levelo://app?vid=b84efb85-49db-41ac-b871-1e20490349ec","ios":"levelo://app?vid=b84efb85-49db-41ac-b871-1e20490349ec"},"vehicle_type_id":"4","last_reported":1743502309,"current_range_meters":8000,"station_id":"ce4bho92rcd13ifvqh3g","pricing_plan_id":"cebpf4jnsgd1na2vs0mg"},{"bike_id":"98116208-f0d9-448e-914d-e1f5219f8c07","system_id":"levelo_inurba_marseille","lat":43.30955,"lon":5.39034,"is_reserved":false,"is_disabled":false,"rental_uris":{"android":"levelo://app?vid=98116208-f0d9-448e-914d-e1f5219f8c07","ios":"levelo://app?vid=98116208-f0d9-448e-914d-e1f5219f8c07"},"vehicle_type_id":"4","last_reported":1743502309,"current_range_meters":8400,"station_id":"ce4bgup2rcd13ifvqco0","pricing_plan_id":"cebpf4jnsgd1na2vs0mg"},{"bike_id":"dcbe5957-ed56-4ad7-97de-ad8ae6841a66","system_id":"levelo_inurba_marseille","lat":43.28939,"lon":5.39633,"is_reserved":false,"is_disabled":false,"rental_uris":{"android":"levelo://app?vid=dcbe5957-ed56-4ad7-97de-ad8ae6841a66","ios":"levelo://app?vid=dcbe5957-ed56-4ad7-97de-ad8ae6841a66"},"vehicle_type_id":"4","last_reported":1743502309,"current_range_meters":8400,"station_id":"ce4bh3h2rcd13ifvqdn0","pricing_plan_id":"cebpf4jnsgd1na2vs0mg"},{"bike_id":"3ca424a7-e0ca-4df5-8439-9f714ad26ba4","system_id":"levelo_inurba_marseille","lat":43.2791,"lon":5.3957,"is_reserved":false,"is_disabled":false,"rental_uris":{"android":"levelo://app?vid=3ca424a7-e0ca-4df5-8439-9f714ad26ba4","ios":"levelo://app?vid=3ca424a7-e0ca-4df5-8439-9f714ad26ba4"},"vehicle_type_id":"4","last_reported":1743502309,"current_range_meters":8400,"station_id":"ce4bhf92rcd13ifvqf40","pricing_plan_id":"cebpf4jnsgd1na2vs0mg"},{"bike_id":"60ed30e1-cadb-42d9-ab76-97f10cbd77b5","system_id":"levelo_inurba_marseille","lat":43.26214,"lon":5.37456,"is_reserved":false,"is_disabled":false,"rental_uris":{"android":"levelo://app?vid=60ed30e1-cadb-42d9-ab76-97f10cbd77b5","ios":"levelo://app?vid=60ed30e1-cadb-42d9-ab76-97f10cbd77b5"},"vehicle_type_id":"4","last_reported":1743502309,"current_range_meters":8400,"station_id":"ce4bhgp2rcd13ifvqfc0","pricing_plan_id":"cebpf4jnsgd1na2vs0mg"},{"bike_id":"f2b20ff1-74de-4934-9ab4-cceb7450ac0a","system_id":"levelo_inurba_marseille","lat":43.246674,"lon":5.381858,"is_reserved":false,"is_disabled":false,"rental_uris":{"android":"levelo://app?vid=f2b20ff1-74de-4934-9ab4-cceb7450ac0a","ios":"levelo://app?vid=f2b20ff1-74de-4934-9ab4-cceb7450ac0a"},"vehicle_type_id":"4","last_reported":1743502309,"current_range_meters":8400,"station_id":"ce4bhih2rcd13ifvqfr0","pricing_plan_id":"cebpf4jnsgd1na2vs0mg"},{"bike_id":"c08c8d19-33d2-4d9d-8966-d1030d697e34","system_id":"levelo_inurba_marseille","lat":43.28162,"lon":5.42639,"is_reserved":false,"is_disabled":false,"rental_uris":{"android":"levelo://app?vid=c08c8d19-33d2-4d9d-8966-d1030d697e34","ios":"levelo://app?vid=c08c8d19-33d2-4d9d-8966-d1030d697e34"},"vehicle_type_id":"4","last_reported":1743502309,"current_range_meters":8400,"station_id":"ce4bhnh2rcd13ifvqgug","pricing_plan_id":"cebpf4jnsgd1na2vs0mg"},{"bike_id":"b3593ea0-f10f-4d2d-8fd4-ca8847ced39c","system_id":"levelo_inurba_marseille","lat":43.33609,"lon":5.41026,"is_reserved":false,"is_disabled":false,"rental_uris":{"android":"levelo://app?vid=b3593ea0-f10f-4d2d-8fd4-ca8847ced39c","ios":"levelo://app?vid=b3593ea0-f10f-4d2d-8fd4-ca8847ced39c"},"vehicle_type_id":"4","last_reported":1743502309,"current_range_meters":8400,"station_id":"ce4bhqh2rcd13ifvqhmg","pricing_plan_id":"cebpf4jnsgd1na2vs0mg"},{"bike_id":"9d8fe15d-2ae1-437c-b15f-ebff6508642d","system_id":"levelo_inurba_marseille","lat":43.3055,"lon":5.36539,"is_reserved":false,"is_disabled":false,"rental_uris":{"android":"levelo://app?vid=9d8fe15d-2ae1-437c-b15f-ebff6508642d","ios":"levelo://app?vid=9d8fe15d-2ae1-437c-b15f-ebff6508642d"},"vehicle_type_id":"4","last_reported":1743502309,"current_range_meters":8800,"station_id":"","pricing_plan_id":"cebpf4jnsgd1na2vs0mg"},{"bike_id":"e78bd526-4264-48b2-bb40-0037fb291075","system_id":"levelo_inurba_marseille","lat":43.29371,"lon":5.37816,"is_reserved":false,"is_disabled":false,"rental_uris":{"android":"levelo://app?vid=e78bd526-4264-48b2-bb40-0037fb291075","ios":"levelo://app?vid=e78bd526-4264-48b2-bb40-0037fb291075"},"vehicle_type_id":"4","last_reported":1743502309,"current_range_meters":8800,"station_id":"ce4bgjh2rcd13ifvqbf0","pricing_plan_id":"cebpf4jnsgd1na2vs0mg"},{"bike_id":"fac9cded-36ca-4de8-b1ca-3944cdfd3e21","system_id":"levelo_inurba_marseille","lat":43.30445,"lon":5.38895,"is_reserved":false,"is_disabled":false,"rental_uris":{"android":"levelo://app?vid=fac9cded-36ca-4de8-b1ca-3944cdfd3e21","ios":"levelo://app?vid=fac9cded-36ca-4de8-b1ca-3944cdfd3e21"},"vehicle_type_id":"4","last_reported":1743502309,"current_range_meters":8800,"station_id":"ce4bgk12rcd13ifvqbi0","pricing_plan_id":"cebpf4jnsgd1na2vs0mg"},{"bike_id":"f595bc7d-3ee0-468e-afbb-4de1855a1a09","system_id":"levelo_inurba_marseille","lat":43.2894,"lon":5.39631,"is_reserved":false,"is_disabled":false,"rental_uris":{"android":"levelo://app?vid=f595bc7d-3ee0-468e-afbb-4de1855a1a09","ios":"levelo://app?vid=f595bc7d-3ee0-468e-afbb-4de1855a1a09"},"vehicle_type_id":"4","last_reported":1743502309,"current_range_meters":8800,"station_id":"ce4bh3h2rcd13ifvqdn0","pricing_plan_id":"cebpf4jnsgd1na2vs0mg"},{"bike_id":"ab725588-585f-4d14-867d-c0b030999b7f","system_id":"levelo_inurba_marseille","lat":43.26025,"lon":5.37545,"is_reserved":false,"is_disabled":false,"rental_uris":{"android":"levelo://app?vid=ab725588-585f-4d14-867d-c0b030999b7f","ios":"levelo://app?vid=ab725588-585f-4d14-867d-c0b030999b7f"},"vehicle_type_id":"4","last_reported":1743502309,"current_range_meters":8800,"station_id":"ce4bhgh2rcd13ifvqfa0","pricing_plan_id":"cebpf4jnsgd1na2vs0mg"},{"bike_id":"2f04edae-9512-46d3-b068-1782d17c6e53","system_id":"levelo_inurba_marseille","lat":43.24388,"lon":5.37058,"is_reserved":false,"is_disabled":false,"rental_uris":{"android":"levelo://app?vid=2f04edae-9512-46d3-b068-1782d17c6e53","ios":"levelo://app?vid=2f04edae-9512-46d3-b068-1782d17c6e53"},"vehicle_type_id":"4","last_reported":1743502309,"current_range_meters":8800,"station_id":"ce4bhhh2rcd13ifvqfk0","pricing_plan_id":"cebpf4jnsgd1na2vs0mg"},{"bike_id":"486d81a5-6113-4e78-8dab-1c187133504e","system_id":"levelo_inurba_marseille","lat":43.24663,"lon":5.38161,"is_reserved":false,"is_disabled":false,"rental_uris":{"android":"levelo://app?vid=486d81a5-6113-4e78-8dab-1c187133504e","ios":"levelo://app?vid=486d81a5-6113-4e78-8dab-1c187133504e"},"vehicle_type_id":"4","last_reported":1743502309,"current_range_meters":8800,"station_id":"ce4bhih2rcd13ifvqfr0","pricing_plan_id":"cebpf4jnsgd1na2vs0mg"},{"bike_id":"0bfb3faa-63d6-451c-afcc-685efdd29e73","system_id":"levelo_inurba_marseille","lat":43.23148,"lon":5.4372,"is_reserved":false,"is_disabled":false,"rental_uris":{"android":"levelo://app?vid=0bfb3faa-63d6-451c-afcc-685efdd29e73","ios":"levelo://app?vid=0bfb3faa-63d6-451c-afcc-685efdd29e73"},"vehicle_type_id":"4","last_reported":1743502309,"current_range_meters":8800,"station_id":"ce4bhmp2rcd13ifvqgog","pricing_plan_id":"cebpf4jnsgd1na2vs0mg"},{"bike_id":"2fa84283-a822-4b52-a5c3-c082a8327ffd","system_id":"levelo_inurba_marseille","lat":43.31359,"lon":5.3849,"is_reserved":false,"is_disabled":false,"rental_uris":{"android":"levelo://app?vid=2fa84283-a822-4b52-a5c3-c082a8327ffd","ios":"levelo://app?vid=2fa84283-a822-4b52-a5c3-c082a8327ffd"},"vehicle_type_id":"4","last_reported":1743502309,"current_range_meters":9200,"station_id":"ce4bgt92rcd13ifvqcf0","pricing_plan_id":"cebpf4jnsgd1na2vs0mg"},{"bike_id":"db1a09b9-be22-4bf5-aa9c-e2c4a2b638ea","system_id":"levelo_inurba_marseille","lat":43.28927,"lon":5.36397,"is_reserved":false,"is_disabled":false,"rental_uris":{"android":"levelo://app?vid=db1a09b9-be22-4bf5-aa9c-e2c4a2b638ea","ios":"levelo://app?vid=db1a09b9-be22-4bf5-aa9c-e2c4a2b638ea"},"vehicle_type_id":"4","last_reported":1743502309,"current_range_meters":9200,"station_id":"ce4bhc92rcd13ifvqetg","pricing_plan_id":"cebpf4jnsgd1na2vs0mg"},{"bike_id":"54169139-a694-4596-8949-4c448f024d17","system_id":"levelo_inurba_marseille","lat":43.24802,"lon":5.37455,"is_reserved":false,"is_disabled":false,"rental_uris":{"android":"levelo://app?vid=54169139-a694-4596-8949-4c448f024d17","ios":"levelo://app?vid=54169139-a694-4596-8949-4c448f024d17"},"vehicle_type_id":"4","last_reported":1743502309,"current_range_meters":9200,"station_id":"ce4bhgh2rcd13ifvqfb0","pricing_plan_id":"cebpf4jnsgd1na2vs0mg"},{"bike_id":"c5f908d3-4610-4cae-8aeb-e89ca0e64cc1","system_id":"levelo_inurba_marseille","lat":43.33605,"lon":5.41006,"is_reserved":false,"is_disabled":false,"rental_uris":{"android":"levelo://app?vid=c5f908d3-4610-4cae-8aeb-e89ca0e64cc1","ios":"levelo://app?vid=c5f908d3-4610-4cae-8aeb-e89ca0e64cc1"},"vehicle_type_id":"4","last_reported":1743502309,"current_range_meters":9200,"station_id":"ce4bhqh2rcd13ifvqhmg","pricing_plan_id":"cebpf4jnsgd1na2vs0mg"},{"bike_id":"326d0767-db9f-4a9c-936f-428c5774f2ad","system_id":"levelo_inurba_marseille","lat":43.23066,"lon":5.35481,"is_reserved":false,"is_disabled":false,"rental_uris":{"android":"levelo://app?vid=326d0767-db9f-4a9c-936f-428c5774f2ad","ios":"levelo://app?vid=326d0767-db9f-4a9c-936f-428c5774f2ad"},"vehicle_type_id":"4","last_reported":1743502309,"current_range_meters":9200,"station_id":"cpo3342slgdg3j2ifvpg","pricing_plan_id":"cebpf4jnsgd1na2vs0mg"},{"bike_id":"37222ca6-62b8-43f8-8173-20d73db0b91e","system_id":"levelo_inurba_marseille","lat":43.29198,"lon":5.39331,"is_reserved":false,"is_disabled":false,"rental_uris":{"android":"levelo://app?vid=37222ca6-62b8-43f8-8173-20d73db0b91e","ios":"levelo://app?vid=37222ca6-62b8-43f8-8173-20d73db0b91e"},"vehicle_type_id":"4","last_reported":1743502309,"current_range_meters":9600,"station_id":"ce4bh192rcd13ifvqdd0","pricing_plan_id":"cebpf4jnsgd1na2vs0mg"},{"bike_id":"20f5d5b6-da1b-4ad8-8de5-42887a69d068","system_id":"levelo_inurba_marseille","lat":43.29005,"lon":5.35612,"is_reserved":false,"is_disabled":false,"rental_uris":{"android":"levelo://app?vid=20f5d5b6-da1b-4ad8-8de5-42887a69d068","ios":"levelo://app?vid=20f5d5b6-da1b-4ad8-8de5-42887a69d068"},"vehicle_type_id":"4","last_reported":1743502309,"current_range_meters":9600,"station_id":"ce4bhb92rcd13ifvqen0","pricing_plan_id":"cebpf4jnsgd1na2vs0mg"},{"bike_id":"2286499e-afb3-42f0-be29-239621d5e7b7","system_id":"levelo_inurba_marseille","lat":43.24168,"lon":5.39723,"is_reserved":false,"is_disabled":false,"rental_uris":{"android":"levelo://app?vid=2286499e-afb3-42f0-be29-239621d5e7b7","ios":"levelo://app?vid=2286499e-afb3-42f0-be29-239621d5e7b7"},"vehicle_type_id":"4","last_reported":1743502309,"current_range_meters":9600,"station_id":"ce4bhn12rcd13ifvqgpg","pricing_plan_id":"cebpf4jnsgd1na2vs0mg"},{"bike_id":"a41cce1f-4998-4aa8-9a69-b971d8852a5b","system_id":"levelo_inurba_marseille","lat":43.30139,"lon":5.37317,"is_reserved":false,"is_disabled":false,"rental_uris":{"android":"levelo://app?vid=a41cce1f-4998-4aa8-9a69-b971d8852a5b","ios":"levelo://app?vid=a41cce1f-4998-4aa8-9a69-b971d8852a5b"},"vehicle_type_id":"4","last_reported":1743502309,"current_range_meters":10000,"station_id":"","pricing_plan_id":"cebpf4jnsgd1na2vs0mg"},{"bike_id":"c86f3dd7-4af6-4e32-832d-8c711682ef46","system_id":"levelo_inurba_marseille","lat":43.25928,"lon":5.40879,"is_reserved":false,"is_disabled":false,"rental_uris":{"android":"levelo://app?vid=c86f3dd7-4af6-4e32-832d-8c711682ef46","ios":"levelo://app?vid=c86f3dd7-4af6-4e32-832d-8c711682ef46"},"vehicle_type_id":"4","last_reported":1743502309,"current_range_meters":10000,"station_id":"ce4bhm92rcd13ifvqglg","pricing_plan_id":"cebpf4jnsgd1na2vs0mg"},{"bike_id":"a65c60d0-9838-4fce-ab82-173f64a7b595","system_id":"levelo_inurba_marseille","lat":43.24184,"lon":5.39726,"is_reserved":false,"is_disabled":false,"rental_uris":{"android":"levelo://app?vid=a65c60d0-9838-4fce-ab82-173f64a7b595","ios":"levelo://app?vid=a65c60d0-9838-4fce-ab82-173f64a7b595"},"vehicle_type_id":"4","last_reported":1743502309,"current_range_meters":10000,"station_id":"ce4bhn12rcd13ifvqgpg","pricing_plan_id":"cebpf4jnsgd1na2vs0mg"},{"bike_id":"649b5ad5-62ac-4bfd-a6cd-60fc43d8fef1","system_id":"levelo_inurba_marseille","lat":43.29246,"lon":5.39818,"is_reserved":false,"is_disabled":false,"rental_uris":{"android":"levelo://app?vid=649b5ad5-62ac-4bfd-a6cd-60fc43d8fef1","ios":"levelo://app?vid=649b5ad5-62ac-4bfd-a6cd-60fc43d8fef1"},"vehicle_type_id":"4","last_reported":1743502309,"current_range_meters":10800,"station_id":"","pricing_plan_id":"cebpf4jnsgd1na2vs0mg"},{"bike_id":"a61d69b6-c682-4e51-b65c-90e9332cb9b6","system_id":"levelo_inurba_marseille","lat":43.29253,"lon":5.37602,"is_reserved":false,"is_disabled":false,"rental_uris":{"android":"levelo://app?vid=a61d69b6-c682-4e51-b65c-90e9332cb9b6","ios":"levelo://app?vid=a61d69b6-c682-4e51-b65c-90e9332cb9b6"},"vehicle_type_id":"4","last_reported":1743502309,"current_range_meters":10800,"station_id":"ce4bgi12rcd13ifvqb80","pricing_plan_id":"cebpf4jnsgd1na2vs0mg"},{"bike_id":"c8eaf46c-f86e-44ae-8f46-400cbe7c7e86","system_id":"levelo_inurba_marseille","lat":43.30127,"lon":5.398659,"is_reserved":false,"is_disabled":false,"rental_uris":{"android":"levelo://app?vid=c8eaf46c-f86e-44ae-8f46-400cbe7c7e86","ios":"levelo://app?vid=c8eaf46c-f86e-44ae-8f46-400cbe7c7e86"},"vehicle_type_id":"4","last_reported":1743502309,"current_range_meters":11200,"station_id":"","pricing_plan_id":"cebpf4jnsgd1na2vs0mg"},{"bike_id":"41e7a323-5090-4c6c-9dbf-b8655af19255","system_id":"levelo_inurba_marseille","lat":43.31212,"lon":5.36877,"is_reserved":false,"is_disabled":false,"rental_uris":{"android":"levelo://app?vid=41e7a323-5090-4c6c-9dbf-b8655af19255","ios":"levelo://app?vid=41e7a323-5090-4c6c-9dbf-b8655af19255"},"vehicle_type_id":"4","last_reported":1743502309,"current_range_meters":11200,"station_id":"ce4bgl92rcd13ifvqbq0","pricing_plan_id":"cebpf4jnsgd1na2vs0mg"},{"bike_id":"75c2c427-0bf8-4708-8c5a-ddb6820f9b04","system_id":"levelo_inurba_marseille","lat":43.30797,"lon":5.38163,"is_reserved":false,"is_disabled":false,"rental_uris":{"android":"levelo://app?vid=75c2c427-0bf8-4708-8c5a-ddb6820f9b04","ios":"levelo://app?vid=75c2c427-0bf8-4708-8c5a-ddb6820f9b04"},"vehicle_type_id":"4","last_reported":1743502309,"current_range_meters":11200,"station_id":"ce4bgt12rcd13ifvqce0","pricing_plan_id":"cebpf4jnsgd1na2vs0mg"},{"bike_id":"e47bc61d-df2d-41b3-b26b-dd94e6e5e301","system_id":"levelo_inurba_marseille","lat":43.26243,"lon":5.42122,"is_reserved":false,"is_disabled":false,"rental_uris":{"android":"levelo://app?vid=e47bc61d-df2d-41b3-b26b-dd94e6e5e301","ios":"levelo://app?vid=e47bc61d-df2d-41b3-b26b-dd94e6e5e301"},"vehicle_type_id":"4","last_reported":1743502309,"current_range_meters":11600,"station_id":"","pricing_plan_id":"cebpf4jnsgd1na2vs0mg"},{"bike_id":"b3d95ff5-37d7-4741-93d1-8bc38765e0b6","system_id":"levelo_inurba_marseille","lat":43.30146,"lon":5.38055,"is_reserved":false,"is_disabled":false,"rental_uris":{"android":"levelo://app?vid=b3d95ff5-37d7-4741-93d1-8bc38765e0b6","ios":"levelo://app?vid=b3d95ff5-37d7-4741-93d1-8bc38765e0b6"},"vehicle_type_id":"4","last_reported":1743502309,"current_range_meters":11600,"station_id":"ce4bgjp2rcd13ifvqbh0","pricing_plan_id":"cebpf4jnsgd1na2vs0mg"},{"bike_id":"1b63ccb2-1298-4d96-b7f3-6ad6cace00e9","system_id":"levelo_inurba_marseille","lat":43.26105,"lon":5.4007,"is_reserved":false,"is_disabled":false,"rental_uris":{"android":"levelo://app?vid=1b63ccb2-1298-4d96-b7f3-6ad6cace00e9","ios":"levelo://app?vid=1b63ccb2-1298-4d96-b7f3-6ad6cace00e9"},"vehicle_type_id":"4","last_reported":1743502309,"current_range_meters":12000,"station_id":"","pricing_plan_id":"cebpf4jnsgd1na2vs0mg"},{"bike_id":"8851836b-2cd9-44c4-90aa-f36a2076889c","system_id":"levelo_inurba_marseille","lat":43.295299,"lon":5.390436,"is_reserved":false,"is_disabled":false,"rental_uris":{"android":"levelo://app?vid=8851836b-2cd9-44c4-90aa-f36a2076889c","ios":"levelo://app?vid=8851836b-2cd9-44c4-90aa-f36a2076889c"},"vehicle_type_id":"4","last_reported":1743502309,"current_range_meters":12000,"station_id":"ce4bh3p2rcd13ifvqdp0","pricing_plan_id":"cebpf4jnsgd1na2vs0mg"},{"bike_id":"398ca055-084d-42d0-8ca9-ed591e77e956","system_id":"levelo_inurba_marseille","lat":43.23158,"lon":5.43706,"is_reserved":false,"is_disabled":false,"rental_uris":{"android":"levelo://app?vid=398ca055-084d-42d0-8ca9-ed591e77e956","ios":"levelo://app?vid=398ca055-084d-42d0-8ca9-ed591e77e956"},"vehicle_type_id":"4","last_reported":1743502309,"current_range_meters":12000,"station_id":"ce4bhmp2rcd13ifvqgog","pricing_plan_id":"cebpf4jnsgd1na2vs0mg"},{"bike_id":"27773214-4312-4127-aa54-e74cba3d6d07","system_id":"levelo_inurba_marseille","lat":43.27784,"lon":5.40739,"is_reserved":false,"is_disabled":false,"rental_uris":{"android":"levelo://app?vid=27773214-4312-4127-aa54-e74cba3d6d07","ios":"levelo://app?vid=27773214-4312-4127-aa54-e74cba3d6d07"},"vehicle_type_id":"4","last_reported":1743502309,"current_range_meters":12000,"station_id":"ce4bhnh2rcd13ifvqgtg","pricing_plan_id":"cebpf4jnsgd1na2vs0mg"},{"bike_id":"f79c822c-4cca-4152-b850-b6604836f86f","system_id":"levelo_inurba_marseille","lat":43.306,"lon":5.37226,"is_reserved":false,"is_disabled":false,"rental_uris":{"android":"levelo://app?vid=f79c822c-4cca-4152-b850-b6604836f86f","ios":"levelo://app?vid=f79c822c-4cca-4152-b850-b6604836f86f"},"vehicle_type_id":"4","last_reported":1743502309,"current_range_meters":12400,"station_id":"ce4bgqh2rcd13ifvqc4g","pricing_plan_id":"cebpf4jnsgd1na2vs0mg"},{"bike_id":"5471e7f4-e576-46b9-82eb-667434d7af4a","system_id":"levelo_inurba_marseille","lat":43.30575,"lon":5.36537,"is_reserved":false,"is_disabled":false,"rental_uris":{"android":"levelo://app?vid=5471e7f4-e576-46b9-82eb-667434d7af4a","ios":"levelo://app?vid=5471e7f4-e576-46b9-82eb-667434d7af4a"},"vehicle_type_id":"4","last_reported":1743502309,"current_range_meters":12400,"station_id":"ce4bgs12rcd13ifvqcag","pricing_plan_id":"cebpf4jnsgd1na2vs0mg"},{"bike_id":"26dc95b4-f72c-4ae5-8d75-dd27438fff6b","system_id":"levelo_inurba_marseille","lat":43.30569,"lon":5.36537,"is_reserved":false,"is_disabled":false,"rental_uris":{"android":"levelo://app?vid=26dc95b4-f72c-4ae5-8d75-dd27438fff6b","ios":"levelo://app?vid=26dc95b4-f72c-4ae5-8d75-dd27438fff6b"},"vehicle_type_id":"4","last_reported":1743502309,"current_range_meters":12400,"station_id":"ce4bgs12rcd13ifvqcag","pricing_plan_id":"cebpf4jnsgd1na2vs0mg"},{"bike_id":"5518e3bf-bd3b-4b0f-b526-45803f99f177","system_id":"levelo_inurba_marseille","lat":43.24991,"lon":5.38938,"is_reserved":false,"is_disabled":false,"rental_uris":{"android":"levelo://app?vid=5518e3bf-bd3b-4b0f-b526-45803f99f177","ios":"levelo://app?vid=5518e3bf-bd3b-4b0f-b526-45803f99f177"},"vehicle_type_id":"4","last_reported":1743502309,"current_range_meters":12400,"station_id":"ce4bhgp2rcd13ifvqfd0","pricing_plan_id":"cebpf4jnsgd1na2vs0mg"},{"bike_id":"f9556671-f8e9-4ef6-b997-21a30e85c7b2","system_id":"levelo_inurba_marseille","lat":43.23148,"lon":5.43723,"is_reserved":false,"is_disabled":false,"rental_uris":{"android":"levelo://app?vid=f9556671-f8e9-4ef6-b997-21a30e85c7b2","ios":"levelo://app?vid=f9556671-f8e9-4ef6-b997-21a30e85c7b2"},"vehicle_type_id":"4","last_reported":1743502309,"current_range_meters":12400,"station_id":"ce4bhmp2rcd13ifvqgog","pricing_plan_id":"cebpf4jnsgd1na2vs0mg"},{"bike_id":"4220d26d-272d-4b23-9cec-a79c1d919b49","system_id":"levelo_inurba_marseille","lat":43.306,"lon":5.37111,"is_reserved":false,"is_disabled":false,"rental_uris":{"android":"levelo://app?vid=4220d26d-272d-4b23-9cec-a79c1d919b49","ios":"levelo://app?vid=4220d26d-272d-4b23-9cec-a79c1d919b49"},"vehicle_type_id":"4","last_reported":1743502309,"current_range_meters":12800,"station_id":"","pricing_plan_id":"cebpf4jnsgd1na2vs0mg"},{"bike_id":"9b315eb9-c7d6-46ec-92e5-d2f1544e0f6e","system_id":"levelo_inurba_marseille","lat":43.28271,"lon":5.35057,"is_reserved":false,"is_disabled":false,"rental_uris":{"android":"levelo://app?vid=9b315eb9-c7d6-46ec-92e5-d2f1544e0f6e","ios":"levelo://app?vid=9b315eb9-c7d6-46ec-92e5-d2f1544e0f6e"},"vehicle_type_id":"4","last_reported":1743502309,"current_range_meters":12800,"station_id":"ce4bhbp2rcd13ifvqerg","pricing_plan_id":"cebpf4jnsgd1na2vs0mg"},{"bike_id":"f78f5241-13ca-483d-b5d3-12e48c3d9869","system_id":"levelo_inurba_marseille","lat":43.29606,"lon":5.38107,"is_reserved":false,"is_disabled":false,"rental_uris":{"android":"levelo://app?vid=f78f5241-13ca-483d-b5d3-12e48c3d9869","ios":"levelo://app?vid=f78f5241-13ca-483d-b5d3-12e48c3d9869"},"vehicle_type_id":"4","last_reported":1743502309,"current_range_meters":13600,"station_id":"ce4bgl12rcd13ifvqbo0","pricing_plan_id":"cebpf4jnsgd1na2vs0mg"},{"bike_id":"f936d7fb-d3dd-47bf-9347-d66e517a357f","system_id":"levelo_inurba_marseille","lat":43.29939,"lon":5.36542,"is_reserved":false,"is_disabled":false,"rental_uris":{"android":"levelo://app?vid=f936d7fb-d3dd-47bf-9347-d66e517a357f","ios":"levelo://app?vid=f936d7fb-d3dd-47bf-9347-d66e517a357f"},"vehicle_type_id":"4","last_reported":1743502309,"current_range_meters":13600,"station_id":"ce4bgm92rcd13ifvqbr0","pricing_plan_id":"cebpf4jnsgd1na2vs0mg"},{"bike_id":"65f9fdad-31a8-4fb3-87a1-c4fa64c86ebe","system_id":"levelo_inurba_marseille","lat":43.32475,"lon":5.36555,"is_reserved":false,"is_disabled":false,"rental_uris":{"android":"levelo://app?vid=65f9fdad-31a8-4fb3-87a1-c4fa64c86ebe","ios":"levelo://app?vid=65f9fdad-31a8-4fb3-87a1-c4fa64c86ebe"},"vehicle_type_id":"4","last_reported":1743502309,"current_range_meters":13600,"station_id":"ce4bhs12rcd13ifvqhvg","pricing_plan_id":"cebpf4jnsgd1na2vs0mg"},{"bike_id":"6e6a66e5-58ca-4db1-9695-b46ed5c28827","system_id":"levelo_inurba_marseille","lat":43.31831,"lon":5.36846,"is_reserved":false,"is_disabled":false,"rental_uris":{"android":"levelo://app?vid=6e6a66e5-58ca-4db1-9695-b46ed5c28827","ios":"levelo://app?vid=6e6a66e5-58ca-4db1-9695-b46ed5c28827"},"vehicle_type_id":"4","last_reported":1743502309,"current_range_meters":14000,"station_id":"","pricing_plan_id":"cebpf4jnsgd1na2vs0mg"},{"bike_id":"86354ae6-2ad3-4c03-a340-c661e15634b2","system_id":"levelo_inurba_marseille","lat":43.30132,"lon":5.37424,"is_reserved":false,"is_disabled":false,"rental_uris":{"android":"levelo://app?vid=86354ae6-2ad3-4c03-a340-c661e15634b2","ios":"levelo://app?vid=86354ae6-2ad3-4c03-a340-c661e15634b2"},"vehicle_type_id":"4","last_reported":1743502309,"current_range_meters":14000,"station_id":"ce4bgs92rcd13ifvqcc0","pricing_plan_id":"cebpf4jnsgd1na2vs0mg"},{"bike_id":"717d162c-3ca4-45dd-b0c2-b24f37daa8ba","system_id":"levelo_inurba_marseille","lat":43.25924,"lon":5.40889,"is_reserved":false,"is_disabled":false,"rental_uris":{"android":"levelo://app?vid=717d162c-3ca4-45dd-b0c2-b24f37daa8ba","ios":"levelo://app?vid=717d162c-3ca4-45dd-b0c2-b24f37daa8ba"},"vehicle_type_id":"4","last_reported":1743502309,"current_range_meters":14000,"station_id":"ce4bhm92rcd13ifvqglg","pricing_plan_id":"cebpf4jnsgd1na2vs0mg"},{"bike_id":"350ac11d-7905-4f75-a4c7-890c9530d43f","system_id":"levelo_inurba_marseille","lat":43.27812,"lon":5.40701,"is_reserved":false,"is_disabled":false,"rental_uris":{"android":"levelo://app?vid=350ac11d-7905-4f75-a4c7-890c9530d43f","ios":"levelo://app?vid=350ac11d-7905-4f75-a4c7-890c9530d43f"},"vehicle_type_id":"4","last_reported":1743502309,"current_range_meters":14000,"station_id":"ce4bhnh2rcd13ifvqgtg","pricing_plan_id":"cebpf4jnsgd1na2vs0mg"},{"bike_id":"36ce5e4a-7774-4d2b-bf6a-310ea287ea7b","system_id":"levelo_inurba_marseille","lat":43.33628,"lon":5.40998,"is_reserved":false,"is_disabled":false,"rental_uris":{"android":"levelo://app?vid=36ce5e4a-7774-4d2b-bf6a-310ea287ea7b","ios":"levelo://app?vid=36ce5e4a-7774-4d2b-bf6a-310ea287ea7b"},"vehicle_type_id":"4","last_reported":1743502309,"current_range_meters":14000,"station_id":"ce4bhqh2rcd13ifvqhmg","pricing_plan_id":"cebpf4jnsgd1na2vs0mg"},{"bike_id":"4474f66b-3eb6-4aea-af7b-d43fdaacf384","system_id":"levelo_inurba_marseille","lat":43.28225,"lon":5.40304,"is_reserved":false,"is_disabled":false,"rental_uris":{"android":"levelo://app?vid=4474f66b-3eb6-4aea-af7b-d43fdaacf384","ios":"levelo://app?vid=4474f66b-3eb6-4aea-af7b-d43fdaacf384"},"vehicle_type_id":"4","last_reported":1743502309,"current_range_meters":14400,"station_id":"","pricing_plan_id":"cebpf4jnsgd1na2vs0mg"},{"bike_id":"c3742909-8ac1-45e8-bbc0-0a14494abaa8","system_id":"levelo_inurba_marseille","lat":43.24648,"lon":5.38887,"is_reserved":false,"is_disabled":false,"rental_uris":{"android":"levelo://app?vid=c3742909-8ac1-45e8-bbc0-0a14494abaa8","ios":"levelo://app?vid=c3742909-8ac1-45e8-bbc0-0a14494abaa8"},"vehicle_type_id":"4","last_reported":1743502309,"current_range_meters":14400,"station_id":"ce4bhg12rcd13ifvqf60","pricing_plan_id":"cebpf4jnsgd1na2vs0mg"},{"bike_id":"fbd9bf99-235a-4020-aa22-98fee4e8ca93","system_id":"levelo_inurba_marseille","lat":43.25111,"lon":5.40322,"is_reserved":false,"is_disabled":false,"rental_uris":{"android":"levelo://app?vid=fbd9bf99-235a-4020-aa22-98fee4e8ca93","ios":"levelo://app?vid=fbd9bf99-235a-4020-aa22-98fee4e8ca93"},"vehicle_type_id":"4","last_reported":1743502309,"current_range_meters":14400,"station_id":"ce4bhlh2rcd13ifvqgig","pricing_plan_id":"cebpf4jnsgd1na2vs0mg"},{"bike_id":"0ea3c931-5a17-44b4-b2ef-c8b9e672acd3","system_id":"levelo_inurba_marseille","lat":43.23155,"lon":5.43715,"is_reserved":false,"is_disabled":false,"rental_uris":{"android":"levelo://app?vid=0ea3c931-5a17-44b4-b2ef-c8b9e672acd3","ios":"levelo://app?vid=0ea3c931-5a17-44b4-b2ef-c8b9e672acd3"},"vehicle_type_id":"4","last_reported":1743502309,"current_range_meters":14400,"station_id":"ce4bhmp2rcd13ifvqgog","pricing_plan_id":"cebpf4jnsgd1na2vs0mg"},{"bike_id":"8dc01da3-5fa2-4009-813a-58b44a415568","system_id":"levelo_inurba_marseille","lat":43.24202,"lon":5.39726,"is_reserved":false,"is_disabled":false,"rental_uris":{"android":"levelo://app?vid=8dc01da3-5fa2-4009-813a-58b44a415568","ios":"levelo://app?vid=8dc01da3-5fa2-4009-813a-58b44a415568"},"vehicle_type_id":"4","last_reported":1743502309,"current_range_meters":14400,"station_id":"ce4bhn12rcd13ifvqgpg","pricing_plan_id":"cebpf4jnsgd1na2vs0mg"},{"bike_id":"74d792f7-408a-4b2d-9182-fdc09d0345a0","system_id":"levelo_inurba_marseille","lat":43.26944,"lon":5.40242,"is_reserved":false,"is_disabled":false,"rental_uris":{"android":"levelo://app?vid=74d792f7-408a-4b2d-9182-fdc09d0345a0","ios":"levelo://app?vid=74d792f7-408a-4b2d-9182-fdc09d0345a0"},"vehicle_type_id":"4","last_reported":1743502309,"current_range_meters":14400,"station_id":"cjm6bp8fraef2m0cb0m0","pricing_plan_id":"cebpf4jnsgd1na2vs0mg"},{"bike_id":"a4fbffc1-fb68-46f7-9ba4-456c1553dc03","system_id":"levelo_inurba_marseille","lat":43.30315,"lon":5.40454,"is_reserved":false,"is_disabled":false,"rental_uris":{"android":"levelo://app?vid=a4fbffc1-fb68-46f7-9ba4-456c1553dc03","ios":"levelo://app?vid=a4fbffc1-fb68-46f7-9ba4-456c1553dc03"},"vehicle_type_id":"4","last_reported":1743502309,"current_range_meters":14800,"station_id":"ce4bh012rcd13ifvqd10","pricing_plan_id":"cebpf4jnsgd1na2vs0mg"},{"bike_id":"1958fac6-8848-4dc2-81f1-e4faecae3c77","system_id":"levelo_inurba_marseille","lat":43.28398,"lon":5.3751,"is_reserved":false,"is_disabled":false,"rental_uris":{"android":"levelo://app?vid=1958fac6-8848-4dc2-81f1-e4faecae3c77","ios":"levelo://app?vid=1958fac6-8848-4dc2-81f1-e4faecae3c77"},"vehicle_type_id":"4","last_reported":1743502309,"current_range_meters":14800,"station_id":"ce4bh412rcd13ifvqds0","pricing_plan_id":"cebpf4jnsgd1na2vs0mg"},{"bike_id":"f553a458-f59f-47d5-8423-3391d3aa91bf","system_id":"levelo_inurba_marseille","lat":43.26209,"lon":5.37447,"is_reserved":false,"is_disabled":false,"rental_uris":{"android":"levelo://app?vid=f553a458-f59f-47d5-8423-3391d3aa91bf","ios":"levelo://app?vid=f553a458-f59f-47d5-8423-3391d3aa91bf"},"vehicle_type_id":"4","last_reported":1743502309,"current_range_meters":14800,"station_id":"ce4bhgp2rcd13ifvqfc0","pricing_plan_id":"cebpf4jnsgd1na2vs0mg"},{"bike_id":"efd1dee4-505c-47ef-b864-09ddcbd1b424","system_id":"levelo_inurba_marseille","lat":43.26953,"lon":5.38624,"is_reserved":false,"is_disabled":false,"rental_uris":{"android":"levelo://app?vid=efd1dee4-505c-47ef-b864-09ddcbd1b424","ios":"levelo://app?vid=efd1dee4-505c-47ef-b864-09ddcbd1b424"},"vehicle_type_id":"4","last_reported":1743502309,"current_range_meters":14800,"station_id":"ce4bhh92rcd13ifvqfh0","pricing_plan_id":"cebpf4jnsgd1na2vs0mg"},{"bike_id":"4c564b34-6817-415a-8489-26db1ea03ff9","system_id":"levelo_inurba_marseille","lat":43.23126,"lon":5.43718,"is_reserved":false,"is_disabled":false,"rental_uris":{"android":"levelo://app?vid=4c564b34-6817-415a-8489-26db1ea03ff9","ios":"levelo://app?vid=4c564b34-6817-415a-8489-26db1ea03ff9"},"vehicle_type_id":"4","last_reported":1743502309,"current_range_meters":14800,"station_id":"ce4bhmp2rcd13ifvqgog","pricing_plan_id":"cebpf4jnsgd1na2vs0mg"},{"bike_id":"a9392c32-b8e3-41f9-ae3c-96f82eb8a90f","system_id":"levelo_inurba_marseille","lat":43.23059,"lon":5.35504,"is_reserved":false,"is_disabled":false,"rental_uris":{"android":"levelo://app?vid=a9392c32-b8e3-41f9-ae3c-96f82eb8a90f","ios":"levelo://app?vid=a9392c32-b8e3-41f9-ae3c-96f82eb8a90f"},"vehicle_type_id":"4","last_reported":1743502309,"current_range_meters":14800,"station_id":"cpo3342slgdg3j2ifvpg","pricing_plan_id":"cebpf4jnsgd1na2vs0mg"},{"bike_id":"1f8014c0-f195-4bb5-b2ac-7122952b397d","system_id":"levelo_inurba_marseille","lat":43.29364,"lon":5.378299,"is_reserved":false,"is_disabled":false,"rental_uris":{"android":"levelo://app?vid=1f8014c0-f195-4bb5-b2ac-7122952b397d","ios":"levelo://app?vid=1f8014c0-f195-4bb5-b2ac-7122952b397d"},"vehicle_type_id":"4","last_reported":1743502309,"current_range_meters":15200,"station_id":"ce4bgjh2rcd13ifvqbf0","pricing_plan_id":"cebpf4jnsgd1na2vs0mg"},{"bike_id":"26bef59d-8794-445e-ac5d-9ff027f2519c","system_id":"levelo_inurba_marseille","lat":43.30303,"lon":5.39215,"is_reserved":false,"is_disabled":false,"rental_uris":{"android":"levelo://app?vid=26bef59d-8794-445e-ac5d-9ff027f2519c","ios":"levelo://app?vid=26bef59d-8794-445e-ac5d-9ff027f2519c"},"vehicle_type_id":"4","last_reported":1743502309,"current_range_meters":15200,"station_id":"ce4bgkh2rcd13ifvqbk0","pricing_plan_id":"cebpf4jnsgd1na2vs0mg"},{"bike_id":"159b1a57-d33a-4c4e-9de5-425002d00e96","system_id":"levelo_inurba_marseille","lat":43.25912,"lon":5.40876,"is_reserved":false,"is_disabled":false,"rental_uris":{"android":"levelo://app?vid=159b1a57-d33a-4c4e-9de5-425002d00e96","ios":"levelo://app?vid=159b1a57-d33a-4c4e-9de5-425002d00e96"},"vehicle_type_id":"4","last_reported":1743502309,"current_range_meters":15200,"station_id":"ce4bhm92rcd13ifvqglg","pricing_plan_id":"cebpf4jnsgd1na2vs0mg"},{"bike_id":"bad8b686-d4b1-4fd1-a906-eeff21f737a2","system_id":"levelo_inurba_marseille","lat":43.24158,"lon":5.39694,"is_reserved":false,"is_disabled":false,"rental_uris":{"android":"levelo://app?vid=bad8b686-d4b1-4fd1-a906-eeff21f737a2","ios":"levelo://app?vid=bad8b686-d4b1-4fd1-a906-eeff21f737a2"},"vehicle_type_id":"4","last_reported":1743502309,"current_range_meters":15200,"station_id":"ce4bhn12rcd13ifvqgpg","pricing_plan_id":"cebpf4jnsgd1na2vs0mg"},{"bike_id":"7990dee0-3845-4924-a10e-d8eed309bb76","system_id":"levelo_inurba_marseille","lat":43.30913,"lon":5.36854,"is_reserved":false,"is_disabled":false,"rental_uris":{"android":"levelo://app?vid=7990dee0-3845-4924-a10e-d8eed309bb76","ios":"levelo://app?vid=7990dee0-3845-4924-a10e-d8eed309bb76"},"vehicle_type_id":"4","last_reported":1743502309,"current_range_meters":16000,"station_id":"ce4bgn92rcd13ifvqbvg","pricing_plan_id":"cebpf4jnsgd1na2vs0mg"},{"bike_id":"d20bc298-c3c5-42bd-bba1-94634d8eb416","system_id":"levelo_inurba_marseille","lat":43.301166,"lon":5.398643,"is_reserved":false,"is_disabled":false,"rental_uris":{"android":"levelo://app?vid=d20bc298-c3c5-42bd-bba1-94634d8eb416","ios":"levelo://app?vid=d20bc298-c3c5-42bd-bba1-94634d8eb416"},"vehicle_type_id":"4","last_reported":1743502309,"current_range_meters":16000,"station_id":"ce4bh0h2rcd13ifvqd40","pricing_plan_id":"cebpf4jnsgd1na2vs0mg"},{"bike_id":"fa263287-8026-427b-99f3-82d4f5274929","system_id":"levelo_inurba_marseille","lat":43.29035,"lon":5.39953,"is_reserved":false,"is_disabled":false,"rental_uris":{"android":"levelo://app?vid=fa263287-8026-427b-99f3-82d4f5274929","ios":"levelo://app?vid=fa263287-8026-427b-99f3-82d4f5274929"},"vehicle_type_id":"4","last_reported":1743502309,"current_range_meters":16000,"station_id":"ce4bh392rcd13ifvqdm0","pricing_plan_id":"cebpf4jnsgd1na2vs0mg"},{"bike_id":"85a25ab7-cd0b-4f44-adf9-e5bd20038e15","system_id":"levelo_inurba_marseille","lat":43.25581,"lon":5.38226,"is_reserved":false,"is_disabled":false,"rental_uris":{"android":"levelo://app?vid=85a25ab7-cd0b-4f44-adf9-e5bd20038e15","ios":"levelo://app?vid=85a25ab7-cd0b-4f44-adf9-e5bd20038e15"},"vehicle_type_id":"4","last_reported":1743502309,"current_range_meters":16000,"station_id":"ce4bhih2rcd13ifvqfs0","pricing_plan_id":"cebpf4jnsgd1na2vs0mg"},{"bike_id":"1483eccc-604e-4069-b5d9-59cd1d186816","system_id":"levelo_inurba_marseille","lat":43.25122,"lon":5.40316,"is_reserved":false,"is_disabled":false,"rental_uris":{"android":"levelo://app?vid=1483eccc-604e-4069-b5d9-59cd1d186816","ios":"levelo://app?vid=1483eccc-604e-4069-b5d9-59cd1d186816"},"vehicle_type_id":"4","last_reported":1743502309,"current_range_meters":16000,"station_id":"ce4bhlh2rcd13ifvqgig","pricing_plan_id":"cebpf4jnsgd1na2vs0mg"},{"bike_id":"1c375b4e-02ef-4769-865c-a09ae41762b3","system_id":"levelo_inurba_marseille","lat":43.25923,"lon":5.40861,"is_reserved":false,"is_disabled":false,"rental_uris":{"android":"levelo://app?vid=1c375b4e-02ef-4769-865c-a09ae41762b3","ios":"levelo://app?vid=1c375b4e-02ef-4769-865c-a09ae41762b3"},"vehicle_type_id":"4","last_reported":1743502309,"current_range_meters":16000,"station_id":"ce4bhm92rcd13ifvqglg","pricing_plan_id":"cebpf4jnsgd1na2vs0mg"},{"bike_id":"b80ee275-2592-4659-b2e9-175feb839700","system_id":"levelo_inurba_marseille","lat":43.23196,"lon":5.35536,"is_reserved":false,"is_disabled":false,"rental_uris":{"android":"levelo://app?vid=b80ee275-2592-4659-b2e9-175feb839700","ios":"levelo://app?vid=b80ee275-2592-4659-b2e9-175feb839700"},"vehicle_type_id":"4","last_reported":1743502309,"current_range_meters":16000,"station_id":"ce4bhu92rcd13ifvqi70","pricing_plan_id":"cebpf4jnsgd1na2vs0mg"},{"bike_id":"dd3db03f-0f43-4986-9ec8-2a76818fb28c","system_id":"levelo_inurba_marseille","lat":43.23199,"lon":5.35531,"is_reserved":false,"is_disabled":false,"rental_uris":{"android":"levelo://app?vid=dd3db03f-0f43-4986-9ec8-2a76818fb28c","ios":"levelo://app?vid=dd3db03f-0f43-4986-9ec8-2a76818fb28c"},"vehicle_type_id":"4","last_reported":1743502309,"current_range_meters":16000,"station_id":"ce4bhu92rcd13ifvqi70","pricing_plan_id":"cebpf4jnsgd1na2vs0mg"},{"bike_id":"75dae32f-059a-4b5b-a5e8-963c6eda2f66","system_id":"levelo_inurba_marseille","lat":43.27511,"lon":5.41083,"is_reserved":false,"is_disabled":false,"rental_uris":{"android":"levelo://app?vid=75dae32f-059a-4b5b-a5e8-963c6eda2f66","ios":"levelo://app?vid=75dae32f-059a-4b5b-a5e8-963c6eda2f66"},"vehicle_type_id":"4","last_reported":1743502309,"current_range_meters":16400,"station_id":"","pricing_plan_id":"cebpf4jnsgd1na2vs0mg"},{"bike_id":"dd8eb8ef-4e76-4e50-a068-19aab2791b35","system_id":"levelo_inurba_marseille","lat":43.30541,"lon":5.36533,"is_reserved":false,"is_disabled":false,"rental_uris":{"android":"levelo://app?vid=dd8eb8ef-4e76-4e50-a068-19aab2791b35","ios":"levelo://app?vid=dd8eb8ef-4e76-4e50-a068-19aab2791b35"},"vehicle_type_id":"4","last_reported":1743502309,"current_range_meters":16400,"station_id":"ce4bgs12rcd13ifvqcag","pricing_plan_id":"cebpf4jnsgd1na2vs0mg"},{"bike_id":"17b1350e-ad0a-480f-8774-cf0fd004dbeb","system_id":"levelo_inurba_marseille","lat":43.302557,"lon":5.400748,"is_reserved":false,"is_disabled":false,"rental_uris":{"android":"levelo://app?vid=17b1350e-ad0a-480f-8774-cf0fd004dbeb","ios":"levelo://app?vid=17b1350e-ad0a-480f-8774-cf0fd004dbeb"},"vehicle_type_id":"4","last_reported":1743502309,"current_range_meters":16400,"station_id":"ce4bgvh2rcd13ifvqcs0","pricing_plan_id":"cebpf4jnsgd1na2vs0mg"},{"bike_id":"27592d10-ee10-47a1-a39e-f30b79fbd85f","system_id":"levelo_inurba_marseille","lat":43.23156,"lon":5.43704,"is_reserved":false,"is_disabled":false,"rental_uris":{"android":"levelo://app?vid=27592d10-ee10-47a1-a39e-f30b79fbd85f","ios":"levelo://app?vid=27592d10-ee10-47a1-a39e-f30b79fbd85f"},"vehicle_type_id":"4","last_reported":1743502309,"current_range_meters":16400,"station_id":"ce4bhmp2rcd13ifvqgog","pricing_plan_id":"cebpf4jnsgd1na2vs0mg"},{"bike_id":"7d741f8e-433a-4ce0-b1dd-1abc5810126c","system_id":"levelo_inurba_marseille","lat":43.29059,"lon":5.40055,"is_reserved":false,"is_disabled":false,"rental_uris":{"android":"levelo://app?vid=7d741f8e-433a-4ce0-b1dd-1abc5810126c","ios":"levelo://app?vid=7d741f8e-433a-4ce0-b1dd-1abc5810126c"},"vehicle_type_id":"4","last_reported":1743502309,"current_range_meters":16800,"station_id":"","pricing_plan_id":"cebpf4jnsgd1na2vs0mg"},{"bike_id":"475345c0-5fc9-4583-8b3c-e6b2970bcc53","system_id":"levelo_inurba_marseille","lat":43.29375,"lon":5.37856,"is_reserved":false,"is_disabled":false,"rental_uris":{"android":"levelo://app?vid=475345c0-5fc9-4583-8b3c-e6b2970bcc53","ios":"levelo://app?vid=475345c0-5fc9-4583-8b3c-e6b2970bcc53"},"vehicle_type_id":"4","last_reported":1743502309,"current_range_meters":16800,"station_id":"ce4bgjh2rcd13ifvqbf0","pricing_plan_id":"cebpf4jnsgd1na2vs0mg"},{"bike_id":"71da8d53-2a4c-47bc-a174-8d4710aa1c90","system_id":"levelo_inurba_marseille","lat":43.30155,"lon":5.38083,"is_reserved":false,"is_disabled":false,"rental_uris":{"android":"levelo://app?vid=71da8d53-2a4c-47bc-a174-8d4710aa1c90","ios":"levelo://app?vid=71da8d53-2a4c-47bc-a174-8d4710aa1c90"},"vehicle_type_id":"4","last_reported":1743502309,"current_range_meters":16800,"station_id":"ce4bgjp2rcd13ifvqbh0","pricing_plan_id":"cebpf4jnsgd1na2vs0mg"},{"bike_id":"fe9e5465-5549-4fbe-8f2d-5ca4b945262d","system_id":"levelo_inurba_marseille","lat":43.301257,"lon":5.398611,"is_reserved":false,"is_disabled":false,"rental_uris":{"android":"levelo://app?vid=fe9e5465-5549-4fbe-8f2d-5ca4b945262d","ios":"levelo://app?vid=fe9e5465-5549-4fbe-8f2d-5ca4b945262d"},"vehicle_type_id":"4","last_reported":1743502309,"current_range_meters":16800,"station_id":"ce4bh0h2rcd13ifvqd40","pricing_plan_id":"cebpf4jnsgd1na2vs0mg"},{"bike_id":"63f15d78-52b9-4fdb-b91d-1a12d0e39c0c","system_id":"levelo_inurba_marseille","lat":43.23149,"lon":5.43718,"is_reserved":false,"is_disabled":false,"rental_uris":{"android":"levelo://app?vid=63f15d78-52b9-4fdb-b91d-1a12d0e39c0c","ios":"levelo://app?vid=63f15d78-52b9-4fdb-b91d-1a12d0e39c0c"},"vehicle_type_id":"4","last_reported":1743502309,"current_range_meters":16800,"station_id":"ce4bhmp2rcd13ifvqgog","pricing_plan_id":"cebpf4jnsgd1na2vs0mg"},{"bike_id":"ff546b52-3d1d-4eba-b4ca-4426f132528a","system_id":"levelo_inurba_marseille","lat":43.33612,"lon":5.41005,"is_reserved":false,"is_disabled":false,"rental_uris":{"android":"levelo://app?vid=ff546b52-3d1d-4eba-b4ca-4426f132528a","ios":"levelo://app?vid=ff546b52-3d1d-4eba-b4ca-4426f132528a"},"vehicle_type_id":"4","last_reported":1743502309,"current_range_meters":16800,"station_id":"ce4bhqh2rcd13ifvqhmg","pricing_plan_id":"cebpf4jnsgd1na2vs0mg"},{"bike_id":"f55695a6-b65f-4a30-99ab-94b2bfa63268","system_id":"levelo_inurba_marseille","lat":43.23197,"lon":5.35546,"is_reserved":false,"is_disabled":false,"rental_uris":{"android":"levelo://app?vid=f55695a6-b65f-4a30-99ab-94b2bfa63268","ios":"levelo://app?vid=f55695a6-b65f-4a30-99ab-94b2bfa63268"},"vehicle_type_id":"4","last_reported":1743502309,"current_range_meters":16800,"station_id":"ce4bhu92rcd13ifvqi70","pricing_plan_id":"cebpf4jnsgd1na2vs0mg"},{"bike_id":"136f65e9-6d68-4bdf-bad4-a92eacc642be","system_id":"levelo_inurba_marseille","lat":43.30968,"lon":5.37302,"is_reserved":false,"is_disabled":false,"rental_uris":{"android":"levelo://app?vid=136f65e9-6d68-4bdf-bad4-a92eacc642be","ios":"levelo://app?vid=136f65e9-6d68-4bdf-bad4-a92eacc642be"},"vehicle_type_id":"4","last_reported":1743502309,"current_range_meters":17200,"station_id":"","pricing_plan_id":"cebpf4jnsgd1na2vs0mg"},{"bike_id":"40997843-4ae1-4640-ab81-e2ae87797008","system_id":"levelo_inurba_marseille","lat":43.28924,"lon":5.36635,"is_reserved":false,"is_disabled":false,"rental_uris":{"android":"levelo://app?vid=40997843-4ae1-4640-ab81-e2ae87797008","ios":"levelo://app?vid=40997843-4ae1-4640-ab81-e2ae87797008"},"vehicle_type_id":"4","last_reported":1743502309,"current_range_meters":17200,"station_id":"ce4bhap2rcd13ifvqek0","pricing_plan_id":"cebpf4jnsgd1na2vs0mg"},{"bike_id":"10c15acc-ac18-4819-90cd-16387afb22b4","system_id":"levelo_inurba_marseille","lat":43.27999,"lon":5.41665,"is_reserved":false,"is_disabled":false,"rental_uris":{"android":"levelo://app?vid=10c15acc-ac18-4819-90cd-16387afb22b4","ios":"levelo://app?vid=10c15acc-ac18-4819-90cd-16387afb22b4"},"vehicle_type_id":"4","last_reported":1743502309,"current_range_meters":17200,"station_id":"ce4bho12rcd13ifvqh1g","pricing_plan_id":"cebpf4jnsgd1na2vs0mg"},{"bike_id":"31f04408-1e99-445b-820e-14607a13eafc","system_id":"levelo_inurba_marseille","lat":43.32,"lon":5.38147,"is_reserved":false,"is_disabled":false,"rental_uris":{"android":"levelo://app?vid=31f04408-1e99-445b-820e-14607a13eafc","ios":"levelo://app?vid=31f04408-1e99-445b-820e-14607a13eafc"},"vehicle_type_id":"4","last_reported":1743502309,"current_range_meters":17200,"station_id":"ce4bhr12rcd13ifvqhpg","pricing_plan_id":"cebpf4jnsgd1na2vs0mg"},{"bike_id":"7b869cea-1d61-42d2-b04b-29df5bd7497f","system_id":"levelo_inurba_marseille","lat":43.32095,"lon":5.3678,"is_reserved":false,"is_disabled":false,"rental_uris":{"android":"levelo://app?vid=7b869cea-1d61-42d2-b04b-29df5bd7497f","ios":"levelo://app?vid=7b869cea-1d61-42d2-b04b-29df5bd7497f"},"vehicle_type_id":"4","last_reported":1743502309,"current_range_meters":17200,"station_id":"ce4bhrh2rcd13ifvqhug","pricing_plan_id":"cebpf4jnsgd1na2vs0mg"},{"bike_id":"ffe98ff6-89e3-4183-8fd4-99df34973b51","system_id":"levelo_inurba_marseille","lat":43.30957,"lon":5.39045,"is_reserved":false,"is_disabled":false,"rental_uris":{"android":"levelo://app?vid=ffe98ff6-89e3-4183-8fd4-99df34973b51","ios":"levelo://app?vid=ffe98ff6-89e3-4183-8fd4-99df34973b51"},"vehicle_type_id":"4","last_reported":1743502309,"current_range_meters":17600,"station_id":"ce4bgup2rcd13ifvqco0","pricing_plan_id":"cebpf4jnsgd1na2vs0mg"},{"bike_id":"82df6388-af11-4e56-affc-c20c53880bc8","system_id":"levelo_inurba_marseille","lat":43.289398,"lon":5.357401,"is_reserved":false,"is_disabled":false,"rental_uris":{"android":"levelo://app?vid=82df6388-af11-4e56-affc-c20c53880bc8","ios":"levelo://app?vid=82df6388-af11-4e56-affc-c20c53880bc8"},"vehicle_type_id":"4","last_reported":1743502309,"current_range_meters":17600,"station_id":"ce4bhb92rcd13ifvqen0","pricing_plan_id":"cebpf4jnsgd1na2vs0mg"},{"bike_id":"a3a4b1dc-9c45-452d-b9c0-26f92283fa89","system_id":"levelo_inurba_marseille","lat":43.2315,"lon":5.43716,"is_reserved":false,"is_disabled":false,"rental_uris":{"android":"levelo://app?vid=a3a4b1dc-9c45-452d-b9c0-26f92283fa89","ios":"levelo://app?vid=a3a4b1dc-9c45-452d-b9c0-26f92283fa89"},"vehicle_type_id":"4","last_reported":1743502309,"current_range_meters":17600,"station_id":"ce4bhmp2rcd13ifvqgog","pricing_plan_id":"cebpf4jnsgd1na2vs0mg"},{"bike_id":"d157a8ac-f1ea-480a-a1ee-9ac00962bb01","system_id":"levelo_inurba_marseille","lat":43.29536,"lon":5.42281,"is_reserved":false,"is_disabled":false,"rental_uris":{"android":"levelo://app?vid=d157a8ac-f1ea-480a-a1ee-9ac00962bb01","ios":"levelo://app?vid=d157a8ac-f1ea-480a-a1ee-9ac00962bb01"},"vehicle_type_id":"4","last_reported":1743502309,"current_range_meters":17600,"station_id":"ce4bhph2rcd13ifvqhdg","pricing_plan_id":"cebpf4jnsgd1na2vs0mg"},{"bike_id":"65b6974e-05b2-4aa7-a121-0b9a8793c221","system_id":"levelo_inurba_marseille","lat":43.28845,"lon":5.39305,"is_reserved":false,"is_disabled":false,"rental_uris":{"android":"levelo://app?vid=65b6974e-05b2-4aa7-a121-0b9a8793c221","ios":"levelo://app?vid=65b6974e-05b2-4aa7-a121-0b9a8793c221"},"vehicle_type_id":"4","last_reported":1743502309,"current_range_meters":18000,"station_id":"ce4bh2p2rcd13ifvqdi0","pricing_plan_id":"cebpf4jnsgd1na2vs0mg"},{"bike_id":"7988dc37-d331-4a13-97ae-2c8fb7b47899","system_id":"levelo_inurba_marseille","lat":43.30885,"lon":5.36837,"is_reserved":false,"is_disabled":false,"rental_uris":{"android":"levelo://app?vid=7988dc37-d331-4a13-97ae-2c8fb7b47899","ios":"levelo://app?vid=7988dc37-d331-4a13-97ae-2c8fb7b47899"},"vehicle_type_id":"4","last_reported":1743502309,"current_range_meters":18800,"station_id":"ce4bgn92rcd13ifvqbvg","pricing_plan_id":"cebpf4jnsgd1na2vs0mg"},{"bike_id":"49b6946c-d5d9-4f7b-9e2a-1a24703cbfb9","system_id":"levelo_inurba_marseille","lat":43.3055,"lon":5.36705,"is_reserved":false,"is_disabled":false,"rental_uris":{"android":"levelo://app?vid=49b6946c-d5d9-4f7b-9e2a-1a24703cbfb9","ios":"levelo://app?vid=49b6946c-d5d9-4f7b-9e2a-1a24703cbfb9"},"vehicle_type_id":"4","last_reported":1743502309,"current_range_meters":18800,"station_id":"ce4bgrp2rcd13ifvqc9g","pricing_plan_id":"cebpf4jnsgd1na2vs0mg"},{"bike_id":"acad66ed-ccd2-4418-86aa-1d608e0d0fd5","system_id":"levelo_inurba_marseille","lat":43.28532,"lon":5.38564,"is_reserved":false,"is_disabled":false,"rental_uris":{"android":"levelo://app?vid=acad66ed-ccd2-4418-86aa-1d608e0d0fd5","ios":"levelo://app?vid=acad66ed-ccd2-4418-86aa-1d608e0d0fd5"},"vehicle_type_id":"4","last_reported":1743502309,"current_range_meters":18800,"station_id":"ce4bh8p2rcd13ifvqeb0","pricing_plan_id":"cebpf4jnsgd1na2vs0mg"},{"bike_id":"7f4bd8e4-b62d-40a5-b517-c876a2773d61","system_id":"levelo_inurba_marseille","lat":43.27898,"lon":5.37999,"is_reserved":false,"is_disabled":false,"rental_uris":{"android":"levelo://app?vid=7f4bd8e4-b62d-40a5-b517-c876a2773d61","ios":"levelo://app?vid=7f4bd8e4-b62d-40a5-b517-c876a2773d61"},"vehicle_type_id":"4","last_reported":1743502309,"current_range_meters":18800,"station_id":"ce4bhf92rcd13ifvqf50","pricing_plan_id":"cebpf4jnsgd1na2vs0mg"},{"bike_id":"e9216065-d539-4cfe-a5fe-6e09c69e5432","system_id":"levelo_inurba_marseille","lat":43.2558,"lon":5.3823,"is_reserved":false,"is_disabled":false,"rental_uris":{"android":"levelo://app?vid=e9216065-d539-4cfe-a5fe-6e09c69e5432","ios":"levelo://app?vid=e9216065-d539-4cfe-a5fe-6e09c69e5432"},"vehicle_type_id":"4","last_reported":1743502309,"current_range_meters":18800,"station_id":"ce4bhih2rcd13ifvqfs0","pricing_plan_id":"cebpf4jnsgd1na2vs0mg"},{"bike_id":"f9a2c99b-c0ce-420a-bee0-0de1c505da61","system_id":"levelo_inurba_marseille","lat":43.27839,"lon":5.3921,"is_reserved":false,"is_disabled":false,"rental_uris":{"android":"levelo://app?vid=f9a2c99b-c0ce-420a-bee0-0de1c505da61","ios":"levelo://app?vid=f9a2c99b-c0ce-420a-bee0-0de1c505da61"},"vehicle_type_id":"4","last_reported":1743502309,"current_range_meters":18800,"station_id":"ce4bhjp2rcd13ifvqga0","pricing_plan_id":"cebpf4jnsgd1na2vs0mg"},{"bike_id":"cd83c8ac-ed09-4369-9279-b6f36f2bbd3c","system_id":"levelo_inurba_marseille","lat":43.307788,"lon":5.382577,"is_reserved":false,"is_disabled":false,"rental_uris":{"android":"levelo://app?vid=cd83c8ac-ed09-4369-9279-b6f36f2bbd3c","ios":"levelo://app?vid=cd83c8ac-ed09-4369-9279-b6f36f2bbd3c"},"vehicle_type_id":"4","last_reported":1743502309,"current_range_meters":19200,"station_id":"","pricing_plan_id":"cebpf4jnsgd1na2vs0mg"},{"bike_id":"c48b19a6-67cb-4237-a415-9c45ea5a3e9d","system_id":"levelo_inurba_marseille","lat":43.29516,"lon":5.39037,"is_reserved":false,"is_disabled":false,"rental_uris":{"android":"levelo://app?vid=c48b19a6-67cb-4237-a415-9c45ea5a3e9d","ios":"levelo://app?vid=c48b19a6-67cb-4237-a415-9c45ea5a3e9d"},"vehicle_type_id":"4","last_reported":1743502309,"current_range_meters":19200,"station_id":"ce4bh3p2rcd13ifvqdp0","pricing_plan_id":"cebpf4jnsgd1na2vs0mg"},{"bike_id":"403cc312-2b1d-4b2b-8b9e-d86827558ca8","system_id":"levelo_inurba_marseille","lat":43.28358,"lon":5.38636,"is_reserved":false,"is_disabled":false,"rental_uris":{"android":"levelo://app?vid=403cc312-2b1d-4b2b-8b9e-d86827558ca8","ios":"levelo://app?vid=403cc312-2b1d-4b2b-8b9e-d86827558ca8"},"vehicle_type_id":"4","last_reported":1743502309,"current_range_meters":19200,"station_id":"ce4bh492rcd13ifvqdvg","pricing_plan_id":"cebpf4jnsgd1na2vs0mg"},{"bike_id":"e8e55fe0-a44b-49de-ad9b-9f44ea8d8f35","system_id":"levelo_inurba_marseille","lat":43.28484,"lon":5.38585,"is_reserved":false,"is_disabled":false,"rental_uris":{"android":"levelo://app?vid=e8e55fe0-a44b-49de-ad9b-9f44ea8d8f35","ios":"levelo://app?vid=e8e55fe0-a44b-49de-ad9b-9f44ea8d8f35"},"vehicle_type_id":"4","last_reported":1743502309,"current_range_meters":19200,"station_id":"ce4bh8p2rcd13ifvqeb0","pricing_plan_id":"cebpf4jnsgd1na2vs0mg"},{"bike_id":"f243ee3c-9b98-451a-9f48-7ec3e30e2cbf","system_id":"levelo_inurba_marseille","lat":43.27909,"lon":5.39578,"is_reserved":false,"is_disabled":false,"rental_uris":{"android":"levelo://app?vid=f243ee3c-9b98-451a-9f48-7ec3e30e2cbf","ios":"levelo://app?vid=f243ee3c-9b98-451a-9f48-7ec3e30e2cbf"},"vehicle_type_id":"4","last_reported":1743502309,"current_range_meters":19200,"station_id":"ce4bhf92rcd13ifvqf40","pricing_plan_id":"cebpf4jnsgd1na2vs0mg"},{"bike_id":"a64f5d05-52fc-4aeb-82c8-1e160172c977","system_id":"levelo_inurba_marseille","lat":43.261733,"lon":5.378907,"is_reserved":false,"is_disabled":false,"rental_uris":{"android":"levelo://app?vid=a64f5d05-52fc-4aeb-82c8-1e160172c977","ios":"levelo://app?vid=a64f5d05-52fc-4aeb-82c8-1e160172c977"},"vehicle_type_id":"4","last_reported":1743502309,"current_range_meters":19200,"station_id":"ce4bhjp2rcd13ifvqg90","pricing_plan_id":"cebpf4jnsgd1na2vs0mg"},{"bike_id":"962fd783-90c8-4086-89fb-970de35df336","system_id":"levelo_inurba_marseille","lat":43.241783,"lon":5.397323,"is_reserved":false,"is_disabled":false,"rental_uris":{"android":"levelo://app?vid=962fd783-90c8-4086-89fb-970de35df336","ios":"levelo://app?vid=962fd783-90c8-4086-89fb-970de35df336"},"vehicle_type_id":"4","last_reported":1743502309,"current_range_meters":19200,"station_id":"ce4bhn12rcd13ifvqgpg","pricing_plan_id":"cebpf4jnsgd1na2vs0mg"},{"bike_id":"d8ef3617-eb64-479b-aa4f-347d68ee30d1","system_id":"levelo_inurba_marseille","lat":43.29568,"lon":5.42263,"is_reserved":false,"is_disabled":false,"rental_uris":{"android":"levelo://app?vid=d8ef3617-eb64-479b-aa4f-347d68ee30d1","ios":"levelo://app?vid=d8ef3617-eb64-479b-aa4f-347d68ee30d1"},"vehicle_type_id":"4","last_reported":1743502309,"current_range_meters":19200,"station_id":"ce4bhph2rcd13ifvqhdg","pricing_plan_id":"cebpf4jnsgd1na2vs0mg"},{"bike_id":"58dea0af-45b8-41d2-b925-44a9d9800597","system_id":"levelo_inurba_marseille","lat":43.29787,"lon":5.38107,"is_reserved":false,"is_disabled":false,"rental_uris":{"android":"levelo://app?vid=58dea0af-45b8-41d2-b925-44a9d9800597","ios":"levelo://app?vid=58dea0af-45b8-41d2-b925-44a9d9800597"},"vehicle_type_id":"4","last_reported":1743502309,"current_range_meters":19600,"station_id":"ce4bgip2rcd13ifvqbb0","pricing_plan_id":"cebpf4jnsgd1na2vs0mg"},{"bike_id":"65b8785f-ee1e-435a-8175-7e5ea9f566f3","system_id":"levelo_inurba_marseille","lat":43.29363,"lon":5.37862,"is_reserved":false,"is_disabled":false,"rental_uris":{"android":"levelo://app?vid=65b8785f-ee1e-435a-8175-7e5ea9f566f3","ios":"levelo://app?vid=65b8785f-ee1e-435a-8175-7e5ea9f566f3"},"vehicle_type_id":"4","last_reported":1743502309,"current_range_meters":19600,"station_id":"ce4bgjh2rcd13ifvqbf0","pricing_plan_id":"cebpf4jnsgd1na2vs0mg"},{"bike_id":"0dc1fce0-04ea-48e8-933e-6e04b9ce367a","system_id":"levelo_inurba_marseille","lat":43.29627,"lon":5.37143,"is_reserved":false,"is_disabled":false,"rental_uris":{"android":"levelo://app?vid=0dc1fce0-04ea-48e8-933e-6e04b9ce367a","ios":"levelo://app?vid=0dc1fce0-04ea-48e8-933e-6e04b9ce367a"},"vehicle_type_id":"4","last_reported":1743502309,"current_range_meters":19600,"station_id":"ce4bgnh2rcd13ifvqc0g","pricing_plan_id":"cebpf4jnsgd1na2vs0mg"},{"bike_id":"96ae54f5-274d-4b8b-9afe-915db6f99793","system_id":"levelo_inurba_marseille","lat":43.30273,"lon":5.37693,"is_reserved":false,"is_disabled":false,"rental_uris":{"android":"levelo://app?vid=96ae54f5-274d-4b8b-9afe-915db6f99793","ios":"levelo://app?vid=96ae54f5-274d-4b8b-9afe-915db6f99793"},"vehicle_type_id":"4","last_reported":1743502309,"current_range_meters":19600,"station_id":"ce4bguh2rcd13ifvqcj0","pricing_plan_id":"cebpf4jnsgd1na2vs0mg"},{"bike_id":"fa0451fa-ac84-49fd-81ac-c0b5f50961a1","system_id":"levelo_inurba_marseille","lat":43.29029,"lon":5.37571,"is_reserved":false,"is_disabled":false,"rental_uris":{"android":"levelo://app?vid=fa0451fa-ac84-49fd-81ac-c0b5f50961a1","ios":"levelo://app?vid=fa0451fa-ac84-49fd-81ac-c0b5f50961a1"},"vehicle_type_id":"4","last_reported":1743502309,"current_range_meters":19600,"station_id":"ce4bh692rcd13ifvqe90","pricing_plan_id":"cebpf4jnsgd1na2vs0mg"},{"bike_id":"451a91b8-f7d7-4b0a-958f-b5014d2086b2","system_id":"levelo_inurba_marseille","lat":43.27066,"lon":5.42264,"is_reserved":false,"is_disabled":false,"rental_uris":{"android":"levelo://app?vid=451a91b8-f7d7-4b0a-958f-b5014d2086b2","ios":"levelo://app?vid=451a91b8-f7d7-4b0a-958f-b5014d2086b2"},"vehicle_type_id":"4","last_reported":1743502309,"current_range_meters":19600,"station_id":"ce4bhk92rcd13ifvqgb0","pricing_plan_id":"cebpf4jnsgd1na2vs0mg"},{"bike_id":"6e05811e-06e7-4304-8ce9-6c25e6bc01dd","system_id":"levelo_inurba_marseille","lat":43.32112,"lon":5.36774,"is_reserved":false,"is_disabled":false,"rental_uris":{"android":"levelo://app?vid=6e05811e-06e7-4304-8ce9-6c25e6bc01dd","ios":"levelo://app?vid=6e05811e-06e7-4304-8ce9-6c25e6bc01dd"},"vehicle_type_id":"4","last_reported":1743502309,"current_range_meters":19600,"station_id":"ce4bhrh2rcd13ifvqhug","pricing_plan_id":"cebpf4jnsgd1na2vs0mg"},{"bike_id":"9c9137b0-6693-49a6-bedc-f2ea63e283a3","system_id":"levelo_inurba_marseille","lat":43.30331,"lon":5.36854,"is_reserved":false,"is_disabled":false,"rental_uris":{"android":"levelo://app?vid=9c9137b0-6693-49a6-bedc-f2ea63e283a3","ios":"levelo://app?vid=9c9137b0-6693-49a6-bedc-f2ea63e283a3"},"vehicle_type_id":"4","last_reported":1743502309,"current_range_meters":20000,"station_id":"ce4bgqh2rcd13ifvqc5g","pricing_plan_id":"cebpf4jnsgd1na2vs0mg"},{"bike_id":"2373e4b1-5c1d-475b-bce3-8da70a578814","system_id":"levelo_inurba_marseille","lat":43.303429,"lon":5.404849,"is_reserved":false,"is_disabled":false,"rental_uris":{"android":"levelo://app?vid=2373e4b1-5c1d-475b-bce3-8da70a578814","ios":"levelo://app?vid=2373e4b1-5c1d-475b-bce3-8da70a578814"},"vehicle_type_id":"4","last_reported":1743502309,"current_range_meters":20000,"station_id":"ce4bh012rcd13ifvqd10","pricing_plan_id":"cebpf4jnsgd1na2vs0mg"},{"bike_id":"d9ccb506-8cc7-42ec-88c7-0d30c32e5eaf","system_id":"levelo_inurba_marseille","lat":43.24647,"lon":5.38871,"is_reserved":false,"is_disabled":false,"rental_uris":{"android":"levelo://app?vid=d9ccb506-8cc7-42ec-88c7-0d30c32e5eaf","ios":"levelo://app?vid=d9ccb506-8cc7-42ec-88c7-0d30c32e5eaf"},"vehicle_type_id":"4","last_reported":1743502309,"current_range_meters":20000,"station_id":"ce4bhg12rcd13ifvqf60","pricing_plan_id":"cebpf4jnsgd1na2vs0mg"},{"bike_id":"2cd6338f-e1a6-4dc1-b315-6e8c468551a5","system_id":"levelo_inurba_marseille","lat":43.24993,"lon":5.38924,"is_reserved":false,"is_disabled":false,"rental_uris":{"android":"levelo://app?vid=2cd6338f-e1a6-4dc1-b315-6e8c468551a5","ios":"levelo://app?vid=2cd6338f-e1a6-4dc1-b315-6e8c468551a5"},"vehicle_type_id":"4","last_reported":1743502309,"current_range_meters":20000,"station_id":"ce4bhgp2rcd13ifvqfd0","pricing_plan_id":"cebpf4jnsgd1na2vs0mg"},{"bike_id":"afb57a42-6aee-44a2-9323-ce204518a1b0","system_id":"levelo_inurba_marseille","lat":43.33718,"lon":5.39177,"is_reserved":false,"is_disabled":false,"rental_uris":{"android":"levelo://app?vid=afb57a42-6aee-44a2-9323-ce204518a1b0","ios":"levelo://app?vid=afb57a42-6aee-44a2-9323-ce204518a1b0"},"vehicle_type_id":"4","last_reported":1743502309,"current_range_meters":20000,"station_id":"ce4bhr92rcd13ifvqhsg","pricing_plan_id":"cebpf4jnsgd1na2vs0mg"},{"bike_id":"4c002933-5bc2-41e4-a5b9-79b43bb4a9fb","system_id":"levelo_inurba_marseille","lat":43.29901,"lon":5.39718,"is_reserved":false,"is_disabled":false,"rental_uris":{"android":"levelo://app?vid=4c002933-5bc2-41e4-a5b9-79b43bb4a9fb","ios":"levelo://app?vid=4c002933-5bc2-41e4-a5b9-79b43bb4a9fb"},"vehicle_type_id":"4","last_reported":1743502309,"current_range_meters":20400,"station_id":"ce4bh0h2rcd13ifvqd50","pricing_plan_id":"cebpf4jnsgd1na2vs0mg"},{"bike_id":"685b5441-0c0d-4cab-8ae6-68f73b421d94","system_id":"levelo_inurba_marseille","lat":43.2465,"lon":5.3889,"is_reserved":false,"is_disabled":false,"rental_uris":{"android":"levelo://app?vid=685b5441-0c0d-4cab-8ae6-68f73b421d94","ios":"levelo://app?vid=685b5441-0c0d-4cab-8ae6-68f73b421d94"},"vehicle_type_id":"4","last_reported":1743502309,"current_range_meters":20400,"station_id":"ce4bhg12rcd13ifvqf60","pricing_plan_id":"cebpf4jnsgd1na2vs0mg"},{"bike_id":"41516295-5634-4711-99a7-66f239ec9330","system_id":"levelo_inurba_marseille","lat":43.23156,"lon":5.43716,"is_reserved":false,"is_disabled":false,"rental_uris":{"android":"levelo://app?vid=41516295-5634-4711-99a7-66f239ec9330","ios":"levelo://app?vid=41516295-5634-4711-99a7-66f239ec9330"},"vehicle_type_id":"4","last_reported":1743502309,"current_range_meters":20400,"station_id":"ce4bhmp2rcd13ifvqgog","pricing_plan_id":"cebpf4jnsgd1na2vs0mg"},{"bike_id":"30ee17b9-353e-4ac5-935e-9edf94cd9e29","system_id":"levelo_inurba_marseille","lat":43.23154,"lon":5.43713,"is_reserved":false,"is_disabled":false,"rental_uris":{"android":"levelo://app?vid=30ee17b9-353e-4ac5-935e-9edf94cd9e29","ios":"levelo://app?vid=30ee17b9-353e-4ac5-935e-9edf94cd9e29"},"vehicle_type_id":"4","last_reported":1743502309,"current_range_meters":20400,"station_id":"ce4bhmp2rcd13ifvqgog","pricing_plan_id":"cebpf4jnsgd1na2vs0mg"},{"bike_id":"ca4618f7-2e1b-48c8-a7c2-9314560a1d02","system_id":"levelo_inurba_marseille","lat":43.33594,"lon":5.40975,"is_reserved":false,"is_disabled":false,"rental_uris":{"android":"levelo://app?vid=ca4618f7-2e1b-48c8-a7c2-9314560a1d02","ios":"levelo://app?vid=ca4618f7-2e1b-48c8-a7c2-9314560a1d02"},"vehicle_type_id":"4","last_reported":1743502309,"current_range_meters":20800,"station_id":"","pricing_plan_id":"cebpf4jnsgd1na2vs0mg"},{"bike_id":"71996c96-7333-478f-9c15-77ad7b41bbe2","system_id":"levelo_inurba_marseille","lat":43.30935,"lon":5.3683,"is_reserved":false,"is_disabled":false,"rental_uris":{"android":"levelo://app?vid=71996c96-7333-478f-9c15-77ad7b41bbe2","ios":"levelo://app?vid=71996c96-7333-478f-9c15-77ad7b41bbe2"},"vehicle_type_id":"4","last_reported":1743502309,"current_range_meters":20800,"station_id":"ce4bgn92rcd13ifvqbvg","pricing_plan_id":"cebpf4jnsgd1na2vs0mg"},{"bike_id":"c32fbc3d-3cc0-4427-91ff-5deac089851e","system_id":"levelo_inurba_marseille","lat":43.29021,"lon":5.38128,"is_reserved":false,"is_disabled":false,"rental_uris":{"android":"levelo://app?vid=c32fbc3d-3cc0-4427-91ff-5deac089851e","ios":"levelo://app?vid=c32fbc3d-3cc0-4427-91ff-5deac089851e"},"vehicle_type_id":"4","last_reported":1743502309,"current_range_meters":20800,"station_id":"ce4bh4p2rcd13ifvqe1g","pricing_plan_id":"cebpf4jnsgd1na2vs0mg"},{"bike_id":"696d26d2-4372-4a6c-9d4f-c89e389febb0","system_id":"levelo_inurba_marseille","lat":43.28492,"lon":5.38421,"is_reserved":false,"is_disabled":false,"rental_uris":{"android":"levelo://app?vid=696d26d2-4372-4a6c-9d4f-c89e389febb0","ios":"levelo://app?vid=696d26d2-4372-4a6c-9d4f-c89e389febb0"},"vehicle_type_id":"4","last_reported":1743502309,"current_range_meters":20800,"station_id":"ce4bh512rcd13ifvqe3g","pricing_plan_id":"cebpf4jnsgd1na2vs0mg"},{"bike_id":"493d2eaa-4470-4b50-8164-e26824b663b6","system_id":"levelo_inurba_marseille","lat":43.273313,"lon":5.390911,"is_reserved":false,"is_disabled":false,"rental_uris":{"android":"levelo://app?vid=493d2eaa-4470-4b50-8164-e26824b663b6","ios":"levelo://app?vid=493d2eaa-4470-4b50-8164-e26824b663b6"},"vehicle_type_id":"4","last_reported":1743502309,"current_range_meters":20800,"station_id":"ce4bhgp2rcd13ifvqfe0","pricing_plan_id":"cebpf4jnsgd1na2vs0mg"},{"bike_id":"202b6520-a72b-491d-8c09-df57e87e916e","system_id":"levelo_inurba_marseille","lat":43.23163,"lon":5.43711,"is_reserved":false,"is_disabled":false,"rental_uris":{"android":"levelo://app?vid=202b6520-a72b-491d-8c09-df57e87e916e","ios":"levelo://app?vid=202b6520-a72b-491d-8c09-df57e87e916e"},"vehicle_type_id":"4","last_reported":1743502309,"current_range_meters":20800,"station_id":"ce4bhmp2rcd13ifvqgog","pricing_plan_id":"cebpf4jnsgd1na2vs0mg"},{"bike_id":"afcc453a-c999-42be-aee7-021889e28cd1","system_id":"levelo_inurba_marseille","lat":43.26943,"lon":5.40258,"is_reserved":false,"is_disabled":false,"rental_uris":{"android":"levelo://app?vid=afcc453a-c999-42be-aee7-021889e28cd1","ios":"levelo://app?vid=afcc453a-c999-42be-aee7-021889e28cd1"},"vehicle_type_id":"4","last_reported":1743502309,"current_range_meters":20800,"station_id":"cjm6bp8fraef2m0cb0m0","pricing_plan_id":"cebpf4jnsgd1na2vs0mg"},{"bike_id":"c258a5de-551c-486b-b2b1-307d325a410b","system_id":"levelo_inurba_marseille","lat":43.28453,"lon":5.35885,"is_reserved":false,"is_disabled":false,"rental_uris":{"android":"levelo://app?vid=c258a5de-551c-486b-b2b1-307d325a410b","ios":"levelo://app?vid=c258a5de-551c-486b-b2b1-307d325a410b"},"vehicle_type_id":"4","last_reported":1743502309,"current_range_meters":21600,"station_id":"ce4bhah2rcd13ifvqei0","pricing_plan_id":"cebpf4jnsgd1na2vs0mg"},{"bike_id":"a0e1ca41-2c0d-4ddb-9fa9-63cbe9a3f17a","system_id":"levelo_inurba_marseille","lat":43.27394,"lon":5.36242,"is_reserved":false,"is_disabled":false,"rental_uris":{"android":"levelo://app?vid=a0e1ca41-2c0d-4ddb-9fa9-63cbe9a3f17a","ios":"levelo://app?vid=a0e1ca41-2c0d-4ddb-9fa9-63cbe9a3f17a"},"vehicle_type_id":"4","last_reported":1743502309,"current_range_meters":21600,"station_id":"ce4bhbh2rcd13ifvqeo0","pricing_plan_id":"cebpf4jnsgd1na2vs0mg"},{"bike_id":"1fe41435-d252-4cdb-854d-b62b6c3cee51","system_id":"levelo_inurba_marseille","lat":43.23964,"lon":5.36623,"is_reserved":false,"is_disabled":false,"rental_uris":{"android":"levelo://app?vid=1fe41435-d252-4cdb-854d-b62b6c3cee51","ios":"levelo://app?vid=1fe41435-d252-4cdb-854d-b62b6c3cee51"},"vehicle_type_id":"4","last_reported":1743502309,"current_range_meters":21600,"station_id":"ce4bhi12rcd13ifvqfp0","pricing_plan_id":"cebpf4jnsgd1na2vs0mg"},{"bike_id":"91364510-c597-41ac-93bf-2a749c10a805","system_id":"levelo_inurba_marseille","lat":43.24667,"lon":5.38126,"is_reserved":false,"is_disabled":false,"rental_uris":{"android":"levelo://app?vid=91364510-c597-41ac-93bf-2a749c10a805","ios":"levelo://app?vid=91364510-c597-41ac-93bf-2a749c10a805"},"vehicle_type_id":"4","last_reported":1743502309,"current_range_meters":21600,"station_id":"ce4bhih2rcd13ifvqfr0","pricing_plan_id":"cebpf4jnsgd1na2vs0mg"},{"bike_id":"b16d21ce-a566-472b-9c9d-29c5ae1dc0b9","system_id":"levelo_inurba_marseille","lat":43.27172,"lon":5.40989,"is_reserved":false,"is_disabled":false,"rental_uris":{"android":"levelo://app?vid=b16d21ce-a566-472b-9c9d-29c5ae1dc0b9","ios":"levelo://app?vid=b16d21ce-a566-472b-9c9d-29c5ae1dc0b9"},"vehicle_type_id":"4","last_reported":1743502309,"current_range_meters":21600,"station_id":"ce4bhl12rcd13ifvqgf0","pricing_plan_id":"cebpf4jnsgd1na2vs0mg"},{"bike_id":"850672dc-b2fe-4aef-9295-41ddbd01b718","system_id":"levelo_inurba_marseille","lat":43.25928,"lon":5.40871,"is_reserved":false,"is_disabled":false,"rental_uris":{"android":"levelo://app?vid=850672dc-b2fe-4aef-9295-41ddbd01b718","ios":"levelo://app?vid=850672dc-b2fe-4aef-9295-41ddbd01b718"},"vehicle_type_id":"4","last_reported":1743502309,"current_range_meters":21600,"station_id":"ce4bhm92rcd13ifvqglg","pricing_plan_id":"cebpf4jnsgd1na2vs0mg"},{"bike_id":"03bda7d6-774e-4f5a-a56c-0b00e6aa53f1","system_id":"levelo_inurba_marseille","lat":43.23157,"lon":5.43717,"is_reserved":false,"is_disabled":false,"rental_uris":{"android":"levelo://app?vid=03bda7d6-774e-4f5a-a56c-0b00e6aa53f1","ios":"levelo://app?vid=03bda7d6-774e-4f5a-a56c-0b00e6aa53f1"},"vehicle_type_id":"4","last_reported":1743502309,"current_range_meters":21600,"station_id":"ce4bhmp2rcd13ifvqgog","pricing_plan_id":"cebpf4jnsgd1na2vs0mg"},{"bike_id":"d83bbe43-4e2b-4675-9435-ff0ff802a84d","system_id":"levelo_inurba_marseille","lat":43.24185,"lon":5.39717,"is_reserved":false,"is_disabled":false,"rental_uris":{"android":"levelo://app?vid=d83bbe43-4e2b-4675-9435-ff0ff802a84d","ios":"levelo://app?vid=d83bbe43-4e2b-4675-9435-ff0ff802a84d"},"vehicle_type_id":"4","last_reported":1743502309,"current_range_meters":21600,"station_id":"ce4bhn12rcd13ifvqgpg","pricing_plan_id":"cebpf4jnsgd1na2vs0mg"},{"bike_id":"46c7dc79-c0c6-4c4c-958d-c42d930393d5","system_id":"levelo_inurba_marseille","lat":43.32113,"lon":5.36775,"is_reserved":false,"is_disabled":false,"rental_uris":{"android":"levelo://app?vid=46c7dc79-c0c6-4c4c-958d-c42d930393d5","ios":"levelo://app?vid=46c7dc79-c0c6-4c4c-958d-c42d930393d5"},"vehicle_type_id":"4","last_reported":1743502309,"current_range_meters":21600,"station_id":"ce4bhrh2rcd13ifvqhug","pricing_plan_id":"cebpf4jnsgd1na2vs0mg"},{"bike_id":"97aa5e6f-e45b-4e21-a47e-52761ee9cdb1","system_id":"levelo_inurba_marseille","lat":43.321011,"lon":5.367761,"is_reserved":false,"is_disabled":false,"rental_uris":{"android":"levelo://app?vid=97aa5e6f-e45b-4e21-a47e-52761ee9cdb1","ios":"levelo://app?vid=97aa5e6f-e45b-4e21-a47e-52761ee9cdb1"},"vehicle_type_id":"4","last_reported":1743502309,"current_range_meters":21600,"station_id":"ce4bhrh2rcd13ifvqhug","pricing_plan_id":"cebpf4jnsgd1na2vs0mg"},{"bike_id":"951f1902-431c-421e-8ebe-982ba4e23184","system_id":"levelo_inurba_marseille","lat":43.29908,"lon":5.37476,"is_reserved":false,"is_disabled":false,"rental_uris":{"android":"levelo://app?vid=951f1902-431c-421e-8ebe-982ba4e23184","ios":"levelo://app?vid=951f1902-431c-421e-8ebe-982ba4e23184"},"vehicle_type_id":"4","last_reported":1743502309,"current_range_meters":22400,"station_id":"ce4bgjh2rcd13ifvqbg0","pricing_plan_id":"cebpf4jnsgd1na2vs0mg"},{"bike_id":"85db389d-ceb2-45ce-9581-4cb3974bfd0f","system_id":"levelo_inurba_marseille","lat":43.29262,"lon":5.38424,"is_reserved":false,"is_disabled":false,"rental_uris":{"android":"levelo://app?vid=85db389d-ceb2-45ce-9581-4cb3974bfd0f","ios":"levelo://app?vid=85db389d-ceb2-45ce-9581-4cb3974bfd0f"},"vehicle_type_id":"4","last_reported":1743502309,"current_range_meters":22400,"station_id":"ce4bh692rcd13ifvqea0","pricing_plan_id":"cebpf4jnsgd1na2vs0mg"},{"bike_id":"76bebaf4-8570-43ec-9915-e44f8a645847","system_id":"levelo_inurba_marseille","lat":43.25815,"lon":5.39431,"is_reserved":false,"is_disabled":false,"rental_uris":{"android":"levelo://app?vid=76bebaf4-8570-43ec-9915-e44f8a645847","ios":"levelo://app?vid=76bebaf4-8570-43ec-9915-e44f8a645847"},"vehicle_type_id":"4","last_reported":1743502309,"current_range_meters":22400,"station_id":"ce4bhip2rcd13ifvqft0","pricing_plan_id":"cebpf4jnsgd1na2vs0mg"},{"bike_id":"982c2767-aee5-48bc-a466-d970f3a3b35f","system_id":"levelo_inurba_marseille","lat":43.25923,"lon":5.40895,"is_reserved":false,"is_disabled":false,"rental_uris":{"android":"levelo://app?vid=982c2767-aee5-48bc-a466-d970f3a3b35f","ios":"levelo://app?vid=982c2767-aee5-48bc-a466-d970f3a3b35f"},"vehicle_type_id":"4","last_reported":1743502309,"current_range_meters":22400,"station_id":"ce4bhm92rcd13ifvqglg","pricing_plan_id":"cebpf4jnsgd1na2vs0mg"},{"bike_id":"1ef730d9-b8c9-49c5-b08a-f0a475687e1c","system_id":"levelo_inurba_marseille","lat":43.30924,"lon":5.36851,"is_reserved":false,"is_disabled":false,"rental_uris":{"android":"levelo://app?vid=1ef730d9-b8c9-49c5-b08a-f0a475687e1c","ios":"levelo://app?vid=1ef730d9-b8c9-49c5-b08a-f0a475687e1c"},"vehicle_type_id":"4","last_reported":1743502309,"current_range_meters":22800,"station_id":"ce4bgn92rcd13ifvqbvg","pricing_plan_id":"cebpf4jnsgd1na2vs0mg"},{"bike_id":"3855d29d-5f16-49af-b924-4d3637467d84","system_id":"levelo_inurba_marseille","lat":43.30539,"lon":5.36521,"is_reserved":false,"is_disabled":false,"rental_uris":{"android":"levelo://app?vid=3855d29d-5f16-49af-b924-4d3637467d84","ios":"levelo://app?vid=3855d29d-5f16-49af-b924-4d3637467d84"},"vehicle_type_id":"4","last_reported":1743502309,"current_range_meters":22800,"station_id":"ce4bgs12rcd13ifvqcag","pricing_plan_id":"cebpf4jnsgd1na2vs0mg"},{"bike_id":"1fcc0aca-4152-4aeb-9c63-f83514b38dc7","system_id":"levelo_inurba_marseille","lat":43.31177,"lon":5.38711,"is_reserved":false,"is_disabled":false,"rental_uris":{"android":"levelo://app?vid=1fcc0aca-4152-4aeb-9c63-f83514b38dc7","ios":"levelo://app?vid=1fcc0aca-4152-4aeb-9c63-f83514b38dc7"},"vehicle_type_id":"4","last_reported":1743502309,"current_range_meters":22800,"station_id":"ce4bgv12rcd13ifvqcp0","pricing_plan_id":"cebpf4jnsgd1na2vs0mg"},{"bike_id":"0c9ce583-9851-4179-91e4-100fdfe6b2f9","system_id":"levelo_inurba_marseille","lat":43.29043,"lon":5.35916,"is_reserved":false,"is_disabled":false,"rental_uris":{"android":"levelo://app?vid=0c9ce583-9851-4179-91e4-100fdfe6b2f9","ios":"levelo://app?vid=0c9ce583-9851-4179-91e4-100fdfe6b2f9"},"vehicle_type_id":"4","last_reported":1743502309,"current_range_meters":22800,"station_id":"ce4bha92rcd13ifvqeg0","pricing_plan_id":"cebpf4jnsgd1na2vs0mg"},{"bike_id":"8cc4241a-742c-444e-bae0-6b071924133a","system_id":"levelo_inurba_marseille","lat":43.29221,"lon":5.36073,"is_reserved":false,"is_disabled":false,"rental_uris":{"android":"levelo://app?vid=8cc4241a-742c-444e-bae0-6b071924133a","ios":"levelo://app?vid=8cc4241a-742c-444e-bae0-6b071924133a"},"vehicle_type_id":"4","last_reported":1743502309,"current_range_meters":22800,"station_id":"ce4bhbh2rcd13ifvqeqg","pricing_plan_id":"cebpf4jnsgd1na2vs0mg"},{"bike_id":"1d8fa92f-e76e-4f4a-8e51-a6713b1a7abe","system_id":"levelo_inurba_marseille","lat":43.27567,"lon":5.38421,"is_reserved":false,"is_disabled":false,"rental_uris":{"android":"levelo://app?vid=1d8fa92f-e76e-4f4a-8e51-a6713b1a7abe","ios":"levelo://app?vid=1d8fa92f-e76e-4f4a-8e51-a6713b1a7abe"},"vehicle_type_id":"4","last_reported":1743502309,"current_range_meters":22800,"station_id":"ce4bhh92rcd13ifvqfi0","pricing_plan_id":"cebpf4jnsgd1na2vs0mg"},{"bike_id":"bb55a4d6-1b57-47c4-a403-e587b2ffed5f","system_id":"levelo_inurba_marseille","lat":43.25583,"lon":5.38238,"is_reserved":false,"is_disabled":false,"rental_uris":{"android":"levelo://app?vid=bb55a4d6-1b57-47c4-a403-e587b2ffed5f","ios":"levelo://app?vid=bb55a4d6-1b57-47c4-a403-e587b2ffed5f"},"vehicle_type_id":"4","last_reported":1743502309,"current_range_meters":22800,"station_id":"ce4bhih2rcd13ifvqfs0","pricing_plan_id":"cebpf4jnsgd1na2vs0mg"},{"bike_id":"2223d270-0849-4235-aa93-f082499dafdc","system_id":"levelo_inurba_marseille","lat":43.34143,"lon":5.40904,"is_reserved":false,"is_disabled":false,"rental_uris":{"android":"levelo://app?vid=2223d270-0849-4235-aa93-f082499dafdc","ios":"levelo://app?vid=2223d270-0849-4235-aa93-f082499dafdc"},"vehicle_type_id":"4","last_reported":1743502309,"current_range_meters":22800,"station_id":"ce4bhqh2rcd13ifvqhlg","pricing_plan_id":"cebpf4jnsgd1na2vs0mg"},{"bike_id":"b85e5512-8ded-43d3-a454-602481037f92","system_id":"levelo_inurba_marseille","lat":43.33605,"lon":5.4101,"is_reserved":false,"is_disabled":false,"rental_uris":{"android":"levelo://app?vid=b85e5512-8ded-43d3-a454-602481037f92","ios":"levelo://app?vid=b85e5512-8ded-43d3-a454-602481037f92"},