{"last_updated":1760775121,"ttl":60,"version":"2.2","data":{"bikes":[{"bike_id":"7a63795d-d6ae-4db3-866d-c16b2af002f1","system_id":"levelo_inurba_marseille","lat":43.29954,"lon":5.37576,"is_reserved":false,"is_disabled":false,"rental_uris":{"android":"levelo://app?vid=7a63795d-d6ae-4db3-866d-c16b2af002f1","ios":"levelo://app?vid=7a63795d-d6ae-4db3-866d-c16b2af002f1"},"vehicle_type_id":"4","last_reported":1760775121,"current_range_meters":2800,"station_id":"","pricing_plan_id":"cebpf4jnsgd1na2vs0mg"},{"bike_id":"8f4e5143-1127-445c-9078-6d62b4c56745","system_id":"levelo_inurba_marseille","lat":43.31196,"lon":5.37991,"is_reserved":false,"is_disabled":false,"rental_uris":{"android":"levelo://app?vid=8f4e5143-1127-445c-9078-6d62b4c56745","ios":"levelo://app?vid=8f4e5143-1127-445c-9078-6d62b4c56745"},"vehicle_type_id":"4","last_reported":1760775121,"current_range_meters":2800,"station_id":"","pricing_plan_id":"cebpf4jnsgd1na2vs0mg"},{"bike_id":"1dc3768d-0b4e-4859-817c-5a4ee299d7ad","system_id":"levelo_inurba_marseille","lat":43.297304,"lon":5.378681,"is_reserved":false,"is_disabled":false,"rental_uris":{"android":"levelo://app?vid=1dc3768d-0b4e-4859-817c-5a4ee299d7ad","ios":"levelo://app?vid=1dc3768d-0b4e-4859-817c-5a4ee299d7ad"},"vehicle_type_id":"4","last_reported":1760775121,"current_range_meters":2800,"station_id":"","pricing_plan_id":"cebpf4jnsgd1na2vs0mg"},{"bike_id":"03c4466d-e2cd-464e-bb2d-3768bc52d264","system_id":"levelo_inurba_marseille","lat":43.30139,"lon":5.38059,"is_reserved":false,"is_disabled":false,"rental_uris":{"android":"levelo://app?vid=03c4466d-e2cd-464e-bb2d-3768bc52d264","ios":"levelo://app?vid=03c4466d-e2cd-464e-bb2d-3768bc52d264"},"vehicle_type_id":"4","last_reported":1760775121,"current_range_meters":3200,"station_id":"ce4bgjp2rcd13ifvqbh0","pricing_plan_id":"cebpf4jnsgd1na2vs0mg"},{"bike_id":"7509f86a-ef87-4049-86d6-6d0145ce684c","system_id":"levelo_inurba_marseille","lat":43.313334,"lon":5.396966,"is_reserved":false,"is_disabled":false,"rental_uris":{"android":"levelo://app?vid=7509f86a-ef87-4049-86d6-6d0145ce684c","ios":"levelo://app?vid=7509f86a-ef87-4049-86d6-6d0145ce684c"},"vehicle_type_id":"4","last_reported":1760775121,"current_range_meters":3200,"station_id":"ce4bgvp2rcd13ifvqcu0","pricing_plan_id":"cebpf4jnsgd1na2vs0mg"},{"bike_id":"f774193b-9306-4571-aef1-60eb03b1f013","system_id":"levelo_inurba_marseille","lat":43.28849,"lon":5.35849,"is_reserved":false,"is_disabled":false,"rental_uris":{"android":"levelo://app?vid=f774193b-9306-4571-aef1-60eb03b1f013","ios":"levelo://app?vid=f774193b-9306-4571-aef1-60eb03b1f013"},"vehicle_type_id":"4","last_reported":1760775121,"current_range_meters":3200,"station_id":"ce4bhb12rcd13ifvqem0","pricing_plan_id":"cebpf4jnsgd1na2vs0mg"},{"bike_id":"072b498d-00ac-4c8c-9894-fd5f38c634c8","system_id":"levelo_inurba_marseille","lat":43.2997,"lon":5.38494,"is_reserved":false,"is_disabled":false,"rental_uris":{"android":"levelo://app?vid=072b498d-00ac-4c8c-9894-fd5f38c634c8","ios":"levelo://app?vid=072b498d-00ac-4c8c-9894-fd5f38c634c8"},"vehicle_type_id":"4","last_reported":1760775121,"current_range_meters":3200,"station_id":"ce4bgj92rcd13ifvqbd0","pricing_plan_id":"cebpf4jnsgd1na2vs0mg"},{"bike_id":"84f062bb-bb35-4dfc-acf6-e577aad6c4aa","system_id":"levelo_inurba_marseille","lat":43.30603,"lon":5.37233,"is_reserved":false,"is_disabled":false,"rental_uris":{"android":"levelo://app?vid=84f062bb-bb35-4dfc-acf6-e577aad6c4aa","ios":"levelo://app?vid=84f062bb-bb35-4dfc-acf6-e577aad6c4aa"},"vehicle_type_id":"4","last_reported":1760775121,"current_range_meters":3600,"station_id":"ce4bgqh2rcd13ifvqc4g","pricing_plan_id":"cebpf4jnsgd1na2vs0mg"},{"bike_id":"be1c4bc2-ea26-4165-ae2c-40ac4665f215","system_id":"levelo_inurba_marseille","lat":43.29427,"lon":5.42878,"is_reserved":false,"is_disabled":true,"rental_uris":{"android":"levelo://app?vid=be1c4bc2-ea26-4165-ae2c-40ac4665f215","ios":"levelo://app?vid=be1c4bc2-ea26-4165-ae2c-40ac4665f215"},"vehicle_type_id":"4","last_reported":1760775121,"current_range_meters":4000,"station_id":"","pricing_plan_id":"cebpf4jnsgd1na2vs0mg"},{"bike_id":"395314b9-fea3-4a4a-8145-cf7ab2d4c961","system_id":"levelo_inurba_marseille","lat":43.32346,"lon":5.36743,"is_reserved":false,"is_disabled":false,"rental_uris":{"android":"levelo://app?vid=395314b9-fea3-4a4a-8145-cf7ab2d4c961","ios":"levelo://app?vid=395314b9-fea3-4a4a-8145-cf7ab2d4c961"},"vehicle_type_id":"4","last_reported":1760775121,"current_range_meters":4000,"station_id":"ce4bhsh2rcd13ifvqi2g","pricing_plan_id":"cebpf4jnsgd1na2vs0mg"},{"bike_id":"e8d004b5-061d-4913-b3cd-759f3cf9a09c","system_id":"levelo_inurba_marseille","lat":43.29032,"lon":5.38663,"is_reserved":false,"is_disabled":false,"rental_uris":{"android":"levelo://app?vid=e8d004b5-061d-4913-b3cd-759f3cf9a09c","ios":"levelo://app?vid=e8d004b5-061d-4913-b3cd-759f3cf9a09c"},"vehicle_type_id":"4","last_reported":1760775121,"current_range_meters":4400,"station_id":"ce4bh4p2rcd13ifvqe0g","pricing_plan_id":"cebpf4jnsgd1na2vs0mg"},{"bike_id":"54f5f702-bde7-4b0a-baa7-6916c7e9d7a0","system_id":"levelo_inurba_marseille","lat":43.23193,"lon":5.35557,"is_reserved":false,"is_disabled":false,"rental_uris":{"android":"levelo://app?vid=54f5f702-bde7-4b0a-baa7-6916c7e9d7a0","ios":"levelo://app?vid=54f5f702-bde7-4b0a-baa7-6916c7e9d7a0"},"vehicle_type_id":"4","last_reported":1760775121,"current_range_meters":4800,"station_id":"ce4bhu92rcd13ifvqi70","pricing_plan_id":"cebpf4jnsgd1na2vs0mg"},{"bike_id":"911f1267-8bf7-4954-9ff4-1bb0f667b1a0","system_id":"levelo_inurba_marseille","lat":43.29003,"lon":5.35619,"is_reserved":false,"is_disabled":false,"rental_uris":{"android":"levelo://app?vid=911f1267-8bf7-4954-9ff4-1bb0f667b1a0","ios":"levelo://app?vid=911f1267-8bf7-4954-9ff4-1bb0f667b1a0"},"vehicle_type_id":"4","last_reported":1760775121,"current_range_meters":4800,"station_id":"ce4bhb92rcd13ifvqen0","pricing_plan_id":"cebpf4jnsgd1na2vs0mg"},{"bike_id":"ef6c9a6d-5174-4522-a9f9-99e618ce1b8b","system_id":"levelo_inurba_marseille","lat":43.26557,"lon":5.3729,"is_reserved":false,"is_disabled":false,"rental_uris":{"android":"levelo://app?vid=ef6c9a6d-5174-4522-a9f9-99e618ce1b8b","ios":"levelo://app?vid=ef6c9a6d-5174-4522-a9f9-99e618ce1b8b"},"vehicle_type_id":"4","last_reported":1760775121,"current_range_meters":4800,"station_id":"ce4bhg12rcd13ifvqf70","pricing_plan_id":"cebpf4jnsgd1na2vs0mg"},{"bike_id":"28ed5361-c5fc-4025-a8fc-80a4352943da","system_id":"levelo_inurba_marseille","lat":43.239373,"lon":5.376026,"is_reserved":false,"is_disabled":false,"rental_uris":{"android":"levelo://app?vid=28ed5361-c5fc-4025-a8fc-80a4352943da","ios":"levelo://app?vid=28ed5361-c5fc-4025-a8fc-80a4352943da"},"vehicle_type_id":"4","last_reported":1760775121,"current_range_meters":4800,"station_id":"","pricing_plan_id":"cebpf4jnsgd1na2vs0mg"},{"bike_id":"47b6a661-48b8-461f-9827-f48295e67bbf","system_id":"levelo_inurba_marseille","lat":43.263015,"lon":5.398315,"is_reserved":false,"is_disabled":false,"rental_uris":{"android":"levelo://app?vid=47b6a661-48b8-461f-9827-f48295e67bbf","ios":"levelo://app?vid=47b6a661-48b8-461f-9827-f48295e67bbf"},"vehicle_type_id":"4","last_reported":1760775121,"current_range_meters":5600,"station_id":"","pricing_plan_id":"cebpf4jnsgd1na2vs0mg"},{"bike_id":"121f55c8-5a85-4142-a96c-bf52eb873442","system_id":"levelo_inurba_marseille","lat":43.304675,"lon":5.369205,"is_reserved":false,"is_disabled":false,"rental_uris":{"android":"levelo://app?vid=121f55c8-5a85-4142-a96c-bf52eb873442","ios":"levelo://app?vid=121f55c8-5a85-4142-a96c-bf52eb873442"},"vehicle_type_id":"4","last_reported":1760775121,"current_range_meters":5600,"station_id":"","pricing_plan_id":"cebpf4jnsgd1na2vs0mg"},{"bike_id":"eb49f3ae-9b26-4739-baec-08092ee5ceb0","system_id":"levelo_inurba_marseille","lat":43.28851,"lon":5.3933,"is_reserved":false,"is_disabled":false,"rental_uris":{"android":"levelo://app?vid=eb49f3ae-9b26-4739-baec-08092ee5ceb0","ios":"levelo://app?vid=eb49f3ae-9b26-4739-baec-08092ee5ceb0"},"vehicle_type_id":"4","last_reported":1760775121,"current_range_meters":5600,"station_id":"ce4bh2p2rcd13ifvqdi0","pricing_plan_id":"cebpf4jnsgd1na2vs0mg"},{"bike_id":"e257a5c9-b99e-4af1-ac4f-b017f1c8b418","system_id":"levelo_inurba_marseille","lat":43.33759,"lon":5.37438,"is_reserved":false,"is_disabled":false,"rental_uris":{"android":"levelo://app?vid=e257a5c9-b99e-4af1-ac4f-b017f1c8b418","ios":"levelo://app?vid=e257a5c9-b99e-4af1-ac4f-b017f1c8b418"},"vehicle_type_id":"4","last_reported":1760775121,"current_range_meters":6000,"station_id":"","pricing_plan_id":"cebpf4jnsgd1na2vs0mg"},{"bike_id":"0670def4-b15a-4c00-8829-0cd906a61bcb","system_id":"levelo_inurba_marseille","lat":43.33778,"lon":5.37428,"is_reserved":false,"is_disabled":false,"rental_uris":{"android":"levelo://app?vid=0670def4-b15a-4c00-8829-0cd906a61bcb","ios":"levelo://app?vid=0670def4-b15a-4c00-8829-0cd906a61bcb"},"vehicle_type_id":"4","last_reported":1760775121,"current_range_meters":6000,"station_id":"","pricing_plan_id":"cebpf4jnsgd1na2vs0mg"},{"bike_id":"50ad7b5b-719e-4297-b22d-546dd71b6daf","system_id":"levelo_inurba_marseille","lat":43.23184,"lon":5.39989,"is_reserved":false,"is_disabled":false,"rental_uris":{"android":"levelo://app?vid=50ad7b5b-719e-4297-b22d-546dd71b6daf","ios":"levelo://app?vid=50ad7b5b-719e-4297-b22d-546dd71b6daf"},"vehicle_type_id":"4","last_reported":1760775121,"current_range_meters":6000,"station_id":"ce4bhn12rcd13ifvqgqg","pricing_plan_id":"cebpf4jnsgd1na2vs0mg"},{"bike_id":"465eb355-3a95-4dc2-9312-064deb2ce881","system_id":"levelo_inurba_marseille","lat":43.240754,"lon":5.377596,"is_reserved":false,"is_disabled":false,"rental_uris":{"android":"levelo://app?vid=465eb355-3a95-4dc2-9312-064deb2ce881","ios":"levelo://app?vid=465eb355-3a95-4dc2-9312-064deb2ce881"},"vehicle_type_id":"4","last_reported":1760775121,"current_range_meters":6400,"station_id":"ce4bhnp2rcd13ifvqgvg","pricing_plan_id":"cebpf4jnsgd1na2vs0mg"},{"bike_id":"6adfc881-bc59-4b0a-bf4b-4b54c64d6641","system_id":"levelo_inurba_marseille","lat":43.309305,"lon":5.401448,"is_reserved":false,"is_disabled":false,"rental_uris":{"android":"levelo://app?vid=6adfc881-bc59-4b0a-bf4b-4b54c64d6641","ios":"levelo://app?vid=6adfc881-bc59-4b0a-bf4b-4b54c64d6641"},"vehicle_type_id":"4","last_reported":1760775121,"current_range_meters":6400,"station_id":"ce4bgvp2rcd13ifvqct0","pricing_plan_id":"cebpf4jnsgd1na2vs0mg"},{"bike_id":"33c31183-3e7d-43be-aab7-5330cf445369","system_id":"levelo_inurba_marseille","lat":43.31271,"lon":5.40164,"is_reserved":false,"is_disabled":false,"rental_uris":{"android":"levelo://app?vid=33c31183-3e7d-43be-aab7-5330cf445369","ios":"levelo://app?vid=33c31183-3e7d-43be-aab7-5330cf445369"},"vehicle_type_id":"4","last_reported":1760775121,"current_range_meters":6400,"station_id":"ce4bh092rcd13ifvqd30","pricing_plan_id":"cebpf4jnsgd1na2vs0mg"},{"bike_id":"131722f7-3bc0-4880-a76f-cf6461c17837","system_id":"levelo_inurba_marseille","lat":43.24545,"lon":5.39521,"is_reserved":false,"is_disabled":false,"rental_uris":{"android":"levelo://app?vid=131722f7-3bc0-4880-a76f-cf6461c17837","ios":"levelo://app?vid=131722f7-3bc0-4880-a76f-cf6461c17837"},"vehicle_type_id":"4","last_reported":1760775121,"current_range_meters":6400,"station_id":"ce4bhlp2rcd13ifvqgjg","pricing_plan_id":"cebpf4jnsgd1na2vs0mg"},{"bike_id":"239d16d8-88c7-4aee-8506-4f55eb58b91f","system_id":"levelo_inurba_marseille","lat":43.30802,"lon":5.4352,"is_reserved":false,"is_disabled":true,"rental_uris":{"android":"levelo://app?vid=239d16d8-88c7-4aee-8506-4f55eb58b91f","ios":"levelo://app?vid=239d16d8-88c7-4aee-8506-4f55eb58b91f"},"vehicle_type_id":"4","last_reported":1760775121,"current_range_meters":6400,"station_id":"ce4bhph2rcd13ifvqheg","pricing_plan_id":"cebpf4jnsgd1na2vs0mg"},{"bike_id":"319ca0b6-643b-48b4-abfd-ce9e2dffe92f","system_id":"levelo_inurba_marseille","lat":43.22564,"lon":5.41634,"is_reserved":false,"is_disabled":false,"rental_uris":{"android":"levelo://app?vid=319ca0b6-643b-48b4-abfd-ce9e2dffe92f","ios":"levelo://app?vid=319ca0b6-643b-48b4-abfd-ce9e2dffe92f"},"vehicle_type_id":"4","last_reported":1760775121,"current_range_meters":6800,"station_id":"st_d2o4gvlbi1j2169b742g","pricing_plan_id":"cebpf4jnsgd1na2vs0mg"},{"bike_id":"d79b330c-a40d-4bbb-a3f3-58849fbc8f86","system_id":"levelo_inurba_marseille","lat":43.27952,"lon":5.41052,"is_reserved":false,"is_disabled":false,"rental_uris":{"android":"levelo://app?vid=d79b330c-a40d-4bbb-a3f3-58849fbc8f86","ios":"levelo://app?vid=d79b330c-a40d-4bbb-a3f3-58849fbc8f86"},"vehicle_type_id":"4","last_reported":1760775121,"current_range_meters":6800,"station_id":"ce4bhnp2rcd13ifvqh0g","pricing_plan_id":"cebpf4jnsgd1na2vs0mg"},{"bike_id":"837692bb-f932-46c7-ab0c-6d7fd45b8f82","system_id":"levelo_inurba_marseille","lat":43.23574,"lon":5.3747,"is_reserved":false,"is_disabled":false,"rental_uris":{"android":"levelo://app?vid=837692bb-f932-46c7-ab0c-6d7fd45b8f82","ios":"levelo://app?vid=837692bb-f932-46c7-ab0c-6d7fd45b8f82"},"vehicle_type_id":"4","last_reported":1760775121,"current_range_meters":6800,"station_id":"","pricing_plan_id":"cebpf4jnsgd1na2vs0mg"},{"bike_id":"e87b71c7-895a-4869-8c40-bac209ca98c2","system_id":"levelo_inurba_marseille","lat":43.29787,"lon":5.37921,"is_reserved":false,"is_disabled":false,"rental_uris":{"android":"levelo://app?vid=e87b71c7-895a-4869-8c40-bac209ca98c2","ios":"levelo://app?vid=e87b71c7-895a-4869-8c40-bac209ca98c2"},"vehicle_type_id":"4","last_reported":1760775121,"current_range_meters":6800,"station_id":"","pricing_plan_id":"cebpf4jnsgd1na2vs0mg"},{"bike_id":"99335b72-82ce-435c-a6f1-4d0ef998dd46","system_id":"levelo_inurba_marseille","lat":43.27569,"lon":5.38435,"is_reserved":false,"is_disabled":false,"rental_uris":{"android":"levelo://app?vid=99335b72-82ce-435c-a6f1-4d0ef998dd46","ios":"levelo://app?vid=99335b72-82ce-435c-a6f1-4d0ef998dd46"},"vehicle_type_id":"4","last_reported":1760775121,"current_range_meters":6800,"station_id":"ce4bhh92rcd13ifvqfi0","pricing_plan_id":"cebpf4jnsgd1na2vs0mg"},{"bike_id":"d2dfa0d7-a124-45e3-aa16-3837f1f4f70b","system_id":"levelo_inurba_marseille","lat":43.2922,"lon":5.36055,"is_reserved":false,"is_disabled":false,"rental_uris":{"android":"levelo://app?vid=d2dfa0d7-a124-45e3-aa16-3837f1f4f70b","ios":"levelo://app?vid=d2dfa0d7-a124-45e3-aa16-3837f1f4f70b"},"vehicle_type_id":"4","last_reported":1760775121,"current_range_meters":7200,"station_id":"ce4bhbh2rcd13ifvqeqg","pricing_plan_id":"cebpf4jnsgd1na2vs0mg"},{"bike_id":"24d82d64-1145-442f-a9f5-19238b0b39ef","system_id":"levelo_inurba_marseille","lat":43.272133,"lon":5.391866,"is_reserved":false,"is_disabled":false,"rental_uris":{"android":"levelo://app?vid=24d82d64-1145-442f-a9f5-19238b0b39ef","ios":"levelo://app?vid=24d82d64-1145-442f-a9f5-19238b0b39ef"},"vehicle_type_id":"4","last_reported":1760775121,"current_range_meters":7200,"station_id":"","pricing_plan_id":"cebpf4jnsgd1na2vs0mg"},{"bike_id":"7e444206-20cf-47e2-a819-82c6ab3d59a7","system_id":"levelo_inurba_marseille","lat":43.33745,"lon":5.40688,"is_reserved":false,"is_disabled":false,"rental_uris":{"android":"levelo://app?vid=7e444206-20cf-47e2-a819-82c6ab3d59a7","ios":"levelo://app?vid=7e444206-20cf-47e2-a819-82c6ab3d59a7"},"vehicle_type_id":"4","last_reported":1760775121,"current_range_meters":7200,"station_id":"","pricing_plan_id":"cebpf4jnsgd1na2vs0mg"},{"bike_id":"b198fdae-a02e-4380-b40a-23fa0f5e4197","system_id":"levelo_inurba_marseille","lat":43.28621,"lon":5.40702,"is_reserved":false,"is_disabled":false,"rental_uris":{"android":"levelo://app?vid=b198fdae-a02e-4380-b40a-23fa0f5e4197","ios":"levelo://app?vid=b198fdae-a02e-4380-b40a-23fa0f5e4197"},"vehicle_type_id":"4","last_reported":1760775121,"current_range_meters":7200,"station_id":"","pricing_plan_id":"cebpf4jnsgd1na2vs0mg"},{"bike_id":"edc2b540-f4d1-424e-9002-80823ed0b6b2","system_id":"levelo_inurba_marseille","lat":43.283779,"lon":5.370231,"is_reserved":false,"is_disabled":false,"rental_uris":{"android":"levelo://app?vid=edc2b540-f4d1-424e-9002-80823ed0b6b2","ios":"levelo://app?vid=edc2b540-f4d1-424e-9002-80823ed0b6b2"},"vehicle_type_id":"4","last_reported":1760775121,"current_range_meters":8000,"station_id":"","pricing_plan_id":"cebpf4jnsgd1na2vs0mg"},{"bike_id":"17266aff-8a59-4bd1-a91d-49e08e53d11c","system_id":"levelo_inurba_marseille","lat":43.294951,"lon":5.409311,"is_reserved":false,"is_disabled":false,"rental_uris":{"android":"levelo://app?vid=17266aff-8a59-4bd1-a91d-49e08e53d11c","ios":"levelo://app?vid=17266aff-8a59-4bd1-a91d-49e08e53d11c"},"vehicle_type_id":"4","last_reported":1760775121,"current_range_meters":8000,"station_id":"","pricing_plan_id":"cebpf4jnsgd1na2vs0mg"},{"bike_id":"cfb3fcf1-7d43-4247-8d54-ff93bd89ba87","system_id":"levelo_inurba_marseille","lat":43.30695,"lon":5.39735,"is_reserved":false,"is_disabled":false,"rental_uris":{"android":"levelo://app?vid=cfb3fcf1-7d43-4247-8d54-ff93bd89ba87","ios":"levelo://app?vid=cfb3fcf1-7d43-4247-8d54-ff93bd89ba87"},"vehicle_type_id":"4","last_reported":1760775121,"current_range_meters":8000,"station_id":"","pricing_plan_id":"cebpf4jnsgd1na2vs0mg"},{"bike_id":"598eb33e-8713-4107-859d-01cfddcaa810","system_id":"levelo_inurba_marseille","lat":43.23146,"lon":5.43734,"is_reserved":false,"is_disabled":false,"rental_uris":{"android":"levelo://app?vid=598eb33e-8713-4107-859d-01cfddcaa810","ios":"levelo://app?vid=598eb33e-8713-4107-859d-01cfddcaa810"},"vehicle_type_id":"4","last_reported":1760775121,"current_range_meters":8400,"station_id":"ce4bhmp2rcd13ifvqgog","pricing_plan_id":"cebpf4jnsgd1na2vs0mg"},{"bike_id":"5556543b-c8ce-4c3c-8d65-609e8f5df9de","system_id":"levelo_inurba_marseille","lat":43.217925,"lon":5.345993,"is_reserved":false,"is_disabled":false,"rental_uris":{"android":"levelo://app?vid=5556543b-c8ce-4c3c-8d65-609e8f5df9de","ios":"levelo://app?vid=5556543b-c8ce-4c3c-8d65-609e8f5df9de"},"vehicle_type_id":"4","last_reported":1760775121,"current_range_meters":8400,"station_id":"","pricing_plan_id":"cebpf4jnsgd1na2vs0mg"},{"bike_id":"9bb3decd-a842-46be-9ced-56130a046b12","system_id":"levelo_inurba_marseille","lat":43.273174,"lon":5.390738,"is_reserved":false,"is_disabled":false,"rental_uris":{"android":"levelo://app?vid=9bb3decd-a842-46be-9ced-56130a046b12","ios":"levelo://app?vid=9bb3decd-a842-46be-9ced-56130a046b12"},"vehicle_type_id":"4","last_reported":1760775121,"current_range_meters":8400,"station_id":"ce4bhgp2rcd13ifvqfe0","pricing_plan_id":"cebpf4jnsgd1na2vs0mg"},{"bike_id":"aa960bd5-a11d-4bed-a423-258f5b840767","system_id":"levelo_inurba_marseille","lat":43.27212,"lon":5.3918,"is_reserved":false,"is_disabled":false,"rental_uris":{"android":"levelo://app?vid=aa960bd5-a11d-4bed-a423-258f5b840767","ios":"levelo://app?vid=aa960bd5-a11d-4bed-a423-258f5b840767"},"vehicle_type_id":"4","last_reported":1760775121,"current_range_meters":8400,"station_id":"ce4bhhp2rcd13ifvqfm0","pricing_plan_id":"cebpf4jnsgd1na2vs0mg"},{"bike_id":"1d5e9adf-5572-42ac-a6cb-950838d4ad9e","system_id":"levelo_inurba_marseille","lat":43.2706,"lon":5.40257,"is_reserved":false,"is_disabled":false,"rental_uris":{"android":"levelo://app?vid=1d5e9adf-5572-42ac-a6cb-950838d4ad9e","ios":"levelo://app?vid=1d5e9adf-5572-42ac-a6cb-950838d4ad9e"},"vehicle_type_id":"4","last_reported":1760775121,"current_range_meters":8400,"station_id":"ce4bhk92rcd13ifvqgc0","pricing_plan_id":"cebpf4jnsgd1na2vs0mg"},{"bike_id":"39579a07-a0cd-4be2-9dae-877b846a7eac","system_id":"levelo_inurba_marseille","lat":43.26532,"lon":5.38995,"is_reserved":false,"is_disabled":false,"rental_uris":{"android":"levelo://app?vid=39579a07-a0cd-4be2-9dae-877b846a7eac","ios":"levelo://app?vid=39579a07-a0cd-4be2-9dae-877b846a7eac"},"vehicle_type_id":"4","last_reported":1760775121,"current_range_meters":8400,"station_id":"ce4bhe12rcd13ifvqf30","pricing_plan_id":"cebpf4jnsgd1na2vs0mg"},{"bike_id":"0c01c257-728d-46a3-a07a-b79f81ce023c","system_id":"levelo_inurba_marseille","lat":43.29947,"lon":5.38643,"is_reserved":false,"is_disabled":false,"rental_uris":{"android":"levelo://app?vid=0c01c257-728d-46a3-a07a-b79f81ce023c","ios":"levelo://app?vid=0c01c257-728d-46a3-a07a-b79f81ce023c"},"vehicle_type_id":"4","last_reported":1760775121,"current_range_meters":8400,"station_id":"","pricing_plan_id":"cebpf4jnsgd1na2vs0mg"},{"bike_id":"416f580b-31c7-4ade-8604-dbd86eb8155f","system_id":"levelo_inurba_marseille","lat":43.28164,"lon":5.42124,"is_reserved":false,"is_disabled":false,"rental_uris":{"android":"levelo://app?vid=416f580b-31c7-4ade-8604-dbd86eb8155f","ios":"levelo://app?vid=416f580b-31c7-4ade-8604-dbd86eb8155f"},"vehicle_type_id":"4","last_reported":1760775121,"current_range_meters":8400,"station_id":"","pricing_plan_id":"cebpf4jnsgd1na2vs0mg"},{"bike_id":"2fad9211-819b-4892-bf52-014fbefdb6cb","system_id":"levelo_inurba_marseille","lat":43.301519,"lon":5.373953,"is_reserved":false,"is_disabled":false,"rental_uris":{"android":"levelo://app?vid=2fad9211-819b-4892-bf52-014fbefdb6cb","ios":"levelo://app?vid=2fad9211-819b-4892-bf52-014fbefdb6cb"},"vehicle_type_id":"4","last_reported":1760775121,"current_range_meters":8400,"station_id":"ce4bgs92rcd13ifvqcc0","pricing_plan_id":"cebpf4jnsgd1na2vs0mg"},{"bike_id":"38ff8831-8d31-4b7d-877d-319b670e8ab3","system_id":"levelo_inurba_marseille","lat":43.29632,"lon":5.40598,"is_reserved":false,"is_disabled":false,"rental_uris":{"android":"levelo://app?vid=38ff8831-8d31-4b7d-877d-319b670e8ab3","ios":"levelo://app?vid=38ff8831-8d31-4b7d-877d-319b670e8ab3"},"vehicle_type_id":"4","last_reported":1760775121,"current_range_meters":8400,"station_id":"ce4bh0h2rcd13ifvqd60","pricing_plan_id":"cebpf4jnsgd1na2vs0mg"},{"bike_id":"5fe6e873-dba1-40dd-bc65-77de126f2710","system_id":"levelo_inurba_marseille","lat":43.332893,"lon":5.395256,"is_reserved":false,"is_disabled":false,"rental_uris":{"android":"levelo://app?vid=5fe6e873-dba1-40dd-bc65-77de126f2710","ios":"levelo://app?vid=5fe6e873-dba1-40dd-bc65-77de126f2710"},"vehicle_type_id":"4","last_reported":1760775121,"current_range_meters":8400,"station_id":"","pricing_plan_id":"cebpf4jnsgd1na2vs0mg"},{"bike_id":"9a83225c-e267-4180-8748-8047f127f103","system_id":"levelo_inurba_marseille","lat":43.26932,"lon":5.38923,"is_reserved":false,"is_disabled":false,"rental_uris":{"android":"levelo://app?vid=9a83225c-e267-4180-8748-8047f127f103","ios":"levelo://app?vid=9a83225c-e267-4180-8748-8047f127f103"},"vehicle_type_id":"4","last_reported":1760775121,"current_range_meters":8400,"station_id":"ce4bhhh2rcd13ifvqfl0","pricing_plan_id":"cebpf4jnsgd1na2vs0mg"},{"bike_id":"9dd1d8fe-c2a8-4a70-a175-61f5f9fe7fd2","system_id":"levelo_inurba_marseille","lat":43.32164,"lon":5.38762,"is_reserved":false,"is_disabled":false,"rental_uris":{"android":"levelo://app?vid=9dd1d8fe-c2a8-4a70-a175-61f5f9fe7fd2","ios":"levelo://app?vid=9dd1d8fe-c2a8-4a70-a175-61f5f9fe7fd2"},"vehicle_type_id":"4","last_reported":1760775121,"current_range_meters":8800,"station_id":"","pricing_plan_id":"cebpf4jnsgd1na2vs0mg"},{"bike_id":"abb7e1f7-66b8-4be6-b353-5060479353db","system_id":"levelo_inurba_marseille","lat":43.30144,"lon":5.38122,"is_reserved":false,"is_disabled":true,"rental_uris":{"android":"levelo://app?vid=abb7e1f7-66b8-4be6-b353-5060479353db","ios":"levelo://app?vid=abb7e1f7-66b8-4be6-b353-5060479353db"},"vehicle_type_id":"4","last_reported":1760775121,"current_range_meters":8800,"station_id":"ce4bgjp2rcd13ifvqbh0","pricing_plan_id":"cebpf4jnsgd1na2vs0mg"},{"bike_id":"7ecb8780-a7d7-43a7-8f54-506a5df0e322","system_id":"levelo_inurba_marseille","lat":43.25023,"lon":5.38932,"is_reserved":false,"is_disabled":false,"rental_uris":{"android":"levelo://app?vid=7ecb8780-a7d7-43a7-8f54-506a5df0e322","ios":"levelo://app?vid=7ecb8780-a7d7-43a7-8f54-506a5df0e322"},"vehicle_type_id":"4","last_reported":1760775121,"current_range_meters":8800,"station_id":"ce4bhgp2rcd13ifvqfd0","pricing_plan_id":"cebpf4jnsgd1na2vs0mg"},{"bike_id":"1c06e6d7-fc1d-47c6-8d95-63b85bccd0d8","system_id":"levelo_inurba_marseille","lat":43.24644,"lon":5.38902,"is_reserved":false,"is_disabled":false,"rental_uris":{"android":"levelo://app?vid=1c06e6d7-fc1d-47c6-8d95-63b85bccd0d8","ios":"levelo://app?vid=1c06e6d7-fc1d-47c6-8d95-63b85bccd0d8"},"vehicle_type_id":"4","last_reported":1760775121,"current_range_meters":8800,"station_id":"","pricing_plan_id":"cebpf4jnsgd1na2vs0mg"},{"bike_id":"97ae25b0-436d-4036-bec8-14a17bc4b841","system_id":"levelo_inurba_marseille","lat":43.30379,"lon":5.42495,"is_reserved":false,"is_disabled":false,"rental_uris":{"android":"levelo://app?vid=97ae25b0-436d-4036-bec8-14a17bc4b841","ios":"levelo://app?vid=97ae25b0-436d-4036-bec8-14a17bc4b841"},"vehicle_type_id":"4","last_reported":1760775121,"current_range_meters":8800,"station_id":"ce4bhoh2rcd13ifvqh6g","pricing_plan_id":"cebpf4jnsgd1na2vs0mg"},{"bike_id":"0f9c20ae-f80b-4bc4-a84d-e94070c41d3b","system_id":"levelo_inurba_marseille","lat":43.2256,"lon":5.41644,"is_reserved":false,"is_disabled":false,"rental_uris":{"android":"levelo://app?vid=0f9c20ae-f80b-4bc4-a84d-e94070c41d3b","ios":"levelo://app?vid=0f9c20ae-f80b-4bc4-a84d-e94070c41d3b"},"vehicle_type_id":"4","last_reported":1760775121,"current_range_meters":8800,"station_id":"st_d2o4gvlbi1j2169b742g","pricing_plan_id":"cebpf4jnsgd1na2vs0mg"},{"bike_id":"a817b630-bbed-48d3-97f4-9bd571b9ebab","system_id":"levelo_inurba_marseille","lat":43.299968,"lon":5.373566,"is_reserved":false,"is_disabled":false,"rental_uris":{"android":"levelo://app?vid=a817b630-bbed-48d3-97f4-9bd571b9ebab","ios":"levelo://app?vid=a817b630-bbed-48d3-97f4-9bd571b9ebab"},"vehicle_type_id":"4","last_reported":1760775121,"current_range_meters":8800,"station_id":"","pricing_plan_id":"cebpf4jnsgd1na2vs0mg"},{"bike_id":"4ba3f80f-3bc4-4b92-93c0-45e0b5e57b39","system_id":"levelo_inurba_marseille","lat":43.30457,"lon":5.37912,"is_reserved":false,"is_disabled":false,"rental_uris":{"android":"levelo://app?vid=4ba3f80f-3bc4-4b92-93c0-45e0b5e57b39","ios":"levelo://app?vid=4ba3f80f-3bc4-4b92-93c0-45e0b5e57b39"},"vehicle_type_id":"4","last_reported":1760775121,"current_range_meters":8800,"station_id":"ce4bgup2rcd13ifvqcn0","pricing_plan_id":"cebpf4jnsgd1na2vs0mg"},{"bike_id":"96650bad-1a09-4628-85b2-71d978c47b62","system_id":"levelo_inurba_marseille","lat":43.2396,"lon":5.36628,"is_reserved":false,"is_disabled":false,"rental_uris":{"android":"levelo://app?vid=96650bad-1a09-4628-85b2-71d978c47b62","ios":"levelo://app?vid=96650bad-1a09-4628-85b2-71d978c47b62"},"vehicle_type_id":"4","last_reported":1760775121,"current_range_meters":9200,"station_id":"ce4bhi12rcd13ifvqfp0","pricing_plan_id":"cebpf4jnsgd1na2vs0mg"},{"bike_id":"c5e45447-2956-450f-bd7e-88aaf308c04d","system_id":"levelo_inurba_marseille","lat":43.290036,"lon":5.365297,"is_reserved":false,"is_disabled":false,"rental_uris":{"android":"levelo://app?vid=c5e45447-2956-450f-bd7e-88aaf308c04d","ios":"levelo://app?vid=c5e45447-2956-450f-bd7e-88aaf308c04d"},"vehicle_type_id":"4","last_reported":1760775121,"current_range_meters":9200,"station_id":"","pricing_plan_id":"cebpf4jnsgd1na2vs0mg"},{"bike_id":"ee8b3b0c-84ef-4970-9eea-09cde78c8100","system_id":"levelo_inurba_marseille","lat":43.32277,"lon":5.38283,"is_reserved":false,"is_disabled":false,"rental_uris":{"android":"levelo://app?vid=ee8b3b0c-84ef-4970-9eea-09cde78c8100","ios":"levelo://app?vid=ee8b3b0c-84ef-4970-9eea-09cde78c8100"},"vehicle_type_id":"4","last_reported":1760775121,"current_range_meters":9200,"station_id":"ce4bhr12rcd13ifvqhqg","pricing_plan_id":"cebpf4jnsgd1na2vs0mg"},{"bike_id":"6070bb89-4216-4b75-a351-fbabcb0847eb","system_id":"levelo_inurba_marseille","lat":43.27187,"lon":5.39187,"is_reserved":false,"is_disabled":false,"rental_uris":{"android":"levelo://app?vid=6070bb89-4216-4b75-a351-fbabcb0847eb","ios":"levelo://app?vid=6070bb89-4216-4b75-a351-fbabcb0847eb"},"vehicle_type_id":"4","last_reported":1760775121,"current_range_meters":9200,"station_id":"ce4bhhp2rcd13ifvqfm0","pricing_plan_id":"cebpf4jnsgd1na2vs0mg"},{"bike_id":"fef31de8-0288-4eea-bc4b-63b0d9601014","system_id":"levelo_inurba_marseille","lat":43.30536,"lon":5.3657,"is_reserved":false,"is_disabled":false,"rental_uris":{"android":"levelo://app?vid=fef31de8-0288-4eea-bc4b-63b0d9601014","ios":"levelo://app?vid=fef31de8-0288-4eea-bc4b-63b0d9601014"},"vehicle_type_id":"4","last_reported":1760775121,"current_range_meters":9200,"station_id":"ce4bgs12rcd13ifvqcag","pricing_plan_id":"cebpf4jnsgd1na2vs0mg"},{"bike_id":"39a6d961-57e5-499b-800b-2ae80babcb9c","system_id":"levelo_inurba_marseille","lat":43.312238,"lon":5.368624,"is_reserved":false,"is_disabled":false,"rental_uris":{"android":"levelo://app?vid=39a6d961-57e5-499b-800b-2ae80babcb9c","ios":"levelo://app?vid=39a6d961-57e5-499b-800b-2ae80babcb9c"},"vehicle_type_id":"4","last_reported":1760775121,"current_range_meters":9200,"station_id":"ce4bgl92rcd13ifvqbq0","pricing_plan_id":"cebpf4jnsgd1na2vs0mg"},{"bike_id":"887ae0cd-852b-4c3e-8383-09da22b1d71d","system_id":"levelo_inurba_marseille","lat":43.24072,"lon":5.37767,"is_reserved":false,"is_disabled":false,"rental_uris":{"android":"levelo://app?vid=887ae0cd-852b-4c3e-8383-09da22b1d71d","ios":"levelo://app?vid=887ae0cd-852b-4c3e-8383-09da22b1d71d"},"vehicle_type_id":"4","last_reported":1760775121,"current_range_meters":9600,"station_id":"ce4bhnp2rcd13ifvqgvg","pricing_plan_id":"cebpf4jnsgd1na2vs0mg"},{"bike_id":"ba2479bd-5a5a-46c2-83c3-00588f4cf74a","system_id":"levelo_inurba_marseille","lat":43.29796,"lon":5.36503,"is_reserved":false,"is_disabled":false,"rental_uris":{"android":"levelo://app?vid=ba2479bd-5a5a-46c2-83c3-00588f4cf74a","ios":"levelo://app?vid=ba2479bd-5a5a-46c2-83c3-00588f4cf74a"},"vehicle_type_id":"4","last_reported":1760775121,"current_range_meters":9600,"station_id":"","pricing_plan_id":"cebpf4jnsgd1na2vs0mg"},{"bike_id":"245a030c-0c43-41f8-a4cc-088d55252b06","system_id":"levelo_inurba_marseille","lat":43.244747,"lon":5.36934,"is_reserved":false,"is_disabled":false,"rental_uris":{"android":"levelo://app?vid=245a030c-0c43-41f8-a4cc-088d55252b06","ios":"levelo://app?vid=245a030c-0c43-41f8-a4cc-088d55252b06"},"vehicle_type_id":"4","last_reported":1760775121,"current_range_meters":9600,"station_id":"","pricing_plan_id":"cebpf4jnsgd1na2vs0mg"},{"bike_id":"ea883585-d0e4-4bcb-922c-57b2a3efdeac","system_id":"levelo_inurba_marseille","lat":43.30522,"lon":5.36859,"is_reserved":false,"is_disabled":false,"rental_uris":{"android":"levelo://app?vid=ea883585-d0e4-4bcb-922c-57b2a3efdeac","ios":"levelo://app?vid=ea883585-d0e4-4bcb-922c-57b2a3efdeac"},"vehicle_type_id":"4","last_reported":1760775121,"current_range_meters":9600,"station_id":"","pricing_plan_id":"cebpf4jnsgd1na2vs0mg"},{"bike_id":"c1186a5a-b485-4464-903f-745ba8838248","system_id":"levelo_inurba_marseille","lat":43.298385,"lon":5.362698,"is_reserved":false,"is_disabled":false,"rental_uris":{"android":"levelo://app?vid=c1186a5a-b485-4464-903f-745ba8838248","ios":"levelo://app?vid=c1186a5a-b485-4464-903f-745ba8838248"},"vehicle_type_id":"4","last_reported":1760775121,"current_range_meters":9600,"station_id":"ce4bgpp2rcd13ifvqc3g","pricing_plan_id":"cebpf4jnsgd1na2vs0mg"},{"bike_id":"db1f8f00-22dd-43d1-8f8b-71cd06760d79","system_id":"levelo_inurba_marseille","lat":43.29801,"lon":5.38113,"is_reserved":false,"is_disabled":false,"rental_uris":{"android":"levelo://app?vid=db1f8f00-22dd-43d1-8f8b-71cd06760d79","ios":"levelo://app?vid=db1f8f00-22dd-43d1-8f8b-71cd06760d79"},"vehicle_type_id":"4","last_reported":1760775121,"current_range_meters":9600,"station_id":"ce4bgip2rcd13ifvqbb0","pricing_plan_id":"cebpf4jnsgd1na2vs0mg"},{"bike_id":"fdc2f446-29d8-4837-9293-ab29378e61fe","system_id":"levelo_inurba_marseille","lat":43.28608,"lon":5.37067,"is_reserved":false,"is_disabled":false,"rental_uris":{"android":"levelo://app?vid=fdc2f446-29d8-4837-9293-ab29378e61fe","ios":"levelo://app?vid=fdc2f446-29d8-4837-9293-ab29378e61fe"},"vehicle_type_id":"4","last_reported":1760775121,"current_range_meters":9600,"station_id":"ce4bht12rcd13ifvqi60","pricing_plan_id":"cebpf4jnsgd1na2vs0mg"},{"bike_id":"bea4f58e-0c1c-43e7-ac8d-9ab23ddf3c09","system_id":"levelo_inurba_marseille","lat":43.2922,"lon":5.3606,"is_reserved":false,"is_disabled":false,"rental_uris":{"android":"levelo://app?vid=bea4f58e-0c1c-43e7-ac8d-9ab23ddf3c09","ios":"levelo://app?vid=bea4f58e-0c1c-43e7-ac8d-9ab23ddf3c09"},"vehicle_type_id":"4","last_reported":1760775121,"current_range_meters":9600,"station_id":"ce4bhbh2rcd13ifvqeqg","pricing_plan_id":"cebpf4jnsgd1na2vs0mg"},{"bike_id":"1ea58d06-2bc8-43e6-9700-ceffc676d32c","system_id":"levelo_inurba_marseille","lat":43.21766,"lon":5.34611,"is_reserved":false,"is_disabled":false,"rental_uris":{"android":"levelo://app?vid=1ea58d06-2bc8-43e6-9700-ceffc676d32c","ios":"levelo://app?vid=1ea58d06-2bc8-43e6-9700-ceffc676d32c"},"vehicle_type_id":"4","last_reported":1760775121,"current_range_meters":10000,"station_id":"cpo36qri1sfpv3e86is0","pricing_plan_id":"cebpf4jnsgd1na2vs0mg"},{"bike_id":"b3edc609-7782-46af-831c-544f1d118f47","system_id":"levelo_inurba_marseille","lat":43.308019,"lon":5.43533,"is_reserved":false,"is_disabled":false,"rental_uris":{"android":"levelo://app?vid=b3edc609-7782-46af-831c-544f1d118f47","ios":"levelo://app?vid=b3edc609-7782-46af-831c-544f1d118f47"},"vehicle_type_id":"4","last_reported":1760775121,"current_range_meters":10800,"station_id":"ce4bhph2rcd13ifvqheg","pricing_plan_id":"cebpf4jnsgd1na2vs0mg"},{"bike_id":"b96006b3-71fe-464c-8aec-cd4932428b32","system_id":"levelo_inurba_marseille","lat":43.30526,"lon":5.36556,"is_reserved":false,"is_disabled":false,"rental_uris":{"android":"levelo://app?vid=b96006b3-71fe-464c-8aec-cd4932428b32","ios":"levelo://app?vid=b96006b3-71fe-464c-8aec-cd4932428b32"},"vehicle_type_id":"4","last_reported":1760775121,"current_range_meters":10800,"station_id":"ce4bgs12rcd13ifvqcag","pricing_plan_id":"cebpf4jnsgd1na2vs0mg"},{"bike_id":"4b676340-84a1-434f-989d-aa20b878ac5e","system_id":"levelo_inurba_marseille","lat":43.26739,"lon":5.42956,"is_reserved":false,"is_disabled":false,"rental_uris":{"android":"levelo://app?vid=4b676340-84a1-434f-989d-aa20b878ac5e","ios":"levelo://app?vid=4b676340-84a1-434f-989d-aa20b878ac5e"},"vehicle_type_id":"4","last_reported":1760775121,"current_range_meters":10800,"station_id":"","pricing_plan_id":"cebpf4jnsgd1na2vs0mg"},{"bike_id":"924ac669-be8b-47aa-9a8e-6f22baf815eb","system_id":"levelo_inurba_marseille","lat":43.337692,"lon":5.374734,"is_reserved":false,"is_disabled":false,"rental_uris":{"android":"levelo://app?vid=924ac669-be8b-47aa-9a8e-6f22baf815eb","ios":"levelo://app?vid=924ac669-be8b-47aa-9a8e-6f22baf815eb"},"vehicle_type_id":"4","last_reported":1760775121,"current_range_meters":11200,"station_id":"","pricing_plan_id":"cebpf4jnsgd1na2vs0mg"},{"bike_id":"513bc67a-4802-48ce-98cd-ce6257048ec6","system_id":"levelo_inurba_marseille","lat":43.29982,"lon":5.37198,"is_reserved":false,"is_disabled":false,"rental_uris":{"android":"levelo://app?vid=513bc67a-4802-48ce-98cd-ce6257048ec6","ios":"levelo://app?vid=513bc67a-4802-48ce-98cd-ce6257048ec6"},"vehicle_type_id":"4","last_reported":1760775121,"current_range_meters":11200,"station_id":"ce4bgr92rcd13ifvqc7g","pricing_plan_id":"cebpf4jnsgd1na2vs0mg"},{"bike_id":"4b020afd-f837-4203-b7ea-39536a9068cc","system_id":"levelo_inurba_marseille","lat":43.30908,"lon":5.40155,"is_reserved":false,"is_disabled":false,"rental_uris":{"android":"levelo://app?vid=4b020afd-f837-4203-b7ea-39536a9068cc","ios":"levelo://app?vid=4b020afd-f837-4203-b7ea-39536a9068cc"},"vehicle_type_id":"4","last_reported":1760775121,"current_range_meters":11200,"station_id":"ce4bgvp2rcd13ifvqct0","pricing_plan_id":"cebpf4jnsgd1na2vs0mg"},{"bike_id":"2456c904-137f-44c8-bdc6-9c43c1b0d9d1","system_id":"levelo_inurba_marseille","lat":43.26214,"lon":5.37443,"is_reserved":false,"is_disabled":false,"rental_uris":{"android":"levelo://app?vid=2456c904-137f-44c8-bdc6-9c43c1b0d9d1","ios":"levelo://app?vid=2456c904-137f-44c8-bdc6-9c43c1b0d9d1"},"vehicle_type_id":"4","last_reported":1760775121,"current_range_meters":11600,"station_id":"ce4bhgp2rcd13ifvqfc0","pricing_plan_id":"cebpf4jnsgd1na2vs0mg"},{"bike_id":"5ac40018-0ca3-4d87-8a35-61cacaf40107","system_id":"levelo_inurba_marseille","lat":43.28458,"lon":5.3589,"is_reserved":false,"is_disabled":false,"rental_uris":{"android":"levelo://app?vid=5ac40018-0ca3-4d87-8a35-61cacaf40107","ios":"levelo://app?vid=5ac40018-0ca3-4d87-8a35-61cacaf40107"},"vehicle_type_id":"4","last_reported":1760775121,"current_range_meters":12000,"station_id":"ce4bhah2rcd13ifvqei0","pricing_plan_id":"cebpf4jnsgd1na2vs0mg"},{"bike_id":"4b08cfe7-5df1-4e29-905e-03a9992f8dfa","system_id":"levelo_inurba_marseille","lat":43.33775,"lon":5.37429,"is_reserved":false,"is_disabled":false,"rental_uris":{"android":"levelo://app?vid=4b08cfe7-5df1-4e29-905e-03a9992f8dfa","ios":"levelo://app?vid=4b08cfe7-5df1-4e29-905e-03a9992f8dfa"},"vehicle_type_id":"4","last_reported":1760775121,"current_range_meters":12000,"station_id":"","pricing_plan_id":"cebpf4jnsgd1na2vs0mg"},{"bike_id":"13602366-f220-4faa-adc2-56e0b4a84c9c","system_id":"levelo_inurba_marseille","lat":43.29883,"lon":5.43668,"is_reserved":false,"is_disabled":true,"rental_uris":{"android":"levelo://app?vid=13602366-f220-4faa-adc2-56e0b4a84c9c","ios":"levelo://app?vid=13602366-f220-4faa-adc2-56e0b4a84c9c"},"vehicle_type_id":"4","last_reported":1760775121,"current_range_meters":12000,"station_id":"ce4bhpp2rcd13ifvqhfg","pricing_plan_id":"cebpf4jnsgd1na2vs0mg"},{"bike_id":"e082eb77-dff0-4841-8bc1-1b3492c0d507","system_id":"levelo_inurba_marseille","lat":43.2798,"lon":5.41658,"is_reserved":false,"is_disabled":false,"rental_uris":{"android":"levelo://app?vid=e082eb77-dff0-4841-8bc1-1b3492c0d507","ios":"levelo://app?vid=e082eb77-dff0-4841-8bc1-1b3492c0d507"},"vehicle_type_id":"4","last_reported":1760775121,"current_range_meters":12000,"station_id":"ce4bho12rcd13ifvqh1g","pricing_plan_id":"cebpf4jnsgd1na2vs0mg"},{"bike_id":"c33f97a9-0ab3-4619-86a9-592cd9477db8","system_id":"levelo_inurba_marseille","lat":43.26684,"lon":5.38278,"is_reserved":false,"is_disabled":true,"rental_uris":{"android":"levelo://app?vid=c33f97a9-0ab3-4619-86a9-592cd9477db8","ios":"levelo://app?vid=c33f97a9-0ab3-4619-86a9-592cd9477db8"},"vehicle_type_id":"4","last_reported":1760775121,"current_range_meters":12000,"station_id":"ce4bhg92rcd13ifvqf90","pricing_plan_id":"cebpf4jnsgd1na2vs0mg"},{"bike_id":"b17e41b6-0052-4f82-b786-3a53f488fabc","system_id":"levelo_inurba_marseille","lat":43.29014,"lon":5.35603,"is_reserved":false,"is_disabled":false,"rental_uris":{"android":"levelo://app?vid=b17e41b6-0052-4f82-b786-3a53f488fabc","ios":"levelo://app?vid=b17e41b6-0052-4f82-b786-3a53f488fabc"},"vehicle_type_id":"4","last_reported":1760775121,"current_range_meters":12000,"station_id":"ce4bhb92rcd13ifvqen0","pricing_plan_id":"cebpf4jnsgd1na2vs0mg"},{"bike_id":"d87dc221-0a06-465e-b090-1456faa21f4d","system_id":"levelo_inurba_marseille","lat":43.30915,"lon":5.40169,"is_reserved":false,"is_disabled":false,"rental_uris":{"android":"levelo://app?vid=d87dc221-0a06-465e-b090-1456faa21f4d","ios":"levelo://app?vid=d87dc221-0a06-465e-b090-1456faa21f4d"},"vehicle_type_id":"4","last_reported":1760775121,"current_range_meters":12400,"station_id":"ce4bgvp2rcd13ifvqct0","pricing_plan_id":"cebpf4jnsgd1na2vs0mg"},{"bike_id":"433d8492-2df2-47a3-a8b5-4d7357079b49","system_id":"levelo_inurba_marseille","lat":43.30916,"lon":5.40151,"is_reserved":false,"is_disabled":false,"rental_uris":{"android":"levelo://app?vid=433d8492-2df2-47a3-a8b5-4d7357079b49","ios":"levelo://app?vid=433d8492-2df2-47a3-a8b5-4d7357079b49"},"vehicle_type_id":"4","last_reported":1760775121,"current_range_meters":12400,"station_id":"ce4bgvp2rcd13ifvqct0","pricing_plan_id":"cebpf4jnsgd1na2vs0mg"},{"bike_id":"a3411cd9-721e-4707-87bc-ffafa71c833d","system_id":"levelo_inurba_marseille","lat":43.25868,"lon":5.39898,"is_reserved":false,"is_disabled":false,"rental_uris":{"android":"levelo://app?vid=a3411cd9-721e-4707-87bc-ffafa71c833d","ios":"levelo://app?vid=a3411cd9-721e-4707-87bc-ffafa71c833d"},"vehicle_type_id":"4","last_reported":1760775121,"current_range_meters":12400,"station_id":"ce4bhl92rcd13ifvqghg","pricing_plan_id":"cebpf4jnsgd1na2vs0mg"},{"bike_id":"ddff42bd-970e-430f-b837-16b9c2f600b1","system_id":"levelo_inurba_marseille","lat":43.27176,"lon":5.40995,"is_reserved":false,"is_disabled":false,"rental_uris":{"android":"levelo://app?vid=ddff42bd-970e-430f-b837-16b9c2f600b1","ios":"levelo://app?vid=ddff42bd-970e-430f-b837-16b9c2f600b1"},"vehicle_type_id":"4","last_reported":1760775121,"current_range_meters":12400,"station_id":"ce4bhl12rcd13ifvqgf0","pricing_plan_id":"cebpf4jnsgd1na2vs0mg"},{"bike_id":"75b02a51-1325-435e-9661-29bb451a696a","system_id":"levelo_inurba_marseille","lat":43.31448,"lon":5.38488,"is_reserved":false,"is_disabled":false,"rental_uris":{"android":"levelo://app?vid=75b02a51-1325-435e-9661-29bb451a696a","ios":"levelo://app?vid=75b02a51-1325-435e-9661-29bb451a696a"},"vehicle_type_id":"4","last_reported":1760775121,"current_range_meters":12400,"station_id":"","pricing_plan_id":"cebpf4jnsgd1na2vs0mg"},{"bike_id":"46c9d7dd-8052-4c10-9b21-65765469d1bb","system_id":"levelo_inurba_marseille","lat":43.272075,"lon":5.391827,"is_reserved":false,"is_disabled":false,"rental_uris":{"android":"levelo://app?vid=46c9d7dd-8052-4c10-9b21-65765469d1bb","ios":"levelo://app?vid=46c9d7dd-8052-4c10-9b21-65765469d1bb"},"vehicle_type_id":"4","last_reported":1760775121,"current_range_meters":12400,"station_id":"ce4bhhp2rcd13ifvqfm0","pricing_plan_id":"cebpf4jnsgd1na2vs0mg"},{"bike_id":"0b170382-a38a-48fc-b060-b901de311f1a","system_id":"levelo_inurba_marseille","lat":43.33047,"lon":5.39024,"is_reserved":false,"is_disabled":false,"rental_uris":{"android":"levelo://app?vid=0b170382-a38a-48fc-b060-b901de311f1a","ios":"levelo://app?vid=0b170382-a38a-48fc-b060-b901de311f1a"},"vehicle_type_id":"4","last_reported":1760775121,"current_range_meters":12800,"station_id":"ce4bhr92rcd13ifvqhrg","pricing_plan_id":"cebpf4jnsgd1na2vs0mg"},{"bike_id":"b725caa4-f872-4e77-8c5e-f9f59098fcef","system_id":"levelo_inurba_marseille","lat":43.29223,"lon":5.40926,"is_reserved":false,"is_disabled":false,"rental_uris":{"android":"levelo://app?vid=b725caa4-f872-4e77-8c5e-f9f59098fcef","ios":"levelo://app?vid=b725caa4-f872-4e77-8c5e-f9f59098fcef"},"vehicle_type_id":"4","last_reported":1760775121,"current_range_meters":12800,"station_id":"ce4bh192rcd13ifvqdc0","pricing_plan_id":"cebpf4jnsgd1na2vs0mg"},{"bike_id":"8c30526d-4d62-49e0-92a1-2ed039e24496","system_id":"levelo_inurba_marseille","lat":43.28704,"lon":5.38299,"is_reserved":false,"is_disabled":false,"rental_uris":{"android":"levelo://app?vid=8c30526d-4d62-49e0-92a1-2ed039e24496","ios":"levelo://app?vid=8c30526d-4d62-49e0-92a1-2ed039e24496"},"vehicle_type_id":"4","last_reported":1760775121,"current_range_meters":12800,"station_id":"","pricing_plan_id":"cebpf4jnsgd1na2vs0mg"},{"bike_id":"7e98c73c-0daf-470c-8187-471fc9a15ebd","system_id":"levelo_inurba_marseille","lat":43.24166,"lon":5.363936,"is_reserved":false,"is_disabled":false,"rental_uris":{"android":"levelo://app?vid=7e98c73c-0daf-470c-8187-471fc9a15ebd","ios":"levelo://app?vid=7e98c73c-0daf-470c-8187-471fc9a15ebd"},"vehicle_type_id":"4","last_reported":1760775121,"current_range_meters":13600,"station_id":"cpo36qri1sfpv3e86is0","pricing_plan_id":"cebpf4jnsgd1na2vs0mg"},{"bike_id":"2f8b46cc-b439-4688-9ef3-9ea8d1a54d31","system_id":"levelo_inurba_marseille","lat":43.3016,"lon":5.38092,"is_reserved":false,"is_disabled":false,"rental_uris":{"android":"levelo://app?vid=2f8b46cc-b439-4688-9ef3-9ea8d1a54d31","ios":"levelo://app?vid=2f8b46cc-b439-4688-9ef3-9ea8d1a54d31"},"vehicle_type_id":"4","last_reported":1760775121,"current_range_meters":13600,"station_id":"ce4bgjp2rcd13ifvqbh0","pricing_plan_id":"cebpf4jnsgd1na2vs0mg"},{"bike_id":"a8fe53fd-4bbd-4a32-b1d3-83cb485a4225","system_id":"levelo_inurba_marseille","lat":43.23145,"lon":5.43708,"is_reserved":false,"is_disabled":false,"rental_uris":{"android":"levelo://app?vid=a8fe53fd-4bbd-4a32-b1d3-83cb485a4225","ios":"levelo://app?vid=a8fe53fd-4bbd-4a32-b1d3-83cb485a4225"},"vehicle_type_id":"4","last_reported":1760775121,"current_range_meters":13600,"station_id":"ce4bhmp2rcd13ifvqgog","pricing_plan_id":"cebpf4jnsgd1na2vs0mg"},{"bike_id":"cdba3967-fed7-4933-af52-b7d3ed0fceea","system_id":"levelo_inurba_marseille","lat":43.308913,"lon":5.371983,"is_reserved":false,"is_disabled":false,"rental_uris":{"android":"levelo://app?vid=cdba3967-fed7-4933-af52-b7d3ed0fceea","ios":"levelo://app?vid=cdba3967-fed7-4933-af52-b7d3ed0fceea"},"vehicle_type_id":"4","last_reported":1760775121,"current_range_meters":13600,"station_id":"ce4bguh2rcd13ifvqckg","pricing_plan_id":"cebpf4jnsgd1na2vs0mg"},{"bike_id":"51363703-4677-4f55-8a17-702decca8eed","system_id":"levelo_inurba_marseille","lat":43.31266,"lon":5.40173,"is_reserved":false,"is_disabled":false,"rental_uris":{"android":"levelo://app?vid=51363703-4677-4f55-8a17-702decca8eed","ios":"levelo://app?vid=51363703-4677-4f55-8a17-702decca8eed"},"vehicle_type_id":"4","last_reported":1760775121,"current_range_meters":13600,"station_id":"ce4bh092rcd13ifvqd30","pricing_plan_id":"cebpf4jnsgd1na2vs0mg"},{"bike_id":"10016a10-06c9-440f-a456-6a26a5cd8dfd","system_id":"levelo_inurba_marseille","lat":43.23953,"lon":5.36636,"is_reserved":false,"is_disabled":false,"rental_uris":{"android":"levelo://app?vid=10016a10-06c9-440f-a456-6a26a5cd8dfd","ios":"levelo://app?vid=10016a10-06c9-440f-a456-6a26a5cd8dfd"},"vehicle_type_id":"4","last_reported":1760775121,"current_range_meters":14000,"station_id":"ce4bhi12rcd13ifvqfp0","pricing_plan_id":"cebpf4jnsgd1na2vs0mg"},{"bike_id":"1d4b6109-0a93-41a9-b70b-514a233df11a","system_id":"levelo_inurba_marseille","lat":43.291872,"lon":5.35815,"is_reserved":false,"is_disabled":false,"rental_uris":{"android":"levelo://app?vid=1d4b6109-0a93-41a9-b70b-514a233df11a","ios":"levelo://app?vid=1d4b6109-0a93-41a9-b70b-514a233df11a"},"vehicle_type_id":"4","last_reported":1760775121,"current_range_meters":14000,"station_id":"","pricing_plan_id":"cebpf4jnsgd1na2vs0mg"},{"bike_id":"e9b42dd2-63ad-4090-b4e1-d0798255957c","system_id":"levelo_inurba_marseille","lat":43.23958,"lon":5.36628,"is_reserved":false,"is_disabled":false,"rental_uris":{"android":"levelo://app?vid=e9b42dd2-63ad-4090-b4e1-d0798255957c","ios":"levelo://app?vid=e9b42dd2-63ad-4090-b4e1-d0798255957c"},"vehicle_type_id":"4","last_reported":1760775121,"current_range_meters":14000,"station_id":"ce4bhi12rcd13ifvqfp0","pricing_plan_id":"cebpf4jnsgd1na2vs0mg"},{"bike_id":"97701e11-e594-4a29-8c3f-8a1ed84e46c8","system_id":"levelo_inurba_marseille","lat":43.27977,"lon":5.41638,"is_reserved":false,"is_disabled":false,"rental_uris":{"android":"levelo://app?vid=97701e11-e594-4a29-8c3f-8a1ed84e46c8","ios":"levelo://app?vid=97701e11-e594-4a29-8c3f-8a1ed84e46c8"},"vehicle_type_id":"4","last_reported":1760775121,"current_range_meters":14000,"station_id":"ce4bho12rcd13ifvqh1g","pricing_plan_id":"cebpf4jnsgd1na2vs0mg"},{"bike_id":"d414b289-5cc2-4a85-92e2-d89ed29bf121","system_id":"levelo_inurba_marseille","lat":43.29901,"lon":5.43685,"is_reserved":false,"is_disabled":false,"rental_uris":{"android":"levelo://app?vid=d414b289-5cc2-4a85-92e2-d89ed29bf121","ios":"levelo://app?vid=d414b289-5cc2-4a85-92e2-d89ed29bf121"},"vehicle_type_id":"4","last_reported":1760775121,"current_range_meters":14000,"station_id":"ce4bhpp2rcd13ifvqhfg","pricing_plan_id":"cebpf4jnsgd1na2vs0mg"},{"bike_id":"b35843bb-8826-4f0d-a706-15255e94599e","system_id":"levelo_inurba_marseille","lat":43.28007,"lon":5.40374,"is_reserved":false,"is_disabled":false,"rental_uris":{"android":"levelo://app?vid=b35843bb-8826-4f0d-a706-15255e94599e","ios":"levelo://app?vid=b35843bb-8826-4f0d-a706-15255e94599e"},"vehicle_type_id":"4","last_reported":1760775121,"current_range_meters":14000,"station_id":"","pricing_plan_id":"cebpf4jnsgd1na2vs0mg"},{"bike_id":"fbe8ed1f-1d60-4924-bae7-19e6e404e0f9","system_id":"levelo_inurba_marseille","lat":43.301216,"lon":5.431167,"is_reserved":false,"is_disabled":false,"rental_uris":{"android":"levelo://app?vid=fbe8ed1f-1d60-4924-bae7-19e6e404e0f9","ios":"levelo://app?vid=fbe8ed1f-1d60-4924-bae7-19e6e404e0f9"},"vehicle_type_id":"4","last_reported":1760775121,"current_range_meters":14000,"station_id":"st_d3js3co5814s73ftftug","pricing_plan_id":"cebpf4jnsgd1na2vs0mg"},{"bike_id":"a966d4b9-ce79-4e8a-936f-b23887d4be25","system_id":"levelo_inurba_marseille","lat":43.28871,"lon":5.42528,"is_reserved":false,"is_disabled":false,"rental_uris":{"android":"levelo://app?vid=a966d4b9-ce79-4e8a-936f-b23887d4be25","ios":"levelo://app?vid=a966d4b9-ce79-4e8a-936f-b23887d4be25"},"vehicle_type_id":"4","last_reported":1760775121,"current_range_meters":14000,"station_id":"st_d3b462108ojc7389ooeg","pricing_plan_id":"cebpf4jnsgd1na2vs0mg"},{"bike_id":"0a414463-fe1a-4833-8a11-178a3c2c879a","system_id":"levelo_inurba_marseille","lat":43.29852,"lon":5.37897,"is_reserved":false,"is_disabled":false,"rental_uris":{"android":"levelo://app?vid=0a414463-fe1a-4833-8a11-178a3c2c879a","ios":"levelo://app?vid=0a414463-fe1a-4833-8a11-178a3c2c879a"},"vehicle_type_id":"4","last_reported":1760775121,"current_range_meters":14400,"station_id":"","pricing_plan_id":"cebpf4jnsgd1na2vs0mg"},{"bike_id":"7719375d-6907-45b6-93d9-8cbd7f64256f","system_id":"levelo_inurba_marseille","lat":43.23964,"lon":5.36619,"is_reserved":false,"is_disabled":true,"rental_uris":{"android":"levelo://app?vid=7719375d-6907-45b6-93d9-8cbd7f64256f","ios":"levelo://app?vid=7719375d-6907-45b6-93d9-8cbd7f64256f"},"vehicle_type_id":"4","last_reported":1760775121,"current_range_meters":14400,"station_id":"ce4bhi12rcd13ifvqfp0","pricing_plan_id":"cebpf4jnsgd1na2vs0mg"},{"bike_id":"3e89b6f0-0116-4457-9063-c82f50c7d29c","system_id":"levelo_inurba_marseille","lat":43.23193,"lon":5.35548,"is_reserved":false,"is_disabled":false,"rental_uris":{"android":"levelo://app?vid=3e89b6f0-0116-4457-9063-c82f50c7d29c","ios":"levelo://app?vid=3e89b6f0-0116-4457-9063-c82f50c7d29c"},"vehicle_type_id":"4","last_reported":1760775121,"current_range_meters":14800,"station_id":"ce4bhu92rcd13ifvqi70","pricing_plan_id":"cebpf4jnsgd1na2vs0mg"},{"bike_id":"e427aaaf-ebc8-4540-808e-fa07955f06df","system_id":"levelo_inurba_marseille","lat":43.258803,"lon":5.394255,"is_reserved":false,"is_disabled":false,"rental_uris":{"android":"levelo://app?vid=e427aaaf-ebc8-4540-808e-fa07955f06df","ios":"levelo://app?vid=e427aaaf-ebc8-4540-808e-fa07955f06df"},"vehicle_type_id":"4","last_reported":1760775121,"current_range_meters":14800,"station_id":"","pricing_plan_id":"cebpf4jnsgd1na2vs0mg"},{"bike_id":"1809805c-95aa-4c2a-bbce-f895cc33ff5e","system_id":"levelo_inurba_marseille","lat":43.27966,"lon":5.38765,"is_reserved":false,"is_disabled":false,"rental_uris":{"android":"levelo://app?vid=1809805c-95aa-4c2a-bbce-f895cc33ff5e","ios":"levelo://app?vid=1809805c-95aa-4c2a-bbce-f895cc33ff5e"},"vehicle_type_id":"4","last_reported":1760775121,"current_range_meters":14800,"station_id":"ce4bhg12rcd13ifvqf80","pricing_plan_id":"cebpf4jnsgd1na2vs0mg"},{"bike_id":"d6dc35ca-d60e-489f-a9fd-83abfefb737f","system_id":"levelo_inurba_marseille","lat":43.31121,"lon":5.37762,"is_reserved":false,"is_disabled":false,"rental_uris":{"android":"levelo://app?vid=d6dc35ca-d60e-489f-a9fd-83abfefb737f","ios":"levelo://app?vid=d6dc35ca-d60e-489f-a9fd-83abfefb737f"},"vehicle_type_id":"4","last_reported":1760775121,"current_range_meters":14800,"station_id":"ce4bgt92rcd13ifvqcg0","pricing_plan_id":"cebpf4jnsgd1na2vs0mg"},{"bike_id":"ae6eb0f2-4874-4ceb-8d8c-7385a8266f58","system_id":"levelo_inurba_marseille","lat":43.29523,"lon":5.37916,"is_reserved":false,"is_disabled":false,"rental_uris":{"android":"levelo://app?vid=ae6eb0f2-4874-4ceb-8d8c-7385a8266f58","ios":"levelo://app?vid=ae6eb0f2-4874-4ceb-8d8c-7385a8266f58"},"vehicle_type_id":"4","last_reported":1760775121,"current_range_meters":14800,"station_id":"","pricing_plan_id":"cebpf4jnsgd1na2vs0mg"},{"bike_id":"e4c64875-bd7a-4464-a273-73ca51a12ab5","system_id":"levelo_inurba_marseille","lat":43.25861,"lon":5.39899,"is_reserved":false,"is_disabled":false,"rental_uris":{"android":"levelo://app?vid=e4c64875-bd7a-4464-a273-73ca51a12ab5","ios":"levelo://app?vid=e4c64875-bd7a-4464-a273-73ca51a12ab5"},"vehicle_type_id":"4","last_reported":1760775121,"current_range_meters":15200,"station_id":"ce4bhl92rcd13ifvqghg","pricing_plan_id":"cebpf4jnsgd1na2vs0mg"},{"bike_id":"b5384ef3-f722-490e-a099-66d8c4d1cd6b","system_id":"levelo_inurba_marseille","lat":43.28532,"lon":5.44118,"is_reserved":false,"is_disabled":false,"rental_uris":{"android":"levelo://app?vid=b5384ef3-f722-490e-a099-66d8c4d1cd6b","ios":"levelo://app?vid=b5384ef3-f722-490e-a099-66d8c4d1cd6b"},"vehicle_type_id":"4","last_reported":1760775121,"current_range_meters":15200,"station_id":"st_d3j3df2ikq2c7380ej80","pricing_plan_id":"cebpf4jnsgd1na2vs0mg"},{"bike_id":"44b15c40-8c0b-4c11-9695-a734f320e3aa","system_id":"levelo_inurba_marseille","lat":43.23185,"lon":5.39997,"is_reserved":false,"is_disabled":false,"rental_uris":{"android":"levelo://app?vid=44b15c40-8c0b-4c11-9695-a734f320e3aa","ios":"levelo://app?vid=44b15c40-8c0b-4c11-9695-a734f320e3aa"},"vehicle_type_id":"4","last_reported":1760775121,"current_range_meters":15200,"station_id":"ce4bhn12rcd13ifvqgqg","pricing_plan_id":"cebpf4jnsgd1na2vs0mg"},{"bike_id":"b1db1391-3474-48f3-85bd-dfc79b190eda","system_id":"levelo_inurba_marseille","lat":43.29284,"lon":5.36118,"is_reserved":false,"is_disabled":false,"rental_uris":{"android":"levelo://app?vid=b1db1391-3474-48f3-85bd-dfc79b190eda","ios":"levelo://app?vid=b1db1391-3474-48f3-85bd-dfc79b190eda"},"vehicle_type_id":"4","last_reported":1760775121,"current_range_meters":15200,"station_id":"","pricing_plan_id":"cebpf4jnsgd1na2vs0mg"},{"bike_id":"67dec3e9-7e5e-4461-853c-fb030eaa0b18","system_id":"levelo_inurba_marseille","lat":43.26781,"lon":5.39421,"is_reserved":false,"is_disabled":false,"rental_uris":{"android":"levelo://app?vid=67dec3e9-7e5e-4461-853c-fb030eaa0b18","ios":"levelo://app?vid=67dec3e9-7e5e-4461-853c-fb030eaa0b18"},"vehicle_type_id":"4","last_reported":1760775121,"current_range_meters":15200,"station_id":"ce4bhh12rcd13ifvqfg0","pricing_plan_id":"cebpf4jnsgd1na2vs0mg"},{"bike_id":"72ab309b-b3fe-4848-a7c5-aa685c3c47b8","system_id":"levelo_inurba_marseille","lat":43.31898,"lon":5.43888,"is_reserved":false,"is_disabled":false,"rental_uris":{"android":"levelo://app?vid=72ab309b-b3fe-4848-a7c5-aa685c3c47b8","ios":"levelo://app?vid=72ab309b-b3fe-4848-a7c5-aa685c3c47b8"},"vehicle_type_id":"4","last_reported":1760775121,"current_range_meters":15200,"station_id":"","pricing_plan_id":"cebpf4jnsgd1na2vs0mg"},{"bike_id":"c183448e-5e7e-4b6d-acca-855a698a47d9","system_id":"levelo_inurba_marseille","lat":43.31698,"lon":5.37763,"is_reserved":false,"is_disabled":false,"rental_uris":{"android":"levelo://app?vid=c183448e-5e7e-4b6d-acca-855a698a47d9","ios":"levelo://app?vid=c183448e-5e7e-4b6d-acca-855a698a47d9"},"vehicle_type_id":"4","last_reported":1760775121,"current_range_meters":15200,"station_id":"ce4bgth2rcd13ifvqch0","pricing_plan_id":"cebpf4jnsgd1na2vs0mg"},{"bike_id":"25bd64c9-91bc-4c74-b712-6d069cdfe34d","system_id":"levelo_inurba_marseille","lat":43.32094,"lon":5.36786,"is_reserved":false,"is_disabled":false,"rental_uris":{"android":"levelo://app?vid=25bd64c9-91bc-4c74-b712-6d069cdfe34d","ios":"levelo://app?vid=25bd64c9-91bc-4c74-b712-6d069cdfe34d"},"vehicle_type_id":"4","last_reported":1760775121,"current_range_meters":16000,"station_id":"ce4bhrh2rcd13ifvqhug","pricing_plan_id":"cebpf4jnsgd1na2vs0mg"},{"bike_id":"c8e7e487-2046-4072-98bc-53764ffcd62b","system_id":"levelo_inurba_marseille","lat":43.25826,"lon":5.39413,"is_reserved":false,"is_disabled":true,"rental_uris":{"android":"levelo://app?vid=c8e7e487-2046-4072-98bc-53764ffcd62b","ios":"levelo://app?vid=c8e7e487-2046-4072-98bc-53764ffcd62b"},"vehicle_type_id":"4","last_reported":1760775121,"current_range_meters":16000,"station_id":"ce4bhip2rcd13ifvqft0","pricing_plan_id":"cebpf4jnsgd1na2vs0mg"},{"bike_id":"fa68b210-55bb-4a86-a8f5-f651a77004e6","system_id":"levelo_inurba_marseille","lat":43.2319,"lon":5.35568,"is_reserved":false,"is_disabled":false,"rental_uris":{"android":"levelo://app?vid=fa68b210-55bb-4a86-a8f5-f651a77004e6","ios":"levelo://app?vid=fa68b210-55bb-4a86-a8f5-f651a77004e6"},"vehicle_type_id":"4","last_reported":1760775121,"current_range_meters":16000,"station_id":"ce4bhu92rcd13ifvqi70","pricing_plan_id":"cebpf4jnsgd1na2vs0mg"},{"bike_id":"5de922bc-2c1c-4fbd-8edd-47ecbe4bc272","system_id":"levelo_inurba_marseille","lat":43.314859,"lon":5.37296,"is_reserved":false,"is_disabled":false,"rental_uris":{"android":"levelo://app?vid=5de922bc-2c1c-4fbd-8edd-47ecbe4bc272","ios":"levelo://app?vid=5de922bc-2c1c-4fbd-8edd-47ecbe4bc272"},"vehicle_type_id":"4","last_reported":1760775121,"current_range_meters":16400,"station_id":"ce4bgt12rcd13ifvqcd0","pricing_plan_id":"cebpf4jnsgd1na2vs0mg"},{"bike_id":"6426e4fa-7f79-410d-acfa-0a51b3b2658a","system_id":"levelo_inurba_marseille","lat":43.31248,"lon":5.404073,"is_reserved":false,"is_disabled":false,"rental_uris":{"android":"levelo://app?vid=6426e4fa-7f79-410d-acfa-0a51b3b2658a","ios":"levelo://app?vid=6426e4fa-7f79-410d-acfa-0a51b3b2658a"},"vehicle_type_id":"4","last_reported":1760775121,"current_range_meters":16400,"station_id":"","pricing_plan_id":"cebpf4jnsgd1na2vs0mg"},{"bike_id":"f3529c2a-6c87-4a36-8bf3-b49277a3073f","system_id":"levelo_inurba_marseille","lat":43.246456,"lon":5.38908,"is_reserved":false,"is_disabled":false,"rental_uris":{"android":"levelo://app?vid=f3529c2a-6c87-4a36-8bf3-b49277a3073f","ios":"levelo://app?vid=f3529c2a-6c87-4a36-8bf3-b49277a3073f"},"vehicle_type_id":"4","last_reported":1760775121,"current_range_meters":16400,"station_id":"ce4bhg12rcd13ifvqf60","pricing_plan_id":"cebpf4jnsgd1na2vs0mg"},{"bike_id":"81e2005e-24eb-402b-92c9-ffb66a9802cc","system_id":"levelo_inurba_marseille","lat":43.21176,"lon":5.3506,"is_reserved":false,"is_disabled":false,"rental_uris":{"android":"levelo://app?vid=81e2005e-24eb-402b-92c9-ffb66a9802cc","ios":"levelo://app?vid=81e2005e-24eb-402b-92c9-ffb66a9802cc"},"vehicle_type_id":"4","last_reported":1760775121,"current_range_meters":16400,"station_id":"","pricing_plan_id":"cebpf4jnsgd1na2vs0mg"},{"bike_id":"365b1110-8604-4b2d-ad9b-3263b8a258f2","system_id":"levelo_inurba_marseille","lat":43.28655,"lon":5.3634,"is_reserved":false,"is_disabled":false,"rental_uris":{"android":"levelo://app?vid=365b1110-8604-4b2d-ad9b-3263b8a258f2","ios":"levelo://app?vid=365b1110-8604-4b2d-ad9b-3263b8a258f2"},"vehicle_type_id":"4","last_reported":1760775121,"current_range_meters":16400,"station_id":"ce4bhah2rcd13ifvqej0","pricing_plan_id":"cebpf4jnsgd1na2vs0mg"},{"bike_id":"7303d285-ddce-4ed4-9b43-efee1d571c3e","system_id":"levelo_inurba_marseille","lat":43.30164,"lon":5.3809,"is_reserved":false,"is_disabled":false,"rental_uris":{"android":"levelo://app?vid=7303d285-ddce-4ed4-9b43-efee1d571c3e","ios":"levelo://app?vid=7303d285-ddce-4ed4-9b43-efee1d571c3e"},"vehicle_type_id":"4","last_reported":1760775121,"current_range_meters":16400,"station_id":"ce4bgjp2rcd13ifvqbh0","pricing_plan_id":"cebpf4jnsgd1na2vs0mg"},{"bike_id":"ac6d2c4d-74a8-443d-a9f9-0d9807feacda","system_id":"levelo_inurba_marseille","lat":43.33772,"lon":5.37469,"is_reserved":false,"is_disabled":false,"rental_uris":{"android":"levelo://app?vid=ac6d2c4d-74a8-443d-a9f9-0d9807feacda","ios":"levelo://app?vid=ac6d2c4d-74a8-443d-a9f9-0d9807feacda"},"vehicle_type_id":"4","last_reported":1760775121,"current_range_meters":16400,"station_id":"","pricing_plan_id":"cebpf4jnsgd1na2vs0mg"},{"bike_id":"ab8dbe06-49f3-423b-99b1-2274be7ed343","system_id":"levelo_inurba_marseille","lat":43.29705,"lon":5.36573,"is_reserved":false,"is_disabled":false,"rental_uris":{"android":"levelo://app?vid=ab8dbe06-49f3-423b-99b1-2274be7ed343","ios":"levelo://app?vid=ab8dbe06-49f3-423b-99b1-2274be7ed343"},"vehicle_type_id":"4","last_reported":1760775121,"current_range_meters":16400,"station_id":"ce4bgn12rcd13ifvqbt0","pricing_plan_id":"cebpf4jnsgd1na2vs0mg"},{"bike_id":"568ff1ca-6992-424a-a90c-3cbe8840a57e","system_id":"levelo_inurba_marseille","lat":43.31266,"lon":5.40182,"is_reserved":false,"is_disabled":false,"rental_uris":{"android":"levelo://app?vid=568ff1ca-6992-424a-a90c-3cbe8840a57e","ios":"levelo://app?vid=568ff1ca-6992-424a-a90c-3cbe8840a57e"},"vehicle_type_id":"4","last_reported":1760775121,"current_range_meters":16400,"station_id":"ce4bh092rcd13ifvqd30","pricing_plan_id":"cebpf4jnsgd1na2vs0mg"},{"bike_id":"074be791-6c38-4f2f-8dd0-b227e073e27e","system_id":"levelo_inurba_marseille","lat":43.24172,"lon":5.36404,"is_reserved":false,"is_disabled":false,"rental_uris":{"android":"levelo://app?vid=074be791-6c38-4f2f-8dd0-b227e073e27e","ios":"levelo://app?vid=074be791-6c38-4f2f-8dd0-b227e073e27e"},"vehicle_type_id":"4","last_reported":1760775121,"current_range_meters":16800,"station_id":"cpo36qri1sfpv3e86is0","pricing_plan_id":"cebpf4jnsgd1na2vs0mg"},{"bike_id":"05be6c66-e1b2-4e90-9074-f509a58707f5","system_id":"levelo_inurba_marseille","lat":43.289819,"lon":5.371745,"is_reserved":false,"is_disabled":false,"rental_uris":{"android":"levelo://app?vid=05be6c66-e1b2-4e90-9074-f509a58707f5","ios":"levelo://app?vid=05be6c66-e1b2-4e90-9074-f509a58707f5"},"vehicle_type_id":"4","last_reported":1760775121,"current_range_meters":16800,"station_id":"","pricing_plan_id":"cebpf4jnsgd1na2vs0mg"},{"bike_id":"bf2c3617-0e72-4f4a-8585-0c63bcbc4fce","system_id":"levelo_inurba_marseille","lat":43.28612,"lon":5.35103,"is_reserved":false,"is_disabled":true,"rental_uris":{"android":"levelo://app?vid=bf2c3617-0e72-4f4a-8585-0c63bcbc4fce","ios":"levelo://app?vid=bf2c3617-0e72-4f4a-8585-0c63bcbc4fce"},"vehicle_type_id":"4","last_reported":1760775121,"current_range_meters":16800,"station_id":"ce4bhch2rcd13ifvqeug","pricing_plan_id":"cebpf4jnsgd1na2vs0mg"},{"bike_id":"d712d0ff-3096-41ad-87d0-b640167ff060","system_id":"levelo_inurba_marseille","lat":43.31541,"lon":5.38512,"is_reserved":false,"is_disabled":false,"rental_uris":{"android":"levelo://app?vid=d712d0ff-3096-41ad-87d0-b640167ff060","ios":"levelo://app?vid=d712d0ff-3096-41ad-87d0-b640167ff060"},"vehicle_type_id":"4","last_reported":1760775121,"current_range_meters":16800,"station_id":"","pricing_plan_id":"cebpf4jnsgd1na2vs0mg"},{"bike_id":"8b76c960-b3fb-4b76-9aa4-4dc644255689","system_id":"levelo_inurba_marseille","lat":43.323526,"lon":5.38891,"is_reserved":false,"is_disabled":false,"rental_uris":{"android":"levelo://app?vid=8b76c960-b3fb-4b76-9aa4-4dc644255689","ios":"levelo://app?vid=8b76c960-b3fb-4b76-9aa4-4dc644255689"},"vehicle_type_id":"4","last_reported":1760775121,"current_range_meters":16800,"station_id":"ce4bhqp2rcd13ifvqhog","pricing_plan_id":"cebpf4jnsgd1na2vs0mg"},{"bike_id":"3e9130f7-2dc2-48e9-a6a6-56327ea869ab","system_id":"levelo_inurba_marseille","lat":43.24167,"lon":5.363921,"is_reserved":false,"is_disabled":false,"rental_uris":{"android":"levelo://app?vid=3e9130f7-2dc2-48e9-a6a6-56327ea869ab","ios":"levelo://app?vid=3e9130f7-2dc2-48e9-a6a6-56327ea869ab"},"vehicle_type_id":"4","last_reported":1760775121,"current_range_meters":16800,"station_id":"cpo36qri1sfpv3e86is0","pricing_plan_id":"cebpf4jnsgd1na2vs0mg"},{"bike_id":"a7b3764b-b896-4840-bd7e-9880973af195","system_id":"levelo_inurba_marseille","lat":43.292287,"lon":5.360602,"is_reserved":false,"is_disabled":false,"rental_uris":{"android":"levelo://app?vid=a7b3764b-b896-4840-bd7e-9880973af195","ios":"levelo://app?vid=a7b3764b-b896-4840-bd7e-9880973af195"},"vehicle_type_id":"4","last_reported":1760775121,"current_range_meters":16800,"station_id":"","pricing_plan_id":"cebpf4jnsgd1na2vs0mg"},{"bike_id":"f4b21278-7a88-4f1e-8b50-4cb4a181722f","system_id":"levelo_inurba_marseille","lat":43.28522,"lon":5.44106,"is_reserved":false,"is_disabled":false,"rental_uris":{"android":"levelo://app?vid=f4b21278-7a88-4f1e-8b50-4cb4a181722f","ios":"levelo://app?vid=f4b21278-7a88-4f1e-8b50-4cb4a181722f"},"vehicle_type_id":"4","last_reported":1760775121,"current_range_meters":16800,"station_id":"st_d3j3df2ikq2c7380ej80","pricing_plan_id":"cebpf4jnsgd1na2vs0mg"},{"bike_id":"edcb744a-1021-4493-86cd-94aad7a8dbc8","system_id":"levelo_inurba_marseille","lat":43.30566,"lon":5.37451,"is_reserved":false,"is_disabled":false,"rental_uris":{"android":"levelo://app?vid=edcb744a-1021-4493-86cd-94aad7a8dbc8","ios":"levelo://app?vid=edcb744a-1021-4493-86cd-94aad7a8dbc8"},"vehicle_type_id":"4","last_reported":1760775121,"current_range_meters":16800,"station_id":"","pricing_plan_id":"cebpf4jnsgd1na2vs0mg"},{"bike_id":"838aa66d-6981-4ac9-b6c1-d770c4877fde","system_id":"levelo_inurba_marseille","lat":43.27211,"lon":5.3917,"is_reserved":false,"is_disabled":false,"rental_uris":{"android":"levelo://app?vid=838aa66d-6981-4ac9-b6c1-d770c4877fde","ios":"levelo://app?vid=838aa66d-6981-4ac9-b6c1-d770c4877fde"},"vehicle_type_id":"4","last_reported":1760775121,"current_range_meters":17200,"station_id":"ce4bhhp2rcd13ifvqfm0","pricing_plan_id":"cebpf4jnsgd1na2vs0mg"},{"bike_id":"eaba2c97-430a-4e05-9a18-9c7e7e2fdd5a","system_id":"levelo_inurba_marseille","lat":43.28727,"lon":5.36093,"is_reserved":false,"is_disabled":false,"rental_uris":{"android":"levelo://app?vid=eaba2c97-430a-4e05-9a18-9c7e7e2fdd5a","ios":"levelo://app?vid=eaba2c97-430a-4e05-9a18-9c7e7e2fdd5a"},"vehicle_type_id":"4","last_reported":1760775121,"current_range_meters":17200,"station_id":"cki0cbj6b192h4jlfktg","pricing_plan_id":"cebpf4jnsgd1na2vs0mg"},{"bike_id":"ec652428-0eb3-4b1d-b413-723b569c8457","system_id":"levelo_inurba_marseille","lat":43.26945,"lon":5.38644,"is_reserved":false,"is_disabled":false,"rental_uris":{"android":"levelo://app?vid=ec652428-0eb3-4b1d-b413-723b569c8457","ios":"levelo://app?vid=ec652428-0eb3-4b1d-b413-723b569c8457"},"vehicle_type_id":"4","last_reported":1760775121,"current_range_meters":17200,"station_id":"ce4bhh92rcd13ifvqfh0","pricing_plan_id":"cebpf4jnsgd1na2vs0mg"},{"bike_id":"cf4c14bf-7635-4f96-a4b6-ee6481db3804","system_id":"levelo_inurba_marseille","lat":43.32293,"lon":5.38287,"is_reserved":false,"is_disabled":false,"rental_uris":{"android":"levelo://app?vid=cf4c14bf-7635-4f96-a4b6-ee6481db3804","ios":"levelo://app?vid=cf4c14bf-7635-4f96-a4b6-ee6481db3804"},"vehicle_type_id":"4","last_reported":1760775121,"current_range_meters":17200,"station_id":"ce4bhr12rcd13ifvqhqg","pricing_plan_id":"cebpf4jnsgd1na2vs0mg"},{"bike_id":"29ddc771-5528-4287-b3ff-022c4fda25f0","system_id":"levelo_inurba_marseille","lat":43.290063,"lon":5.356125,"is_reserved":false,"is_disabled":false,"rental_uris":{"android":"levelo://app?vid=29ddc771-5528-4287-b3ff-022c4fda25f0","ios":"levelo://app?vid=29ddc771-5528-4287-b3ff-022c4fda25f0"},"vehicle_type_id":"4","last_reported":1760775121,"current_range_meters":17200,"station_id":"ce4bhb92rcd13ifvqen0","pricing_plan_id":"cebpf4jnsgd1na2vs0mg"},{"bike_id":"1e887256-61fa-42dd-9723-68b5d461a392","system_id":"levelo_inurba_marseille","lat":43.24069,"lon":5.37763,"is_reserved":false,"is_disabled":false,"rental_uris":{"android":"levelo://app?vid=1e887256-61fa-42dd-9723-68b5d461a392","ios":"levelo://app?vid=1e887256-61fa-42dd-9723-68b5d461a392"},"vehicle_type_id":"4","last_reported":1760775121,"current_range_meters":17200,"station_id":"ce4bhnp2rcd13ifvqgvg","pricing_plan_id":"cebpf4jnsgd1na2vs0mg"},{"bike_id":"a8eb8b37-0b4a-43bc-a495-28131b905b81","system_id":"levelo_inurba_marseille","lat":43.30936,"lon":5.40154,"is_reserved":false,"is_disabled":false,"rental_uris":{"android":"levelo://app?vid=a8eb8b37-0b4a-43bc-a495-28131b905b81","ios":"levelo://app?vid=a8eb8b37-0b4a-43bc-a495-28131b905b81"},"vehicle_type_id":"4","last_reported":1760775121,"current_range_meters":17200,"station_id":"ce4bgvp2rcd13ifvqct0","pricing_plan_id":"cebpf4jnsgd1na2vs0mg"},{"bike_id":"cab26d3f-f350-4830-85b5-903f1536b9e5","system_id":"levelo_inurba_marseille","lat":43.309225,"lon":5.401447,"is_reserved":false,"is_disabled":false,"rental_uris":{"android":"levelo://app?vid=cab26d3f-f350-4830-85b5-903f1536b9e5","ios":"levelo://app?vid=cab26d3f-f350-4830-85b5-903f1536b9e5"},"vehicle_type_id":"4","last_reported":1760775121,"current_range_meters":17200,"station_id":"ce4bgvp2rcd13ifvqct0","pricing_plan_id":"cebpf4jnsgd1na2vs0mg"},{"bike_id":"8b47997b-03f3-49a4-97c1-260ad9eaaf57","system_id":"levelo_inurba_marseille","lat":43.29882,"lon":5.43679,"is_reserved":false,"is_disabled":false,"rental_uris":{"android":"levelo://app?vid=8b47997b-03f3-49a4-97c1-260ad9eaaf57","ios":"levelo://app?vid=8b47997b-03f3-49a4-97c1-260ad9eaaf57"},"vehicle_type_id":"4","last_reported":1760775121,"current_range_meters":17600,"station_id":"ce4bhpp2rcd13ifvqhfg","pricing_plan_id":"cebpf4jnsgd1na2vs0mg"},{"bike_id":"6f1dc62f-ce9f-4339-aa44-49db05832b92","system_id":"levelo_inurba_marseille","lat":43.3021,"lon":5.39467,"is_reserved":false,"is_disabled":true,"rental_uris":{"android":"levelo://app?vid=6f1dc62f-ce9f-4339-aa44-49db05832b92","ios":"levelo://app?vid=6f1dc62f-ce9f-4339-aa44-49db05832b92"},"vehicle_type_id":"4","last_reported":1760775121,"current_range_meters":17600,"station_id":"","pricing_plan_id":"cebpf4jnsgd1na2vs0mg"},{"bike_id":"595d824b-b51b-4e95-bb9c-0de714860857","system_id":"levelo_inurba_marseille","lat":43.33754,"lon":5.37461,"is_reserved":false,"is_disabled":false,"rental_uris":{"android":"levelo://app?vid=595d824b-b51b-4e95-bb9c-0de714860857","ios":"levelo://app?vid=595d824b-b51b-4e95-bb9c-0de714860857"},"vehicle_type_id":"4","last_reported":1760775121,"current_range_meters":17600,"station_id":"","pricing_plan_id":"cebpf4jnsgd1na2vs0mg"},{"bike_id":"8bdd8fc1-625b-4b8f-b180-7ca8b1af0597","system_id":"levelo_inurba_marseille","lat":43.281534,"lon":5.426388,"is_reserved":false,"is_disabled":false,"rental_uris":{"android":"levelo://app?vid=8bdd8fc1-625b-4b8f-b180-7ca8b1af0597","ios":"levelo://app?vid=8bdd8fc1-625b-4b8f-b180-7ca8b1af0597"},"vehicle_type_id":"4","last_reported":1760775121,"current_range_meters":17600,"station_id":"ce4bhnh2rcd13ifvqgug","pricing_plan_id":"cebpf4jnsgd1na2vs0mg"},{"bike_id":"e430d0a8-fc97-491b-8ac4-36d8a3bc3396","system_id":"levelo_inurba_marseille","lat":43.29306,"lon":5.37129,"is_reserved":false,"is_disabled":false,"rental_uris":{"android":"levelo://app?vid=e430d0a8-fc97-491b-8ac4-36d8a3bc3396","ios":"levelo://app?vid=e430d0a8-fc97-491b-8ac4-36d8a3bc3396"},"vehicle_type_id":"4","last_reported":1760775121,"current_range_meters":18000,"station_id":"ce4bgh92rcd13ifvqb40","pricing_plan_id":"cebpf4jnsgd1na2vs0mg"},{"bike_id":"c71eb113-4d35-4018-a1da-74dbb9bb0d5c","system_id":"levelo_inurba_marseille","lat":43.29286,"lon":5.36861,"is_reserved":false,"is_disabled":false,"rental_uris":{"android":"levelo://app?vid=c71eb113-4d35-4018-a1da-74dbb9bb0d5c","ios":"levelo://app?vid=c71eb113-4d35-4018-a1da-74dbb9bb0d5c"},"vehicle_type_id":"4","last_reported":1760775121,"current_range_meters":18000,"station_id":"ce4bhbp2rcd13ifvqesg","pricing_plan_id":"cebpf4jnsgd1na2vs0mg"},{"bike_id":"d3df3d50-48e8-4902-a642-108fd77511ac","system_id":"levelo_inurba_marseille","lat":43.240709,"lon":5.377558,"is_reserved":false,"is_disabled":false,"rental_uris":{"android":"levelo://app?vid=d3df3d50-48e8-4902-a642-108fd77511ac","ios":"levelo://app?vid=d3df3d50-48e8-4902-a642-108fd77511ac"},"vehicle_type_id":"4","last_reported":1760775121,"current_range_meters":18000,"station_id":"ce4bhnp2rcd13ifvqgvg","pricing_plan_id":"cebpf4jnsgd1na2vs0mg"},{"bike_id":"5de1ae63-bb90-453a-aa0f-05f0328c815d","system_id":"levelo_inurba_marseille","lat":43.28489,"lon":5.38491,"is_reserved":false,"is_disabled":false,"rental_uris":{"android":"levelo://app?vid=5de1ae63-bb90-453a-aa0f-05f0328c815d","ios":"levelo://app?vid=5de1ae63-bb90-453a-aa0f-05f0328c815d"},"vehicle_type_id":"4","last_reported":1760775121,"current_range_meters":18000,"station_id":"ce4bh8p2rcd13ifvqeb0","pricing_plan_id":"cebpf4jnsgd1na2vs0mg"},{"bike_id":"67ed1bfa-6aa8-4f38-9a82-9de9966e47c3","system_id":"levelo_inurba_marseille","lat":43.3133,"lon":5.39683,"is_reserved":false,"is_disabled":false,"rental_uris":{"android":"levelo://app?vid=67ed1bfa-6aa8-4f38-9a82-9de9966e47c3","ios":"levelo://app?vid=67ed1bfa-6aa8-4f38-9a82-9de9966e47c3"},"vehicle_type_id":"4","last_reported":1760775121,"current_range_meters":18000,"station_id":"ce4bgvp2rcd13ifvqcu0","pricing_plan_id":"cebpf4jnsgd1na2vs0mg"},{"bike_id":"109ac308-54fd-47d6-af56-fc67913ab9d0","system_id":"levelo_inurba_marseille","lat":43.30113,"lon":5.43102,"is_reserved":false,"is_disabled":false,"rental_uris":{"android":"levelo://app?vid=109ac308-54fd-47d6-af56-fc67913ab9d0","ios":"levelo://app?vid=109ac308-54fd-47d6-af56-fc67913ab9d0"},"vehicle_type_id":"4","last_reported":1760775121,"current_range_meters":18000,"station_id":"st_d3js3co5814s73ftftug","pricing_plan_id":"cebpf4jnsgd1na2vs0mg"},{"bike_id":"143c6027-189b-4753-abca-6e64a9910ea9","system_id":"levelo_inurba_marseille","lat":43.25728,"lon":5.4111,"is_reserved":false,"is_disabled":false,"rental_uris":{"android":"levelo://app?vid=143c6027-189b-4753-abca-6e64a9910ea9","ios":"levelo://app?vid=143c6027-189b-4753-abca-6e64a9910ea9"},"vehicle_type_id":"4","last_reported":1760775121,"current_range_meters":18800,"station_id":"ce4bhkp2rcd13ifvqgd0","pricing_plan_id":"cebpf4jnsgd1na2vs0mg"},{"bike_id":"86ce52f8-f590-4694-90e1-216ddc477b29","system_id":"levelo_inurba_marseille","lat":43.30968,"lon":5.3812,"is_reserved":false,"is_disabled":false,"rental_uris":{"android":"levelo://app?vid=86ce52f8-f590-4694-90e1-216ddc477b29","ios":"levelo://app?vid=86ce52f8-f590-4694-90e1-216ddc477b29"},"vehicle_type_id":"4","last_reported":1760775121,"current_range_meters":18800,"station_id":"","pricing_plan_id":"cebpf4jnsgd1na2vs0mg"},{"bike_id":"8cd818e3-a9e2-4f48-92b2-26306f507696","system_id":"levelo_inurba_marseille","lat":43.31349,"lon":5.37913,"is_reserved":false,"is_disabled":false,"rental_uris":{"android":"levelo://app?vid=8cd818e3-a9e2-4f48-92b2-26306f507696","ios":"levelo://app?vid=8cd818e3-a9e2-4f48-92b2-26306f507696"},"vehicle_type_id":"4","last_reported":1760775121,"current_range_meters":18800,"station_id":"","pricing_plan_id":"cebpf4jnsgd1na2vs0mg"},{"bike_id":"b74828d5-0513-4047-85e4-a7de744f7bd7","system_id":"levelo_inurba_marseille","lat":43.29559,"lon":5.3752,"is_reserved":false,"is_disabled":false,"rental_uris":{"android":"levelo://app?vid=b74828d5-0513-4047-85e4-a7de744f7bd7","ios":"levelo://app?vid=b74828d5-0513-4047-85e4-a7de744f7bd7"},"vehicle_type_id":"4","last_reported":1760775121,"current_range_meters":18800,"station_id":"ce4bgh92rcd13ifvqb50","pricing_plan_id":"cebpf4jnsgd1na2vs0mg"},{"bike_id":"a3bea987-4c2d-47e9-ab2e-048f59a06e29","system_id":"levelo_inurba_marseille","lat":43.323657,"lon":5.36753,"is_reserved":false,"is_disabled":false,"rental_uris":{"android":"levelo://app?vid=a3bea987-4c2d-47e9-ab2e-048f59a06e29","ios":"levelo://app?vid=a3bea987-4c2d-47e9-ab2e-048f59a06e29"},"vehicle_type_id":"4","last_reported":1760775121,"current_range_meters":18800,"station_id":"ce4bhsh2rcd13ifvqi2g","pricing_plan_id":"cebpf4jnsgd1na2vs0mg"},{"bike_id":"967e4b65-604d-4b8d-ac1d-2fa3794e8cb2","system_id":"levelo_inurba_marseille","lat":43.311193,"lon":5.377503,"is_reserved":false,"is_disabled":false,"rental_uris":{"android":"levelo://app?vid=967e4b65-604d-4b8d-ac1d-2fa3794e8cb2","ios":"levelo://app?vid=967e4b65-604d-4b8d-ac1d-2fa3794e8cb2"},"vehicle_type_id":"4","last_reported":1760775121,"current_range_meters":18800,"station_id":"ce4bgt92rcd13ifvqcg0","pricing_plan_id":"cebpf4jnsgd1na2vs0mg"},{"bike_id":"0f787efd-37ca-4060-a03d-15d3c3ce389f","system_id":"levelo_inurba_marseille","lat":43.30003,"lon":5.37336,"is_reserved":false,"is_disabled":false,"rental_uris":{"android":"levelo://app?vid=0f787efd-37ca-4060-a03d-15d3c3ce389f","ios":"levelo://app?vid=0f787efd-37ca-4060-a03d-15d3c3ce389f"},"vehicle_type_id":"4","last_reported":1760775121,"current_range_meters":18800,"station_id":"","pricing_plan_id":"cebpf4jnsgd1na2vs0mg"},{"bike_id":"7b4102bf-aba1-447f-93de-ffef7042242e","system_id":"levelo_inurba_marseille","lat":43.27766,"lon":5.376,"is_reserved":false,"is_disabled":false,"rental_uris":{"android":"levelo://app?vid=7b4102bf-aba1-447f-93de-ffef7042242e","ios":"levelo://app?vid=7b4102bf-aba1-447f-93de-ffef7042242e"},"vehicle_type_id":"4","last_reported":1760775121,"current_range_meters":19200,"station_id":"","pricing_plan_id":"cebpf4jnsgd1na2vs0mg"},{"bike_id":"3f66624b-dafd-44d2-97e8-12f18cd10784","system_id":"levelo_inurba_marseille","lat":43.28695,"lon":5.37398,"is_reserved":false,"is_disabled":false,"rental_uris":{"android":"levelo://app?vid=3f66624b-dafd-44d2-97e8-12f18cd10784","ios":"levelo://app?vid=3f66624b-dafd-44d2-97e8-12f18cd10784"},"vehicle_type_id":"4","last_reported":1760775121,"current_range_meters":19200,"station_id":"ce4bh3p2rcd13ifvqdq0","pricing_plan_id":"cebpf4jnsgd1na2vs0mg"},{"bike_id":"8f6c99a9-2111-4ea5-ba4d-4bb0a3b06aa1","system_id":"levelo_inurba_marseille","lat":43.29815,"lon":5.44072,"is_reserved":false,"is_disabled":false,"rental_uris":{"android":"levelo://app?vid=8f6c99a9-2111-4ea5-ba4d-4bb0a3b06aa1","ios":"levelo://app?vid=8f6c99a9-2111-4ea5-ba4d-4bb0a3b06aa1"},"vehicle_type_id":"4","last_reported":1760775121,"current_range_meters":19200,"station_id":"st_d3jp68qikq2c7381ktn0","pricing_plan_id":"cebpf4jnsgd1na2vs0mg"},{"bike_id":"86c89e9b-d4b5-420c-bae1-35ac122f0bb4","system_id":"levelo_inurba_marseille","lat":43.25872,"lon":5.39911,"is_reserved":false,"is_disabled":false,"rental_uris":{"android":"levelo://app?vid=86c89e9b-d4b5-420c-bae1-35ac122f0bb4","ios":"levelo://app?vid=86c89e9b-d4b5-420c-bae1-35ac122f0bb4"},"vehicle_type_id":"4","last_reported":1760775121,"current_range_meters":19200,"station_id":"ce4bhl92rcd13ifvqghg","pricing_plan_id":"cebpf4jnsgd1na2vs0mg"},{"bike_id":"84868a3a-d739-4fcb-aa91-5b15e5ce2f6d","system_id":"levelo_inurba_marseille","lat":43.32319,"lon":5.44019,"is_reserved":false,"is_disabled":false,"rental_uris":{"android":"levelo://app?vid=84868a3a-d739-4fcb-aa91-5b15e5ce2f6d","ios":"levelo://app?vid=84868a3a-d739-4fcb-aa91-5b15e5ce2f6d"},"vehicle_type_id":"4","last_reported":1760775121,"current_range_meters":19200,"station_id":"","pricing_plan_id":"cebpf4jnsgd1na2vs0mg"},{"bike_id":"50b0c317-2203-48dc-b972-8f39b38a376e","system_id":"levelo_inurba_marseille","lat":43.30121,"lon":5.39887,"is_reserved":false,"is_disabled":true,"rental_uris":{"android":"levelo://app?vid=50b0c317-2203-48dc-b972-8f39b38a376e","ios":"levelo://app?vid=50b0c317-2203-48dc-b972-8f39b38a376e"},"vehicle_type_id":"4","last_reported":1760775121,"current_range_meters":19200,"station_id":"ce4bh0h2rcd13ifvqd40","pricing_plan_id":"cebpf4jnsgd1na2vs0mg"},{"bike_id":"4498d48a-d3e6-4818-8c29-20f27d1af591","system_id":"levelo_inurba_marseille","lat":43.3086,"lon":5.37201,"is_reserved":false,"is_disabled":false,"rental_uris":{"android":"levelo://app?vid=4498d48a-d3e6-4818-8c29-20f27d1af591","ios":"levelo://app?vid=4498d48a-d3e6-4818-8c29-20f27d1af591"},"vehicle_type_id":"4","last_reported":1760775121,"current_range_meters":19200,"station_id":"","pricing_plan_id":"cebpf4jnsgd1na2vs0mg"},{"bike_id":"3c050334-d31c-4bcc-879a-4803614c51fd","system_id":"levelo_inurba_marseille","lat":43.29272,"lon":5.36849,"is_reserved":false,"is_disabled":false,"rental_uris":{"android":"levelo://app?vid=3c050334-d31c-4bcc-879a-4803614c51fd","ios":"levelo://app?vid=3c050334-d31c-4bcc-879a-4803614c51fd"},"vehicle_type_id":"4","last_reported":1760775121,"current_range_meters":19200,"station_id":"ce4bhbp2rcd13ifvqesg","pricing_plan_id":"cebpf4jnsgd1na2vs0mg"},{"bike_id":"cfefff92-a333-49c5-84d3-4b3782d17700","system_id":"levelo_inurba_marseille","lat":43.29306,"lon":5.37427,"is_reserved":false,"is_disabled":false,"rental_uris":{"android":"levelo://app?vid=cfefff92-a333-49c5-84d3-4b3782d17700","ios":"levelo://app?vid=cfefff92-a333-49c5-84d3-4b3782d17700"},"vehicle_type_id":"4","last_reported":1760775121,"current_range_meters":19200,"station_id":"ce4bgi12rcd13ifvqb70","pricing_plan_id":"cebpf4jnsgd1na2vs0mg"},{"bike_id":"2cfcc5b9-8f6c-4ecf-9d74-ed1de59d3d4b","system_id":"levelo_inurba_marseille","lat":43.31266,"lon":5.40171,"is_reserved":false,"is_disabled":false,"rental_uris":{"android":"levelo://app?vid=2cfcc5b9-8f6c-4ecf-9d74-ed1de59d3d4b","ios":"levelo://app?vid=2cfcc5b9-8f6c-4ecf-9d74-ed1de59d3d4b"},"vehicle_type_id":"4","last_reported":1760775121,"current_range_meters":19200,"station_id":"ce4bh092rcd13ifvqd30","pricing_plan_id":"cebpf4jnsgd1na2vs0mg"},{"bike_id":"ec9b3e09-59b2-46f5-b30e-4f6e4b4da5d0","system_id":"levelo_inurba_marseille","lat":43.23791,"lon":5.36621,"is_reserved":false,"is_disabled":false,"rental_uris":{"android":"levelo://app?vid=ec9b3e09-59b2-46f5-b30e-4f6e4b4da5d0","ios":"levelo://app?vid=ec9b3e09-59b2-46f5-b30e-4f6e4b4da5d0"},"vehicle_type_id":"4","last_reported":1760775121,"current_range_meters":19200,"station_id":"st_d3nk18o9ro0c73en2l3g","pricing_plan_id":"cebpf4jnsgd1na2vs0mg"},{"bike_id":"35e6857b-8f06-44c5-9a70-1beebff0bdba","system_id":"levelo_inurba_marseille","lat":43.26557,"lon":5.37285,"is_reserved":false,"is_disabled":false,"rental_uris":{"android":"levelo://app?vid=35e6857b-8f06-44c5-9a70-1beebff0bdba","ios":"levelo://app?vid=35e6857b-8f06-44c5-9a70-1beebff0bdba"},"vehicle_type_id":"4","last_reported":1760775121,"current_range_meters":19200,"station_id":"ce4bhg12rcd13ifvqf70","pricing_plan_id":"cebpf4jnsgd1na2vs0mg"},{"bike_id":"c74693ea-c3ee-4037-a61c-4ccf86ad8262","system_id":"levelo_inurba_marseille","lat":43.26554,"lon":5.37286,"is_reserved":false,"is_disabled":false,"rental_uris":{"android":"levelo://app?vid=c74693ea-c3ee-4037-a61c-4ccf86ad8262","ios":"levelo://app?vid=c74693ea-c3ee-4037-a61c-4ccf86ad8262"},"vehicle_type_id":"4","last_reported":1760775121,"current_range_meters":19200,"station_id":"ce4bhg12rcd13ifvqf70","pricing_plan_id":"cebpf4jnsgd1na2vs0mg"},{"bike_id":"3c1d9668-ef86-4e30-98a4-d485db17e978","system_id":"levelo_inurba_marseille","lat":43.28736,"lon":5.36083,"is_reserved":false,"is_disabled":false,"rental_uris":{"android":"levelo://app?vid=3c1d9668-ef86-4e30-98a4-d485db17e978","ios":"levelo://app?vid=3c1d9668-ef86-4e30-98a4-d485db17e978"},"vehicle_type_id":"4","last_reported":1760775121,"current_range_meters":19200,"station_id":"cki0cbj6b192h4jlfktg","pricing_plan_id":"cebpf4jnsgd1na2vs0mg"},{"bike_id":"7a8ac50b-c3a4-490a-8f96-9c005f89ed5d","system_id":"levelo_inurba_marseille","lat":43.26521,"lon":5.39049,"is_reserved":false,"is_disabled":false,"rental_uris":{"android":"levelo://app?vid=7a8ac50b-c3a4-490a-8f96-9c005f89ed5d","ios":"levelo://app?vid=7a8ac50b-c3a4-490a-8f96-9c005f89ed5d"},"vehicle_type_id":"4","last_reported":1760775121,"current_range_meters":19600,"station_id":"","pricing_plan_id":"cebpf4jnsgd1na2vs0mg"},{"bike_id":"eee6fc5a-a5e6-4f0c-a6a4-97824048b485","system_id":"levelo_inurba_marseille","lat":43.23965,"lon":5.36623,"is_reserved":false,"is_disabled":false,"rental_uris":{"android":"levelo://app?vid=eee6fc5a-a5e6-4f0c-a6a4-97824048b485","ios":"levelo://app?vid=eee6fc5a-a5e6-4f0c-a6a4-97824048b485"},"vehicle_type_id":"4","last_reported":1760775121,"current_range_meters":19600,"station_id":"ce4bhi12rcd13ifvqfp0","pricing_plan_id":"cebpf4jnsgd1na2vs0mg"},{"bike_id":"6b06aa68-6da8-4f5c-bf18-9f5045bd8fa8","system_id":"levelo_inurba_marseille","lat":43.24193,"lon":5.36383,"is_reserved":false,"is_disabled":false,"rental_uris":{"android":"levelo://app?vid=6b06aa68-6da8-4f5c-bf18-9f5045bd8fa8","ios":"levelo://app?vid=6b06aa68-6da8-4f5c-bf18-9f5045bd8fa8"},"vehicle_type_id":"4","last_reported":1760775121,"current_range_meters":19600,"station_id":"cpo36qri1sfpv3e86is0","pricing_plan_id":"cebpf4jnsgd1na2vs0mg"},{"bike_id":"1e0811ea-c427-49d9-98ac-583b2c3eb70b","system_id":"levelo_inurba_marseille","lat":43.26795,"lon":5.40279,"is_reserved":false,"is_disabled":false,"rental_uris":{"android":"levelo://app?vid=1e0811ea-c427-49d9-98ac-583b2c3eb70b","ios":"levelo://app?vid=1e0811ea-c427-49d9-98ac-583b2c3eb70b"},"vehicle_type_id":"4","last_reported":1760775121,"current_range_meters":19600,"station_id":"ce501612rcd8frsf0b60","pricing_plan_id":"cebpf4jnsgd1na2vs0mg"},{"bike_id":"712f100f-00a7-46a0-b9fe-bf1fa3126782","system_id":"levelo_inurba_marseille","lat":43.287089,"lon":5.373894,"is_reserved":false,"is_disabled":false,"rental_uris":{"android":"levelo://app?vid=712f100f-00a7-46a0-b9fe-bf1fa3126782","ios":"levelo://app?vid=712f100f-00a7-46a0-b9fe-bf1fa3126782"},"vehicle_type_id":"4","last_reported":1760775121,"current_range_meters":19600,"station_id":"ce4bh3p2rcd13ifvqdq0","pricing_plan_id":"cebpf4jnsgd1na2vs0mg"},{"bike_id":"9b352121-1373-4e58-9bf1-2afec6fc5765","system_id":"levelo_inurba_marseille","lat":43.30147,"lon":5.37417,"is_reserved":false,"is_disabled":false,"rental_uris":{"android":"levelo://app?vid=9b352121-1373-4e58-9bf1-2afec6fc5765","ios":"levelo://app?vid=9b352121-1373-4e58-9bf1-2afec6fc5765"},"vehicle_type_id":"4","last_reported":1760775121,"current_range_meters":19600,"station_id":"ce4bgs92rcd13ifvqcc0","pricing_plan_id":"cebpf4jnsgd1na2vs0mg"},{"bike_id":"7fd36eea-805d-4dce-89b5-46f277eaf158","system_id":"levelo_inurba_marseille","lat":43.305097,"lon":5.366695,"is_reserved":false,"is_disabled":false,"rental_uris":{"android":"levelo://app?vid=7fd36eea-805d-4dce-89b5-46f277eaf158","ios":"levelo://app?vid=7fd36eea-805d-4dce-89b5-46f277eaf158"},"vehicle_type_id":"4","last_reported":1760775121,"current_range_meters":19600,"station_id":"","pricing_plan_id":"cebpf4jnsgd1na2vs0mg"},{"bike_id":"e49f1957-12ca-4f31-9218-007afff6f309","system_id":"levelo_inurba_marseille","lat":43.23797,"lon":5.36633,"is_reserved":false,"is_disabled":false,"rental_uris":{"android":"levelo://app?vid=e49f1957-12ca-4f31-9218-007afff6f309","ios":"levelo://app?vid=e49f1957-12ca-4f31-9218-007afff6f309"},"vehicle_type_id":"4","last_reported":1760775121,"current_range_meters":19600,"station_id":"st_d3nk18o9ro0c73en2l3g","pricing_plan_id":"cebpf4jnsgd1na2vs0mg"},{"bike_id":"3f9922fa-5fa2-4bb2-b6fe-411d28b8df2c","system_id":"levelo_inurba_marseille","lat":43.28462,"lon":5.381436,"is_reserved":false,"is_disabled":false,"rental_uris":{"android":"levelo://app?vid=3f9922fa-5fa2-4bb2-b6fe-411d28b8df2c","ios":"levelo://app?vid=3f9922fa-5fa2-4bb2-b6fe-411d28b8df2c"},"vehicle_type_id":"4","last_reported":1760775121,"current_range_meters":19600,"station_id":"","pricing_plan_id":"cebpf4jnsgd1na2vs0mg"},{"bike_id":"b506d310-cbad-4631-89e6-cbd56349fc4d","system_id":"levelo_inurba_marseille","lat":43.29906,"lon":5.4365,"is_reserved":false,"is_disabled":false,"rental_uris":{"android":"levelo://app?vid=b506d310-cbad-4631-89e6-cbd56349fc4d","ios":"levelo://app?vid=b506d310-cbad-4631-89e6-cbd56349fc4d"},"vehicle_type_id":"4","last_reported":1760775121,"current_range_meters":19600,"station_id":"ce4bhpp2rcd13ifvqhfg","pricing_plan_id":"cebpf4jnsgd1na2vs0mg"},{"bike_id":"4aa925fe-c6ed-41fb-bf3f-23b64271adc1","system_id":"levelo_inurba_marseille","lat":43.29185,"lon":5.372248,"is_reserved":false,"is_disabled":false,"rental_uris":{"android":"levelo://app?vid=4aa925fe-c6ed-41fb-bf3f-23b64271adc1","ios":"levelo://app?vid=4aa925fe-c6ed-41fb-bf3f-23b64271adc1"},"vehicle_type_id":"4","last_reported":1760775121,"current_range_meters":19600,"station_id":"ce4bha92rcd13ifvqeh0","pricing_plan_id":"cebpf4jnsgd1na2vs0mg"},{"bike_id":"e3174fd8-93bc-4c9d-a086-71b89e27ccae","system_id":"levelo_inurba_marseille","lat":43.30141,"lon":5.3809,"is_reserved":false,"is_disabled":false,"rental_uris":{"android":"levelo://app?vid=e3174fd8-93bc-4c9d-a086-71b89e27ccae","ios":"levelo://app?vid=e3174fd8-93bc-4c9d-a086-71b89e27ccae"},"vehicle_type_id":"4","last_reported":1760775121,"current_range_meters":19600,"station_id":"ce4bgjp2rcd13ifvqbh0","pricing_plan_id":"cebpf4jnsgd1na2vs0mg"},{"bike_id":"8d8cd1e9-e451-4386-8640-05c53cafc622","system_id":"levelo_inurba_marseille","lat":43.2621,"lon":5.37442,"is_reserved":false,"is_disabled":false,"rental_uris":{"android":"levelo://app?vid=8d8cd1e9-e451-4386-8640-05c53cafc622","ios":"levelo://app?vid=8d8cd1e9-e451-4386-8640-05c53cafc622"},"vehicle_type_id":"4","last_reported":1760775121,"current_range_meters":19600,"station_id":"ce4bhgp2rcd13ifvqfc0","pricing_plan_id":"cebpf4jnsgd1na2vs0mg"},{"bike_id":"312610b4-8cc6-4618-8030-01d2c8a572c6","system_id":"levelo_inurba_marseille","lat":43.29294,"lon":5.37428,"is_reserved":false,"is_disabled":false,"rental_uris":{"android":"levelo://app?vid=312610b4-8cc6-4618-8030-01d2c8a572c6","ios":"levelo://app?vid=312610b4-8cc6-4618-8030-01d2c8a572c6"},"vehicle_type_id":"4","last_reported":1760775121,"current_range_meters":19600,"station_id":"ce4bgi12rcd13ifvqb70","pricing_plan_id":"cebpf4jnsgd1na2vs0mg"},{"bike_id":"5d1f47ec-8cf5-4790-9e21-c06026e32919","system_id":"levelo_inurba_marseille","lat":43.24073,"lon":5.37756,"is_reserved":false,"is_disabled":false,"rental_uris":{"android":"levelo://app?vid=5d1f47ec-8cf5-4790-9e21-c06026e32919","ios":"levelo://app?vid=5d1f47ec-8cf5-4790-9e21-c06026e32919"},"vehicle_type_id":"4","last_reported":1760775121,"current_range_meters":19600,"station_id":"ce4bhnp2rcd13ifvqgvg","pricing_plan_id":"cebpf4jnsgd1na2vs0mg"},{"bike_id":"935ce31d-a9ed-4368-bc23-083d2a1458b8","system_id":"levelo_inurba_marseille","lat":43.30302,"lon":5.36895,"is_reserved":false,"is_disabled":false,"rental_uris":{"android":"levelo://app?vid=935ce31d-a9ed-4368-bc23-083d2a1458b8","ios":"levelo://app?vid=935ce31d-a9ed-4368-bc23-083d2a1458b8"},"vehicle_type_id":"4","last_reported":1760775121,"current_range_meters":20000,"station_id":"ce4bgqh2rcd13ifvqc5g","pricing_plan_id":"cebpf4jnsgd1na2vs0mg"},{"bike_id":"266f95d8-c383-4636-b974-cab689153602","system_id":"levelo_inurba_marseille","lat":43.27229,"lon":5.39231,"is_reserved":false,"is_disabled":false,"rental_uris":{"android":"levelo://app?vid=266f95d8-c383-4636-b974-cab689153602","ios":"levelo://app?vid=266f95d8-c383-4636-b974-cab689153602"},"vehicle_type_id":"4","last_reported":1760775121,"current_range_meters":20000,"station_id":"ce4bhhp2rcd13ifvqfm0","pricing_plan_id":"cebpf4jnsgd1na2vs0mg"},{"bike_id":"4a440fdf-df0e-42f7-8538-d81790cf1fa2","system_id":"levelo_inurba_marseille","lat":43.299189,"lon":5.374646,"is_reserved":false,"is_disabled":false,"rental_uris":{"android":"levelo://app?vid=4a440fdf-df0e-42f7-8538-d81790cf1fa2","ios":"levelo://app?vid=4a440fdf-df0e-42f7-8538-d81790cf1fa2"},"vehicle_type_id":"4","last_reported":1760775121,"current_range_meters":20000,"station_id":"","pricing_plan_id":"cebpf4jnsgd1na2vs0mg"},{"bike_id":"0c6ee780-2994-4cb9-a9c7-1a0dec5c1d01","system_id":"levelo_inurba_marseille","lat":43.23784,"lon":5.36638,"is_reserved":false,"is_disabled":false,"rental_uris":{"android":"levelo://app?vid=0c6ee780-2994-4cb9-a9c7-1a0dec5c1d01","ios":"levelo://app?vid=0c6ee780-2994-4cb9-a9c7-1a0dec5c1d01"},"vehicle_type_id":"4","last_reported":1760775121,"current_range_meters":20000,"station_id":"st_d3nk18o9ro0c73en2l3g","pricing_plan_id":"cebpf4jnsgd1na2vs0mg"},{"bike_id":"29be6ed6-88e4-4ecf-b823-8e951f978743","system_id":"levelo_inurba_marseille","lat":43.25104,"lon":5.40336,"is_reserved":false,"is_disabled":false,"rental_uris":{"android":"levelo://app?vid=29be6ed6-88e4-4ecf-b823-8e951f978743","ios":"levelo://app?vid=29be6ed6-88e4-4ecf-b823-8e951f978743"},"vehicle_type_id":"4","last_reported":1760775121,"current_range_meters":20000,"station_id":"ce4bhlh2rcd13ifvqgig","pricing_plan_id":"cebpf4jnsgd1na2vs0mg"},{"bike_id":"c22e92c8-3fe0-4c56-ab21-210e12f7f0b4","system_id":"levelo_inurba_marseille","lat":43.31947,"lon":5.415275,"is_reserved":false,"is_disabled":false,"rental_uris":{"android":"levelo://app?vid=c22e92c8-3fe0-4c56-ab21-210e12f7f0b4","ios":"levelo://app?vid=c22e92c8-3fe0-4c56-ab21-210e12f7f0b4"},"vehicle_type_id":"4","last_reported":1760775121,"current_range_meters":20000,"station_id":"","pricing_plan_id":"cebpf4jnsgd1na2vs0mg"},{"bike_id":"9652283e-21f4-4490-ac9e-ffa9429f0005","system_id":"levelo_inurba_marseille","lat":43.290283,"lon":5.404991,"is_reserved":false,"is_disabled":false,"rental_uris":{"android":"levelo://app?vid=9652283e-21f4-4490-ac9e-ffa9429f0005","ios":"levelo://app?vid=9652283e-21f4-4490-ac9e-ffa9429f0005"},"vehicle_type_id":"4","last_reported":1760775121,"current_range_meters":20000,"station_id":"","pricing_plan_id":"cebpf4jnsgd1na2vs0mg"},{"bike_id":"c8d48fd0-6e0e-4158-b985-45ec424e163f","system_id":"levelo_inurba_marseille","lat":43.282539,"lon":5.351068,"is_reserved":false,"is_disabled":false,"rental_uris":{"android":"levelo://app?vid=c8d48fd0-6e0e-4158-b985-45ec424e163f","ios":"levelo://app?vid=c8d48fd0-6e0e-4158-b985-45ec424e163f"},"vehicle_type_id":"4","last_reported":1760775121,"current_range_meters":20000,"station_id":"ce4bhbp2rcd13ifvqerg","pricing_plan_id":"cebpf4jnsgd1na2vs0mg"},{"bike_id":"a3096fc5-d212-433e-b899-0482f70eca22","system_id":"levelo_inurba_marseille","lat":43.29044,"lon":5.39999,"is_reserved":false,"is_disabled":false,"rental_uris":{"android":"levelo://app?vid=a3096fc5-d212-433e-b899-0482f70eca22","ios":"levelo://app?vid=a3096fc5-d212-433e-b899-0482f70eca22"},"vehicle_type_id":"4","last_reported":1760775121,"current_range_meters":20000,"station_id":"ce4bh392rcd13ifvqdm0","pricing_plan_id":"cebpf4jnsgd1na2vs0mg"},{"bike_id":"d1668fd5-d05d-42a9-b5d1-4388db8ac6a3","system_id":"levelo_inurba_marseille","lat":43.31764,"lon":5.39029,"is_reserved":false,"is_disabled":false,"rental_uris":{"android":"levelo://app?vid=d1668fd5-d05d-42a9-b5d1-4388db8ac6a3","ios":"levelo://app?vid=d1668fd5-d05d-42a9-b5d1-4388db8ac6a3"},"vehicle_type_id":"4","last_reported":1760775121,"current_range_meters":20000,"station_id":"ce4bhqp2rcd13ifvqhng","pricing_plan_id":"cebpf4jnsgd1na2vs0mg"},{"bike_id":"175e6fc3-eabe-4d97-84fc-908e6080f805","system_id":"levelo_inurba_marseille","lat":43.279199,"lon":5.395881,"is_reserved":false,"is_disabled":false,"rental_uris":{"android":"levelo://app?vid=175e6fc3-eabe-4d97-84fc-908e6080f805","ios":"levelo://app?vid=175e6fc3-eabe-4d97-84fc-908e6080f805"},"vehicle_type_id":"4","last_reported":1760775121,"current_range_meters":20400,"station_id":"ce4bhf92rcd13ifvqf40","pricing_plan_id":"cebpf4jnsgd1na2vs0mg"},{"bike_id":"f9615a0d-59d5-4530-9451-f51dd89f7040","system_id":"levelo_inurba_marseille","lat":43.29853,"lon":5.36272,"is_reserved":false,"is_disabled":false,"rental_uris":{"android":"levelo://app?vid=f9615a0d-59d5-4530-9451-f51dd89f7040","ios":"levelo://app?vid=f9615a0d-59d5-4530-9451-f51dd89f7040"},"vehicle_type_id":"4","last_reported":1760775121,"current_range_meters":20400,"station_id":"ce4bgpp2rcd13ifvqc3g","pricing_plan_id":"cebpf4jnsgd1na2vs0mg"},{"bike_id":"bf076809-909c-4007-9844-63524d41422e","system_id":"levelo_inurba_marseille","lat":43.30527,"lon":5.3653,"is_reserved":false,"is_disabled":false,"rental_uris":{"android":"levelo://app?vid=bf076809-909c-4007-9844-63524d41422e","ios":"levelo://app?vid=bf076809-909c-4007-9844-63524d41422e"},"vehicle_type_id":"4","last_reported":1760775121,"current_range_meters":20400,"station_id":"ce4bgs12rcd13ifvqcag","pricing_plan_id":"cebpf4jnsgd1na2vs0mg"},{"bike_id":"f1ad9d1d-9c06-41a3-9d14-eb8ccc0cf505","system_id":"levelo_inurba_marseille","lat":43.3037,"lon":5.42476,"is_reserved":false,"is_disabled":false,"rental_uris":{"android":"levelo://app?vid=f1ad9d1d-9c06-41a3-9d14-eb8ccc0cf505","ios":"levelo://app?vid=f1ad9d1d-9c06-41a3-9d14-eb8ccc0cf505"},"vehicle_type_id":"4","last_reported":1760775121,"current_range_meters":20400,"station_id":"ce4bhoh2rcd13ifvqh6g","pricing_plan_id":"cebpf4jnsgd1na2vs0mg"},{"bike_id":"d9dbd1b8-9174-4b47-9f3e-adfffcf7d908","system_id":"levelo_inurba_marseille","lat":43.29485,"lon":5.43298,"is_reserved":false,"is_disabled":false,"rental_uris":{"android":"levelo://app?vid=d9dbd1b8-9174-4b47-9f3e-adfffcf7d908","ios":"levelo://app?vid=d9dbd1b8-9174-4b47-9f3e-adfffcf7d908"},"vehicle_type_id":"4","last_reported":1760775121,"current_range_meters":20800,"station_id":"st_d3j5ugp08ojc73fj9d10","pricing_plan_id":"cebpf4jnsgd1na2vs0mg"},{"bike_id":"c2b2e720-2d7f-4423-9b80-94e502e947bd","system_id":"levelo_inurba_marseille","lat":43.27044,"lon":5.40281,"is_reserved":false,"is_disabled":false,"rental_uris":{"android":"levelo://app?vid=c2b2e720-2d7f-4423-9b80-94e502e947bd","ios":"levelo://app?vid=c2b2e720-2d7f-4423-9b80-94e502e947bd"},"vehicle_type_id":"4","last_reported":1760775121,"current_range_meters":20800,"station_id":"ce4bhk92rcd13ifvqgc0","pricing_plan_id":"cebpf4jnsgd1na2vs0mg"},{"bike_id":"0a950a0d-01ce-40b2-be0e-ad7894fd72f2","system_id":"levelo_inurba_marseille","lat":43.32074,"lon":5.36798,"is_reserved":false,"is_disabled":true,"rental_uris":{"android":"levelo://app?vid=0a950a0d-01ce-40b2-be0e-ad7894fd72f2","ios":"levelo://app?vid=0a950a0d-01ce-40b2-be0e-ad7894fd72f2"},"vehicle_type_id":"4","last_reported":1760775121,"current_range_meters":20800,"station_id":"ce4bhrh2rcd13ifvqhug","pricing_plan_id":"cebpf4jnsgd1na2vs0mg"},{"bike_id":"8b9ef284-f57e-43ad-9332-2ba9d0b1b211","system_id":"levelo_inurba_marseille","lat":43.23791,"lon":5.36632,"is_reserved":false,"is_disabled":false,"rental_uris":{"android":"levelo://app?vid=8b9ef284-f57e-43ad-9332-2ba9d0b1b211","ios":"levelo://app?vid=8b9ef284-f57e-43ad-9332-2ba9d0b1b211"},"vehicle_type_id":"4","last_reported":1760775121,"current_range_meters":20800,"station_id":"st_d3nk18o9ro0c73en2l3g","pricing_plan_id":"cebpf4jnsgd1na2vs0mg"},{"bike_id":"705cafde-1467-4eaa-a941-ade213c043a3","system_id":"levelo_inurba_marseille","lat":43.29513,"lon":5.37502,"is_reserved":false,"is_disabled":false,"rental_uris":{"android":"levelo://app?vid=705cafde-1467-4eaa-a941-ade213c043a3","ios":"levelo://app?vid=705cafde-1467-4eaa-a941-ade213c043a3"},"vehicle_type_id":"4","last_reported":1760775121,"current_range_meters":20800,"station_id":"ce4bgkp2rcd13ifvqbmg","pricing_plan_id":"cebpf4jnsgd1na2vs0mg"},{"bike_id":"0a15e0ed-05e4-445a-a116-794932a0413c","system_id":"levelo_inurba_marseille","lat":43.28722,"lon":5.36119,"is_reserved":false,"is_disabled":false,"rental_uris":{"android":"levelo://app?vid=0a15e0ed-05e4-445a-a116-794932a0413c","ios":"levelo://app?vid=0a15e0ed-05e4-445a-a116-794932a0413c"},"vehicle_type_id":"4","last_reported":1760775121,"current_range_meters":20800,"station_id":"cki0cbj6b192h4jlfktg","pricing_plan_id":"cebpf4jnsgd1na2vs0mg"},{"bike_id":"efedcd5d-6b32-4eec-943c-a81fef72c1e8","system_id":"levelo_inurba_marseille","lat":43.29752,"lon":5.36534,"is_reserved":false,"is_disabled":false,"rental_uris":{"android":"levelo://app?vid=efedcd5d-6b32-4eec-943c-a81fef72c1e8","ios":"levelo://app?vid=efedcd5d-6b32-4eec-943c-a81fef72c1e8"},"vehicle_type_id":"4","last_reported":1760775121,"current_range_meters":20800,"station_id":"","pricing_plan_id":"cebpf4jnsgd1na2vs0mg"},{"bike_id":"9f3e62a6-463f-465e-a7bb-d2a3c8956d17","system_id":"levelo_inurba_marseille","lat":43.25119,"lon":5.40339,"is_reserved":false,"is_disabled":false,"rental_uris":{"android":"levelo://app?vid=9f3e62a6-463f-465e-a7bb-d2a3c8956d17","ios":"levelo://app?vid=9f3e62a6-463f-465e-a7bb-d2a3c8956d17"},"vehicle_type_id":"4","last_reported":1760775121,"current_range_meters":20800,"station_id":"ce4bhlh2rcd13ifvqgig","pricing_plan_id":"cebpf4jnsgd1na2vs0mg"},{"bike_id":"ccac6cec-fcee-4d4e-b56f-f21c220e15f5","system_id":"levelo_inurba_marseille","lat":43.29003,"lon":5.35618,"is_reserved":false,"is_disabled":false,"rental_uris":{"android":"levelo://app?vid=ccac6cec-fcee-4d4e-b56f-f21c220e15f5","ios":"levelo://app?vid=ccac6cec-fcee-4d4e-b56f-f21c220e15f5"},"vehicle_type_id":"4","last_reported":1760775121,"current_range_meters":20800,"station_id":"ce4bhb92rcd13ifvqen0","pricing_plan_id":"cebpf4jnsgd1na2vs0mg"},{"bike_id":"f781a6d4-292d-4408-89eb-3b335e572580","system_id":"levelo_inurba_marseille","lat":43.27202,"lon":5.3919,"is_reserved":false,"is_disabled":false,"rental_uris":{"android":"levelo://app?vid=f781a6d4-292d-4408-89eb-3b335e572580","ios":"levelo://app?vid=f781a6d4-292d-4408-89eb-3b335e572580"},"vehicle_type_id":"4","last_reported":1760775121,"current_range_meters":20800,"station_id":"ce4bhhp2rcd13ifvqfm0","pricing_plan_id":"cebpf4jnsgd1na2vs0mg"},