{"last_updated":1735820255,"ttl":60,"version":"2.2","data":{"bikes":[{"bike_id":"6921c701-675b-4411-b28e-a56903e4b8b7","system_id":"levelo_inurba_marseille","lat":43.28078,"lon":5.39653,"is_reserved":false,"is_disabled":false,"rental_uris":{"android":"levelo://app?vid=6921c701-675b-4411-b28e-a56903e4b8b7","ios":"levelo://app?vid=6921c701-675b-4411-b28e-a56903e4b8b7"},"vehicle_type_id":"4","last_reported":1735820256,"current_range_meters":28400,"station_id":"ce4bho12rcd13ifvqh2g","pricing_plan_id":"cebpf4jnsgd1na2vs0mg"},{"bike_id":"5ee06d1f-f474-4883-9d52-622f82f42531","system_id":"levelo_inurba_marseille","lat":43.32545,"lon":5.41488,"is_reserved":false,"is_disabled":false,"rental_uris":{"android":"levelo://app?vid=5ee06d1f-f474-4883-9d52-622f82f42531","ios":"levelo://app?vid=5ee06d1f-f474-4883-9d52-622f82f42531"},"vehicle_type_id":"4","last_reported":1735820256,"current_range_meters":38800,"station_id":"ce4bhq12rcd13ifvqhhg","pricing_plan_id":"cebpf4jnsgd1na2vs0mg"},{"bike_id":"172ccd61-d49f-41ee-9d70-c90aa70835fe","system_id":"levelo_inurba_marseille","lat":43.27395,"lon":5.39446,"is_reserved":false,"is_disabled":false,"rental_uris":{"android":"levelo://app?vid=172ccd61-d49f-41ee-9d70-c90aa70835fe","ios":"levelo://app?vid=172ccd61-d49f-41ee-9d70-c90aa70835fe"},"vehicle_type_id":"4","last_reported":1735820256,"current_range_meters":34800,"station_id":"ce4bhdp2rcd13ifvqf20","pricing_plan_id":"cebpf4jnsgd1na2vs0mg"},{"bike_id":"9f53e4dc-a826-426b-9ca9-adccc5d43e1f","system_id":"levelo_inurba_marseille","lat":43.25917,"lon":5.40912,"is_reserved":false,"is_disabled":false,"rental_uris":{"android":"levelo://app?vid=9f53e4dc-a826-426b-9ca9-adccc5d43e1f","ios":"levelo://app?vid=9f53e4dc-a826-426b-9ca9-adccc5d43e1f"},"vehicle_type_id":"4","last_reported":1735820256,"current_range_meters":26000,"station_id":"ce4bhm92rcd13ifvqglg","pricing_plan_id":"cebpf4jnsgd1na2vs0mg"},{"bike_id":"bc774450-9e82-4b77-bec0-9757df77a13c","system_id":"levelo_inurba_marseille","lat":43.26404,"lon":5.39655,"is_reserved":false,"is_disabled":false,"rental_uris":{"android":"levelo://app?vid=bc774450-9e82-4b77-bec0-9757df77a13c","ios":"levelo://app?vid=bc774450-9e82-4b77-bec0-9757df77a13c"},"vehicle_type_id":"4","last_reported":1735820256,"current_range_meters":39200,"station_id":"ce4bhi12rcd13ifvqfq0","pricing_plan_id":"cebpf4jnsgd1na2vs0mg"},{"bike_id":"30675ccc-9ef1-40b1-963e-228cee2b4741","system_id":"levelo_inurba_marseille","lat":43.27956,"lon":5.41043,"is_reserved":false,"is_disabled":false,"rental_uris":{"android":"levelo://app?vid=30675ccc-9ef1-40b1-963e-228cee2b4741","ios":"levelo://app?vid=30675ccc-9ef1-40b1-963e-228cee2b4741"},"vehicle_type_id":"4","last_reported":1735820256,"current_range_meters":16400,"station_id":"ce4bhnp2rcd13ifvqh0g","pricing_plan_id":"cebpf4jnsgd1na2vs0mg"},{"bike_id":"259412ae-a9bb-43fa-89b0-91ce274ab21d","system_id":"levelo_inurba_marseille","lat":43.25725,"lon":5.41109,"is_reserved":false,"is_disabled":false,"rental_uris":{"android":"levelo://app?vid=259412ae-a9bb-43fa-89b0-91ce274ab21d","ios":"levelo://app?vid=259412ae-a9bb-43fa-89b0-91ce274ab21d"},"vehicle_type_id":"4","last_reported":1735820256,"current_range_meters":38800,"station_id":"ce4bhkp2rcd13ifvqgd0","pricing_plan_id":"cebpf4jnsgd1na2vs0mg"},{"bike_id":"8d302db1-84c6-4ba1-857b-c92f49a1207e","system_id":"levelo_inurba_marseille","lat":43.2983,"lon":5.36276,"is_reserved":false,"is_disabled":false,"rental_uris":{"android":"levelo://app?vid=8d302db1-84c6-4ba1-857b-c92f49a1207e","ios":"levelo://app?vid=8d302db1-84c6-4ba1-857b-c92f49a1207e"},"vehicle_type_id":"4","last_reported":1735820256,"current_range_meters":39200,"station_id":"ce4bgpp2rcd13ifvqc3g","pricing_plan_id":"cebpf4jnsgd1na2vs0mg"},{"bike_id":"79ea4e81-374b-4801-b1aa-301147023011","system_id":"levelo_inurba_marseille","lat":43.29277,"lon":5.40124,"is_reserved":false,"is_disabled":false,"rental_uris":{"android":"levelo://app?vid=79ea4e81-374b-4801-b1aa-301147023011","ios":"levelo://app?vid=79ea4e81-374b-4801-b1aa-301147023011"},"vehicle_type_id":"4","last_reported":1735820256,"current_range_meters":30800,"station_id":"ce4bh312rcd13ifvqdk0","pricing_plan_id":"cebpf4jnsgd1na2vs0mg"},{"bike_id":"a48467b9-5597-41dc-87b2-5ef3c85c2656","system_id":"levelo_inurba_marseille","lat":43.27618,"lon":5.36111,"is_reserved":false,"is_disabled":false,"rental_uris":{"android":"levelo://app?vid=a48467b9-5597-41dc-87b2-5ef3c85c2656","ios":"levelo://app?vid=a48467b9-5597-41dc-87b2-5ef3c85c2656"},"vehicle_type_id":"4","last_reported":1735820256,"current_range_meters":12800,"station_id":"ce4bgj92rcd13ifvqbe0","pricing_plan_id":"cebpf4jnsgd1na2vs0mg"},{"bike_id":"4cf400df-c78a-41ef-a488-f82f7752411b","system_id":"levelo_inurba_marseille","lat":43.30142,"lon":5.3879,"is_reserved":false,"is_disabled":false,"rental_uris":{"android":"levelo://app?vid=4cf400df-c78a-41ef-a488-f82f7752411b","ios":"levelo://app?vid=4cf400df-c78a-41ef-a488-f82f7752411b"},"vehicle_type_id":"4","last_reported":1735820256,"current_range_meters":24400,"station_id":"ce4bghh2rcd13ifvqb60","pricing_plan_id":"cebpf4jnsgd1na2vs0mg"},{"bike_id":"0ee7dbed-7540-4de9-94e5-dcf46398860b","system_id":"levelo_inurba_marseille","lat":43.26214,"lon":5.3745,"is_reserved":false,"is_disabled":false,"rental_uris":{"android":"levelo://app?vid=0ee7dbed-7540-4de9-94e5-dcf46398860b","ios":"levelo://app?vid=0ee7dbed-7540-4de9-94e5-dcf46398860b"},"vehicle_type_id":"4","last_reported":1735820256,"current_range_meters":27200,"station_id":"ce4bhgp2rcd13ifvqfc0","pricing_plan_id":"cebpf4jnsgd1na2vs0mg"},{"bike_id":"116f92ae-65b4-4f7c-a23b-1117c0a69b33","system_id":"levelo_inurba_marseille","lat":43.2859,"lon":5.35136,"is_reserved":false,"is_disabled":false,"rental_uris":{"android":"levelo://app?vid=116f92ae-65b4-4f7c-a23b-1117c0a69b33","ios":"levelo://app?vid=116f92ae-65b4-4f7c-a23b-1117c0a69b33"},"vehicle_type_id":"4","last_reported":1735820256,"current_range_meters":30800,"station_id":"ce4bhch2rcd13ifvqeug","pricing_plan_id":"cebpf4jnsgd1na2vs0mg"},{"bike_id":"e423629e-caf1-4427-8702-b30357fe9b81","system_id":"levelo_inurba_marseille","lat":43.25059,"lon":5.38924,"is_reserved":false,"is_disabled":false,"rental_uris":{"android":"levelo://app?vid=e423629e-caf1-4427-8702-b30357fe9b81","ios":"levelo://app?vid=e423629e-caf1-4427-8702-b30357fe9b81"},"vehicle_type_id":"4","last_reported":1735820256,"current_range_meters":14800,"station_id":"ce4bhgp2rcd13ifvqfd0","pricing_plan_id":"cebpf4jnsgd1na2vs0mg"},{"bike_id":"20136b6d-c732-443e-9acf-808e781c1b12","system_id":"levelo_inurba_marseille","lat":43.28997,"lon":5.35617,"is_reserved":false,"is_disabled":false,"rental_uris":{"android":"levelo://app?vid=20136b6d-c732-443e-9acf-808e781c1b12","ios":"levelo://app?vid=20136b6d-c732-443e-9acf-808e781c1b12"},"vehicle_type_id":"4","last_reported":1735820256,"current_range_meters":36800,"station_id":"ce4bhb92rcd13ifvqen0","pricing_plan_id":"cebpf4jnsgd1na2vs0mg"},{"bike_id":"5430a545-a0f1-45ad-a500-b4193006fdcf","system_id":"levelo_inurba_marseille","lat":43.23192,"lon":5.3557,"is_reserved":false,"is_disabled":false,"rental_uris":{"android":"levelo://app?vid=5430a545-a0f1-45ad-a500-b4193006fdcf","ios":"levelo://app?vid=5430a545-a0f1-45ad-a500-b4193006fdcf"},"vehicle_type_id":"4","last_reported":1735820256,"current_range_meters":20400,"station_id":"ce4bhu92rcd13ifvqi70","pricing_plan_id":"cebpf4jnsgd1na2vs0mg"},{"bike_id":"e32d7aa6-4586-4a07-a65b-f19ace97ad67","system_id":"levelo_inurba_marseille","lat":43.26955,"lon":5.38629,"is_reserved":false,"is_disabled":false,"rental_uris":{"android":"levelo://app?vid=e32d7aa6-4586-4a07-a65b-f19ace97ad67","ios":"levelo://app?vid=e32d7aa6-4586-4a07-a65b-f19ace97ad67"},"vehicle_type_id":"4","last_reported":1735820256,"current_range_meters":39200,"station_id":"ce4bhh92rcd13ifvqfh0","pricing_plan_id":"cebpf4jnsgd1na2vs0mg"},{"bike_id":"76d392c8-6dd4-4fbf-b626-27c2990c047b","system_id":"levelo_inurba_marseille","lat":43.28137,"lon":5.42854,"is_reserved":false,"is_disabled":false,"rental_uris":{"android":"levelo://app?vid=76d392c8-6dd4-4fbf-b626-27c2990c047b","ios":"levelo://app?vid=76d392c8-6dd4-4fbf-b626-27c2990c047b"},"vehicle_type_id":"4","last_reported":1735820256,"current_range_meters":25200,"station_id":"","pricing_plan_id":"cebpf4jnsgd1na2vs0mg"},{"bike_id":"ebb56956-e2e2-4f51-8f7a-80ccc26c078c","system_id":"levelo_inurba_marseille","lat":43.28151,"lon":5.42649,"is_reserved":false,"is_disabled":false,"rental_uris":{"android":"levelo://app?vid=ebb56956-e2e2-4f51-8f7a-80ccc26c078c","ios":"levelo://app?vid=ebb56956-e2e2-4f51-8f7a-80ccc26c078c"},"vehicle_type_id":"4","last_reported":1735820256,"current_range_meters":35600,"station_id":"ce4bhnh2rcd13ifvqgug","pricing_plan_id":"cebpf4jnsgd1na2vs0mg"},{"bike_id":"4d35de00-49e2-4cfb-95b6-43a72479fc1c","system_id":"levelo_inurba_marseille","lat":43.29907,"lon":5.38181,"is_reserved":false,"is_disabled":false,"rental_uris":{"android":"levelo://app?vid=4d35de00-49e2-4cfb-95b6-43a72479fc1c","ios":"levelo://app?vid=4d35de00-49e2-4cfb-95b6-43a72479fc1c"},"vehicle_type_id":"4","last_reported":1735820256,"current_range_meters":38800,"station_id":"ce4bgj12rcd13ifvqbc0","pricing_plan_id":"cebpf4jnsgd1na2vs0mg"},{"bike_id":"701c4324-d146-4f7a-af05-51392d29300c","system_id":"levelo_inurba_marseille","lat":43.29297,"lon":5.3745,"is_reserved":false,"is_disabled":false,"rental_uris":{"android":"levelo://app?vid=701c4324-d146-4f7a-af05-51392d29300c","ios":"levelo://app?vid=701c4324-d146-4f7a-af05-51392d29300c"},"vehicle_type_id":"4","last_reported":1735820256,"current_range_meters":38800,"station_id":"ce4bgi12rcd13ifvqb70","pricing_plan_id":"cebpf4jnsgd1na2vs0mg"},{"bike_id":"da921914-e6e1-41c9-848b-cf65281b504c","system_id":"levelo_inurba_marseille","lat":43.28103,"lon":5.37843,"is_reserved":false,"is_disabled":false,"rental_uris":{"android":"levelo://app?vid=da921914-e6e1-41c9-848b-cf65281b504c","ios":"levelo://app?vid=da921914-e6e1-41c9-848b-cf65281b504c"},"vehicle_type_id":"4","last_reported":1735820256,"current_range_meters":18800,"station_id":"ce4bha12rcd13ifvqee0","pricing_plan_id":"cebpf4jnsgd1na2vs0mg"},{"bike_id":"439818dc-86f0-4179-8c0e-05632c3a5134","system_id":"levelo_inurba_marseille","lat":43.2319,"lon":5.35557,"is_reserved":false,"is_disabled":false,"rental_uris":{"android":"levelo://app?vid=439818dc-86f0-4179-8c0e-05632c3a5134","ios":"levelo://app?vid=439818dc-86f0-4179-8c0e-05632c3a5134"},"vehicle_type_id":"4","last_reported":1735820256,"current_range_meters":39200,"station_id":"ce4bhu92rcd13ifvqi70","pricing_plan_id":"cebpf4jnsgd1na2vs0mg"},{"bike_id":"89dcc7b2-6e83-481a-8d85-32a7e16b5a26","system_id":"levelo_inurba_marseille","lat":43.29576,"lon":5.39949,"is_reserved":false,"is_disabled":false,"rental_uris":{"android":"levelo://app?vid=89dcc7b2-6e83-481a-8d85-32a7e16b5a26","ios":"levelo://app?vid=89dcc7b2-6e83-481a-8d85-32a7e16b5a26"},"vehicle_type_id":"4","last_reported":1735820256,"current_range_meters":38800,"station_id":"ce4bh312rcd13ifvqdj0","pricing_plan_id":"cebpf4jnsgd1na2vs0mg"},{"bike_id":"1d672422-bf59-476f-9d9f-f13a17ee8399","system_id":"levelo_inurba_marseille","lat":43.28481,"lon":5.38422,"is_reserved":false,"is_disabled":false,"rental_uris":{"android":"levelo://app?vid=1d672422-bf59-476f-9d9f-f13a17ee8399","ios":"levelo://app?vid=1d672422-bf59-476f-9d9f-f13a17ee8399"},"vehicle_type_id":"4","last_reported":1735820256,"current_range_meters":27200,"station_id":"ce4bh512rcd13ifvqe3g","pricing_plan_id":"cebpf4jnsgd1na2vs0mg"},{"bike_id":"a3517146-3a38-485e-9b65-46f28f14e1c6","system_id":"levelo_inurba_marseille","lat":43.269351,"lon":5.38919,"is_reserved":false,"is_disabled":false,"rental_uris":{"android":"levelo://app?vid=a3517146-3a38-485e-9b65-46f28f14e1c6","ios":"levelo://app?vid=a3517146-3a38-485e-9b65-46f28f14e1c6"},"vehicle_type_id":"4","last_reported":1735820256,"current_range_meters":27200,"station_id":"ce4bhhh2rcd13ifvqfl0","pricing_plan_id":"cebpf4jnsgd1na2vs0mg"},{"bike_id":"6d3379aa-0f1b-4ef6-a7dc-b0f6d379d543","system_id":"levelo_inurba_marseille","lat":43.25874,"lon":5.39915,"is_reserved":false,"is_disabled":false,"rental_uris":{"android":"levelo://app?vid=6d3379aa-0f1b-4ef6-a7dc-b0f6d379d543","ios":"levelo://app?vid=6d3379aa-0f1b-4ef6-a7dc-b0f6d379d543"},"vehicle_type_id":"4","last_reported":1735820256,"current_range_meters":36800,"station_id":"ce4bhl92rcd13ifvqghg","pricing_plan_id":"cebpf4jnsgd1na2vs0mg"},{"bike_id":"5f0a95e3-776b-484e-ab1a-ef4c0b19be13","system_id":"levelo_inurba_marseille","lat":43.29878,"lon":5.39737,"is_reserved":false,"is_disabled":false,"rental_uris":{"android":"levelo://app?vid=5f0a95e3-776b-484e-ab1a-ef4c0b19be13","ios":"levelo://app?vid=5f0a95e3-776b-484e-ab1a-ef4c0b19be13"},"vehicle_type_id":"4","last_reported":1735820256,"current_range_meters":38800,"station_id":"ce4bh0h2rcd13ifvqd50","pricing_plan_id":"cebpf4jnsgd1na2vs0mg"},{"bike_id":"174172b7-deeb-4686-88a2-2861b4b58cb0","system_id":"levelo_inurba_marseille","lat":43.28268,"lon":5.35078,"is_reserved":false,"is_disabled":false,"rental_uris":{"android":"levelo://app?vid=174172b7-deeb-4686-88a2-2861b4b58cb0","ios":"levelo://app?vid=174172b7-deeb-4686-88a2-2861b4b58cb0"},"vehicle_type_id":"4","last_reported":1735820256,"current_range_meters":32000,"station_id":"ce4bhbp2rcd13ifvqerg","pricing_plan_id":"cebpf4jnsgd1na2vs0mg"},{"bike_id":"0414a468-1219-4f8e-a750-d9badae394df","system_id":"levelo_inurba_marseille","lat":43.280799,"lon":5.396551,"is_reserved":false,"is_disabled":false,"rental_uris":{"android":"levelo://app?vid=0414a468-1219-4f8e-a750-d9badae394df","ios":"levelo://app?vid=0414a468-1219-4f8e-a750-d9badae394df"},"vehicle_type_id":"4","last_reported":1735820256,"current_range_meters":38800,"station_id":"ce4bho12rcd13ifvqh2g","pricing_plan_id":"cebpf4jnsgd1na2vs0mg"},{"bike_id":"1efb6e70-f243-4ee4-8c73-08ef2a2c6772","system_id":"levelo_inurba_marseille","lat":43.25826,"lon":5.3944,"is_reserved":false,"is_disabled":false,"rental_uris":{"android":"levelo://app?vid=1efb6e70-f243-4ee4-8c73-08ef2a2c6772","ios":"levelo://app?vid=1efb6e70-f243-4ee4-8c73-08ef2a2c6772"},"vehicle_type_id":"4","last_reported":1735820256,"current_range_meters":39200,"station_id":"ce4bhip2rcd13ifvqft0","pricing_plan_id":"cebpf4jnsgd1na2vs0mg"},{"bike_id":"52a6d6ca-9aa4-4fb0-9e2a-c165e30d2e5a","system_id":"levelo_inurba_marseille","lat":43.29524,"lon":5.37517,"is_reserved":false,"is_disabled":false,"rental_uris":{"android":"levelo://app?vid=52a6d6ca-9aa4-4fb0-9e2a-c165e30d2e5a","ios":"levelo://app?vid=52a6d6ca-9aa4-4fb0-9e2a-c165e30d2e5a"},"vehicle_type_id":"4","last_reported":1735820256,"current_range_meters":19600,"station_id":"ce4bgkp2rcd13ifvqbmg","pricing_plan_id":"cebpf4jnsgd1na2vs0mg"},{"bike_id":"df844190-b792-4bd6-97c8-eedd3e5d7d59","system_id":"levelo_inurba_marseille","lat":43.23959,"lon":5.36651,"is_reserved":false,"is_disabled":false,"rental_uris":{"android":"levelo://app?vid=df844190-b792-4bd6-97c8-eedd3e5d7d59","ios":"levelo://app?vid=df844190-b792-4bd6-97c8-eedd3e5d7d59"},"vehicle_type_id":"4","last_reported":1735820256,"current_range_meters":28400,"station_id":"ce4bhi12rcd13ifvqfp0","pricing_plan_id":"cebpf4jnsgd1na2vs0mg"},{"bike_id":"bcc47b98-405a-4d86-8e5f-bbe262abbd0d","system_id":"levelo_inurba_marseille","lat":43.32085,"lon":5.36833,"is_reserved":false,"is_disabled":false,"rental_uris":{"android":"levelo://app?vid=bcc47b98-405a-4d86-8e5f-bbe262abbd0d","ios":"levelo://app?vid=bcc47b98-405a-4d86-8e5f-bbe262abbd0d"},"vehicle_type_id":"4","last_reported":1735820256,"current_range_meters":30000,"station_id":"ce4bhrh2rcd13ifvqhug","pricing_plan_id":"cebpf4jnsgd1na2vs0mg"},{"bike_id":"2cfc9e8e-5aed-4811-9d9d-501a8a7609c9","system_id":"levelo_inurba_marseille","lat":43.28261,"lon":5.35062,"is_reserved":false,"is_disabled":false,"rental_uris":{"android":"levelo://app?vid=2cfc9e8e-5aed-4811-9d9d-501a8a7609c9","ios":"levelo://app?vid=2cfc9e8e-5aed-4811-9d9d-501a8a7609c9"},"vehicle_type_id":"4","last_reported":1735820256,"current_range_meters":36800,"station_id":"ce4bhbp2rcd13ifvqerg","pricing_plan_id":"cebpf4jnsgd1na2vs0mg"},{"bike_id":"0c16cdcd-f841-4761-811e-4eaf0ad8cae7","system_id":"levelo_inurba_marseille","lat":43.24179,"lon":5.39731,"is_reserved":false,"is_disabled":false,"rental_uris":{"android":"levelo://app?vid=0c16cdcd-f841-4761-811e-4eaf0ad8cae7","ios":"levelo://app?vid=0c16cdcd-f841-4761-811e-4eaf0ad8cae7"},"vehicle_type_id":"4","last_reported":1735820256,"current_range_meters":12400,"station_id":"ce4bhn12rcd13ifvqgpg","pricing_plan_id":"cebpf4jnsgd1na2vs0mg"},{"bike_id":"027085de-3c06-4c90-8099-b9537f78e863","system_id":"levelo_inurba_marseille","lat":43.23172,"lon":5.43621,"is_reserved":false,"is_disabled":false,"rental_uris":{"android":"levelo://app?vid=027085de-3c06-4c90-8099-b9537f78e863","ios":"levelo://app?vid=027085de-3c06-4c90-8099-b9537f78e863"},"vehicle_type_id":"4","last_reported":1735820256,"current_range_meters":30400,"station_id":"","pricing_plan_id":"cebpf4jnsgd1na2vs0mg"},{"bike_id":"7e6326d8-0475-4259-9437-f3937534dc0f","system_id":"levelo_inurba_marseille","lat":43.28414,"lon":5.37524,"is_reserved":false,"is_disabled":false,"rental_uris":{"android":"levelo://app?vid=7e6326d8-0475-4259-9437-f3937534dc0f","ios":"levelo://app?vid=7e6326d8-0475-4259-9437-f3937534dc0f"},"vehicle_type_id":"4","last_reported":1735820256,"current_range_meters":38800,"station_id":"ce4bh412rcd13ifvqds0","pricing_plan_id":"cebpf4jnsgd1na2vs0mg"},{"bike_id":"ddf69795-a8e6-4ea2-b58d-979a0c6800a5","system_id":"levelo_inurba_marseille","lat":43.30655,"lon":5.40095,"is_reserved":false,"is_disabled":false,"rental_uris":{"android":"levelo://app?vid=ddf69795-a8e6-4ea2-b58d-979a0c6800a5","ios":"levelo://app?vid=ddf69795-a8e6-4ea2-b58d-979a0c6800a5"},"vehicle_type_id":"4","last_reported":1735820256,"current_range_meters":18800,"station_id":"ce4bh112rcd13ifvqda0","pricing_plan_id":"cebpf4jnsgd1na2vs0mg"},{"bike_id":"747cdc20-1e87-471e-9182-016e75c83978","system_id":"levelo_inurba_marseille","lat":43.24651,"lon":5.38894,"is_reserved":false,"is_disabled":false,"rental_uris":{"android":"levelo://app?vid=747cdc20-1e87-471e-9182-016e75c83978","ios":"levelo://app?vid=747cdc20-1e87-471e-9182-016e75c83978"},"vehicle_type_id":"4","last_reported":1735820256,"current_range_meters":38400,"station_id":"ce4bhg12rcd13ifvqf60","pricing_plan_id":"cebpf4jnsgd1na2vs0mg"},{"bike_id":"7d0a351f-c6ed-43ca-9a18-35b823b7b06b","system_id":"levelo_inurba_marseille","lat":43.2898,"lon":5.37835,"is_reserved":false,"is_disabled":false,"rental_uris":{"android":"levelo://app?vid=7d0a351f-c6ed-43ca-9a18-35b823b7b06b","ios":"levelo://app?vid=7d0a351f-c6ed-43ca-9a18-35b823b7b06b"},"vehicle_type_id":"4","last_reported":1735820256,"current_range_meters":28800,"station_id":"ce4bh9p2rcd13ifvqed0","pricing_plan_id":"cebpf4jnsgd1na2vs0mg"},{"bike_id":"9b5916a1-20b4-45b5-ae28-a04ea7106c34","system_id":"levelo_inurba_marseille","lat":43.2755,"lon":5.38457,"is_reserved":false,"is_disabled":false,"rental_uris":{"android":"levelo://app?vid=9b5916a1-20b4-45b5-ae28-a04ea7106c34","ios":"levelo://app?vid=9b5916a1-20b4-45b5-ae28-a04ea7106c34"},"vehicle_type_id":"4","last_reported":1735820256,"current_range_meters":26800,"station_id":"ce4bhh92rcd13ifvqfi0","pricing_plan_id":"cebpf4jnsgd1na2vs0mg"},{"bike_id":"6903f890-7fc4-46b4-bda9-d6177c9b8416","system_id":"levelo_inurba_marseille","lat":43.29924,"lon":5.3745,"is_reserved":false,"is_disabled":false,"rental_uris":{"android":"levelo://app?vid=6903f890-7fc4-46b4-bda9-d6177c9b8416","ios":"levelo://app?vid=6903f890-7fc4-46b4-bda9-d6177c9b8416"},"vehicle_type_id":"4","last_reported":1735820256,"current_range_meters":33200,"station_id":"ce4bgjh2rcd13ifvqbg0","pricing_plan_id":"cebpf4jnsgd1na2vs0mg"},{"bike_id":"7c208806-9597-4bef-aac1-40a7c22ec1a9","system_id":"levelo_inurba_marseille","lat":43.29573,"lon":5.37512,"is_reserved":false,"is_disabled":false,"rental_uris":{"android":"levelo://app?vid=7c208806-9597-4bef-aac1-40a7c22ec1a9","ios":"levelo://app?vid=7c208806-9597-4bef-aac1-40a7c22ec1a9"},"vehicle_type_id":"4","last_reported":1735820256,"current_range_meters":32000,"station_id":"ce4bgh92rcd13ifvqb50","pricing_plan_id":"cebpf4jnsgd1na2vs0mg"},{"bike_id":"3c7472a4-a45c-4f46-a692-aa44ebf92f21","system_id":"levelo_inurba_marseille","lat":43.27414,"lon":5.3938,"is_reserved":false,"is_disabled":false,"rental_uris":{"android":"levelo://app?vid=3c7472a4-a45c-4f46-a692-aa44ebf92f21","ios":"levelo://app?vid=3c7472a4-a45c-4f46-a692-aa44ebf92f21"},"vehicle_type_id":"4","last_reported":1735820256,"current_range_meters":36400,"station_id":"ce4bhdp2rcd13ifvqf20","pricing_plan_id":"cebpf4jnsgd1na2vs0mg"},{"bike_id":"ac598c79-6df1-4e0b-b443-d1a0068e8417","system_id":"levelo_inurba_marseille","lat":43.2953,"lon":5.39017,"is_reserved":false,"is_disabled":true,"rental_uris":{"android":"levelo://app?vid=ac598c79-6df1-4e0b-b443-d1a0068e8417","ios":"levelo://app?vid=ac598c79-6df1-4e0b-b443-d1a0068e8417"},"vehicle_type_id":"4","last_reported":1735820256,"current_range_meters":800,"station_id":"ce4bh3p2rcd13ifvqdp0","pricing_plan_id":"cebpf4jnsgd1na2vs0mg"},{"bike_id":"461a91f7-abbd-4490-b359-539df559ba7b","system_id":"levelo_inurba_marseille","lat":43.262129,"lon":5.374515,"is_reserved":false,"is_disabled":false,"rental_uris":{"android":"levelo://app?vid=461a91f7-abbd-4490-b359-539df559ba7b","ios":"levelo://app?vid=461a91f7-abbd-4490-b359-539df559ba7b"},"vehicle_type_id":"4","last_reported":1735820256,"current_range_meters":29600,"station_id":"ce4bhgp2rcd13ifvqfc0","pricing_plan_id":"cebpf4jnsgd1na2vs0mg"},{"bike_id":"4b9b3c02-7773-410b-a74d-2537aad0fdc1","system_id":"levelo_inurba_marseille","lat":43.28414,"lon":5.37528,"is_reserved":false,"is_disabled":false,"rental_uris":{"android":"levelo://app?vid=4b9b3c02-7773-410b-a74d-2537aad0fdc1","ios":"levelo://app?vid=4b9b3c02-7773-410b-a74d-2537aad0fdc1"},"vehicle_type_id":"4","last_reported":1735820256,"current_range_meters":26800,"station_id":"ce4bh412rcd13ifvqds0","pricing_plan_id":"cebpf4jnsgd1na2vs0mg"},{"bike_id":"7730d6ae-e067-4f07-81d0-81e02644e874","system_id":"levelo_inurba_marseille","lat":43.29627,"lon":5.37684,"is_reserved":false,"is_disabled":false,"rental_uris":{"android":"levelo://app?vid=7730d6ae-e067-4f07-81d0-81e02644e874","ios":"levelo://app?vid=7730d6ae-e067-4f07-81d0-81e02644e874"},"vehicle_type_id":"4","last_reported":1735820256,"current_range_meters":33600,"station_id":"ce4bgi92rcd13ifvqb90","pricing_plan_id":"cebpf4jnsgd1na2vs0mg"},{"bike_id":"f7d355f4-06b0-4fd6-9913-0cb19bd689db","system_id":"levelo_inurba_marseille","lat":43.25822,"lon":5.39446,"is_reserved":false,"is_disabled":false,"rental_uris":{"android":"levelo://app?vid=f7d355f4-06b0-4fd6-9913-0cb19bd689db","ios":"levelo://app?vid=f7d355f4-06b0-4fd6-9913-0cb19bd689db"},"vehicle_type_id":"4","last_reported":1735820256,"current_range_meters":32000,"station_id":"ce4bhip2rcd13ifvqft0","pricing_plan_id":"cebpf4jnsgd1na2vs0mg"},{"bike_id":"da3075ee-8070-42f9-8350-58e475a60c82","system_id":"levelo_inurba_marseille","lat":43.27578,"lon":5.38424,"is_reserved":false,"is_disabled":false,"rental_uris":{"android":"levelo://app?vid=da3075ee-8070-42f9-8350-58e475a60c82","ios":"levelo://app?vid=da3075ee-8070-42f9-8350-58e475a60c82"},"vehicle_type_id":"4","last_reported":1735820256,"current_range_meters":38800,"station_id":"ce4bhh92rcd13ifvqfi0","pricing_plan_id":"cebpf4jnsgd1na2vs0mg"},{"bike_id":"64892e48-5ccd-45a4-9b85-2f1946606be6","system_id":"levelo_inurba_marseille","lat":43.31758,"lon":5.39026,"is_reserved":false,"is_disabled":false,"rental_uris":{"android":"levelo://app?vid=64892e48-5ccd-45a4-9b85-2f1946606be6","ios":"levelo://app?vid=64892e48-5ccd-45a4-9b85-2f1946606be6"},"vehicle_type_id":"4","last_reported":1735820256,"current_range_meters":33200,"station_id":"ce4bhqp2rcd13ifvqhng","pricing_plan_id":"cebpf4jnsgd1na2vs0mg"},{"bike_id":"f4e21194-bae0-47dd-9943-53bf3035cc9f","system_id":"levelo_inurba_marseille","lat":43.24644,"lon":5.38911,"is_reserved":false,"is_disabled":false,"rental_uris":{"android":"levelo://app?vid=f4e21194-bae0-47dd-9943-53bf3035cc9f","ios":"levelo://app?vid=f4e21194-bae0-47dd-9943-53bf3035cc9f"},"vehicle_type_id":"4","last_reported":1735820256,"current_range_meters":38800,"station_id":"ce4bhg12rcd13ifvqf60","pricing_plan_id":"cebpf4jnsgd1na2vs0mg"},{"bike_id":"edef67d7-5c40-4f54-afb7-0b1514203358","system_id":"levelo_inurba_marseille","lat":43.28708,"lon":5.3997,"is_reserved":false,"is_disabled":false,"rental_uris":{"android":"levelo://app?vid=edef67d7-5c40-4f54-afb7-0b1514203358","ios":"levelo://app?vid=edef67d7-5c40-4f54-afb7-0b1514203358"},"vehicle_type_id":"4","last_reported":1735820256,"current_range_meters":39200,"station_id":"ce4bho92rcd13ifvqh3g","pricing_plan_id":"cebpf4jnsgd1na2vs0mg"},{"bike_id":"4d915748-ad4f-4d96-8355-1be47204284a","system_id":"levelo_inurba_marseille","lat":43.25006,"lon":5.38929,"is_reserved":false,"is_disabled":false,"rental_uris":{"android":"levelo://app?vid=4d915748-ad4f-4d96-8355-1be47204284a","ios":"levelo://app?vid=4d915748-ad4f-4d96-8355-1be47204284a"},"vehicle_type_id":"4","last_reported":1735820256,"current_range_meters":29600,"station_id":"ce4bhgp2rcd13ifvqfd0","pricing_plan_id":"cebpf4jnsgd1na2vs0mg"},{"bike_id":"d05477b0-29af-4c15-acd3-afd5ade8d7cd","system_id":"levelo_inurba_marseille","lat":43.30891,"lon":5.37197,"is_reserved":false,"is_disabled":false,"rental_uris":{"android":"levelo://app?vid=d05477b0-29af-4c15-acd3-afd5ade8d7cd","ios":"levelo://app?vid=d05477b0-29af-4c15-acd3-afd5ade8d7cd"},"vehicle_type_id":"4","last_reported":1735820256,"current_range_meters":38000,"station_id":"ce4bguh2rcd13ifvqckg","pricing_plan_id":"cebpf4jnsgd1na2vs0mg"},{"bike_id":"e5fc90b8-f4d7-48fe-9b1b-e04042412667","system_id":"levelo_inurba_marseille","lat":43.32016,"lon":5.38161,"is_reserved":false,"is_disabled":false,"rental_uris":{"android":"levelo://app?vid=e5fc90b8-f4d7-48fe-9b1b-e04042412667","ios":"levelo://app?vid=e5fc90b8-f4d7-48fe-9b1b-e04042412667"},"vehicle_type_id":"4","last_reported":1735820256,"current_range_meters":38800,"station_id":"ce4bhr12rcd13ifvqhpg","pricing_plan_id":"cebpf4jnsgd1na2vs0mg"},{"bike_id":"e62be8ed-c268-492c-aa2c-0f49000a195a","system_id":"levelo_inurba_marseille","lat":43.3051,"lon":5.36595,"is_reserved":false,"is_disabled":false,"rental_uris":{"android":"levelo://app?vid=e62be8ed-c268-492c-aa2c-0f49000a195a","ios":"levelo://app?vid=e62be8ed-c268-492c-aa2c-0f49000a195a"},"vehicle_type_id":"4","last_reported":1735820256,"current_range_meters":38000,"station_id":"ce4bgs12rcd13ifvqcag","pricing_plan_id":"cebpf4jnsgd1na2vs0mg"},{"bike_id":"af11f863-bc4b-4bce-b0f3-e856a7848c6f","system_id":"levelo_inurba_marseille","lat":43.28482,"lon":5.38429,"is_reserved":false,"is_disabled":false,"rental_uris":{"android":"levelo://app?vid=af11f863-bc4b-4bce-b0f3-e856a7848c6f","ios":"levelo://app?vid=af11f863-bc4b-4bce-b0f3-e856a7848c6f"},"vehicle_type_id":"4","last_reported":1735820256,"current_range_meters":27600,"station_id":"ce4bh512rcd13ifvqe3g","pricing_plan_id":"cebpf4jnsgd1na2vs0mg"},{"bike_id":"4978c861-7169-4939-9627-52270c6c5ae7","system_id":"levelo_inurba_marseille","lat":43.280984,"lon":5.378313,"is_reserved":false,"is_disabled":false,"rental_uris":{"android":"levelo://app?vid=4978c861-7169-4939-9627-52270c6c5ae7","ios":"levelo://app?vid=4978c861-7169-4939-9627-52270c6c5ae7"},"vehicle_type_id":"4","last_reported":1735820256,"current_range_meters":37600,"station_id":"ce4bha12rcd13ifvqee0","pricing_plan_id":"cebpf4jnsgd1na2vs0mg"},{"bike_id":"cfd4ac9f-7d12-4da9-95aa-73d9e8b977c8","system_id":"levelo_inurba_marseille","lat":43.29544,"lon":5.39386,"is_reserved":false,"is_disabled":false,"rental_uris":{"android":"levelo://app?vid=cfd4ac9f-7d12-4da9-95aa-73d9e8b977c8","ios":"levelo://app?vid=cfd4ac9f-7d12-4da9-95aa-73d9e8b977c8"},"vehicle_type_id":"4","last_reported":1735820256,"current_range_meters":30400,"station_id":"ce4bh292rcd13ifvqdf0","pricing_plan_id":"cebpf4jnsgd1na2vs0mg"},{"bike_id":"c78a91cf-cee3-452b-a592-daa6314f3752","system_id":"levelo_inurba_marseille","lat":43.30142,"lon":5.38781,"is_reserved":false,"is_disabled":false,"rental_uris":{"android":"levelo://app?vid=c78a91cf-cee3-452b-a592-daa6314f3752","ios":"levelo://app?vid=c78a91cf-cee3-452b-a592-daa6314f3752"},"vehicle_type_id":"4","last_reported":1735820256,"current_range_meters":38000,"station_id":"ce4bhoh2rcd13ifvqh6g","pricing_plan_id":"cebpf4jnsgd1na2vs0mg"},{"bike_id":"9ec22bb6-ddde-4544-bfca-bd222a10c5d4","system_id":"levelo_inurba_marseille","lat":43.28634,"lon":5.35072,"is_reserved":false,"is_disabled":false,"rental_uris":{"android":"levelo://app?vid=9ec22bb6-ddde-4544-bfca-bd222a10c5d4","ios":"levelo://app?vid=9ec22bb6-ddde-4544-bfca-bd222a10c5d4"},"vehicle_type_id":"4","last_reported":1735820256,"current_range_meters":13600,"station_id":"ce4bhch2rcd13ifvqeug","pricing_plan_id":"cebpf4jnsgd1na2vs0mg"},{"bike_id":"1c062351-f698-4ee4-87ae-fce7281bfbb0","system_id":"levelo_inurba_marseille","lat":43.29533,"lon":5.38549,"is_reserved":false,"is_disabled":true,"rental_uris":{"android":"levelo://app?vid=1c062351-f698-4ee4-87ae-fce7281bfbb0","ios":"levelo://app?vid=1c062351-f698-4ee4-87ae-fce7281bfbb0"},"vehicle_type_id":"4","last_reported":1735820256,"current_range_meters":9200,"station_id":"ce4bgih2rcd13ifvqba0","pricing_plan_id":"cebpf4jnsgd1na2vs0mg"},{"bike_id":"8e3e626c-0168-4352-b715-e3759237e763","system_id":"levelo_inurba_marseille","lat":43.27833,"lon":5.39227,"is_reserved":false,"is_disabled":false,"rental_uris":{"android":"levelo://app?vid=8e3e626c-0168-4352-b715-e3759237e763","ios":"levelo://app?vid=8e3e626c-0168-4352-b715-e3759237e763"},"vehicle_type_id":"4","last_reported":1735820256,"current_range_meters":33200,"station_id":"ce4bhjp2rcd13ifvqga0","pricing_plan_id":"cebpf4jnsgd1na2vs0mg"},{"bike_id":"436152c4-2e78-4b76-9c55-1a2d326df1d2","system_id":"levelo_inurba_marseille","lat":43.2668,"lon":5.38264,"is_reserved":false,"is_disabled":false,"rental_uris":{"android":"levelo://app?vid=436152c4-2e78-4b76-9c55-1a2d326df1d2","ios":"levelo://app?vid=436152c4-2e78-4b76-9c55-1a2d326df1d2"},"vehicle_type_id":"4","last_reported":1735820256,"current_range_meters":37600,"station_id":"ce4bhg92rcd13ifvqf90","pricing_plan_id":"cebpf4jnsgd1na2vs0mg"},{"bike_id":"7a08a616-8484-4a25-9354-07998168354a","system_id":"levelo_inurba_marseille","lat":43.28927,"lon":5.38408,"is_reserved":false,"is_disabled":false,"rental_uris":{"android":"levelo://app?vid=7a08a616-8484-4a25-9354-07998168354a","ios":"levelo://app?vid=7a08a616-8484-4a25-9354-07998168354a"},"vehicle_type_id":"4","last_reported":1735820256,"current_range_meters":39200,"station_id":"ce4bh612rcd13ifvqe6g","pricing_plan_id":"cebpf4jnsgd1na2vs0mg"},{"bike_id":"a1c87532-6196-402b-916e-8ad945b95f72","system_id":"levelo_inurba_marseille","lat":43.251154,"lon":5.403172,"is_reserved":false,"is_disabled":false,"rental_uris":{"android":"levelo://app?vid=a1c87532-6196-402b-916e-8ad945b95f72","ios":"levelo://app?vid=a1c87532-6196-402b-916e-8ad945b95f72"},"vehicle_type_id":"4","last_reported":1735820256,"current_range_meters":14000,"station_id":"ce4bhlh2rcd13ifvqgig","pricing_plan_id":"cebpf4jnsgd1na2vs0mg"},{"bike_id":"4ce38f45-b3ef-4ce1-84b1-8cf7c7ee4592","system_id":"levelo_inurba_marseille","lat":43.27948,"lon":5.41038,"is_reserved":false,"is_disabled":false,"rental_uris":{"android":"levelo://app?vid=4ce38f45-b3ef-4ce1-84b1-8cf7c7ee4592","ios":"levelo://app?vid=4ce38f45-b3ef-4ce1-84b1-8cf7c7ee4592"},"vehicle_type_id":"4","last_reported":1735820256,"current_range_meters":34000,"station_id":"ce4bhnp2rcd13ifvqh0g","pricing_plan_id":"cebpf4jnsgd1na2vs0mg"},{"bike_id":"8ee2390c-3a5c-41a3-81e7-23e5d8970db4","system_id":"levelo_inurba_marseille","lat":43.30137,"lon":5.38785,"is_reserved":false,"is_disabled":false,"rental_uris":{"android":"levelo://app?vid=8ee2390c-3a5c-41a3-81e7-23e5d8970db4","ios":"levelo://app?vid=8ee2390c-3a5c-41a3-81e7-23e5d8970db4"},"vehicle_type_id":"4","last_reported":1735820256,"current_range_meters":20000,"station_id":"ce4bghh2rcd13ifvqb60","pricing_plan_id":"cebpf4jnsgd1na2vs0mg"},{"bike_id":"6fcc0e78-f32b-40cf-831f-2ed6277426b2","system_id":"levelo_inurba_marseille","lat":43.31284,"lon":5.39309,"is_reserved":false,"is_disabled":true,"rental_uris":{"android":"levelo://app?vid=6fcc0e78-f32b-40cf-831f-2ed6277426b2","ios":"levelo://app?vid=6fcc0e78-f32b-40cf-831f-2ed6277426b2"},"vehicle_type_id":"4","last_reported":1735820256,"current_range_meters":26800,"station_id":"","pricing_plan_id":"cebpf4jnsgd1na2vs0mg"},{"bike_id":"2585ba0c-a53b-4534-a4d1-06bca0cf6b30","system_id":"levelo_inurba_marseille","lat":43.30177,"lon":5.36643,"is_reserved":false,"is_disabled":false,"rental_uris":{"android":"levelo://app?vid=2585ba0c-a53b-4534-a4d1-06bca0cf6b30","ios":"levelo://app?vid=2585ba0c-a53b-4534-a4d1-06bca0cf6b30"},"vehicle_type_id":"4","last_reported":1735820256,"current_range_meters":30000,"station_id":"ce4bgrh2rcd13ifvqc8g","pricing_plan_id":"cebpf4jnsgd1na2vs0mg"},{"bike_id":"b6b20695-a312-4168-af64-70ee72bf8ce8","system_id":"levelo_inurba_marseille","lat":43.33762,"lon":5.37421,"is_reserved":false,"is_disabled":false,"rental_uris":{"android":"levelo://app?vid=b6b20695-a312-4168-af64-70ee72bf8ce8","ios":"levelo://app?vid=b6b20695-a312-4168-af64-70ee72bf8ce8"},"vehicle_type_id":"4","last_reported":1735820256,"current_range_meters":25200,"station_id":"","pricing_plan_id":"cebpf4jnsgd1na2vs0mg"},{"bike_id":"604de431-8cad-4f99-b1e9-a39e8c4f93c7","system_id":"levelo_inurba_marseille","lat":43.29616,"lon":5.37728,"is_reserved":false,"is_disabled":false,"rental_uris":{"android":"levelo://app?vid=604de431-8cad-4f99-b1e9-a39e8c4f93c7","ios":"levelo://app?vid=604de431-8cad-4f99-b1e9-a39e8c4f93c7"},"vehicle_type_id":"4","last_reported":1735820256,"current_range_meters":13600,"station_id":"ce4bgi92rcd13ifvqb90","pricing_plan_id":"cebpf4jnsgd1na2vs0mg"},{"bike_id":"50f2b819-c00e-4917-a76e-b6de5001b66a","system_id":"levelo_inurba_marseille","lat":43.29532,"lon":5.39041,"is_reserved":false,"is_disabled":true,"rental_uris":{"android":"levelo://app?vid=50f2b819-c00e-4917-a76e-b6de5001b66a","ios":"levelo://app?vid=50f2b819-c00e-4917-a76e-b6de5001b66a"},"vehicle_type_id":"4","last_reported":1735820256,"current_range_meters":38800,"station_id":"ce4bh3p2rcd13ifvqdp0","pricing_plan_id":"cebpf4jnsgd1na2vs0mg"},{"bike_id":"c2f52897-290d-4e21-9183-2beb52ef49f6","system_id":"levelo_inurba_marseille","lat":43.315,"lon":5.37306,"is_reserved":false,"is_disabled":false,"rental_uris":{"android":"levelo://app?vid=c2f52897-290d-4e21-9183-2beb52ef49f6","ios":"levelo://app?vid=c2f52897-290d-4e21-9183-2beb52ef49f6"},"vehicle_type_id":"4","last_reported":1735820256,"current_range_meters":16800,"station_id":"ce4bgt12rcd13ifvqcd0","pricing_plan_id":"cebpf4jnsgd1na2vs0mg"},{"bike_id":"d43c2be2-c2ce-439f-a750-39584e9a1f74","system_id":"levelo_inurba_marseille","lat":43.23971,"lon":5.36632,"is_reserved":false,"is_disabled":false,"rental_uris":{"android":"levelo://app?vid=d43c2be2-c2ce-439f-a750-39584e9a1f74","ios":"levelo://app?vid=d43c2be2-c2ce-439f-a750-39584e9a1f74"},"vehicle_type_id":"4","last_reported":1735820256,"current_range_meters":33200,"station_id":"ce4bhi12rcd13ifvqfp0","pricing_plan_id":"cebpf4jnsgd1na2vs0mg"},{"bike_id":"c08da6f1-55cc-4abb-b728-6576bd6b59e5","system_id":"levelo_inurba_marseille","lat":43.28413,"lon":5.37526,"is_reserved":false,"is_disabled":false,"rental_uris":{"android":"levelo://app?vid=c08da6f1-55cc-4abb-b728-6576bd6b59e5","ios":"levelo://app?vid=c08da6f1-55cc-4abb-b728-6576bd6b59e5"},"vehicle_type_id":"4","last_reported":1735820256,"current_range_meters":26800,"station_id":"ce4bh412rcd13ifvqds0","pricing_plan_id":"cebpf4jnsgd1na2vs0mg"},{"bike_id":"9d74cd0d-1085-4fb3-bb94-9e11e4165971","system_id":"levelo_inurba_marseille","lat":43.26957,"lon":5.38632,"is_reserved":false,"is_disabled":false,"rental_uris":{"android":"levelo://app?vid=9d74cd0d-1085-4fb3-bb94-9e11e4165971","ios":"levelo://app?vid=9d74cd0d-1085-4fb3-bb94-9e11e4165971"},"vehicle_type_id":"4","last_reported":1735820256,"current_range_meters":22000,"station_id":"ce4bhh92rcd13ifvqfh0","pricing_plan_id":"cebpf4jnsgd1na2vs0mg"},{"bike_id":"0f970ab2-f998-41b0-80ff-00401e442924","system_id":"levelo_inurba_marseille","lat":43.26194,"lon":5.37451,"is_reserved":false,"is_disabled":false,"rental_uris":{"android":"levelo://app?vid=0f970ab2-f998-41b0-80ff-00401e442924","ios":"levelo://app?vid=0f970ab2-f998-41b0-80ff-00401e442924"},"vehicle_type_id":"4","last_reported":1735820256,"current_range_meters":30800,"station_id":"ce4bhgp2rcd13ifvqfc0","pricing_plan_id":"cebpf4jnsgd1na2vs0mg"},{"bike_id":"94075707-2279-467c-9c7c-1a07d42a8570","system_id":"levelo_inurba_marseille","lat":43.29563,"lon":5.4226,"is_reserved":false,"is_disabled":false,"rental_uris":{"android":"levelo://app?vid=94075707-2279-467c-9c7c-1a07d42a8570","ios":"levelo://app?vid=94075707-2279-467c-9c7c-1a07d42a8570"},"vehicle_type_id":"4","last_reported":1735820256,"current_range_meters":10000,"station_id":"ce4bhph2rcd13ifvqhdg","pricing_plan_id":"cebpf4jnsgd1na2vs0mg"},{"bike_id":"94657e78-df48-49dc-b1ba-58dd71b2ca0e","system_id":"levelo_inurba_marseille","lat":43.2656,"lon":5.37288,"is_reserved":false,"is_disabled":false,"rental_uris":{"android":"levelo://app?vid=94657e78-df48-49dc-b1ba-58dd71b2ca0e","ios":"levelo://app?vid=94657e78-df48-49dc-b1ba-58dd71b2ca0e"},"vehicle_type_id":"4","last_reported":1735820256,"current_range_meters":38000,"station_id":"ce4bhg12rcd13ifvqf70","pricing_plan_id":"cebpf4jnsgd1na2vs0mg"},{"bike_id":"a77cb61b-7bf4-4634-bc34-29d17b6073d0","system_id":"levelo_inurba_marseille","lat":43.24379,"lon":5.37098,"is_reserved":false,"is_disabled":false,"rental_uris":{"android":"levelo://app?vid=a77cb61b-7bf4-4634-bc34-29d17b6073d0","ios":"levelo://app?vid=a77cb61b-7bf4-4634-bc34-29d17b6073d0"},"vehicle_type_id":"4","last_reported":1735820256,"current_range_meters":38800,"station_id":"ce4bhhh2rcd13ifvqfk0","pricing_plan_id":"cebpf4jnsgd1na2vs0mg"},{"bike_id":"1c767333-f70f-4718-bcc9-6de55d631ae5","system_id":"levelo_inurba_marseille","lat":43.26805,"lon":5.40271,"is_reserved":false,"is_disabled":false,"rental_uris":{"android":"levelo://app?vid=1c767333-f70f-4718-bcc9-6de55d631ae5","ios":"levelo://app?vid=1c767333-f70f-4718-bcc9-6de55d631ae5"},"vehicle_type_id":"4","last_reported":1735820256,"current_range_meters":33600,"station_id":"ce501612rcd8frsf0b60","pricing_plan_id":"cebpf4jnsgd1na2vs0mg"},{"bike_id":"26091dfa-81e8-49c0-9cb3-c8bfb70000b4","system_id":"levelo_inurba_marseille","lat":43.28001,"lon":5.40011,"is_reserved":false,"is_disabled":false,"rental_uris":{"android":"levelo://app?vid=26091dfa-81e8-49c0-9cb3-c8bfb70000b4","ios":"levelo://app?vid=26091dfa-81e8-49c0-9cb3-c8bfb70000b4"},"vehicle_type_id":"4","last_reported":1735820256,"current_range_meters":20800,"station_id":"ce4bh392rcd13ifvqdl0","pricing_plan_id":"cebpf4jnsgd1na2vs0mg"},{"bike_id":"aec77826-2911-461c-95af-eb9adf8a9770","system_id":"levelo_inurba_marseille","lat":43.27552,"lon":5.38456,"is_reserved":false,"is_disabled":false,"rental_uris":{"android":"levelo://app?vid=aec77826-2911-461c-95af-eb9adf8a9770","ios":"levelo://app?vid=aec77826-2911-461c-95af-eb9adf8a9770"},"vehicle_type_id":"4","last_reported":1735820256,"current_range_meters":38800,"station_id":"ce4bhh92rcd13ifvqfi0","pricing_plan_id":"cebpf4jnsgd1na2vs0mg"},{"bike_id":"9e40ec45-d68a-4953-bfb2-d2fd0970d68d","system_id":"levelo_inurba_marseille","lat":43.262811,"lon":5.383111,"is_reserved":false,"is_disabled":false,"rental_uris":{"android":"levelo://app?vid=9e40ec45-d68a-4953-bfb2-d2fd0970d68d","ios":"levelo://app?vid=9e40ec45-d68a-4953-bfb2-d2fd0970d68d"},"vehicle_type_id":"4","last_reported":1735820256,"current_range_meters":25200,"station_id":"ce4bhgh2rcd13ifvqfa0","pricing_plan_id":"cebpf4jnsgd1na2vs0mg"},{"bike_id":"818b37e3-6bd0-4044-8453-8e3c464165c5","system_id":"levelo_inurba_marseille","lat":43.27807,"lon":5.407404,"is_reserved":false,"is_disabled":false,"rental_uris":{"android":"levelo://app?vid=818b37e3-6bd0-4044-8453-8e3c464165c5","ios":"levelo://app?vid=818b37e3-6bd0-4044-8453-8e3c464165c5"},"vehicle_type_id":"4","last_reported":1735820256,"current_range_meters":39200,"station_id":"ce4bhnh2rcd13ifvqgtg","pricing_plan_id":"cebpf4jnsgd1na2vs0mg"},{"bike_id":"6ed3fdbb-b150-4868-b3fe-dcf7dbba80db","system_id":"levelo_inurba_marseille","lat":43.27314,"lon":5.39072,"is_reserved":false,"is_disabled":false,"rental_uris":{"android":"levelo://app?vid=6ed3fdbb-b150-4868-b3fe-dcf7dbba80db","ios":"levelo://app?vid=6ed3fdbb-b150-4868-b3fe-dcf7dbba80db"},"vehicle_type_id":"4","last_reported":1735820256,"current_range_meters":28400,"station_id":"ce4bhgp2rcd13ifvqfe0","pricing_plan_id":"cebpf4jnsgd1na2vs0mg"},{"bike_id":"971bd521-576b-4c26-b482-75bc329316be","system_id":"levelo_inurba_marseille","lat":43.30546,"lon":5.36532,"is_reserved":false,"is_disabled":false,"rental_uris":{"android":"levelo://app?vid=971bd521-576b-4c26-b482-75bc329316be","ios":"levelo://app?vid=971bd521-576b-4c26-b482-75bc329316be"},"vehicle_type_id":"4","last_reported":1735820256,"current_range_meters":39200,"station_id":"ce4bgs12rcd13ifvqcag","pricing_plan_id":"cebpf4jnsgd1na2vs0mg"},{"bike_id":"8e5fa63e-ba3a-46da-af7a-c3f510570276","system_id":"levelo_inurba_marseille","lat":43.29299,"lon":5.37438,"is_reserved":false,"is_disabled":false,"rental_uris":{"android":"levelo://app?vid=8e5fa63e-ba3a-46da-af7a-c3f510570276","ios":"levelo://app?vid=8e5fa63e-ba3a-46da-af7a-c3f510570276"},"vehicle_type_id":"4","last_reported":1735820256,"current_range_meters":24800,"station_id":"ce4bgi12rcd13ifvqb70","pricing_plan_id":"cebpf4jnsgd1na2vs0mg"},{"bike_id":"3b73f089-2fa1-418f-9364-d76467a34319","system_id":"levelo_inurba_marseille","lat":43.27973,"lon":5.38748,"is_reserved":false,"is_disabled":false,"rental_uris":{"android":"levelo://app?vid=3b73f089-2fa1-418f-9364-d76467a34319","ios":"levelo://app?vid=3b73f089-2fa1-418f-9364-d76467a34319"},"vehicle_type_id":"4","last_reported":1735820256,"current_range_meters":10000,"station_id":"ce4bhg12rcd13ifvqf80","pricing_plan_id":"cebpf4jnsgd1na2vs0mg"},{"bike_id":"0dcc397f-0139-460e-a7d4-e9d2532aabb3","system_id":"levelo_inurba_marseille","lat":43.24805,"lon":5.37452,"is_reserved":false,"is_disabled":false,"rental_uris":{"android":"levelo://app?vid=0dcc397f-0139-460e-a7d4-e9d2532aabb3","ios":"levelo://app?vid=0dcc397f-0139-460e-a7d4-e9d2532aabb3"},"vehicle_type_id":"4","last_reported":1735820256,"current_range_meters":38800,"station_id":"ce4bhgh2rcd13ifvqfb0","pricing_plan_id":"cebpf4jnsgd1na2vs0mg"},{"bike_id":"5a57dbfb-b70b-4728-872a-f4d3ed3f2b44","system_id":"levelo_inurba_marseille","lat":43.27912,"lon":5.38,"is_reserved":false,"is_disabled":false,"rental_uris":{"android":"levelo://app?vid=5a57dbfb-b70b-4728-872a-f4d3ed3f2b44","ios":"levelo://app?vid=5a57dbfb-b70b-4728-872a-f4d3ed3f2b44"},"vehicle_type_id":"4","last_reported":1735820256,"current_range_meters":38800,"station_id":"ce4bhf92rcd13ifvqf50","pricing_plan_id":"cebpf4jnsgd1na2vs0mg"},{"bike_id":"9296373e-a8da-4ff9-a488-98089ece75a4","system_id":"levelo_inurba_marseille","lat":43.28418,"lon":5.35,"is_reserved":false,"is_disabled":false,"rental_uris":{"android":"levelo://app?vid=9296373e-a8da-4ff9-a488-98089ece75a4","ios":"levelo://app?vid=9296373e-a8da-4ff9-a488-98089ece75a4"},"vehicle_type_id":"4","last_reported":1735820256,"current_range_meters":32800,"station_id":"ce4bhbh2rcd13ifvqepg","pricing_plan_id":"cebpf4jnsgd1na2vs0mg"},{"bike_id":"6d0fe542-389e-4a84-9bdd-004f297b4077","system_id":"levelo_inurba_marseille","lat":43.30561,"lon":5.36539,"is_reserved":false,"is_disabled":false,"rental_uris":{"android":"levelo://app?vid=6d0fe542-389e-4a84-9bdd-004f297b4077","ios":"levelo://app?vid=6d0fe542-389e-4a84-9bdd-004f297b4077"},"vehicle_type_id":"4","last_reported":1735820256,"current_range_meters":35600,"station_id":"ce4bgs12rcd13ifvqcag","pricing_plan_id":"cebpf4jnsgd1na2vs0mg"},{"bike_id":"a896d9f0-b3b4-4ef7-a41c-e0bdd2ab6bb7","system_id":"levelo_inurba_marseille","lat":43.30467,"lon":5.37911,"is_reserved":false,"is_disabled":false,"rental_uris":{"android":"levelo://app?vid=a896d9f0-b3b4-4ef7-a41c-e0bdd2ab6bb7","ios":"levelo://app?vid=a896d9f0-b3b4-4ef7-a41c-e0bdd2ab6bb7"},"vehicle_type_id":"4","last_reported":1735820256,"current_range_meters":38000,"station_id":"ce4bgup2rcd13ifvqcn0","pricing_plan_id":"cebpf4jnsgd1na2vs0mg"},{"bike_id":"ceab58a7-672c-48c6-840c-fae435cb16db","system_id":"levelo_inurba_marseille","lat":43.29623,"lon":5.37712,"is_reserved":false,"is_disabled":false,"rental_uris":{"android":"levelo://app?vid=ceab58a7-672c-48c6-840c-fae435cb16db","ios":"levelo://app?vid=ceab58a7-672c-48c6-840c-fae435cb16db"},"vehicle_type_id":"4","last_reported":1735820256,"current_range_meters":35600,"station_id":"ce4bgi92rcd13ifvqb90","pricing_plan_id":"cebpf4jnsgd1na2vs0mg"},{"bike_id":"5becd014-2ea4-4e6e-af75-6157a5a38862","system_id":"levelo_inurba_marseille","lat":43.29911,"lon":5.37467,"is_reserved":false,"is_disabled":false,"rental_uris":{"android":"levelo://app?vid=5becd014-2ea4-4e6e-af75-6157a5a38862","ios":"levelo://app?vid=5becd014-2ea4-4e6e-af75-6157a5a38862"},"vehicle_type_id":"4","last_reported":1735820256,"current_range_meters":38000,"station_id":"ce4bgjh2rcd13ifvqbg0","pricing_plan_id":"cebpf4jnsgd1na2vs0mg"},{"bike_id":"07d330b4-7716-466c-9290-de1d6c68907d","system_id":"levelo_inurba_marseille","lat":43.30533,"lon":5.36715,"is_reserved":false,"is_disabled":false,"rental_uris":{"android":"levelo://app?vid=07d330b4-7716-466c-9290-de1d6c68907d","ios":"levelo://app?vid=07d330b4-7716-466c-9290-de1d6c68907d"},"vehicle_type_id":"4","last_reported":1735820256,"current_range_meters":33200,"station_id":"ce4bgrp2rcd13ifvqc9g","pricing_plan_id":"cebpf4jnsgd1na2vs0mg"},{"bike_id":"0d22c007-f5b2-4481-9b21-08f35f061702","system_id":"levelo_inurba_marseille","lat":43.29635,"lon":5.37156,"is_reserved":false,"is_disabled":true,"rental_uris":{"android":"levelo://app?vid=0d22c007-f5b2-4481-9b21-08f35f061702","ios":"levelo://app?vid=0d22c007-f5b2-4481-9b21-08f35f061702"},"vehicle_type_id":"4","last_reported":1735820256,"current_range_meters":0,"station_id":"ce4bgnh2rcd13ifvqc0g","pricing_plan_id":"cebpf4jnsgd1na2vs0mg"},{"bike_id":"c052d104-8627-4718-a950-821acc9ae1ed","system_id":"levelo_inurba_marseille","lat":43.30948,"lon":5.39036,"is_reserved":false,"is_disabled":false,"rental_uris":{"android":"levelo://app?vid=c052d104-8627-4718-a950-821acc9ae1ed","ios":"levelo://app?vid=c052d104-8627-4718-a950-821acc9ae1ed"},"vehicle_type_id":"4","last_reported":1735820256,"current_range_meters":9600,"station_id":"ce4bgup2rcd13ifvqco0","pricing_plan_id":"cebpf4jnsgd1na2vs0mg"},{"bike_id":"b65446bf-e8cd-42c0-a605-66d7275adaf9","system_id":"levelo_inurba_marseille","lat":43.2408,"lon":5.37742,"is_reserved":false,"is_disabled":false,"rental_uris":{"android":"levelo://app?vid=b65446bf-e8cd-42c0-a605-66d7275adaf9","ios":"levelo://app?vid=b65446bf-e8cd-42c0-a605-66d7275adaf9"},"vehicle_type_id":"4","last_reported":1735820256,"current_range_meters":22400,"station_id":"ce4bhnp2rcd13ifvqgvg","pricing_plan_id":"cebpf4jnsgd1na2vs0mg"},{"bike_id":"420f49bd-12f9-4ac8-894f-d25e2366a168","system_id":"levelo_inurba_marseille","lat":43.29842,"lon":5.36272,"is_reserved":false,"is_disabled":false,"rental_uris":{"android":"levelo://app?vid=420f49bd-12f9-4ac8-894f-d25e2366a168","ios":"levelo://app?vid=420f49bd-12f9-4ac8-894f-d25e2366a168"},"vehicle_type_id":"4","last_reported":1735820256,"current_range_meters":12400,"station_id":"ce4bgpp2rcd13ifvqc3g","pricing_plan_id":"cebpf4jnsgd1na2vs0mg"},{"bike_id":"2b76f89d-a2e0-45c6-9a1f-2d4166d6cfc1","system_id":"levelo_inurba_marseille","lat":43.29271,"lon":5.38431,"is_reserved":false,"is_disabled":false,"rental_uris":{"android":"levelo://app?vid=2b76f89d-a2e0-45c6-9a1f-2d4166d6cfc1","ios":"levelo://app?vid=2b76f89d-a2e0-45c6-9a1f-2d4166d6cfc1"},"vehicle_type_id":"4","last_reported":1735820256,"current_range_meters":38800,"station_id":"ce4bh692rcd13ifvqea0","pricing_plan_id":"cebpf4jnsgd1na2vs0mg"},{"bike_id":"662d67a1-d761-4ae6-89d4-7ad43fe922b9","system_id":"levelo_inurba_marseille","lat":43.29624,"lon":5.37176,"is_reserved":false,"is_disabled":false,"rental_uris":{"android":"levelo://app?vid=662d67a1-d761-4ae6-89d4-7ad43fe922b9","ios":"levelo://app?vid=662d67a1-d761-4ae6-89d4-7ad43fe922b9"},"vehicle_type_id":"4","last_reported":1735820256,"current_range_meters":38800,"station_id":"ce4bgnh2rcd13ifvqc0g","pricing_plan_id":"cebpf4jnsgd1na2vs0mg"},{"bike_id":"2a36d682-5b45-4fd8-82d0-552312d89509","system_id":"levelo_inurba_marseille","lat":43.2893,"lon":5.38415,"is_reserved":false,"is_disabled":false,"rental_uris":{"android":"levelo://app?vid=2a36d682-5b45-4fd8-82d0-552312d89509","ios":"levelo://app?vid=2a36d682-5b45-4fd8-82d0-552312d89509"},"vehicle_type_id":"4","last_reported":1735820256,"current_range_meters":37600,"station_id":"ce4bh612rcd13ifvqe6g","pricing_plan_id":"cebpf4jnsgd1na2vs0mg"},{"bike_id":"d8ef8362-d892-425f-82b3-6cfd0517dfaf","system_id":"levelo_inurba_marseille","lat":43.28155,"lon":5.42665,"is_reserved":false,"is_disabled":true,"rental_uris":{"android":"levelo://app?vid=d8ef8362-d892-425f-82b3-6cfd0517dfaf","ios":"levelo://app?vid=d8ef8362-d892-425f-82b3-6cfd0517dfaf"},"vehicle_type_id":"4","last_reported":1735820256,"current_range_meters":9600,"station_id":"ce4bhnh2rcd13ifvqgug","pricing_plan_id":"cebpf4jnsgd1na2vs0mg"},{"bike_id":"6ef39cf2-9335-427d-88a0-a018f070fb57","system_id":"levelo_inurba_marseille","lat":43.31746,"lon":5.39032,"is_reserved":false,"is_disabled":false,"rental_uris":{"android":"levelo://app?vid=6ef39cf2-9335-427d-88a0-a018f070fb57","ios":"levelo://app?vid=6ef39cf2-9335-427d-88a0-a018f070fb57"},"vehicle_type_id":"4","last_reported":1735820256,"current_range_meters":22800,"station_id":"ce4bhqp2rcd13ifvqhng","pricing_plan_id":"cebpf4jnsgd1na2vs0mg"},{"bike_id":"994147f5-9da4-46da-9d65-c6df9ab90ad2","system_id":"levelo_inurba_marseille","lat":43.28462,"lon":5.35885,"is_reserved":false,"is_disabled":false,"rental_uris":{"android":"levelo://app?vid=994147f5-9da4-46da-9d65-c6df9ab90ad2","ios":"levelo://app?vid=994147f5-9da4-46da-9d65-c6df9ab90ad2"},"vehicle_type_id":"4","last_reported":1735820256,"current_range_meters":38800,"station_id":"ce4bhah2rcd13ifvqei0","pricing_plan_id":"cebpf4jnsgd1na2vs0mg"},{"bike_id":"01de914a-72cd-4732-981a-40c6fffcb3c3","system_id":"levelo_inurba_marseille","lat":43.25908,"lon":5.40876,"is_reserved":false,"is_disabled":false,"rental_uris":{"android":"levelo://app?vid=01de914a-72cd-4732-981a-40c6fffcb3c3","ios":"levelo://app?vid=01de914a-72cd-4732-981a-40c6fffcb3c3"},"vehicle_type_id":"4","last_reported":1735820256,"current_range_meters":35600,"station_id":"ce4bhm92rcd13ifvqglg","pricing_plan_id":"cebpf4jnsgd1na2vs0mg"},{"bike_id":"d9039fb6-1526-43a5-ab47-bf6c74051347","system_id":"levelo_inurba_marseille","lat":43.28153,"lon":5.42664,"is_reserved":false,"is_disabled":true,"rental_uris":{"android":"levelo://app?vid=d9039fb6-1526-43a5-ab47-bf6c74051347","ios":"levelo://app?vid=d9039fb6-1526-43a5-ab47-bf6c74051347"},"vehicle_type_id":"4","last_reported":1735820256,"current_range_meters":1600,"station_id":"ce4bhnh2rcd13ifvqgug","pricing_plan_id":"cebpf4jnsgd1na2vs0mg"},{"bike_id":"b5e3865b-10bc-4c4f-ad14-18834fa7a270","system_id":"levelo_inurba_marseille","lat":43.30287,"lon":5.36931,"is_reserved":false,"is_disabled":false,"rental_uris":{"android":"levelo://app?vid=b5e3865b-10bc-4c4f-ad14-18834fa7a270","ios":"levelo://app?vid=b5e3865b-10bc-4c4f-ad14-18834fa7a270"},"vehicle_type_id":"4","last_reported":1735820256,"current_range_meters":38800,"station_id":"ce4bgqh2rcd13ifvqc5g","pricing_plan_id":"cebpf4jnsgd1na2vs0mg"},{"bike_id":"628a5455-080f-4414-969d-c062a978390e","system_id":"levelo_inurba_marseille","lat":43.28482,"lon":5.3855,"is_reserved":false,"is_disabled":false,"rental_uris":{"android":"levelo://app?vid=628a5455-080f-4414-969d-c062a978390e","ios":"levelo://app?vid=628a5455-080f-4414-969d-c062a978390e"},"vehicle_type_id":"4","last_reported":1735820256,"current_range_meters":38800,"station_id":"ce4bh8p2rcd13ifvqeb0","pricing_plan_id":"cebpf4jnsgd1na2vs0mg"},{"bike_id":"37cfe836-3adc-4335-b170-6d998d4b6d2f","system_id":"levelo_inurba_marseille","lat":43.28615,"lon":5.35124,"is_reserved":false,"is_disabled":false,"rental_uris":{"android":"levelo://app?vid=37cfe836-3adc-4335-b170-6d998d4b6d2f","ios":"levelo://app?vid=37cfe836-3adc-4335-b170-6d998d4b6d2f"},"vehicle_type_id":"4","last_reported":1735820256,"current_range_meters":11200,"station_id":"ce4bhch2rcd13ifvqeug","pricing_plan_id":"cebpf4jnsgd1na2vs0mg"},{"bike_id":"022d826a-d31d-48ef-b07e-f8dd0ceaa746","system_id":"levelo_inurba_marseille","lat":43.24996,"lon":5.38935,"is_reserved":false,"is_disabled":false,"rental_uris":{"android":"levelo://app?vid=022d826a-d31d-48ef-b07e-f8dd0ceaa746","ios":"levelo://app?vid=022d826a-d31d-48ef-b07e-f8dd0ceaa746"},"vehicle_type_id":"4","last_reported":1735820256,"current_range_meters":28000,"station_id":"ce4bhgp2rcd13ifvqfd0","pricing_plan_id":"cebpf4jnsgd1na2vs0mg"},{"bike_id":"43b917fc-fe42-46d6-8098-9750ab523415","system_id":"levelo_inurba_marseille","lat":43.29631,"lon":5.37706,"is_reserved":false,"is_disabled":false,"rental_uris":{"android":"levelo://app?vid=43b917fc-fe42-46d6-8098-9750ab523415","ios":"levelo://app?vid=43b917fc-fe42-46d6-8098-9750ab523415"},"vehicle_type_id":"4","last_reported":1735820256,"current_range_meters":17200,"station_id":"ce4bgi92rcd13ifvqb90","pricing_plan_id":"cebpf4jnsgd1na2vs0mg"},{"bike_id":"e5bb4a6c-dc1b-473c-941d-102c4ae9a6a7","system_id":"levelo_inurba_marseille","lat":43.29278,"lon":5.40152,"is_reserved":false,"is_disabled":false,"rental_uris":{"android":"levelo://app?vid=e5bb4a6c-dc1b-473c-941d-102c4ae9a6a7","ios":"levelo://app?vid=e5bb4a6c-dc1b-473c-941d-102c4ae9a6a7"},"vehicle_type_id":"4","last_reported":1735820256,"current_range_meters":38800,"station_id":"ce4bh312rcd13ifvqdk0","pricing_plan_id":"cebpf4jnsgd1na2vs0mg"},{"bike_id":"a723ce28-f7d0-48b7-8af4-639e73a4245c","system_id":"levelo_inurba_marseille","lat":43.2949,"lon":5.4384,"is_reserved":false,"is_disabled":false,"rental_uris":{"android":"levelo://app?vid=a723ce28-f7d0-48b7-8af4-639e73a4245c","ios":"levelo://app?vid=a723ce28-f7d0-48b7-8af4-639e73a4245c"},"vehicle_type_id":"4","last_reported":1735820256,"current_range_meters":14800,"station_id":"","pricing_plan_id":"cebpf4jnsgd1na2vs0mg"},{"bike_id":"141d6291-f03f-4009-a1b9-6464d0dd1fc4","system_id":"levelo_inurba_marseille","lat":43.29604,"lon":5.37686,"is_reserved":false,"is_disabled":false,"rental_uris":{"android":"levelo://app?vid=141d6291-f03f-4009-a1b9-6464d0dd1fc4","ios":"levelo://app?vid=141d6291-f03f-4009-a1b9-6464d0dd1fc4"},"vehicle_type_id":"4","last_reported":1735820256,"current_range_meters":22400,"station_id":"ce4bgi92rcd13ifvqb90","pricing_plan_id":"cebpf4jnsgd1na2vs0mg"},{"bike_id":"2fd6bfc3-a346-41de-9c5f-11d9ae890a02","system_id":"levelo_inurba_marseille","lat":43.30897,"lon":5.37202,"is_reserved":false,"is_disabled":false,"rental_uris":{"android":"levelo://app?vid=2fd6bfc3-a346-41de-9c5f-11d9ae890a02","ios":"levelo://app?vid=2fd6bfc3-a346-41de-9c5f-11d9ae890a02"},"vehicle_type_id":"4","last_reported":1735820256,"current_range_meters":38400,"station_id":"ce4bguh2rcd13ifvqckg","pricing_plan_id":"cebpf4jnsgd1na2vs0mg"},{"bike_id":"ba62c914-4a09-4b0b-b4e1-6ac019c58b2b","system_id":"levelo_inurba_marseille","lat":43.30556,"lon":5.3656,"is_reserved":false,"is_disabled":false,"rental_uris":{"android":"levelo://app?vid=ba62c914-4a09-4b0b-b4e1-6ac019c58b2b","ios":"levelo://app?vid=ba62c914-4a09-4b0b-b4e1-6ac019c58b2b"},"vehicle_type_id":"4","last_reported":1735820256,"current_range_meters":33600,"station_id":"ce4bgs12rcd13ifvqcag","pricing_plan_id":"cebpf4jnsgd1na2vs0mg"},{"bike_id":"55a8a7bb-98e9-461f-923e-fc4eca67cd2f","system_id":"levelo_inurba_marseille","lat":43.27842,"lon":5.39193,"is_reserved":false,"is_disabled":false,"rental_uris":{"android":"levelo://app?vid=55a8a7bb-98e9-461f-923e-fc4eca67cd2f","ios":"levelo://app?vid=55a8a7bb-98e9-461f-923e-fc4eca67cd2f"},"vehicle_type_id":"4","last_reported":1735820256,"current_range_meters":17200,"station_id":"ce4bhjp2rcd13ifvqga0","pricing_plan_id":"cebpf4jnsgd1na2vs0mg"},{"bike_id":"4fddba13-1e7b-4cbb-a7ff-2b7342e1322f","system_id":"levelo_inurba_marseille","lat":43.262084,"lon":5.374534,"is_reserved":false,"is_disabled":false,"rental_uris":{"android":"levelo://app?vid=4fddba13-1e7b-4cbb-a7ff-2b7342e1322f","ios":"levelo://app?vid=4fddba13-1e7b-4cbb-a7ff-2b7342e1322f"},"vehicle_type_id":"4","last_reported":1735820256,"current_range_meters":12800,"station_id":"ce4bhgp2rcd13ifvqfc0","pricing_plan_id":"cebpf4jnsgd1na2vs0mg"},{"bike_id":"44d177c7-eea4-4936-8fb2-f4e78401eb94","system_id":"levelo_inurba_marseille","lat":43.25905,"lon":5.40925,"is_reserved":false,"is_disabled":false,"rental_uris":{"android":"levelo://app?vid=44d177c7-eea4-4936-8fb2-f4e78401eb94","ios":"levelo://app?vid=44d177c7-eea4-4936-8fb2-f4e78401eb94"},"vehicle_type_id":"4","last_reported":1735820256,"current_range_meters":36800,"station_id":"ce4bhm92rcd13ifvqglg","pricing_plan_id":"cebpf4jnsgd1na2vs0mg"},{"bike_id":"189d832f-528f-4b42-a3f9-2aa8c8b4f686","system_id":"levelo_inurba_marseille","lat":43.298976,"lon":5.436566,"is_reserved":false,"is_disabled":false,"rental_uris":{"android":"levelo://app?vid=189d832f-528f-4b42-a3f9-2aa8c8b4f686","ios":"levelo://app?vid=189d832f-528f-4b42-a3f9-2aa8c8b4f686"},"vehicle_type_id":"4","last_reported":1735820256,"current_range_meters":39200,"station_id":"ce4bhpp2rcd13ifvqhfg","pricing_plan_id":"cebpf4jnsgd1na2vs0mg"},{"bike_id":"375263f7-8be8-4e9c-8273-54301f8efcdc","system_id":"levelo_inurba_marseille","lat":43.28148,"lon":5.42667,"is_reserved":false,"is_disabled":false,"rental_uris":{"android":"levelo://app?vid=375263f7-8be8-4e9c-8273-54301f8efcdc","ios":"levelo://app?vid=375263f7-8be8-4e9c-8273-54301f8efcdc"},"vehicle_type_id":"4","last_reported":1735820256,"current_range_meters":9200,"station_id":"ce4bhnh2rcd13ifvqgug","pricing_plan_id":"cebpf4jnsgd1na2vs0mg"},{"bike_id":"daee0f1f-f41a-4547-b28f-fd7b5ec4335f","system_id":"levelo_inurba_marseille","lat":43.28409,"lon":5.37514,"is_reserved":false,"is_disabled":false,"rental_uris":{"android":"levelo://app?vid=daee0f1f-f41a-4547-b28f-fd7b5ec4335f","ios":"levelo://app?vid=daee0f1f-f41a-4547-b28f-fd7b5ec4335f"},"vehicle_type_id":"4","last_reported":1735820256,"current_range_meters":28800,"station_id":"ce4bh412rcd13ifvqds0","pricing_plan_id":"cebpf4jnsgd1na2vs0mg"},{"bike_id":"a6cc3042-dfda-4de8-8ba5-43c81ce3efce","system_id":"levelo_inurba_marseille","lat":43.299127,"lon":5.374865,"is_reserved":false,"is_disabled":false,"rental_uris":{"android":"levelo://app?vid=a6cc3042-dfda-4de8-8ba5-43c81ce3efce","ios":"levelo://app?vid=a6cc3042-dfda-4de8-8ba5-43c81ce3efce"},"vehicle_type_id":"4","last_reported":1735820256,"current_range_meters":36800,"station_id":"ce4bgjh2rcd13ifvqbg0","pricing_plan_id":"cebpf4jnsgd1na2vs0mg"},{"bike_id":"aabd806b-0962-4425-a6df-582ce44a70aa","system_id":"levelo_inurba_marseille","lat":43.27816,"lon":5.40702,"is_reserved":false,"is_disabled":false,"rental_uris":{"android":"levelo://app?vid=aabd806b-0962-4425-a6df-582ce44a70aa","ios":"levelo://app?vid=aabd806b-0962-4425-a6df-582ce44a70aa"},"vehicle_type_id":"4","last_reported":1735820256,"current_range_meters":30400,"station_id":"ce4bhnh2rcd13ifvqgtg","pricing_plan_id":"cebpf4jnsgd1na2vs0mg"},{"bike_id":"529d56a8-b2ac-446f-a54e-467a117abe09","system_id":"levelo_inurba_marseille","lat":43.29288,"lon":5.40122,"is_reserved":false,"is_disabled":false,"rental_uris":{"android":"levelo://app?vid=529d56a8-b2ac-446f-a54e-467a117abe09","ios":"levelo://app?vid=529d56a8-b2ac-446f-a54e-467a117abe09"},"vehicle_type_id":"4","last_reported":1735820256,"current_range_meters":38800,"station_id":"ce4bh312rcd13ifvqdk0","pricing_plan_id":"cebpf4jnsgd1na2vs0mg"},{"bike_id":"2fee7260-e55a-4ed6-964b-70a576822d5d","system_id":"levelo_inurba_marseille","lat":43.29903,"lon":5.48014,"is_reserved":false,"is_disabled":false,"rental_uris":{"android":"levelo://app?vid=2fee7260-e55a-4ed6-964b-70a576822d5d","ios":"levelo://app?vid=2fee7260-e55a-4ed6-964b-70a576822d5d"},"vehicle_type_id":"4","last_reported":1735820256,"current_range_meters":27200,"station_id":"","pricing_plan_id":"cebpf4jnsgd1na2vs0mg"},{"bike_id":"875ddf3d-2cfd-49c8-bd8d-f51a9265e541","system_id":"levelo_inurba_marseille","lat":43.26682,"lon":5.38283,"is_reserved":false,"is_disabled":false,"rental_uris":{"android":"levelo://app?vid=875ddf3d-2cfd-49c8-bd8d-f51a9265e541","ios":"levelo://app?vid=875ddf3d-2cfd-49c8-bd8d-f51a9265e541"},"vehicle_type_id":"4","last_reported":1735820256,"current_range_meters":24400,"station_id":"ce4bhg92rcd13ifvqf90","pricing_plan_id":"cebpf4jnsgd1na2vs0mg"},{"bike_id":"e7f232e6-9751-45f4-a24f-005b95d10947","system_id":"levelo_inurba_marseille","lat":43.29596,"lon":5.37697,"is_reserved":false,"is_disabled":true,"rental_uris":{"android":"levelo://app?vid=e7f232e6-9751-45f4-a24f-005b95d10947","ios":"levelo://app?vid=e7f232e6-9751-45f4-a24f-005b95d10947"},"vehicle_type_id":"4","last_reported":1735820256,"current_range_meters":3200,"station_id":"ce4bgi92rcd13ifvqb90","pricing_plan_id":"cebpf4jnsgd1na2vs0mg"},{"bike_id":"20bcfc0e-ce4b-4a55-a910-2c3c546797cb","system_id":"levelo_inurba_marseille","lat":43.29914,"lon":5.37486,"is_reserved":false,"is_disabled":false,"rental_uris":{"android":"levelo://app?vid=20bcfc0e-ce4b-4a55-a910-2c3c546797cb","ios":"levelo://app?vid=20bcfc0e-ce4b-4a55-a910-2c3c546797cb"},"vehicle_type_id":"4","last_reported":1735820256,"current_range_meters":35200,"station_id":"ce4bgjh2rcd13ifvqbg0","pricing_plan_id":"cebpf4jnsgd1na2vs0mg"},{"bike_id":"f3998a04-3b93-4948-8eb7-aa16047370fd","system_id":"levelo_inurba_marseille","lat":43.279415,"lon":5.41052,"is_reserved":false,"is_disabled":false,"rental_uris":{"android":"levelo://app?vid=f3998a04-3b93-4948-8eb7-aa16047370fd","ios":"levelo://app?vid=f3998a04-3b93-4948-8eb7-aa16047370fd"},"vehicle_type_id":"4","last_reported":1735820256,"current_range_meters":24000,"station_id":"ce4bhnp2rcd13ifvqh0g","pricing_plan_id":"cebpf4jnsgd1na2vs0mg"},{"bike_id":"1c5434c6-81cf-4ea8-9bf2-abfb41c12665","system_id":"levelo_inurba_marseille","lat":43.30889,"lon":5.37179,"is_reserved":false,"is_disabled":false,"rental_uris":{"android":"levelo://app?vid=1c5434c6-81cf-4ea8-9bf2-abfb41c12665","ios":"levelo://app?vid=1c5434c6-81cf-4ea8-9bf2-abfb41c12665"},"vehicle_type_id":"4","last_reported":1735820256,"current_range_meters":38400,"station_id":"ce4bguh2rcd13ifvqckg","pricing_plan_id":"cebpf4jnsgd1na2vs0mg"},{"bike_id":"5edd2c90-3ee4-4724-891f-63858e2e39c0","system_id":"levelo_inurba_marseille","lat":43.30362,"lon":5.41878,"is_reserved":false,"is_disabled":false,"rental_uris":{"android":"levelo://app?vid=5edd2c90-3ee4-4724-891f-63858e2e39c0","ios":"levelo://app?vid=5edd2c90-3ee4-4724-891f-63858e2e39c0"},"vehicle_type_id":"4","last_reported":1735820256,"current_range_meters":38800,"station_id":"ce4bhop2rcd13ifvqh7g","pricing_plan_id":"cebpf4jnsgd1na2vs0mg"},{"bike_id":"8a996c31-8e6c-47a3-9b8a-8e73e316f05c","system_id":"levelo_inurba_marseille","lat":43.30556,"lon":5.36537,"is_reserved":false,"is_disabled":false,"rental_uris":{"android":"levelo://app?vid=8a996c31-8e6c-47a3-9b8a-8e73e316f05c","ios":"levelo://app?vid=8a996c31-8e6c-47a3-9b8a-8e73e316f05c"},"vehicle_type_id":"4","last_reported":1735820256,"current_range_meters":38800,"station_id":"ce4bgs12rcd13ifvqcag","pricing_plan_id":"cebpf4jnsgd1na2vs0mg"},{"bike_id":"8ead7e35-2ddd-4db1-b525-2dbe32578065","system_id":"levelo_inurba_marseille","lat":43.30348,"lon":5.36931,"is_reserved":false,"is_disabled":true,"rental_uris":{"android":"levelo://app?vid=8ead7e35-2ddd-4db1-b525-2dbe32578065","ios":"levelo://app?vid=8ead7e35-2ddd-4db1-b525-2dbe32578065"},"vehicle_type_id":"4","last_reported":1735820256,"current_range_meters":30400,"station_id":"","pricing_plan_id":"cebpf4jnsgd1na2vs0mg"},{"bike_id":"e157af35-862f-4ff3-a971-0cec14143385","system_id":"levelo_inurba_marseille","lat":43.27965,"lon":5.41073,"is_reserved":false,"is_disabled":false,"rental_uris":{"android":"levelo://app?vid=e157af35-862f-4ff3-a971-0cec14143385","ios":"levelo://app?vid=e157af35-862f-4ff3-a971-0cec14143385"},"vehicle_type_id":"4","last_reported":1735820256,"current_range_meters":28400,"station_id":"ce4bhnp2rcd13ifvqh0g","pricing_plan_id":"cebpf4jnsgd1na2vs0mg"},{"bike_id":"d81935cc-c2d8-41f1-87a6-1c6b256db8e0","system_id":"levelo_inurba_marseille","lat":43.32265,"lon":5.39044,"is_reserved":false,"is_disabled":false,"rental_uris":{"android":"levelo://app?vid=d81935cc-c2d8-41f1-87a6-1c6b256db8e0","ios":"levelo://app?vid=d81935cc-c2d8-41f1-87a6-1c6b256db8e0"},"vehicle_type_id":"4","last_reported":1735820256,"current_range_meters":27200,"station_id":"ce4bhqp2rcd13ifvqhog","pricing_plan_id":"cebpf4jnsgd1na2vs0mg"},{"bike_id":"05fa99bf-6a64-43d6-8abb-7e948884f93a","system_id":"levelo_inurba_marseille","lat":43.27192,"lon":5.40982,"is_reserved":false,"is_disabled":false,"rental_uris":{"android":"levelo://app?vid=05fa99bf-6a64-43d6-8abb-7e948884f93a","ios":"levelo://app?vid=05fa99bf-6a64-43d6-8abb-7e948884f93a"},"vehicle_type_id":"4","last_reported":1735820256,"current_range_meters":38800,"station_id":"ce4bhl12rcd13ifvqgf0","pricing_plan_id":"cebpf4jnsgd1na2vs0mg"},{"bike_id":"f5997a88-606e-48c9-933e-041b10894cea","system_id":"levelo_inurba_marseille","lat":43.2707,"lon":5.42282,"is_reserved":false,"is_disabled":false,"rental_uris":{"android":"levelo://app?vid=f5997a88-606e-48c9-933e-041b10894cea","ios":"levelo://app?vid=f5997a88-606e-48c9-933e-041b10894cea"},"vehicle_type_id":"4","last_reported":1735820256,"current_range_meters":13600,"station_id":"ce4bhk92rcd13ifvqgb0","pricing_plan_id":"cebpf4jnsgd1na2vs0mg"},{"bike_id":"f220877a-b57e-44b0-bc17-60476a285c86","system_id":"levelo_inurba_marseille","lat":43.305524,"lon":5.365469,"is_reserved":false,"is_disabled":false,"rental_uris":{"android":"levelo://app?vid=f220877a-b57e-44b0-bc17-60476a285c86","ios":"levelo://app?vid=f220877a-b57e-44b0-bc17-60476a285c86"},"vehicle_type_id":"4","last_reported":1735820256,"current_range_meters":39200,"station_id":"ce4bgs12rcd13ifvqcag","pricing_plan_id":"cebpf4jnsgd1na2vs0mg"},{"bike_id":"0412596c-c2cb-4ea0-95d2-c962dd20cf30","system_id":"levelo_inurba_marseille","lat":43.28273,"lon":5.35074,"is_reserved":false,"is_disabled":false,"rental_uris":{"android":"levelo://app?vid=0412596c-c2cb-4ea0-95d2-c962dd20cf30","ios":"levelo://app?vid=0412596c-c2cb-4ea0-95d2-c962dd20cf30"},"vehicle_type_id":"4","last_reported":1735820256,"current_range_meters":19200,"station_id":"ce4bhbp2rcd13ifvqerg","pricing_plan_id":"cebpf4jnsgd1na2vs0mg"},{"bike_id":"02b9e2b7-c456-4117-99f8-a5a1cc0170b4","system_id":"levelo_inurba_marseille","lat":43.31757,"lon":5.3901,"is_reserved":false,"is_disabled":false,"rental_uris":{"android":"levelo://app?vid=02b9e2b7-c456-4117-99f8-a5a1cc0170b4","ios":"levelo://app?vid=02b9e2b7-c456-4117-99f8-a5a1cc0170b4"},"vehicle_type_id":"4","last_reported":1735820256,"current_range_meters":33200,"station_id":"ce4bhqp2rcd13ifvqhng","pricing_plan_id":"cebpf4jnsgd1na2vs0mg"},{"bike_id":"e78c5abe-64a4-4422-a037-82a4cc7a01cc","system_id":"levelo_inurba_marseille","lat":43.26942,"lon":5.40256,"is_reserved":false,"is_disabled":false,"rental_uris":{"android":"levelo://app?vid=e78c5abe-64a4-4422-a037-82a4cc7a01cc","ios":"levelo://app?vid=e78c5abe-64a4-4422-a037-82a4cc7a01cc"},"vehicle_type_id":"4","last_reported":1735820256,"current_range_meters":30400,"station_id":"cjm6bp8fraef2m0cb0m0","pricing_plan_id":"cebpf4jnsgd1na2vs0mg"},{"bike_id":"73560b7e-82f8-48fb-bdea-4eee2a69843c","system_id":"levelo_inurba_marseille","lat":43.2868,"lon":5.36351,"is_reserved":false,"is_disabled":false,"rental_uris":{"android":"levelo://app?vid=73560b7e-82f8-48fb-bdea-4eee2a69843c","ios":"levelo://app?vid=73560b7e-82f8-48fb-bdea-4eee2a69843c"},"vehicle_type_id":"4","last_reported":1735820256,"current_range_meters":24400,"station_id":"ce4bhah2rcd13ifvqej0","pricing_plan_id":"cebpf4jnsgd1na2vs0mg"},{"bike_id":"1758e404-548a-4b20-87fe-a9470e99ef0f","system_id":"levelo_inurba_marseille","lat":43.28381,"lon":5.38612,"is_reserved":false,"is_disabled":false,"rental_uris":{"android":"levelo://app?vid=1758e404-548a-4b20-87fe-a9470e99ef0f","ios":"levelo://app?vid=1758e404-548a-4b20-87fe-a9470e99ef0f"},"vehicle_type_id":"4","last_reported":1735820256,"current_range_meters":38800,"station_id":"ce4bh492rcd13ifvqdvg","pricing_plan_id":"cebpf4jnsgd1na2vs0mg"},{"bike_id":"ab6c0071-1c6d-4cf2-a546-c1406e180da8","system_id":"levelo_inurba_marseille","lat":43.29595,"lon":5.37711,"is_reserved":false,"is_disabled":false,"rental_uris":{"android":"levelo://app?vid=ab6c0071-1c6d-4cf2-a546-c1406e180da8","ios":"levelo://app?vid=ab6c0071-1c6d-4cf2-a546-c1406e180da8"},"vehicle_type_id":"4","last_reported":1735820256,"current_range_meters":18000,"station_id":"ce4bgi92rcd13ifvqb90","pricing_plan_id":"cebpf4jnsgd1na2vs0mg"},{"bike_id":"bcd20683-a7d2-4d73-b9c6-b696fde50e59","system_id":"levelo_inurba_marseille","lat":43.27066,"lon":5.42294,"is_reserved":false,"is_disabled":false,"rental_uris":{"android":"levelo://app?vid=bcd20683-a7d2-4d73-b9c6-b696fde50e59","ios":"levelo://app?vid=bcd20683-a7d2-4d73-b9c6-b696fde50e59"},"vehicle_type_id":"4","last_reported":1735820256,"current_range_meters":12800,"station_id":"ce4bhk92rcd13ifvqgb0","pricing_plan_id":"cebpf4jnsgd1na2vs0mg"},{"bike_id":"313a9a0d-cbde-465d-8a65-140655419224","system_id":"levelo_inurba_marseille","lat":43.25495,"lon":5.37673,"is_reserved":false,"is_disabled":false,"rental_uris":{"android":"levelo://app?vid=313a9a0d-cbde-465d-8a65-140655419224","ios":"levelo://app?vid=313a9a0d-cbde-465d-8a65-140655419224"},"vehicle_type_id":"4","last_reported":1735820256,"current_range_meters":39200,"station_id":"ce4bhh12rcd13ifvqff0","pricing_plan_id":"cebpf4jnsgd1na2vs0mg"},{"bike_id":"660aed1d-cdeb-4a3c-a6d4-d19ef9a2563b","system_id":"levelo_inurba_marseille","lat":43.29904,"lon":5.43643,"is_reserved":false,"is_disabled":false,"rental_uris":{"android":"levelo://app?vid=660aed1d-cdeb-4a3c-a6d4-d19ef9a2563b","ios":"levelo://app?vid=660aed1d-cdeb-4a3c-a6d4-d19ef9a2563b"},"vehicle_type_id":"4","last_reported":1735820256,"current_range_meters":18800,"station_id":"ce4bhpp2rcd13ifvqhfg","pricing_plan_id":"cebpf4jnsgd1na2vs0mg"},{"bike_id":"7d44431e-ed83-438c-86a7-892d7e053d01","system_id":"levelo_inurba_marseille","lat":43.32064,"lon":5.41548,"is_reserved":false,"is_disabled":false,"rental_uris":{"android":"levelo://app?vid=7d44431e-ed83-438c-86a7-892d7e053d01","ios":"levelo://app?vid=7d44431e-ed83-438c-86a7-892d7e053d01"},"vehicle_type_id":"4","last_reported":1735820256,"current_range_meters":38800,"station_id":"ce4bhq92rcd13ifvqhkg","pricing_plan_id":"cebpf4jnsgd1na2vs0mg"},{"bike_id":"84ff672c-254b-42d1-ad81-4f7d674dca47","system_id":"levelo_inurba_marseille","lat":43.24379,"lon":5.37072,"is_reserved":false,"is_disabled":false,"rental_uris":{"android":"levelo://app?vid=84ff672c-254b-42d1-ad81-4f7d674dca47","ios":"levelo://app?vid=84ff672c-254b-42d1-ad81-4f7d674dca47"},"vehicle_type_id":"4","last_reported":1735820256,"current_range_meters":39200,"station_id":"ce4bhhh2rcd13ifvqfk0","pricing_plan_id":"cebpf4jnsgd1na2vs0mg"},{"bike_id":"eeb39cf3-5ecb-482c-a754-8c58b2607761","system_id":"levelo_inurba_marseille","lat":43.30188,"lon":5.36622,"is_reserved":false,"is_disabled":false,"rental_uris":{"android":"levelo://app?vid=eeb39cf3-5ecb-482c-a754-8c58b2607761","ios":"levelo://app?vid=eeb39cf3-5ecb-482c-a754-8c58b2607761"},"vehicle_type_id":"4","last_reported":1735820256,"current_range_meters":30400,"station_id":"ce4bgrh2rcd13ifvqc8g","pricing_plan_id":"cebpf4jnsgd1na2vs0mg"},{"bike_id":"84574380-5e63-4a67-bbf0-475b0a817486","system_id":"levelo_inurba_marseille","lat":43.27681,"lon":5.38926,"is_reserved":false,"is_disabled":false,"rental_uris":{"android":"levelo://app?vid=84574380-5e63-4a67-bbf0-475b0a817486","ios":"levelo://app?vid=84574380-5e63-4a67-bbf0-475b0a817486"},"vehicle_type_id":"4","last_reported":1735820256,"current_range_meters":38800,"station_id":"ce4bhi12rcd13ifvqfo0","pricing_plan_id":"cebpf4jnsgd1na2vs0mg"},{"bike_id":"a663d02a-dfc9-4977-a3ab-2b2001cdecc0","system_id":"levelo_inurba_marseille","lat":43.2926,"lon":5.38442,"is_reserved":false,"is_disabled":false,"rental_uris":{"android":"levelo://app?vid=a663d02a-dfc9-4977-a3ab-2b2001cdecc0","ios":"levelo://app?vid=a663d02a-dfc9-4977-a3ab-2b2001cdecc0"},"vehicle_type_id":"4","last_reported":1735820256,"current_range_meters":37600,"station_id":"ce4bh692rcd13ifvqea0","pricing_plan_id":"cebpf4jnsgd1na2vs0mg"},{"bike_id":"cf71aac8-1e52-435d-bf91-cac39ef804d5","system_id":"levelo_inurba_marseille","lat":43.34145,"lon":5.40905,"is_reserved":false,"is_disabled":false,"rental_uris":{"android":"levelo://app?vid=cf71aac8-1e52-435d-bf91-cac39ef804d5","ios":"levelo://app?vid=cf71aac8-1e52-435d-bf91-cac39ef804d5"},"vehicle_type_id":"4","last_reported":1735820256,"current_range_meters":35200,"station_id":"ce4bhqh2rcd13ifvqhlg","pricing_plan_id":"cebpf4jnsgd1na2vs0mg"},{"bike_id":"c6d92bc5-dca9-45fe-9473-4ea5e9cb8d02","system_id":"levelo_inurba_marseille","lat":43.29888,"lon":5.38154,"is_reserved":false,"is_disabled":false,"rental_uris":{"android":"levelo://app?vid=c6d92bc5-dca9-45fe-9473-4ea5e9cb8d02","ios":"levelo://app?vid=c6d92bc5-dca9-45fe-9473-4ea5e9cb8d02"},"vehicle_type_id":"4","last_reported":1735820256,"current_range_meters":38800,"station_id":"ce4bgj12rcd13ifvqbc0","pricing_plan_id":"cebpf4jnsgd1na2vs0mg"},{"bike_id":"85f66c35-cf00-496f-866f-ed1cc2019cfb","system_id":"levelo_inurba_marseille","lat":43.28087,"lon":5.37887,"is_reserved":false,"is_disabled":false,"rental_uris":{"android":"levelo://app?vid=85f66c35-cf00-496f-866f-ed1cc2019cfb","ios":"levelo://app?vid=85f66c35-cf00-496f-866f-ed1cc2019cfb"},"vehicle_type_id":"4","last_reported":1735820256,"current_range_meters":38000,"station_id":"ce4bha12rcd13ifvqee0","pricing_plan_id":"cebpf4jnsgd1na2vs0mg"},{"bike_id":"80918c45-89b7-4fd7-996f-c047d892f254","system_id":"levelo_inurba_marseille","lat":43.284,"lon":5.35002,"is_reserved":false,"is_disabled":false,"rental_uris":{"android":"levelo://app?vid=80918c45-89b7-4fd7-996f-c047d892f254","ios":"levelo://app?vid=80918c45-89b7-4fd7-996f-c047d892f254"},"vehicle_type_id":"4","last_reported":1735820256,"current_range_meters":24800,"station_id":"ce4bhbh2rcd13ifvqepg","pricing_plan_id":"cebpf4jnsgd1na2vs0mg"},{"bike_id":"d502592a-d2f4-462b-a981-e532ff6a3185","system_id":"levelo_inurba_marseille","lat":43.28933,"lon":5.3963,"is_reserved":false,"is_disabled":false,"rental_uris":{"android":"levelo://app?vid=d502592a-d2f4-462b-a981-e532ff6a3185","ios":"levelo://app?vid=d502592a-d2f4-462b-a981-e532ff6a3185"},"vehicle_type_id":"4","last_reported":1735820256,"current_range_meters":38800,"station_id":"ce4bh3h2rcd13ifvqdn0","pricing_plan_id":"cebpf4jnsgd1na2vs0mg"},{"bike_id":"7eb8eb25-7a81-4e20-a6cf-0747a478e807","system_id":"levelo_inurba_marseille","lat":43.31175,"lon":5.38728,"is_reserved":false,"is_disabled":false,"rental_uris":{"android":"levelo://app?vid=7eb8eb25-7a81-4e20-a6cf-0747a478e807","ios":"levelo://app?vid=7eb8eb25-7a81-4e20-a6cf-0747a478e807"},"vehicle_type_id":"4","last_reported":1735820256,"current_range_meters":24000,"station_id":"ce4bgv12rcd13ifvqcp0","pricing_plan_id":"cebpf4jnsgd1na2vs0mg"},{"bike_id":"2a3ee495-54a6-4f06-9833-38f47b15ce57","system_id":"levelo_inurba_marseille","lat":43.33734,"lon":5.37459,"is_reserved":false,"is_disabled":false,"rental_uris":{"android":"levelo://app?vid=2a3ee495-54a6-4f06-9833-38f47b15ce57","ios":"levelo://app?vid=2a3ee495-54a6-4f06-9833-38f47b15ce57"},"vehicle_type_id":"4","last_reported":1735820256,"current_range_meters":36800,"station_id":"","pricing_plan_id":"cebpf4jnsgd1na2vs0mg"},{"bike_id":"4e2e926a-cc62-4529-8b24-3abbcf0f0be2","system_id":"levelo_inurba_marseille","lat":43.23188,"lon":5.35557,"is_reserved":false,"is_disabled":false,"rental_uris":{"android":"levelo://app?vid=4e2e926a-cc62-4529-8b24-3abbcf0f0be2","ios":"levelo://app?vid=4e2e926a-cc62-4529-8b24-3abbcf0f0be2"},"vehicle_type_id":"4","last_reported":1735820256,"current_range_meters":36800,"station_id":"ce4bhu92rcd13ifvqi70","pricing_plan_id":"cebpf4jnsgd1na2vs0mg"},{"bike_id":"576c3c6b-bcf6-433f-9d79-5f33ae917960","system_id":"levelo_inurba_marseille","lat":43.29557,"lon":5.42294,"is_reserved":false,"is_disabled":false,"rental_uris":{"android":"levelo://app?vid=576c3c6b-bcf6-433f-9d79-5f33ae917960","ios":"levelo://app?vid=576c3c6b-bcf6-433f-9d79-5f33ae917960"},"vehicle_type_id":"4","last_reported":1735820256,"current_range_meters":38800,"station_id":"ce4bhph2rcd13ifvqhdg","pricing_plan_id":"cebpf4jnsgd1na2vs0mg"},{"bike_id":"ee7da7e1-0487-4a7b-838f-676e9c820e80","system_id":"levelo_inurba_marseille","lat":43.304206,"lon":5.397503,"is_reserved":false,"is_disabled":true,"rental_uris":{"android":"levelo://app?vid=ee7da7e1-0487-4a7b-838f-676e9c820e80","ios":"levelo://app?vid=ee7da7e1-0487-4a7b-838f-676e9c820e80"},"vehicle_type_id":"4","last_reported":1735820256,"current_range_meters":38000,"station_id":"ce4bh092rcd13ifvqd20","pricing_plan_id":"cebpf4jnsgd1na2vs0mg"},{"bike_id":"5c842ca1-dac7-4b6c-8fb7-5624488bd87a","system_id":"levelo_inurba_marseille","lat":43.28265,"lon":5.35079,"is_reserved":false,"is_disabled":false,"rental_uris":{"android":"levelo://app?vid=5c842ca1-dac7-4b6c-8fb7-5624488bd87a","ios":"levelo://app?vid=5c842ca1-dac7-4b6c-8fb7-5624488bd87a"},"vehicle_type_id":"4","last_reported":1735820256,"current_range_meters":30000,"station_id":"ce4bhbp2rcd13ifvqerg","pricing_plan_id":"cebpf4jnsgd1na2vs0mg"},{"bike_id":"7ab036cf-df33-4ea0-afca-939ac3f77aec","system_id":"levelo_inurba_marseille","lat":43.29929,"lon":5.36551,"is_reserved":false,"is_disabled":false,"rental_uris":{"android":"levelo://app?vid=7ab036cf-df33-4ea0-afca-939ac3f77aec","ios":"levelo://app?vid=7ab036cf-df33-4ea0-afca-939ac3f77aec"},"vehicle_type_id":"4","last_reported":1735820256,"current_range_meters":26000,"station_id":"ce4bgm92rcd13ifvqbr0","pricing_plan_id":"cebpf4jnsgd1na2vs0mg"},{"bike_id":"997808ea-3db0-4f27-bb95-24e7b97e2db2","system_id":"levelo_inurba_marseille","lat":43.27203,"lon":5.39191,"is_reserved":false,"is_disabled":false,"rental_uris":{"android":"levelo://app?vid=997808ea-3db0-4f27-bb95-24e7b97e2db2","ios":"levelo://app?vid=997808ea-3db0-4f27-bb95-24e7b97e2db2"},"vehicle_type_id":"4","last_reported":1735820256,"current_range_meters":17200,"station_id":"ce4bhhp2rcd13ifvqfm0","pricing_plan_id":"cebpf4jnsgd1na2vs0mg"},{"bike_id":"390742b5-66dc-4ce2-86d4-3b0a0aa039ba","system_id":"levelo_inurba_marseille","lat":43.25864,"lon":5.39901,"is_reserved":false,"is_disabled":false,"rental_uris":{"android":"levelo://app?vid=390742b5-66dc-4ce2-86d4-3b0a0aa039ba","ios":"levelo://app?vid=390742b5-66dc-4ce2-86d4-3b0a0aa039ba"},"vehicle_type_id":"4","last_reported":1735820256,"current_range_meters":38800,"station_id":"ce4bhl92rcd13ifvqghg","pricing_plan_id":"cebpf4jnsgd1na2vs0mg"},{"bike_id":"f46bd378-e30f-485c-b539-9d29fba578aa","system_id":"levelo_inurba_marseille","lat":43.34151,"lon":5.40915,"is_reserved":false,"is_disabled":false,"rental_uris":{"android":"levelo://app?vid=f46bd378-e30f-485c-b539-9d29fba578aa","ios":"levelo://app?vid=f46bd378-e30f-485c-b539-9d29fba578aa"},"vehicle_type_id":"4","last_reported":1735820256,"current_range_meters":38400,"station_id":"ce4bhqh2rcd13ifvqhlg","pricing_plan_id":"cebpf4jnsgd1na2vs0mg"},{"bike_id":"583adf00-139d-403f-8366-744378ddbd7e","system_id":"levelo_inurba_marseille","lat":43.28367,"lon":5.38639,"is_reserved":false,"is_disabled":false,"rental_uris":{"android":"levelo://app?vid=583adf00-139d-403f-8366-744378ddbd7e","ios":"levelo://app?vid=583adf00-139d-403f-8366-744378ddbd7e"},"vehicle_type_id":"4","last_reported":1735820256,"current_range_meters":38000,"station_id":"ce4bh492rcd13ifvqdvg","pricing_plan_id":"cebpf4jnsgd1na2vs0mg"},{"bike_id":"bf858ed0-d944-4350-ae2b-8277b5338559","system_id":"levelo_inurba_marseille","lat":43.29617,"lon":5.37735,"is_reserved":false,"is_disabled":false,"rental_uris":{"android":"levelo://app?vid=bf858ed0-d944-4350-ae2b-8277b5338559","ios":"levelo://app?vid=bf858ed0-d944-4350-ae2b-8277b5338559"},"vehicle_type_id":"4","last_reported":1735820256,"current_range_meters":27600,"station_id":"ce4bgi92rcd13ifvqb90","pricing_plan_id":"cebpf4jnsgd1na2vs0mg"},{"bike_id":"2f95f59f-a739-4235-a180-bb16053c6583","system_id":"levelo_inurba_marseille","lat":43.2958,"lon":5.36757,"is_reserved":false,"is_disabled":false,"rental_uris":{"android":"levelo://app?vid=2f95f59f-a739-4235-a180-bb16053c6583","ios":"levelo://app?vid=2f95f59f-a739-4235-a180-bb16053c6583"},"vehicle_type_id":"4","last_reported":1735820256,"current_range_meters":24400,"station_id":"ce4bgph2rcd13ifvqc2g","pricing_plan_id":"cebpf4jnsgd1na2vs0mg"},{"bike_id":"a10cb38b-c0a9-46c5-81e3-8b36eafcdd96","system_id":"levelo_inurba_marseille","lat":43.28965,"lon":5.37835,"is_reserved":false,"is_disabled":true,"rental_uris":{"android":"levelo://app?vid=a10cb38b-c0a9-46c5-81e3-8b36eafcdd96","ios":"levelo://app?vid=a10cb38b-c0a9-46c5-81e3-8b36eafcdd96"},"vehicle_type_id":"4","last_reported":1735820256,"current_range_meters":36800,"station_id":"ce4bh9p2rcd13ifvqed0","pricing_plan_id":"cebpf4jnsgd1na2vs0mg"},{"bike_id":"df334d50-4421-42a5-a762-fb7f39807cc1","system_id":"levelo_inurba_marseille","lat":43.337676,"lon":5.374526,"is_reserved":false,"is_disabled":false,"rental_uris":{"android":"levelo://app?vid=df334d50-4421-42a5-a762-fb7f39807cc1","ios":"levelo://app?vid=df334d50-4421-42a5-a762-fb7f39807cc1"},"vehicle_type_id":"4","last_reported":1735820256,"current_range_meters":32400,"station_id":"","pricing_plan_id":"cebpf4jnsgd1na2vs0mg"},{"bike_id":"87b9a921-e93d-4ee9-818f-18845bfae0db","system_id":"levelo_inurba_marseille","lat":43.28111,"lon":5.37834,"is_reserved":false,"is_disabled":false,"rental_uris":{"android":"levelo://app?vid=87b9a921-e93d-4ee9-818f-18845bfae0db","ios":"levelo://app?vid=87b9a921-e93d-4ee9-818f-18845bfae0db"},"vehicle_type_id":"4","last_reported":1735820256,"current_range_meters":18000,"station_id":"ce4bha12rcd13ifvqee0","pricing_plan_id":"cebpf4jnsgd1na2vs0mg"},{"bike_id":"35d7b981-f2f8-4e1f-bf58-6f3547d4e1f6","system_id":"levelo_inurba_marseille","lat":43.30322,"lon":5.36901,"is_reserved":false,"is_disabled":true,"rental_uris":{"android":"levelo://app?vid=35d7b981-f2f8-4e1f-bf58-6f3547d4e1f6","ios":"levelo://app?vid=35d7b981-f2f8-4e1f-bf58-6f3547d4e1f6"},"vehicle_type_id":"4","last_reported":1735820256,"current_range_meters":18800,"station_id":"ce4bgqh2rcd13ifvqc5g","pricing_plan_id":"cebpf4jnsgd1na2vs0mg"},{"bike_id":"176dc94c-6fa3-4dff-84cb-4c4762966efe","system_id":"levelo_inurba_marseille","lat":43.27428,"lon":5.39412,"is_reserved":false,"is_disabled":false,"rental_uris":{"android":"levelo://app?vid=176dc94c-6fa3-4dff-84cb-4c4762966efe","ios":"levelo://app?vid=176dc94c-6fa3-4dff-84cb-4c4762966efe"},"vehicle_type_id":"4","last_reported":1735820256,"current_range_meters":32800,"station_id":"ce4bhdp2rcd13ifvqf20","pricing_plan_id":"cebpf4jnsgd1na2vs0mg"},{"bike_id":"d6b7bffe-8f80-427e-946d-3914bf2c39b8","system_id":"levelo_inurba_marseille","lat":43.279121,"lon":5.395896,"is_reserved":false,"is_disabled":false,"rental_uris":{"android":"levelo://app?vid=d6b7bffe-8f80-427e-946d-3914bf2c39b8","ios":"levelo://app?vid=d6b7bffe-8f80-427e-946d-3914bf2c39b8"},"vehicle_type_id":"4","last_reported":1735820256,"current_range_meters":35600,"station_id":"ce4bhf92rcd13ifvqf40","pricing_plan_id":"cebpf4jnsgd1na2vs0mg"},{"bike_id":"c25dfa90-8357-4c06-945d-14c7820c2818","system_id":"levelo_inurba_marseille","lat":43.30893,"lon":5.3688,"is_reserved":false,"is_disabled":false,"rental_uris":{"android":"levelo://app?vid=c25dfa90-8357-4c06-945d-14c7820c2818","ios":"levelo://app?vid=c25dfa90-8357-4c06-945d-14c7820c2818"},"vehicle_type_id":"4","last_reported":1735820256,"current_range_meters":24400,"station_id":"ce4bgn92rcd13ifvqbvg","pricing_plan_id":"cebpf4jnsgd1na2vs0mg"},{"bike_id":"5367a292-5564-4681-91cd-97babb89fc00","system_id":"levelo_inurba_marseille","lat":43.22901,"lon":5.35411,"is_reserved":false,"is_disabled":false,"rental_uris":{"android":"levelo://app?vid=5367a292-5564-4681-91cd-97babb89fc00","ios":"levelo://app?vid=5367a292-5564-4681-91cd-97babb89fc00"},"vehicle_type_id":"4","last_reported":1735820256,"current_range_meters":18000,"station_id":"cpo3532slgdg3j2ikp40","pricing_plan_id":"cebpf4jnsgd1na2vs0mg"},{"bike_id":"1d5543c4-1c87-4447-ad2e-0cc64903ea75","system_id":"levelo_inurba_marseille","lat":43.25903,"lon":5.39957,"is_reserved":false,"is_disabled":false,"rental_uris":{"android":"levelo://app?vid=1d5543c4-1c87-4447-ad2e-0cc64903ea75","ios":"levelo://app?vid=1d5543c4-1c87-4447-ad2e-0cc64903ea75"},"vehicle_type_id":"4","last_reported":1735820256,"current_range_meters":39200,"station_id":"ce4bhl92rcd13ifvqghg","pricing_plan_id":"cebpf4jnsgd1na2vs0mg"},{"bike_id":"7bf77f91-1561-48ae-83bb-da639c8736d8","system_id":"levelo_inurba_marseille","lat":43.2669,"lon":5.3827,"is_reserved":false,"is_disabled":false,"rental_uris":{"android":"levelo://app?vid=7bf77f91-1561-48ae-83bb-da639c8736d8","ios":"levelo://app?vid=7bf77f91-1561-48ae-83bb-da639c8736d8"},"vehicle_type_id":"4","last_reported":1735820256,"current_range_meters":37600,"station_id":"ce4bhg92rcd13ifvqf90","pricing_plan_id":"cebpf4jnsgd1na2vs0mg"},{"bike_id":"a831900e-ab39-486a-bc2c-940ffa3bf209","system_id":"levelo_inurba_marseille","lat":43.29615,"lon":5.37718,"is_reserved":false,"is_disabled":false,"rental_uris":{"android":"levelo://app?vid=a831900e-ab39-486a-bc2c-940ffa3bf209","ios":"levelo://app?vid=a831900e-ab39-486a-bc2c-940ffa3bf209"},"vehicle_type_id":"4","last_reported":1735820256,"current_range_meters":36800,"station_id":"ce4bgi92rcd13ifvqb90","pricing_plan_id":"cebpf4jnsgd1na2vs0mg"},{"bike_id":"f98fde69-1f61-4a82-80ea-97f37f2d8cf7","system_id":"levelo_inurba_marseille","lat":43.30198,"lon":5.36618,"is_reserved":false,"is_disabled":false,"rental_uris":{"android":"levelo://app?vid=f98fde69-1f61-4a82-80ea-97f37f2d8cf7","ios":"levelo://app?vid=f98fde69-1f61-4a82-80ea-97f37f2d8cf7"},"vehicle_type_id":"4","last_reported":1735820256,"current_range_meters":36400,"station_id":"ce4bgrh2rcd13ifvqc8g","pricing_plan_id":"cebpf4jnsgd1na2vs0mg"},{"bike_id":"73cdd631-8b73-4875-bb84-4f0c13d543c9","system_id":"levelo_inurba_marseille","lat":43.29583,"lon":5.39972,"is_reserved":false,"is_disabled":false,"rental_uris":{"android":"levelo://app?vid=73cdd631-8b73-4875-bb84-4f0c13d543c9","ios":"levelo://app?vid=73cdd631-8b73-4875-bb84-4f0c13d543c9"},"vehicle_type_id":"4","last_reported":1735820256,"current_range_meters":38800,"station_id":"ce4bh312rcd13ifvqdj0","pricing_plan_id":"cebpf4jnsgd1na2vs0mg"},{"bike_id":"62076514-d312-4a15-ad75-f85cfe6d3f46","system_id":"levelo_inurba_marseille","lat":43.22932,"lon":5.35396,"is_reserved":false,"is_disabled":false,"rental_uris":{"android":"levelo://app?vid=62076514-d312-4a15-ad75-f85cfe6d3f46","ios":"levelo://app?vid=62076514-d312-4a15-ad75-f85cfe6d3f46"},"vehicle_type_id":"4","last_reported":1735820256,"current_range_meters":16800,"station_id":"cpo3532slgdg3j2ikp40","pricing_plan_id":"cebpf4jnsgd1na2vs0mg"},{"bike_id":"921c161c-81a9-4f62-88c9-fa7031ed1ea4","system_id":"levelo_inurba_marseille","lat":43.3018,"lon":5.36601,"is_reserved":false,"is_disabled":false,"rental_uris":{"android":"levelo://app?vid=921c161c-81a9-4f62-88c9-fa7031ed1ea4","ios":"levelo://app?vid=921c161c-81a9-4f62-88c9-fa7031ed1ea4"},"vehicle_type_id":"4","last_reported":1735820256,"current_range_meters":39200,"station_id":"ce4bgrh2rcd13ifvqc8g","pricing_plan_id":"cebpf4jnsgd1na2vs0mg"},{"bike_id":"337c71c9-4ec3-45b1-936a-31d8bdf83077","system_id":"levelo_inurba_marseille","lat":43.3014,"lon":5.37431,"is_reserved":false,"is_disabled":false,"rental_uris":{"android":"levelo://app?vid=337c71c9-4ec3-45b1-936a-31d8bdf83077","ios":"levelo://app?vid=337c71c9-4ec3-45b1-936a-31d8bdf83077"},"vehicle_type_id":"4","last_reported":1735820256,"current_range_meters":11200,"station_id":"ce4bgs92rcd13ifvqcc0","pricing_plan_id":"cebpf4jnsgd1na2vs0mg"},{"bike_id":"b3afc75c-abdc-4e55-84d0-a16da508bd99","system_id":"levelo_inurba_marseille","lat":43.2811,"lon":5.37857,"is_reserved":false,"is_disabled":false,"rental_uris":{"android":"levelo://app?vid=b3afc75c-abdc-4e55-84d0-a16da508bd99","ios":"levelo://app?vid=b3afc75c-abdc-4e55-84d0-a16da508bd99"},"vehicle_type_id":"4","last_reported":1735820256,"current_range_meters":38800,"station_id":"ce4bha12rcd13ifvqee0","pricing_plan_id":"cebpf4jnsgd1na2vs0mg"},{"bike_id":"1c02ae40-e43c-4632-b75b-2df9308dc3fe","system_id":"levelo_inurba_marseille","lat":43.33775,"lon":5.37464,"is_reserved":false,"is_disabled":false,"rental_uris":{"android":"levelo://app?vid=1c02ae40-e43c-4632-b75b-2df9308dc3fe","ios":"levelo://app?vid=1c02ae40-e43c-4632-b75b-2df9308dc3fe"},"vehicle_type_id":"4","last_reported":1735820256,"current_range_meters":14000,"station_id":"","pricing_plan_id":"cebpf4jnsgd1na2vs0mg"},{"bike_id":"515e64d3-2742-40a4-9cbd-08e53c8330a3","system_id":"levelo_inurba_marseille","lat":43.28854,"lon":5.39316,"is_reserved":false,"is_disabled":false,"rental_uris":{"android":"levelo://app?vid=515e64d3-2742-40a4-9cbd-08e53c8330a3","ios":"levelo://app?vid=515e64d3-2742-40a4-9cbd-08e53c8330a3"},"vehicle_type_id":"4","last_reported":1735820256,"current_range_meters":39200,"station_id":"ce4bh2p2rcd13ifvqdi0","pricing_plan_id":"cebpf4jnsgd1na2vs0mg"},{"bike_id":"6a27c13b-94f1-41d3-bc82-c46f664b3096","system_id":"levelo_inurba_marseille","lat":43.28985,"lon":5.37857,"is_reserved":false,"is_disabled":false,"rental_uris":{"android":"levelo://app?vid=6a27c13b-94f1-41d3-bc82-c46f664b3096","ios":"levelo://app?vid=6a27c13b-94f1-41d3-bc82-c46f664b3096"},"vehicle_type_id":"4","last_reported":1735820256,"current_range_meters":32000,"station_id":"ce4bh9p2rcd13ifvqed0","pricing_plan_id":"cebpf4jnsgd1na2vs0mg"},{"bike_id":"e9be51a1-ef71-4ae5-8ab2-1ac8e1634659","system_id":"levelo_inurba_marseille","lat":43.30159,"lon":5.3808,"is_reserved":false,"is_disabled":false,"rental_uris":{"android":"levelo://app?vid=e9be51a1-ef71-4ae5-8ab2-1ac8e1634659","ios":"levelo://app?vid=e9be51a1-ef71-4ae5-8ab2-1ac8e1634659"},"vehicle_type_id":"4","last_reported":1735820256,"current_range_meters":38800,"station_id":"ce4bgjp2rcd13ifvqbh0","pricing_plan_id":"cebpf4jnsgd1na2vs0mg"},{"bike_id":"828a347e-32af-469c-9123-36cbd141c0bb","system_id":"levelo_inurba_marseille","lat":43.32375,"lon":5.38928,"is_reserved":false,"is_disabled":true,"rental_uris":{"android":"levelo://app?vid=828a347e-32af-469c-9123-36cbd141c0bb","ios":"levelo://app?vid=828a347e-32af-469c-9123-36cbd141c0bb"},"vehicle_type_id":"4","last_reported":1735820256,"current_range_meters":0,"station_id":"","pricing_plan_id":"cebpf4jnsgd1na2vs0mg"},{"bike_id":"975dd58f-37e7-4310-8d08-bb2645998887","system_id":"levelo_inurba_marseille","lat":43.25,"lon":5.38936,"is_reserved":false,"is_disabled":false,"rental_uris":{"android":"levelo://app?vid=975dd58f-37e7-4310-8d08-bb2645998887","ios":"levelo://app?vid=975dd58f-37e7-4310-8d08-bb2645998887"},"vehicle_type_id":"4","last_reported":1735820256,"current_range_meters":36400,"station_id":"ce4bhgp2rcd13ifvqfd0","pricing_plan_id":"cebpf4jnsgd1na2vs0mg"},{"bike_id":"a3597e2d-fb98-407b-9432-8b4a2b613bde","system_id":"levelo_inurba_marseille","lat":43.30355,"lon":5.41882,"is_reserved":false,"is_disabled":false,"rental_uris":{"android":"levelo://app?vid=a3597e2d-fb98-407b-9432-8b4a2b613bde","ios":"levelo://app?vid=a3597e2d-fb98-407b-9432-8b4a2b613bde"},"vehicle_type_id":"4","last_reported":1735820256,"current_range_meters":39200,"station_id":"ce4bhop2rcd13ifvqh7g","pricing_plan_id":"cebpf4jnsgd1na2vs0mg"},{"bike_id":"9fc11948-a0d1-4b39-8d46-5ede6d39db06","system_id":"levelo_inurba_marseille","lat":43.26981,"lon":5.36593,"is_reserved":false,"is_disabled":false,"rental_uris":{"android":"levelo://app?vid=9fc11948-a0d1-4b39-8d46-5ede6d39db06","ios":"levelo://app?vid=9fc11948-a0d1-4b39-8d46-5ede6d39db06"},"vehicle_type_id":"4","last_reported":1735820256,"current_range_meters":4000,"station_id":"","pricing_plan_id":"cebpf4jnsgd1na2vs0mg"},{"bike_id":"dac94ecf-3203-4c89-acc0-21c14e979588","system_id":"levelo_inurba_marseille","lat":43.26695,"lon":5.38282,"is_reserved":false,"is_disabled":false,"rental_uris":{"android":"levelo://app?vid=dac94ecf-3203-4c89-acc0-21c14e979588","ios":"levelo://app?vid=dac94ecf-3203-4c89-acc0-21c14e979588"},"vehicle_type_id":"4","last_reported":1735820256,"current_range_meters":4800,"station_id":"ce4bhg92rcd13ifvqf90","pricing_plan_id":"cebpf4jnsgd1na2vs0mg"},{"bike_id":"de45fc42-35ce-420f-9ae9-481651f5b7a8","system_id":"levelo_inurba_marseille","lat":43.27196,"lon":5.39174,"is_reserved":false,"is_disabled":false,"rental_uris":{"android":"levelo://app?vid=de45fc42-35ce-420f-9ae9-481651f5b7a8","ios":"levelo://app?vid=de45fc42-35ce-420f-9ae9-481651f5b7a8"},"vehicle_type_id":"4","last_reported":1735820256,"current_range_meters":38800,"station_id":"ce4bhhp2rcd13ifvqfm0","pricing_plan_id":"cebpf4jnsgd1na2vs0mg"},{"bike_id":"4802f4cf-bdb4-4c46-ab2a-8cf4b2f0b54e","system_id":"levelo_inurba_marseille","lat":43.323759,"lon":5.388849,"is_reserved":false,"is_disabled":false,"rental_uris":{"android":"levelo://app?vid=4802f4cf-bdb4-4c46-ab2a-8cf4b2f0b54e","ios":"levelo://app?vid=4802f4cf-bdb4-4c46-ab2a-8cf4b2f0b54e"},"vehicle_type_id":"4","last_reported":1735820256,"current_range_meters":13600,"station_id":"ce4bhqp2rcd13ifvqhog","pricing_plan_id":"cebpf4jnsgd1na2vs0mg"},{"bike_id":"9c42c59a-a990-48ee-91ac-32ebebcaabf5","system_id":"levelo_inurba_marseille","lat":43.27583,"lon":5.3842,"is_reserved":false,"is_disabled":false,"rental_uris":{"android":"levelo://app?vid=9c42c59a-a990-48ee-91ac-32ebebcaabf5","ios":"levelo://app?vid=9c42c59a-a990-48ee-91ac-32ebebcaabf5"},"vehicle_type_id":"4","last_reported":1735820256,"current_range_meters":38800,"station_id":"ce4bhh92rcd13ifvqfi0","pricing_plan_id":"cebpf4jnsgd1na2vs0mg"},{"bike_id":"8718220a-6a37-41be-b92a-7cc1a59fedb2","system_id":"levelo_inurba_marseille","lat":43.2754,"lon":5.38477,"is_reserved":false,"is_disabled":false,"rental_uris":{"android":"levelo://app?vid=8718220a-6a37-41be-b92a-7cc1a59fedb2","ios":"levelo://app?vid=8718220a-6a37-41be-b92a-7cc1a59fedb2"},"vehicle_type_id":"4","last_reported":1735820256,"current_range_meters":7200,"station_id":"ce4bhh92rcd13ifvqfi0","pricing_plan_id":"cebpf4jnsgd1na2vs0mg"},{"bike_id":"a4dbce69-9906-4587-85ab-874b3da4c1e0","system_id":"levelo_inurba_marseille","lat":43.28419,"lon":5.37533,"is_reserved":false,"is_disabled":false,"rental_uris":{"android":"levelo://app?vid=a4dbce69-9906-4587-85ab-874b3da4c1e0","ios":"levelo://app?vid=a4dbce69-9906-4587-85ab-874b3da4c1e0"},"vehicle_type_id":"4","last_reported":1735820256,"current_range_meters":29600,"station_id":"ce4bh412rcd13ifvqds0","pricing_plan_id":"cebpf4jnsgd1na2vs0mg"},{"bike_id":"dc575ca3-601e-4370-b47c-795dbd3f062c","system_id":"levelo_inurba_marseille","lat":43.29792,"lon":5.37098,"is_reserved":false,"is_disabled":false,"rental_uris":{"android":"levelo://app?vid=dc575ca3-601e-4370-b47c-795dbd3f062c","ios":"levelo://app?vid=dc575ca3-601e-4370-b47c-795dbd3f062c"},"vehicle_type_id":"4","last_reported":1735820256,"current_range_meters":32000,"station_id":"ce4bgop2rcd13ifvqc1g","pricing_plan_id":"cebpf4jnsgd1na2vs0mg"},{"bike_id":"adf2c3a9-04c5-4986-9b64-8e0eada33caa","system_id":"levelo_inurba_marseille","lat":43.29603,"lon":5.42141,"is_reserved":false,"is_disabled":false,"rental_uris":{"android":"levelo://app?vid=adf2c3a9-04c5-4986-9b64-8e0eada33caa","ios":"levelo://app?vid=adf2c3a9-04c5-4986-9b64-8e0eada33caa"},"vehicle_type_id":"4","last_reported":1735820256,"current_range_meters":10000,"station_id":"","pricing_plan_id":"cebpf4jnsgd1na2vs0mg"},{"bike_id":"9bf8a4e1-3d6a-4c3e-b303-e577639b94d5","system_id":"levelo_inurba_marseille","lat":43.29793,"lon":5.38113,"is_reserved":false,"is_disabled":false,"rental_uris":{"android":"levelo://app?vid=9bf8a4e1-3d6a-4c3e-b303-e577639b94d5","ios":"levelo://app?vid=9bf8a4e1-3d6a-4c3e-b303-e577639b94d5"},"vehicle_type_id":"4","last_reported":1735820256,"current_range_meters":33200,"station_id":"ce4bgip2rcd13ifvqbb0","pricing_plan_id":"cebpf4jnsgd1na2vs0mg"},{"bike_id":"4d0ae856-c5e6-42be-9155-23af1e9c86fc","system_id":"levelo_inurba_marseille","lat":43.27819,"lon":5.40727,"is_reserved":false,"is_disabled":false,"rental_uris":{"android":"levelo://app?vid=4d0ae856-c5e6-42be-9155-23af1e9c86fc","ios":"levelo://app?vid=4d0ae856-c5e6-42be-9155-23af1e9c86fc"},"vehicle_type_id":"4","last_reported":1735820256,"current_range_meters":32400,"station_id":"ce4bhnh2rcd13ifvqgtg","pricing_plan_id":"cebpf4jnsgd1na2vs0mg"},{"bike_id":"9bf2c934-e80a-4b69-9369-b6399c81de01","system_id":"levelo_inurba_marseille","lat":43.251141,"lon":5.403059,"is_reserved":false,"is_disabled":false,"rental_uris":{"android":"levelo://app?vid=9bf2c934-e80a-4b69-9369-b6399c81de01","ios":"levelo://app?vid=9bf2c934-e80a-4b69-9369-b6399c81de01"},"vehicle_type_id":"4","last_reported":1735820256,"current_range_meters":37600,"station_id":"ce4bhlh2rcd13ifvqgig","pricing_plan_id":"cebpf4jnsgd1na2vs0mg"},{"bike_id":"4c7ccce5-b48f-4253-9e45-16dbdb1e0cc3","system_id":"levelo_inurba_marseille","lat":43.2987,"lon":5.39739,"is_reserved":false,"is_disabled":false,"rental_uris":{"android":"levelo://app?vid=4c7ccce5-b48f-4253-9e45-16dbdb1e0cc3","ios":"levelo://app?vid=4c7ccce5-b48f-4253-9e45-16dbdb1e0cc3"},"vehicle_type_id":"4","last_reported":1735820256,"current_range_meters":9600,"station_id":"ce4bh0h2rcd13ifvqd50","pricing_plan_id":"cebpf4jnsgd1na2vs0mg"},{"bike_id":"63393f0c-9ca0-41fe-aec0-b447cbd884d7","system_id":"levelo_inurba_marseille","lat":43.29861,"lon":5.38937,"is_reserved":false,"is_disabled":false,"rental_uris":{"android":"levelo://app?vid=63393f0c-9ca0-41fe-aec0-b447cbd884d7","ios":"levelo://app?vid=63393f0c-9ca0-41fe-aec0-b447cbd884d7"},"vehicle_type_id":"4","last_reported":1735820256,"current_range_meters":38800,"station_id":"ce4bh392rcd13ifvqdl0","pricing_plan_id":"cebpf4jnsgd1na2vs0mg"},{"bike_id":"d3c4228f-831b-462d-acf4-f8bff9b98c64","system_id":"levelo_inurba_marseille","lat":43.29255,"lon":5.38455,"is_reserved":false,"is_disabled":false,"rental_uris":{"android":"levelo://app?vid=d3c4228f-831b-462d-acf4-f8bff9b98c64","ios":"levelo://app?vid=d3c4228f-831b-462d-acf4-f8bff9b98c64"},"vehicle_type_id":"4","last_reported":1735820256,"current_range_meters":38000,"station_id":"ce4bh692rcd13ifvqea0","pricing_plan_id":"cebpf4jnsgd1na2vs0mg"},{"bike_id":"9a359eb1-d7de-4d5f-a325-39e22e69049f","system_id":"levelo_inurba_marseille","lat":43.28269,"lon":5.35077,"is_reserved":false,"is_disabled":false,"rental_uris":{"android":"levelo://app?vid=9a359eb1-d7de-4d5f-a325-39e22e69049f","ios":"levelo://app?vid=9a359eb1-d7de-4d5f-a325-39e22e69049f"},"vehicle_type_id":"4","last_reported":1735820256,"current_range_meters":16400,"station_id":"ce4bhbp2rcd13ifvqerg","pricing_plan_id":"cebpf4jnsgd1na2vs0mg"},{"bike_id":"9c23194b-edc8-4913-abc5-3db87f1bd370","system_id":"levelo_inurba_marseille","lat":43.28153,"lon":5.42658,"is_reserved":false,"is_disabled":false,"rental_uris":{"android":"levelo://app?vid=9c23194b-edc8-4913-abc5-3db87f1bd370","ios":"levelo://app?vid=9c23194b-edc8-4913-abc5-3db87f1bd370"},"vehicle_type_id":"4","last_reported":1735820256,"current_range_meters":19200,"station_id":"ce4bhnh2rcd13ifvqgug","pricing_plan_id":"cebpf4jnsgd1na2vs0mg"},{"bike_id":"c14d1989-a72f-4241-a582-39661d0bcfcf","system_id":"levelo_inurba_marseille","lat":43.23187,"lon":5.35564,"is_reserved":false,"is_disabled":false,"rental_uris":{"android":"levelo://app?vid=c14d1989-a72f-4241-a582-39661d0bcfcf","ios":"levelo://app?vid=c14d1989-a72f-4241-a582-39661d0bcfcf"},"vehicle_type_id":"4","last_reported":1735820256,"current_range_meters":38800,"station_id":"ce4bhu92rcd13ifvqi70","pricing_plan_id":"cebpf4jnsgd1na2vs0mg"},