{"last_updated":1740773437,"ttl":60,"version":"2.2","data":{"bikes":[{"bike_id":"e994ab89-6fde-4eb9-bc22-e573fb749fca","system_id":"levelo_inurba_marseille","lat":43.29525,"lon":5.38521,"is_reserved":false,"is_disabled":false,"rental_uris":{"android":"levelo://app?vid=e994ab89-6fde-4eb9-bc22-e573fb749fca","ios":"levelo://app?vid=e994ab89-6fde-4eb9-bc22-e573fb749fca"},"vehicle_type_id":"4","last_reported":1740773437,"current_range_meters":2800,"station_id":"ce4bgih2rcd13ifvqba0","pricing_plan_id":"cebpf4jnsgd1na2vs0mg"},{"bike_id":"34ad990b-61fc-4a18-a745-948d97198943","system_id":"levelo_inurba_marseille","lat":43.29029,"lon":5.38645,"is_reserved":false,"is_disabled":false,"rental_uris":{"android":"levelo://app?vid=34ad990b-61fc-4a18-a745-948d97198943","ios":"levelo://app?vid=34ad990b-61fc-4a18-a745-948d97198943"},"vehicle_type_id":"4","last_reported":1740773437,"current_range_meters":3200,"station_id":"ce4bh4p2rcd13ifvqe0g","pricing_plan_id":"cebpf4jnsgd1na2vs0mg"},{"bike_id":"aa8cae61-f614-49d4-a6f9-04073c79edfc","system_id":"levelo_inurba_marseille","lat":43.29302,"lon":5.37165,"is_reserved":false,"is_disabled":false,"rental_uris":{"android":"levelo://app?vid=aa8cae61-f614-49d4-a6f9-04073c79edfc","ios":"levelo://app?vid=aa8cae61-f614-49d4-a6f9-04073c79edfc"},"vehicle_type_id":"4","last_reported":1740773437,"current_range_meters":3600,"station_id":"ce4bgh92rcd13ifvqb40","pricing_plan_id":"cebpf4jnsgd1na2vs0mg"},{"bike_id":"f1a1ed3e-ac64-451f-afb2-3c2bdd443360","system_id":"levelo_inurba_marseille","lat":43.30524,"lon":5.36721,"is_reserved":false,"is_disabled":false,"rental_uris":{"android":"levelo://app?vid=f1a1ed3e-ac64-451f-afb2-3c2bdd443360","ios":"levelo://app?vid=f1a1ed3e-ac64-451f-afb2-3c2bdd443360"},"vehicle_type_id":"4","last_reported":1740773437,"current_range_meters":3600,"station_id":"ce4bgrp2rcd13ifvqc9g","pricing_plan_id":"cebpf4jnsgd1na2vs0mg"},{"bike_id":"6fcaa068-9058-44c8-9232-22f4d6133581","system_id":"levelo_inurba_marseille","lat":43.29525,"lon":5.38564,"is_reserved":false,"is_disabled":false,"rental_uris":{"android":"levelo://app?vid=6fcaa068-9058-44c8-9232-22f4d6133581","ios":"levelo://app?vid=6fcaa068-9058-44c8-9232-22f4d6133581"},"vehicle_type_id":"4","last_reported":1740773437,"current_range_meters":3600,"station_id":"ce4bgih2rcd13ifvqba0","pricing_plan_id":"cebpf4jnsgd1na2vs0mg"},{"bike_id":"0b17d04b-7e85-48d0-bd3c-f357d393fdfa","system_id":"levelo_inurba_marseille","lat":43.31161,"lon":5.3872,"is_reserved":false,"is_disabled":false,"rental_uris":{"android":"levelo://app?vid=0b17d04b-7e85-48d0-bd3c-f357d393fdfa","ios":"levelo://app?vid=0b17d04b-7e85-48d0-bd3c-f357d393fdfa"},"vehicle_type_id":"4","last_reported":1740773437,"current_range_meters":4000,"station_id":"ce4bgv12rcd13ifvqcp0","pricing_plan_id":"cebpf4jnsgd1na2vs0mg"},{"bike_id":"d43f306a-a676-4a9f-95b4-f5284935f917","system_id":"levelo_inurba_marseille","lat":43.31718,"lon":5.40463,"is_reserved":false,"is_disabled":false,"rental_uris":{"android":"levelo://app?vid=d43f306a-a676-4a9f-95b4-f5284935f917","ios":"levelo://app?vid=d43f306a-a676-4a9f-95b4-f5284935f917"},"vehicle_type_id":"4","last_reported":1740773437,"current_range_meters":4000,"station_id":"ce4bh012rcd13ifvqd00","pricing_plan_id":"cebpf4jnsgd1na2vs0mg"},{"bike_id":"83afbd8a-35f5-4b3d-9fea-2b6fd3ad6854","system_id":"levelo_inurba_marseille","lat":43.28621,"lon":5.35101,"is_reserved":false,"is_disabled":false,"rental_uris":{"android":"levelo://app?vid=83afbd8a-35f5-4b3d-9fea-2b6fd3ad6854","ios":"levelo://app?vid=83afbd8a-35f5-4b3d-9fea-2b6fd3ad6854"},"vehicle_type_id":"4","last_reported":1740773437,"current_range_meters":1600,"station_id":"ce4bhch2rcd13ifvqeug","pricing_plan_id":"cebpf4jnsgd1na2vs0mg"},{"bike_id":"7b9f763e-84e1-4a5d-bfd2-9431103887c0","system_id":"levelo_inurba_marseille","lat":43.29204,"lon":5.39311,"is_reserved":false,"is_disabled":false,"rental_uris":{"android":"levelo://app?vid=7b9f763e-84e1-4a5d-bfd2-9431103887c0","ios":"levelo://app?vid=7b9f763e-84e1-4a5d-bfd2-9431103887c0"},"vehicle_type_id":"4","last_reported":1740773437,"current_range_meters":4000,"station_id":"ce4bh192rcd13ifvqdd0","pricing_plan_id":"cebpf4jnsgd1na2vs0mg"},{"bike_id":"0774b1db-4091-4d1a-ad2f-f6d853625e11","system_id":"levelo_inurba_marseille","lat":43.28672,"lon":5.38676,"is_reserved":false,"is_disabled":false,"rental_uris":{"android":"levelo://app?vid=0774b1db-4091-4d1a-ad2f-f6d853625e11","ios":"levelo://app?vid=0774b1db-4091-4d1a-ad2f-f6d853625e11"},"vehicle_type_id":"4","last_reported":1740773437,"current_range_meters":4000,"station_id":"ce4bh492rcd13ifvqdug","pricing_plan_id":"cebpf4jnsgd1na2vs0mg"},{"bike_id":"92b95165-18ef-461d-b391-870d4ac52a94","system_id":"levelo_inurba_marseille","lat":43.29274,"lon":5.38446,"is_reserved":false,"is_disabled":false,"rental_uris":{"android":"levelo://app?vid=92b95165-18ef-461d-b391-870d4ac52a94","ios":"levelo://app?vid=92b95165-18ef-461d-b391-870d4ac52a94"},"vehicle_type_id":"4","last_reported":1740773437,"current_range_meters":4400,"station_id":"ce4bh692rcd13ifvqea0","pricing_plan_id":"cebpf4jnsgd1na2vs0mg"},{"bike_id":"dbb938bf-03cb-4b54-bd0d-6b81eaab63cf","system_id":"levelo_inurba_marseille","lat":43.28407,"lon":5.37514,"is_reserved":false,"is_disabled":false,"rental_uris":{"android":"levelo://app?vid=dbb938bf-03cb-4b54-bd0d-6b81eaab63cf","ios":"levelo://app?vid=dbb938bf-03cb-4b54-bd0d-6b81eaab63cf"},"vehicle_type_id":"4","last_reported":1740773437,"current_range_meters":4400,"station_id":"ce4bh412rcd13ifvqds0","pricing_plan_id":"cebpf4jnsgd1na2vs0mg"},{"bike_id":"e9f70944-2436-472f-ab2d-92bdf79b6a23","system_id":"levelo_inurba_marseille","lat":43.29316,"lon":5.37442,"is_reserved":false,"is_disabled":false,"rental_uris":{"android":"levelo://app?vid=e9f70944-2436-472f-ab2d-92bdf79b6a23","ios":"levelo://app?vid=e9f70944-2436-472f-ab2d-92bdf79b6a23"},"vehicle_type_id":"4","last_reported":1740773437,"current_range_meters":4400,"station_id":"ce4bgi12rcd13ifvqb70","pricing_plan_id":"cebpf4jnsgd1na2vs0mg"},{"bike_id":"87c496eb-e7be-4bda-b3d7-5c2f64f44dcb","system_id":"levelo_inurba_marseille","lat":43.29299,"lon":5.3746,"is_reserved":false,"is_disabled":false,"rental_uris":{"android":"levelo://app?vid=87c496eb-e7be-4bda-b3d7-5c2f64f44dcb","ios":"levelo://app?vid=87c496eb-e7be-4bda-b3d7-5c2f64f44dcb"},"vehicle_type_id":"4","last_reported":1740773437,"current_range_meters":4400,"station_id":"ce4bgi12rcd13ifvqb70","pricing_plan_id":"cebpf4jnsgd1na2vs0mg"},{"bike_id":"a8328c72-27ce-4150-a953-d0b7993a21b2","system_id":"levelo_inurba_marseille","lat":43.29257,"lon":5.37632,"is_reserved":false,"is_disabled":false,"rental_uris":{"android":"levelo://app?vid=a8328c72-27ce-4150-a953-d0b7993a21b2","ios":"levelo://app?vid=a8328c72-27ce-4150-a953-d0b7993a21b2"},"vehicle_type_id":"4","last_reported":1740773437,"current_range_meters":4400,"station_id":"ce4bgi12rcd13ifvqb80","pricing_plan_id":"cebpf4jnsgd1na2vs0mg"},{"bike_id":"9ed848b3-6a09-4257-abd6-8e48a0e32bed","system_id":"levelo_inurba_marseille","lat":43.26682,"lon":5.38266,"is_reserved":false,"is_disabled":false,"rental_uris":{"android":"levelo://app?vid=9ed848b3-6a09-4257-abd6-8e48a0e32bed","ios":"levelo://app?vid=9ed848b3-6a09-4257-abd6-8e48a0e32bed"},"vehicle_type_id":"4","last_reported":1740773437,"current_range_meters":4400,"station_id":"ce4bhg92rcd13ifvqf90","pricing_plan_id":"cebpf4jnsgd1na2vs0mg"},{"bike_id":"6ef2d5b0-e2be-4b34-bcbf-65a8b9369a95","system_id":"levelo_inurba_marseille","lat":43.28632,"lon":5.35094,"is_reserved":false,"is_disabled":false,"rental_uris":{"android":"levelo://app?vid=6ef2d5b0-e2be-4b34-bcbf-65a8b9369a95","ios":"levelo://app?vid=6ef2d5b0-e2be-4b34-bcbf-65a8b9369a95"},"vehicle_type_id":"4","last_reported":1740773437,"current_range_meters":4400,"station_id":"ce4bhch2rcd13ifvqeug","pricing_plan_id":"cebpf4jnsgd1na2vs0mg"},{"bike_id":"049dbaef-bf7d-467f-8e77-0ad41e5cb2fe","system_id":"levelo_inurba_marseille","lat":43.290379,"lon":5.35902,"is_reserved":false,"is_disabled":false,"rental_uris":{"android":"levelo://app?vid=049dbaef-bf7d-467f-8e77-0ad41e5cb2fe","ios":"levelo://app?vid=049dbaef-bf7d-467f-8e77-0ad41e5cb2fe"},"vehicle_type_id":"4","last_reported":1740773437,"current_range_meters":4800,"station_id":"ce4bha92rcd13ifvqeg0","pricing_plan_id":"cebpf4jnsgd1na2vs0mg"},{"bike_id":"0cf57a9c-d86e-4783-8b95-e1a91492d3fd","system_id":"levelo_inurba_marseille","lat":43.305318,"lon":5.36722,"is_reserved":false,"is_disabled":false,"rental_uris":{"android":"levelo://app?vid=0cf57a9c-d86e-4783-8b95-e1a91492d3fd","ios":"levelo://app?vid=0cf57a9c-d86e-4783-8b95-e1a91492d3fd"},"vehicle_type_id":"4","last_reported":1740773437,"current_range_meters":4400,"station_id":"ce4bhr12rcd13ifvqhqg","pricing_plan_id":"cebpf4jnsgd1na2vs0mg"},{"bike_id":"a402dcb0-63b6-4569-b9e8-ad825500c3f8","system_id":"levelo_inurba_marseille","lat":43.28994,"lon":5.35934,"is_reserved":false,"is_disabled":false,"rental_uris":{"android":"levelo://app?vid=a402dcb0-63b6-4569-b9e8-ad825500c3f8","ios":"levelo://app?vid=a402dcb0-63b6-4569-b9e8-ad825500c3f8"},"vehicle_type_id":"4","last_reported":1740773437,"current_range_meters":4800,"station_id":"","pricing_plan_id":"cebpf4jnsgd1na2vs0mg"},{"bike_id":"5b72bb23-7721-4441-869c-b31cc2f8d94e","system_id":"levelo_inurba_marseille","lat":43.289306,"lon":5.396,"is_reserved":false,"is_disabled":false,"rental_uris":{"android":"levelo://app?vid=5b72bb23-7721-4441-869c-b31cc2f8d94e","ios":"levelo://app?vid=5b72bb23-7721-4441-869c-b31cc2f8d94e"},"vehicle_type_id":"4","last_reported":1740773437,"current_range_meters":4800,"station_id":"ce4bh3h2rcd13ifvqdn0","pricing_plan_id":"cebpf4jnsgd1na2vs0mg"},{"bike_id":"e9783a72-39c5-49e7-8847-fa0f76b6d257","system_id":"levelo_inurba_marseille","lat":43.29974,"lon":5.38527,"is_reserved":false,"is_disabled":true,"rental_uris":{"android":"levelo://app?vid=e9783a72-39c5-49e7-8847-fa0f76b6d257","ios":"levelo://app?vid=e9783a72-39c5-49e7-8847-fa0f76b6d257"},"vehicle_type_id":"4","last_reported":1740773437,"current_range_meters":5600,"station_id":"ce4bgj92rcd13ifvqbd0","pricing_plan_id":"cebpf4jnsgd1na2vs0mg"},{"bike_id":"c972cf2f-460a-4974-bd11-e5f90954d797","system_id":"levelo_inurba_marseille","lat":43.25731,"lon":5.41111,"is_reserved":false,"is_disabled":false,"rental_uris":{"android":"levelo://app?vid=c972cf2f-460a-4974-bd11-e5f90954d797","ios":"levelo://app?vid=c972cf2f-460a-4974-bd11-e5f90954d797"},"vehicle_type_id":"4","last_reported":1740773437,"current_range_meters":5600,"station_id":"ce4bhkp2rcd13ifvqgd0","pricing_plan_id":"cebpf4jnsgd1na2vs0mg"},{"bike_id":"0317c915-b518-4b85-aa91-67d2abe0b311","system_id":"levelo_inurba_marseille","lat":43.29534,"lon":5.3907,"is_reserved":false,"is_disabled":false,"rental_uris":{"android":"levelo://app?vid=0317c915-b518-4b85-aa91-67d2abe0b311","ios":"levelo://app?vid=0317c915-b518-4b85-aa91-67d2abe0b311"},"vehicle_type_id":"4","last_reported":1740773437,"current_range_meters":2800,"station_id":"ce4bh3p2rcd13ifvqdp0","pricing_plan_id":"cebpf4jnsgd1na2vs0mg"},{"bike_id":"e2edc88f-cb57-4b64-b197-934acbd389a7","system_id":"levelo_inurba_marseille","lat":43.29605,"lon":5.37191,"is_reserved":false,"is_disabled":false,"rental_uris":{"android":"levelo://app?vid=e2edc88f-cb57-4b64-b197-934acbd389a7","ios":"levelo://app?vid=e2edc88f-cb57-4b64-b197-934acbd389a7"},"vehicle_type_id":"4","last_reported":1740773437,"current_range_meters":4800,"station_id":"ce4bgpp2rcd13ifvqc3g","pricing_plan_id":"cebpf4jnsgd1na2vs0mg"},{"bike_id":"52dc4a9e-eade-498c-95ba-864f9a7550cf","system_id":"levelo_inurba_marseille","lat":43.2709,"lon":5.42263,"is_reserved":false,"is_disabled":false,"rental_uris":{"android":"levelo://app?vid=52dc4a9e-eade-498c-95ba-864f9a7550cf","ios":"levelo://app?vid=52dc4a9e-eade-498c-95ba-864f9a7550cf"},"vehicle_type_id":"4","last_reported":1740773437,"current_range_meters":5600,"station_id":"ce4bhk92rcd13ifvqgb0","pricing_plan_id":"cebpf4jnsgd1na2vs0mg"},{"bike_id":"127c2857-d1da-4771-bac7-d6fa0a209a01","system_id":"levelo_inurba_marseille","lat":43.27946,"lon":5.41046,"is_reserved":false,"is_disabled":false,"rental_uris":{"android":"levelo://app?vid=127c2857-d1da-4771-bac7-d6fa0a209a01","ios":"levelo://app?vid=127c2857-d1da-4771-bac7-d6fa0a209a01"},"vehicle_type_id":"4","last_reported":1740773437,"current_range_meters":800,"station_id":"ce4bhnp2rcd13ifvqh0g","pricing_plan_id":"cebpf4jnsgd1na2vs0mg"},{"bike_id":"54a667ee-6d08-4b96-a85f-315a744d7be3","system_id":"levelo_inurba_marseille","lat":43.30797,"lon":5.43528,"is_reserved":false,"is_disabled":false,"rental_uris":{"android":"levelo://app?vid=54a667ee-6d08-4b96-a85f-315a744d7be3","ios":"levelo://app?vid=54a667ee-6d08-4b96-a85f-315a744d7be3"},"vehicle_type_id":"4","last_reported":1740773437,"current_range_meters":10000,"station_id":"ce4bhph2rcd13ifvqheg","pricing_plan_id":"cebpf4jnsgd1na2vs0mg"},{"bike_id":"259cfcbf-b93e-412c-aafa-f1c7b0aad184","system_id":"levelo_inurba_marseille","lat":43.28851,"lon":5.35882,"is_reserved":false,"is_disabled":false,"rental_uris":{"android":"levelo://app?vid=259cfcbf-b93e-412c-aafa-f1c7b0aad184","ios":"levelo://app?vid=259cfcbf-b93e-412c-aafa-f1c7b0aad184"},"vehicle_type_id":"4","last_reported":1740773437,"current_range_meters":6000,"station_id":"ce4bhb12rcd13ifvqem0","pricing_plan_id":"cebpf4jnsgd1na2vs0mg"},{"bike_id":"47ab1dbc-d155-46b0-bfa9-431288314450","system_id":"levelo_inurba_marseille","lat":43.27937,"lon":5.41049,"is_reserved":false,"is_disabled":false,"rental_uris":{"android":"levelo://app?vid=47ab1dbc-d155-46b0-bfa9-431288314450","ios":"levelo://app?vid=47ab1dbc-d155-46b0-bfa9-431288314450"},"vehicle_type_id":"4","last_reported":1740773437,"current_range_meters":6000,"station_id":"ce4bhnp2rcd13ifvqh0g","pricing_plan_id":"cebpf4jnsgd1na2vs0mg"},{"bike_id":"8feb7610-f7de-48c6-85ca-c5cd50f4d484","system_id":"levelo_inurba_marseille","lat":43.29274,"lon":5.37622,"is_reserved":false,"is_disabled":false,"rental_uris":{"android":"levelo://app?vid=8feb7610-f7de-48c6-85ca-c5cd50f4d484","ios":"levelo://app?vid=8feb7610-f7de-48c6-85ca-c5cd50f4d484"},"vehicle_type_id":"4","last_reported":1740773437,"current_range_meters":6400,"station_id":"ce4bgi12rcd13ifvqb80","pricing_plan_id":"cebpf4jnsgd1na2vs0mg"},{"bike_id":"db4a8446-beda-4f58-9bb4-927ab9bcee1d","system_id":"levelo_inurba_marseille","lat":43.28481,"lon":5.38458,"is_reserved":false,"is_disabled":true,"rental_uris":{"android":"levelo://app?vid=db4a8446-beda-4f58-9bb4-927ab9bcee1d","ios":"levelo://app?vid=db4a8446-beda-4f58-9bb4-927ab9bcee1d"},"vehicle_type_id":"4","last_reported":1740773437,"current_range_meters":6000,"station_id":"ce4bh512rcd13ifvqe3g","pricing_plan_id":"cebpf4jnsgd1na2vs0mg"},{"bike_id":"28ee2958-5470-4a55-9a2d-523c9924a59b","system_id":"levelo_inurba_marseille","lat":43.29815,"lon":5.38082,"is_reserved":false,"is_disabled":false,"rental_uris":{"android":"levelo://app?vid=28ee2958-5470-4a55-9a2d-523c9924a59b","ios":"levelo://app?vid=28ee2958-5470-4a55-9a2d-523c9924a59b"},"vehicle_type_id":"4","last_reported":1740773437,"current_range_meters":6400,"station_id":"ce4bgip2rcd13ifvqbb0","pricing_plan_id":"cebpf4jnsgd1na2vs0mg"},{"bike_id":"8842432e-3598-4905-ba3c-96d51a1247fb","system_id":"levelo_inurba_marseille","lat":43.30297,"lon":5.39197,"is_reserved":false,"is_disabled":false,"rental_uris":{"android":"levelo://app?vid=8842432e-3598-4905-ba3c-96d51a1247fb","ios":"levelo://app?vid=8842432e-3598-4905-ba3c-96d51a1247fb"},"vehicle_type_id":"4","last_reported":1740773437,"current_range_meters":6400,"station_id":"ce4bgkh2rcd13ifvqbk0","pricing_plan_id":"cebpf4jnsgd1na2vs0mg"},{"bike_id":"79d8c44d-ada2-4496-961a-9c0058726c1b","system_id":"levelo_inurba_marseille","lat":43.2767,"lon":5.38905,"is_reserved":false,"is_disabled":false,"rental_uris":{"android":"levelo://app?vid=79d8c44d-ada2-4496-961a-9c0058726c1b","ios":"levelo://app?vid=79d8c44d-ada2-4496-961a-9c0058726c1b"},"vehicle_type_id":"4","last_reported":1740773437,"current_range_meters":6800,"station_id":"ce4bhi12rcd13ifvqfo0","pricing_plan_id":"cebpf4jnsgd1na2vs0mg"},{"bike_id":"4e21c123-fed3-4db6-ad81-45cccdae0542","system_id":"levelo_inurba_marseille","lat":43.24169,"lon":5.36393,"is_reserved":false,"is_disabled":true,"rental_uris":{"android":"levelo://app?vid=4e21c123-fed3-4db6-ad81-45cccdae0542","ios":"levelo://app?vid=4e21c123-fed3-4db6-ad81-45cccdae0542"},"vehicle_type_id":"4","last_reported":1740773437,"current_range_meters":6400,"station_id":"cpo36qri1sfpv3e86is0","pricing_plan_id":"cebpf4jnsgd1na2vs0mg"},{"bike_id":"896fed02-a9b8-433d-9f2d-b0237fb9a41d","system_id":"levelo_inurba_marseille","lat":43.30625,"lon":5.3935,"is_reserved":false,"is_disabled":false,"rental_uris":{"android":"levelo://app?vid=896fed02-a9b8-433d-9f2d-b0237fb9a41d","ios":"levelo://app?vid=896fed02-a9b8-433d-9f2d-b0237fb9a41d"},"vehicle_type_id":"4","last_reported":1740773437,"current_range_meters":2000,"station_id":"ce4bh0p2rcd13ifvqd80","pricing_plan_id":"cebpf4jnsgd1na2vs0mg"},{"bike_id":"89a7517e-6658-46c5-a615-9e427ec79029","system_id":"levelo_inurba_marseille","lat":43.25719,"lon":5.41818,"is_reserved":false,"is_disabled":false,"rental_uris":{"android":"levelo://app?vid=89a7517e-6658-46c5-a615-9e427ec79029","ios":"levelo://app?vid=89a7517e-6658-46c5-a615-9e427ec79029"},"vehicle_type_id":"4","last_reported":1740773437,"current_range_meters":6400,"station_id":"","pricing_plan_id":"cebpf4jnsgd1na2vs0mg"},{"bike_id":"d450afcf-676c-402c-8f2f-edc15cb61862","system_id":"levelo_inurba_marseille","lat":43.24811,"lon":5.37456,"is_reserved":false,"is_disabled":false,"rental_uris":{"android":"levelo://app?vid=d450afcf-676c-402c-8f2f-edc15cb61862","ios":"levelo://app?vid=d450afcf-676c-402c-8f2f-edc15cb61862"},"vehicle_type_id":"4","last_reported":1740773437,"current_range_meters":6800,"station_id":"ce4bhgh2rcd13ifvqfb0","pricing_plan_id":"cebpf4jnsgd1na2vs0mg"},{"bike_id":"a9a19c6c-0bed-4d1f-a200-55a2f4d3052e","system_id":"levelo_inurba_marseille","lat":43.29026,"lon":5.42592,"is_reserved":false,"is_disabled":false,"rental_uris":{"android":"levelo://app?vid=a9a19c6c-0bed-4d1f-a200-55a2f4d3052e","ios":"levelo://app?vid=a9a19c6c-0bed-4d1f-a200-55a2f4d3052e"},"vehicle_type_id":"4","last_reported":1740773437,"current_range_meters":6400,"station_id":"","pricing_plan_id":"cebpf4jnsgd1na2vs0mg"},{"bike_id":"43618139-47f5-4932-9d86-5f206cde2585","system_id":"levelo_inurba_marseille","lat":43.27973,"lon":5.38743,"is_reserved":false,"is_disabled":false,"rental_uris":{"android":"levelo://app?vid=43618139-47f5-4932-9d86-5f206cde2585","ios":"levelo://app?vid=43618139-47f5-4932-9d86-5f206cde2585"},"vehicle_type_id":"4","last_reported":1740773437,"current_range_meters":6400,"station_id":"ce4bhg12rcd13ifvqf80","pricing_plan_id":"cebpf4jnsgd1na2vs0mg"},{"bike_id":"ce4d7f39-9dd7-48ab-8c29-e2547d0e680f","system_id":"levelo_inurba_marseille","lat":43.293,"lon":5.37463,"is_reserved":false,"is_disabled":false,"rental_uris":{"android":"levelo://app?vid=ce4d7f39-9dd7-48ab-8c29-e2547d0e680f","ios":"levelo://app?vid=ce4d7f39-9dd7-48ab-8c29-e2547d0e680f"},"vehicle_type_id":"4","last_reported":1740773437,"current_range_meters":6800,"station_id":"ce4bgi12rcd13ifvqb70","pricing_plan_id":"cebpf4jnsgd1na2vs0mg"},{"bike_id":"ce22c214-a85a-4184-a1d5-b5596835ad0e","system_id":"levelo_inurba_marseille","lat":43.28914,"lon":5.38412,"is_reserved":false,"is_disabled":false,"rental_uris":{"android":"levelo://app?vid=ce22c214-a85a-4184-a1d5-b5596835ad0e","ios":"levelo://app?vid=ce22c214-a85a-4184-a1d5-b5596835ad0e"},"vehicle_type_id":"4","last_reported":1740773437,"current_range_meters":6800,"station_id":"ce4bh612rcd13ifvqe6g","pricing_plan_id":"cebpf4jnsgd1na2vs0mg"},{"bike_id":"55f306c6-820d-4fa0-bdc4-8b744d1f1eea","system_id":"levelo_inurba_marseille","lat":43.24818,"lon":5.37424,"is_reserved":false,"is_disabled":false,"rental_uris":{"android":"levelo://app?vid=55f306c6-820d-4fa0-bdc4-8b744d1f1eea","ios":"levelo://app?vid=55f306c6-820d-4fa0-bdc4-8b744d1f1eea"},"vehicle_type_id":"4","last_reported":1740773437,"current_range_meters":6800,"station_id":"ce4bhgh2rcd13ifvqfb0","pricing_plan_id":"cebpf4jnsgd1na2vs0mg"},{"bike_id":"dcff507d-3819-435b-8033-cab0f880c6a6","system_id":"levelo_inurba_marseille","lat":43.26514,"lon":5.39534,"is_reserved":false,"is_disabled":true,"rental_uris":{"android":"levelo://app?vid=dcff507d-3819-435b-8033-cab0f880c6a6","ios":"levelo://app?vid=dcff507d-3819-435b-8033-cab0f880c6a6"},"vehicle_type_id":"4","last_reported":1740773437,"current_range_meters":6800,"station_id":"ce4bhi12rcd13ifvqfq0","pricing_plan_id":"cebpf4jnsgd1na2vs0mg"},{"bike_id":"fac99c0a-28b6-48e9-99d3-b46f4114ca2c","system_id":"levelo_inurba_marseille","lat":43.3093,"lon":5.4013,"is_reserved":false,"is_disabled":false,"rental_uris":{"android":"levelo://app?vid=fac99c0a-28b6-48e9-99d3-b46f4114ca2c","ios":"levelo://app?vid=fac99c0a-28b6-48e9-99d3-b46f4114ca2c"},"vehicle_type_id":"4","last_reported":1740773437,"current_range_meters":6800,"station_id":"ce4bgvp2rcd13ifvqct0","pricing_plan_id":"cebpf4jnsgd1na2vs0mg"},{"bike_id":"4c3cbff4-8fcd-449f-9462-8524115108b2","system_id":"levelo_inurba_marseille","lat":43.2619,"lon":5.37909,"is_reserved":false,"is_disabled":true,"rental_uris":{"android":"levelo://app?vid=4c3cbff4-8fcd-449f-9462-8524115108b2","ios":"levelo://app?vid=4c3cbff4-8fcd-449f-9462-8524115108b2"},"vehicle_type_id":"4","last_reported":1740773437,"current_range_meters":6800,"station_id":"ce4bhjp2rcd13ifvqg90","pricing_plan_id":"cebpf4jnsgd1na2vs0mg"},{"bike_id":"43c32004-94fe-4598-87ba-734917dbcf43","system_id":"levelo_inurba_marseille","lat":43.29261,"lon":5.37631,"is_reserved":false,"is_disabled":false,"rental_uris":{"android":"levelo://app?vid=43c32004-94fe-4598-87ba-734917dbcf43","ios":"levelo://app?vid=43c32004-94fe-4598-87ba-734917dbcf43"},"vehicle_type_id":"4","last_reported":1740773437,"current_range_meters":7200,"station_id":"ce4bgi12rcd13ifvqb80","pricing_plan_id":"cebpf4jnsgd1na2vs0mg"},{"bike_id":"7d382dad-5be0-4a3a-bb79-36cd53bb4dfd","system_id":"levelo_inurba_marseille","lat":43.29275,"lon":5.36848,"is_reserved":false,"is_disabled":false,"rental_uris":{"android":"levelo://app?vid=7d382dad-5be0-4a3a-bb79-36cd53bb4dfd","ios":"levelo://app?vid=7d382dad-5be0-4a3a-bb79-36cd53bb4dfd"},"vehicle_type_id":"4","last_reported":1740773437,"current_range_meters":7200,"station_id":"ce4bhbp2rcd13ifvqesg","pricing_plan_id":"cebpf4jnsgd1na2vs0mg"},{"bike_id":"0da6e0a1-a80c-4bfa-9f42-9441a63191ed","system_id":"levelo_inurba_marseille","lat":43.2482,"lon":5.37449,"is_reserved":false,"is_disabled":false,"rental_uris":{"android":"levelo://app?vid=0da6e0a1-a80c-4bfa-9f42-9441a63191ed","ios":"levelo://app?vid=0da6e0a1-a80c-4bfa-9f42-9441a63191ed"},"vehicle_type_id":"4","last_reported":1740773437,"current_range_meters":7200,"station_id":"ce4bhgh2rcd13ifvqfb0","pricing_plan_id":"cebpf4jnsgd1na2vs0mg"},{"bike_id":"17ddbbb5-11e9-4dea-8d48-8df35a23e77a","system_id":"levelo_inurba_marseille","lat":43.31752,"lon":5.39002,"is_reserved":false,"is_disabled":false,"rental_uris":{"android":"levelo://app?vid=17ddbbb5-11e9-4dea-8d48-8df35a23e77a","ios":"levelo://app?vid=17ddbbb5-11e9-4dea-8d48-8df35a23e77a"},"vehicle_type_id":"4","last_reported":1740773437,"current_range_meters":7200,"station_id":"ce4bhqp2rcd13ifvqhng","pricing_plan_id":"cebpf4jnsgd1na2vs0mg"},{"bike_id":"1d423b7c-95b0-4f07-a5c0-fe88800182f7","system_id":"levelo_inurba_marseille","lat":43.33141,"lon":5.38465,"is_reserved":false,"is_disabled":false,"rental_uris":{"android":"levelo://app?vid=1d423b7c-95b0-4f07-a5c0-fe88800182f7","ios":"levelo://app?vid=1d423b7c-95b0-4f07-a5c0-fe88800182f7"},"vehicle_type_id":"4","last_reported":1740773437,"current_range_meters":7200,"station_id":"","pricing_plan_id":"cebpf4jnsgd1na2vs0mg"},{"bike_id":"0e07936b-b5f4-4ce0-90ff-73c063994f1c","system_id":"levelo_inurba_marseille","lat":43.3048,"lon":5.37261,"is_reserved":false,"is_disabled":false,"rental_uris":{"android":"levelo://app?vid=0e07936b-b5f4-4ce0-90ff-73c063994f1c","ios":"levelo://app?vid=0e07936b-b5f4-4ce0-90ff-73c063994f1c"},"vehicle_type_id":"4","last_reported":1740773437,"current_range_meters":7200,"station_id":"","pricing_plan_id":"cebpf4jnsgd1na2vs0mg"},{"bike_id":"53c34a0f-a562-4dc0-ac3c-9f4add13ddbd","system_id":"levelo_inurba_marseille","lat":43.29435,"lon":5.38556,"is_reserved":false,"is_disabled":false,"rental_uris":{"android":"levelo://app?vid=53c34a0f-a562-4dc0-ac3c-9f4add13ddbd","ios":"levelo://app?vid=53c34a0f-a562-4dc0-ac3c-9f4add13ddbd"},"vehicle_type_id":"4","last_reported":1740773437,"current_range_meters":8000,"station_id":"","pricing_plan_id":"cebpf4jnsgd1na2vs0mg"},{"bike_id":"a778294d-9cff-431f-ba90-2a072d2892ce","system_id":"levelo_inurba_marseille","lat":43.29804,"lon":5.38085,"is_reserved":false,"is_disabled":false,"rental_uris":{"android":"levelo://app?vid=a778294d-9cff-431f-ba90-2a072d2892ce","ios":"levelo://app?vid=a778294d-9cff-431f-ba90-2a072d2892ce"},"vehicle_type_id":"4","last_reported":1740773437,"current_range_meters":8000,"station_id":"ce4bgip2rcd13ifvqbb0","pricing_plan_id":"cebpf4jnsgd1na2vs0mg"},{"bike_id":"9d9b41d9-5174-42ff-9e16-aeaa079a4d12","system_id":"levelo_inurba_marseille","lat":43.29301,"lon":5.37162,"is_reserved":false,"is_disabled":false,"rental_uris":{"android":"levelo://app?vid=9d9b41d9-5174-42ff-9e16-aeaa079a4d12","ios":"levelo://app?vid=9d9b41d9-5174-42ff-9e16-aeaa079a4d12"},"vehicle_type_id":"4","last_reported":1740773437,"current_range_meters":7200,"station_id":"ce4bgh92rcd13ifvqb40","pricing_plan_id":"cebpf4jnsgd1na2vs0mg"},{"bike_id":"121f184f-90a0-4e66-9d33-06a22d0922f3","system_id":"levelo_inurba_marseille","lat":43.24174,"lon":5.36392,"is_reserved":false,"is_disabled":false,"rental_uris":{"android":"levelo://app?vid=121f184f-90a0-4e66-9d33-06a22d0922f3","ios":"levelo://app?vid=121f184f-90a0-4e66-9d33-06a22d0922f3"},"vehicle_type_id":"4","last_reported":1740773437,"current_range_meters":8000,"station_id":"cpo36qri1sfpv3e86is0","pricing_plan_id":"cebpf4jnsgd1na2vs0mg"},{"bike_id":"9753fb54-7bac-4c39-b532-b7089220649f","system_id":"levelo_inurba_marseille","lat":43.3108,"lon":5.4243,"is_reserved":false,"is_disabled":false,"rental_uris":{"android":"levelo://app?vid=9753fb54-7bac-4c39-b532-b7089220649f","ios":"levelo://app?vid=9753fb54-7bac-4c39-b532-b7089220649f"},"vehicle_type_id":"4","last_reported":1740773437,"current_range_meters":8400,"station_id":"ce4bhp92rcd13ifvqhag","pricing_plan_id":"cebpf4jnsgd1na2vs0mg"},{"bike_id":"f26c35c1-6d74-4839-8620-0ecaba4ac374","system_id":"levelo_inurba_marseille","lat":43.25016,"lon":5.38927,"is_reserved":false,"is_disabled":false,"rental_uris":{"android":"levelo://app?vid=f26c35c1-6d74-4839-8620-0ecaba4ac374","ios":"levelo://app?vid=f26c35c1-6d74-4839-8620-0ecaba4ac374"},"vehicle_type_id":"4","last_reported":1740773437,"current_range_meters":8000,"station_id":"ce4bhgp2rcd13ifvqfd0","pricing_plan_id":"cebpf4jnsgd1na2vs0mg"},{"bike_id":"67ce8cfb-6f6b-425f-bc83-c1ca88627e6b","system_id":"levelo_inurba_marseille","lat":43.29272,"lon":5.37625,"is_reserved":false,"is_disabled":false,"rental_uris":{"android":"levelo://app?vid=67ce8cfb-6f6b-425f-bc83-c1ca88627e6b","ios":"levelo://app?vid=67ce8cfb-6f6b-425f-bc83-c1ca88627e6b"},"vehicle_type_id":"4","last_reported":1740773437,"current_range_meters":8000,"station_id":"ce4bgi12rcd13ifvqb80","pricing_plan_id":"cebpf4jnsgd1na2vs0mg"},{"bike_id":"2d71cf4a-3298-4a48-9dfc-8b54eaf616da","system_id":"levelo_inurba_marseille","lat":43.2918,"lon":5.37157,"is_reserved":false,"is_disabled":false,"rental_uris":{"android":"levelo://app?vid=2d71cf4a-3298-4a48-9dfc-8b54eaf616da","ios":"levelo://app?vid=2d71cf4a-3298-4a48-9dfc-8b54eaf616da"},"vehicle_type_id":"4","last_reported":1740773437,"current_range_meters":8000,"station_id":"ce4bha92rcd13ifvqeh0","pricing_plan_id":"cebpf4jnsgd1na2vs0mg"},{"bike_id":"0219ed6e-6822-497c-8a35-bb9f3a3b39b3","system_id":"levelo_inurba_marseille","lat":43.29531,"lon":5.38542,"is_reserved":false,"is_disabled":false,"rental_uris":{"android":"levelo://app?vid=0219ed6e-6822-497c-8a35-bb9f3a3b39b3","ios":"levelo://app?vid=0219ed6e-6822-497c-8a35-bb9f3a3b39b3"},"vehicle_type_id":"4","last_reported":1740773437,"current_range_meters":8000,"station_id":"ce4bgih2rcd13ifvqba0","pricing_plan_id":"cebpf4jnsgd1na2vs0mg"},{"bike_id":"634c495f-6c4d-4a4c-b3b7-5e3c81ecf24d","system_id":"levelo_inurba_marseille","lat":43.31696,"lon":5.40466,"is_reserved":false,"is_disabled":false,"rental_uris":{"android":"levelo://app?vid=634c495f-6c4d-4a4c-b3b7-5e3c81ecf24d","ios":"levelo://app?vid=634c495f-6c4d-4a4c-b3b7-5e3c81ecf24d"},"vehicle_type_id":"4","last_reported":1740773437,"current_range_meters":8000,"station_id":"ce4bh012rcd13ifvqd00","pricing_plan_id":"cebpf4jnsgd1na2vs0mg"},{"bike_id":"3aa07db6-a680-47d4-ba21-7f11b37b48eb","system_id":"levelo_inurba_marseille","lat":43.30325,"lon":5.40426,"is_reserved":false,"is_disabled":false,"rental_uris":{"android":"levelo://app?vid=3aa07db6-a680-47d4-ba21-7f11b37b48eb","ios":"levelo://app?vid=3aa07db6-a680-47d4-ba21-7f11b37b48eb"},"vehicle_type_id":"4","last_reported":1740773437,"current_range_meters":8400,"station_id":"ce4bh012rcd13ifvqd10","pricing_plan_id":"cebpf4jnsgd1na2vs0mg"},{"bike_id":"e28852fc-103f-4f46-980d-e603c1a05634","system_id":"levelo_inurba_marseille","lat":43.29925,"lon":5.38142,"is_reserved":false,"is_disabled":false,"rental_uris":{"android":"levelo://app?vid=e28852fc-103f-4f46-980d-e603c1a05634","ios":"levelo://app?vid=e28852fc-103f-4f46-980d-e603c1a05634"},"vehicle_type_id":"4","last_reported":1740773437,"current_range_meters":10800,"station_id":"ce4bgj12rcd13ifvqbc0","pricing_plan_id":"cebpf4jnsgd1na2vs0mg"},{"bike_id":"ef666cfc-335a-4baa-9e19-829dac74fe60","system_id":"levelo_inurba_marseille","lat":43.29305,"lon":5.37456,"is_reserved":false,"is_disabled":false,"rental_uris":{"android":"levelo://app?vid=ef666cfc-335a-4baa-9e19-829dac74fe60","ios":"levelo://app?vid=ef666cfc-335a-4baa-9e19-829dac74fe60"},"vehicle_type_id":"4","last_reported":1740773437,"current_range_meters":8400,"station_id":"ce4bgi12rcd13ifvqb70","pricing_plan_id":"cebpf4jnsgd1na2vs0mg"},{"bike_id":"cdca0976-9734-442b-a2c0-d541a74466e5","system_id":"levelo_inurba_marseille","lat":43.29224,"lon":5.36067,"is_reserved":false,"is_disabled":false,"rental_uris":{"android":"levelo://app?vid=cdca0976-9734-442b-a2c0-d541a74466e5","ios":"levelo://app?vid=cdca0976-9734-442b-a2c0-d541a74466e5"},"vehicle_type_id":"4","last_reported":1740773437,"current_range_meters":8400,"station_id":"ce4bhbh2rcd13ifvqeqg","pricing_plan_id":"cebpf4jnsgd1na2vs0mg"},{"bike_id":"caf90157-4bcd-495d-b5e3-0a27e53b9e57","system_id":"levelo_inurba_marseille","lat":43.29803,"lon":5.38088,"is_reserved":false,"is_disabled":false,"rental_uris":{"android":"levelo://app?vid=caf90157-4bcd-495d-b5e3-0a27e53b9e57","ios":"levelo://app?vid=caf90157-4bcd-495d-b5e3-0a27e53b9e57"},"vehicle_type_id":"4","last_reported":1740773437,"current_range_meters":8400,"station_id":"ce4bgip2rcd13ifvqbb0","pricing_plan_id":"cebpf4jnsgd1na2vs0mg"},{"bike_id":"a841825f-d30a-4442-aacf-c20d378ce259","system_id":"levelo_inurba_marseille","lat":43.28002,"lon":5.40012,"is_reserved":false,"is_disabled":false,"rental_uris":{"android":"levelo://app?vid=a841825f-d30a-4442-aacf-c20d378ce259","ios":"levelo://app?vid=a841825f-d30a-4442-aacf-c20d378ce259"},"vehicle_type_id":"4","last_reported":1740773437,"current_range_meters":8000,"station_id":"ce4bho92rcd13ifvqh4g","pricing_plan_id":"cebpf4jnsgd1na2vs0mg"},{"bike_id":"b3393aa5-a744-4cfd-9faa-18e8fb2b7184","system_id":"levelo_inurba_marseille","lat":43.265,"lon":5.39537,"is_reserved":false,"is_disabled":false,"rental_uris":{"android":"levelo://app?vid=b3393aa5-a744-4cfd-9faa-18e8fb2b7184","ios":"levelo://app?vid=b3393aa5-a744-4cfd-9faa-18e8fb2b7184"},"vehicle_type_id":"4","last_reported":1740773437,"current_range_meters":8400,"station_id":"ce4bhi12rcd13ifvqfq0","pricing_plan_id":"cebpf4jnsgd1na2vs0mg"},{"bike_id":"32028d2a-d834-4678-a648-cf11d05314f9","system_id":"levelo_inurba_marseille","lat":43.292391,"lon":5.39666,"is_reserved":false,"is_disabled":false,"rental_uris":{"android":"levelo://app?vid=32028d2a-d834-4678-a648-cf11d05314f9","ios":"levelo://app?vid=32028d2a-d834-4678-a648-cf11d05314f9"},"vehicle_type_id":"4","last_reported":1740773437,"current_range_meters":8400,"station_id":"ce4bhah2rcd13ifvqej0","pricing_plan_id":"cebpf4jnsgd1na2vs0mg"},{"bike_id":"ac7b203d-d8fa-4429-8571-7591c246f7d3","system_id":"levelo_inurba_marseille","lat":43.27834,"lon":5.40768,"is_reserved":false,"is_disabled":false,"rental_uris":{"android":"levelo://app?vid=ac7b203d-d8fa-4429-8571-7591c246f7d3","ios":"levelo://app?vid=ac7b203d-d8fa-4429-8571-7591c246f7d3"},"vehicle_type_id":"4","last_reported":1740773437,"current_range_meters":7200,"station_id":"ce4bhnh2rcd13ifvqgtg","pricing_plan_id":"cebpf4jnsgd1na2vs0mg"},{"bike_id":"1e97b9f7-9056-4243-a9b1-b64c1a485da0","system_id":"levelo_inurba_marseille","lat":43.29259,"lon":5.38431,"is_reserved":false,"is_disabled":false,"rental_uris":{"android":"levelo://app?vid=1e97b9f7-9056-4243-a9b1-b64c1a485da0","ios":"levelo://app?vid=1e97b9f7-9056-4243-a9b1-b64c1a485da0"},"vehicle_type_id":"4","last_reported":1740773437,"current_range_meters":8800,"station_id":"ce4bh692rcd13ifvqea0","pricing_plan_id":"cebpf4jnsgd1na2vs0mg"},{"bike_id":"cdb49f82-26f4-4ee1-ba90-4d28297e46cc","system_id":"levelo_inurba_marseille","lat":43.293096,"lon":5.371665,"is_reserved":false,"is_disabled":false,"rental_uris":{"android":"levelo://app?vid=cdb49f82-26f4-4ee1-ba90-4d28297e46cc","ios":"levelo://app?vid=cdb49f82-26f4-4ee1-ba90-4d28297e46cc"},"vehicle_type_id":"4","last_reported":1740773437,"current_range_meters":8400,"station_id":"ce4bgh92rcd13ifvqb40","pricing_plan_id":"cebpf4jnsgd1na2vs0mg"},{"bike_id":"3de9aeda-1f9a-4bbc-8b90-e02a49e56ca9","system_id":"levelo_inurba_marseille","lat":43.23194,"lon":5.35549,"is_reserved":false,"is_disabled":false,"rental_uris":{"android":"levelo://app?vid=3de9aeda-1f9a-4bbc-8b90-e02a49e56ca9","ios":"levelo://app?vid=3de9aeda-1f9a-4bbc-8b90-e02a49e56ca9"},"vehicle_type_id":"4","last_reported":1740773437,"current_range_meters":8400,"station_id":"ce4bhu92rcd13ifvqi70","pricing_plan_id":"cebpf4jnsgd1na2vs0mg"},{"bike_id":"0d40d1d7-678a-4db1-ac1a-82ed36dc516e","system_id":"levelo_inurba_marseille","lat":43.289029,"lon":5.358396,"is_reserved":false,"is_disabled":false,"rental_uris":{"android":"levelo://app?vid=0d40d1d7-678a-4db1-ac1a-82ed36dc516e","ios":"levelo://app?vid=0d40d1d7-678a-4db1-ac1a-82ed36dc516e"},"vehicle_type_id":"4","last_reported":1740773437,"current_range_meters":8400,"station_id":"ce4bhch2rcd13ifvqeug","pricing_plan_id":"cebpf4jnsgd1na2vs0mg"},{"bike_id":"a17c7479-4cb9-4dac-bdfb-ea7d9b9e1277","system_id":"levelo_inurba_marseille","lat":43.29039,"lon":5.38644,"is_reserved":false,"is_disabled":false,"rental_uris":{"android":"levelo://app?vid=a17c7479-4cb9-4dac-bdfb-ea7d9b9e1277","ios":"levelo://app?vid=a17c7479-4cb9-4dac-bdfb-ea7d9b9e1277"},"vehicle_type_id":"4","last_reported":1740773437,"current_range_meters":8400,"station_id":"ce4bh4p2rcd13ifvqe0g","pricing_plan_id":"cebpf4jnsgd1na2vs0mg"},{"bike_id":"6d66fc76-1515-4e1f-83bc-5db27ddc8a03","system_id":"levelo_inurba_marseille","lat":43.24805,"lon":5.37451,"is_reserved":false,"is_disabled":false,"rental_uris":{"android":"levelo://app?vid=6d66fc76-1515-4e1f-83bc-5db27ddc8a03","ios":"levelo://app?vid=6d66fc76-1515-4e1f-83bc-5db27ddc8a03"},"vehicle_type_id":"4","last_reported":1740773437,"current_range_meters":8800,"station_id":"ce4bhgh2rcd13ifvqfb0","pricing_plan_id":"cebpf4jnsgd1na2vs0mg"},{"bike_id":"9133aa9f-1fe1-4d82-86fe-901632455e42","system_id":"levelo_inurba_marseille","lat":43.31272,"lon":5.40168,"is_reserved":false,"is_disabled":false,"rental_uris":{"android":"levelo://app?vid=9133aa9f-1fe1-4d82-86fe-901632455e42","ios":"levelo://app?vid=9133aa9f-1fe1-4d82-86fe-901632455e42"},"vehicle_type_id":"4","last_reported":1740773437,"current_range_meters":11600,"station_id":"ce4bh092rcd13ifvqd30","pricing_plan_id":"cebpf4jnsgd1na2vs0mg"},{"bike_id":"bd41a143-67f2-40b0-aad9-d5db494062ac","system_id":"levelo_inurba_marseille","lat":43.29233,"lon":5.38441,"is_reserved":false,"is_disabled":false,"rental_uris":{"android":"levelo://app?vid=bd41a143-67f2-40b0-aad9-d5db494062ac","ios":"levelo://app?vid=bd41a143-67f2-40b0-aad9-d5db494062ac"},"vehicle_type_id":"4","last_reported":1740773437,"current_range_meters":8400,"station_id":"ce4bh692rcd13ifvqea0","pricing_plan_id":"cebpf4jnsgd1na2vs0mg"},{"bike_id":"cb288c15-1b23-43b2-813e-596172e3e2de","system_id":"levelo_inurba_marseille","lat":43.25003,"lon":5.38925,"is_reserved":false,"is_disabled":false,"rental_uris":{"android":"levelo://app?vid=cb288c15-1b23-43b2-813e-596172e3e2de","ios":"levelo://app?vid=cb288c15-1b23-43b2-813e-596172e3e2de"},"vehicle_type_id":"4","last_reported":1740773437,"current_range_meters":8800,"station_id":"ce4bhgp2rcd13ifvqfd0","pricing_plan_id":"cebpf4jnsgd1na2vs0mg"},{"bike_id":"ea9cf9d7-7341-4809-8dba-dc2ffdbb0198","system_id":"levelo_inurba_marseille","lat":43.27897,"lon":5.38012,"is_reserved":false,"is_disabled":false,"rental_uris":{"android":"levelo://app?vid=ea9cf9d7-7341-4809-8dba-dc2ffdbb0198","ios":"levelo://app?vid=ea9cf9d7-7341-4809-8dba-dc2ffdbb0198"},"vehicle_type_id":"4","last_reported":1740773437,"current_range_meters":9200,"station_id":"ce4bhf92rcd13ifvqf50","pricing_plan_id":"cebpf4jnsgd1na2vs0mg"},{"bike_id":"86fa9070-c842-4442-ac3f-c66446720b12","system_id":"levelo_inurba_marseille","lat":43.29317,"lon":5.37495,"is_reserved":false,"is_disabled":false,"rental_uris":{"android":"levelo://app?vid=86fa9070-c842-4442-ac3f-c66446720b12","ios":"levelo://app?vid=86fa9070-c842-4442-ac3f-c66446720b12"},"vehicle_type_id":"4","last_reported":1740773437,"current_range_meters":9200,"station_id":"ce4bgi12rcd13ifvqb70","pricing_plan_id":"cebpf4jnsgd1na2vs0mg"},{"bike_id":"d4918d6a-5525-4be8-b0c4-7af64b54343d","system_id":"levelo_inurba_marseille","lat":43.24169,"lon":5.36451,"is_reserved":false,"is_disabled":false,"rental_uris":{"android":"levelo://app?vid=d4918d6a-5525-4be8-b0c4-7af64b54343d","ios":"levelo://app?vid=d4918d6a-5525-4be8-b0c4-7af64b54343d"},"vehicle_type_id":"4","last_reported":1740773437,"current_range_meters":9200,"station_id":"cpo36qri1sfpv3e86is0","pricing_plan_id":"cebpf4jnsgd1na2vs0mg"},{"bike_id":"4b4f56ce-0d7e-4aab-a7d2-f0a45705badc","system_id":"levelo_inurba_marseille","lat":43.30414,"lon":5.38808,"is_reserved":false,"is_disabled":false,"rental_uris":{"android":"levelo://app?vid=4b4f56ce-0d7e-4aab-a7d2-f0a45705badc","ios":"levelo://app?vid=4b4f56ce-0d7e-4aab-a7d2-f0a45705badc"},"vehicle_type_id":"4","last_reported":1740773437,"current_range_meters":9200,"station_id":"","pricing_plan_id":"cebpf4jnsgd1na2vs0mg"},{"bike_id":"39579231-8ce6-4a5b-b482-2d7962bedf1a","system_id":"levelo_inurba_marseille","lat":43.23179,"lon":5.39986,"is_reserved":false,"is_disabled":false,"rental_uris":{"android":"levelo://app?vid=39579231-8ce6-4a5b-b482-2d7962bedf1a","ios":"levelo://app?vid=39579231-8ce6-4a5b-b482-2d7962bedf1a"},"vehicle_type_id":"4","last_reported":1740773437,"current_range_meters":9200,"station_id":"ce4bhn12rcd13ifvqgqg","pricing_plan_id":"cebpf4jnsgd1na2vs0mg"},{"bike_id":"d1c5c859-8e75-4522-b064-87fcbfcc29a3","system_id":"levelo_inurba_marseille","lat":43.30216,"lon":5.39458,"is_reserved":false,"is_disabled":false,"rental_uris":{"android":"levelo://app?vid=d1c5c859-8e75-4522-b064-87fcbfcc29a3","ios":"levelo://app?vid=d1c5c859-8e75-4522-b064-87fcbfcc29a3"},"vehicle_type_id":"4","last_reported":1740773437,"current_range_meters":9200,"station_id":"ce4bh0p2rcd13ifvqd70","pricing_plan_id":"cebpf4jnsgd1na2vs0mg"},{"bike_id":"620ba232-2d97-4cfe-bdaf-3a50962fd2de","system_id":"levelo_inurba_marseille","lat":43.27831,"lon":5.40718,"is_reserved":false,"is_disabled":false,"rental_uris":{"android":"levelo://app?vid=620ba232-2d97-4cfe-bdaf-3a50962fd2de","ios":"levelo://app?vid=620ba232-2d97-4cfe-bdaf-3a50962fd2de"},"vehicle_type_id":"4","last_reported":1740773437,"current_range_meters":9200,"station_id":"ce4bhnh2rcd13ifvqgtg","pricing_plan_id":"cebpf4jnsgd1na2vs0mg"},{"bike_id":"b5ac1df3-a429-4448-9b70-4c6f858f3007","system_id":"levelo_inurba_marseille","lat":43.29265,"lon":5.38454,"is_reserved":false,"is_disabled":false,"rental_uris":{"android":"levelo://app?vid=b5ac1df3-a429-4448-9b70-4c6f858f3007","ios":"levelo://app?vid=b5ac1df3-a429-4448-9b70-4c6f858f3007"},"vehicle_type_id":"4","last_reported":1740773437,"current_range_meters":10800,"station_id":"ce4bh692rcd13ifvqea0","pricing_plan_id":"cebpf4jnsgd1na2vs0mg"},{"bike_id":"f22fb1ab-e85d-41f7-bc66-a99f02198d4d","system_id":"levelo_inurba_marseille","lat":43.27994,"lon":5.4002,"is_reserved":false,"is_disabled":false,"rental_uris":{"android":"levelo://app?vid=f22fb1ab-e85d-41f7-bc66-a99f02198d4d","ios":"levelo://app?vid=f22fb1ab-e85d-41f7-bc66-a99f02198d4d"},"vehicle_type_id":"4","last_reported":1740773437,"current_range_meters":9600,"station_id":"ce4bho92rcd13ifvqh4g","pricing_plan_id":"cebpf4jnsgd1na2vs0mg"},{"bike_id":"62e07eef-5db6-4a16-a521-b54f5f9ad73a","system_id":"levelo_inurba_marseille","lat":43.29944,"lon":5.36535,"is_reserved":false,"is_disabled":false,"rental_uris":{"android":"levelo://app?vid=62e07eef-5db6-4a16-a521-b54f5f9ad73a","ios":"levelo://app?vid=62e07eef-5db6-4a16-a521-b54f5f9ad73a"},"vehicle_type_id":"4","last_reported":1740773437,"current_range_meters":9200,"station_id":"ce4bgm92rcd13ifvqbr0","pricing_plan_id":"cebpf4jnsgd1na2vs0mg"},{"bike_id":"74def386-48c7-42dd-9674-8b31955da3b5","system_id":"levelo_inurba_marseille","lat":43.31311,"lon":5.37339,"is_reserved":false,"is_disabled":false,"rental_uris":{"android":"levelo://app?vid=74def386-48c7-42dd-9674-8b31955da3b5","ios":"levelo://app?vid=74def386-48c7-42dd-9674-8b31955da3b5"},"vehicle_type_id":"4","last_reported":1740773437,"current_range_meters":13600,"station_id":"","pricing_plan_id":"cebpf4jnsgd1na2vs0mg"},{"bike_id":"53b23b24-07e8-4870-8ab7-c63d39038125","system_id":"levelo_inurba_marseille","lat":43.2941,"lon":5.38609,"is_reserved":false,"is_disabled":true,"rental_uris":{"android":"levelo://app?vid=53b23b24-07e8-4870-8ab7-c63d39038125","ios":"levelo://app?vid=53b23b24-07e8-4870-8ab7-c63d39038125"},"vehicle_type_id":"4","last_reported":1740773437,"current_range_meters":9200,"station_id":"ce4bh2h2rcd13ifvqdh0","pricing_plan_id":"cebpf4jnsgd1na2vs0mg"},{"bike_id":"04637487-bba0-4fc3-b487-91b0966835a6","system_id":"levelo_inurba_marseille","lat":43.25004,"lon":5.38929,"is_reserved":false,"is_disabled":false,"rental_uris":{"android":"levelo://app?vid=04637487-bba0-4fc3-b487-91b0966835a6","ios":"levelo://app?vid=04637487-bba0-4fc3-b487-91b0966835a6"},"vehicle_type_id":"4","last_reported":1740773437,"current_range_meters":9600,"station_id":"ce4bhgp2rcd13ifvqfd0","pricing_plan_id":"cebpf4jnsgd1na2vs0mg"},{"bike_id":"8c2e7de9-89d9-4592-807f-0e27817d0c30","system_id":"levelo_inurba_marseille","lat":43.30437,"lon":5.39789,"is_reserved":false,"is_disabled":false,"rental_uris":{"android":"levelo://app?vid=8c2e7de9-89d9-4592-807f-0e27817d0c30","ios":"levelo://app?vid=8c2e7de9-89d9-4592-807f-0e27817d0c30"},"vehicle_type_id":"4","last_reported":1740773437,"current_range_meters":14000,"station_id":"ce4bh092rcd13ifvqd20","pricing_plan_id":"cebpf4jnsgd1na2vs0mg"},{"bike_id":"1546db8b-0b40-429b-a5dc-dba9e039b1b5","system_id":"levelo_inurba_marseille","lat":43.29035,"lon":5.37568,"is_reserved":false,"is_disabled":false,"rental_uris":{"android":"levelo://app?vid=1546db8b-0b40-429b-a5dc-dba9e039b1b5","ios":"levelo://app?vid=1546db8b-0b40-429b-a5dc-dba9e039b1b5"},"vehicle_type_id":"4","last_reported":1740773437,"current_range_meters":8400,"station_id":"ce4bh692rcd13ifvqe90","pricing_plan_id":"cebpf4jnsgd1na2vs0mg"},{"bike_id":"1c76862c-aff0-4beb-be2e-65b2c2294c68","system_id":"levelo_inurba_marseille","lat":43.2953,"lon":5.38535,"is_reserved":false,"is_disabled":false,"rental_uris":{"android":"levelo://app?vid=1c76862c-aff0-4beb-be2e-65b2c2294c68","ios":"levelo://app?vid=1c76862c-aff0-4beb-be2e-65b2c2294c68"},"vehicle_type_id":"4","last_reported":1740773437,"current_range_meters":9600,"station_id":"ce4bgih2rcd13ifvqba0","pricing_plan_id":"cebpf4jnsgd1na2vs0mg"},{"bike_id":"54394c7d-546e-41f8-8f73-303dbf8df627","system_id":"levelo_inurba_marseille","lat":43.26927,"lon":5.38917,"is_reserved":false,"is_disabled":false,"rental_uris":{"android":"levelo://app?vid=54394c7d-546e-41f8-8f73-303dbf8df627","ios":"levelo://app?vid=54394c7d-546e-41f8-8f73-303dbf8df627"},"vehicle_type_id":"4","last_reported":1740773437,"current_range_meters":9600,"station_id":"ce4bhhh2rcd13ifvqfl0","pricing_plan_id":"cebpf4jnsgd1na2vs0mg"},{"bike_id":"ede0b108-363e-4e9e-846d-3838edc31275","system_id":"levelo_inurba_marseille","lat":43.28673,"lon":5.38664,"is_reserved":false,"is_disabled":false,"rental_uris":{"android":"levelo://app?vid=ede0b108-363e-4e9e-846d-3838edc31275","ios":"levelo://app?vid=ede0b108-363e-4e9e-846d-3838edc31275"},"vehicle_type_id":"4","last_reported":1740773437,"current_range_meters":9600,"station_id":"ce4bh492rcd13ifvqdug","pricing_plan_id":"cebpf4jnsgd1na2vs0mg"},{"bike_id":"4c7c87ec-d55c-4e88-ac69-3b177e9e9755","system_id":"levelo_inurba_marseille","lat":43.29622,"lon":5.37152,"is_reserved":false,"is_disabled":false,"rental_uris":{"android":"levelo://app?vid=4c7c87ec-d55c-4e88-ac69-3b177e9e9755","ios":"levelo://app?vid=4c7c87ec-d55c-4e88-ac69-3b177e9e9755"},"vehicle_type_id":"4","last_reported":1740773437,"current_range_meters":9200,"station_id":"ce4bgnh2rcd13ifvqc0g","pricing_plan_id":"cebpf4jnsgd1na2vs0mg"},{"bike_id":"749fee80-dfaa-43de-aa58-d21bbf5e0792","system_id":"levelo_inurba_marseille","lat":43.23185,"lon":5.39992,"is_reserved":false,"is_disabled":false,"rental_uris":{"android":"levelo://app?vid=749fee80-dfaa-43de-aa58-d21bbf5e0792","ios":"levelo://app?vid=749fee80-dfaa-43de-aa58-d21bbf5e0792"},"vehicle_type_id":"4","last_reported":1740773437,"current_range_meters":9600,"station_id":"ce4bhn12rcd13ifvqgqg","pricing_plan_id":"cebpf4jnsgd1na2vs0mg"},{"bike_id":"4b7d95b1-35d3-47cc-a9b5-4ba973f3cafd","system_id":"levelo_inurba_marseille","lat":43.24825,"lon":5.37449,"is_reserved":false,"is_disabled":false,"rental_uris":{"android":"levelo://app?vid=4b7d95b1-35d3-47cc-a9b5-4ba973f3cafd","ios":"levelo://app?vid=4b7d95b1-35d3-47cc-a9b5-4ba973f3cafd"},"vehicle_type_id":"4","last_reported":1740773437,"current_range_meters":9600,"station_id":"ce4bhgh2rcd13ifvqfb0","pricing_plan_id":"cebpf4jnsgd1na2vs0mg"},{"bike_id":"c2a3fb9d-e5b2-4210-ae32-e09c58a9c5c2","system_id":"levelo_inurba_marseille","lat":43.28924,"lon":5.38396,"is_reserved":false,"is_disabled":false,"rental_uris":{"android":"levelo://app?vid=c2a3fb9d-e5b2-4210-ae32-e09c58a9c5c2","ios":"levelo://app?vid=c2a3fb9d-e5b2-4210-ae32-e09c58a9c5c2"},"vehicle_type_id":"4","last_reported":1740773437,"current_range_meters":9600,"station_id":"ce4bh612rcd13ifvqe6g","pricing_plan_id":"cebpf4jnsgd1na2vs0mg"},{"bike_id":"07218d0c-edee-4927-8301-a0b5a1c7809f","system_id":"levelo_inurba_marseille","lat":43.25571,"lon":5.38245,"is_reserved":false,"is_disabled":false,"rental_uris":{"android":"levelo://app?vid=07218d0c-edee-4927-8301-a0b5a1c7809f","ios":"levelo://app?vid=07218d0c-edee-4927-8301-a0b5a1c7809f"},"vehicle_type_id":"4","last_reported":1740773437,"current_range_meters":9600,"station_id":"ce4bhih2rcd13ifvqfs0","pricing_plan_id":"cebpf4jnsgd1na2vs0mg"},{"bike_id":"5058abfc-fb20-4754-8bb3-466da663ac91","system_id":"levelo_inurba_marseille","lat":43.29421,"lon":5.38619,"is_reserved":false,"is_disabled":false,"rental_uris":{"android":"levelo://app?vid=5058abfc-fb20-4754-8bb3-466da663ac91","ios":"levelo://app?vid=5058abfc-fb20-4754-8bb3-466da663ac91"},"vehicle_type_id":"4","last_reported":1740773437,"current_range_meters":9600,"station_id":"ce4bh2h2rcd13ifvqdh0","pricing_plan_id":"cebpf4jnsgd1na2vs0mg"},{"bike_id":"4ef5cbd6-ce49-4406-8a58-ebed28d1e4a1","system_id":"levelo_inurba_marseille","lat":43.29422,"lon":5.38626,"is_reserved":false,"is_disabled":false,"rental_uris":{"android":"levelo://app?vid=4ef5cbd6-ce49-4406-8a58-ebed28d1e4a1","ios":"levelo://app?vid=4ef5cbd6-ce49-4406-8a58-ebed28d1e4a1"},"vehicle_type_id":"4","last_reported":1740773437,"current_range_meters":9600,"station_id":"ce4bh2h2rcd13ifvqdh0","pricing_plan_id":"cebpf4jnsgd1na2vs0mg"},{"bike_id":"46d6a4ab-dd97-45f7-8195-fa3e3f8cb4da","system_id":"levelo_inurba_marseille","lat":43.31373,"lon":5.38506,"is_reserved":false,"is_disabled":false,"rental_uris":{"android":"levelo://app?vid=46d6a4ab-dd97-45f7-8195-fa3e3f8cb4da","ios":"levelo://app?vid=46d6a4ab-dd97-45f7-8195-fa3e3f8cb4da"},"vehicle_type_id":"4","last_reported":1740773437,"current_range_meters":10000,"station_id":"ce4bgt92rcd13ifvqcf0","pricing_plan_id":"cebpf4jnsgd1na2vs0mg"},{"bike_id":"c776e964-75a1-4343-b453-0b5fc1f76818","system_id":"levelo_inurba_marseille","lat":43.33476,"lon":5.38166,"is_reserved":false,"is_disabled":false,"rental_uris":{"android":"levelo://app?vid=c776e964-75a1-4343-b453-0b5fc1f76818","ios":"levelo://app?vid=c776e964-75a1-4343-b453-0b5fc1f76818"},"vehicle_type_id":"4","last_reported":1740773437,"current_range_meters":10000,"station_id":"","pricing_plan_id":"cebpf4jnsgd1na2vs0mg"},{"bike_id":"f35f5d39-c6cc-48ad-aff8-bf92702abefd","system_id":"levelo_inurba_marseille","lat":43.2926,"lon":5.38443,"is_reserved":false,"is_disabled":false,"rental_uris":{"android":"levelo://app?vid=f35f5d39-c6cc-48ad-aff8-bf92702abefd","ios":"levelo://app?vid=f35f5d39-c6cc-48ad-aff8-bf92702abefd"},"vehicle_type_id":"4","last_reported":1740773437,"current_range_meters":16400,"station_id":"ce4bh692rcd13ifvqea0","pricing_plan_id":"cebpf4jnsgd1na2vs0mg"},{"bike_id":"7c7cfd37-ef03-4017-8a6f-03e7b17cd25f","system_id":"levelo_inurba_marseille","lat":43.29295,"lon":5.3746,"is_reserved":false,"is_disabled":false,"rental_uris":{"android":"levelo://app?vid=7c7cfd37-ef03-4017-8a6f-03e7b17cd25f","ios":"levelo://app?vid=7c7cfd37-ef03-4017-8a6f-03e7b17cd25f"},"vehicle_type_id":"4","last_reported":1740773437,"current_range_meters":10000,"station_id":"ce4bgi12rcd13ifvqb70","pricing_plan_id":"cebpf4jnsgd1na2vs0mg"},{"bike_id":"d5468aad-116b-4925-85e0-f6f4ad78214e","system_id":"levelo_inurba_marseille","lat":43.29029,"lon":5.38637,"is_reserved":false,"is_disabled":false,"rental_uris":{"android":"levelo://app?vid=d5468aad-116b-4925-85e0-f6f4ad78214e","ios":"levelo://app?vid=d5468aad-116b-4925-85e0-f6f4ad78214e"},"vehicle_type_id":"4","last_reported":1740773437,"current_range_meters":10800,"station_id":"ce4bh4p2rcd13ifvqe0g","pricing_plan_id":"cebpf4jnsgd1na2vs0mg"},{"bike_id":"583c93d8-f92a-4aad-931b-edc253df8745","system_id":"levelo_inurba_marseille","lat":43.29311,"lon":5.37432,"is_reserved":false,"is_disabled":false,"rental_uris":{"android":"levelo://app?vid=583c93d8-f92a-4aad-931b-edc253df8745","ios":"levelo://app?vid=583c93d8-f92a-4aad-931b-edc253df8745"},"vehicle_type_id":"4","last_reported":1740773437,"current_range_meters":10000,"station_id":"ce4bgi12rcd13ifvqb70","pricing_plan_id":"cebpf4jnsgd1na2vs0mg"},{"bike_id":"043adab2-2d45-4e01-b73b-65d7b9e3d873","system_id":"levelo_inurba_marseille","lat":43.26553,"lon":5.37288,"is_reserved":false,"is_disabled":false,"rental_uris":{"android":"levelo://app?vid=043adab2-2d45-4e01-b73b-65d7b9e3d873","ios":"levelo://app?vid=043adab2-2d45-4e01-b73b-65d7b9e3d873"},"vehicle_type_id":"4","last_reported":1740773437,"current_range_meters":11600,"station_id":"ce4bhg12rcd13ifvqf70","pricing_plan_id":"cebpf4jnsgd1na2vs0mg"},{"bike_id":"87e93e74-8cd3-44d1-b4df-fd004e9d2d43","system_id":"levelo_inurba_marseille","lat":43.28113,"lon":5.37844,"is_reserved":false,"is_disabled":false,"rental_uris":{"android":"levelo://app?vid=87e93e74-8cd3-44d1-b4df-fd004e9d2d43","ios":"levelo://app?vid=87e93e74-8cd3-44d1-b4df-fd004e9d2d43"},"vehicle_type_id":"4","last_reported":1740773437,"current_range_meters":10000,"station_id":"ce4bha12rcd13ifvqee0","pricing_plan_id":"cebpf4jnsgd1na2vs0mg"},{"bike_id":"43d6aa6f-20c7-4a1b-bcb8-31b660876567","system_id":"levelo_inurba_marseille","lat":43.265569,"lon":5.372878,"is_reserved":false,"is_disabled":false,"rental_uris":{"android":"levelo://app?vid=43d6aa6f-20c7-4a1b-bcb8-31b660876567","ios":"levelo://app?vid=43d6aa6f-20c7-4a1b-bcb8-31b660876567"},"vehicle_type_id":"4","last_reported":1740773437,"current_range_meters":10800,"station_id":"ce4bhg12rcd13ifvqf70","pricing_plan_id":"cebpf4jnsgd1na2vs0mg"},{"bike_id":"2ab4f873-f38e-49d9-a2a6-1ffa83b0ac8b","system_id":"levelo_inurba_marseille","lat":43.292942,"lon":5.374634,"is_reserved":false,"is_disabled":false,"rental_uris":{"android":"levelo://app?vid=2ab4f873-f38e-49d9-a2a6-1ffa83b0ac8b","ios":"levelo://app?vid=2ab4f873-f38e-49d9-a2a6-1ffa83b0ac8b"},"vehicle_type_id":"4","last_reported":1740773437,"current_range_meters":10000,"station_id":"ce4bhn92rcd13ifvqgrg","pricing_plan_id":"cebpf4jnsgd1na2vs0mg"},{"bike_id":"26cc7840-ae0e-4bb3-b632-324d66a8f696","system_id":"levelo_inurba_marseille","lat":43.29153,"lon":5.47851,"is_reserved":false,"is_disabled":false,"rental_uris":{"android":"levelo://app?vid=26cc7840-ae0e-4bb3-b632-324d66a8f696","ios":"levelo://app?vid=26cc7840-ae0e-4bb3-b632-324d66a8f696"},"vehicle_type_id":"4","last_reported":1740773437,"current_range_meters":10800,"station_id":"","pricing_plan_id":"cebpf4jnsgd1na2vs0mg"},{"bike_id":"3f5e4c77-943b-4a46-b257-614bf13afec4","system_id":"levelo_inurba_marseille","lat":43.24151,"lon":5.36368,"is_reserved":false,"is_disabled":false,"rental_uris":{"android":"levelo://app?vid=3f5e4c77-943b-4a46-b257-614bf13afec4","ios":"levelo://app?vid=3f5e4c77-943b-4a46-b257-614bf13afec4"},"vehicle_type_id":"4","last_reported":1740773437,"current_range_meters":10800,"station_id":"cpo36qri1sfpv3e86is0","pricing_plan_id":"cebpf4jnsgd1na2vs0mg"},{"bike_id":"6f1b72f4-7c77-472c-b611-396452c0bad3","system_id":"levelo_inurba_marseille","lat":43.28566,"lon":5.39502,"is_reserved":false,"is_disabled":false,"rental_uris":{"android":"levelo://app?vid=6f1b72f4-7c77-472c-b611-396452c0bad3","ios":"levelo://app?vid=6f1b72f4-7c77-472c-b611-396452c0bad3"},"vehicle_type_id":"4","last_reported":1740773437,"current_range_meters":10800,"station_id":"ce4bh292rcd13ifvqdg0","pricing_plan_id":"cebpf4jnsgd1na2vs0mg"},{"bike_id":"33221780-14d8-4fe2-9e59-1af2399ca364","system_id":"levelo_inurba_marseille","lat":43.31723,"lon":5.42394,"is_reserved":false,"is_disabled":false,"rental_uris":{"android":"levelo://app?vid=33221780-14d8-4fe2-9e59-1af2399ca364","ios":"levelo://app?vid=33221780-14d8-4fe2-9e59-1af2399ca364"},"vehicle_type_id":"4","last_reported":1740773437,"current_range_meters":10800,"station_id":"ce4bhp92rcd13ifvqhbg","pricing_plan_id":"cebpf4jnsgd1na2vs0mg"},{"bike_id":"be42606a-2aba-414f-96b3-5743090e9515","system_id":"levelo_inurba_marseille","lat":43.27936,"lon":5.41052,"is_reserved":false,"is_disabled":false,"rental_uris":{"android":"levelo://app?vid=be42606a-2aba-414f-96b3-5743090e9515","ios":"levelo://app?vid=be42606a-2aba-414f-96b3-5743090e9515"},"vehicle_type_id":"4","last_reported":1740773437,"current_range_meters":11600,"station_id":"ce4bhnp2rcd13ifvqh0g","pricing_plan_id":"cebpf4jnsgd1na2vs0mg"},{"bike_id":"ac67d928-4a24-4236-8089-573452e05424","system_id":"levelo_inurba_marseille","lat":43.29313,"lon":5.37456,"is_reserved":false,"is_disabled":false,"rental_uris":{"android":"levelo://app?vid=ac67d928-4a24-4236-8089-573452e05424","ios":"levelo://app?vid=ac67d928-4a24-4236-8089-573452e05424"},"vehicle_type_id":"4","last_reported":1740773437,"current_range_meters":11200,"station_id":"ce4bgi12rcd13ifvqb70","pricing_plan_id":"cebpf4jnsgd1na2vs0mg"},{"bike_id":"f1d37ba4-349d-45f6-a07c-0f6812391dec","system_id":"levelo_inurba_marseille","lat":43.31383,"lon":5.38494,"is_reserved":false,"is_disabled":false,"rental_uris":{"android":"levelo://app?vid=f1d37ba4-349d-45f6-a07c-0f6812391dec","ios":"levelo://app?vid=f1d37ba4-349d-45f6-a07c-0f6812391dec"},"vehicle_type_id":"4","last_reported":1740773437,"current_range_meters":11200,"station_id":"ce4bgt92rcd13ifvqcf0","pricing_plan_id":"cebpf4jnsgd1na2vs0mg"},{"bike_id":"dc7481a4-16ff-4efc-b4bf-8cb2aef63c84","system_id":"levelo_inurba_marseille","lat":43.29318,"lon":5.3715,"is_reserved":false,"is_disabled":false,"rental_uris":{"android":"levelo://app?vid=dc7481a4-16ff-4efc-b4bf-8cb2aef63c84","ios":"levelo://app?vid=dc7481a4-16ff-4efc-b4bf-8cb2aef63c84"},"vehicle_type_id":"4","last_reported":1740773437,"current_range_meters":10800,"station_id":"ce4bgh92rcd13ifvqb40","pricing_plan_id":"cebpf4jnsgd1na2vs0mg"},{"bike_id":"c8d2bbda-3e7c-442e-841c-7f95fc6f060c","system_id":"levelo_inurba_marseille","lat":43.31891,"lon":5.40741,"is_reserved":false,"is_disabled":false,"rental_uris":{"android":"levelo://app?vid=c8d2bbda-3e7c-442e-841c-7f95fc6f060c","ios":"levelo://app?vid=c8d2bbda-3e7c-442e-841c-7f95fc6f060c"},"vehicle_type_id":"4","last_reported":1740773437,"current_range_meters":10800,"station_id":"ce4bhq12rcd13ifvqhig","pricing_plan_id":"cebpf4jnsgd1na2vs0mg"},{"bike_id":"5133fc72-65ce-4545-887a-28c61a41db2c","system_id":"levelo_inurba_marseille","lat":43.28,"lon":5.40009,"is_reserved":false,"is_disabled":false,"rental_uris":{"android":"levelo://app?vid=5133fc72-65ce-4545-887a-28c61a41db2c","ios":"levelo://app?vid=5133fc72-65ce-4545-887a-28c61a41db2c"},"vehicle_type_id":"4","last_reported":1740773437,"current_range_meters":11200,"station_id":"ce4bho92rcd13ifvqh4g","pricing_plan_id":"cebpf4jnsgd1na2vs0mg"},{"bike_id":"32f6ed21-d374-4255-9c69-74520b89ecc1","system_id":"levelo_inurba_marseille","lat":43.29604,"lon":5.38094,"is_reserved":false,"is_disabled":false,"rental_uris":{"android":"levelo://app?vid=32f6ed21-d374-4255-9c69-74520b89ecc1","ios":"levelo://app?vid=32f6ed21-d374-4255-9c69-74520b89ecc1"},"vehicle_type_id":"4","last_reported":1740773437,"current_range_meters":11600,"station_id":"ce4bgl12rcd13ifvqbo0","pricing_plan_id":"cebpf4jnsgd1na2vs0mg"},{"bike_id":"9065affc-d1e3-4363-9972-243082098e53","system_id":"levelo_inurba_marseille","lat":43.30595,"lon":5.39355,"is_reserved":false,"is_disabled":false,"rental_uris":{"android":"levelo://app?vid=9065affc-d1e3-4363-9972-243082098e53","ios":"levelo://app?vid=9065affc-d1e3-4363-9972-243082098e53"},"vehicle_type_id":"4","last_reported":1740773437,"current_range_meters":11600,"station_id":"ce4bh0p2rcd13ifvqd80","pricing_plan_id":"cebpf4jnsgd1na2vs0mg"},{"bike_id":"0f05a067-fc47-4f72-9c97-e54bcd9cbfb2","system_id":"levelo_inurba_marseille","lat":43.301597,"lon":5.380967,"is_reserved":false,"is_disabled":false,"rental_uris":{"android":"levelo://app?vid=0f05a067-fc47-4f72-9c97-e54bcd9cbfb2","ios":"levelo://app?vid=0f05a067-fc47-4f72-9c97-e54bcd9cbfb2"},"vehicle_type_id":"4","last_reported":1740773437,"current_range_meters":12000,"station_id":"ce4bgjp2rcd13ifvqbh0","pricing_plan_id":"cebpf4jnsgd1na2vs0mg"},{"bike_id":"bcf10ec7-0dc7-4b31-90db-9fddabad3e7a","system_id":"levelo_inurba_marseille","lat":43.30534,"lon":5.3674,"is_reserved":false,"is_disabled":true,"rental_uris":{"android":"levelo://app?vid=bcf10ec7-0dc7-4b31-90db-9fddabad3e7a","ios":"levelo://app?vid=bcf10ec7-0dc7-4b31-90db-9fddabad3e7a"},"vehicle_type_id":"4","last_reported":1740773437,"current_range_meters":11600,"station_id":"ce4bgrp2rcd13ifvqc9g","pricing_plan_id":"cebpf4jnsgd1na2vs0mg"},{"bike_id":"da5a6c81-b1c1-4506-9b75-17f4f7a41004","system_id":"levelo_inurba_marseille","lat":43.29255,"lon":5.38439,"is_reserved":false,"is_disabled":false,"rental_uris":{"android":"levelo://app?vid=da5a6c81-b1c1-4506-9b75-17f4f7a41004","ios":"levelo://app?vid=da5a6c81-b1c1-4506-9b75-17f4f7a41004"},"vehicle_type_id":"4","last_reported":1740773437,"current_range_meters":10000,"station_id":"ce4bh692rcd13ifvqea0","pricing_plan_id":"cebpf4jnsgd1na2vs0mg"},{"bike_id":"02cdd7c2-9387-40fa-b4c7-0d4f38e13036","system_id":"levelo_inurba_marseille","lat":43.27997,"lon":5.41658,"is_reserved":false,"is_disabled":false,"rental_uris":{"android":"levelo://app?vid=02cdd7c2-9387-40fa-b4c7-0d4f38e13036","ios":"levelo://app?vid=02cdd7c2-9387-40fa-b4c7-0d4f38e13036"},"vehicle_type_id":"4","last_reported":1740773437,"current_range_meters":12000,"station_id":"ce4bho12rcd13ifvqh1g","pricing_plan_id":"cebpf4jnsgd1na2vs0mg"},{"bike_id":"1a44e2f3-b712-436a-9a7d-ebb760b6c14b","system_id":"levelo_inurba_marseille","lat":43.29416,"lon":5.38628,"is_reserved":false,"is_disabled":false,"rental_uris":{"android":"levelo://app?vid=1a44e2f3-b712-436a-9a7d-ebb760b6c14b","ios":"levelo://app?vid=1a44e2f3-b712-436a-9a7d-ebb760b6c14b"},"vehicle_type_id":"4","last_reported":1740773437,"current_range_meters":12000,"station_id":"ce4bh2h2rcd13ifvqdh0","pricing_plan_id":"cebpf4jnsgd1na2vs0mg"},{"bike_id":"a012c9a5-8758-46e3-b5db-da9eb218cc7f","system_id":"levelo_inurba_marseille","lat":43.29532,"lon":5.38549,"is_reserved":false,"is_disabled":false,"rental_uris":{"android":"levelo://app?vid=a012c9a5-8758-46e3-b5db-da9eb218cc7f","ios":"levelo://app?vid=a012c9a5-8758-46e3-b5db-da9eb218cc7f"},"vehicle_type_id":"4","last_reported":1740773437,"current_range_meters":12000,"station_id":"ce4bgih2rcd13ifvqba0","pricing_plan_id":"cebpf4jnsgd1na2vs0mg"},{"bike_id":"569ce547-37a1-487f-a123-cf186f9f6063","system_id":"levelo_inurba_marseille","lat":43.29299,"lon":5.37456,"is_reserved":false,"is_disabled":false,"rental_uris":{"android":"levelo://app?vid=569ce547-37a1-487f-a123-cf186f9f6063","ios":"levelo://app?vid=569ce547-37a1-487f-a123-cf186f9f6063"},"vehicle_type_id":"4","last_reported":1740773437,"current_range_meters":12000,"station_id":"ce4bgi12rcd13ifvqb70","pricing_plan_id":"cebpf4jnsgd1na2vs0mg"},{"bike_id":"0a6f99e4-4d59-4f15-8dc7-f6b1a3703f77","system_id":"levelo_inurba_marseille","lat":43.27901,"lon":5.38008,"is_reserved":false,"is_disabled":false,"rental_uris":{"android":"levelo://app?vid=0a6f99e4-4d59-4f15-8dc7-f6b1a3703f77","ios":"levelo://app?vid=0a6f99e4-4d59-4f15-8dc7-f6b1a3703f77"},"vehicle_type_id":"4","last_reported":1740773437,"current_range_meters":12000,"station_id":"ce4bhf92rcd13ifvqf50","pricing_plan_id":"cebpf4jnsgd1na2vs0mg"},{"bike_id":"6c424884-0042-4be6-a81f-1067acbc5794","system_id":"levelo_inurba_marseille","lat":43.298828,"lon":5.397336,"is_reserved":false,"is_disabled":false,"rental_uris":{"android":"levelo://app?vid=6c424884-0042-4be6-a81f-1067acbc5794","ios":"levelo://app?vid=6c424884-0042-4be6-a81f-1067acbc5794"},"vehicle_type_id":"4","last_reported":1740773437,"current_range_meters":11600,"station_id":"ce4bh4p2rcd13ifvqe0g","pricing_plan_id":"cebpf4jnsgd1na2vs0mg"},{"bike_id":"593edb3c-7add-4a3d-9dbe-95cef549de0d","system_id":"levelo_inurba_marseille","lat":43.230654,"lon":5.354959,"is_reserved":false,"is_disabled":false,"rental_uris":{"android":"levelo://app?vid=593edb3c-7add-4a3d-9dbe-95cef549de0d","ios":"levelo://app?vid=593edb3c-7add-4a3d-9dbe-95cef549de0d"},"vehicle_type_id":"4","last_reported":1740773437,"current_range_meters":12000,"station_id":"cpo3342slgdg3j2ifvpg","pricing_plan_id":"cebpf4jnsgd1na2vs0mg"},{"bike_id":"fe6c1e88-cbdc-4395-9fdc-5ed2f200f88e","system_id":"levelo_inurba_marseille","lat":43.31125,"lon":5.37785,"is_reserved":false,"is_disabled":false,"rental_uris":{"android":"levelo://app?vid=fe6c1e88-cbdc-4395-9fdc-5ed2f200f88e","ios":"levelo://app?vid=fe6c1e88-cbdc-4395-9fdc-5ed2f200f88e"},"vehicle_type_id":"4","last_reported":1740773437,"current_range_meters":12400,"station_id":"ce4bgt92rcd13ifvqcg0","pricing_plan_id":"cebpf4jnsgd1na2vs0mg"},{"bike_id":"c2e38ea5-8bac-4349-bbb8-7bf515f2b922","system_id":"levelo_inurba_marseille","lat":43.29041,"lon":5.38613,"is_reserved":false,"is_disabled":false,"rental_uris":{"android":"levelo://app?vid=c2e38ea5-8bac-4349-bbb8-7bf515f2b922","ios":"levelo://app?vid=c2e38ea5-8bac-4349-bbb8-7bf515f2b922"},"vehicle_type_id":"4","last_reported":1740773437,"current_range_meters":12400,"station_id":"ce4bh4p2rcd13ifvqe0g","pricing_plan_id":"cebpf4jnsgd1na2vs0mg"},{"bike_id":"55131781-8313-40fb-9654-10198a457920","system_id":"levelo_inurba_marseille","lat":43.29296,"lon":5.37459,"is_reserved":false,"is_disabled":false,"rental_uris":{"android":"levelo://app?vid=55131781-8313-40fb-9654-10198a457920","ios":"levelo://app?vid=55131781-8313-40fb-9654-10198a457920"},"vehicle_type_id":"4","last_reported":1740773437,"current_range_meters":12400,"station_id":"ce4bgi12rcd13ifvqb70","pricing_plan_id":"cebpf4jnsgd1na2vs0mg"},{"bike_id":"5d7624f7-d1e5-49d3-849b-66126305821e","system_id":"levelo_inurba_marseille","lat":43.29283,"lon":5.40117,"is_reserved":false,"is_disabled":false,"rental_uris":{"android":"levelo://app?vid=5d7624f7-d1e5-49d3-849b-66126305821e","ios":"levelo://app?vid=5d7624f7-d1e5-49d3-849b-66126305821e"},"vehicle_type_id":"4","last_reported":1740773437,"current_range_meters":12400,"station_id":"ce4bh312rcd13ifvqdk0","pricing_plan_id":"cebpf4jnsgd1na2vs0mg"},{"bike_id":"364b209e-752e-45ea-b26c-06b2552c1833","system_id":"levelo_inurba_marseille","lat":43.23212,"lon":5.35561,"is_reserved":false,"is_disabled":false,"rental_uris":{"android":"levelo://app?vid=364b209e-752e-45ea-b26c-06b2552c1833","ios":"levelo://app?vid=364b209e-752e-45ea-b26c-06b2552c1833"},"vehicle_type_id":"4","last_reported":1740773437,"current_range_meters":12400,"station_id":"ce4bhu92rcd13ifvqi70","pricing_plan_id":"cebpf4jnsgd1na2vs0mg"},{"bike_id":"01a3d87a-a630-4d6f-ad97-42ff108b93f0","system_id":"levelo_inurba_marseille","lat":43.29271,"lon":5.38426,"is_reserved":false,"is_disabled":false,"rental_uris":{"android":"levelo://app?vid=01a3d87a-a630-4d6f-ad97-42ff108b93f0","ios":"levelo://app?vid=01a3d87a-a630-4d6f-ad97-42ff108b93f0"},"vehicle_type_id":"4","last_reported":1740773437,"current_range_meters":12400,"station_id":"ce4bh692rcd13ifvqea0","pricing_plan_id":"cebpf4jnsgd1na2vs0mg"},{"bike_id":"49e9cdc7-76a5-4b66-ae2d-61c73beb73a8","system_id":"levelo_inurba_marseille","lat":43.24159,"lon":5.36428,"is_reserved":false,"is_disabled":false,"rental_uris":{"android":"levelo://app?vid=49e9cdc7-76a5-4b66-ae2d-61c73beb73a8","ios":"levelo://app?vid=49e9cdc7-76a5-4b66-ae2d-61c73beb73a8"},"vehicle_type_id":"4","last_reported":1740773437,"current_range_meters":12800,"station_id":"cpo36qri1sfpv3e86is0","pricing_plan_id":"cebpf4jnsgd1na2vs0mg"},{"bike_id":"a4ccb6c4-eb73-4b33-b9b8-caf6d167f0ad","system_id":"levelo_inurba_marseille","lat":43.30275,"lon":5.37712,"is_reserved":false,"is_disabled":false,"rental_uris":{"android":"levelo://app?vid=a4ccb6c4-eb73-4b33-b9b8-caf6d167f0ad","ios":"levelo://app?vid=a4ccb6c4-eb73-4b33-b9b8-caf6d167f0ad"},"vehicle_type_id":"4","last_reported":1740773437,"current_range_meters":12400,"station_id":"ce4bguh2rcd13ifvqcj0","pricing_plan_id":"cebpf4jnsgd1na2vs0mg"},{"bike_id":"e7037cdc-8234-4f7b-a0f6-35059db4090f","system_id":"levelo_inurba_marseille","lat":43.28667,"lon":5.3868,"is_reserved":false,"is_disabled":false,"rental_uris":{"android":"levelo://app?vid=e7037cdc-8234-4f7b-a0f6-35059db4090f","ios":"levelo://app?vid=e7037cdc-8234-4f7b-a0f6-35059db4090f"},"vehicle_type_id":"4","last_reported":1740773437,"current_range_meters":12800,"station_id":"ce4bh492rcd13ifvqdug","pricing_plan_id":"cebpf4jnsgd1na2vs0mg"},{"bike_id":"82640b08-e226-495e-ad02-7eae54041179","system_id":"levelo_inurba_marseille","lat":43.30469,"lon":5.37913,"is_reserved":false,"is_disabled":false,"rental_uris":{"android":"levelo://app?vid=82640b08-e226-495e-ad02-7eae54041179","ios":"levelo://app?vid=82640b08-e226-495e-ad02-7eae54041179"},"vehicle_type_id":"4","last_reported":1740773437,"current_range_meters":12800,"station_id":"ce4bgup2rcd13ifvqcn0","pricing_plan_id":"cebpf4jnsgd1na2vs0mg"},{"bike_id":"e2002dc7-8529-4007-bfdf-b903f22cf884","system_id":"levelo_inurba_marseille","lat":43.30801,"lon":5.43528,"is_reserved":false,"is_disabled":false,"rental_uris":{"android":"levelo://app?vid=e2002dc7-8529-4007-bfdf-b903f22cf884","ios":"levelo://app?vid=e2002dc7-8529-4007-bfdf-b903f22cf884"},"vehicle_type_id":"4","last_reported":1740773437,"current_range_meters":13600,"station_id":"ce4bhph2rcd13ifvqheg","pricing_plan_id":"cebpf4jnsgd1na2vs0mg"},{"bike_id":"8f7e47eb-fd13-43b3-ba06-ffd1c629ed6c","system_id":"levelo_inurba_marseille","lat":43.29263,"lon":5.38428,"is_reserved":false,"is_disabled":false,"rental_uris":{"android":"levelo://app?vid=8f7e47eb-fd13-43b3-ba06-ffd1c629ed6c","ios":"levelo://app?vid=8f7e47eb-fd13-43b3-ba06-ffd1c629ed6c"},"vehicle_type_id":"4","last_reported":1740773437,"current_range_meters":12800,"station_id":"ce4bh692rcd13ifvqea0","pricing_plan_id":"cebpf4jnsgd1na2vs0mg"},{"bike_id":"d56036d2-528e-4b8f-a11a-e065c3a57244","system_id":"levelo_inurba_marseille","lat":43.29419,"lon":5.38628,"is_reserved":false,"is_disabled":false,"rental_uris":{"android":"levelo://app?vid=d56036d2-528e-4b8f-a11a-e065c3a57244","ios":"levelo://app?vid=d56036d2-528e-4b8f-a11a-e065c3a57244"},"vehicle_type_id":"4","last_reported":1740773437,"current_range_meters":12800,"station_id":"ce4bh2h2rcd13ifvqdh0","pricing_plan_id":"cebpf4jnsgd1na2vs0mg"},{"bike_id":"cc0322d7-87bb-46d4-91a8-9b20bfa34e88","system_id":"levelo_inurba_marseille","lat":43.239589,"lon":5.366326,"is_reserved":false,"is_disabled":false,"rental_uris":{"android":"levelo://app?vid=cc0322d7-87bb-46d4-91a8-9b20bfa34e88","ios":"levelo://app?vid=cc0322d7-87bb-46d4-91a8-9b20bfa34e88"},"vehicle_type_id":"4","last_reported":1740773437,"current_range_meters":12800,"station_id":"ce4bhi12rcd13ifvqfp0","pricing_plan_id":"cebpf4jnsgd1na2vs0mg"},{"bike_id":"8e89a4ec-707f-4b58-b75d-096b7eb5c7f4","system_id":"levelo_inurba_marseille","lat":43.29556,"lon":5.38539,"is_reserved":false,"is_disabled":false,"rental_uris":{"android":"levelo://app?vid=8e89a4ec-707f-4b58-b75d-096b7eb5c7f4","ios":"levelo://app?vid=8e89a4ec-707f-4b58-b75d-096b7eb5c7f4"},"vehicle_type_id":"4","last_reported":1740773437,"current_range_meters":12800,"station_id":"ce4bgih2rcd13ifvqba0","pricing_plan_id":"cebpf4jnsgd1na2vs0mg"},{"bike_id":"97299784-6a66-4b2b-966f-f9f0a7fd068f","system_id":"levelo_inurba_marseille","lat":43.29033,"lon":5.38649,"is_reserved":false,"is_disabled":false,"rental_uris":{"android":"levelo://app?vid=97299784-6a66-4b2b-966f-f9f0a7fd068f","ios":"levelo://app?vid=97299784-6a66-4b2b-966f-f9f0a7fd068f"},"vehicle_type_id":"4","last_reported":1740773437,"current_range_meters":14400,"station_id":"ce4bh4p2rcd13ifvqe0g","pricing_plan_id":"cebpf4jnsgd1na2vs0mg"},{"bike_id":"2dabea1c-c2b8-4258-abdc-13e9e45e1bb1","system_id":"levelo_inurba_marseille","lat":43.27814,"lon":5.40747,"is_reserved":false,"is_disabled":false,"rental_uris":{"android":"levelo://app?vid=2dabea1c-c2b8-4258-abdc-13e9e45e1bb1","ios":"levelo://app?vid=2dabea1c-c2b8-4258-abdc-13e9e45e1bb1"},"vehicle_type_id":"4","last_reported":1740773437,"current_range_meters":10800,"station_id":"ce4bhnh2rcd13ifvqgtg","pricing_plan_id":"cebpf4jnsgd1na2vs0mg"},{"bike_id":"6ab0f902-fe33-4440-a26b-892d8484d57c","system_id":"levelo_inurba_marseille","lat":43.292816,"lon":5.368437,"is_reserved":false,"is_disabled":false,"rental_uris":{"android":"levelo://app?vid=6ab0f902-fe33-4440-a26b-892d8484d57c","ios":"levelo://app?vid=6ab0f902-fe33-4440-a26b-892d8484d57c"},"vehicle_type_id":"4","last_reported":1740773437,"current_range_meters":12400,"station_id":"ce4bh692rcd13ifvqe90","pricing_plan_id":"cebpf4jnsgd1na2vs0mg"},{"bike_id":"fc98d1fc-a6da-44a3-a5a7-4c93a4cd4143","system_id":"levelo_inurba_marseille","lat":43.29299,"lon":5.37471,"is_reserved":false,"is_disabled":false,"rental_uris":{"android":"levelo://app?vid=fc98d1fc-a6da-44a3-a5a7-4c93a4cd4143","ios":"levelo://app?vid=fc98d1fc-a6da-44a3-a5a7-4c93a4cd4143"},"vehicle_type_id":"4","last_reported":1740773437,"current_range_meters":11600,"station_id":"ce4bgi12rcd13ifvqb70","pricing_plan_id":"cebpf4jnsgd1na2vs0mg"},{"bike_id":"bd817eae-1279-4fa2-9854-4d71936144d1","system_id":"levelo_inurba_marseille","lat":43.24194,"lon":5.3968,"is_reserved":false,"is_disabled":false,"rental_uris":{"android":"levelo://app?vid=bd817eae-1279-4fa2-9854-4d71936144d1","ios":"levelo://app?vid=bd817eae-1279-4fa2-9854-4d71936144d1"},"vehicle_type_id":"4","last_reported":1740773437,"current_range_meters":12800,"station_id":"ce4bhn12rcd13ifvqgpg","pricing_plan_id":"cebpf4jnsgd1na2vs0mg"},{"bike_id":"8d45482b-3cb4-4813-bedb-70b6bc1983c7","system_id":"levelo_inurba_marseille","lat":43.29584,"lon":5.36741,"is_reserved":false,"is_disabled":false,"rental_uris":{"android":"levelo://app?vid=8d45482b-3cb4-4813-bedb-70b6bc1983c7","ios":"levelo://app?vid=8d45482b-3cb4-4813-bedb-70b6bc1983c7"},"vehicle_type_id":"4","last_reported":1740773437,"current_range_meters":14000,"station_id":"ce4bgph2rcd13ifvqc2g","pricing_plan_id":"cebpf4jnsgd1na2vs0mg"},{"bike_id":"a381a5b9-a403-4200-9ffe-4dd1764c25e1","system_id":"levelo_inurba_marseille","lat":43.295418,"lon":5.385386,"is_reserved":false,"is_disabled":false,"rental_uris":{"android":"levelo://app?vid=a381a5b9-a403-4200-9ffe-4dd1764c25e1","ios":"levelo://app?vid=a381a5b9-a403-4200-9ffe-4dd1764c25e1"},"vehicle_type_id":"4","last_reported":1740773437,"current_range_meters":13600,"station_id":"ce4bgih2rcd13ifvqba0","pricing_plan_id":"cebpf4jnsgd1na2vs0mg"},{"bike_id":"3ae43e61-e460-4942-a7d7-9a08b7b0118e","system_id":"levelo_inurba_marseille","lat":43.24824,"lon":5.37444,"is_reserved":false,"is_disabled":false,"rental_uris":{"android":"levelo://app?vid=3ae43e61-e460-4942-a7d7-9a08b7b0118e","ios":"levelo://app?vid=3ae43e61-e460-4942-a7d7-9a08b7b0118e"},"vehicle_type_id":"4","last_reported":1740773437,"current_range_meters":13600,"station_id":"ce4bhgh2rcd13ifvqfb0","pricing_plan_id":"cebpf4jnsgd1na2vs0mg"},{"bike_id":"98e2b510-2e33-4e73-b5b4-adc484e79899","system_id":"levelo_inurba_marseille","lat":43.298043,"lon":5.404007,"is_reserved":false,"is_disabled":false,"rental_uris":{"android":"levelo://app?vid=98e2b510-2e33-4e73-b5b4-adc484e79899","ios":"levelo://app?vid=98e2b510-2e33-4e73-b5b4-adc484e79899"},"vehicle_type_id":"4","last_reported":1740773437,"current_range_meters":13600,"station_id":"ce4bh112rcd13ifvqd90","pricing_plan_id":"cebpf4jnsgd1na2vs0mg"},{"bike_id":"e3ac72b4-9aec-42e1-a0ff-43261ac0ef26","system_id":"levelo_inurba_marseille","lat":43.29006,"lon":5.38134,"is_reserved":false,"is_disabled":false,"rental_uris":{"android":"levelo://app?vid=e3ac72b4-9aec-42e1-a0ff-43261ac0ef26","ios":"levelo://app?vid=e3ac72b4-9aec-42e1-a0ff-43261ac0ef26"},"vehicle_type_id":"4","last_reported":1740773437,"current_range_meters":13600,"station_id":"ce4bh4p2rcd13ifvqe1g","pricing_plan_id":"cebpf4jnsgd1na2vs0mg"},{"bike_id":"eeab2b0f-b74a-40c0-a740-ffe04bdfaf49","system_id":"levelo_inurba_marseille","lat":43.29538,"lon":5.38537,"is_reserved":false,"is_disabled":false,"rental_uris":{"android":"levelo://app?vid=eeab2b0f-b74a-40c0-a740-ffe04bdfaf49","ios":"levelo://app?vid=eeab2b0f-b74a-40c0-a740-ffe04bdfaf49"},"vehicle_type_id":"4","last_reported":1740773437,"current_range_meters":13600,"station_id":"ce4bgih2rcd13ifvqba0","pricing_plan_id":"cebpf4jnsgd1na2vs0mg"},{"bike_id":"f5fe4361-1d3d-4314-a7e8-95ca49fcf6f9","system_id":"levelo_inurba_marseille","lat":43.32211,"lon":5.38764,"is_reserved":false,"is_disabled":false,"rental_uris":{"android":"levelo://app?vid=f5fe4361-1d3d-4314-a7e8-95ca49fcf6f9","ios":"levelo://app?vid=f5fe4361-1d3d-4314-a7e8-95ca49fcf6f9"},"vehicle_type_id":"4","last_reported":1740773437,"current_range_meters":13600,"station_id":"","pricing_plan_id":"cebpf4jnsgd1na2vs0mg"},{"bike_id":"e8e574a6-d13a-4906-9b60-657faa08b971","system_id":"levelo_inurba_marseille","lat":43.26809,"lon":5.40269,"is_reserved":false,"is_disabled":true,"rental_uris":{"android":"levelo://app?vid=e8e574a6-d13a-4906-9b60-657faa08b971","ios":"levelo://app?vid=e8e574a6-d13a-4906-9b60-657faa08b971"},"vehicle_type_id":"4","last_reported":1740773437,"current_range_meters":13600,"station_id":"ce501612rcd8frsf0b60","pricing_plan_id":"cebpf4jnsgd1na2vs0mg"},{"bike_id":"597c78d8-1097-48db-b3be-fafc8754eab9","system_id":"levelo_inurba_marseille","lat":43.24159,"lon":5.36421,"is_reserved":false,"is_disabled":false,"rental_uris":{"android":"levelo://app?vid=597c78d8-1097-48db-b3be-fafc8754eab9","ios":"levelo://app?vid=597c78d8-1097-48db-b3be-fafc8754eab9"},"vehicle_type_id":"4","last_reported":1740773437,"current_range_meters":13600,"station_id":"cpo36qri1sfpv3e86is0","pricing_plan_id":"cebpf4jnsgd1na2vs0mg"},{"bike_id":"e9b63fc9-8485-4b16-8079-70141247b95b","system_id":"levelo_inurba_marseille","lat":43.29259,"lon":5.38438,"is_reserved":false,"is_disabled":false,"rental_uris":{"android":"levelo://app?vid=e9b63fc9-8485-4b16-8079-70141247b95b","ios":"levelo://app?vid=e9b63fc9-8485-4b16-8079-70141247b95b"},"vehicle_type_id":"4","last_reported":1740773437,"current_range_meters":14400,"station_id":"ce4bh692rcd13ifvqea0","pricing_plan_id":"cebpf4jnsgd1na2vs0mg"},{"bike_id":"202a89fb-23cc-43f6-8a82-08d33c6311cb","system_id":"levelo_inurba_marseille","lat":43.29272,"lon":5.37465,"is_reserved":false,"is_disabled":false,"rental_uris":{"android":"levelo://app?vid=202a89fb-23cc-43f6-8a82-08d33c6311cb","ios":"levelo://app?vid=202a89fb-23cc-43f6-8a82-08d33c6311cb"},"vehicle_type_id":"4","last_reported":1740773437,"current_range_meters":13600,"station_id":"ce4bgi12rcd13ifvqb70","pricing_plan_id":"cebpf4jnsgd1na2vs0mg"},{"bike_id":"46eb4615-2b5f-44c3-bd28-fad9fb45f2f1","system_id":"levelo_inurba_marseille","lat":43.29539,"lon":5.37495,"is_reserved":false,"is_disabled":false,"rental_uris":{"android":"levelo://app?vid=46eb4615-2b5f-44c3-bd28-fad9fb45f2f1","ios":"levelo://app?vid=46eb4615-2b5f-44c3-bd28-fad9fb45f2f1"},"vehicle_type_id":"4","last_reported":1740773437,"current_range_meters":12800,"station_id":"ce4bgkp2rcd13ifvqbmg","pricing_plan_id":"cebpf4jnsgd1na2vs0mg"},{"bike_id":"152d5173-ed9c-4346-9b22-eb5f34e49026","system_id":"levelo_inurba_marseille","lat":43.28,"lon":5.4001,"is_reserved":false,"is_disabled":false,"rental_uris":{"android":"levelo://app?vid=152d5173-ed9c-4346-9b22-eb5f34e49026","ios":"levelo://app?vid=152d5173-ed9c-4346-9b22-eb5f34e49026"},"vehicle_type_id":"4","last_reported":1740773437,"current_range_meters":15200,"station_id":"ce4bho92rcd13ifvqh4g","pricing_plan_id":"cebpf4jnsgd1na2vs0mg"},{"bike_id":"21b94e86-ea7f-4027-8de6-bb53ccf9a8d0","system_id":"levelo_inurba_marseille","lat":43.29164,"lon":5.37159,"is_reserved":false,"is_disabled":false,"rental_uris":{"android":"levelo://app?vid=21b94e86-ea7f-4027-8de6-bb53ccf9a8d0","ios":"levelo://app?vid=21b94e86-ea7f-4027-8de6-bb53ccf9a8d0"},"vehicle_type_id":"4","last_reported":1740773437,"current_range_meters":14400,"station_id":"ce4bha92rcd13ifvqeh0","pricing_plan_id":"cebpf4jnsgd1na2vs0mg"},{"bike_id":"74bdaba9-ddf5-4116-ac2f-aa7e97c64476","system_id":"levelo_inurba_marseille","lat":43.24999,"lon":5.38939,"is_reserved":false,"is_disabled":false,"rental_uris":{"android":"levelo://app?vid=74bdaba9-ddf5-4116-ac2f-aa7e97c64476","ios":"levelo://app?vid=74bdaba9-ddf5-4116-ac2f-aa7e97c64476"},"vehicle_type_id":"4","last_reported":1740773437,"current_range_meters":14400,"station_id":"ce4bhgp2rcd13ifvqfd0","pricing_plan_id":"cebpf4jnsgd1na2vs0mg"},{"bike_id":"5390464f-8d48-409f-931d-544676e0e8e2","system_id":"levelo_inurba_marseille","lat":43.29005,"lon":5.3594,"is_reserved":false,"is_disabled":true,"rental_uris":{"android":"levelo://app?vid=5390464f-8d48-409f-931d-544676e0e8e2","ios":"levelo://app?vid=5390464f-8d48-409f-931d-544676e0e8e2"},"vehicle_type_id":"4","last_reported":1740773437,"current_range_meters":14400,"station_id":"ce4bha92rcd13ifvqeg0","pricing_plan_id":"cebpf4jnsgd1na2vs0mg"},{"bike_id":"bed62423-f932-47d3-9982-65542442f1fc","system_id":"levelo_inurba_marseille","lat":43.29274,"lon":5.3685,"is_reserved":false,"is_disabled":false,"rental_uris":{"android":"levelo://app?vid=bed62423-f932-47d3-9982-65542442f1fc","ios":"levelo://app?vid=bed62423-f932-47d3-9982-65542442f1fc"},"vehicle_type_id":"4","last_reported":1740773437,"current_range_meters":14400,"station_id":"ce4bhbp2rcd13ifvqesg","pricing_plan_id":"cebpf4jnsgd1na2vs0mg"},{"bike_id":"7d7c3645-a1b8-4cba-8ed4-36c4931e6932","system_id":"levelo_inurba_marseille","lat":43.25569,"lon":5.38232,"is_reserved":false,"is_disabled":false,"rental_uris":{"android":"levelo://app?vid=7d7c3645-a1b8-4cba-8ed4-36c4931e6932","ios":"levelo://app?vid=7d7c3645-a1b8-4cba-8ed4-36c4931e6932"},"vehicle_type_id":"4","last_reported":1740773437,"current_range_meters":14400,"station_id":"ce4bhih2rcd13ifvqfs0","pricing_plan_id":"cebpf4jnsgd1na2vs0mg"},{"bike_id":"c9f6cd8b-2eca-4b9c-a5f4-50b766db3a58","system_id":"levelo_inurba_marseille","lat":43.28936,"lon":5.38386,"is_reserved":false,"is_disabled":false,"rental_uris":{"android":"levelo://app?vid=c9f6cd8b-2eca-4b9c-a5f4-50b766db3a58","ios":"levelo://app?vid=c9f6cd8b-2eca-4b9c-a5f4-50b766db3a58"},"vehicle_type_id":"4","last_reported":1740773437,"current_range_meters":14400,"station_id":"ce4bh612rcd13ifvqe6g","pricing_plan_id":"cebpf4jnsgd1na2vs0mg"},{"bike_id":"39b10acf-6936-42e7-8e6e-b1a68f4ca84d","system_id":"levelo_inurba_marseille","lat":43.28933,"lon":5.3839,"is_reserved":false,"is_disabled":false,"rental_uris":{"android":"levelo://app?vid=39b10acf-6936-42e7-8e6e-b1a68f4ca84d","ios":"levelo://app?vid=39b10acf-6936-42e7-8e6e-b1a68f4ca84d"},"vehicle_type_id":"4","last_reported":1740773437,"current_range_meters":14000,"station_id":"ce4bh612rcd13ifvqe6g","pricing_plan_id":"cebpf4jnsgd1na2vs0mg"},{"bike_id":"db5cedd8-2a5e-4954-9155-1cd4948b2414","system_id":"levelo_inurba_marseille","lat":43.29614,"lon":5.38103,"is_reserved":false,"is_disabled":false,"rental_uris":{"android":"levelo://app?vid=db5cedd8-2a5e-4954-9155-1cd4948b2414","ios":"levelo://app?vid=db5cedd8-2a5e-4954-9155-1cd4948b2414"},"vehicle_type_id":"4","last_reported":1740773437,"current_range_meters":14400,"station_id":"ce4bgl12rcd13ifvqbo0","pricing_plan_id":"cebpf4jnsgd1na2vs0mg"},{"bike_id":"f903fd24-6696-43fd-9b6e-a49dd31530b7","system_id":"levelo_inurba_marseille","lat":43.3082,"lon":5.43546,"is_reserved":false,"is_disabled":false,"rental_uris":{"android":"levelo://app?vid=f903fd24-6696-43fd-9b6e-a49dd31530b7","ios":"levelo://app?vid=f903fd24-6696-43fd-9b6e-a49dd31530b7"},"vehicle_type_id":"4","last_reported":1740773437,"current_range_meters":14400,"station_id":"ce4bhph2rcd13ifvqheg","pricing_plan_id":"cebpf4jnsgd1na2vs0mg"},{"bike_id":"984974ea-3ea4-43e7-bd8a-a056396d1f39","system_id":"levelo_inurba_marseille","lat":43.31078,"lon":5.38356,"is_reserved":false,"is_disabled":false,"rental_uris":{"android":"levelo://app?vid=984974ea-3ea4-43e7-bd8a-a056396d1f39","ios":"levelo://app?vid=984974ea-3ea4-43e7-bd8a-a056396d1f39"},"vehicle_type_id":"4","last_reported":1740773437,"current_range_meters":14800,"station_id":"ce4bgv92rcd13ifvqcr0","pricing_plan_id":"cebpf4jnsgd1na2vs0mg"},{"bike_id":"8c86cb21-5e53-44c8-a766-70640a93721c","system_id":"levelo_inurba_marseille","lat":43.29188,"lon":5.3755,"is_reserved":false,"is_disabled":false,"rental_uris":{"android":"levelo://app?vid=8c86cb21-5e53-44c8-a766-70640a93721c","ios":"levelo://app?vid=8c86cb21-5e53-44c8-a766-70640a93721c"},"vehicle_type_id":"4","last_reported":1740773437,"current_range_meters":15200,"station_id":"","pricing_plan_id":"cebpf4jnsgd1na2vs0mg"},{"bike_id":"0395e071-5a2b-415c-b481-2f18c2ea3427","system_id":"levelo_inurba_marseille","lat":43.24809,"lon":5.37484,"is_reserved":false,"is_disabled":false,"rental_uris":{"android":"levelo://app?vid=0395e071-5a2b-415c-b481-2f18c2ea3427","ios":"levelo://app?vid=0395e071-5a2b-415c-b481-2f18c2ea3427"},"vehicle_type_id":"4","last_reported":1740773437,"current_range_meters":15200,"station_id":"ce4bhgh2rcd13ifvqfb0","pricing_plan_id":"cebpf4jnsgd1na2vs0mg"},{"bike_id":"e90f725f-438e-40ec-b481-be5676a86733","system_id":"levelo_inurba_marseille","lat":43.29316,"lon":5.37488,"is_reserved":false,"is_disabled":false,"rental_uris":{"android":"levelo://app?vid=e90f725f-438e-40ec-b481-be5676a86733","ios":"levelo://app?vid=e90f725f-438e-40ec-b481-be5676a86733"},"vehicle_type_id":"4","last_reported":1740773437,"current_range_meters":14000,"station_id":"ce4bgi12rcd13ifvqb70","pricing_plan_id":"cebpf4jnsgd1na2vs0mg"},{"bike_id":"85d1b766-bdfe-4877-a335-4669a45aabed","system_id":"levelo_inurba_marseille","lat":43.28301,"lon":5.43313,"is_reserved":false,"is_disabled":false,"rental_uris":{"android":"levelo://app?vid=85d1b766-bdfe-4877-a335-4669a45aabed","ios":"levelo://app?vid=85d1b766-bdfe-4877-a335-4669a45aabed"},"vehicle_type_id":"4","last_reported":1740773437,"current_range_meters":14400,"station_id":"","pricing_plan_id":"cebpf4jnsgd1na2vs0mg"},{"bike_id":"27f8d61f-de01-4772-8b8c-ceceaf4de61e","system_id":"levelo_inurba_marseille","lat":43.29081,"lon":5.37154,"is_reserved":false,"is_disabled":true,"rental_uris":{"android":"levelo://app?vid=27f8d61f-de01-4772-8b8c-ceceaf4de61e","ios":"levelo://app?vid=27f8d61f-de01-4772-8b8c-ceceaf4de61e"},"vehicle_type_id":"4","last_reported":1740773437,"current_range_meters":14800,"station_id":"ce4bh5p2rcd13ifvqe4g","pricing_plan_id":"cebpf4jnsgd1na2vs0mg"},{"bike_id":"d6eec10b-620b-4607-843d-346ffd62a6e7","system_id":"levelo_inurba_marseille","lat":43.26504,"lon":5.39544,"is_reserved":false,"is_disabled":false,"rental_uris":{"android":"levelo://app?vid=d6eec10b-620b-4607-843d-346ffd62a6e7","ios":"levelo://app?vid=d6eec10b-620b-4607-843d-346ffd62a6e7"},"vehicle_type_id":"4","last_reported":1740773437,"current_range_meters":15200,"station_id":"ce4bhi12rcd13ifvqfq0","pricing_plan_id":"cebpf4jnsgd1na2vs0mg"},{"bike_id":"b8b2798b-f053-4bf6-9ee9-b72ee5c6962c","system_id":"levelo_inurba_marseille","lat":43.29912,"lon":5.37483,"is_reserved":false,"is_disabled":false,"rental_uris":{"android":"levelo://app?vid=b8b2798b-f053-4bf6-9ee9-b72ee5c6962c","ios":"levelo://app?vid=b8b2798b-f053-4bf6-9ee9-b72ee5c6962c"},"vehicle_type_id":"4","last_reported":1740773437,"current_range_meters":14800,"station_id":"ce4bgjh2rcd13ifvqbg0","pricing_plan_id":"cebpf4jnsgd1na2vs0mg"},{"bike_id":"cfcc04b9-86e7-45d5-a3ba-b1a0458495a4","system_id":"levelo_inurba_marseille","lat":43.29761,"lon":5.37098,"is_reserved":false,"is_disabled":false,"rental_uris":{"android":"levelo://app?vid=cfcc04b9-86e7-45d5-a3ba-b1a0458495a4","ios":"levelo://app?vid=cfcc04b9-86e7-45d5-a3ba-b1a0458495a4"},"vehicle_type_id":"4","last_reported":1740773437,"current_range_meters":14800,"station_id":"ce4bgop2rcd13ifvqc1g","pricing_plan_id":"cebpf4jnsgd1na2vs0mg"},{"bike_id":"34e4ac4e-ce8e-4b20-b1a6-c88a21e00500","system_id":"levelo_inurba_marseille","lat":43.29526,"lon":5.38542,"is_reserved":false,"is_disabled":false,"rental_uris":{"android":"levelo://app?vid=34e4ac4e-ce8e-4b20-b1a6-c88a21e00500","ios":"levelo://app?vid=34e4ac4e-ce8e-4b20-b1a6-c88a21e00500"},"vehicle_type_id":"4","last_reported":1740773437,"current_range_meters":15200,"station_id":"ce4bgih2rcd13ifvqba0","pricing_plan_id":"cebpf4jnsgd1na2vs0mg"},{"bike_id":"d013a78a-b275-4446-b2e7-8bba7dd432cb","system_id":"levelo_inurba_marseille","lat":43.29264,"lon":5.38427,"is_reserved":false,"is_disabled":false,"rental_uris":{"android":"levelo://app?vid=d013a78a-b275-4446-b2e7-8bba7dd432cb","ios":"levelo://app?vid=d013a78a-b275-4446-b2e7-8bba7dd432cb"},"vehicle_type_id":"4","last_reported":1740773437,"current_range_meters":15200,"station_id":"ce4bh692rcd13ifvqea0","pricing_plan_id":"cebpf4jnsgd1na2vs0mg"},{"bike_id":"538a5f5d-4b35-45a9-8c2e-8b5a7cdf0033","system_id":"levelo_inurba_marseille","lat":43.28359,"lon":5.38101,"is_reserved":false,"is_disabled":false,"rental_uris":{"android":"levelo://app?vid=538a5f5d-4b35-45a9-8c2e-8b5a7cdf0033","ios":"levelo://app?vid=538a5f5d-4b35-45a9-8c2e-8b5a7cdf0033"},"vehicle_type_id":"4","last_reported":1740773437,"current_range_meters":16000,"station_id":"ce4bh412rcd13ifvqdr0","pricing_plan_id":"cebpf4jnsgd1na2vs0mg"},{"bike_id":"4015c440-7267-44b4-8be2-f4b87cb51aa9","system_id":"levelo_inurba_marseille","lat":43.25578,"lon":5.38237,"is_reserved":false,"is_disabled":false,"rental_uris":{"android":"levelo://app?vid=4015c440-7267-44b4-8be2-f4b87cb51aa9","ios":"levelo://app?vid=4015c440-7267-44b4-8be2-f4b87cb51aa9"},"vehicle_type_id":"4","last_reported":1740773437,"current_range_meters":16000,"station_id":"ce4bhih2rcd13ifvqfs0","pricing_plan_id":"cebpf4jnsgd1na2vs0mg"},{"bike_id":"1c618e36-1102-4fd5-a1d7-2b4928c5d624","system_id":"levelo_inurba_marseille","lat":43.32661,"lon":5.4099,"is_reserved":false,"is_disabled":false,"rental_uris":{"android":"levelo://app?vid=1c618e36-1102-4fd5-a1d7-2b4928c5d624","ios":"levelo://app?vid=1c618e36-1102-4fd5-a1d7-2b4928c5d624"},"vehicle_type_id":"4","last_reported":1740773437,"current_range_meters":14800,"station_id":"ce4bhpp2rcd13ifvqhgg","pricing_plan_id":"cebpf4jnsgd1na2vs0mg"},{"bike_id":"e6523c8f-91c8-42d0-8ebc-ed99984691d7","system_id":"levelo_inurba_marseille","lat":43.309607,"lon":5.390362,"is_reserved":false,"is_disabled":false,"rental_uris":{"android":"levelo://app?vid=e6523c8f-91c8-42d0-8ebc-ed99984691d7","ios":"levelo://app?vid=e6523c8f-91c8-42d0-8ebc-ed99984691d7"},"vehicle_type_id":"4","last_reported":1740773437,"current_range_meters":15200,"station_id":"ce4bgup2rcd13ifvqco0","pricing_plan_id":"cebpf4jnsgd1na2vs0mg"},{"bike_id":"03e2706b-81ae-4b1d-8e84-7e383d86f2fb","system_id":"levelo_inurba_marseille","lat":43.30607,"lon":5.37235,"is_reserved":false,"is_disabled":false,"rental_uris":{"android":"levelo://app?vid=03e2706b-81ae-4b1d-8e84-7e383d86f2fb","ios":"levelo://app?vid=03e2706b-81ae-4b1d-8e84-7e383d86f2fb"},"vehicle_type_id":"4","last_reported":1740773437,"current_range_meters":15200,"station_id":"ce4bgqh2rcd13ifvqc4g","pricing_plan_id":"cebpf4jnsgd1na2vs0mg"},{"bike_id":"a48f75dc-b13c-4ccf-b312-b13ae76c763f","system_id":"levelo_inurba_marseille","lat":43.30599,"lon":5.39361,"is_reserved":false,"is_disabled":false,"rental_uris":{"android":"levelo://app?vid=a48f75dc-b13c-4ccf-b312-b13ae76c763f","ios":"levelo://app?vid=a48f75dc-b13c-4ccf-b312-b13ae76c763f"},"vehicle_type_id":"4","last_reported":1740773437,"current_range_meters":15200,"station_id":"ce4bh0p2rcd13ifvqd80","pricing_plan_id":"cebpf4jnsgd1na2vs0mg"},{"bike_id":"0693b9d6-4a9d-4e38-bfa2-80f934bcc2e3","system_id":"levelo_inurba_marseille","lat":43.2417,"lon":5.36413,"is_reserved":false,"is_disabled":false,"rental_uris":{"android":"levelo://app?vid=0693b9d6-4a9d-4e38-bfa2-80f934bcc2e3","ios":"levelo://app?vid=0693b9d6-4a9d-4e38-bfa2-80f934bcc2e3"},"vehicle_type_id":"4","last_reported":1740773437,"current_range_meters":16000,"station_id":"cpo36qri1sfpv3e86is0","pricing_plan_id":"cebpf4jnsgd1na2vs0mg"},{"bike_id":"aeac198f-8292-445f-9393-28f08b086e52","system_id":"levelo_inurba_marseille","lat":43.28356,"lon":5.38105,"is_reserved":false,"is_disabled":false,"rental_uris":{"android":"levelo://app?vid=aeac198f-8292-445f-9393-28f08b086e52","ios":"levelo://app?vid=aeac198f-8292-445f-9393-28f08b086e52"},"vehicle_type_id":"4","last_reported":1740773437,"current_range_meters":17200,"station_id":"ce4bh412rcd13ifvqdr0","pricing_plan_id":"cebpf4jnsgd1na2vs0mg"},{"bike_id":"d76db084-d723-4c89-9b16-05153e40f4fc","system_id":"levelo_inurba_marseille","lat":43.29557,"lon":5.37528,"is_reserved":false,"is_disabled":false,"rental_uris":{"android":"levelo://app?vid=d76db084-d723-4c89-9b16-05153e40f4fc","ios":"levelo://app?vid=d76db084-d723-4c89-9b16-05153e40f4fc"},"vehicle_type_id":"4","last_reported":1740773437,"current_range_meters":16000,"station_id":"ce4bgh92rcd13ifvqb50","pricing_plan_id":"cebpf4jnsgd1na2vs0mg"},{"bike_id":"128c5a26-431a-4824-8fcd-ffb2e269f063","system_id":"levelo_inurba_marseille","lat":43.29423,"lon":5.3863,"is_reserved":false,"is_disabled":false,"rental_uris":{"android":"levelo://app?vid=128c5a26-431a-4824-8fcd-ffb2e269f063","ios":"levelo://app?vid=128c5a26-431a-4824-8fcd-ffb2e269f063"},"vehicle_type_id":"4","last_reported":1740773437,"current_range_meters":16000,"station_id":"ce4bh2h2rcd13ifvqdh0","pricing_plan_id":"cebpf4jnsgd1na2vs0mg"},{"bike_id":"a43d23d2-0d6e-4cf7-8691-8ab079a8ff69","system_id":"levelo_inurba_marseille","lat":43.29915,"lon":5.43642,"is_reserved":false,"is_disabled":false,"rental_uris":{"android":"levelo://app?vid=a43d23d2-0d6e-4cf7-8691-8ab079a8ff69","ios":"levelo://app?vid=a43d23d2-0d6e-4cf7-8691-8ab079a8ff69"},"vehicle_type_id":"4","last_reported":1740773437,"current_range_meters":16000,"station_id":"ce4bhpp2rcd13ifvqhfg","pricing_plan_id":"cebpf4jnsgd1na2vs0mg"},{"bike_id":"a25e7671-7f74-48bd-9516-3561ee9f39f0","system_id":"levelo_inurba_marseille","lat":43.29805,"lon":5.38102,"is_reserved":false,"is_disabled":false,"rental_uris":{"android":"levelo://app?vid=a25e7671-7f74-48bd-9516-3561ee9f39f0","ios":"levelo://app?vid=a25e7671-7f74-48bd-9516-3561ee9f39f0"},"vehicle_type_id":"4","last_reported":1740773437,"current_range_meters":16000,"station_id":"ce4bgip2rcd13ifvqbb0","pricing_plan_id":"cebpf4jnsgd1na2vs0mg"},{"bike_id":"88380df9-96d8-4259-9015-42f88b5705d1","system_id":"levelo_inurba_marseille","lat":43.29023,"lon":5.38639,"is_reserved":false,"is_disabled":false,"rental_uris":{"android":"levelo://app?vid=88380df9-96d8-4259-9015-42f88b5705d1","ios":"levelo://app?vid=88380df9-96d8-4259-9015-42f88b5705d1"},"vehicle_type_id":"4","last_reported":1740773437,"current_range_meters":16000,"station_id":"ce4bh4p2rcd13ifvqe0g","pricing_plan_id":"cebpf4jnsgd1na2vs0mg"},{"bike_id":"20d2ee05-766c-42f5-ad36-8379672e425d","system_id":"levelo_inurba_marseille","lat":43.29593,"lon":5.38115,"is_reserved":false,"is_disabled":false,"rental_uris":{"android":"levelo://app?vid=20d2ee05-766c-42f5-ad36-8379672e425d","ios":"levelo://app?vid=20d2ee05-766c-42f5-ad36-8379672e425d"},"vehicle_type_id":"4","last_reported":1740773437,"current_range_meters":16000,"station_id":"ce4bgl12rcd13ifvqbo0","pricing_plan_id":"cebpf4jnsgd1na2vs0mg"},{"bike_id":"ad658b21-8d0b-4f29-b8de-50baab3cd657","system_id":"levelo_inurba_marseille","lat":43.31505,"lon":5.38072,"is_reserved":false,"is_disabled":false,"rental_uris":{"android":"levelo://app?vid=ad658b21-8d0b-4f29-b8de-50baab3cd657","ios":"levelo://app?vid=ad658b21-8d0b-4f29-b8de-50baab3cd657"},"vehicle_type_id":"4","last_reported":1740773437,"current_range_meters":16000,"station_id":"ce4bhsp2rcd13ifvqi50","pricing_plan_id":"cebpf4jnsgd1na2vs0mg"},{"bike_id":"02f61aa1-5244-4bc3-b575-952432a468db","system_id":"levelo_inurba_marseille","lat":43.28976,"lon":5.37846,"is_reserved":false,"is_disabled":false,"rental_uris":{"android":"levelo://app?vid=02f61aa1-5244-4bc3-b575-952432a468db","ios":"levelo://app?vid=02f61aa1-5244-4bc3-b575-952432a468db"},"vehicle_type_id":"4","last_reported":1740773437,"current_range_meters":15200,"station_id":"ce4bh9p2rcd13ifvqed0","pricing_plan_id":"cebpf4jnsgd1na2vs0mg"},{"bike_id":"983f851b-9373-4f91-bc34-7ce3631e9498","system_id":"levelo_inurba_marseille","lat":43.27946,"lon":5.41038,"is_reserved":false,"is_disabled":false,"rental_uris":{"android":"levelo://app?vid=983f851b-9373-4f91-bc34-7ce3631e9498","ios":"levelo://app?vid=983f851b-9373-4f91-bc34-7ce3631e9498"},"vehicle_type_id":"4","last_reported":1740773437,"current_range_meters":16000,"station_id":"ce4bhnp2rcd13ifvqh0g","pricing_plan_id":"cebpf4jnsgd1na2vs0mg"},{"bike_id":"1f1d4c23-1eb7-4ee6-b2fb-10cfb5c52761","system_id":"levelo_inurba_marseille","lat":43.29236,"lon":5.3844,"is_reserved":false,"is_disabled":false,"rental_uris":{"android":"levelo://app?vid=1f1d4c23-1eb7-4ee6-b2fb-10cfb5c52761","ios":"levelo://app?vid=1f1d4c23-1eb7-4ee6-b2fb-10cfb5c52761"},"vehicle_type_id":"4","last_reported":1740773437,"current_range_meters":16000,"station_id":"ce4bh692rcd13ifvqea0","pricing_plan_id":"cebpf4jnsgd1na2vs0mg"},{"bike_id":"cefe5d41-e737-4af8-8f87-2d4a8806f73d","system_id":"levelo_inurba_marseille","lat":43.29304,"lon":5.37468,"is_reserved":false,"is_disabled":false,"rental_uris":{"android":"levelo://app?vid=cefe5d41-e737-4af8-8f87-2d4a8806f73d","ios":"levelo://app?vid=cefe5d41-e737-4af8-8f87-2d4a8806f73d"},"vehicle_type_id":"4","last_reported":1740773437,"current_range_meters":16000,"station_id":"ce4bgi12rcd13ifvqb70","pricing_plan_id":"cebpf4jnsgd1na2vs0mg"},{"bike_id":"885afce5-a772-472c-8f00-8fa46534cdaa","system_id":"levelo_inurba_marseille","lat":43.29264,"lon":5.38442,"is_reserved":false,"is_disabled":false,"rental_uris":{"android":"levelo://app?vid=885afce5-a772-472c-8f00-8fa46534cdaa","ios":"levelo://app?vid=885afce5-a772-472c-8f00-8fa46534cdaa"},"vehicle_type_id":"4","last_reported":1740773437,"current_range_meters":4800,"station_id":"ce4bh692rcd13ifvqea0","pricing_plan_id":"cebpf4jnsgd1na2vs0mg"},{"bike_id":"f9f4593d-ec14-43c6-ac64-d227a2c444e7","system_id":"levelo_inurba_marseille","lat":43.29911,"lon":5.38568,"is_reserved":false,"is_disabled":true,"rental_uris":{"android":"levelo://app?vid=f9f4593d-ec14-43c6-ac64-d227a2c444e7","ios":"levelo://app?vid=f9f4593d-ec14-43c6-ac64-d227a2c444e7"},"vehicle_type_id":"4","last_reported":1740773437,"current_range_meters":16400,"station_id":"","pricing_plan_id":"cebpf4jnsgd1na2vs0mg"},{"bike_id":"32ceb2c3-2f3b-4092-8d32-8ede67e0cd39","system_id":"levelo_inurba_marseille","lat":43.29912,"lon":5.4365,"is_reserved":false,"is_disabled":false,"rental_uris":{"android":"levelo://app?vid=32ceb2c3-2f3b-4092-8d32-8ede67e0cd39","ios":"levelo://app?vid=32ceb2c3-2f3b-4092-8d32-8ede67e0cd39"},"vehicle_type_id":"4","last_reported":1740773437,"current_range_meters":16800,"station_id":"ce4bhpp2rcd13ifvqhfg","pricing_plan_id":"cebpf4jnsgd1na2vs0mg"},{"bike_id":"161d70e9-e213-4bf5-bde1-9c3d7296d89c","system_id":"levelo_inurba_marseille","lat":43.27836,"lon":5.39207,"is_reserved":false,"is_disabled":true,"rental_uris":{"android":"levelo://app?vid=161d70e9-e213-4bf5-bde1-9c3d7296d89c","ios":"levelo://app?vid=161d70e9-e213-4bf5-bde1-9c3d7296d89c"},"vehicle_type_id":"4","last_reported":1740773437,"current_range_meters":16400,"station_id":"ce4bhjp2rcd13ifvqga0","pricing_plan_id":"cebpf4jnsgd1na2vs0mg"},{"bike_id":"0caeb20f-2b51-4f6e-8ea8-820627d70e8c","system_id":"levelo_inurba_marseille","lat":43.265747,"lon":5.390165,"is_reserved":false,"is_disabled":false,"rental_uris":{"android":"levelo://app?vid=0caeb20f-2b51-4f6e-8ea8-820627d70e8c","ios":"levelo://app?vid=0caeb20f-2b51-4f6e-8ea8-820627d70e8c"},"vehicle_type_id":"4","last_reported":1740773437,"current_range_meters":16000,"station_id":"ce4bho12rcd13ifvqh2g","pricing_plan_id":"cebpf4jnsgd1na2vs0mg"},{"bike_id":"cb853248-557f-48ac-928f-efa1fb628a01","system_id":"levelo_inurba_marseille","lat":43.29261,"lon":5.38444,"is_reserved":false,"is_disabled":false,"rental_uris":{"android":"levelo://app?vid=cb853248-557f-48ac-928f-efa1fb628a01","ios":"levelo://app?vid=cb853248-557f-48ac-928f-efa1fb628a01"},"vehicle_type_id":"4","last_reported":1740773437,"current_range_meters":16400,"station_id":"ce4bh692rcd13ifvqea0","pricing_plan_id":"cebpf4jnsgd1na2vs0mg"},{"bike_id":"3e6eb5ab-3b41-4e51-838d-95c67fde06e4","system_id":"levelo_inurba_marseille","lat":43.29273,"lon":5.37637,"is_reserved":false,"is_disabled":false,"rental_uris":{"android":"levelo://app?vid=3e6eb5ab-3b41-4e51-838d-95c67fde06e4","ios":"levelo://app?vid=3e6eb5ab-3b41-4e51-838d-95c67fde06e4"},"vehicle_type_id":"4","last_reported":1740773437,"current_range_meters":16800,"station_id":"ce4bgi12rcd13ifvqb80","pricing_plan_id":"cebpf4jnsgd1na2vs0mg"},{"bike_id":"babefcd3-c2a2-4ba7-9712-04f23b855b03","system_id":"levelo_inurba_marseille","lat":43.29607,"lon":5.37724,"is_reserved":false,"is_disabled":false,"rental_uris":{"android":"levelo://app?vid=babefcd3-c2a2-4ba7-9712-04f23b855b03","ios":"levelo://app?vid=babefcd3-c2a2-4ba7-9712-04f23b855b03"},"vehicle_type_id":"4","last_reported":1740773437,"current_range_meters":16000,"station_id":"ce4bgi92rcd13ifvqb90","pricing_plan_id":"cebpf4jnsgd1na2vs0mg"},{"bike_id":"43cf1fa7-9038-4235-a5db-81b874461315","system_id":"levelo_inurba_marseille","lat":43.29291,"lon":5.37455,"is_reserved":false,"is_disabled":false,"rental_uris":{"android":"levelo://app?vid=43cf1fa7-9038-4235-a5db-81b874461315","ios":"levelo://app?vid=43cf1fa7-9038-4235-a5db-81b874461315"},"vehicle_type_id":"4","last_reported":1740773437,"current_range_meters":16400,"station_id":"ce4bgi12rcd13ifvqb70","pricing_plan_id":"cebpf4jnsgd1na2vs0mg"},