{"last_updated":1698609993,"ttl":30,"version":"2.2","data":{"bikes":[{"bike_id":"9bf5122a-c57e-4eb0-a1f4-0998c1f62ed0","system_id":"levelo_inurba_marseille","lat":43.312239,"lon":5.368562,"is_reserved":false,"is_disabled":false,"rental_uris":{"android":"levelo://app?vid=9bf5122a-c57e-4eb0-a1f4-0998c1f62ed0","ios":"levelo://app?vid=9bf5122a-c57e-4eb0-a1f4-0998c1f62ed0"},"vehicle_type_id":"4","last_reported":1698609993,"current_range_meters":27600,"station_id":"ce4bgl92rcd13ifvqbq0","pricing_plan_id":"free"},{"bike_id":"0d80cc9c-8b54-4d9d-a105-8d86e20cb616","system_id":"levelo_inurba_marseille","lat":43.312239,"lon":5.368562,"is_reserved":false,"is_disabled":false,"rental_uris":{"android":"levelo://app?vid=0d80cc9c-8b54-4d9d-a105-8d86e20cb616","ios":"levelo://app?vid=0d80cc9c-8b54-4d9d-a105-8d86e20cb616"},"vehicle_type_id":"4","last_reported":1698609993,"current_range_meters":16400,"station_id":"ce4bgl92rcd13ifvqbq0","pricing_plan_id":"free"},{"bike_id":"b1cb48cb-22d4-4cd4-97b0-038c1cf723b7","system_id":"levelo_inurba_marseille","lat":43.315186,"lon":5.371432,"is_reserved":false,"is_disabled":false,"rental_uris":{"android":"levelo://app?vid=b1cb48cb-22d4-4cd4-97b0-038c1cf723b7","ios":"levelo://app?vid=b1cb48cb-22d4-4cd4-97b0-038c1cf723b7"},"vehicle_type_id":"4","last_reported":1698609993,"current_range_meters":14400,"station_id":"","pricing_plan_id":"free"},{"bike_id":"588aefc7-221a-4857-964b-a38715ffff5b","system_id":"levelo_inurba_marseille","lat":43.314811,"lon":5.373103,"is_reserved":false,"is_disabled":false,"rental_uris":{"android":"levelo://app?vid=588aefc7-221a-4857-964b-a38715ffff5b","ios":"levelo://app?vid=588aefc7-221a-4857-964b-a38715ffff5b"},"vehicle_type_id":"4","last_reported":1698609993,"current_range_meters":26000,"station_id":"ce4bgt12rcd13ifvqcd0","pricing_plan_id":"free"},{"bike_id":"49754a0f-6c4f-41ac-9039-11c63b693080","system_id":"levelo_inurba_marseille","lat":43.314811,"lon":5.373103,"is_reserved":false,"is_disabled":false,"rental_uris":{"android":"levelo://app?vid=49754a0f-6c4f-41ac-9039-11c63b693080","ios":"levelo://app?vid=49754a0f-6c4f-41ac-9039-11c63b693080"},"vehicle_type_id":"4","last_reported":1698609993,"current_range_meters":27600,"station_id":"ce4bgt12rcd13ifvqcd0","pricing_plan_id":"free"},{"bike_id":"e3b95e21-2723-48ef-8f3b-db567b9ea972","system_id":"levelo_inurba_marseille","lat":43.314811,"lon":5.373103,"is_reserved":false,"is_disabled":false,"rental_uris":{"android":"levelo://app?vid=e3b95e21-2723-48ef-8f3b-db567b9ea972","ios":"levelo://app?vid=e3b95e21-2723-48ef-8f3b-db567b9ea972"},"vehicle_type_id":"4","last_reported":1698609993,"current_range_meters":12000,"station_id":"ce4bgt12rcd13ifvqcd0","pricing_plan_id":"free"},{"bike_id":"c90f6a67-8a95-4186-9f6b-5914e4f853d6","system_id":"levelo_inurba_marseille","lat":43.314811,"lon":5.373104,"is_reserved":false,"is_disabled":false,"rental_uris":{"android":"levelo://app?vid=c90f6a67-8a95-4186-9f6b-5914e4f853d6","ios":"levelo://app?vid=c90f6a67-8a95-4186-9f6b-5914e4f853d6"},"vehicle_type_id":"4","last_reported":1698609993,"current_range_meters":6400,"station_id":"ce4bgt12rcd13ifvqcd0","pricing_plan_id":"free"},{"bike_id":"f252b071-dddd-4e5f-ad07-506846af6d1a","system_id":"levelo_inurba_marseille","lat":43.30542,"lon":5.36534,"is_reserved":false,"is_disabled":false,"rental_uris":{"android":"levelo://app?vid=f252b071-dddd-4e5f-ad07-506846af6d1a","ios":"levelo://app?vid=f252b071-dddd-4e5f-ad07-506846af6d1a"},"vehicle_type_id":"4","last_reported":1698609993,"current_range_meters":31200,"station_id":"ce4bgs12rcd13ifvqcag","pricing_plan_id":"free"},{"bike_id":"e0d5e61c-ee0c-4ad8-84d2-13ff1cf8a0b9","system_id":"levelo_inurba_marseille","lat":43.317075,"lon":5.377367,"is_reserved":false,"is_disabled":false,"rental_uris":{"android":"levelo://app?vid=e0d5e61c-ee0c-4ad8-84d2-13ff1cf8a0b9","ios":"levelo://app?vid=e0d5e61c-ee0c-4ad8-84d2-13ff1cf8a0b9"},"vehicle_type_id":"4","last_reported":1698609993,"current_range_meters":14400,"station_id":"ce4bgth2rcd13ifvqch0","pricing_plan_id":"free"},{"bike_id":"347a96c1-5466-4832-94a6-086840389082","system_id":"levelo_inurba_marseille","lat":43.317075,"lon":5.377367,"is_reserved":false,"is_disabled":false,"rental_uris":{"android":"levelo://app?vid=347a96c1-5466-4832-94a6-086840389082","ios":"levelo://app?vid=347a96c1-5466-4832-94a6-086840389082"},"vehicle_type_id":"4","last_reported":1698609993,"current_range_meters":25600,"station_id":"ce4bgth2rcd13ifvqch0","pricing_plan_id":"free"},{"bike_id":"38ffb593-322a-456f-8247-0c98eb364087","system_id":"levelo_inurba_marseille","lat":43.30802,"lon":5.381452,"is_reserved":false,"is_disabled":false,"rental_uris":{"android":"levelo://app?vid=38ffb593-322a-456f-8247-0c98eb364087","ios":"levelo://app?vid=38ffb593-322a-456f-8247-0c98eb364087"},"vehicle_type_id":"4","last_reported":1698609993,"current_range_meters":6800,"station_id":"ce4bgt12rcd13ifvqce0","pricing_plan_id":"free"},{"bike_id":"b24f634c-0378-4a9f-9538-083549589c06","system_id":"levelo_inurba_marseille","lat":43.308012,"lon":5.381511,"is_reserved":false,"is_disabled":false,"rental_uris":{"android":"levelo://app?vid=b24f634c-0378-4a9f-9538-083549589c06","ios":"levelo://app?vid=b24f634c-0378-4a9f-9538-083549589c06"},"vehicle_type_id":"4","last_reported":1698609993,"current_range_meters":1600,"station_id":"ce4bgt12rcd13ifvqce0","pricing_plan_id":"free"},{"bike_id":"6e7e18dc-d48a-4365-9e79-d993dd505728","system_id":"levelo_inurba_marseille","lat":43.308012,"lon":5.381511,"is_reserved":false,"is_disabled":false,"rental_uris":{"android":"levelo://app?vid=6e7e18dc-d48a-4365-9e79-d993dd505728","ios":"levelo://app?vid=6e7e18dc-d48a-4365-9e79-d993dd505728"},"vehicle_type_id":"4","last_reported":1698609993,"current_range_meters":3600,"station_id":"ce4bgt12rcd13ifvqce0","pricing_plan_id":"free"},{"bike_id":"b2fe52a8-60c2-4f5e-8976-8f165753cbcc","system_id":"levelo_inurba_marseille","lat":43.30798,"lon":5.38157,"is_reserved":false,"is_disabled":false,"rental_uris":{"android":"levelo://app?vid=b2fe52a8-60c2-4f5e-8976-8f165753cbcc","ios":"levelo://app?vid=b2fe52a8-60c2-4f5e-8976-8f165753cbcc"},"vehicle_type_id":"4","last_reported":1698609993,"current_range_meters":18800,"station_id":"ce4bgt12rcd13ifvqce0","pricing_plan_id":"free"},{"bike_id":"e3f253a1-9788-4492-938f-39b642fbd881","system_id":"levelo_inurba_marseille","lat":43.3245,"lon":5.36788,"is_reserved":false,"is_disabled":false,"rental_uris":{"android":"levelo://app?vid=e3f253a1-9788-4492-938f-39b642fbd881","ios":"levelo://app?vid=e3f253a1-9788-4492-938f-39b642fbd881"},"vehicle_type_id":"4","last_reported":1698609993,"current_range_meters":4800,"station_id":"","pricing_plan_id":"free"},{"bike_id":"d797f1e6-f3ca-4ad7-8b56-5ed6191da53c","system_id":"levelo_inurba_marseille","lat":43.304606,"lon":5.379026,"is_reserved":false,"is_disabled":false,"rental_uris":{"android":"levelo://app?vid=d797f1e6-f3ca-4ad7-8b56-5ed6191da53c","ios":"levelo://app?vid=d797f1e6-f3ca-4ad7-8b56-5ed6191da53c"},"vehicle_type_id":"4","last_reported":1698609993,"current_range_meters":24800,"station_id":"ce4bgup2rcd13ifvqcn0","pricing_plan_id":"free"},{"bike_id":"33799d3a-1a35-4946-b871-92caf48036ec","system_id":"levelo_inurba_marseille","lat":43.32473,"lon":5.36565,"is_reserved":false,"is_disabled":false,"rental_uris":{"android":"levelo://app?vid=33799d3a-1a35-4946-b871-92caf48036ec","ios":"levelo://app?vid=33799d3a-1a35-4946-b871-92caf48036ec"},"vehicle_type_id":"4","last_reported":1698609993,"current_range_meters":24000,"station_id":"","pricing_plan_id":"free"},{"bike_id":"d177f840-926d-43b5-b656-8750c3d13e8a","system_id":"levelo_inurba_marseille","lat":43.3248,"lon":5.36567,"is_reserved":false,"is_disabled":false,"rental_uris":{"android":"levelo://app?vid=d177f840-926d-43b5-b656-8750c3d13e8a","ios":"levelo://app?vid=d177f840-926d-43b5-b656-8750c3d13e8a"},"vehicle_type_id":"4","last_reported":1698609993,"current_range_meters":24800,"station_id":"","pricing_plan_id":"free"},{"bike_id":"0fbc12a0-e518-483f-95ed-144642fbfd41","system_id":"levelo_inurba_marseille","lat":43.302784,"lon":5.377158,"is_reserved":false,"is_disabled":false,"rental_uris":{"android":"levelo://app?vid=0fbc12a0-e518-483f-95ed-144642fbfd41","ios":"levelo://app?vid=0fbc12a0-e518-483f-95ed-144642fbfd41"},"vehicle_type_id":"4","last_reported":1698609993,"current_range_meters":4800,"station_id":"ce4bguh2rcd13ifvqcj0","pricing_plan_id":"free"},{"bike_id":"ee91dfbf-01ba-41b5-a852-d6c359dc37d7","system_id":"levelo_inurba_marseille","lat":43.313571,"lon":5.384829,"is_reserved":false,"is_disabled":false,"rental_uris":{"android":"levelo://app?vid=ee91dfbf-01ba-41b5-a852-d6c359dc37d7","ios":"levelo://app?vid=ee91dfbf-01ba-41b5-a852-d6c359dc37d7"},"vehicle_type_id":"4","last_reported":1698609993,"current_range_meters":6000,"station_id":"ce4bgt92rcd13ifvqcf0","pricing_plan_id":"free"},{"bike_id":"84346180-ad3a-488f-8c93-ffd5fbeb6e6c","system_id":"levelo_inurba_marseille","lat":43.313571,"lon":5.384829,"is_reserved":false,"is_disabled":false,"rental_uris":{"android":"levelo://app?vid=84346180-ad3a-488f-8c93-ffd5fbeb6e6c","ios":"levelo://app?vid=84346180-ad3a-488f-8c93-ffd5fbeb6e6c"},"vehicle_type_id":"4","last_reported":1698609993,"current_range_meters":29600,"station_id":"ce4bgt92rcd13ifvqcf0","pricing_plan_id":"free"},{"bike_id":"2f1ab682-82fd-4b0c-bc2e-e244b0ffb1c5","system_id":"levelo_inurba_marseille","lat":43.313571,"lon":5.384829,"is_reserved":false,"is_disabled":false,"rental_uris":{"android":"levelo://app?vid=2f1ab682-82fd-4b0c-bc2e-e244b0ffb1c5","ios":"levelo://app?vid=2f1ab682-82fd-4b0c-bc2e-e244b0ffb1c5"},"vehicle_type_id":"4","last_reported":1698609993,"current_range_meters":27600,"station_id":"ce4bgt92rcd13ifvqcf0","pricing_plan_id":"free"},{"bike_id":"12aebd41-6e82-4f3f-aea5-634118f07ec8","system_id":"levelo_inurba_marseille","lat":43.313571,"lon":5.384829,"is_reserved":false,"is_disabled":false,"rental_uris":{"android":"levelo://app?vid=12aebd41-6e82-4f3f-aea5-634118f07ec8","ios":"levelo://app?vid=12aebd41-6e82-4f3f-aea5-634118f07ec8"},"vehicle_type_id":"4","last_reported":1698609993,"current_range_meters":16400,"station_id":"ce4bgt92rcd13ifvqcf0","pricing_plan_id":"free"},{"bike_id":"eb9ce977-db73-49f0-acb3-72bf40e9860d","system_id":"levelo_inurba_marseille","lat":43.313571,"lon":5.384829,"is_reserved":false,"is_disabled":false,"rental_uris":{"android":"levelo://app?vid=eb9ce977-db73-49f0-acb3-72bf40e9860d","ios":"levelo://app?vid=eb9ce977-db73-49f0-acb3-72bf40e9860d"},"vehicle_type_id":"4","last_reported":1698609993,"current_range_meters":24400,"station_id":"ce4bgt92rcd13ifvqcf0","pricing_plan_id":"free"},{"bike_id":"a1b5bccf-b05a-4c32-b853-aabb8ae676e2","system_id":"levelo_inurba_marseille","lat":43.299222,"lon":5.365554,"is_reserved":false,"is_disabled":false,"rental_uris":{"android":"levelo://app?vid=a1b5bccf-b05a-4c32-b853-aabb8ae676e2","ios":"levelo://app?vid=a1b5bccf-b05a-4c32-b853-aabb8ae676e2"},"vehicle_type_id":"4","last_reported":1698609993,"current_range_meters":0,"station_id":"ce4bgm92rcd13ifvqbr0","pricing_plan_id":"free"},{"bike_id":"5ba66772-20b6-408d-a6c3-0df1cd4bb678","system_id":"levelo_inurba_marseille","lat":43.3264,"lon":5.367334,"is_reserved":false,"is_disabled":false,"rental_uris":{"android":"levelo://app?vid=5ba66772-20b6-408d-a6c3-0df1cd4bb678","ios":"levelo://app?vid=5ba66772-20b6-408d-a6c3-0df1cd4bb678"},"vehicle_type_id":"4","last_reported":1698609993,"current_range_meters":12800,"station_id":"","pricing_plan_id":"free"},{"bike_id":"12502785-0416-48b1-ace3-e097f07644a4","system_id":"levelo_inurba_marseille","lat":43.311722,"lon":5.387247,"is_reserved":false,"is_disabled":false,"rental_uris":{"android":"levelo://app?vid=12502785-0416-48b1-ace3-e097f07644a4","ios":"levelo://app?vid=12502785-0416-48b1-ace3-e097f07644a4"},"vehicle_type_id":"4","last_reported":1698609993,"current_range_meters":27600,"station_id":"ce4bgv12rcd13ifvqcp0","pricing_plan_id":"free"},{"bike_id":"261ee04e-503f-442a-92b8-9a21484fc4c3","system_id":"levelo_inurba_marseille","lat":43.311722,"lon":5.387247,"is_reserved":false,"is_disabled":false,"rental_uris":{"android":"levelo://app?vid=261ee04e-503f-442a-92b8-9a21484fc4c3","ios":"levelo://app?vid=261ee04e-503f-442a-92b8-9a21484fc4c3"},"vehicle_type_id":"4","last_reported":1698609993,"current_range_meters":30000,"station_id":"ce4bgv12rcd13ifvqcp0","pricing_plan_id":"free"},{"bike_id":"d73bdb55-9b1c-4e22-b38b-50c2237083a0","system_id":"levelo_inurba_marseille","lat":43.311722,"lon":5.387247,"is_reserved":false,"is_disabled":false,"rental_uris":{"android":"levelo://app?vid=d73bdb55-9b1c-4e22-b38b-50c2237083a0","ios":"levelo://app?vid=d73bdb55-9b1c-4e22-b38b-50c2237083a0"},"vehicle_type_id":"4","last_reported":1698609993,"current_range_meters":14800,"station_id":"ce4bgv12rcd13ifvqcp0","pricing_plan_id":"free"},{"bike_id":"9052b137-abac-49f0-9a63-2adec52ff4f5","system_id":"levelo_inurba_marseille","lat":43.299243,"lon":5.37481,"is_reserved":false,"is_disabled":false,"rental_uris":{"android":"levelo://app?vid=9052b137-abac-49f0-9a63-2adec52ff4f5","ios":"levelo://app?vid=9052b137-abac-49f0-9a63-2adec52ff4f5"},"vehicle_type_id":"4","last_reported":1698609993,"current_range_meters":5600,"station_id":"ce4bgjh2rcd13ifvqbg0","pricing_plan_id":"free"},{"bike_id":"94b2375b-ed2a-4476-b9d3-460fa588b677","system_id":"levelo_inurba_marseille","lat":43.297794,"lon":5.370888,"is_reserved":false,"is_disabled":false,"rental_uris":{"android":"levelo://app?vid=94b2375b-ed2a-4476-b9d3-460fa588b677","ios":"levelo://app?vid=94b2375b-ed2a-4476-b9d3-460fa588b677"},"vehicle_type_id":"4","last_reported":1698609993,"current_range_meters":21600,"station_id":"ce4bgop2rcd13ifvqc1g","pricing_plan_id":"free"},{"bike_id":"b3d181f3-c3b9-423f-81bd-a550e8d17957","system_id":"levelo_inurba_marseille","lat":43.3229,"lon":5.38268,"is_reserved":false,"is_disabled":false,"rental_uris":{"android":"levelo://app?vid=b3d181f3-c3b9-423f-81bd-a550e8d17957","ios":"levelo://app?vid=b3d181f3-c3b9-423f-81bd-a550e8d17957"},"vehicle_type_id":"4","last_reported":1698609993,"current_range_meters":27600,"station_id":"ce4bhr12rcd13ifvqhqg","pricing_plan_id":"free"},{"bike_id":"3fce4738-edb0-4740-bf90-6f670be44407","system_id":"levelo_inurba_marseille","lat":43.32826,"lon":5.36691,"is_reserved":false,"is_disabled":false,"rental_uris":{"android":"levelo://app?vid=3fce4738-edb0-4740-bf90-6f670be44407","ios":"levelo://app?vid=3fce4738-edb0-4740-bf90-6f670be44407"},"vehicle_type_id":"4","last_reported":1698609993,"current_range_meters":3200,"station_id":"ce4bhs92rcd13ifvqi0g","pricing_plan_id":"free"},{"bike_id":"b268b5a1-f520-4edd-b3be-a567d7dc309c","system_id":"levelo_inurba_marseille","lat":43.328371,"lon":5.366909,"is_reserved":false,"is_disabled":false,"rental_uris":{"android":"levelo://app?vid=b268b5a1-f520-4edd-b3be-a567d7dc309c","ios":"levelo://app?vid=b268b5a1-f520-4edd-b3be-a567d7dc309c"},"vehicle_type_id":"4","last_reported":1698609993,"current_range_meters":23200,"station_id":"ce4bhs92rcd13ifvqi0g","pricing_plan_id":"free"},{"bike_id":"ca43266d-8f64-4304-9316-b8acc0650052","system_id":"levelo_inurba_marseille","lat":43.32827,"lon":5.3669,"is_reserved":false,"is_disabled":false,"rental_uris":{"android":"levelo://app?vid=ca43266d-8f64-4304-9316-b8acc0650052","ios":"levelo://app?vid=ca43266d-8f64-4304-9316-b8acc0650052"},"vehicle_type_id":"4","last_reported":1698609993,"current_range_meters":3600,"station_id":"ce4bhs92rcd13ifvqi0g","pricing_plan_id":"free"},{"bike_id":"1401713a-906e-435e-8b48-1afc57029fa7","system_id":"levelo_inurba_marseille","lat":43.3283,"lon":5.36676,"is_reserved":false,"is_disabled":false,"rental_uris":{"android":"levelo://app?vid=1401713a-906e-435e-8b48-1afc57029fa7","ios":"levelo://app?vid=1401713a-906e-435e-8b48-1afc57029fa7"},"vehicle_type_id":"4","last_reported":1698609993,"current_range_meters":12000,"station_id":"ce4bhs92rcd13ifvqi0g","pricing_plan_id":"free"},{"bike_id":"2bf09692-7151-4aba-9fa7-8ce1d6106004","system_id":"levelo_inurba_marseille","lat":43.328303,"lon":5.366873,"is_reserved":false,"is_disabled":false,"rental_uris":{"android":"levelo://app?vid=2bf09692-7151-4aba-9fa7-8ce1d6106004","ios":"levelo://app?vid=2bf09692-7151-4aba-9fa7-8ce1d6106004"},"vehicle_type_id":"4","last_reported":1698609993,"current_range_meters":8000,"station_id":"","pricing_plan_id":"free"},{"bike_id":"86bb0a20-8123-4e0e-84f3-756c4bdb05df","system_id":"levelo_inurba_marseille","lat":43.32833,"lon":5.3669,"is_reserved":false,"is_disabled":false,"rental_uris":{"android":"levelo://app?vid=86bb0a20-8123-4e0e-84f3-756c4bdb05df","ios":"levelo://app?vid=86bb0a20-8123-4e0e-84f3-756c4bdb05df"},"vehicle_type_id":"4","last_reported":1698609993,"current_range_meters":19200,"station_id":"ce4bhs92rcd13ifvqi0g","pricing_plan_id":"free"},{"bike_id":"7058fde7-e208-4c67-9c3f-b8160ae07a6d","system_id":"levelo_inurba_marseille","lat":43.328371,"lon":5.366909,"is_reserved":false,"is_disabled":false,"rental_uris":{"android":"levelo://app?vid=7058fde7-e208-4c67-9c3f-b8160ae07a6d","ios":"levelo://app?vid=7058fde7-e208-4c67-9c3f-b8160ae07a6d"},"vehicle_type_id":"4","last_reported":1698609993,"current_range_meters":12800,"station_id":"ce4bhs92rcd13ifvqi0g","pricing_plan_id":"free"},{"bike_id":"98cdae56-93ed-4430-a8b5-f41663ddefc0","system_id":"levelo_inurba_marseille","lat":43.328371,"lon":5.366909,"is_reserved":false,"is_disabled":false,"rental_uris":{"android":"levelo://app?vid=98cdae56-93ed-4430-a8b5-f41663ddefc0","ios":"levelo://app?vid=98cdae56-93ed-4430-a8b5-f41663ddefc0"},"vehicle_type_id":"4","last_reported":1698609993,"current_range_meters":31200,"station_id":"ce4bhs92rcd13ifvqi0g","pricing_plan_id":"free"},{"bike_id":"dd1c0b20-019a-4f88-ae15-bb2c3eed70ed","system_id":"levelo_inurba_marseille","lat":43.318942,"lon":5.388018,"is_reserved":false,"is_disabled":false,"rental_uris":{"android":"levelo://app?vid=dd1c0b20-019a-4f88-ae15-bb2c3eed70ed","ios":"levelo://app?vid=dd1c0b20-019a-4f88-ae15-bb2c3eed70ed"},"vehicle_type_id":"4","last_reported":1698609993,"current_range_meters":0,"station_id":"","pricing_plan_id":"free"},{"bike_id":"f3d0381f-7a2d-409e-a12f-bd3d9095653d","system_id":"levelo_inurba_marseille","lat":43.329673,"lon":5.365468,"is_reserved":false,"is_disabled":false,"rental_uris":{"android":"levelo://app?vid=f3d0381f-7a2d-409e-a12f-bd3d9095653d","ios":"levelo://app?vid=f3d0381f-7a2d-409e-a12f-bd3d9095653d"},"vehicle_type_id":"4","last_reported":1698609993,"current_range_meters":400,"station_id":"","pricing_plan_id":"free"},{"bike_id":"7971970d-9c56-4e01-8024-d9e36b65a134","system_id":"levelo_inurba_marseille","lat":43.299028,"lon":5.381509,"is_reserved":false,"is_disabled":false,"rental_uris":{"android":"levelo://app?vid=7971970d-9c56-4e01-8024-d9e36b65a134","ios":"levelo://app?vid=7971970d-9c56-4e01-8024-d9e36b65a134"},"vehicle_type_id":"4","last_reported":1698609993,"current_range_meters":14400,"station_id":"ce4bgj12rcd13ifvqbc0","pricing_plan_id":"free"},{"bike_id":"b495967c-64c2-44d1-b24b-eb1f84b3b7ac","system_id":"levelo_inurba_marseille","lat":43.309589,"lon":5.390258,"is_reserved":false,"is_disabled":false,"rental_uris":{"android":"levelo://app?vid=b495967c-64c2-44d1-b24b-eb1f84b3b7ac","ios":"levelo://app?vid=b495967c-64c2-44d1-b24b-eb1f84b3b7ac"},"vehicle_type_id":"4","last_reported":1698609993,"current_range_meters":10800,"station_id":"ce4bgup2rcd13ifvqco0","pricing_plan_id":"free"},{"bike_id":"8b26baea-9a85-47a4-b12e-1c04e24b5ef8","system_id":"levelo_inurba_marseille","lat":43.296921,"lon":5.376579,"is_reserved":false,"is_disabled":false,"rental_uris":{"android":"levelo://app?vid=8b26baea-9a85-47a4-b12e-1c04e24b5ef8","ios":"levelo://app?vid=8b26baea-9a85-47a4-b12e-1c04e24b5ef8"},"vehicle_type_id":"4","last_reported":1698609993,"current_range_meters":10400,"station_id":"ce4bgkh2rcd13ifvqbl0","pricing_plan_id":"free"},{"bike_id":"4dce2d9e-8449-4a28-a496-37da14d8290d","system_id":"levelo_inurba_marseille","lat":43.296935,"lon":5.376544,"is_reserved":false,"is_disabled":false,"rental_uris":{"android":"levelo://app?vid=4dce2d9e-8449-4a28-a496-37da14d8290d","ios":"levelo://app?vid=4dce2d9e-8449-4a28-a496-37da14d8290d"},"vehicle_type_id":"4","last_reported":1698609993,"current_range_meters":26000,"station_id":"ce4bgkh2rcd13ifvqbl0","pricing_plan_id":"free"},{"bike_id":"1d2c5514-6961-4ee6-952e-694f4d60fad5","system_id":"levelo_inurba_marseille","lat":43.317557,"lon":5.390173,"is_reserved":false,"is_disabled":false,"rental_uris":{"android":"levelo://app?vid=1d2c5514-6961-4ee6-952e-694f4d60fad5","ios":"levelo://app?vid=1d2c5514-6961-4ee6-952e-694f4d60fad5"},"vehicle_type_id":"4","last_reported":1698609993,"current_range_meters":11600,"station_id":"ce4bhqp2rcd13ifvqhng","pricing_plan_id":"free"},{"bike_id":"3399b97a-aee6-4da8-b0b5-acd73a2537b8","system_id":"levelo_inurba_marseille","lat":43.299717,"lon":5.384845,"is_reserved":false,"is_disabled":false,"rental_uris":{"android":"levelo://app?vid=3399b97a-aee6-4da8-b0b5-acd73a2537b8","ios":"levelo://app?vid=3399b97a-aee6-4da8-b0b5-acd73a2537b8"},"vehicle_type_id":"4","last_reported":1698609993,"current_range_meters":7200,"station_id":"ce4bgj92rcd13ifvqbd0","pricing_plan_id":"free"},{"bike_id":"13d3322b-b2c0-4a28-a31b-1d760dac4fa1","system_id":"levelo_inurba_marseille","lat":43.2952,"lon":5.375,"is_reserved":false,"is_disabled":false,"rental_uris":{"android":"levelo://app?vid=13d3322b-b2c0-4a28-a31b-1d760dac4fa1","ios":"levelo://app?vid=13d3322b-b2c0-4a28-a31b-1d760dac4fa1"},"vehicle_type_id":"4","last_reported":1698609993,"current_range_meters":17600,"station_id":"ce4bgkp2rcd13ifvqbmg","pricing_plan_id":"free"},{"bike_id":"25ba197e-7035-4e6c-8412-b726de8f8a0e","system_id":"levelo_inurba_marseille","lat":43.295169,"lon":5.390426,"is_reserved":false,"is_disabled":false,"rental_uris":{"android":"levelo://app?vid=25ba197e-7035-4e6c-8412-b726de8f8a0e","ios":"levelo://app?vid=25ba197e-7035-4e6c-8412-b726de8f8a0e"},"vehicle_type_id":"4","last_reported":1698609993,"current_range_meters":14000,"station_id":"ce4bh3p2rcd13ifvqdp0","pricing_plan_id":"free"},{"bike_id":"fffdb89f-d0fa-48b2-8a15-e8865b4139a1","system_id":"levelo_inurba_marseille","lat":43.32366,"lon":5.38883,"is_reserved":false,"is_disabled":false,"rental_uris":{"android":"levelo://app?vid=fffdb89f-d0fa-48b2-8a15-e8865b4139a1","ios":"levelo://app?vid=fffdb89f-d0fa-48b2-8a15-e8865b4139a1"},"vehicle_type_id":"4","last_reported":1698609993,"current_range_meters":2400,"station_id":"ce4bhqp2rcd13ifvqhog","pricing_plan_id":"free"},{"bike_id":"4dff1eef-e809-4b14-a50e-7e9c5e863ed7","system_id":"levelo_inurba_marseille","lat":43.29602,"lon":5.381084,"is_reserved":false,"is_disabled":false,"rental_uris":{"android":"levelo://app?vid=4dff1eef-e809-4b14-a50e-7e9c5e863ed7","ios":"levelo://app?vid=4dff1eef-e809-4b14-a50e-7e9c5e863ed7"},"vehicle_type_id":"4","last_reported":1698609993,"current_range_meters":17600,"station_id":"ce4bgl12rcd13ifvqbo0","pricing_plan_id":"free"},{"bike_id":"a8b51a2f-bf08-445e-8d47-4cea4b431328","system_id":"levelo_inurba_marseille","lat":43.292749,"lon":5.368402,"is_reserved":false,"is_disabled":false,"rental_uris":{"android":"levelo://app?vid=a8b51a2f-bf08-445e-8d47-4cea4b431328","ios":"levelo://app?vid=a8b51a2f-bf08-445e-8d47-4cea4b431328"},"vehicle_type_id":"4","last_reported":1698609993,"current_range_meters":13600,"station_id":"ce4bhbp2rcd13ifvqesg","pricing_plan_id":"free"},{"bike_id":"329d85e7-77b7-4a03-ab62-c43555ee2286","system_id":"levelo_inurba_marseille","lat":43.293259,"lon":5.371586,"is_reserved":false,"is_disabled":false,"rental_uris":{"android":"levelo://app?vid=329d85e7-77b7-4a03-ab62-c43555ee2286","ios":"levelo://app?vid=329d85e7-77b7-4a03-ab62-c43555ee2286"},"vehicle_type_id":"4","last_reported":1698609993,"current_range_meters":18400,"station_id":"ce4bgh92rcd13ifvqb40","pricing_plan_id":"free"},{"bike_id":"a06fb85b-a6e8-4d96-a295-7043aa00a26a","system_id":"levelo_inurba_marseille","lat":43.293009,"lon":5.374584,"is_reserved":false,"is_disabled":false,"rental_uris":{"android":"levelo://app?vid=a06fb85b-a6e8-4d96-a295-7043aa00a26a","ios":"levelo://app?vid=a06fb85b-a6e8-4d96-a295-7043aa00a26a"},"vehicle_type_id":"4","last_reported":1698609993,"current_range_meters":0,"station_id":"ce4bgi12rcd13ifvqb70","pricing_plan_id":"free"},{"bike_id":"060ae642-beb6-4426-899d-a5bf279698ce","system_id":"levelo_inurba_marseille","lat":43.293009,"lon":5.374584,"is_reserved":false,"is_disabled":false,"rental_uris":{"android":"levelo://app?vid=060ae642-beb6-4426-899d-a5bf279698ce","ios":"levelo://app?vid=060ae642-beb6-4426-899d-a5bf279698ce"},"vehicle_type_id":"4","last_reported":1698609993,"current_range_meters":0,"station_id":"ce4bgi12rcd13ifvqb70","pricing_plan_id":"free"},{"bike_id":"eac55168-512e-476b-8708-6e7a590e5cec","system_id":"levelo_inurba_marseille","lat":43.305994,"lon":5.393687,"is_reserved":false,"is_disabled":false,"rental_uris":{"android":"levelo://app?vid=eac55168-512e-476b-8708-6e7a590e5cec","ios":"levelo://app?vid=eac55168-512e-476b-8708-6e7a590e5cec"},"vehicle_type_id":"4","last_reported":1698609993,"current_range_meters":2400,"station_id":"ce4bh0p2rcd13ifvqd80","pricing_plan_id":"free"},{"bike_id":"43dcfddf-73de-4e2c-aea2-24504b48d973","system_id":"levelo_inurba_marseille","lat":43.303002,"lon":5.392142,"is_reserved":false,"is_disabled":false,"rental_uris":{"android":"levelo://app?vid=43dcfddf-73de-4e2c-aea2-24504b48d973","ios":"levelo://app?vid=43dcfddf-73de-4e2c-aea2-24504b48d973"},"vehicle_type_id":"4","last_reported":1698609993,"current_range_meters":0,"station_id":"ce4bgkh2rcd13ifvqbk0","pricing_plan_id":"free"},{"bike_id":"0e8233d2-0d57-470f-8c07-e9f753046a4f","system_id":"levelo_inurba_marseille","lat":43.332197,"lon":5.379064,"is_reserved":false,"is_disabled":false,"rental_uris":{"android":"levelo://app?vid=0e8233d2-0d57-470f-8c07-e9f753046a4f","ios":"levelo://app?vid=0e8233d2-0d57-470f-8c07-e9f753046a4f"},"vehicle_type_id":"4","last_reported":1698609993,"current_range_meters":28000,"station_id":"","pricing_plan_id":"free"},{"bike_id":"1f580447-7b2c-4630-9a51-33e28281b372","system_id":"levelo_inurba_marseille","lat":43.332219,"lon":5.380002,"is_reserved":false,"is_disabled":false,"rental_uris":{"android":"levelo://app?vid=1f580447-7b2c-4630-9a51-33e28281b372","ios":"levelo://app?vid=1f580447-7b2c-4630-9a51-33e28281b372"},"vehicle_type_id":"4","last_reported":1698609993,"current_range_meters":31200,"station_id":"","pricing_plan_id":"free"},{"bike_id":"46ad826a-4d9e-4479-a4cb-09fc6537a362","system_id":"levelo_inurba_marseille","lat":43.309038,"lon":5.396546,"is_reserved":false,"is_disabled":false,"rental_uris":{"android":"levelo://app?vid=46ad826a-4d9e-4479-a4cb-09fc6537a362","ios":"levelo://app?vid=46ad826a-4d9e-4479-a4cb-09fc6537a362"},"vehicle_type_id":"4","last_reported":1698609993,"current_range_meters":15200,"station_id":"ce4bh012rcd13ifvqcv0","pricing_plan_id":"free"},{"bike_id":"ad82814c-3176-4edf-b13d-118879635fa7","system_id":"levelo_inurba_marseille","lat":43.31335,"lon":5.39689,"is_reserved":false,"is_disabled":false,"rental_uris":{"android":"levelo://app?vid=ad82814c-3176-4edf-b13d-118879635fa7","ios":"levelo://app?vid=ad82814c-3176-4edf-b13d-118879635fa7"},"vehicle_type_id":"4","last_reported":1698609993,"current_range_meters":14400,"station_id":"ce4bgvp2rcd13ifvqcu0","pricing_plan_id":"free"},{"bike_id":"1ccea910-e6fd-4ade-beaa-d1141e72e330","system_id":"levelo_inurba_marseille","lat":43.31331,"lon":5.39697,"is_reserved":false,"is_disabled":false,"rental_uris":{"android":"levelo://app?vid=1ccea910-e6fd-4ade-beaa-d1141e72e330","ios":"levelo://app?vid=1ccea910-e6fd-4ade-beaa-d1141e72e330"},"vehicle_type_id":"4","last_reported":1698609993,"current_range_meters":17200,"station_id":"ce4bgvp2rcd13ifvqcu0","pricing_plan_id":"free"},{"bike_id":"3e585604-efbe-4353-840b-177e55fb1fbd","system_id":"levelo_inurba_marseille","lat":43.309038,"lon":5.396546,"is_reserved":false,"is_disabled":false,"rental_uris":{"android":"levelo://app?vid=3e585604-efbe-4353-840b-177e55fb1fbd","ios":"levelo://app?vid=3e585604-efbe-4353-840b-177e55fb1fbd"},"vehicle_type_id":"4","last_reported":1698609993,"current_range_meters":0,"station_id":"ce4bh012rcd13ifvqcv0","pricing_plan_id":"free"},{"bike_id":"7ed51fa2-8c55-4031-a9e7-5178b4fad063","system_id":"levelo_inurba_marseille","lat":43.29529,"lon":5.385581,"is_reserved":false,"is_disabled":false,"rental_uris":{"android":"levelo://app?vid=7ed51fa2-8c55-4031-a9e7-5178b4fad063","ios":"levelo://app?vid=7ed51fa2-8c55-4031-a9e7-5178b4fad063"},"vehicle_type_id":"4","last_reported":1698609993,"current_range_meters":29200,"station_id":"ce4bgih2rcd13ifvqba0","pricing_plan_id":"free"},{"bike_id":"d9f79d21-6408-4861-b1c0-3f0132ac4e79","system_id":"levelo_inurba_marseille","lat":43.29529,"lon":5.385581,"is_reserved":false,"is_disabled":false,"rental_uris":{"android":"levelo://app?vid=d9f79d21-6408-4861-b1c0-3f0132ac4e79","ios":"levelo://app?vid=d9f79d21-6408-4861-b1c0-3f0132ac4e79"},"vehicle_type_id":"4","last_reported":1698609993,"current_range_meters":17200,"station_id":"ce4bgih2rcd13ifvqba0","pricing_plan_id":"free"},{"bike_id":"9e186f55-d906-4b54-9553-eed70e222375","system_id":"levelo_inurba_marseille","lat":43.330979,"lon":5.385284,"is_reserved":false,"is_disabled":false,"rental_uris":{"android":"levelo://app?vid=9e186f55-d906-4b54-9553-eed70e222375","ios":"levelo://app?vid=9e186f55-d906-4b54-9553-eed70e222375"},"vehicle_type_id":"4","last_reported":1698609993,"current_range_meters":23600,"station_id":"","pricing_plan_id":"free"},{"bike_id":"e7542eac-9d13-4d8c-a164-4cecf551f578","system_id":"levelo_inurba_marseille","lat":43.289184,"lon":5.366408,"is_reserved":false,"is_disabled":false,"rental_uris":{"android":"levelo://app?vid=e7542eac-9d13-4d8c-a164-4cecf551f578","ios":"levelo://app?vid=e7542eac-9d13-4d8c-a164-4cecf551f578"},"vehicle_type_id":"4","last_reported":1698609993,"current_range_meters":21200,"station_id":"ce4bhap2rcd13ifvqek0","pricing_plan_id":"free"},{"bike_id":"5fcf799c-3593-4ca4-815e-1de7f7d79726","system_id":"levelo_inurba_marseille","lat":43.289184,"lon":5.366408,"is_reserved":false,"is_disabled":false,"rental_uris":{"android":"levelo://app?vid=5fcf799c-3593-4ca4-815e-1de7f7d79726","ios":"levelo://app?vid=5fcf799c-3593-4ca4-815e-1de7f7d79726"},"vehicle_type_id":"4","last_reported":1698609993,"current_range_meters":10400,"station_id":"ce4bhap2rcd13ifvqek0","pricing_plan_id":"free"},{"bike_id":"69ecb7bc-b04e-488f-b705-9738eba012b6","system_id":"levelo_inurba_marseille","lat":43.304296,"lon":5.397513,"is_reserved":false,"is_disabled":false,"rental_uris":{"android":"levelo://app?vid=69ecb7bc-b04e-488f-b705-9738eba012b6","ios":"levelo://app?vid=69ecb7bc-b04e-488f-b705-9738eba012b6"},"vehicle_type_id":"4","last_reported":1698609993,"current_range_meters":8800,"station_id":"ce4bh092rcd13ifvqd20","pricing_plan_id":"free"},{"bike_id":"aed684bb-61de-493b-9a61-f14f511a3d18","system_id":"levelo_inurba_marseille","lat":43.292644,"lon":5.384257,"is_reserved":false,"is_disabled":false,"rental_uris":{"android":"levelo://app?vid=aed684bb-61de-493b-9a61-f14f511a3d18","ios":"levelo://app?vid=aed684bb-61de-493b-9a61-f14f511a3d18"},"vehicle_type_id":"4","last_reported":1698609993,"current_range_meters":25200,"station_id":"ce4bh692rcd13ifvqea0","pricing_plan_id":"free"},{"bike_id":"9f56a466-f924-4fd1-a1ba-26e703d32812","system_id":"levelo_inurba_marseille","lat":43.292644,"lon":5.384257,"is_reserved":false,"is_disabled":false,"rental_uris":{"android":"levelo://app?vid=9f56a466-f924-4fd1-a1ba-26e703d32812","ios":"levelo://app?vid=9f56a466-f924-4fd1-a1ba-26e703d32812"},"vehicle_type_id":"4","last_reported":1698609993,"current_range_meters":5200,"station_id":"ce4bh692rcd13ifvqea0","pricing_plan_id":"free"},{"bike_id":"46b0c2bd-3630-4db3-a1e6-5b1b785f7b6f","system_id":"levelo_inurba_marseille","lat":43.33043,"lon":5.38917,"is_reserved":false,"is_disabled":false,"rental_uris":{"android":"levelo://app?vid=46b0c2bd-3630-4db3-a1e6-5b1b785f7b6f","ios":"levelo://app?vid=46b0c2bd-3630-4db3-a1e6-5b1b785f7b6f"},"vehicle_type_id":"4","last_reported":1698609993,"current_range_meters":8400,"station_id":"ce4bhr92rcd13ifvqhrg","pricing_plan_id":"free"},{"bike_id":"c10da6c2-beda-4ee6-b96c-ba5d86476fb1","system_id":"levelo_inurba_marseille","lat":43.33042,"lon":5.38919,"is_reserved":false,"is_disabled":false,"rental_uris":{"android":"levelo://app?vid=c10da6c2-beda-4ee6-b96c-ba5d86476fb1","ios":"levelo://app?vid=c10da6c2-beda-4ee6-b96c-ba5d86476fb1"},"vehicle_type_id":"4","last_reported":1698609993,"current_range_meters":18800,"station_id":"ce4bhr92rcd13ifvqhrg","pricing_plan_id":"free"},{"bike_id":"d5d3925f-f867-4392-8d62-29b79e249aaa","system_id":"levelo_inurba_marseille","lat":43.33042,"lon":5.38919,"is_reserved":false,"is_disabled":false,"rental_uris":{"android":"levelo://app?vid=d5d3925f-f867-4392-8d62-29b79e249aaa","ios":"levelo://app?vid=d5d3925f-f867-4392-8d62-29b79e249aaa"},"vehicle_type_id":"4","last_reported":1698609993,"current_range_meters":22400,"station_id":"ce4bhr92rcd13ifvqhrg","pricing_plan_id":"free"},{"bike_id":"8ec8b72c-dd6f-469d-aee0-017da7f125f4","system_id":"levelo_inurba_marseille","lat":43.330442,"lon":5.389148,"is_reserved":false,"is_disabled":false,"rental_uris":{"android":"levelo://app?vid=8ec8b72c-dd6f-469d-aee0-017da7f125f4","ios":"levelo://app?vid=8ec8b72c-dd6f-469d-aee0-017da7f125f4"},"vehicle_type_id":"4","last_reported":1698609993,"current_range_meters":5200,"station_id":"ce4bhr92rcd13ifvqhrg","pricing_plan_id":"free"},{"bike_id":"e0d713cd-ec81-44ec-8ba4-571dd76a2b05","system_id":"levelo_inurba_marseille","lat":43.295169,"lon":5.390426,"is_reserved":false,"is_disabled":false,"rental_uris":{"android":"levelo://app?vid=e0d713cd-ec81-44ec-8ba4-571dd76a2b05","ios":"levelo://app?vid=e0d713cd-ec81-44ec-8ba4-571dd76a2b05"},"vehicle_type_id":"4","last_reported":1698609993,"current_range_meters":23200,"station_id":"ce4bh3p2rcd13ifvqdp0","pricing_plan_id":"free"},{"bike_id":"eb1631ad-21eb-4f5c-8f50-ff6bb461367d","system_id":"levelo_inurba_marseille","lat":43.28839,"lon":5.36656,"is_reserved":false,"is_disabled":false,"rental_uris":{"android":"levelo://app?vid=eb1631ad-21eb-4f5c-8f50-ff6bb461367d","ios":"levelo://app?vid=eb1631ad-21eb-4f5c-8f50-ff6bb461367d"},"vehicle_type_id":"4","last_reported":1698609993,"current_range_meters":14400,"station_id":"","pricing_plan_id":"free"},{"bike_id":"162d9f4c-522d-4730-84ee-6144fa4f4405","system_id":"levelo_inurba_marseille","lat":43.29778,"lon":5.39339,"is_reserved":false,"is_disabled":false,"rental_uris":{"android":"levelo://app?vid=162d9f4c-522d-4730-84ee-6144fa4f4405","ios":"levelo://app?vid=162d9f4c-522d-4730-84ee-6144fa4f4405"},"vehicle_type_id":"4","last_reported":1698609993,"current_range_meters":11600,"station_id":"chh1huq6cuj3fo74tm60","pricing_plan_id":"free"},{"bike_id":"400f1b09-4822-4bbe-b20c-41bba466519c","system_id":"levelo_inurba_marseille","lat":43.309589,"lon":5.390258,"is_reserved":false,"is_disabled":false,"rental_uris":{"android":"levelo://app?vid=400f1b09-4822-4bbe-b20c-41bba466519c","ios":"levelo://app?vid=400f1b09-4822-4bbe-b20c-41bba466519c"},"vehicle_type_id":"4","last_reported":1698609993,"current_range_meters":10400,"station_id":"ce4bgup2rcd13ifvqco0","pricing_plan_id":"free"},{"bike_id":"ffc3fe4d-9429-4086-94ef-8f19136b3b3f","system_id":"levelo_inurba_marseille","lat":43.33755,"lon":5.37438,"is_reserved":false,"is_disabled":false,"rental_uris":{"android":"levelo://app?vid=ffc3fe4d-9429-4086-94ef-8f19136b3b3f","ios":"levelo://app?vid=ffc3fe4d-9429-4086-94ef-8f19136b3b3f"},"vehicle_type_id":"4","last_reported":1698609993,"current_range_meters":29600,"station_id":"","pricing_plan_id":"free"},{"bike_id":"d98f8166-ea07-41ad-92a5-bdb6affc3d1a","system_id":"levelo_inurba_marseille","lat":43.30642,"lon":5.401031,"is_reserved":false,"is_disabled":false,"rental_uris":{"android":"levelo://app?vid=d98f8166-ea07-41ad-92a5-bdb6affc3d1a","ios":"levelo://app?vid=d98f8166-ea07-41ad-92a5-bdb6affc3d1a"},"vehicle_type_id":"4","last_reported":1698609993,"current_range_meters":15600,"station_id":"ce4bh112rcd13ifvqda0","pricing_plan_id":"free"},{"bike_id":"b231822a-119b-4312-911c-e2fb07219e92","system_id":"levelo_inurba_marseille","lat":43.337597,"lon":5.374588,"is_reserved":false,"is_disabled":false,"rental_uris":{"android":"levelo://app?vid=b231822a-119b-4312-911c-e2fb07219e92","ios":"levelo://app?vid=b231822a-119b-4312-911c-e2fb07219e92"},"vehicle_type_id":"4","last_reported":1698609993,"current_range_meters":27600,"station_id":"","pricing_plan_id":"free"},{"bike_id":"4b54453b-b5f6-4b8e-afd7-7be1bbca85fd","system_id":"levelo_inurba_marseille","lat":43.306412,"lon":5.401035,"is_reserved":false,"is_disabled":false,"rental_uris":{"android":"levelo://app?vid=4b54453b-b5f6-4b8e-afd7-7be1bbca85fd","ios":"levelo://app?vid=4b54453b-b5f6-4b8e-afd7-7be1bbca85fd"},"vehicle_type_id":"4","last_reported":1698609993,"current_range_meters":400,"station_id":"ce4bh112rcd13ifvqda0","pricing_plan_id":"free"},{"bike_id":"0f6931eb-6f1c-4afb-9de3-a9ff747fac84","system_id":"levelo_inurba_marseille","lat":43.28727,"lon":5.36078,"is_reserved":false,"is_disabled":false,"rental_uris":{"android":"levelo://app?vid=0f6931eb-6f1c-4afb-9de3-a9ff747fac84","ios":"levelo://app?vid=0f6931eb-6f1c-4afb-9de3-a9ff747fac84"},"vehicle_type_id":"4","last_reported":1698609993,"current_range_meters":23600,"station_id":"cki0cbj6b192h4jlfktg","pricing_plan_id":"free"},{"bike_id":"36558afd-aed3-4111-95b9-6dd7f02af3fc","system_id":"levelo_inurba_marseille","lat":43.28727,"lon":5.36078,"is_reserved":false,"is_disabled":false,"rental_uris":{"android":"levelo://app?vid=36558afd-aed3-4111-95b9-6dd7f02af3fc","ios":"levelo://app?vid=36558afd-aed3-4111-95b9-6dd7f02af3fc"},"vehicle_type_id":"4","last_reported":1698609993,"current_range_meters":18400,"station_id":"cki0cbj6b192h4jlfktg","pricing_plan_id":"free"},{"bike_id":"a354bf3e-e716-452e-9d77-a6d1cc049c36","system_id":"levelo_inurba_marseille","lat":43.286961,"lon":5.373785,"is_reserved":false,"is_disabled":false,"rental_uris":{"android":"levelo://app?vid=a354bf3e-e716-452e-9d77-a6d1cc049c36","ios":"levelo://app?vid=a354bf3e-e716-452e-9d77-a6d1cc049c36"},"vehicle_type_id":"4","last_reported":1698609993,"current_range_meters":26400,"station_id":"ce4bh3p2rcd13ifvqdq0","pricing_plan_id":"free"},{"bike_id":"864cb494-bd50-43c4-96b7-48f139b3c1dc","system_id":"levelo_inurba_marseille","lat":43.286961,"lon":5.373785,"is_reserved":false,"is_disabled":false,"rental_uris":{"android":"levelo://app?vid=864cb494-bd50-43c4-96b7-48f139b3c1dc","ios":"levelo://app?vid=864cb494-bd50-43c4-96b7-48f139b3c1dc"},"vehicle_type_id":"4","last_reported":1698609993,"current_range_meters":18000,"station_id":"ce4bh3p2rcd13ifvqdq0","pricing_plan_id":"free"},{"bike_id":"f848aa51-b7db-4bc1-a2c2-3c6aa31927b5","system_id":"levelo_inurba_marseille","lat":43.286961,"lon":5.373785,"is_reserved":false,"is_disabled":false,"rental_uris":{"android":"levelo://app?vid=f848aa51-b7db-4bc1-a2c2-3c6aa31927b5","ios":"levelo://app?vid=f848aa51-b7db-4bc1-a2c2-3c6aa31927b5"},"vehicle_type_id":"4","last_reported":1698609993,"current_range_meters":10000,"station_id":"ce4bh3p2rcd13ifvqdq0","pricing_plan_id":"free"},{"bike_id":"56dce50a-5fce-48dc-a9f1-3e39a230c0d6","system_id":"levelo_inurba_marseille","lat":43.286039,"lon":5.370679,"is_reserved":false,"is_disabled":false,"rental_uris":{"android":"levelo://app?vid=56dce50a-5fce-48dc-a9f1-3e39a230c0d6","ios":"levelo://app?vid=56dce50a-5fce-48dc-a9f1-3e39a230c0d6"},"vehicle_type_id":"4","last_reported":1698609993,"current_range_meters":31600,"station_id":"ce4bht12rcd13ifvqi60","pricing_plan_id":"free"},{"bike_id":"68727eb5-db93-42ab-bd8d-947e29f2909d","system_id":"levelo_inurba_marseille","lat":43.286039,"lon":5.370679,"is_reserved":false,"is_disabled":false,"rental_uris":{"android":"levelo://app?vid=68727eb5-db93-42ab-bd8d-947e29f2909d","ios":"levelo://app?vid=68727eb5-db93-42ab-bd8d-947e29f2909d"},"vehicle_type_id":"4","last_reported":1698609993,"current_range_meters":26000,"station_id":"ce4bht12rcd13ifvqi60","pricing_plan_id":"free"},{"bike_id":"41026923-a56c-4952-8719-6bac3fdbc61a","system_id":"levelo_inurba_marseille","lat":43.286039,"lon":5.370679,"is_reserved":false,"is_disabled":false,"rental_uris":{"android":"levelo://app?vid=41026923-a56c-4952-8719-6bac3fdbc61a","ios":"levelo://app?vid=41026923-a56c-4952-8719-6bac3fdbc61a"},"vehicle_type_id":"4","last_reported":1698609993,"current_range_meters":4800,"station_id":"ce4bht12rcd13ifvqi60","pricing_plan_id":"free"},{"bike_id":"dfe8e09e-046d-4d76-9dc3-10ab419a23a5","system_id":"levelo_inurba_marseille","lat":43.28608,"lon":5.37063,"is_reserved":false,"is_disabled":false,"rental_uris":{"android":"levelo://app?vid=dfe8e09e-046d-4d76-9dc3-10ab419a23a5","ios":"levelo://app?vid=dfe8e09e-046d-4d76-9dc3-10ab419a23a5"},"vehicle_type_id":"4","last_reported":1698609993,"current_range_meters":26400,"station_id":"ce4bht12rcd13ifvqi60","pricing_plan_id":"free"},{"bike_id":"c25bec2f-f3f7-4b74-aeab-105047b0e59f","system_id":"levelo_inurba_marseille","lat":43.28431,"lon":5.35801,"is_reserved":false,"is_disabled":false,"rental_uris":{"android":"levelo://app?vid=c25bec2f-f3f7-4b74-aeab-105047b0e59f","ios":"levelo://app?vid=c25bec2f-f3f7-4b74-aeab-105047b0e59f"},"vehicle_type_id":"4","last_reported":1698609993,"current_range_meters":4400,"station_id":"","pricing_plan_id":"free"},{"bike_id":"4fdb268d-38cf-4cad-929b-d569b625694f","system_id":"levelo_inurba_marseille","lat":43.283998,"lon":5.375062,"is_reserved":false,"is_disabled":false,"rental_uris":{"android":"levelo://app?vid=4fdb268d-38cf-4cad-929b-d569b625694f","ios":"levelo://app?vid=4fdb268d-38cf-4cad-929b-d569b625694f"},"vehicle_type_id":"4","last_reported":1698609993,"current_range_meters":12000,"station_id":"ce4bh412rcd13ifvqds0","pricing_plan_id":"free"},{"bike_id":"0377452f-25b8-4b46-94cb-dbfbc50b14ca","system_id":"levelo_inurba_marseille","lat":43.28408,"lon":5.37517,"is_reserved":false,"is_disabled":false,"rental_uris":{"android":"levelo://app?vid=0377452f-25b8-4b46-94cb-dbfbc50b14ca","ios":"levelo://app?vid=0377452f-25b8-4b46-94cb-dbfbc50b14ca"},"vehicle_type_id":"4","last_reported":1698609993,"current_range_meters":16000,"station_id":"ce4bh412rcd13ifvqds0","pricing_plan_id":"free"},{"bike_id":"86790a8e-34a2-4198-be55-fda566fd3d8b","system_id":"levelo_inurba_marseille","lat":43.286663,"lon":5.3867,"is_reserved":false,"is_disabled":false,"rental_uris":{"android":"levelo://app?vid=86790a8e-34a2-4198-be55-fda566fd3d8b","ios":"levelo://app?vid=86790a8e-34a2-4198-be55-fda566fd3d8b"},"vehicle_type_id":"4","last_reported":1698609993,"current_range_meters":26800,"station_id":"ce4bh492rcd13ifvqdug","pricing_plan_id":"free"},{"bike_id":"fceb2f5a-6aa3-462f-83db-0b9253193b47","system_id":"levelo_inurba_marseille","lat":43.323464,"lon":5.406297,"is_reserved":false,"is_disabled":false,"rental_uris":{"android":"levelo://app?vid=fceb2f5a-6aa3-462f-83db-0b9253193b47","ios":"levelo://app?vid=fceb2f5a-6aa3-462f-83db-0b9253193b47"},"vehicle_type_id":"4","last_reported":1698609993,"current_range_meters":4800,"station_id":"ce4bhq92rcd13ifvqhjg","pricing_plan_id":"free"},{"bike_id":"15bdef24-340e-4fcc-8b69-a97001c44759","system_id":"levelo_inurba_marseille","lat":43.340438,"lon":5.384761,"is_reserved":false,"is_disabled":false,"rental_uris":{"android":"levelo://app?vid=15bdef24-340e-4fcc-8b69-a97001c44759","ios":"levelo://app?vid=15bdef24-340e-4fcc-8b69-a97001c44759"},"vehicle_type_id":"4","last_reported":1698609993,"current_range_meters":30800,"station_id":"","pricing_plan_id":"free"},{"bike_id":"cf9d5103-2705-478d-ad5b-c35d1c50ea36","system_id":"levelo_inurba_marseille","lat":43.284793,"lon":5.384113,"is_reserved":false,"is_disabled":false,"rental_uris":{"android":"levelo://app?vid=cf9d5103-2705-478d-ad5b-c35d1c50ea36","ios":"levelo://app?vid=cf9d5103-2705-478d-ad5b-c35d1c50ea36"},"vehicle_type_id":"4","last_reported":1698609993,"current_range_meters":3200,"station_id":"ce4bh512rcd13ifvqe3g","pricing_plan_id":"free"},{"bike_id":"53d8b856-7549-4355-bea7-dd15917af3e1","system_id":"levelo_inurba_marseille","lat":43.288497,"lon":5.393089,"is_reserved":false,"is_disabled":false,"rental_uris":{"android":"levelo://app?vid=53d8b856-7549-4355-bea7-dd15917af3e1","ios":"levelo://app?vid=53d8b856-7549-4355-bea7-dd15917af3e1"},"vehicle_type_id":"4","last_reported":1698609993,"current_range_meters":15200,"station_id":"ce4bh2p2rcd13ifvqdi0","pricing_plan_id":"free"},{"bike_id":"2f666bbb-190f-4291-ade2-95e2c0cfd815","system_id":"levelo_inurba_marseille","lat":43.325281,"lon":5.405683,"is_reserved":false,"is_disabled":false,"rental_uris":{"android":"levelo://app?vid=2f666bbb-190f-4291-ade2-95e2c0cfd815","ios":"levelo://app?vid=2f666bbb-190f-4291-ade2-95e2c0cfd815"},"vehicle_type_id":"4","last_reported":1698609993,"current_range_meters":13200,"station_id":"","pricing_plan_id":"free"},{"bike_id":"51ea7acd-88ae-4aeb-905c-c2831aacbea2","system_id":"levelo_inurba_marseille","lat":43.292724,"lon":5.401131,"is_reserved":false,"is_disabled":false,"rental_uris":{"android":"levelo://app?vid=51ea7acd-88ae-4aeb-905c-c2831aacbea2","ios":"levelo://app?vid=51ea7acd-88ae-4aeb-905c-c2831aacbea2"},"vehicle_type_id":"4","last_reported":1698609993,"current_range_meters":15200,"station_id":"ce4bh312rcd13ifvqdk0","pricing_plan_id":"free"},{"bike_id":"90db6152-10a9-46c3-9e8c-9a0a053f02b8","system_id":"levelo_inurba_marseille","lat":43.283502,"lon":5.386471,"is_reserved":false,"is_disabled":false,"rental_uris":{"android":"levelo://app?vid=90db6152-10a9-46c3-9e8c-9a0a053f02b8","ios":"levelo://app?vid=90db6152-10a9-46c3-9e8c-9a0a053f02b8"},"vehicle_type_id":"4","last_reported":1698609993,"current_range_meters":29600,"station_id":"ce4bh492rcd13ifvqdvg","pricing_plan_id":"free"},{"bike_id":"9f997514-42fd-4c96-9183-07aff1312906","system_id":"levelo_inurba_marseille","lat":43.282744,"lon":5.350533,"is_reserved":false,"is_disabled":false,"rental_uris":{"android":"levelo://app?vid=9f997514-42fd-4c96-9183-07aff1312906","ios":"levelo://app?vid=9f997514-42fd-4c96-9183-07aff1312906"},"vehicle_type_id":"4","last_reported":1698609993,"current_range_meters":6400,"station_id":"ce4bhbp2rcd13ifvqerg","pricing_plan_id":"free"},{"bike_id":"2a0db3e3-11b9-4308-a479-11e1c76c77c2","system_id":"levelo_inurba_marseille","lat":43.28037,"lon":5.36944,"is_reserved":false,"is_disabled":false,"rental_uris":{"android":"levelo://app?vid=2a0db3e3-11b9-4308-a479-11e1c76c77c2","ios":"levelo://app?vid=2a0db3e3-11b9-4308-a479-11e1c76c77c2"},"vehicle_type_id":"4","last_reported":1698609993,"current_range_meters":16800,"station_id":"ce4bha12rcd13ifvqef0","pricing_plan_id":"free"},{"bike_id":"e24f94ba-ff4c-41ee-9edb-91209187934e","system_id":"levelo_inurba_marseille","lat":43.29041,"lon":5.399634,"is_reserved":false,"is_disabled":false,"rental_uris":{"android":"levelo://app?vid=e24f94ba-ff4c-41ee-9edb-91209187934e","ios":"levelo://app?vid=e24f94ba-ff4c-41ee-9edb-91209187934e"},"vehicle_type_id":"4","last_reported":1698609993,"current_range_meters":0,"station_id":"ce4bh392rcd13ifvqdm0","pricing_plan_id":"free"},{"bike_id":"fa53cb3b-ba3e-4e86-89f3-d39fd8b46137","system_id":"levelo_inurba_marseille","lat":43.290412,"lon":5.399633,"is_reserved":false,"is_disabled":false,"rental_uris":{"android":"levelo://app?vid=fa53cb3b-ba3e-4e86-89f3-d39fd8b46137","ios":"levelo://app?vid=fa53cb3b-ba3e-4e86-89f3-d39fd8b46137"},"vehicle_type_id":"4","last_reported":1698609993,"current_range_meters":8400,"station_id":"ce4bh392rcd13ifvqdm0","pricing_plan_id":"free"},{"bike_id":"1ca242fe-6084-4f9b-8b54-35d465872844","system_id":"levelo_inurba_marseille","lat":43.29041,"lon":5.399634,"is_reserved":false,"is_disabled":false,"rental_uris":{"android":"levelo://app?vid=1ca242fe-6084-4f9b-8b54-35d465872844","ios":"levelo://app?vid=1ca242fe-6084-4f9b-8b54-35d465872844"},"vehicle_type_id":"4","last_reported":1698609993,"current_range_meters":21600,"station_id":"ce4bh392rcd13ifvqdm0","pricing_plan_id":"free"},{"bike_id":"6848dd29-ce47-4db9-9463-cd865945e281","system_id":"levelo_inurba_marseille","lat":43.29041,"lon":5.399634,"is_reserved":false,"is_disabled":false,"rental_uris":{"android":"levelo://app?vid=6848dd29-ce47-4db9-9463-cd865945e281","ios":"levelo://app?vid=6848dd29-ce47-4db9-9463-cd865945e281"},"vehicle_type_id":"4","last_reported":1698609993,"current_range_meters":5200,"station_id":"ce4bh392rcd13ifvqdm0","pricing_plan_id":"free"},{"bike_id":"b39e8754-8401-41bd-a268-a801c93df312","system_id":"levelo_inurba_marseille","lat":43.28106,"lon":5.37837,"is_reserved":false,"is_disabled":false,"rental_uris":{"android":"levelo://app?vid=b39e8754-8401-41bd-a268-a801c93df312","ios":"levelo://app?vid=b39e8754-8401-41bd-a268-a801c93df312"},"vehicle_type_id":"4","last_reported":1698609993,"current_range_meters":13600,"station_id":"ce4bha12rcd13ifvqee0","pricing_plan_id":"free"},{"bike_id":"af3d5c56-48f7-4ec1-a0d9-3519f1ee02ce","system_id":"levelo_inurba_marseille","lat":43.281046,"lon":5.378421,"is_reserved":false,"is_disabled":false,"rental_uris":{"android":"levelo://app?vid=af3d5c56-48f7-4ec1-a0d9-3519f1ee02ce","ios":"levelo://app?vid=af3d5c56-48f7-4ec1-a0d9-3519f1ee02ce"},"vehicle_type_id":"4","last_reported":1698609993,"current_range_meters":27200,"station_id":"ce4bha12rcd13ifvqee0","pricing_plan_id":"free"},{"bike_id":"084930ff-e589-4ce2-b7bd-91d930261db1","system_id":"levelo_inurba_marseille","lat":43.281044,"lon":5.378308,"is_reserved":false,"is_disabled":false,"rental_uris":{"android":"levelo://app?vid=084930ff-e589-4ce2-b7bd-91d930261db1","ios":"levelo://app?vid=084930ff-e589-4ce2-b7bd-91d930261db1"},"vehicle_type_id":"4","last_reported":1698609993,"current_range_meters":3600,"station_id":"ce4bha12rcd13ifvqee0","pricing_plan_id":"free"},{"bike_id":"d445e7dc-8f39-4198-8d15-1838ad42556e","system_id":"levelo_inurba_marseille","lat":43.296263,"lon":5.40601,"is_reserved":false,"is_disabled":false,"rental_uris":{"android":"levelo://app?vid=d445e7dc-8f39-4198-8d15-1838ad42556e","ios":"levelo://app?vid=d445e7dc-8f39-4198-8d15-1838ad42556e"},"vehicle_type_id":"4","last_reported":1698609993,"current_range_meters":20000,"station_id":"ce4bh0h2rcd13ifvqd60","pricing_plan_id":"free"},{"bike_id":"2ff4290a-953b-40dc-9c7e-2436150f81c2","system_id":"levelo_inurba_marseille","lat":43.281496,"lon":5.383427,"is_reserved":false,"is_disabled":false,"rental_uris":{"android":"levelo://app?vid=2ff4290a-953b-40dc-9c7e-2436150f81c2","ios":"levelo://app?vid=2ff4290a-953b-40dc-9c7e-2436150f81c2"},"vehicle_type_id":"4","last_reported":1698609993,"current_range_meters":2800,"station_id":"","pricing_plan_id":"free"},{"bike_id":"5b145b5c-2448-4b06-ad7d-667870f368db","system_id":"levelo_inurba_marseille","lat":43.284398,"lon":5.391992,"is_reserved":false,"is_disabled":false,"rental_uris":{"android":"levelo://app?vid=5b145b5c-2448-4b06-ad7d-667870f368db","ios":"levelo://app?vid=5b145b5c-2448-4b06-ad7d-667870f368db"},"vehicle_type_id":"4","last_reported":1698609993,"current_range_meters":31200,"station_id":"ce4bhoh2rcd13ifvqh5g","pricing_plan_id":"free"},{"bike_id":"39672879-8902-4037-aad6-0a02b2aa0025","system_id":"levelo_inurba_marseille","lat":43.28573,"lon":5.394992,"is_reserved":false,"is_disabled":false,"rental_uris":{"android":"levelo://app?vid=39672879-8902-4037-aad6-0a02b2aa0025","ios":"levelo://app?vid=39672879-8902-4037-aad6-0a02b2aa0025"},"vehicle_type_id":"4","last_reported":1698609993,"current_range_meters":21200,"station_id":"ce4bh292rcd13ifvqdg0","pricing_plan_id":"free"},{"bike_id":"2672f920-f330-4cd2-a6e1-3395bbf692da","system_id":"levelo_inurba_marseille","lat":43.326605,"lon":5.409903,"is_reserved":false,"is_disabled":false,"rental_uris":{"android":"levelo://app?vid=2672f920-f330-4cd2-a6e1-3395bbf692da","ios":"levelo://app?vid=2672f920-f330-4cd2-a6e1-3395bbf692da"},"vehicle_type_id":"4","last_reported":1698609993,"current_range_meters":27200,"station_id":"ce4bhpp2rcd13ifvqhgg","pricing_plan_id":"free"},{"bike_id":"7b9bc964-54e0-493f-9f29-f881074226f4","system_id":"levelo_inurba_marseille","lat":43.287154,"lon":5.399979,"is_reserved":false,"is_disabled":false,"rental_uris":{"android":"levelo://app?vid=7b9bc964-54e0-493f-9f29-f881074226f4","ios":"levelo://app?vid=7b9bc964-54e0-493f-9f29-f881074226f4"},"vehicle_type_id":"4","last_reported":1698609993,"current_range_meters":2000,"station_id":"ce4bho92rcd13ifvqh3g","pricing_plan_id":"free"},{"bike_id":"1ede2f53-5182-4404-beb7-99bbb006f3c1","system_id":"levelo_inurba_marseille","lat":43.299577,"lon":5.413277,"is_reserved":false,"is_disabled":false,"rental_uris":{"android":"levelo://app?vid=1ede2f53-5182-4404-beb7-99bbb006f3c1","ios":"levelo://app?vid=1ede2f53-5182-4404-beb7-99bbb006f3c1"},"vehicle_type_id":"4","last_reported":1698609993,"current_range_meters":20400,"station_id":"ce4bhp12rcd13ifvqh9g","pricing_plan_id":"free"},{"bike_id":"336c8bc9-0c76-4f34-b94b-e02bdd38e6a9","system_id":"levelo_inurba_marseille","lat":43.292569,"lon":5.409107,"is_reserved":false,"is_disabled":false,"rental_uris":{"android":"levelo://app?vid=336c8bc9-0c76-4f34-b94b-e02bdd38e6a9","ios":"levelo://app?vid=336c8bc9-0c76-4f34-b94b-e02bdd38e6a9"},"vehicle_type_id":"4","last_reported":1698609993,"current_range_meters":23200,"station_id":"ce4bh192rcd13ifvqdc0","pricing_plan_id":"free"},{"bike_id":"824dabd4-c04b-427c-b708-965b48c96a3c","system_id":"levelo_inurba_marseille","lat":43.325233,"lon":5.414318,"is_reserved":false,"is_disabled":false,"rental_uris":{"android":"levelo://app?vid=824dabd4-c04b-427c-b708-965b48c96a3c","ios":"levelo://app?vid=824dabd4-c04b-427c-b708-965b48c96a3c"},"vehicle_type_id":"4","last_reported":1698609993,"current_range_meters":28800,"station_id":"ce4bhq12rcd13ifvqhhg","pricing_plan_id":"free"},{"bike_id":"e06c6de6-378e-47d0-afbb-06f3a39ee2b0","system_id":"levelo_inurba_marseille","lat":43.325269,"lon":5.414571,"is_reserved":false,"is_disabled":false,"rental_uris":{"android":"levelo://app?vid=e06c6de6-378e-47d0-afbb-06f3a39ee2b0","ios":"levelo://app?vid=e06c6de6-378e-47d0-afbb-06f3a39ee2b0"},"vehicle_type_id":"4","last_reported":1698609993,"current_range_meters":29600,"station_id":"ce4bhq12rcd13ifvqhhg","pricing_plan_id":"free"},{"bike_id":"ab441268-3e03-4104-94cc-7705d60c6788","system_id":"levelo_inurba_marseille","lat":43.347892,"lon":5.348552,"is_reserved":false,"is_disabled":false,"rental_uris":{"android":"levelo://app?vid=ab441268-3e03-4104-94cc-7705d60c6788","ios":"levelo://app?vid=ab441268-3e03-4104-94cc-7705d60c6788"},"vehicle_type_id":"4","last_reported":1698609993,"current_range_meters":14400,"station_id":"","pricing_plan_id":"free"},{"bike_id":"7bd09f97-ef65-4688-9e11-57365177a47c","system_id":"levelo_inurba_marseille","lat":43.278401,"lon":5.392152,"is_reserved":false,"is_disabled":false,"rental_uris":{"android":"levelo://app?vid=7bd09f97-ef65-4688-9e11-57365177a47c","ios":"levelo://app?vid=7bd09f97-ef65-4688-9e11-57365177a47c"},"vehicle_type_id":"4","last_reported":1698609993,"current_range_meters":31200,"station_id":"ce4bhjp2rcd13ifvqga0","pricing_plan_id":"free"},{"bike_id":"ee9a083b-d1b1-4a74-9234-0f32971340df","system_id":"levelo_inurba_marseille","lat":43.278401,"lon":5.392152,"is_reserved":false,"is_disabled":false,"rental_uris":{"android":"levelo://app?vid=ee9a083b-d1b1-4a74-9234-0f32971340df","ios":"levelo://app?vid=ee9a083b-d1b1-4a74-9234-0f32971340df"},"vehicle_type_id":"4","last_reported":1698609993,"current_range_meters":6800,"station_id":"ce4bhjp2rcd13ifvqga0","pricing_plan_id":"free"},{"bike_id":"8b8fb0f9-7655-4fa3-9df1-b9c9cd240ffb","system_id":"levelo_inurba_marseille","lat":43.278399,"lon":5.392139,"is_reserved":false,"is_disabled":false,"rental_uris":{"android":"levelo://app?vid=8b8fb0f9-7655-4fa3-9df1-b9c9cd240ffb","ios":"levelo://app?vid=8b8fb0f9-7655-4fa3-9df1-b9c9cd240ffb"},"vehicle_type_id":"4","last_reported":1698609993,"current_range_meters":30800,"station_id":"ce4bhjp2rcd13ifvqga0","pricing_plan_id":"free"},{"bike_id":"8584c60a-7748-4fef-a43e-4a9e51f243a0","system_id":"levelo_inurba_marseille","lat":43.278401,"lon":5.392152,"is_reserved":false,"is_disabled":false,"rental_uris":{"android":"levelo://app?vid=8584c60a-7748-4fef-a43e-4a9e51f243a0","ios":"levelo://app?vid=8584c60a-7748-4fef-a43e-4a9e51f243a0"},"vehicle_type_id":"4","last_reported":1698609993,"current_range_meters":31600,"station_id":"ce4bhjp2rcd13ifvqga0","pricing_plan_id":"free"},{"bike_id":"3513c89c-b3c9-4ef7-89dd-4c9075a75ba0","system_id":"levelo_inurba_marseille","lat":43.278401,"lon":5.392152,"is_reserved":false,"is_disabled":false,"rental_uris":{"android":"levelo://app?vid=3513c89c-b3c9-4ef7-89dd-4c9075a75ba0","ios":"levelo://app?vid=3513c89c-b3c9-4ef7-89dd-4c9075a75ba0"},"vehicle_type_id":"4","last_reported":1698609993,"current_range_meters":31200,"station_id":"ce4bhjp2rcd13ifvqga0","pricing_plan_id":"free"},{"bike_id":"925d3cc4-2cb6-4e17-a960-7cbc3582dd05","system_id":"levelo_inurba_marseille","lat":43.275625,"lon":5.384392,"is_reserved":false,"is_disabled":false,"rental_uris":{"android":"levelo://app?vid=925d3cc4-2cb6-4e17-a960-7cbc3582dd05","ios":"levelo://app?vid=925d3cc4-2cb6-4e17-a960-7cbc3582dd05"},"vehicle_type_id":"4","last_reported":1698609993,"current_range_meters":30000,"station_id":"ce4bhh92rcd13ifvqfi0","pricing_plan_id":"free"},{"bike_id":"ad792d74-0fe0-4f28-8273-babb3dc4f382","system_id":"levelo_inurba_marseille","lat":43.273613,"lon":5.362705,"is_reserved":false,"is_disabled":false,"rental_uris":{"android":"levelo://app?vid=ad792d74-0fe0-4f28-8273-babb3dc4f382","ios":"levelo://app?vid=ad792d74-0fe0-4f28-8273-babb3dc4f382"},"vehicle_type_id":"4","last_reported":1698609993,"current_range_meters":0,"station_id":"ce4bhbh2rcd13ifvqeo0","pricing_plan_id":"free"},{"bike_id":"f8435ceb-e563-4969-b9b3-163941163ed4","system_id":"levelo_inurba_marseille","lat":43.275625,"lon":5.384392,"is_reserved":false,"is_disabled":false,"rental_uris":{"android":"levelo://app?vid=f8435ceb-e563-4969-b9b3-163941163ed4","ios":"levelo://app?vid=f8435ceb-e563-4969-b9b3-163941163ed4"},"vehicle_type_id":"4","last_reported":1698609993,"current_range_meters":27600,"station_id":"ce4bhh92rcd13ifvqfi0","pricing_plan_id":"free"},{"bike_id":"f9a74eec-e4ce-4d76-866e-f55b97a3552b","system_id":"levelo_inurba_marseille","lat":43.276624,"lon":5.388677,"is_reserved":false,"is_disabled":false,"rental_uris":{"android":"levelo://app?vid=f9a74eec-e4ce-4d76-866e-f55b97a3552b","ios":"levelo://app?vid=f9a74eec-e4ce-4d76-866e-f55b97a3552b"},"vehicle_type_id":"4","last_reported":1698609993,"current_range_meters":13600,"station_id":"ce4bhi12rcd13ifvqfo0","pricing_plan_id":"free"},{"bike_id":"f5194790-07b4-4bf0-887d-069edfe90125","system_id":"levelo_inurba_marseille","lat":43.276771,"lon":5.388799,"is_reserved":false,"is_disabled":false,"rental_uris":{"android":"levelo://app?vid=f5194790-07b4-4bf0-887d-069edfe90125","ios":"levelo://app?vid=f5194790-07b4-4bf0-887d-069edfe90125"},"vehicle_type_id":"4","last_reported":1698609993,"current_range_meters":8800,"station_id":"ce4bhi12rcd13ifvqfo0","pricing_plan_id":"free"},{"bike_id":"a3774854-edb1-4579-a308-d7e225bb1db4","system_id":"levelo_inurba_marseille","lat":43.276653,"lon":5.388914,"is_reserved":false,"is_disabled":false,"rental_uris":{"android":"levelo://app?vid=a3774854-edb1-4579-a308-d7e225bb1db4","ios":"levelo://app?vid=a3774854-edb1-4579-a308-d7e225bb1db4"},"vehicle_type_id":"4","last_reported":1698609993,"current_range_meters":20800,"station_id":"ce4bhi12rcd13ifvqfo0","pricing_plan_id":"free"},{"bike_id":"01b14aaf-b7fc-41e8-b11c-f5f9ba41824f","system_id":"levelo_inurba_marseille","lat":43.27554,"lon":5.38561,"is_reserved":false,"is_disabled":false,"rental_uris":{"android":"levelo://app?vid=01b14aaf-b7fc-41e8-b11c-f5f9ba41824f","ios":"levelo://app?vid=01b14aaf-b7fc-41e8-b11c-f5f9ba41824f"},"vehicle_type_id":"4","last_reported":1698609993,"current_range_meters":4800,"station_id":"","pricing_plan_id":"free"},{"bike_id":"6e4d6780-3de4-4597-90ba-6d69401e2467","system_id":"levelo_inurba_marseille","lat":43.28,"lon":5.40014,"is_reserved":false,"is_disabled":false,"rental_uris":{"android":"levelo://app?vid=6e4d6780-3de4-4597-90ba-6d69401e2467","ios":"levelo://app?vid=6e4d6780-3de4-4597-90ba-6d69401e2467"},"vehicle_type_id":"4","last_reported":1698609993,"current_range_meters":24800,"station_id":"ce4bho92rcd13ifvqh4g","pricing_plan_id":"free"},{"bike_id":"64665b6c-5b7f-4cd1-a04a-e8f6a1a144ee","system_id":"levelo_inurba_marseille","lat":43.317121,"lon":5.423936,"is_reserved":false,"is_disabled":false,"rental_uris":{"android":"levelo://app?vid=64665b6c-5b7f-4cd1-a04a-e8f6a1a144ee","ios":"levelo://app?vid=64665b6c-5b7f-4cd1-a04a-e8f6a1a144ee"},"vehicle_type_id":"4","last_reported":1698609993,"current_range_meters":16800,"station_id":"ce4bhp92rcd13ifvqhbg","pricing_plan_id":"free"},{"bike_id":"ab4c105f-b95d-4588-b30a-4236f77815dc","system_id":"levelo_inurba_marseille","lat":43.310785,"lon":5.424305,"is_reserved":false,"is_disabled":false,"rental_uris":{"android":"levelo://app?vid=ab4c105f-b95d-4588-b30a-4236f77815dc","ios":"levelo://app?vid=ab4c105f-b95d-4588-b30a-4236f77815dc"},"vehicle_type_id":"4","last_reported":1698609993,"current_range_meters":24400,"station_id":"ce4bhp92rcd13ifvqhag","pricing_plan_id":"free"},{"bike_id":"d58dc1b0-a920-45a9-b8ae-bc43ae7fdaaf","system_id":"levelo_inurba_marseille","lat":43.31078,"lon":5.42433,"is_reserved":false,"is_disabled":false,"rental_uris":{"android":"levelo://app?vid=d58dc1b0-a920-45a9-b8ae-bc43ae7fdaaf","ios":"levelo://app?vid=d58dc1b0-a920-45a9-b8ae-bc43ae7fdaaf"},"vehicle_type_id":"4","last_reported":1698609993,"current_range_meters":12400,"station_id":"ce4bhp92rcd13ifvqhag","pricing_plan_id":"free"},{"bike_id":"10771e27-9dfa-483f-a879-18ff14f74247","system_id":"levelo_inurba_marseille","lat":43.310021,"lon":5.425067,"is_reserved":false,"is_disabled":false,"rental_uris":{"android":"levelo://app?vid=10771e27-9dfa-483f-a879-18ff14f74247","ios":"levelo://app?vid=10771e27-9dfa-483f-a879-18ff14f74247"},"vehicle_type_id":"4","last_reported":1698609993,"current_range_meters":0,"station_id":"","pricing_plan_id":"free"},{"bike_id":"83142e0b-2d4a-41bd-a883-c4d9264eba37","system_id":"levelo_inurba_marseille","lat":43.27319,"lon":5.39067,"is_reserved":false,"is_disabled":false,"rental_uris":{"android":"levelo://app?vid=83142e0b-2d4a-41bd-a883-c4d9264eba37","ios":"levelo://app?vid=83142e0b-2d4a-41bd-a883-c4d9264eba37"},"vehicle_type_id":"4","last_reported":1698609993,"current_range_meters":0,"station_id":"","pricing_plan_id":"free"},{"bike_id":"4d6639f8-2661-410a-aa73-3e258182799f","system_id":"levelo_inurba_marseille","lat":43.27322,"lon":5.39082,"is_reserved":false,"is_disabled":false,"rental_uris":{"android":"levelo://app?vid=4d6639f8-2661-410a-aa73-3e258182799f","ios":"levelo://app?vid=4d6639f8-2661-410a-aa73-3e258182799f"},"vehicle_type_id":"4","last_reported":1698609993,"current_range_meters":0,"station_id":"","pricing_plan_id":"free"},{"bike_id":"84f9407f-2af1-4943-91ea-becdd98ae278","system_id":"levelo_inurba_marseille","lat":43.27312,"lon":5.39068,"is_reserved":false,"is_disabled":false,"rental_uris":{"android":"levelo://app?vid=84f9407f-2af1-4943-91ea-becdd98ae278","ios":"levelo://app?vid=84f9407f-2af1-4943-91ea-becdd98ae278"},"vehicle_type_id":"4","last_reported":1698609993,"current_range_meters":0,"station_id":"","pricing_plan_id":"free"},{"bike_id":"120a033e-a8ad-4297-ac0f-c2c1d862fe8e","system_id":"levelo_inurba_marseille","lat":43.27435,"lon":5.39423,"is_reserved":false,"is_disabled":false,"rental_uris":{"android":"levelo://app?vid=120a033e-a8ad-4297-ac0f-c2c1d862fe8e","ios":"levelo://app?vid=120a033e-a8ad-4297-ac0f-c2c1d862fe8e"},"vehicle_type_id":"4","last_reported":1698609993,"current_range_meters":9600,"station_id":"ce4bhdp2rcd13ifvqf20","pricing_plan_id":"free"},{"bike_id":"5d79c836-a7cd-429b-b225-ec2e619eed11","system_id":"levelo_inurba_marseille","lat":43.274103,"lon":5.394016,"is_reserved":false,"is_disabled":false,"rental_uris":{"android":"levelo://app?vid=5d79c836-a7cd-429b-b225-ec2e619eed11","ios":"levelo://app?vid=5d79c836-a7cd-429b-b225-ec2e619eed11"},"vehicle_type_id":"4","last_reported":1698609993,"current_range_meters":27600,"station_id":"ce4bhdp2rcd13ifvqf20","pricing_plan_id":"free"},{"bike_id":"2cf0ded0-d483-4a88-9e06-3ba4c766ed6a","system_id":"levelo_inurba_marseille","lat":43.27431,"lon":5.39417,"is_reserved":false,"is_disabled":false,"rental_uris":{"android":"levelo://app?vid=2cf0ded0-d483-4a88-9e06-3ba4c766ed6a","ios":"levelo://app?vid=2cf0ded0-d483-4a88-9e06-3ba4c766ed6a"},"vehicle_type_id":"4","last_reported":1698609993,"current_range_meters":24400,"station_id":"ce4bhdp2rcd13ifvqf20","pricing_plan_id":"free"},{"bike_id":"67c5c40f-717c-4a16-b058-29bf312a59e2","system_id":"levelo_inurba_marseille","lat":43.27428,"lon":5.3941,"is_reserved":false,"is_disabled":false,"rental_uris":{"android":"levelo://app?vid=67c5c40f-717c-4a16-b058-29bf312a59e2","ios":"levelo://app?vid=67c5c40f-717c-4a16-b058-29bf312a59e2"},"vehicle_type_id":"4","last_reported":1698609993,"current_range_meters":22400,"station_id":"ce4bhdp2rcd13ifvqf20","pricing_plan_id":"free"},{"bike_id":"e841a8a7-384d-44c9-bc41-75610f65b4d2","system_id":"levelo_inurba_marseille","lat":43.27429,"lon":5.39415,"is_reserved":false,"is_disabled":false,"rental_uris":{"android":"levelo://app?vid=e841a8a7-384d-44c9-bc41-75610f65b4d2","ios":"levelo://app?vid=e841a8a7-384d-44c9-bc41-75610f65b4d2"},"vehicle_type_id":"4","last_reported":1698609993,"current_range_meters":22400,"station_id":"ce4bhdp2rcd13ifvqf20","pricing_plan_id":"free"},{"bike_id":"be602fcc-d2a2-42e6-9c69-fd41466b95c5","system_id":"levelo_inurba_marseille","lat":43.27427,"lon":5.39412,"is_reserved":false,"is_disabled":false,"rental_uris":{"android":"levelo://app?vid=be602fcc-d2a2-42e6-9c69-fd41466b95c5","ios":"levelo://app?vid=be602fcc-d2a2-42e6-9c69-fd41466b95c5"},"vehicle_type_id":"4","last_reported":1698609993,"current_range_meters":0,"station_id":"ce4bhdp2rcd13ifvqf20","pricing_plan_id":"free"},{"bike_id":"1eaa3503-6ae0-497e-b56c-0d52d7f4d9d8","system_id":"levelo_inurba_marseille","lat":43.27428,"lon":5.39417,"is_reserved":false,"is_disabled":false,"rental_uris":{"android":"levelo://app?vid=1eaa3503-6ae0-497e-b56c-0d52d7f4d9d8","ios":"levelo://app?vid=1eaa3503-6ae0-497e-b56c-0d52d7f4d9d8"},"vehicle_type_id":"4","last_reported":1698609993,"current_range_meters":21200,"station_id":"ce4bhdp2rcd13ifvqf20","pricing_plan_id":"free"},{"bike_id":"8d62085c-d804-4a6f-b365-07e42ebe92e2","system_id":"levelo_inurba_marseille","lat":43.27425,"lon":5.39409,"is_reserved":false,"is_disabled":false,"rental_uris":{"android":"levelo://app?vid=8d62085c-d804-4a6f-b365-07e42ebe92e2","ios":"levelo://app?vid=8d62085c-d804-4a6f-b365-07e42ebe92e2"},"vehicle_type_id":"4","last_reported":1698609993,"current_range_meters":0,"station_id":"ce4bhdp2rcd13ifvqf20","pricing_plan_id":"free"},{"bike_id":"e61d2507-7eac-47d3-954c-601c2a626a19","system_id":"levelo_inurba_marseille","lat":43.274247,"lon":5.394122,"is_reserved":false,"is_disabled":false,"rental_uris":{"android":"levelo://app?vid=e61d2507-7eac-47d3-954c-601c2a626a19","ios":"levelo://app?vid=e61d2507-7eac-47d3-954c-601c2a626a19"},"vehicle_type_id":"4","last_reported":1698609993,"current_range_meters":21600,"station_id":"ce4bhdp2rcd13ifvqf20","pricing_plan_id":"free"},{"bike_id":"e42fa12b-5f51-4c7e-95cf-cd3272f28e0d","system_id":"levelo_inurba_marseille","lat":43.27426,"lon":5.39416,"is_reserved":false,"is_disabled":false,"rental_uris":{"android":"levelo://app?vid=e42fa12b-5f51-4c7e-95cf-cd3272f28e0d","ios":"levelo://app?vid=e42fa12b-5f51-4c7e-95cf-cd3272f28e0d"},"vehicle_type_id":"4","last_reported":1698609993,"current_range_meters":2000,"station_id":"ce4bhdp2rcd13ifvqf20","pricing_plan_id":"free"},{"bike_id":"f62f94e0-20eb-484a-abb7-6bc508c4bf4f","system_id":"levelo_inurba_marseille","lat":43.27421,"lon":5.39404,"is_reserved":false,"is_disabled":false,"rental_uris":{"android":"levelo://app?vid=f62f94e0-20eb-484a-abb7-6bc508c4bf4f","ios":"levelo://app?vid=f62f94e0-20eb-484a-abb7-6bc508c4bf4f"},"vehicle_type_id":"4","last_reported":1698609993,"current_range_meters":0,"station_id":"ce4bhdp2rcd13ifvqf20","pricing_plan_id":"free"},{"bike_id":"d6fa9332-a017-4d65-8265-a6f030253401","system_id":"levelo_inurba_marseille","lat":43.27425,"lon":5.39416,"is_reserved":false,"is_disabled":false,"rental_uris":{"android":"levelo://app?vid=d6fa9332-a017-4d65-8265-a6f030253401","ios":"levelo://app?vid=d6fa9332-a017-4d65-8265-a6f030253401"},"vehicle_type_id":"4","last_reported":1698609993,"current_range_meters":24000,"station_id":"ce4bhdp2rcd13ifvqf20","pricing_plan_id":"free"},{"bike_id":"89e2acfb-0313-4045-9e99-3cc964612a47","system_id":"levelo_inurba_marseille","lat":43.27422,"lon":5.3941,"is_reserved":false,"is_disabled":false,"rental_uris":{"android":"levelo://app?vid=89e2acfb-0313-4045-9e99-3cc964612a47","ios":"levelo://app?vid=89e2acfb-0313-4045-9e99-3cc964612a47"},"vehicle_type_id":"4","last_reported":1698609993,"current_range_meters":14400,"station_id":"ce4bhdp2rcd13ifvqf20","pricing_plan_id":"free"},{"bike_id":"8b4a316e-6581-4e3c-8acf-00a7890a6cd5","system_id":"levelo_inurba_marseille","lat":43.2742,"lon":5.39407,"is_reserved":false,"is_disabled":false,"rental_uris":{"android":"levelo://app?vid=8b4a316e-6581-4e3c-8acf-00a7890a6cd5","ios":"levelo://app?vid=8b4a316e-6581-4e3c-8acf-00a7890a6cd5"},"vehicle_type_id":"4","last_reported":1698609993,"current_range_meters":8000,"station_id":"ce4bhdp2rcd13ifvqf20","pricing_plan_id":"free"},{"bike_id":"922c6c9c-b342-4c7c-9b24-dfcbe88a348b","system_id":"levelo_inurba_marseille","lat":43.2742,"lon":5.39413,"is_reserved":false,"is_disabled":false,"rental_uris":{"android":"levelo://app?vid=922c6c9c-b342-4c7c-9b24-dfcbe88a348b","ios":"levelo://app?vid=922c6c9c-b342-4c7c-9b24-dfcbe88a348b"},"vehicle_type_id":"4","last_reported":1698609993,"current_range_meters":7600,"station_id":"ce4bhdp2rcd13ifvqf20","pricing_plan_id":"free"},{"bike_id":"8a9505a0-6d47-4f9b-a10c-3422df363b99","system_id":"levelo_inurba_marseille","lat":43.27419,"lon":5.39413,"is_reserved":false,"is_disabled":false,"rental_uris":{"android":"levelo://app?vid=8a9505a0-6d47-4f9b-a10c-3422df363b99","ios":"levelo://app?vid=8a9505a0-6d47-4f9b-a10c-3422df363b99"},"vehicle_type_id":"4","last_reported":1698609993,"current_range_meters":16400,"station_id":"ce4bhdp2rcd13ifvqf20","pricing_plan_id":"free"},{"bike_id":"99e4126d-f376-4b20-bf36-cbdda64a02cd","system_id":"levelo_inurba_marseille","lat":43.30414,"lon":5.42539,"is_reserved":false,"is_disabled":false,"rental_uris":{"android":"levelo://app?vid=99e4126d-f376-4b20-bf36-cbdda64a02cd","ios":"levelo://app?vid=99e4126d-f376-4b20-bf36-cbdda64a02cd"},"vehicle_type_id":"4","last_reported":1698609993,"current_range_meters":14800,"station_id":"ce4bhoh2rcd13ifvqh6g","pricing_plan_id":"free"},{"bike_id":"291a32c9-e8fe-4c60-819c-bf8d640a2016","system_id":"levelo_inurba_marseille","lat":43.2936,"lon":5.37835,"is_reserved":false,"is_disabled":false,"rental_uris":{"android":"levelo://app?vid=291a32c9-e8fe-4c60-819c-bf8d640a2016","ios":"levelo://app?vid=291a32c9-e8fe-4c60-819c-bf8d640a2016"},"vehicle_type_id":"4","last_reported":1698609993,"current_range_meters":18800,"station_id":"ce4bgjh2rcd13ifvqbf0","pricing_plan_id":"free"},{"bike_id":"d3997d8b-b06b-473b-808f-ca3e4bd57995","system_id":"levelo_inurba_marseille","lat":43.295511,"lon":5.422926,"is_reserved":false,"is_disabled":false,"rental_uris":{"android":"levelo://app?vid=d3997d8b-b06b-473b-808f-ca3e4bd57995","ios":"levelo://app?vid=d3997d8b-b06b-473b-808f-ca3e4bd57995"},"vehicle_type_id":"4","last_reported":1698609993,"current_range_meters":23200,"station_id":"ce4bhph2rcd13ifvqhdg","pricing_plan_id":"free"},{"bike_id":"22df197a-fb31-4b1b-84f9-30f5197edc8e","system_id":"levelo_inurba_marseille","lat":43.27201,"lon":5.39183,"is_reserved":false,"is_disabled":false,"rental_uris":{"android":"levelo://app?vid=22df197a-fb31-4b1b-84f9-30f5197edc8e","ios":"levelo://app?vid=22df197a-fb31-4b1b-84f9-30f5197edc8e"},"vehicle_type_id":"4","last_reported":1698609993,"current_range_meters":0,"station_id":"","pricing_plan_id":"free"},{"bike_id":"1680c852-be23-4927-8fba-a5c1ee4aa350","system_id":"levelo_inurba_marseille","lat":43.278128,"lon":5.407195,"is_reserved":false,"is_disabled":false,"rental_uris":{"android":"levelo://app?vid=1680c852-be23-4927-8fba-a5c1ee4aa350","ios":"levelo://app?vid=1680c852-be23-4927-8fba-a5c1ee4aa350"},"vehicle_type_id":"4","last_reported":1698609993,"current_range_meters":22400,"station_id":"ce4bhnh2rcd13ifvqgtg","pricing_plan_id":"free"},{"bike_id":"a8ce3904-ced2-473b-ae81-9b9dfb7ed6d4","system_id":"levelo_inurba_marseille","lat":43.26955,"lon":5.386193,"is_reserved":false,"is_disabled":false,"rental_uris":{"android":"levelo://app?vid=a8ce3904-ced2-473b-ae81-9b9dfb7ed6d4","ios":"levelo://app?vid=a8ce3904-ced2-473b-ae81-9b9dfb7ed6d4"},"vehicle_type_id":"4","last_reported":1698609993,"current_range_meters":30000,"station_id":"ce4bhh92rcd13ifvqfh0","pricing_plan_id":"free"},{"bike_id":"9628d8a2-3c81-4fd0-a2b2-ccbf33c89e0c","system_id":"levelo_inurba_marseille","lat":43.269467,"lon":5.386439,"is_reserved":false,"is_disabled":false,"rental_uris":{"android":"levelo://app?vid=9628d8a2-3c81-4fd0-a2b2-ccbf33c89e0c","ios":"levelo://app?vid=9628d8a2-3c81-4fd0-a2b2-ccbf33c89e0c"},"vehicle_type_id":"4","last_reported":1698609993,"current_range_meters":16800,"station_id":"ce4bhh92rcd13ifvqfh0","pricing_plan_id":"free"},{"bike_id":"a5df8098-7042-4523-a478-eb6b68c2961e","system_id":"levelo_inurba_marseille","lat":43.269467,"lon":5.386439,"is_reserved":false,"is_disabled":false,"rental_uris":{"android":"levelo://app?vid=a5df8098-7042-4523-a478-eb6b68c2961e","ios":"levelo://app?vid=a5df8098-7042-4523-a478-eb6b68c2961e"},"vehicle_type_id":"4","last_reported":1698609993,"current_range_meters":29200,"station_id":"ce4bhh92rcd13ifvqfh0","pricing_plan_id":"free"},{"bike_id":"d07f55a7-7fc3-4d68-8ae2-400348397124","system_id":"levelo_inurba_marseille","lat":43.269467,"lon":5.386439,"is_reserved":false,"is_disabled":false,"rental_uris":{"android":"levelo://app?vid=d07f55a7-7fc3-4d68-8ae2-400348397124","ios":"levelo://app?vid=d07f55a7-7fc3-4d68-8ae2-400348397124"},"vehicle_type_id":"4","last_reported":1698609993,"current_range_meters":10000,"station_id":"ce4bhh92rcd13ifvqfh0","pricing_plan_id":"free"},{"bike_id":"81ae53d0-075a-4f3b-bb4c-a7b54335c99e","system_id":"levelo_inurba_marseille","lat":43.269467,"lon":5.386439,"is_reserved":false,"is_disabled":false,"rental_uris":{"android":"levelo://app?vid=81ae53d0-075a-4f3b-bb4c-a7b54335c99e","ios":"levelo://app?vid=81ae53d0-075a-4f3b-bb4c-a7b54335c99e"},"vehicle_type_id":"4","last_reported":1698609993,"current_range_meters":32000,"station_id":"ce4bhh92rcd13ifvqfh0","pricing_plan_id":"free"},{"bike_id":"2dcda059-f182-410c-bfac-93a86a84f604","system_id":"levelo_inurba_marseille","lat":43.26945,"lon":5.38629,"is_reserved":false,"is_disabled":false,"rental_uris":{"android":"levelo://app?vid=2dcda059-f182-410c-bfac-93a86a84f604","ios":"levelo://app?vid=2dcda059-f182-410c-bfac-93a86a84f604"},"vehicle_type_id":"4","last_reported":1698609993,"current_range_meters":27600,"station_id":"ce4bhh92rcd13ifvqfh0","pricing_plan_id":"free"},{"bike_id":"dcaa3506-1138-4c68-8941-a350600f2356","system_id":"levelo_inurba_marseille","lat":43.27947,"lon":5.41043,"is_reserved":false,"is_disabled":false,"rental_uris":{"android":"levelo://app?vid=dcaa3506-1138-4c68-8941-a350600f2356","ios":"levelo://app?vid=dcaa3506-1138-4c68-8941-a350600f2356"},"vehicle_type_id":"4","last_reported":1698609993,"current_range_meters":12000,"station_id":"ce4bhnp2rcd13ifvqh0g","pricing_plan_id":"free"},{"bike_id":"891e1734-0f2b-4304-8bd4-989a6a3bbdb4","system_id":"levelo_inurba_marseille","lat":43.279426,"lon":5.410434,"is_reserved":false,"is_disabled":false,"rental_uris":{"android":"levelo://app?vid=891e1734-0f2b-4304-8bd4-989a6a3bbdb4","ios":"levelo://app?vid=891e1734-0f2b-4304-8bd4-989a6a3bbdb4"},"vehicle_type_id":"4","last_reported":1698609993,"current_range_meters":21200,"station_id":"ce4bhnp2rcd13ifvqh0g","pricing_plan_id":"free"},{"bike_id":"582a1410-eae2-4e20-bd70-ebecfa57b367","system_id":"levelo_inurba_marseille","lat":43.279374,"lon":5.410476,"is_reserved":false,"is_disabled":false,"rental_uris":{"android":"levelo://app?vid=582a1410-eae2-4e20-bd70-ebecfa57b367","ios":"levelo://app?vid=582a1410-eae2-4e20-bd70-ebecfa57b367"},"vehicle_type_id":"4","last_reported":1698609993,"current_range_meters":20800,"station_id":"ce4bhnp2rcd13ifvqh0g","pricing_plan_id":"free"},{"bike_id":"66a46cce-2509-423f-8e36-ccbf8c1330ab","system_id":"levelo_inurba_marseille","lat":43.269319,"lon":5.389397,"is_reserved":false,"is_disabled":false,"rental_uris":{"android":"levelo://app?vid=66a46cce-2509-423f-8e36-ccbf8c1330ab","ios":"levelo://app?vid=66a46cce-2509-423f-8e36-ccbf8c1330ab"},"vehicle_type_id":"4","last_reported":1698609993,"current_range_meters":21600,"station_id":"ce4bhhh2rcd13ifvqfl0","pricing_plan_id":"free"},{"bike_id":"359171c0-7cb0-4856-8284-02f04bf65895","system_id":"levelo_inurba_marseille","lat":43.26558,"lon":5.37281,"is_reserved":false,"is_disabled":false,"rental_uris":{"android":"levelo://app?vid=359171c0-7cb0-4856-8284-02f04bf65895","ios":"levelo://app?vid=359171c0-7cb0-4856-8284-02f04bf65895"},"vehicle_type_id":"4","last_reported":1698609993,"current_range_meters":14400,"station_id":"ce4bhg12rcd13ifvqf70","pricing_plan_id":"free"},{"bike_id":"5ff8d5f1-5c3a-40fd-96a3-7e600a036b82","system_id":"levelo_inurba_marseille","lat":43.26681,"lon":5.382694,"is_reserved":false,"is_disabled":false,"rental_uris":{"android":"levelo://app?vid=5ff8d5f1-5c3a-40fd-96a3-7e600a036b82","ios":"levelo://app?vid=5ff8d5f1-5c3a-40fd-96a3-7e600a036b82"},"vehicle_type_id":"4","last_reported":1698609993,"current_range_meters":14800,"station_id":"ce4bhg92rcd13ifvqf90","pricing_plan_id":"free"},{"bike_id":"768d8fa0-29eb-418b-b227-31692e0e1355","system_id":"levelo_inurba_marseille","lat":43.26555,"lon":5.37283,"is_reserved":false,"is_disabled":false,"rental_uris":{"android":"levelo://app?vid=768d8fa0-29eb-418b-b227-31692e0e1355","ios":"levelo://app?vid=768d8fa0-29eb-418b-b227-31692e0e1355"},"vehicle_type_id":"4","last_reported":1698609993,"current_range_meters":18400,"station_id":"ce4bhg12rcd13ifvqf70","pricing_plan_id":"free"},{"bike_id":"fb210ee2-c31e-4c2e-bdc8-d2646a7c8133","system_id":"levelo_inurba_marseille","lat":43.26548,"lon":5.37285,"is_reserved":false,"is_disabled":false,"rental_uris":{"android":"levelo://app?vid=fb210ee2-c31e-4c2e-bdc8-d2646a7c8133","ios":"levelo://app?vid=fb210ee2-c31e-4c2e-bdc8-d2646a7c8133"},"vehicle_type_id":"4","last_reported":1698609993,"current_range_meters":0,"station_id":"ce4bhg12rcd13ifvqf70","pricing_plan_id":"free"},{"bike_id":"e610933f-f657-4bb4-a514-3746cfe6b8b3","system_id":"levelo_inurba_marseille","lat":43.279924,"lon":5.416586,"is_reserved":false,"is_disabled":false,"rental_uris":{"android":"levelo://app?vid=e610933f-f657-4bb4-a514-3746cfe6b8b3","ios":"levelo://app?vid=e610933f-f657-4bb4-a514-3746cfe6b8b3"},"vehicle_type_id":"4","last_reported":1698609993,"current_range_meters":25200,"station_id":"ce4bho12rcd13ifvqh1g","pricing_plan_id":"free"},{"bike_id":"e2c8af1c-3a54-4a26-a7cd-a7c823136019","system_id":"levelo_inurba_marseille","lat":43.26791,"lon":5.39409,"is_reserved":false,"is_disabled":false,"rental_uris":{"android":"levelo://app?vid=e2c8af1c-3a54-4a26-a7cd-a7c823136019","ios":"levelo://app?vid=e2c8af1c-3a54-4a26-a7cd-a7c823136019"},"vehicle_type_id":"4","last_reported":1698609993,"current_range_meters":1200,"station_id":"","pricing_plan_id":"free"},{"bike_id":"41dc5440-4ab7-46a9-bd3e-608b6095fd17","system_id":"levelo_inurba_marseille","lat":43.26784,"lon":5.39419,"is_reserved":false,"is_disabled":false,"rental_uris":{"android":"levelo://app?vid=41dc5440-4ab7-46a9-bd3e-608b6095fd17","ios":"levelo://app?vid=41dc5440-4ab7-46a9-bd3e-608b6095fd17"},"vehicle_type_id":"4","last_reported":1698609993,"current_range_meters":9600,"station_id":"","pricing_plan_id":"free"},{"bike_id":"702d8e25-2586-476a-99ab-f43287d33f9b","system_id":"levelo_inurba_marseille","lat":43.26779,"lon":5.39413,"is_reserved":false,"is_disabled":false,"rental_uris":{"android":"levelo://app?vid=702d8e25-2586-476a-99ab-f43287d33f9b","ios":"levelo://app?vid=702d8e25-2586-476a-99ab-f43287d33f9b"},"vehicle_type_id":"4","last_reported":1698609993,"current_range_meters":7200,"station_id":"","pricing_plan_id":"free"},{"bike_id":"e1179ae9-430f-4b1b-988c-29df736096a9","system_id":"levelo_inurba_marseille","lat":43.26777,"lon":5.39417,"is_reserved":false,"is_disabled":false,"rental_uris":{"android":"levelo://app?vid=e1179ae9-430f-4b1b-988c-29df736096a9","ios":"levelo://app?vid=e1179ae9-430f-4b1b-988c-29df736096a9"},"vehicle_type_id":"4","last_reported":1698609993,"current_range_meters":5600,"station_id":"","pricing_plan_id":"free"},{"bike_id":"c676a59b-0617-4b06-931e-11fd4256ceae","system_id":"levelo_inurba_marseille","lat":43.26777,"lon":5.39419,"is_reserved":false,"is_disabled":false,"rental_uris":{"android":"levelo://app?vid=c676a59b-0617-4b06-931e-11fd4256ceae","ios":"levelo://app?vid=c676a59b-0617-4b06-931e-11fd4256ceae"},"vehicle_type_id":"4","last_reported":1698609993,"current_range_meters":12800,"station_id":"","pricing_plan_id":"free"},{"bike_id":"dcb6400f-ea88-48cf-8834-7ed2f68c79e0","system_id":"levelo_inurba_marseille","lat":43.26773,"lon":5.39411,"is_reserved":false,"is_disabled":false,"rental_uris":{"android":"levelo://app?vid=dcb6400f-ea88-48cf-8834-7ed2f68c79e0","ios":"levelo://app?vid=dcb6400f-ea88-48cf-8834-7ed2f68c79e0"},"vehicle_type_id":"4","last_reported":1698609993,"current_range_meters":20800,"station_id":"","pricing_plan_id":"free"},{"bike_id":"b9f70df4-6cc9-4a87-ad4e-d49b58bba680","system_id":"levelo_inurba_marseille","lat":43.26775,"lon":5.39421,"is_reserved":false,"is_disabled":false,"rental_uris":{"android":"levelo://app?vid=b9f70df4-6cc9-4a87-ad4e-d49b58bba680","ios":"levelo://app?vid=b9f70df4-6cc9-4a87-ad4e-d49b58bba680"},"vehicle_type_id":"4","last_reported":1698609993,"current_range_meters":20000,"station_id":"","pricing_plan_id":"free"},{"bike_id":"c73d4d10-9c1c-4db4-a8de-90f43bc2e487","system_id":"levelo_inurba_marseille","lat":43.26775,"lon":5.39423,"is_reserved":false,"is_disabled":false,"rental_uris":{"android":"levelo://app?vid=c73d4d10-9c1c-4db4-a8de-90f43bc2e487","ios":"levelo://app?vid=c73d4d10-9c1c-4db4-a8de-90f43bc2e487"},"vehicle_type_id":"4","last_reported":1698609993,"current_range_meters":19600,"station_id":"","pricing_plan_id":"free"},{"bike_id":"2687313b-4537-4b0d-956b-7965a5770ee1","system_id":"levelo_inurba_marseille","lat":43.328212,"lon":5.431596,"is_reserved":false,"is_disabled":false,"rental_uris":{"android":"levelo://app?vid=2687313b-4537-4b0d-956b-7965a5770ee1","ios":"levelo://app?vid=2687313b-4537-4b0d-956b-7965a5770ee1"},"vehicle_type_id":"4","last_reported":1698609993,"current_range_meters":14400,"station_id":"","pricing_plan_id":"free"},{"bike_id":"1cb3f577-fb04-4e28-a15d-87951d1577d9","system_id":"levelo_inurba_marseille","lat":43.308051,"lon":5.43527,"is_reserved":false,"is_disabled":false,"rental_uris":{"android":"levelo://app?vid=1cb3f577-fb04-4e28-a15d-87951d1577d9","ios":"levelo://app?vid=1cb3f577-fb04-4e28-a15d-87951d1577d9"},"vehicle_type_id":"4","last_reported":1698609993,"current_range_meters":31600,"station_id":"ce4bhph2rcd13ifvqheg","pricing_plan_id":"free"},{"bike_id":"ce7f7ccf-e8d8-493f-afeb-54465fedeb58","system_id":"levelo_inurba_marseille","lat":43.26568,"lon":5.39005,"is_reserved":false,"is_disabled":false,"rental_uris":{"android":"levelo://app?vid=ce7f7ccf-e8d8-493f-afeb-54465fedeb58","ios":"levelo://app?vid=ce7f7ccf-e8d8-493f-afeb-54465fedeb58"},"vehicle_type_id":"4","last_reported":1698609993,"current_range_meters":0,"station_id":"ce4bhe12rcd13ifvqf30","pricing_plan_id":"free"},{"bike_id":"9d286734-9b24-4990-8bab-6ef82e48fa34","system_id":"levelo_inurba_marseille","lat":43.26567,"lon":5.39006,"is_reserved":false,"is_disabled":false,"rental_uris":{"android":"levelo://app?vid=9d286734-9b24-4990-8bab-6ef82e48fa34","ios":"levelo://app?vid=9d286734-9b24-4990-8bab-6ef82e48fa34"},"vehicle_type_id":"4","last_reported":1698609993,"current_range_meters":0,"station_id":"ce4bhe12rcd13ifvqf30","pricing_plan_id":"free"},{"bike_id":"ce56f942-f540-46a3-af44-427e7947be87","system_id":"levelo_inurba_marseille","lat":43.308051,"lon":5.43527,"is_reserved":false,"is_disabled":false,"rental_uris":{"android":"levelo://app?vid=ce56f942-f540-46a3-af44-427e7947be87","ios":"levelo://app?vid=ce56f942-f540-46a3-af44-427e7947be87"},"vehicle_type_id":"4","last_reported":1698609993,"current_range_meters":19600,"station_id":"ce4bhph2rcd13ifvqheg","pricing_plan_id":"free"},{"bike_id":"77bd88b0-94d4-432b-ad78-b34f813520ea","system_id":"levelo_inurba_marseille","lat":43.265484,"lon":5.390021,"is_reserved":false,"is_disabled":false,"rental_uris":{"android":"levelo://app?vid=77bd88b0-94d4-432b-ad78-b34f813520ea","ios":"levelo://app?vid=77bd88b0-94d4-432b-ad78-b34f813520ea"},"vehicle_type_id":"4","last_reported":1698609993,"current_range_meters":2000,"station_id":"ce4bhe12rcd13ifvqf30","pricing_plan_id":"free"},{"bike_id":"2d46cc0c-65c6-4834-956d-7090ad78794e","system_id":"levelo_inurba_marseille","lat":43.265451,"lon":5.38995,"is_reserved":false,"is_disabled":false,"rental_uris":{"android":"levelo://app?vid=2d46cc0c-65c6-4834-956d-7090ad78794e","ios":"levelo://app?vid=2d46cc0c-65c6-4834-956d-7090ad78794e"},"vehicle_type_id":"4","last_reported":1698609993,"current_range_meters":5200,"station_id":"ce4bhe12rcd13ifvqf30","pricing_plan_id":"free"},{"bike_id":"efbbef42-b150-48eb-8784-926fdd2e78dc","system_id":"levelo_inurba_marseille","lat":43.26543,"lon":5.38991,"is_reserved":false,"is_disabled":false,"rental_uris":{"android":"levelo://app?vid=efbbef42-b150-48eb-8784-926fdd2e78dc","ios":"levelo://app?vid=efbbef42-b150-48eb-8784-926fdd2e78dc"},"vehicle_type_id":"4","last_reported":1698609993,"current_range_meters":29200,"station_id":"ce4bhe12rcd13ifvqf30","pricing_plan_id":"free"},{"bike_id":"0a7f1124-b58b-4c40-b935-9239885369b2","system_id":"levelo_inurba_marseille","lat":43.26944,"lon":5.40244,"is_reserved":false,"is_disabled":false,"rental_uris":{"android":"levelo://app?vid=0a7f1124-b58b-4c40-b935-9239885369b2","ios":"levelo://app?vid=0a7f1124-b58b-4c40-b935-9239885369b2"},"vehicle_type_id":"4","last_reported":1698609993,"current_range_meters":0,"station_id":"cjm6bp8fraef2m0cb0m0","pricing_plan_id":"free"},{"bike_id":"2efbead7-17b8-47d6-8277-ab0a1f685544","system_id":"levelo_inurba_marseille","lat":43.26943,"lon":5.40245,"is_reserved":false,"is_disabled":false,"rental_uris":{"android":"levelo://app?vid=2efbead7-17b8-47d6-8277-ab0a1f685544","ios":"levelo://app?vid=2efbead7-17b8-47d6-8277-ab0a1f685544"},"vehicle_type_id":"4","last_reported":1698609993,"current_range_meters":6000,"station_id":"cjm6bp8fraef2m0cb0m0","pricing_plan_id":"free"},{"bike_id":"160e5d81-1669-440c-ba28-bc7fb9824630","system_id":"levelo_inurba_marseille","lat":43.269444,"lon":5.402511,"is_reserved":false,"is_disabled":false,"rental_uris":{"android":"levelo://app?vid=160e5d81-1669-440c-ba28-bc7fb9824630","ios":"levelo://app?vid=160e5d81-1669-440c-ba28-bc7fb9824630"},"vehicle_type_id":"4","last_reported":1698609993,"current_range_meters":20000,"station_id":"cjm6bp8fraef2m0cb0m0","pricing_plan_id":"free"},{"bike_id":"3a162fc9-52da-4829-aecc-c916611b1ab1","system_id":"levelo_inurba_marseille","lat":43.26944,"lon":5.40256,"is_reserved":false,"is_disabled":false,"rental_uris":{"android":"levelo://app?vid=3a162fc9-52da-4829-aecc-c916611b1ab1","ios":"levelo://app?vid=3a162fc9-52da-4829-aecc-c916611b1ab1"},"vehicle_type_id":"4","last_reported":1698609993,"current_range_meters":14000,"station_id":"cjm6bp8fraef2m0cb0m0","pricing_plan_id":"free"},{"bike_id":"c51cdcf9-52b8-458e-9230-241d9697b6bf","system_id":"levelo_inurba_marseille","lat":43.26942,"lon":5.40254,"is_reserved":false,"is_disabled":false,"rental_uris":{"android":"levelo://app?vid=c51cdcf9-52b8-458e-9230-241d9697b6bf","ios":"levelo://app?vid=c51cdcf9-52b8-458e-9230-241d9697b6bf"},"vehicle_type_id":"4","last_reported":1698609993,"current_range_meters":0,"station_id":"cjm6bp8fraef2m0cb0m0","pricing_plan_id":"free"},{"bike_id":"b99ad779-80a8-4a74-8e15-70d6e682dc34","system_id":"levelo_inurba_marseille","lat":43.26941,"lon":5.40253,"is_reserved":false,"is_disabled":false,"rental_uris":{"android":"levelo://app?vid=b99ad779-80a8-4a74-8e15-70d6e682dc34","ios":"levelo://app?vid=b99ad779-80a8-4a74-8e15-70d6e682dc34"},"vehicle_type_id":"4","last_reported":1698609993,"current_range_meters":19600,"station_id":"cjm6bp8fraef2m0cb0m0","pricing_plan_id":"free"},{"bike_id":"f14df3a5-7ed8-497d-b4b8-da9749a50fcf","system_id":"levelo_inurba_marseille","lat":43.26945,"lon":5.40263,"is_reserved":false,"is_disabled":false,"rental_uris":{"android":"levelo://app?vid=f14df3a5-7ed8-497d-b4b8-da9749a50fcf","ios":"levelo://app?vid=f14df3a5-7ed8-497d-b4b8-da9749a50fcf"},"vehicle_type_id":"4","last_reported":1698609993,"current_range_meters":22800,"station_id":"cjm6bp8fraef2m0cb0m0","pricing_plan_id":"free"},{"bike_id":"7d393826-907a-4206-9972-66688f4b18ac","system_id":"levelo_inurba_marseille","lat":43.26939,"lon":5.40255,"is_reserved":false,"is_disabled":false,"rental_uris":{"android":"levelo://app?vid=7d393826-907a-4206-9972-66688f4b18ac","ios":"levelo://app?vid=7d393826-907a-4206-9972-66688f4b18ac"},"vehicle_type_id":"4","last_reported":1698609993,"current_range_meters":1200,"station_id":"cjm6bp8fraef2m0cb0m0","pricing_plan_id":"free"},{"bike_id":"15cfd69d-94e0-4abd-a4e2-bc749bd2f09f","system_id":"levelo_inurba_marseille","lat":43.26938,"lon":5.4026,"is_reserved":false,"is_disabled":false,"rental_uris":{"android":"levelo://app?vid=15cfd69d-94e0-4abd-a4e2-bc749bd2f09f","ios":"levelo://app?vid=15cfd69d-94e0-4abd-a4e2-bc749bd2f09f"},"vehicle_type_id":"4","last_reported":1698609993,"current_range_meters":14400,"station_id":"cjm6bp8fraef2m0cb0m0","pricing_plan_id":"free"},{"bike_id":"b818935e-416e-4c91-bc09-e5a615b36f74","system_id":"levelo_inurba_marseille","lat":43.26927,"lon":5.40235,"is_reserved":false,"is_disabled":false,"rental_uris":{"android":"levelo://app?vid=b818935e-416e-4c91-bc09-e5a615b36f74","ios":"levelo://app?vid=b818935e-416e-4c91-bc09-e5a615b36f74"},"vehicle_type_id":"4","last_reported":1698609993,"current_range_meters":5600,"station_id":"","pricing_plan_id":"free"},{"bike_id":"2bb5d85e-0c84-41a2-b9d7-05c8930d80bf","system_id":"levelo_inurba_marseille","lat":43.26936,"lon":5.40262,"is_reserved":false,"is_disabled":false,"rental_uris":{"android":"levelo://app?vid=2bb5d85e-0c84-41a2-b9d7-05c8930d80bf","ios":"levelo://app?vid=2bb5d85e-0c84-41a2-b9d7-05c8930d80bf"},"vehicle_type_id":"4","last_reported":1698609993,"current_range_meters":22400,"station_id":"cjm6bp8fraef2m0cb0m0","pricing_plan_id":"free"},{"bike_id":"6972960f-6ecd-4bd9-ace5-3c0d7d26ea39","system_id":"levelo_inurba_marseille","lat":43.331883,"lon":5.431859,"is_reserved":false,"is_disabled":false,"rental_uris":{"android":"levelo://app?vid=6972960f-6ecd-4bd9-ace5-3c0d7d26ea39","ios":"levelo://app?vid=6972960f-6ecd-4bd9-ace5-3c0d7d26ea39"},"vehicle_type_id":"4","last_reported":1698609993,"current_range_meters":0,"station_id":"","pricing_plan_id":"free"},{"bike_id":"b1e3af79-7870-4f97-acec-e3d3f08d9204","system_id":"levelo_inurba_marseille","lat":43.261782,"lon":5.374515,"is_reserved":false,"is_disabled":false,"rental_uris":{"android":"levelo://app?vid=b1e3af79-7870-4f97-acec-e3d3f08d9204","ios":"levelo://app?vid=b1e3af79-7870-4f97-acec-e3d3f08d9204"},"vehicle_type_id":"4","last_reported":1698609993,"current_range_meters":6400,"station_id":"ce4bhgp2rcd13ifvqfc0","pricing_plan_id":"free"},{"bike_id":"a20c9be4-e6b0-43ca-8558-0d0c671ea8f3","system_id":"levelo_inurba_marseille","lat":43.26184,"lon":5.37444,"is_reserved":false,"is_disabled":false,"rental_uris":{"android":"levelo://app?vid=a20c9be4-e6b0-43ca-8558-0d0c671ea8f3","ios":"levelo://app?vid=a20c9be4-e6b0-43ca-8558-0d0c671ea8f3"},"vehicle_type_id":"4","last_reported":1698609993,"current_range_meters":31200,"station_id":"ce4bhgp2rcd13ifvqfc0","pricing_plan_id":"free"},{"bike_id":"ec6eaf7d-b007-4b72-aca6-fdcf2b349f80","system_id":"levelo_inurba_marseille","lat":43.317104,"lon":5.436818,"is_reserved":false,"is_disabled":false,"rental_uris":{"android":"levelo://app?vid=ec6eaf7d-b007-4b72-aca6-fdcf2b349f80","ios":"levelo://app?vid=ec6eaf7d-b007-4b72-aca6-fdcf2b349f80"},"vehicle_type_id":"4","last_reported":1698609993,"current_range_meters":3600,"station_id":"ce4bhp92rcd13ifvqhcg","pricing_plan_id":"free"},{"bike_id":"55a2577d-9653-4529-8b72-125bcfff7eca","system_id":"levelo_inurba_marseille","lat":43.317104,"lon":5.436818,"is_reserved":false,"is_disabled":false,"rental_uris":{"android":"levelo://app?vid=55a2577d-9653-4529-8b72-125bcfff7eca","ios":"levelo://app?vid=55a2577d-9653-4529-8b72-125bcfff7eca"},"vehicle_type_id":"4","last_reported":1698609993,"current_range_meters":23600,"station_id":"ce4bhp92rcd13ifvqhcg","pricing_plan_id":"free"},{"bike_id":"eba5fcab-3613-46a5-a561-1d39c5b909c7","system_id":"levelo_inurba_marseille","lat":43.317104,"lon":5.436818,"is_reserved":false,"is_disabled":false,"rental_uris":{"android":"levelo://app?vid=eba5fcab-3613-46a5-a561-1d39c5b909c7","ios":"levelo://app?vid=eba5fcab-3613-46a5-a561-1d39c5b909c7"},"vehicle_type_id":"4","last_reported":1698609993,"current_range_meters":10400,"station_id":"ce4bhp92rcd13ifvqhcg","pricing_plan_id":"free"},{"bike_id":"3b15aeb2-4a1c-4b6c-86db-e9b6ed585861","system_id":"levelo_inurba_marseille","lat":43.317104,"lon":5.436818,"is_reserved":false,"is_disabled":false,"rental_uris":{"android":"levelo://app?vid=3b15aeb2-4a1c-4b6c-86db-e9b6ed585861","ios":"levelo://app?vid=3b15aeb2-4a1c-4b6c-86db-e9b6ed585861"},"vehicle_type_id":"4","last_reported":1698609993,"current_range_meters":31600,"station_id":"ce4bhp92rcd13ifvqhcg","pricing_plan_id":"free"},{"bike_id":"379a37f8-5906-4962-b246-dcc5e1990ab5","system_id":"levelo_inurba_marseille","lat":43.261592,"lon":5.373059,"is_reserved":false,"is_disabled":false,"rental_uris":{"android":"levelo://app?vid=379a37f8-5906-4962-b246-dcc5e1990ab5","ios":"levelo://app?vid=379a37f8-5906-4962-b246-dcc5e1990ab5"},"vehicle_type_id":"4","last_reported":1698609993,"current_range_meters":20400,"station_id":"","pricing_plan_id":"free"},{"bike_id":"7c4e02f6-874b-4daa-9d79-8818ab05bc7a","system_id":"levelo_inurba_marseille","lat":43.271368,"lon":5.40928,"is_reserved":false,"is_disabled":false,"rental_uris":{"android":"levelo://app?vid=7c4e02f6-874b-4daa-9d79-8818ab05bc7a","ios":"levelo://app?vid=7c4e02f6-874b-4daa-9d79-8818ab05bc7a"},"vehicle_type_id":"4","last_reported":1698609993,"current_range_meters":31600,"station_id":"ce4bhl12rcd13ifvqgf0","pricing_plan_id":"free"},{"bike_id":"541feec6-5896-4728-b28a-52f028a80a21","system_id":"levelo_inurba_marseille","lat":43.271368,"lon":5.40928,"is_reserved":false,"is_disabled":false,"rental_uris":{"android":"levelo://app?vid=541feec6-5896-4728-b28a-52f028a80a21","ios":"levelo://app?vid=541feec6-5896-4728-b28a-52f028a80a21"},"vehicle_type_id":"4","last_reported":1698609993,"current_range_meters":30400,"station_id":"ce4bhl12rcd13ifvqgf0","pricing_plan_id":"free"},{"bike_id":"4c1676a6-fc6f-4532-9b98-4bc7b363288f","system_id":"levelo_inurba_marseille","lat":43.271368,"lon":5.40928,"is_reserved":false,"is_disabled":false,"rental_uris":{"android":"levelo://app?vid=4c1676a6-fc6f-4532-9b98-4bc7b363288f","ios":"levelo://app?vid=4c1676a6-fc6f-4532-9b98-4bc7b363288f"},"vehicle_type_id":"4","last_reported":1698609993,"current_range_meters":28400,"station_id":"ce4bhl12rcd13ifvqgf0","pricing_plan_id":"free"},{"bike_id":"43d303bb-18e4-4c18-aad9-d6838b746ff6","system_id":"levelo_inurba_marseille","lat":43.271388,"lon":5.409269,"is_reserved":false,"is_disabled":false,"rental_uris":{"android":"levelo://app?vid=43d303bb-18e4-4c18-aad9-d6838b746ff6","ios":"levelo://app?vid=43d303bb-18e4-4c18-aad9-d6838b746ff6"},"vehicle_type_id":"4","last_reported":1698609993,"current_range_meters":28000,"station_id":"ce4bhl12rcd13ifvqgf0","pricing_plan_id":"free"},{"bike_id":"afdd9084-4b41-4a55-b5a1-a4a1eb974efb","system_id":"levelo_inurba_marseille","lat":43.267959,"lon":5.402687,"is_reserved":false,"is_disabled":false,"rental_uris":{"android":"levelo://app?vid=afdd9084-4b41-4a55-b5a1-a4a1eb974efb","ios":"levelo://app?vid=afdd9084-4b41-4a55-b5a1-a4a1eb974efb"},"vehicle_type_id":"4","last_reported":1698609993,"current_range_meters":13200,"station_id":"ce501612rcd8frsf0b60","pricing_plan_id":"free"},{"bike_id":"33eda9e8-b79b-4e1e-86d3-adf305c18a86","system_id":"levelo_inurba_marseille","lat":43.267959,"lon":5.402687,"is_reserved":false,"is_disabled":false,"rental_uris":{"android":"levelo://app?vid=33eda9e8-b79b-4e1e-86d3-adf305c18a86","ios":"levelo://app?vid=33eda9e8-b79b-4e1e-86d3-adf305c18a86"},"vehicle_type_id":"4","last_reported":1698609993,"current_range_meters":31200,"station_id":"ce501612rcd8frsf0b60","pricing_plan_id":"free"},{"bike_id":"1d202572-f85f-4d2b-a3d8-6d41d674f653","system_id":"levelo_inurba_marseille","lat":43.267959,"lon":5.402687,"is_reserved":false,"is_disabled":false,"rental_uris":{"android":"levelo://app?vid=1d202572-f85f-4d2b-a3d8-6d41d674f653","ios":"levelo://app?vid=1d202572-f85f-4d2b-a3d8-6d41d674f653"},"vehicle_type_id":"4","last_reported":1698609993,"current_range_meters":8400,"station_id":"ce501612rcd8frsf0b60","pricing_plan_id":"free"},{"bike_id":"d2b10bb0-afaf-45c9-a376-90326017bc49","system_id":"levelo_inurba_marseille","lat":43.26803,"lon":5.40267,"is_reserved":false,"is_disabled":false,"rental_uris":{"android":"levelo://app?vid=d2b10bb0-afaf-45c9-a376-90326017bc49","ios":"levelo://app?vid=d2b10bb0-afaf-45c9-a376-90326017bc49"},"vehicle_type_id":"4","last_reported":1698609993,"current_range_meters":24400,"station_id":"ce501612rcd8frsf0b60","pricing_plan_id":"free"},{"bike_id":"e28fd3fa-6f2b-45d4-9e8b-b8b69da748ad","system_id":"levelo_inurba_marseille","lat":43.26802,"lon":5.40266,"is_reserved":false,"is_disabled":false,"rental_uris":{"android":"levelo://app?vid=e28fd3fa-6f2b-45d4-9e8b-b8b69da748ad","ios":"levelo://app?vid=e28fd3fa-6f2b-45d4-9e8b-b8b69da748ad"},"vehicle_type_id":"4","last_reported":1698609993,"current_range_meters":17200,"station_id":"ce501612rcd8frsf0b60","pricing_plan_id":"free"},{"bike_id":"2ca94536-06cf-42f0-9dc3-c5265a21d74f","system_id":"levelo_inurba_marseille","lat":43.281548,"lon":5.42643,"is_reserved":false,"is_disabled":false,"rental_uris":{"android":"levelo://app?vid=2ca94536-06cf-42f0-9dc3-c5265a21d74f","ios":"levelo://app?vid=2ca94536-06cf-42f0-9dc3-c5265a21d74f"},"vehicle_type_id":"4","last_reported":1698609993,"current_range_meters":4800,"station_id":"ce4bhnh2rcd13ifvqgug","pricing_plan_id":"free"},{"bike_id":"80e3e0b3-da77-43f0-843f-58cebdaa0867","system_id":"levelo_inurba_marseille","lat":43.28155,"lon":5.42645,"is_reserved":false,"is_disabled":false,"rental_uris":{"android":"levelo://app?vid=80e3e0b3-da77-43f0-843f-58cebdaa0867","ios":"levelo://app?vid=80e3e0b3-da77-43f0-843f-58cebdaa0867"},"vehicle_type_id":"4","last_reported":1698609993,"current_range_meters":14400,"station_id":"ce4bhnh2rcd13ifvqgug","pricing_plan_id":"free"},{"bike_id":"4e47fb4c-3c11-4677-bd74-292c94a34f01","system_id":"levelo_inurba_marseille","lat":43.281548,"lon":5.42643,"is_reserved":false,"is_disabled":false,"rental_uris":{"android":"levelo://app?vid=4e47fb4c-3c11-4677-bd74-292c94a34f01","ios":"levelo://app?vid=4e47fb4c-3c11-4677-bd74-292c94a34f01"},"vehicle_type_id":"4","last_reported":1698609993,"current_range_meters":17600,"station_id":"ce4bhnh2rcd13ifvqgug","pricing_plan_id":"free"},{"bike_id":"fdc121ff-b9a8-47b5-bd9d-59c95338cfe0","system_id":"levelo_inurba_marseille","lat":43.28148,"lon":5.426426,"is_reserved":false,"is_disabled":false,"rental_uris":{"android":"levelo://app?vid=fdc121ff-b9a8-47b5-bd9d-59c95338cfe0","ios":"levelo://app?vid=fdc121ff-b9a8-47b5-bd9d-59c95338cfe0"},"vehicle_type_id":"4","last_reported":1698609993,"current_range_meters":18000,"station_id":"ce4bhnh2rcd13ifvqgug","pricing_plan_id":"free"},