{"last_updated":1719353221,"ttl":30,"version":"2.2","data":{"bikes":[{"bike_id":"41bfaa2c-329f-475a-ba8c-116498b9b427","system_id":"levelo_inurba_marseille","lat":43.3136,"lon":5.36708,"is_reserved":false,"is_disabled":false,"rental_uris":{"android":"levelo://app?vid=41bfaa2c-329f-475a-ba8c-116498b9b427","ios":"levelo://app?vid=41bfaa2c-329f-475a-ba8c-116498b9b427"},"vehicle_type_id":"4","last_reported":1719353221,"current_range_meters":27600,"station_id":"","pricing_plan_id":"cebpf4jnsgd1na2vs0mg"},{"bike_id":"bcc3e4e7-49ad-4827-ad72-a8aac5cd29e6","system_id":"levelo_inurba_marseille","lat":43.31509,"lon":5.37089,"is_reserved":false,"is_disabled":false,"rental_uris":{"android":"levelo://app?vid=bcc3e4e7-49ad-4827-ad72-a8aac5cd29e6","ios":"levelo://app?vid=bcc3e4e7-49ad-4827-ad72-a8aac5cd29e6"},"vehicle_type_id":"4","last_reported":1719353221,"current_range_meters":18000,"station_id":"","pricing_plan_id":"cebpf4jnsgd1na2vs0mg"},{"bike_id":"7e99da1a-c7ad-45e0-af55-6daa609b12d1","system_id":"levelo_inurba_marseille","lat":43.309076,"lon":5.368465,"is_reserved":false,"is_disabled":false,"rental_uris":{"android":"levelo://app?vid=7e99da1a-c7ad-45e0-af55-6daa609b12d1","ios":"levelo://app?vid=7e99da1a-c7ad-45e0-af55-6daa609b12d1"},"vehicle_type_id":"4","last_reported":1719353221,"current_range_meters":11600,"station_id":"ce4bgn92rcd13ifvqbvg","pricing_plan_id":"cebpf4jnsgd1na2vs0mg"},{"bike_id":"8d070e41-5718-448a-8989-f94bcea5552e","system_id":"levelo_inurba_marseille","lat":43.31476,"lon":5.37312,"is_reserved":false,"is_disabled":false,"rental_uris":{"android":"levelo://app?vid=8d070e41-5718-448a-8989-f94bcea5552e","ios":"levelo://app?vid=8d070e41-5718-448a-8989-f94bcea5552e"},"vehicle_type_id":"4","last_reported":1719353221,"current_range_meters":7200,"station_id":"ce4bgt12rcd13ifvqcd0","pricing_plan_id":"cebpf4jnsgd1na2vs0mg"},{"bike_id":"5faa5dc2-b64b-4346-b945-57b4d334596d","system_id":"levelo_inurba_marseille","lat":43.314811,"lon":5.373103,"is_reserved":false,"is_disabled":false,"rental_uris":{"android":"levelo://app?vid=5faa5dc2-b64b-4346-b945-57b4d334596d","ios":"levelo://app?vid=5faa5dc2-b64b-4346-b945-57b4d334596d"},"vehicle_type_id":"4","last_reported":1719353221,"current_range_meters":17200,"station_id":"ce4bgt12rcd13ifvqcd0","pricing_plan_id":"cebpf4jnsgd1na2vs0mg"},{"bike_id":"696dcf2d-bfb6-429f-bd35-b5e29022f82c","system_id":"levelo_inurba_marseille","lat":43.314811,"lon":5.373103,"is_reserved":false,"is_disabled":false,"rental_uris":{"android":"levelo://app?vid=696dcf2d-bfb6-429f-bd35-b5e29022f82c","ios":"levelo://app?vid=696dcf2d-bfb6-429f-bd35-b5e29022f82c"},"vehicle_type_id":"4","last_reported":1719353221,"current_range_meters":2800,"station_id":"ce4bgt12rcd13ifvqcd0","pricing_plan_id":"cebpf4jnsgd1na2vs0mg"},{"bike_id":"330cb5dd-51c4-40b2-ae4b-af1ee753f9b7","system_id":"levelo_inurba_marseille","lat":43.309034,"lon":5.371783,"is_reserved":false,"is_disabled":false,"rental_uris":{"android":"levelo://app?vid=330cb5dd-51c4-40b2-ae4b-af1ee753f9b7","ios":"levelo://app?vid=330cb5dd-51c4-40b2-ae4b-af1ee753f9b7"},"vehicle_type_id":"4","last_reported":1719353221,"current_range_meters":5200,"station_id":"ce4bguh2rcd13ifvqckg","pricing_plan_id":"cebpf4jnsgd1na2vs0mg"},{"bike_id":"0a3cee25-42d1-4168-8d40-9c67e2bd4b68","system_id":"levelo_inurba_marseille","lat":43.309039,"lon":5.371797,"is_reserved":false,"is_disabled":false,"rental_uris":{"android":"levelo://app?vid=0a3cee25-42d1-4168-8d40-9c67e2bd4b68","ios":"levelo://app?vid=0a3cee25-42d1-4168-8d40-9c67e2bd4b68"},"vehicle_type_id":"4","last_reported":1719353221,"current_range_meters":0,"station_id":"ce4bguh2rcd13ifvqckg","pricing_plan_id":"cebpf4jnsgd1na2vs0mg"},{"bike_id":"aa2d9578-7484-4192-a0cc-a0ddd9e7ebd9","system_id":"levelo_inurba_marseille","lat":43.309039,"lon":5.371797,"is_reserved":false,"is_disabled":false,"rental_uris":{"android":"levelo://app?vid=aa2d9578-7484-4192-a0cc-a0ddd9e7ebd9","ios":"levelo://app?vid=aa2d9578-7484-4192-a0cc-a0ddd9e7ebd9"},"vehicle_type_id":"4","last_reported":1719353221,"current_range_meters":29600,"station_id":"ce4bguh2rcd13ifvqckg","pricing_plan_id":"cebpf4jnsgd1na2vs0mg"},{"bike_id":"6455a47e-097c-4676-8639-93fa3be59378","system_id":"levelo_inurba_marseille","lat":43.309039,"lon":5.371797,"is_reserved":false,"is_disabled":false,"rental_uris":{"android":"levelo://app?vid=6455a47e-097c-4676-8639-93fa3be59378","ios":"levelo://app?vid=6455a47e-097c-4676-8639-93fa3be59378"},"vehicle_type_id":"4","last_reported":1719353221,"current_range_meters":31200,"station_id":"ce4bguh2rcd13ifvqckg","pricing_plan_id":"cebpf4jnsgd1na2vs0mg"},{"bike_id":"f853bb5c-7105-44dd-af53-5ecbc2504190","system_id":"levelo_inurba_marseille","lat":43.309039,"lon":5.371797,"is_reserved":false,"is_disabled":false,"rental_uris":{"android":"levelo://app?vid=f853bb5c-7105-44dd-af53-5ecbc2504190","ios":"levelo://app?vid=f853bb5c-7105-44dd-af53-5ecbc2504190"},"vehicle_type_id":"4","last_reported":1719353221,"current_range_meters":26800,"station_id":"ce4bguh2rcd13ifvqckg","pricing_plan_id":"cebpf4jnsgd1na2vs0mg"},{"bike_id":"4f68b602-75da-4034-9271-43bfa64fb954","system_id":"levelo_inurba_marseille","lat":43.309034,"lon":5.371783,"is_reserved":false,"is_disabled":false,"rental_uris":{"android":"levelo://app?vid=4f68b602-75da-4034-9271-43bfa64fb954","ios":"levelo://app?vid=4f68b602-75da-4034-9271-43bfa64fb954"},"vehicle_type_id":"4","last_reported":1719353221,"current_range_meters":26000,"station_id":"ce4bguh2rcd13ifvqckg","pricing_plan_id":"cebpf4jnsgd1na2vs0mg"},{"bike_id":"d36b2489-a891-41ce-9032-7600d97d683d","system_id":"levelo_inurba_marseille","lat":43.309034,"lon":5.371783,"is_reserved":false,"is_disabled":false,"rental_uris":{"android":"levelo://app?vid=d36b2489-a891-41ce-9032-7600d97d683d","ios":"levelo://app?vid=d36b2489-a891-41ce-9032-7600d97d683d"},"vehicle_type_id":"4","last_reported":1719353221,"current_range_meters":31200,"station_id":"ce4bguh2rcd13ifvqckg","pricing_plan_id":"cebpf4jnsgd1na2vs0mg"},{"bike_id":"ead18698-b369-4961-a1eb-ff90c633ea77","system_id":"levelo_inurba_marseille","lat":43.308025,"lon":5.373099,"is_reserved":false,"is_disabled":false,"rental_uris":{"android":"levelo://app?vid=ead18698-b369-4961-a1eb-ff90c633ea77","ios":"levelo://app?vid=ead18698-b369-4961-a1eb-ff90c633ea77"},"vehicle_type_id":"4","last_reported":1719353221,"current_range_meters":5600,"station_id":"","pricing_plan_id":"cebpf4jnsgd1na2vs0mg"},{"bike_id":"2501eab2-364c-4d7e-a06b-425e7f3987da","system_id":"levelo_inurba_marseille","lat":43.30535,"lon":5.36705,"is_reserved":false,"is_disabled":false,"rental_uris":{"android":"levelo://app?vid=2501eab2-364c-4d7e-a06b-425e7f3987da","ios":"levelo://app?vid=2501eab2-364c-4d7e-a06b-425e7f3987da"},"vehicle_type_id":"4","last_reported":1719353221,"current_range_meters":22800,"station_id":"ce4bgrp2rcd13ifvqc9g","pricing_plan_id":"cebpf4jnsgd1na2vs0mg"},{"bike_id":"13b6f933-d9e4-4493-9a61-8ab92b0c509e","system_id":"levelo_inurba_marseille","lat":43.306021,"lon":5.3723,"is_reserved":false,"is_disabled":false,"rental_uris":{"android":"levelo://app?vid=13b6f933-d9e4-4493-9a61-8ab92b0c509e","ios":"levelo://app?vid=13b6f933-d9e4-4493-9a61-8ab92b0c509e"},"vehicle_type_id":"4","last_reported":1719353221,"current_range_meters":14000,"station_id":"","pricing_plan_id":"cebpf4jnsgd1na2vs0mg"},{"bike_id":"46311cb3-0889-48bc-af6d-0e3f0dc9d9c0","system_id":"levelo_inurba_marseille","lat":43.305989,"lon":5.37225,"is_reserved":false,"is_disabled":false,"rental_uris":{"android":"levelo://app?vid=46311cb3-0889-48bc-af6d-0e3f0dc9d9c0","ios":"levelo://app?vid=46311cb3-0889-48bc-af6d-0e3f0dc9d9c0"},"vehicle_type_id":"4","last_reported":1719353221,"current_range_meters":30400,"station_id":"ce4bgqh2rcd13ifvqc4g","pricing_plan_id":"cebpf4jnsgd1na2vs0mg"},{"bike_id":"cd0905c1-415a-4e14-b803-35cd4aa87a39","system_id":"levelo_inurba_marseille","lat":43.305989,"lon":5.37225,"is_reserved":false,"is_disabled":false,"rental_uris":{"android":"levelo://app?vid=cd0905c1-415a-4e14-b803-35cd4aa87a39","ios":"levelo://app?vid=cd0905c1-415a-4e14-b803-35cd4aa87a39"},"vehicle_type_id":"4","last_reported":1719353221,"current_range_meters":21200,"station_id":"ce4bgqh2rcd13ifvqc4g","pricing_plan_id":"cebpf4jnsgd1na2vs0mg"},{"bike_id":"845786f4-a31d-4b17-a707-743171f31ac4","system_id":"levelo_inurba_marseille","lat":43.3059,"lon":5.37236,"is_reserved":false,"is_disabled":false,"rental_uris":{"android":"levelo://app?vid=845786f4-a31d-4b17-a707-743171f31ac4","ios":"levelo://app?vid=845786f4-a31d-4b17-a707-743171f31ac4"},"vehicle_type_id":"4","last_reported":1719353221,"current_range_meters":13600,"station_id":"ce4bgqh2rcd13ifvqc4g","pricing_plan_id":"cebpf4jnsgd1na2vs0mg"},{"bike_id":"62c05772-7264-4dc7-8906-b8cbb488e5d4","system_id":"levelo_inurba_marseille","lat":43.311131,"lon":5.377651,"is_reserved":false,"is_disabled":false,"rental_uris":{"android":"levelo://app?vid=62c05772-7264-4dc7-8906-b8cbb488e5d4","ios":"levelo://app?vid=62c05772-7264-4dc7-8906-b8cbb488e5d4"},"vehicle_type_id":"4","last_reported":1719353221,"current_range_meters":10400,"station_id":"ce4bgt92rcd13ifvqcg0","pricing_plan_id":"cebpf4jnsgd1na2vs0mg"},{"bike_id":"36c140fe-d18f-4ff5-be8f-386de33eddf0","system_id":"levelo_inurba_marseille","lat":43.311178,"lon":5.377647,"is_reserved":false,"is_disabled":false,"rental_uris":{"android":"levelo://app?vid=36c140fe-d18f-4ff5-be8f-386de33eddf0","ios":"levelo://app?vid=36c140fe-d18f-4ff5-be8f-386de33eddf0"},"vehicle_type_id":"4","last_reported":1719353221,"current_range_meters":28000,"station_id":"ce4bgt92rcd13ifvqcg0","pricing_plan_id":"cebpf4jnsgd1na2vs0mg"},{"bike_id":"a6af2466-e748-4675-a9ee-d7e869ec4e24","system_id":"levelo_inurba_marseille","lat":43.31112,"lon":5.37777,"is_reserved":false,"is_disabled":false,"rental_uris":{"android":"levelo://app?vid=a6af2466-e748-4675-a9ee-d7e869ec4e24","ios":"levelo://app?vid=a6af2466-e748-4675-a9ee-d7e869ec4e24"},"vehicle_type_id":"4","last_reported":1719353221,"current_range_meters":23200,"station_id":"ce4bgt92rcd13ifvqcg0","pricing_plan_id":"cebpf4jnsgd1na2vs0mg"},{"bike_id":"0d37a016-d0bf-42e0-8bc9-1930a7b6d06d","system_id":"levelo_inurba_marseille","lat":43.311131,"lon":5.377651,"is_reserved":false,"is_disabled":false,"rental_uris":{"android":"levelo://app?vid=0d37a016-d0bf-42e0-8bc9-1930a7b6d06d","ios":"levelo://app?vid=0d37a016-d0bf-42e0-8bc9-1930a7b6d06d"},"vehicle_type_id":"4","last_reported":1719353221,"current_range_meters":8400,"station_id":"ce4bgt92rcd13ifvqcg0","pricing_plan_id":"cebpf4jnsgd1na2vs0mg"},{"bike_id":"7f5b54e1-3bb5-41a6-b510-3721826330be","system_id":"levelo_inurba_marseille","lat":43.304484,"lon":5.368914,"is_reserved":false,"is_disabled":false,"rental_uris":{"android":"levelo://app?vid=7f5b54e1-3bb5-41a6-b510-3721826330be","ios":"levelo://app?vid=7f5b54e1-3bb5-41a6-b510-3721826330be"},"vehicle_type_id":"4","last_reported":1719353221,"current_range_meters":27200,"station_id":"","pricing_plan_id":"cebpf4jnsgd1na2vs0mg"},{"bike_id":"1e0a3328-a0b5-46dd-975c-d999614028e2","system_id":"levelo_inurba_marseille","lat":43.307945,"lon":5.376487,"is_reserved":false,"is_disabled":false,"rental_uris":{"android":"levelo://app?vid=1e0a3328-a0b5-46dd-975c-d999614028e2","ios":"levelo://app?vid=1e0a3328-a0b5-46dd-975c-d999614028e2"},"vehicle_type_id":"4","last_reported":1719353221,"current_range_meters":8800,"station_id":"ce4bgv92rcd13ifvqcq0","pricing_plan_id":"cebpf4jnsgd1na2vs0mg"},{"bike_id":"f952c8e5-7137-49f8-bdb2-30ccd6e34d4a","system_id":"levelo_inurba_marseille","lat":43.307945,"lon":5.376487,"is_reserved":false,"is_disabled":false,"rental_uris":{"android":"levelo://app?vid=f952c8e5-7137-49f8-bdb2-30ccd6e34d4a","ios":"levelo://app?vid=f952c8e5-7137-49f8-bdb2-30ccd6e34d4a"},"vehicle_type_id":"4","last_reported":1719353221,"current_range_meters":31200,"station_id":"ce4bgv92rcd13ifvqcq0","pricing_plan_id":"cebpf4jnsgd1na2vs0mg"},{"bike_id":"57192d1b-3d6d-437e-9d85-dc4e7d45c595","system_id":"levelo_inurba_marseille","lat":43.307945,"lon":5.376487,"is_reserved":false,"is_disabled":false,"rental_uris":{"android":"levelo://app?vid=57192d1b-3d6d-437e-9d85-dc4e7d45c595","ios":"levelo://app?vid=57192d1b-3d6d-437e-9d85-dc4e7d45c595"},"vehicle_type_id":"4","last_reported":1719353221,"current_range_meters":26400,"station_id":"ce4bgv92rcd13ifvqcq0","pricing_plan_id":"cebpf4jnsgd1na2vs0mg"},{"bike_id":"08c1a4be-39f0-4950-881f-42eaf19b206c","system_id":"levelo_inurba_marseille","lat":43.307945,"lon":5.376487,"is_reserved":false,"is_disabled":false,"rental_uris":{"android":"levelo://app?vid=08c1a4be-39f0-4950-881f-42eaf19b206c","ios":"levelo://app?vid=08c1a4be-39f0-4950-881f-42eaf19b206c"},"vehicle_type_id":"4","last_reported":1719353221,"current_range_meters":28800,"station_id":"ce4bgv92rcd13ifvqcq0","pricing_plan_id":"cebpf4jnsgd1na2vs0mg"},{"bike_id":"1c88f450-3ac6-4954-995e-1bba5385cced","system_id":"levelo_inurba_marseille","lat":43.303046,"lon":5.368981,"is_reserved":false,"is_disabled":false,"rental_uris":{"android":"levelo://app?vid=1c88f450-3ac6-4954-995e-1bba5385cced","ios":"levelo://app?vid=1c88f450-3ac6-4954-995e-1bba5385cced"},"vehicle_type_id":"4","last_reported":1719353221,"current_range_meters":22400,"station_id":"ce4bgqh2rcd13ifvqc5g","pricing_plan_id":"cebpf4jnsgd1na2vs0mg"},{"bike_id":"6fbce7fd-6ef5-45c9-bba4-5229e1405d13","system_id":"levelo_inurba_marseille","lat":43.315289,"lon":5.380349,"is_reserved":false,"is_disabled":false,"rental_uris":{"android":"levelo://app?vid=6fbce7fd-6ef5-45c9-bba4-5229e1405d13","ios":"levelo://app?vid=6fbce7fd-6ef5-45c9-bba4-5229e1405d13"},"vehicle_type_id":"4","last_reported":1719353221,"current_range_meters":1200,"station_id":"ce4bhsp2rcd13ifvqi50","pricing_plan_id":"cebpf4jnsgd1na2vs0mg"},{"bike_id":"bc94d466-5b4c-45f2-9ea0-d720e53bca80","system_id":"levelo_inurba_marseille","lat":43.315289,"lon":5.380349,"is_reserved":false,"is_disabled":false,"rental_uris":{"android":"levelo://app?vid=bc94d466-5b4c-45f2-9ea0-d720e53bca80","ios":"levelo://app?vid=bc94d466-5b4c-45f2-9ea0-d720e53bca80"},"vehicle_type_id":"4","last_reported":1719353221,"current_range_meters":15200,"station_id":"ce4bhsp2rcd13ifvqi50","pricing_plan_id":"cebpf4jnsgd1na2vs0mg"},{"bike_id":"d27b8864-8ef3-4f82-b21a-d747e296925e","system_id":"levelo_inurba_marseille","lat":43.315289,"lon":5.380349,"is_reserved":false,"is_disabled":false,"rental_uris":{"android":"levelo://app?vid=d27b8864-8ef3-4f82-b21a-d747e296925e","ios":"levelo://app?vid=d27b8864-8ef3-4f82-b21a-d747e296925e"},"vehicle_type_id":"4","last_reported":1719353221,"current_range_meters":22400,"station_id":"ce4bhsp2rcd13ifvqi50","pricing_plan_id":"cebpf4jnsgd1na2vs0mg"},{"bike_id":"ce3cd3b1-bec0-4adc-8d0d-cb3727c7cb2e","system_id":"levelo_inurba_marseille","lat":43.315289,"lon":5.380349,"is_reserved":false,"is_disabled":false,"rental_uris":{"android":"levelo://app?vid=ce3cd3b1-bec0-4adc-8d0d-cb3727c7cb2e","ios":"levelo://app?vid=ce3cd3b1-bec0-4adc-8d0d-cb3727c7cb2e"},"vehicle_type_id":"4","last_reported":1719353221,"current_range_meters":28800,"station_id":"ce4bhsp2rcd13ifvqi50","pricing_plan_id":"cebpf4jnsgd1na2vs0mg"},{"bike_id":"6d9c172b-df60-46d4-9da6-5ad94fcae2d8","system_id":"levelo_inurba_marseille","lat":43.301939,"lon":5.366286,"is_reserved":false,"is_disabled":false,"rental_uris":{"android":"levelo://app?vid=6d9c172b-df60-46d4-9da6-5ad94fcae2d8","ios":"levelo://app?vid=6d9c172b-df60-46d4-9da6-5ad94fcae2d8"},"vehicle_type_id":"4","last_reported":1719353221,"current_range_meters":16000,"station_id":"ce4bgrh2rcd13ifvqc8g","pricing_plan_id":"cebpf4jnsgd1na2vs0mg"},{"bike_id":"346c3125-a50b-4a9e-b26f-50552591a6e3","system_id":"levelo_inurba_marseille","lat":43.308012,"lon":5.381511,"is_reserved":false,"is_disabled":false,"rental_uris":{"android":"levelo://app?vid=346c3125-a50b-4a9e-b26f-50552591a6e3","ios":"levelo://app?vid=346c3125-a50b-4a9e-b26f-50552591a6e3"},"vehicle_type_id":"4","last_reported":1719353221,"current_range_meters":13200,"station_id":"ce4bgt12rcd13ifvqce0","pricing_plan_id":"cebpf4jnsgd1na2vs0mg"},{"bike_id":"c5db7861-0b3d-471e-8f22-aaf857f06c34","system_id":"levelo_inurba_marseille","lat":43.308012,"lon":5.381511,"is_reserved":false,"is_disabled":false,"rental_uris":{"android":"levelo://app?vid=c5db7861-0b3d-471e-8f22-aaf857f06c34","ios":"levelo://app?vid=c5db7861-0b3d-471e-8f22-aaf857f06c34"},"vehicle_type_id":"4","last_reported":1719353221,"current_range_meters":31200,"station_id":"ce4bgt12rcd13ifvqce0","pricing_plan_id":"cebpf4jnsgd1na2vs0mg"},{"bike_id":"48d72f27-6d40-4b8a-a8f5-c14a6de5b129","system_id":"levelo_inurba_marseille","lat":43.308012,"lon":5.381511,"is_reserved":false,"is_disabled":false,"rental_uris":{"android":"levelo://app?vid=48d72f27-6d40-4b8a-a8f5-c14a6de5b129","ios":"levelo://app?vid=48d72f27-6d40-4b8a-a8f5-c14a6de5b129"},"vehicle_type_id":"4","last_reported":1719353221,"current_range_meters":5200,"station_id":"ce4bgt12rcd13ifvqce0","pricing_plan_id":"cebpf4jnsgd1na2vs0mg"},{"bike_id":"86399856-1b4e-4261-9a47-677b2d227651","system_id":"levelo_inurba_marseille","lat":43.308012,"lon":5.381511,"is_reserved":false,"is_disabled":false,"rental_uris":{"android":"levelo://app?vid=86399856-1b4e-4261-9a47-677b2d227651","ios":"levelo://app?vid=86399856-1b4e-4261-9a47-677b2d227651"},"vehicle_type_id":"4","last_reported":1719353221,"current_range_meters":1200,"station_id":"ce4bgt12rcd13ifvqce0","pricing_plan_id":"cebpf4jnsgd1na2vs0mg"},{"bike_id":"5ea9ec4e-482d-4dad-b130-ef9ec621306a","system_id":"levelo_inurba_marseille","lat":43.308012,"lon":5.381511,"is_reserved":false,"is_disabled":false,"rental_uris":{"android":"levelo://app?vid=5ea9ec4e-482d-4dad-b130-ef9ec621306a","ios":"levelo://app?vid=5ea9ec4e-482d-4dad-b130-ef9ec621306a"},"vehicle_type_id":"4","last_reported":1719353221,"current_range_meters":14400,"station_id":"ce4bgt12rcd13ifvqce0","pricing_plan_id":"cebpf4jnsgd1na2vs0mg"},{"bike_id":"5a421e6b-686a-4f8a-8feb-a753186a610a","system_id":"levelo_inurba_marseille","lat":43.308012,"lon":5.381511,"is_reserved":false,"is_disabled":false,"rental_uris":{"android":"levelo://app?vid=5a421e6b-686a-4f8a-8feb-a753186a610a","ios":"levelo://app?vid=5a421e6b-686a-4f8a-8feb-a753186a610a"},"vehicle_type_id":"4","last_reported":1719353221,"current_range_meters":23600,"station_id":"ce4bgt12rcd13ifvqce0","pricing_plan_id":"cebpf4jnsgd1na2vs0mg"},{"bike_id":"f0e4c1cf-eb9b-48ea-b852-dd2882aa4aaa","system_id":"levelo_inurba_marseille","lat":43.308012,"lon":5.381511,"is_reserved":false,"is_disabled":false,"rental_uris":{"android":"levelo://app?vid=f0e4c1cf-eb9b-48ea-b852-dd2882aa4aaa","ios":"levelo://app?vid=f0e4c1cf-eb9b-48ea-b852-dd2882aa4aaa"},"vehicle_type_id":"4","last_reported":1719353221,"current_range_meters":22000,"station_id":"ce4bgt12rcd13ifvqce0","pricing_plan_id":"cebpf4jnsgd1na2vs0mg"},{"bike_id":"dfbded9c-3e2f-49f1-9b21-62726ce03621","system_id":"levelo_inurba_marseille","lat":43.3046,"lon":5.37902,"is_reserved":false,"is_disabled":false,"rental_uris":{"android":"levelo://app?vid=dfbded9c-3e2f-49f1-9b21-62726ce03621","ios":"levelo://app?vid=dfbded9c-3e2f-49f1-9b21-62726ce03621"},"vehicle_type_id":"4","last_reported":1719353221,"current_range_meters":14000,"station_id":"ce4bgup2rcd13ifvqcn0","pricing_plan_id":"cebpf4jnsgd1na2vs0mg"},{"bike_id":"42593557-1865-4a3f-85cf-6713e6e83fb7","system_id":"levelo_inurba_marseille","lat":43.304606,"lon":5.379026,"is_reserved":false,"is_disabled":false,"rental_uris":{"android":"levelo://app?vid=42593557-1865-4a3f-85cf-6713e6e83fb7","ios":"levelo://app?vid=42593557-1865-4a3f-85cf-6713e6e83fb7"},"vehicle_type_id":"4","last_reported":1719353221,"current_range_meters":16400,"station_id":"ce4bgup2rcd13ifvqcn0","pricing_plan_id":"cebpf4jnsgd1na2vs0mg"},{"bike_id":"ec1ea004-760c-4a1b-8f62-1529a2a443e8","system_id":"levelo_inurba_marseille","lat":43.304606,"lon":5.379026,"is_reserved":false,"is_disabled":false,"rental_uris":{"android":"levelo://app?vid=ec1ea004-760c-4a1b-8f62-1529a2a443e8","ios":"levelo://app?vid=ec1ea004-760c-4a1b-8f62-1529a2a443e8"},"vehicle_type_id":"4","last_reported":1719353221,"current_range_meters":17600,"station_id":"ce4bgup2rcd13ifvqcn0","pricing_plan_id":"cebpf4jnsgd1na2vs0mg"},{"bike_id":"925da3cc-772a-41b6-968c-79dc08b4ca44","system_id":"levelo_inurba_marseille","lat":43.304606,"lon":5.379026,"is_reserved":false,"is_disabled":false,"rental_uris":{"android":"levelo://app?vid=925da3cc-772a-41b6-968c-79dc08b4ca44","ios":"levelo://app?vid=925da3cc-772a-41b6-968c-79dc08b4ca44"},"vehicle_type_id":"4","last_reported":1719353221,"current_range_meters":9200,"station_id":"ce4bgup2rcd13ifvqcn0","pricing_plan_id":"cebpf4jnsgd1na2vs0mg"},{"bike_id":"fb0c080f-f92e-40dc-af72-80a71cd2151f","system_id":"levelo_inurba_marseille","lat":43.30456,"lon":5.37905,"is_reserved":false,"is_disabled":false,"rental_uris":{"android":"levelo://app?vid=fb0c080f-f92e-40dc-af72-80a71cd2151f","ios":"levelo://app?vid=fb0c080f-f92e-40dc-af72-80a71cd2151f"},"vehicle_type_id":"4","last_reported":1719353221,"current_range_meters":20000,"station_id":"ce4bgup2rcd13ifvqcn0","pricing_plan_id":"cebpf4jnsgd1na2vs0mg"},{"bike_id":"a36bdd31-22a2-47a2-9f40-d919f9cd9e13","system_id":"levelo_inurba_marseille","lat":43.304606,"lon":5.379026,"is_reserved":false,"is_disabled":false,"rental_uris":{"android":"levelo://app?vid=a36bdd31-22a2-47a2-9f40-d919f9cd9e13","ios":"levelo://app?vid=a36bdd31-22a2-47a2-9f40-d919f9cd9e13"},"vehicle_type_id":"4","last_reported":1719353221,"current_range_meters":14000,"station_id":"ce4bgup2rcd13ifvqcn0","pricing_plan_id":"cebpf4jnsgd1na2vs0mg"},{"bike_id":"864bb52d-89d1-41e0-9aeb-116204898887","system_id":"levelo_inurba_marseille","lat":43.324771,"lon":5.36557,"is_reserved":false,"is_disabled":false,"rental_uris":{"android":"levelo://app?vid=864bb52d-89d1-41e0-9aeb-116204898887","ios":"levelo://app?vid=864bb52d-89d1-41e0-9aeb-116204898887"},"vehicle_type_id":"4","last_reported":1719353221,"current_range_meters":30400,"station_id":"ce4bhs12rcd13ifvqhvg","pricing_plan_id":"cebpf4jnsgd1na2vs0mg"},{"bike_id":"cb133328-4c21-452e-aaf0-ae24f5cfdc8e","system_id":"levelo_inurba_marseille","lat":43.324771,"lon":5.36557,"is_reserved":false,"is_disabled":false,"rental_uris":{"android":"levelo://app?vid=cb133328-4c21-452e-aaf0-ae24f5cfdc8e","ios":"levelo://app?vid=cb133328-4c21-452e-aaf0-ae24f5cfdc8e"},"vehicle_type_id":"4","last_reported":1719353221,"current_range_meters":23200,"station_id":"ce4bhs12rcd13ifvqhvg","pricing_plan_id":"cebpf4jnsgd1na2vs0mg"},{"bike_id":"b5775679-4ca6-4cce-8295-031cf4e3a3d5","system_id":"levelo_inurba_marseille","lat":43.324771,"lon":5.36557,"is_reserved":false,"is_disabled":false,"rental_uris":{"android":"levelo://app?vid=b5775679-4ca6-4cce-8295-031cf4e3a3d5","ios":"levelo://app?vid=b5775679-4ca6-4cce-8295-031cf4e3a3d5"},"vehicle_type_id":"4","last_reported":1719353221,"current_range_meters":24000,"station_id":"ce4bhs12rcd13ifvqhvg","pricing_plan_id":"cebpf4jnsgd1na2vs0mg"},{"bike_id":"c8170bb6-a2e2-4e02-b09e-8929f05ef0b6","system_id":"levelo_inurba_marseille","lat":43.324771,"lon":5.36557,"is_reserved":false,"is_disabled":false,"rental_uris":{"android":"levelo://app?vid=c8170bb6-a2e2-4e02-b09e-8929f05ef0b6","ios":"levelo://app?vid=c8170bb6-a2e2-4e02-b09e-8929f05ef0b6"},"vehicle_type_id":"4","last_reported":1719353221,"current_range_meters":5600,"station_id":"ce4bhs12rcd13ifvqhvg","pricing_plan_id":"cebpf4jnsgd1na2vs0mg"},{"bike_id":"83a54e10-4605-450d-ab4c-6865e7de2824","system_id":"levelo_inurba_marseille","lat":43.310804,"lon":5.38359,"is_reserved":false,"is_disabled":false,"rental_uris":{"android":"levelo://app?vid=83a54e10-4605-450d-ab4c-6865e7de2824","ios":"levelo://app?vid=83a54e10-4605-450d-ab4c-6865e7de2824"},"vehicle_type_id":"4","last_reported":1719353221,"current_range_meters":26800,"station_id":"ce4bgv92rcd13ifvqcr0","pricing_plan_id":"cebpf4jnsgd1na2vs0mg"},{"bike_id":"6d67e90c-705e-4762-9200-680a9336fd32","system_id":"levelo_inurba_marseille","lat":43.310804,"lon":5.38359,"is_reserved":false,"is_disabled":false,"rental_uris":{"android":"levelo://app?vid=6d67e90c-705e-4762-9200-680a9336fd32","ios":"levelo://app?vid=6d67e90c-705e-4762-9200-680a9336fd32"},"vehicle_type_id":"4","last_reported":1719353221,"current_range_meters":19600,"station_id":"ce4bgv92rcd13ifvqcr0","pricing_plan_id":"cebpf4jnsgd1na2vs0mg"},{"bike_id":"818bb7b4-2b18-49cd-85fc-64bcd4423ee0","system_id":"levelo_inurba_marseille","lat":43.302784,"lon":5.377158,"is_reserved":false,"is_disabled":false,"rental_uris":{"android":"levelo://app?vid=818bb7b4-2b18-49cd-85fc-64bcd4423ee0","ios":"levelo://app?vid=818bb7b4-2b18-49cd-85fc-64bcd4423ee0"},"vehicle_type_id":"4","last_reported":1719353221,"current_range_meters":20400,"station_id":"ce4bguh2rcd13ifvqcj0","pricing_plan_id":"cebpf4jnsgd1na2vs0mg"},{"bike_id":"711c652f-2a14-4d93-8f18-66e9b0ae56d9","system_id":"levelo_inurba_marseille","lat":43.302784,"lon":5.377158,"is_reserved":false,"is_disabled":false,"rental_uris":{"android":"levelo://app?vid=711c652f-2a14-4d93-8f18-66e9b0ae56d9","ios":"levelo://app?vid=711c652f-2a14-4d93-8f18-66e9b0ae56d9"},"vehicle_type_id":"4","last_reported":1719353221,"current_range_meters":26000,"station_id":"ce4bguh2rcd13ifvqcj0","pricing_plan_id":"cebpf4jnsgd1na2vs0mg"},{"bike_id":"79840218-d084-4dec-b882-e638c4f8853e","system_id":"levelo_inurba_marseille","lat":43.302784,"lon":5.377158,"is_reserved":false,"is_disabled":false,"rental_uris":{"android":"levelo://app?vid=79840218-d084-4dec-b882-e638c4f8853e","ios":"levelo://app?vid=79840218-d084-4dec-b882-e638c4f8853e"},"vehicle_type_id":"4","last_reported":1719353221,"current_range_meters":10000,"station_id":"ce4bguh2rcd13ifvqcj0","pricing_plan_id":"cebpf4jnsgd1na2vs0mg"},{"bike_id":"84e330f3-9ea5-43bd-a76f-509884ced070","system_id":"levelo_inurba_marseille","lat":43.301429,"lon":5.37413,"is_reserved":false,"is_disabled":false,"rental_uris":{"android":"levelo://app?vid=84e330f3-9ea5-43bd-a76f-509884ced070","ios":"levelo://app?vid=84e330f3-9ea5-43bd-a76f-509884ced070"},"vehicle_type_id":"4","last_reported":1719353221,"current_range_meters":19200,"station_id":"ce4bgs92rcd13ifvqcc0","pricing_plan_id":"cebpf4jnsgd1na2vs0mg"},{"bike_id":"811bffbb-7afd-4664-bdb7-4b2f98168533","system_id":"levelo_inurba_marseille","lat":43.302784,"lon":5.377158,"is_reserved":false,"is_disabled":false,"rental_uris":{"android":"levelo://app?vid=811bffbb-7afd-4664-bdb7-4b2f98168533","ios":"levelo://app?vid=811bffbb-7afd-4664-bdb7-4b2f98168533"},"vehicle_type_id":"4","last_reported":1719353221,"current_range_meters":20000,"station_id":"ce4bguh2rcd13ifvqcj0","pricing_plan_id":"cebpf4jnsgd1na2vs0mg"},{"bike_id":"a81dbfbe-c5be-4126-88e4-3ed3684f4506","system_id":"levelo_inurba_marseille","lat":43.302784,"lon":5.377158,"is_reserved":false,"is_disabled":false,"rental_uris":{"android":"levelo://app?vid=a81dbfbe-c5be-4126-88e4-3ed3684f4506","ios":"levelo://app?vid=a81dbfbe-c5be-4126-88e4-3ed3684f4506"},"vehicle_type_id":"4","last_reported":1719353221,"current_range_meters":28400,"station_id":"ce4bguh2rcd13ifvqcj0","pricing_plan_id":"cebpf4jnsgd1na2vs0mg"},{"bike_id":"15103e7d-e3ab-4284-a845-b6dbed5b1184","system_id":"levelo_inurba_marseille","lat":43.301429,"lon":5.37413,"is_reserved":false,"is_disabled":false,"rental_uris":{"android":"levelo://app?vid=15103e7d-e3ab-4284-a845-b6dbed5b1184","ios":"levelo://app?vid=15103e7d-e3ab-4284-a845-b6dbed5b1184"},"vehicle_type_id":"4","last_reported":1719353221,"current_range_meters":0,"station_id":"ce4bgs92rcd13ifvqcc0","pricing_plan_id":"cebpf4jnsgd1na2vs0mg"},{"bike_id":"bebc17bf-ab67-4e6f-a0e1-21a1c2ba5cea","system_id":"levelo_inurba_marseille","lat":43.319935,"lon":5.381699,"is_reserved":false,"is_disabled":false,"rental_uris":{"android":"levelo://app?vid=bebc17bf-ab67-4e6f-a0e1-21a1c2ba5cea","ios":"levelo://app?vid=bebc17bf-ab67-4e6f-a0e1-21a1c2ba5cea"},"vehicle_type_id":"4","last_reported":1719353221,"current_range_meters":0,"station_id":"ce4bhr12rcd13ifvqhpg","pricing_plan_id":"cebpf4jnsgd1na2vs0mg"},{"bike_id":"c0718d50-787a-4a0c-968f-c04026c1b812","system_id":"levelo_inurba_marseille","lat":43.313571,"lon":5.384829,"is_reserved":false,"is_disabled":false,"rental_uris":{"android":"levelo://app?vid=c0718d50-787a-4a0c-968f-c04026c1b812","ios":"levelo://app?vid=c0718d50-787a-4a0c-968f-c04026c1b812"},"vehicle_type_id":"4","last_reported":1719353221,"current_range_meters":14000,"station_id":"ce4bgt92rcd13ifvqcf0","pricing_plan_id":"cebpf4jnsgd1na2vs0mg"},{"bike_id":"921499fc-8765-46d1-8abf-3f60cb835e8a","system_id":"levelo_inurba_marseille","lat":43.313571,"lon":5.384829,"is_reserved":false,"is_disabled":false,"rental_uris":{"android":"levelo://app?vid=921499fc-8765-46d1-8abf-3f60cb835e8a","ios":"levelo://app?vid=921499fc-8765-46d1-8abf-3f60cb835e8a"},"vehicle_type_id":"4","last_reported":1719353221,"current_range_meters":9200,"station_id":"ce4bgt92rcd13ifvqcf0","pricing_plan_id":"cebpf4jnsgd1na2vs0mg"},{"bike_id":"c7bdf379-00aa-4336-959c-5642af13e581","system_id":"levelo_inurba_marseille","lat":43.313571,"lon":5.384829,"is_reserved":false,"is_disabled":false,"rental_uris":{"android":"levelo://app?vid=c7bdf379-00aa-4336-959c-5642af13e581","ios":"levelo://app?vid=c7bdf379-00aa-4336-959c-5642af13e581"},"vehicle_type_id":"4","last_reported":1719353221,"current_range_meters":16800,"station_id":"ce4bgt92rcd13ifvqcf0","pricing_plan_id":"cebpf4jnsgd1na2vs0mg"},{"bike_id":"4e1058df-b64a-469f-90c6-72235ffa546c","system_id":"levelo_inurba_marseille","lat":43.31364,"lon":5.3849,"is_reserved":false,"is_disabled":false,"rental_uris":{"android":"levelo://app?vid=4e1058df-b64a-469f-90c6-72235ffa546c","ios":"levelo://app?vid=4e1058df-b64a-469f-90c6-72235ffa546c"},"vehicle_type_id":"4","last_reported":1719353221,"current_range_meters":16400,"station_id":"ce4bgt92rcd13ifvqcf0","pricing_plan_id":"cebpf4jnsgd1na2vs0mg"},{"bike_id":"78b58d52-a2e8-44e1-8a15-730e4f0c7fbf","system_id":"levelo_inurba_marseille","lat":43.313571,"lon":5.384829,"is_reserved":false,"is_disabled":false,"rental_uris":{"android":"levelo://app?vid=78b58d52-a2e8-44e1-8a15-730e4f0c7fbf","ios":"levelo://app?vid=78b58d52-a2e8-44e1-8a15-730e4f0c7fbf"},"vehicle_type_id":"4","last_reported":1719353221,"current_range_meters":29200,"station_id":"ce4bgt92rcd13ifvqcf0","pricing_plan_id":"cebpf4jnsgd1na2vs0mg"},{"bike_id":"8a377d8c-8a00-4a19-85de-d15178ac94b5","system_id":"levelo_inurba_marseille","lat":43.31358,"lon":5.38494,"is_reserved":false,"is_disabled":false,"rental_uris":{"android":"levelo://app?vid=8a377d8c-8a00-4a19-85de-d15178ac94b5","ios":"levelo://app?vid=8a377d8c-8a00-4a19-85de-d15178ac94b5"},"vehicle_type_id":"4","last_reported":1719353221,"current_range_meters":1600,"station_id":"ce4bgt92rcd13ifvqcf0","pricing_plan_id":"cebpf4jnsgd1na2vs0mg"},{"bike_id":"0ac34d10-96e1-4ac0-9782-10b118adb7b7","system_id":"levelo_inurba_marseille","lat":43.29837,"lon":5.36742,"is_reserved":false,"is_disabled":false,"rental_uris":{"android":"levelo://app?vid=0ac34d10-96e1-4ac0-9782-10b118adb7b7","ios":"levelo://app?vid=0ac34d10-96e1-4ac0-9782-10b118adb7b7"},"vehicle_type_id":"4","last_reported":1719353221,"current_range_meters":5600,"station_id":"","pricing_plan_id":"cebpf4jnsgd1na2vs0mg"},{"bike_id":"45ff7744-0708-4cfb-ace1-eb0a28942d4f","system_id":"levelo_inurba_marseille","lat":43.2984,"lon":5.36864,"is_reserved":false,"is_disabled":false,"rental_uris":{"android":"levelo://app?vid=45ff7744-0708-4cfb-ace1-eb0a28942d4f","ios":"levelo://app?vid=45ff7744-0708-4cfb-ace1-eb0a28942d4f"},"vehicle_type_id":"4","last_reported":1719353221,"current_range_meters":3200,"station_id":"","pricing_plan_id":"cebpf4jnsgd1na2vs0mg"},{"bike_id":"19d2c7fc-49c1-4346-a09e-630e75f693cf","system_id":"levelo_inurba_marseille","lat":43.305358,"lon":5.384174,"is_reserved":false,"is_disabled":false,"rental_uris":{"android":"levelo://app?vid=19d2c7fc-49c1-4346-a09e-630e75f693cf","ios":"levelo://app?vid=19d2c7fc-49c1-4346-a09e-630e75f693cf"},"vehicle_type_id":"4","last_reported":1719353221,"current_range_meters":15200,"station_id":"ce4bgg92rcd13ifvqb30","pricing_plan_id":"cebpf4jnsgd1na2vs0mg"},{"bike_id":"b30c222d-f52e-42cb-ac95-851f65656057","system_id":"levelo_inurba_marseille","lat":43.311722,"lon":5.387247,"is_reserved":false,"is_disabled":false,"rental_uris":{"android":"levelo://app?vid=b30c222d-f52e-42cb-ac95-851f65656057","ios":"levelo://app?vid=b30c222d-f52e-42cb-ac95-851f65656057"},"vehicle_type_id":"4","last_reported":1719353221,"current_range_meters":6800,"station_id":"ce4bgv12rcd13ifvqcp0","pricing_plan_id":"cebpf4jnsgd1na2vs0mg"},{"bike_id":"c832b964-5d0b-46f5-8e11-735d97946ebc","system_id":"levelo_inurba_marseille","lat":43.311845,"lon":5.387163,"is_reserved":false,"is_disabled":false,"rental_uris":{"android":"levelo://app?vid=c832b964-5d0b-46f5-8e11-735d97946ebc","ios":"levelo://app?vid=c832b964-5d0b-46f5-8e11-735d97946ebc"},"vehicle_type_id":"4","last_reported":1719353221,"current_range_meters":800,"station_id":"ce4bgv12rcd13ifvqcp0","pricing_plan_id":"cebpf4jnsgd1na2vs0mg"},{"bike_id":"e5678700-14df-49aa-9f55-81d89b70a5ed","system_id":"levelo_inurba_marseille","lat":43.31178,"lon":5.38719,"is_reserved":false,"is_disabled":false,"rental_uris":{"android":"levelo://app?vid=e5678700-14df-49aa-9f55-81d89b70a5ed","ios":"levelo://app?vid=e5678700-14df-49aa-9f55-81d89b70a5ed"},"vehicle_type_id":"4","last_reported":1719353221,"current_range_meters":29200,"station_id":"ce4bgv12rcd13ifvqcp0","pricing_plan_id":"cebpf4jnsgd1na2vs0mg"},{"bike_id":"374531e1-ef9e-45c2-9c91-37a3bcdc10a0","system_id":"levelo_inurba_marseille","lat":43.311722,"lon":5.387247,"is_reserved":false,"is_disabled":false,"rental_uris":{"android":"levelo://app?vid=374531e1-ef9e-45c2-9c91-37a3bcdc10a0","ios":"levelo://app?vid=374531e1-ef9e-45c2-9c91-37a3bcdc10a0"},"vehicle_type_id":"4","last_reported":1719353221,"current_range_meters":6400,"station_id":"ce4bgv12rcd13ifvqcp0","pricing_plan_id":"cebpf4jnsgd1na2vs0mg"},{"bike_id":"c0573043-707a-4e08-b082-006b375c07c9","system_id":"levelo_inurba_marseille","lat":43.297794,"lon":5.370888,"is_reserved":false,"is_disabled":false,"rental_uris":{"android":"levelo://app?vid=c0573043-707a-4e08-b082-006b375c07c9","ios":"levelo://app?vid=c0573043-707a-4e08-b082-006b375c07c9"},"vehicle_type_id":"4","last_reported":1719353221,"current_range_meters":8400,"station_id":"ce4bgop2rcd13ifvqc1g","pricing_plan_id":"cebpf4jnsgd1na2vs0mg"},{"bike_id":"ef4e475d-5be1-4696-a4dc-64caaab9ca44","system_id":"levelo_inurba_marseille","lat":43.322872,"lon":5.382756,"is_reserved":false,"is_disabled":false,"rental_uris":{"android":"levelo://app?vid=ef4e475d-5be1-4696-a4dc-64caaab9ca44","ios":"levelo://app?vid=ef4e475d-5be1-4696-a4dc-64caaab9ca44"},"vehicle_type_id":"4","last_reported":1719353221,"current_range_meters":24800,"station_id":"ce4bhr12rcd13ifvqhqg","pricing_plan_id":"cebpf4jnsgd1na2vs0mg"},{"bike_id":"7b088697-f624-4b41-aa95-73f77c59c884","system_id":"levelo_inurba_marseille","lat":43.322872,"lon":5.382756,"is_reserved":false,"is_disabled":false,"rental_uris":{"android":"levelo://app?vid=7b088697-f624-4b41-aa95-73f77c59c884","ios":"levelo://app?vid=7b088697-f624-4b41-aa95-73f77c59c884"},"vehicle_type_id":"4","last_reported":1719353221,"current_range_meters":22000,"station_id":"ce4bhr12rcd13ifvqhqg","pricing_plan_id":"cebpf4jnsgd1na2vs0mg"},{"bike_id":"e406fe5a-7dcd-4a4c-b887-f5c382e14000","system_id":"levelo_inurba_marseille","lat":43.322872,"lon":5.382756,"is_reserved":false,"is_disabled":false,"rental_uris":{"android":"levelo://app?vid=e406fe5a-7dcd-4a4c-b887-f5c382e14000","ios":"levelo://app?vid=e406fe5a-7dcd-4a4c-b887-f5c382e14000"},"vehicle_type_id":"4","last_reported":1719353221,"current_range_meters":30800,"station_id":"ce4bhr12rcd13ifvqhqg","pricing_plan_id":"cebpf4jnsgd1na2vs0mg"},{"bike_id":"a575ace1-4140-4741-8e14-9a58e3639bd3","system_id":"levelo_inurba_marseille","lat":43.297163,"lon":5.365866,"is_reserved":false,"is_disabled":false,"rental_uris":{"android":"levelo://app?vid=a575ace1-4140-4741-8e14-9a58e3639bd3","ios":"levelo://app?vid=a575ace1-4140-4741-8e14-9a58e3639bd3"},"vehicle_type_id":"4","last_reported":1719353221,"current_range_meters":14400,"station_id":"ce4bgn12rcd13ifvqbt0","pricing_plan_id":"cebpf4jnsgd1na2vs0mg"},{"bike_id":"8a3dee68-befb-495c-8c53-779d24084da1","system_id":"levelo_inurba_marseille","lat":43.297073,"lon":5.365484,"is_reserved":false,"is_disabled":false,"rental_uris":{"android":"levelo://app?vid=8a3dee68-befb-495c-8c53-779d24084da1","ios":"levelo://app?vid=8a3dee68-befb-495c-8c53-779d24084da1"},"vehicle_type_id":"4","last_reported":1719353221,"current_range_meters":26000,"station_id":"ce4bgn12rcd13ifvqbt0","pricing_plan_id":"cebpf4jnsgd1na2vs0mg"},{"bike_id":"7b81041b-dafb-49ca-b0fb-4cad4ab8583d","system_id":"levelo_inurba_marseille","lat":43.31473,"lon":5.38866,"is_reserved":false,"is_disabled":false,"rental_uris":{"android":"levelo://app?vid=7b81041b-dafb-49ca-b0fb-4cad4ab8583d","ios":"levelo://app?vid=7b81041b-dafb-49ca-b0fb-4cad4ab8583d"},"vehicle_type_id":"4","last_reported":1719353221,"current_range_meters":14400,"station_id":"","pricing_plan_id":"cebpf4jnsgd1na2vs0mg"},{"bike_id":"714e8e91-c751-46fc-ba8f-8fa6a35bdfc4","system_id":"levelo_inurba_marseille","lat":43.296129,"lon":5.370777,"is_reserved":false,"is_disabled":false,"rental_uris":{"android":"levelo://app?vid=714e8e91-c751-46fc-ba8f-8fa6a35bdfc4","ios":"levelo://app?vid=714e8e91-c751-46fc-ba8f-8fa6a35bdfc4"},"vehicle_type_id":"4","last_reported":1719353221,"current_range_meters":14000,"station_id":"ce4bgnh2rcd13ifvqc0g","pricing_plan_id":"cebpf4jnsgd1na2vs0mg"},{"bike_id":"7a86c079-1331-4212-a376-9113e1273e02","system_id":"levelo_inurba_marseille","lat":43.296131,"lon":5.370791,"is_reserved":false,"is_disabled":false,"rental_uris":{"android":"levelo://app?vid=7a86c079-1331-4212-a376-9113e1273e02","ios":"levelo://app?vid=7a86c079-1331-4212-a376-9113e1273e02"},"vehicle_type_id":"4","last_reported":1719353221,"current_range_meters":12800,"station_id":"ce4bgnh2rcd13ifvqc0g","pricing_plan_id":"cebpf4jnsgd1na2vs0mg"},{"bike_id":"8b221552-c431-4af8-80f2-2ed6508b3dc5","system_id":"levelo_inurba_marseille","lat":43.296921,"lon":5.376579,"is_reserved":false,"is_disabled":false,"rental_uris":{"android":"levelo://app?vid=8b221552-c431-4af8-80f2-2ed6508b3dc5","ios":"levelo://app?vid=8b221552-c431-4af8-80f2-2ed6508b3dc5"},"vehicle_type_id":"4","last_reported":1719353221,"current_range_meters":26800,"station_id":"ce4bgkh2rcd13ifvqbl0","pricing_plan_id":"cebpf4jnsgd1na2vs0mg"},{"bike_id":"ab8909ad-c5b9-4fdc-b2d2-51990bc6f026","system_id":"levelo_inurba_marseille","lat":43.296921,"lon":5.376579,"is_reserved":false,"is_disabled":false,"rental_uris":{"android":"levelo://app?vid=ab8909ad-c5b9-4fdc-b2d2-51990bc6f026","ios":"levelo://app?vid=ab8909ad-c5b9-4fdc-b2d2-51990bc6f026"},"vehicle_type_id":"4","last_reported":1719353221,"current_range_meters":800,"station_id":"ce4bgkh2rcd13ifvqbl0","pricing_plan_id":"cebpf4jnsgd1na2vs0mg"},{"bike_id":"1a034fde-a5f8-4c92-ac64-fd77d19ce181","system_id":"levelo_inurba_marseille","lat":43.309503,"lon":5.390223,"is_reserved":false,"is_disabled":false,"rental_uris":{"android":"levelo://app?vid=1a034fde-a5f8-4c92-ac64-fd77d19ce181","ios":"levelo://app?vid=1a034fde-a5f8-4c92-ac64-fd77d19ce181"},"vehicle_type_id":"4","last_reported":1719353221,"current_range_meters":0,"station_id":"ce4bgup2rcd13ifvqco0","pricing_plan_id":"cebpf4jnsgd1na2vs0mg"},{"bike_id":"94a727f8-e7a3-45d6-a3a5-db6219ad5036","system_id":"levelo_inurba_marseille","lat":43.309557,"lon":5.39035,"is_reserved":false,"is_disabled":false,"rental_uris":{"android":"levelo://app?vid=94a727f8-e7a3-45d6-a3a5-db6219ad5036","ios":"levelo://app?vid=94a727f8-e7a3-45d6-a3a5-db6219ad5036"},"vehicle_type_id":"4","last_reported":1719353221,"current_range_meters":0,"station_id":"ce4bgup2rcd13ifvqco0","pricing_plan_id":"cebpf4jnsgd1na2vs0mg"},{"bike_id":"c0e9ee6a-9465-4ac6-8e3a-7b448bd2bed5","system_id":"levelo_inurba_marseille","lat":43.29694,"lon":5.37706,"is_reserved":false,"is_disabled":false,"rental_uris":{"android":"levelo://app?vid=c0e9ee6a-9465-4ac6-8e3a-7b448bd2bed5","ios":"levelo://app?vid=c0e9ee6a-9465-4ac6-8e3a-7b448bd2bed5"},"vehicle_type_id":"4","last_reported":1719353221,"current_range_meters":0,"station_id":"ce4bgkh2rcd13ifvqbl0","pricing_plan_id":"cebpf4jnsgd1na2vs0mg"},{"bike_id":"b5510391-b001-4fb8-a167-c11385187fe6","system_id":"levelo_inurba_marseille","lat":43.317557,"lon":5.390173,"is_reserved":false,"is_disabled":false,"rental_uris":{"android":"levelo://app?vid=b5510391-b001-4fb8-a167-c11385187fe6","ios":"levelo://app?vid=b5510391-b001-4fb8-a167-c11385187fe6"},"vehicle_type_id":"4","last_reported":1719353221,"current_range_meters":8400,"station_id":"ce4bhqp2rcd13ifvqhng","pricing_plan_id":"cebpf4jnsgd1na2vs0mg"},{"bike_id":"168376db-915e-4adb-997e-4056391e328c","system_id":"levelo_inurba_marseille","lat":43.317557,"lon":5.390173,"is_reserved":false,"is_disabled":false,"rental_uris":{"android":"levelo://app?vid=168376db-915e-4adb-997e-4056391e328c","ios":"levelo://app?vid=168376db-915e-4adb-997e-4056391e328c"},"vehicle_type_id":"4","last_reported":1719353221,"current_range_meters":31600,"station_id":"ce4bhqp2rcd13ifvqhng","pricing_plan_id":"cebpf4jnsgd1na2vs0mg"},{"bike_id":"2683d493-9f56-4d56-8fc0-8d8c1c5b7088","system_id":"levelo_inurba_marseille","lat":43.317557,"lon":5.390173,"is_reserved":false,"is_disabled":false,"rental_uris":{"android":"levelo://app?vid=2683d493-9f56-4d56-8fc0-8d8c1c5b7088","ios":"levelo://app?vid=2683d493-9f56-4d56-8fc0-8d8c1c5b7088"},"vehicle_type_id":"4","last_reported":1719353221,"current_range_meters":22400,"station_id":"ce4bhqp2rcd13ifvqhng","pricing_plan_id":"cebpf4jnsgd1na2vs0mg"},{"bike_id":"ed0cdeeb-865a-456c-92a8-25bc5150bef9","system_id":"levelo_inurba_marseille","lat":43.299027,"lon":5.382437,"is_reserved":false,"is_disabled":false,"rental_uris":{"android":"levelo://app?vid=ed0cdeeb-865a-456c-92a8-25bc5150bef9","ios":"levelo://app?vid=ed0cdeeb-865a-456c-92a8-25bc5150bef9"},"vehicle_type_id":"4","last_reported":1719353221,"current_range_meters":29600,"station_id":"","pricing_plan_id":"cebpf4jnsgd1na2vs0mg"},{"bike_id":"266d1d06-a273-4ed2-8c96-ed4644379e4b","system_id":"levelo_inurba_marseille","lat":43.29906,"lon":5.38288,"is_reserved":false,"is_disabled":false,"rental_uris":{"android":"levelo://app?vid=266d1d06-a273-4ed2-8c96-ed4644379e4b","ios":"levelo://app?vid=266d1d06-a273-4ed2-8c96-ed4644379e4b"},"vehicle_type_id":"4","last_reported":1719353221,"current_range_meters":6400,"station_id":"","pricing_plan_id":"cebpf4jnsgd1na2vs0mg"},{"bike_id":"5249a036-596c-4b52-b46c-4fe782292535","system_id":"levelo_inurba_marseille","lat":43.296277,"lon":5.377108,"is_reserved":false,"is_disabled":false,"rental_uris":{"android":"levelo://app?vid=5249a036-596c-4b52-b46c-4fe782292535","ios":"levelo://app?vid=5249a036-596c-4b52-b46c-4fe782292535"},"vehicle_type_id":"4","last_reported":1719353221,"current_range_meters":2800,"station_id":"ce4bgi92rcd13ifvqb90","pricing_plan_id":"cebpf4jnsgd1na2vs0mg"},{"bike_id":"f06cc4b7-da93-4c46-b779-7b9b07f8c732","system_id":"levelo_inurba_marseille","lat":43.295748,"lon":5.37522,"is_reserved":false,"is_disabled":false,"rental_uris":{"android":"levelo://app?vid=f06cc4b7-da93-4c46-b779-7b9b07f8c732","ios":"levelo://app?vid=f06cc4b7-da93-4c46-b779-7b9b07f8c732"},"vehicle_type_id":"4","last_reported":1719353221,"current_range_meters":29600,"station_id":"ce4bgh92rcd13ifvqb50","pricing_plan_id":"cebpf4jnsgd1na2vs0mg"},{"bike_id":"245659fb-ab4a-4007-98b4-6fd5a6e7751c","system_id":"levelo_inurba_marseille","lat":43.29612,"lon":5.37675,"is_reserved":false,"is_disabled":false,"rental_uris":{"android":"levelo://app?vid=245659fb-ab4a-4007-98b4-6fd5a6e7751c","ios":"levelo://app?vid=245659fb-ab4a-4007-98b4-6fd5a6e7751c"},"vehicle_type_id":"4","last_reported":1719353221,"current_range_meters":28000,"station_id":"","pricing_plan_id":"cebpf4jnsgd1na2vs0mg"},{"bike_id":"c2f4ff27-011c-47a0-9833-8c944722be2d","system_id":"levelo_inurba_marseille","lat":43.296263,"lon":5.377094,"is_reserved":false,"is_disabled":false,"rental_uris":{"android":"levelo://app?vid=c2f4ff27-011c-47a0-9833-8c944722be2d","ios":"levelo://app?vid=c2f4ff27-011c-47a0-9833-8c944722be2d"},"vehicle_type_id":"4","last_reported":1719353221,"current_range_meters":0,"station_id":"ce4bgi92rcd13ifvqb90","pricing_plan_id":"cebpf4jnsgd1na2vs0mg"},{"bike_id":"19423dc8-cc3e-4f80-8a40-0df5e099329c","system_id":"levelo_inurba_marseille","lat":43.296277,"lon":5.377108,"is_reserved":false,"is_disabled":false,"rental_uris":{"android":"levelo://app?vid=19423dc8-cc3e-4f80-8a40-0df5e099329c","ios":"levelo://app?vid=19423dc8-cc3e-4f80-8a40-0df5e099329c"},"vehicle_type_id":"4","last_reported":1719353221,"current_range_meters":26400,"station_id":"ce4bgi92rcd13ifvqb90","pricing_plan_id":"cebpf4jnsgd1na2vs0mg"},{"bike_id":"fed458ba-6967-41cb-ba50-3ad21e9cc54c","system_id":"levelo_inurba_marseille","lat":43.296277,"lon":5.377108,"is_reserved":false,"is_disabled":false,"rental_uris":{"android":"levelo://app?vid=fed458ba-6967-41cb-ba50-3ad21e9cc54c","ios":"levelo://app?vid=fed458ba-6967-41cb-ba50-3ad21e9cc54c"},"vehicle_type_id":"4","last_reported":1719353221,"current_range_meters":2800,"station_id":"ce4bgi92rcd13ifvqb90","pricing_plan_id":"cebpf4jnsgd1na2vs0mg"},{"bike_id":"70a3339b-187e-4809-a23b-f971fd0da588","system_id":"levelo_inurba_marseille","lat":43.298023,"lon":5.382244,"is_reserved":false,"is_disabled":false,"rental_uris":{"android":"levelo://app?vid=70a3339b-187e-4809-a23b-f971fd0da588","ios":"levelo://app?vid=70a3339b-187e-4809-a23b-f971fd0da588"},"vehicle_type_id":"4","last_reported":1719353221,"current_range_meters":24400,"station_id":"ce4bgkh2rcd13ifvqbl0","pricing_plan_id":"cebpf4jnsgd1na2vs0mg"},{"bike_id":"62ad006d-09bb-4561-bfdd-5f68cfea8156","system_id":"levelo_inurba_marseille","lat":43.302784,"lon":5.377158,"is_reserved":false,"is_disabled":false,"rental_uris":{"android":"levelo://app?vid=62ad006d-09bb-4561-bfdd-5f68cfea8156","ios":"levelo://app?vid=62ad006d-09bb-4561-bfdd-5f68cfea8156"},"vehicle_type_id":"4","last_reported":1719353221,"current_range_meters":18000,"station_id":"ce4bguh2rcd13ifvqcj0","pricing_plan_id":"cebpf4jnsgd1na2vs0mg"},{"bike_id":"78ba79f5-4ba6-4e83-8ef0-0df84a04a66d","system_id":"levelo_inurba_marseille","lat":43.32363,"lon":5.38887,"is_reserved":false,"is_disabled":false,"rental_uris":{"android":"levelo://app?vid=78ba79f5-4ba6-4e83-8ef0-0df84a04a66d","ios":"levelo://app?vid=78ba79f5-4ba6-4e83-8ef0-0df84a04a66d"},"vehicle_type_id":"4","last_reported":1719353221,"current_range_meters":8800,"station_id":"ce4bhqp2rcd13ifvqhog","pricing_plan_id":"cebpf4jnsgd1na2vs0mg"},{"bike_id":"7ccd506a-3f6f-46eb-814f-1b107b5cabdf","system_id":"levelo_inurba_marseille","lat":43.32367,"lon":5.388836,"is_reserved":false,"is_disabled":false,"rental_uris":{"android":"levelo://app?vid=7ccd506a-3f6f-46eb-814f-1b107b5cabdf","ios":"levelo://app?vid=7ccd506a-3f6f-46eb-814f-1b107b5cabdf"},"vehicle_type_id":"4","last_reported":1719353221,"current_range_meters":14400,"station_id":"ce4bhqp2rcd13ifvqhog","pricing_plan_id":"cebpf4jnsgd1na2vs0mg"},{"bike_id":"656dd60e-2c65-4fc2-b18d-31ac687c03a6","system_id":"levelo_inurba_marseille","lat":43.32367,"lon":5.388836,"is_reserved":false,"is_disabled":false,"rental_uris":{"android":"levelo://app?vid=656dd60e-2c65-4fc2-b18d-31ac687c03a6","ios":"levelo://app?vid=656dd60e-2c65-4fc2-b18d-31ac687c03a6"},"vehicle_type_id":"4","last_reported":1719353221,"current_range_meters":0,"station_id":"ce4bhqp2rcd13ifvqhog","pricing_plan_id":"cebpf4jnsgd1na2vs0mg"},{"bike_id":"399e10ba-652f-42b3-8462-ca5b86319acc","system_id":"levelo_inurba_marseille","lat":43.32367,"lon":5.388836,"is_reserved":false,"is_disabled":false,"rental_uris":{"android":"levelo://app?vid=399e10ba-652f-42b3-8462-ca5b86319acc","ios":"levelo://app?vid=399e10ba-652f-42b3-8462-ca5b86319acc"},"vehicle_type_id":"4","last_reported":1719353221,"current_range_meters":4800,"station_id":"ce4bhqp2rcd13ifvqhog","pricing_plan_id":"cebpf4jnsgd1na2vs0mg"},{"bike_id":"1e058a78-b650-47e5-a3a3-e41f3d7d055f","system_id":"levelo_inurba_marseille","lat":43.32369,"lon":5.38889,"is_reserved":false,"is_disabled":false,"rental_uris":{"android":"levelo://app?vid=1e058a78-b650-47e5-a3a3-e41f3d7d055f","ios":"levelo://app?vid=1e058a78-b650-47e5-a3a3-e41f3d7d055f"},"vehicle_type_id":"4","last_reported":1719353221,"current_range_meters":20400,"station_id":"ce4bhqp2rcd13ifvqhog","pricing_plan_id":"cebpf4jnsgd1na2vs0mg"},{"bike_id":"85aca21b-61d4-4366-8ffb-350c78009b7a","system_id":"levelo_inurba_marseille","lat":43.2998,"lon":5.38716,"is_reserved":false,"is_disabled":false,"rental_uris":{"android":"levelo://app?vid=85aca21b-61d4-4366-8ffb-350c78009b7a","ios":"levelo://app?vid=85aca21b-61d4-4366-8ffb-350c78009b7a"},"vehicle_type_id":"4","last_reported":1719353221,"current_range_meters":16800,"station_id":"","pricing_plan_id":"cebpf4jnsgd1na2vs0mg"},{"bike_id":"5b855d88-802e-4b65-9737-46d8a3094cc6","system_id":"levelo_inurba_marseille","lat":43.293259,"lon":5.371586,"is_reserved":false,"is_disabled":false,"rental_uris":{"android":"levelo://app?vid=5b855d88-802e-4b65-9737-46d8a3094cc6","ios":"levelo://app?vid=5b855d88-802e-4b65-9737-46d8a3094cc6"},"vehicle_type_id":"4","last_reported":1719353221,"current_range_meters":10800,"station_id":"ce4bgh92rcd13ifvqb40","pricing_plan_id":"cebpf4jnsgd1na2vs0mg"},{"bike_id":"b47b7e14-7b8a-4d16-aee3-c8b29442874f","system_id":"levelo_inurba_marseille","lat":43.29305,"lon":5.3718,"is_reserved":false,"is_disabled":false,"rental_uris":{"android":"levelo://app?vid=b47b7e14-7b8a-4d16-aee3-c8b29442874f","ios":"levelo://app?vid=b47b7e14-7b8a-4d16-aee3-c8b29442874f"},"vehicle_type_id":"4","last_reported":1719353221,"current_range_meters":7200,"station_id":"ce4bgh92rcd13ifvqb40","pricing_plan_id":"cebpf4jnsgd1na2vs0mg"},{"bike_id":"e59eca47-4e5b-490a-8bee-3f926be6110b","system_id":"levelo_inurba_marseille","lat":43.29267,"lon":5.36844,"is_reserved":false,"is_disabled":false,"rental_uris":{"android":"levelo://app?vid=e59eca47-4e5b-490a-8bee-3f926be6110b","ios":"levelo://app?vid=e59eca47-4e5b-490a-8bee-3f926be6110b"},"vehicle_type_id":"4","last_reported":1719353221,"current_range_meters":28000,"station_id":"ce4bhbp2rcd13ifvqesg","pricing_plan_id":"cebpf4jnsgd1na2vs0mg"},{"bike_id":"59ff60a2-1a8e-4c76-8f34-72217f738a09","system_id":"levelo_inurba_marseille","lat":43.293009,"lon":5.374584,"is_reserved":false,"is_disabled":false,"rental_uris":{"android":"levelo://app?vid=59ff60a2-1a8e-4c76-8f34-72217f738a09","ios":"levelo://app?vid=59ff60a2-1a8e-4c76-8f34-72217f738a09"},"vehicle_type_id":"4","last_reported":1719353221,"current_range_meters":30400,"station_id":"ce4bgi12rcd13ifvqb70","pricing_plan_id":"cebpf4jnsgd1na2vs0mg"},{"bike_id":"58911086-648f-4a71-a74e-a68f584d02f6","system_id":"levelo_inurba_marseille","lat":43.293009,"lon":5.374584,"is_reserved":false,"is_disabled":false,"rental_uris":{"android":"levelo://app?vid=58911086-648f-4a71-a74e-a68f584d02f6","ios":"levelo://app?vid=58911086-648f-4a71-a74e-a68f584d02f6"},"vehicle_type_id":"4","last_reported":1719353221,"current_range_meters":30400,"station_id":"ce4bgi12rcd13ifvqb70","pricing_plan_id":"cebpf4jnsgd1na2vs0mg"},{"bike_id":"ac896fcf-36c0-493b-a93f-fb66acc6ed01","system_id":"levelo_inurba_marseille","lat":43.29296,"lon":5.3744,"is_reserved":false,"is_disabled":false,"rental_uris":{"android":"levelo://app?vid=ac896fcf-36c0-493b-a93f-fb66acc6ed01","ios":"levelo://app?vid=ac896fcf-36c0-493b-a93f-fb66acc6ed01"},"vehicle_type_id":"4","last_reported":1719353221,"current_range_meters":31200,"station_id":"ce4bgi12rcd13ifvqb70","pricing_plan_id":"cebpf4jnsgd1na2vs0mg"},{"bike_id":"7458753e-94cd-4a52-a576-b50f8efe248a","system_id":"levelo_inurba_marseille","lat":43.293009,"lon":5.374584,"is_reserved":false,"is_disabled":false,"rental_uris":{"android":"levelo://app?vid=7458753e-94cd-4a52-a576-b50f8efe248a","ios":"levelo://app?vid=7458753e-94cd-4a52-a576-b50f8efe248a"},"vehicle_type_id":"4","last_reported":1719353221,"current_range_meters":31200,"station_id":"ce4bgi12rcd13ifvqb70","pricing_plan_id":"cebpf4jnsgd1na2vs0mg"},{"bike_id":"4dfad5d6-8623-4b6c-9a9c-3dcfd8a99944","system_id":"levelo_inurba_marseille","lat":43.293009,"lon":5.374584,"is_reserved":false,"is_disabled":false,"rental_uris":{"android":"levelo://app?vid=4dfad5d6-8623-4b6c-9a9c-3dcfd8a99944","ios":"levelo://app?vid=4dfad5d6-8623-4b6c-9a9c-3dcfd8a99944"},"vehicle_type_id":"4","last_reported":1719353221,"current_range_meters":17600,"station_id":"ce4bgi12rcd13ifvqb70","pricing_plan_id":"cebpf4jnsgd1na2vs0mg"},{"bike_id":"8c1d7c73-8404-4655-9bf2-8c333ca2de91","system_id":"levelo_inurba_marseille","lat":43.30311,"lon":5.39228,"is_reserved":false,"is_disabled":false,"rental_uris":{"android":"levelo://app?vid=8c1d7c73-8404-4655-9bf2-8c333ca2de91","ios":"levelo://app?vid=8c1d7c73-8404-4655-9bf2-8c333ca2de91"},"vehicle_type_id":"4","last_reported":1719353221,"current_range_meters":26400,"station_id":"ce4bgkh2rcd13ifvqbk0","pricing_plan_id":"cebpf4jnsgd1na2vs0mg"},{"bike_id":"0f15b6d8-8380-45ab-9982-55d98d4c2504","system_id":"levelo_inurba_marseille","lat":43.29371,"lon":5.37861,"is_reserved":false,"is_disabled":false,"rental_uris":{"android":"levelo://app?vid=0f15b6d8-8380-45ab-9982-55d98d4c2504","ios":"levelo://app?vid=0f15b6d8-8380-45ab-9982-55d98d4c2504"},"vehicle_type_id":"4","last_reported":1719353221,"current_range_meters":31200,"station_id":"ce4bgjh2rcd13ifvqbf0","pricing_plan_id":"cebpf4jnsgd1na2vs0mg"},{"bike_id":"e1ee4f32-e085-4525-8b12-1a13dc14da2d","system_id":"levelo_inurba_marseille","lat":43.29824,"lon":5.38756,"is_reserved":false,"is_disabled":false,"rental_uris":{"android":"levelo://app?vid=e1ee4f32-e085-4525-8b12-1a13dc14da2d","ios":"levelo://app?vid=e1ee4f32-e085-4525-8b12-1a13dc14da2d"},"vehicle_type_id":"4","last_reported":1719353221,"current_range_meters":12400,"station_id":"","pricing_plan_id":"cebpf4jnsgd1na2vs0mg"},{"bike_id":"256bfec3-a292-47ca-9197-38db43e594de","system_id":"levelo_inurba_marseille","lat":43.300852,"lon":5.390859,"is_reserved":false,"is_disabled":false,"rental_uris":{"android":"levelo://app?vid=256bfec3-a292-47ca-9197-38db43e594de","ios":"levelo://app?vid=256bfec3-a292-47ca-9197-38db43e594de"},"vehicle_type_id":"4","last_reported":1719353221,"current_range_meters":20000,"station_id":"ce4bh192rcd13ifvqdb0","pricing_plan_id":"cebpf4jnsgd1na2vs0mg"},{"bike_id":"728f7307-6280-429d-ba76-0e746b1b0667","system_id":"levelo_inurba_marseille","lat":43.298764,"lon":5.388973,"is_reserved":false,"is_disabled":false,"rental_uris":{"android":"levelo://app?vid=728f7307-6280-429d-ba76-0e746b1b0667","ios":"levelo://app?vid=728f7307-6280-429d-ba76-0e746b1b0667"},"vehicle_type_id":"4","last_reported":1719353221,"current_range_meters":20000,"station_id":"ce4bh392rcd13ifvqdl0","pricing_plan_id":"cebpf4jnsgd1na2vs0mg"},{"bike_id":"f68fe7a4-872e-4eda-862f-f5de193f5c59","system_id":"levelo_inurba_marseille","lat":43.298764,"lon":5.388973,"is_reserved":false,"is_disabled":false,"rental_uris":{"android":"levelo://app?vid=f68fe7a4-872e-4eda-862f-f5de193f5c59","ios":"levelo://app?vid=f68fe7a4-872e-4eda-862f-f5de193f5c59"},"vehicle_type_id":"4","last_reported":1719353221,"current_range_meters":1200,"station_id":"ce4bh392rcd13ifvqdl0","pricing_plan_id":"cebpf4jnsgd1na2vs0mg"},{"bike_id":"a6f61bc9-4bf7-4ad8-8c48-110907dd4d80","system_id":"levelo_inurba_marseille","lat":43.29168,"lon":5.37158,"is_reserved":false,"is_disabled":false,"rental_uris":{"android":"levelo://app?vid=a6f61bc9-4bf7-4ad8-8c48-110907dd4d80","ios":"levelo://app?vid=a6f61bc9-4bf7-4ad8-8c48-110907dd4d80"},"vehicle_type_id":"4","last_reported":1719353221,"current_range_meters":27600,"station_id":"ce4bha92rcd13ifvqeh0","pricing_plan_id":"cebpf4jnsgd1na2vs0mg"},{"bike_id":"c8fe6185-d141-4084-b481-c81ef152b952","system_id":"levelo_inurba_marseille","lat":43.30883,"lon":5.39635,"is_reserved":false,"is_disabled":false,"rental_uris":{"android":"levelo://app?vid=c8fe6185-d141-4084-b481-c81ef152b952","ios":"levelo://app?vid=c8fe6185-d141-4084-b481-c81ef152b952"},"vehicle_type_id":"4","last_reported":1719353221,"current_range_meters":13600,"station_id":"ce4bh012rcd13ifvqcv0","pricing_plan_id":"cebpf4jnsgd1na2vs0mg"},{"bike_id":"713ae47f-4b62-4453-b4cb-2e0b98da4121","system_id":"levelo_inurba_marseille","lat":43.308854,"lon":5.396357,"is_reserved":false,"is_disabled":false,"rental_uris":{"android":"levelo://app?vid=713ae47f-4b62-4453-b4cb-2e0b98da4121","ios":"levelo://app?vid=713ae47f-4b62-4453-b4cb-2e0b98da4121"},"vehicle_type_id":"4","last_reported":1719353221,"current_range_meters":31200,"station_id":"ce4bh012rcd13ifvqcv0","pricing_plan_id":"cebpf4jnsgd1na2vs0mg"},{"bike_id":"121bc25c-c806-43c7-abf5-48d6d6865418","system_id":"levelo_inurba_marseille","lat":43.291994,"lon":5.357886,"is_reserved":false,"is_disabled":false,"rental_uris":{"android":"levelo://app?vid=121bc25c-c806-43c7-abf5-48d6d6865418","ios":"levelo://app?vid=121bc25c-c806-43c7-abf5-48d6d6865418"},"vehicle_type_id":"4","last_reported":1719353221,"current_range_meters":28000,"station_id":"ce4bhb12rcd13ifvqel0","pricing_plan_id":"cebpf4jnsgd1na2vs0mg"},{"bike_id":"1c95eed1-ebc9-43c9-ba56-19251faa1c4b","system_id":"levelo_inurba_marseille","lat":43.292005,"lon":5.357875,"is_reserved":false,"is_disabled":false,"rental_uris":{"android":"levelo://app?vid=1c95eed1-ebc9-43c9-ba56-19251faa1c4b","ios":"levelo://app?vid=1c95eed1-ebc9-43c9-ba56-19251faa1c4b"},"vehicle_type_id":"4","last_reported":1719353221,"current_range_meters":12400,"station_id":"ce4bhb12rcd13ifvqel0","pricing_plan_id":"cebpf4jnsgd1na2vs0mg"},{"bike_id":"6aa51620-7c80-499e-b374-e9f4d78da455","system_id":"levelo_inurba_marseille","lat":43.30888,"lon":5.3964,"is_reserved":false,"is_disabled":false,"rental_uris":{"android":"levelo://app?vid=6aa51620-7c80-499e-b374-e9f4d78da455","ios":"levelo://app?vid=6aa51620-7c80-499e-b374-e9f4d78da455"},"vehicle_type_id":"4","last_reported":1719353221,"current_range_meters":23200,"station_id":"ce4bh012rcd13ifvqcv0","pricing_plan_id":"cebpf4jnsgd1na2vs0mg"},{"bike_id":"27a241f8-4c6d-40d1-b6ea-7a2c41a8e5fa","system_id":"levelo_inurba_marseille","lat":43.30884,"lon":5.39641,"is_reserved":false,"is_disabled":false,"rental_uris":{"android":"levelo://app?vid=27a241f8-4c6d-40d1-b6ea-7a2c41a8e5fa","ios":"levelo://app?vid=27a241f8-4c6d-40d1-b6ea-7a2c41a8e5fa"},"vehicle_type_id":"4","last_reported":1719353221,"current_range_meters":23600,"station_id":"ce4bh012rcd13ifvqcv0","pricing_plan_id":"cebpf4jnsgd1na2vs0mg"},{"bike_id":"ab1ef7f8-5a8a-4700-b29e-c69dff5bc4f9","system_id":"levelo_inurba_marseille","lat":43.309038,"lon":5.396546,"is_reserved":false,"is_disabled":false,"rental_uris":{"android":"levelo://app?vid=ab1ef7f8-5a8a-4700-b29e-c69dff5bc4f9","ios":"levelo://app?vid=ab1ef7f8-5a8a-4700-b29e-c69dff5bc4f9"},"vehicle_type_id":"4","last_reported":1719353221,"current_range_meters":25600,"station_id":"ce4bh012rcd13ifvqcv0","pricing_plan_id":"cebpf4jnsgd1na2vs0mg"},{"bike_id":"9fab94a2-463f-4a54-ae35-b80838c45d03","system_id":"levelo_inurba_marseille","lat":43.30874,"lon":5.396403,"is_reserved":false,"is_disabled":false,"rental_uris":{"android":"levelo://app?vid=9fab94a2-463f-4a54-ae35-b80838c45d03","ios":"levelo://app?vid=9fab94a2-463f-4a54-ae35-b80838c45d03"},"vehicle_type_id":"4","last_reported":1719353221,"current_range_meters":5200,"station_id":"ce4bh012rcd13ifvqcv0","pricing_plan_id":"cebpf4jnsgd1na2vs0mg"},{"bike_id":"04403c5c-d6d8-4bbf-9b3d-de9176215cae","system_id":"levelo_inurba_marseille","lat":43.30888,"lon":5.39644,"is_reserved":false,"is_disabled":false,"rental_uris":{"android":"levelo://app?vid=04403c5c-d6d8-4bbf-9b3d-de9176215cae","ios":"levelo://app?vid=04403c5c-d6d8-4bbf-9b3d-de9176215cae"},"vehicle_type_id":"4","last_reported":1719353221,"current_range_meters":6000,"station_id":"ce4bh012rcd13ifvqcv0","pricing_plan_id":"cebpf4jnsgd1na2vs0mg"},{"bike_id":"f7e112ec-a2ff-46aa-91c4-1871b063f8a7","system_id":"levelo_inurba_marseille","lat":43.309038,"lon":5.396546,"is_reserved":false,"is_disabled":false,"rental_uris":{"android":"levelo://app?vid=f7e112ec-a2ff-46aa-91c4-1871b063f8a7","ios":"levelo://app?vid=f7e112ec-a2ff-46aa-91c4-1871b063f8a7"},"vehicle_type_id":"4","last_reported":1719353221,"current_range_meters":31200,"station_id":"ce4bh012rcd13ifvqcv0","pricing_plan_id":"cebpf4jnsgd1na2vs0mg"},{"bike_id":"d0fa3130-0457-44ce-a1bc-c8726395a49d","system_id":"levelo_inurba_marseille","lat":43.30887,"lon":5.39646,"is_reserved":false,"is_disabled":false,"rental_uris":{"android":"levelo://app?vid=d0fa3130-0457-44ce-a1bc-c8726395a49d","ios":"levelo://app?vid=d0fa3130-0457-44ce-a1bc-c8726395a49d"},"vehicle_type_id":"4","last_reported":1719353221,"current_range_meters":20400,"station_id":"ce4bh012rcd13ifvqcv0","pricing_plan_id":"cebpf4jnsgd1na2vs0mg"},{"bike_id":"15ec709a-9f52-4f21-80f7-87fa54dd8f0f","system_id":"levelo_inurba_marseille","lat":43.30881,"lon":5.39645,"is_reserved":false,"is_disabled":false,"rental_uris":{"android":"levelo://app?vid=15ec709a-9f52-4f21-80f7-87fa54dd8f0f","ios":"levelo://app?vid=15ec709a-9f52-4f21-80f7-87fa54dd8f0f"},"vehicle_type_id":"4","last_reported":1719353221,"current_range_meters":31200,"station_id":"ce4bh012rcd13ifvqcv0","pricing_plan_id":"cebpf4jnsgd1na2vs0mg"},{"bike_id":"c872b8f2-b96e-496d-841b-69c5ec304ba9","system_id":"levelo_inurba_marseille","lat":43.30884,"lon":5.39646,"is_reserved":false,"is_disabled":false,"rental_uris":{"android":"levelo://app?vid=c872b8f2-b96e-496d-841b-69c5ec304ba9","ios":"levelo://app?vid=c872b8f2-b96e-496d-841b-69c5ec304ba9"},"vehicle_type_id":"4","last_reported":1719353221,"current_range_meters":16400,"station_id":"ce4bh012rcd13ifvqcv0","pricing_plan_id":"cebpf4jnsgd1na2vs0mg"},{"bike_id":"21d8aa1e-3cf9-48da-9c0b-b9960eeb4f41","system_id":"levelo_inurba_marseille","lat":43.308913,"lon":5.39648,"is_reserved":false,"is_disabled":false,"rental_uris":{"android":"levelo://app?vid=21d8aa1e-3cf9-48da-9c0b-b9960eeb4f41","ios":"levelo://app?vid=21d8aa1e-3cf9-48da-9c0b-b9960eeb4f41"},"vehicle_type_id":"4","last_reported":1719353221,"current_range_meters":31200,"station_id":"ce4bh012rcd13ifvqcv0","pricing_plan_id":"cebpf4jnsgd1na2vs0mg"},{"bike_id":"35243b93-c831-46ee-96a9-5dfb27d48e7d","system_id":"levelo_inurba_marseille","lat":43.30884,"lon":5.39647,"is_reserved":false,"is_disabled":false,"rental_uris":{"android":"levelo://app?vid=35243b93-c831-46ee-96a9-5dfb27d48e7d","ios":"levelo://app?vid=35243b93-c831-46ee-96a9-5dfb27d48e7d"},"vehicle_type_id":"4","last_reported":1719353221,"current_range_meters":11200,"station_id":"ce4bh012rcd13ifvqcv0","pricing_plan_id":"cebpf4jnsgd1na2vs0mg"},{"bike_id":"cd218dcc-8779-412d-bccc-ac2534b488c9","system_id":"levelo_inurba_marseille","lat":43.308891,"lon":5.396504,"is_reserved":false,"is_disabled":false,"rental_uris":{"android":"levelo://app?vid=cd218dcc-8779-412d-bccc-ac2534b488c9","ios":"levelo://app?vid=cd218dcc-8779-412d-bccc-ac2534b488c9"},"vehicle_type_id":"4","last_reported":1719353221,"current_range_meters":31200,"station_id":"ce4bh012rcd13ifvqcv0","pricing_plan_id":"cebpf4jnsgd1na2vs0mg"},{"bike_id":"387c2116-d782-4414-be34-c7fa53a33b12","system_id":"levelo_inurba_marseille","lat":43.309038,"lon":5.396546,"is_reserved":false,"is_disabled":false,"rental_uris":{"android":"levelo://app?vid=387c2116-d782-4414-be34-c7fa53a33b12","ios":"levelo://app?vid=387c2116-d782-4414-be34-c7fa53a33b12"},"vehicle_type_id":"4","last_reported":1719353221,"current_range_meters":18400,"station_id":"ce4bh012rcd13ifvqcv0","pricing_plan_id":"cebpf4jnsgd1na2vs0mg"},{"bike_id":"03aa15bc-8d1a-4c68-8bd1-8e723d188a0f","system_id":"levelo_inurba_marseille","lat":43.309038,"lon":5.396546,"is_reserved":false,"is_disabled":false,"rental_uris":{"android":"levelo://app?vid=03aa15bc-8d1a-4c68-8bd1-8e723d188a0f","ios":"levelo://app?vid=03aa15bc-8d1a-4c68-8bd1-8e723d188a0f"},"vehicle_type_id":"4","last_reported":1719353221,"current_range_meters":31200,"station_id":"ce4bh012rcd13ifvqcv0","pricing_plan_id":"cebpf4jnsgd1na2vs0mg"},{"bike_id":"42fa8b36-9e8b-43d7-9152-48ab1d6d9843","system_id":"levelo_inurba_marseille","lat":43.309038,"lon":5.396546,"is_reserved":false,"is_disabled":false,"rental_uris":{"android":"levelo://app?vid=42fa8b36-9e8b-43d7-9152-48ab1d6d9843","ios":"levelo://app?vid=42fa8b36-9e8b-43d7-9152-48ab1d6d9843"},"vehicle_type_id":"4","last_reported":1719353221,"current_range_meters":31200,"station_id":"ce4bh012rcd13ifvqcv0","pricing_plan_id":"cebpf4jnsgd1na2vs0mg"},{"bike_id":"9969e84a-8dde-4932-a19b-3ed7688723e7","system_id":"levelo_inurba_marseille","lat":43.30891,"lon":5.3966,"is_reserved":false,"is_disabled":false,"rental_uris":{"android":"levelo://app?vid=9969e84a-8dde-4932-a19b-3ed7688723e7","ios":"levelo://app?vid=9969e84a-8dde-4932-a19b-3ed7688723e7"},"vehicle_type_id":"4","last_reported":1719353221,"current_range_meters":800,"station_id":"ce4bh012rcd13ifvqcv0","pricing_plan_id":"cebpf4jnsgd1na2vs0mg"},{"bike_id":"baee1c6a-0d06-442d-8ac6-358f3b21b105","system_id":"levelo_inurba_marseille","lat":43.309038,"lon":5.396546,"is_reserved":false,"is_disabled":false,"rental_uris":{"android":"levelo://app?vid=baee1c6a-0d06-442d-8ac6-358f3b21b105","ios":"levelo://app?vid=baee1c6a-0d06-442d-8ac6-358f3b21b105"},"vehicle_type_id":"4","last_reported":1719353221,"current_range_meters":19600,"station_id":"ce4bh012rcd13ifvqcv0","pricing_plan_id":"cebpf4jnsgd1na2vs0mg"},{"bike_id":"414f0539-0085-43e8-9640-7478ed2fc067","system_id":"levelo_inurba_marseille","lat":43.30897,"lon":5.39662,"is_reserved":false,"is_disabled":false,"rental_uris":{"android":"levelo://app?vid=414f0539-0085-43e8-9640-7478ed2fc067","ios":"levelo://app?vid=414f0539-0085-43e8-9640-7478ed2fc067"},"vehicle_type_id":"4","last_reported":1719353221,"current_range_meters":11200,"station_id":"ce4bh012rcd13ifvqcv0","pricing_plan_id":"cebpf4jnsgd1na2vs0mg"},{"bike_id":"092b78f5-41c1-4aba-8d99-cbb54238a3a0","system_id":"levelo_inurba_marseille","lat":43.308995,"lon":5.396711,"is_reserved":false,"is_disabled":false,"rental_uris":{"android":"levelo://app?vid=092b78f5-41c1-4aba-8d99-cbb54238a3a0","ios":"levelo://app?vid=092b78f5-41c1-4aba-8d99-cbb54238a3a0"},"vehicle_type_id":"4","last_reported":1719353221,"current_range_meters":20000,"station_id":"ce4bh012rcd13ifvqcv0","pricing_plan_id":"cebpf4jnsgd1na2vs0mg"},{"bike_id":"f5eb0761-adae-45c6-8c5c-0d3bfa5bb3c1","system_id":"levelo_inurba_marseille","lat":43.290624,"lon":5.359245,"is_reserved":false,"is_disabled":false,"rental_uris":{"android":"levelo://app?vid=f5eb0761-adae-45c6-8c5c-0d3bfa5bb3c1","ios":"levelo://app?vid=f5eb0761-adae-45c6-8c5c-0d3bfa5bb3c1"},"vehicle_type_id":"4","last_reported":1719353221,"current_range_meters":30400,"station_id":"ce4bha92rcd13ifvqeg0","pricing_plan_id":"cebpf4jnsgd1na2vs0mg"},{"bike_id":"30f97107-12d7-4e03-88de-c2c52c5684d2","system_id":"levelo_inurba_marseille","lat":43.289184,"lon":5.366408,"is_reserved":false,"is_disabled":false,"rental_uris":{"android":"levelo://app?vid=30f97107-12d7-4e03-88de-c2c52c5684d2","ios":"levelo://app?vid=30f97107-12d7-4e03-88de-c2c52c5684d2"},"vehicle_type_id":"4","last_reported":1719353221,"current_range_meters":30400,"station_id":"ce4bhap2rcd13ifvqek0","pricing_plan_id":"cebpf4jnsgd1na2vs0mg"},{"bike_id":"2865f9e9-4125-45df-96de-e52783c98f31","system_id":"levelo_inurba_marseille","lat":43.289184,"lon":5.366408,"is_reserved":false,"is_disabled":false,"rental_uris":{"android":"levelo://app?vid=2865f9e9-4125-45df-96de-e52783c98f31","ios":"levelo://app?vid=2865f9e9-4125-45df-96de-e52783c98f31"},"vehicle_type_id":"4","last_reported":1719353221,"current_range_meters":6400,"station_id":"ce4bhap2rcd13ifvqek0","pricing_plan_id":"cebpf4jnsgd1na2vs0mg"},{"bike_id":"a1f21a9c-8bc6-47d8-ad52-46631ffb1d6d","system_id":"levelo_inurba_marseille","lat":43.289184,"lon":5.366408,"is_reserved":false,"is_disabled":false,"rental_uris":{"android":"levelo://app?vid=a1f21a9c-8bc6-47d8-ad52-46631ffb1d6d","ios":"levelo://app?vid=a1f21a9c-8bc6-47d8-ad52-46631ffb1d6d"},"vehicle_type_id":"4","last_reported":1719353221,"current_range_meters":9200,"station_id":"ce4bhap2rcd13ifvqek0","pricing_plan_id":"cebpf4jnsgd1na2vs0mg"},{"bike_id":"688f3236-703a-49c4-a23d-e8fdc210a3ac","system_id":"levelo_inurba_marseille","lat":43.289184,"lon":5.366408,"is_reserved":false,"is_disabled":false,"rental_uris":{"android":"levelo://app?vid=688f3236-703a-49c4-a23d-e8fdc210a3ac","ios":"levelo://app?vid=688f3236-703a-49c4-a23d-e8fdc210a3ac"},"vehicle_type_id":"4","last_reported":1719353221,"current_range_meters":16800,"station_id":"ce4bhap2rcd13ifvqek0","pricing_plan_id":"cebpf4jnsgd1na2vs0mg"},{"bike_id":"c81c08cc-afcb-4b10-9934-4a4a2fce05d3","system_id":"levelo_inurba_marseille","lat":43.289184,"lon":5.366408,"is_reserved":false,"is_disabled":false,"rental_uris":{"android":"levelo://app?vid=c81c08cc-afcb-4b10-9934-4a4a2fce05d3","ios":"levelo://app?vid=c81c08cc-afcb-4b10-9934-4a4a2fce05d3"},"vehicle_type_id":"4","last_reported":1719353221,"current_range_meters":800,"station_id":"ce4bhap2rcd13ifvqek0","pricing_plan_id":"cebpf4jnsgd1na2vs0mg"},{"bike_id":"96fe8401-82be-4eb3-844e-b0c396078866","system_id":"levelo_inurba_marseille","lat":43.289468,"lon":5.363719,"is_reserved":false,"is_disabled":false,"rental_uris":{"android":"levelo://app?vid=96fe8401-82be-4eb3-844e-b0c396078866","ios":"levelo://app?vid=96fe8401-82be-4eb3-844e-b0c396078866"},"vehicle_type_id":"4","last_reported":1719353221,"current_range_meters":31600,"station_id":"ce4bhc92rcd13ifvqetg","pricing_plan_id":"cebpf4jnsgd1na2vs0mg"},{"bike_id":"2204a90f-52f4-49b2-a181-cda0dcf36123","system_id":"levelo_inurba_marseille","lat":43.289468,"lon":5.363719,"is_reserved":false,"is_disabled":false,"rental_uris":{"android":"levelo://app?vid=2204a90f-52f4-49b2-a181-cda0dcf36123","ios":"levelo://app?vid=2204a90f-52f4-49b2-a181-cda0dcf36123"},"vehicle_type_id":"4","last_reported":1719353221,"current_range_meters":30000,"station_id":"ce4bhc92rcd13ifvqetg","pricing_plan_id":"cebpf4jnsgd1na2vs0mg"},{"bike_id":"c0c69001-cb3b-4782-b75f-5a986fccfdb5","system_id":"levelo_inurba_marseille","lat":43.304372,"lon":5.397373,"is_reserved":false,"is_disabled":false,"rental_uris":{"android":"levelo://app?vid=c0c69001-cb3b-4782-b75f-5a986fccfdb5","ios":"levelo://app?vid=c0c69001-cb3b-4782-b75f-5a986fccfdb5"},"vehicle_type_id":"4","last_reported":1719353221,"current_range_meters":18800,"station_id":"","pricing_plan_id":"cebpf4jnsgd1na2vs0mg"},{"bike_id":"eaf70f8f-d234-4701-8ac4-8dd918f74c62","system_id":"levelo_inurba_marseille","lat":43.29097,"lon":5.38128,"is_reserved":false,"is_disabled":false,"rental_uris":{"android":"levelo://app?vid=eaf70f8f-d234-4701-8ac4-8dd918f74c62","ios":"levelo://app?vid=eaf70f8f-d234-4701-8ac4-8dd918f74c62"},"vehicle_type_id":"4","last_reported":1719353221,"current_range_meters":29600,"station_id":"ce4bh512rcd13ifvqe2g","pricing_plan_id":"cebpf4jnsgd1na2vs0mg"},{"bike_id":"cc49da87-dbbc-4c5f-8c56-8610df88cece","system_id":"levelo_inurba_marseille","lat":43.330442,"lon":5.389148,"is_reserved":false,"is_disabled":false,"rental_uris":{"android":"levelo://app?vid=cc49da87-dbbc-4c5f-8c56-8610df88cece","ios":"levelo://app?vid=cc49da87-dbbc-4c5f-8c56-8610df88cece"},"vehicle_type_id":"4","last_reported":1719353221,"current_range_meters":30000,"station_id":"ce4bhr92rcd13ifvqhrg","pricing_plan_id":"cebpf4jnsgd1na2vs0mg"},{"bike_id":"343a59f2-939e-4b87-9aca-8a9759d59612","system_id":"levelo_inurba_marseille","lat":43.309371,"lon":5.401449,"is_reserved":false,"is_disabled":false,"rental_uris":{"android":"levelo://app?vid=343a59f2-939e-4b87-9aca-8a9759d59612","ios":"levelo://app?vid=343a59f2-939e-4b87-9aca-8a9759d59612"},"vehicle_type_id":"4","last_reported":1719353221,"current_range_meters":4000,"station_id":"ce4bgvp2rcd13ifvqct0","pricing_plan_id":"cebpf4jnsgd1na2vs0mg"},{"bike_id":"45349dd2-4c29-41ce-b0c6-6e8738b11140","system_id":"levelo_inurba_marseille","lat":43.297894,"lon":5.393411,"is_reserved":false,"is_disabled":false,"rental_uris":{"android":"levelo://app?vid=45349dd2-4c29-41ce-b0c6-6e8738b11140","ios":"levelo://app?vid=45349dd2-4c29-41ce-b0c6-6e8738b11140"},"vehicle_type_id":"4","last_reported":1719353221,"current_range_meters":30800,"station_id":"chh1huq6cuj3fo74tm60","pricing_plan_id":"cebpf4jnsgd1na2vs0mg"},{"bike_id":"77d2c0bd-ddc6-441f-8584-eb554977fde0","system_id":"levelo_inurba_marseille","lat":43.297815,"lon":5.393548,"is_reserved":false,"is_disabled":false,"rental_uris":{"android":"levelo://app?vid=77d2c0bd-ddc6-441f-8584-eb554977fde0","ios":"levelo://app?vid=77d2c0bd-ddc6-441f-8584-eb554977fde0"},"vehicle_type_id":"4","last_reported":1719353221,"current_range_meters":1200,"station_id":"chh1huq6cuj3fo74tm60","pricing_plan_id":"cebpf4jnsgd1na2vs0mg"},{"bike_id":"816c286d-3170-4620-a967-7b02de13c57b","system_id":"levelo_inurba_marseille","lat":43.289741,"lon":5.378306,"is_reserved":false,"is_disabled":false,"rental_uris":{"android":"levelo://app?vid=816c286d-3170-4620-a967-7b02de13c57b","ios":"levelo://app?vid=816c286d-3170-4620-a967-7b02de13c57b"},"vehicle_type_id":"4","last_reported":1719353221,"current_range_meters":29600,"station_id":"ce4bh9p2rcd13ifvqed0","pricing_plan_id":"cebpf4jnsgd1na2vs0mg"},{"bike_id":"e1d09ae4-a13c-4f45-b906-2f850ab37cbf","system_id":"levelo_inurba_marseille","lat":43.297873,"lon":5.39346,"is_reserved":false,"is_disabled":false,"rental_uris":{"android":"levelo://app?vid=e1d09ae4-a13c-4f45-b906-2f850ab37cbf","ios":"levelo://app?vid=e1d09ae4-a13c-4f45-b906-2f850ab37cbf"},"vehicle_type_id":"4","last_reported":1719353221,"current_range_meters":31200,"station_id":"chh1huq6cuj3fo74tm60","pricing_plan_id":"cebpf4jnsgd1na2vs0mg"},{"bike_id":"f331a200-e019-478d-a036-2da8ec478141","system_id":"levelo_inurba_marseille","lat":43.297815,"lon":5.393548,"is_reserved":false,"is_disabled":false,"rental_uris":{"android":"levelo://app?vid=f331a200-e019-478d-a036-2da8ec478141","ios":"levelo://app?vid=f331a200-e019-478d-a036-2da8ec478141"},"vehicle_type_id":"4","last_reported":1719353221,"current_range_meters":19200,"station_id":"chh1huq6cuj3fo74tm60","pricing_plan_id":"cebpf4jnsgd1na2vs0mg"},{"bike_id":"c67df6a6-8cac-4b62-8b7f-e59141b8a83f","system_id":"levelo_inurba_marseille","lat":43.29779,"lon":5.39338,"is_reserved":false,"is_disabled":false,"rental_uris":{"android":"levelo://app?vid=c67df6a6-8cac-4b62-8b7f-e59141b8a83f","ios":"levelo://app?vid=c67df6a6-8cac-4b62-8b7f-e59141b8a83f"},"vehicle_type_id":"4","last_reported":1719353221,"current_range_meters":0,"station_id":"chh1huq6cuj3fo74tm60","pricing_plan_id":"cebpf4jnsgd1na2vs0mg"},{"bike_id":"f74a5eb1-e5ee-4cb0-a5e8-b1f432e368ce","system_id":"levelo_inurba_marseille","lat":43.29785,"lon":5.39346,"is_reserved":false,"is_disabled":false,"rental_uris":{"android":"levelo://app?vid=f74a5eb1-e5ee-4cb0-a5e8-b1f432e368ce","ios":"levelo://app?vid=f74a5eb1-e5ee-4cb0-a5e8-b1f432e368ce"},"vehicle_type_id":"4","last_reported":1719353221,"current_range_meters":29600,"station_id":"chh1huq6cuj3fo74tm60","pricing_plan_id":"cebpf4jnsgd1na2vs0mg"},{"bike_id":"63aea35a-2ffa-40c0-9a11-1a4859319ce5","system_id":"levelo_inurba_marseille","lat":43.33017,"lon":5.39039,"is_reserved":false,"is_disabled":false,"rental_uris":{"android":"levelo://app?vid=63aea35a-2ffa-40c0-9a11-1a4859319ce5","ios":"levelo://app?vid=63aea35a-2ffa-40c0-9a11-1a4859319ce5"},"vehicle_type_id":"4","last_reported":1719353221,"current_range_meters":14400,"station_id":"ce4bhr92rcd13ifvqhrg","pricing_plan_id":"cebpf4jnsgd1na2vs0mg"},{"bike_id":"783de88c-220a-45ed-9501-40078d76a630","system_id":"levelo_inurba_marseille","lat":43.289741,"lon":5.378306,"is_reserved":false,"is_disabled":false,"rental_uris":{"android":"levelo://app?vid=783de88c-220a-45ed-9501-40078d76a630","ios":"levelo://app?vid=783de88c-220a-45ed-9501-40078d76a630"},"vehicle_type_id":"4","last_reported":1719353221,"current_range_meters":31200,"station_id":"ce4bh9p2rcd13ifvqed0","pricing_plan_id":"cebpf4jnsgd1na2vs0mg"},{"bike_id":"2fc29a03-3a03-43d0-b4f2-1460a5d190a9","system_id":"levelo_inurba_marseille","lat":43.330197,"lon":5.390477,"is_reserved":false,"is_disabled":false,"rental_uris":{"android":"levelo://app?vid=2fc29a03-3a03-43d0-b4f2-1460a5d190a9","ios":"levelo://app?vid=2fc29a03-3a03-43d0-b4f2-1460a5d190a9"},"vehicle_type_id":"4","last_reported":1719353221,"current_range_meters":10800,"station_id":"ce4bhr92rcd13ifvqhrg","pricing_plan_id":"cebpf4jnsgd1na2vs0mg"},{"bike_id":"518b4ddc-113c-466d-b011-b7bc04774c33","system_id":"levelo_inurba_marseille","lat":43.330442,"lon":5.389148,"is_reserved":false,"is_disabled":false,"rental_uris":{"android":"levelo://app?vid=518b4ddc-113c-466d-b011-b7bc04774c33","ios":"levelo://app?vid=518b4ddc-113c-466d-b011-b7bc04774c33"},"vehicle_type_id":"4","last_reported":1719353221,"current_range_meters":20400,"station_id":"ce4bhr92rcd13ifvqhrg","pricing_plan_id":"cebpf4jnsgd1na2vs0mg"},{"bike_id":"a0e57499-7851-424c-9246-2fe457ce50dd","system_id":"levelo_inurba_marseille","lat":43.2901,"lon":5.381269,"is_reserved":false,"is_disabled":false,"rental_uris":{"android":"levelo://app?vid=a0e57499-7851-424c-9246-2fe457ce50dd","ios":"levelo://app?vid=a0e57499-7851-424c-9246-2fe457ce50dd"},"vehicle_type_id":"4","last_reported":1719353221,"current_range_meters":31200,"station_id":"ce4bh4p2rcd13ifvqe1g","pricing_plan_id":"cebpf4jnsgd1na2vs0mg"},{"bike_id":"4ebfdfc1-7f29-424a-92ce-f382fd9ecea6","system_id":"levelo_inurba_marseille","lat":43.28852,"lon":5.35858,"is_reserved":false,"is_disabled":false,"rental_uris":{"android":"levelo://app?vid=4ebfdfc1-7f29-424a-92ce-f382fd9ecea6","ios":"levelo://app?vid=4ebfdfc1-7f29-424a-92ce-f382fd9ecea6"},"vehicle_type_id":"4","last_reported":1719353221,"current_range_meters":30000,"station_id":"ce4bhb12rcd13ifvqem0","pricing_plan_id":"cebpf4jnsgd1na2vs0mg"},{"bike_id":"c3ddbe4a-157d-4893-acf1-f1f626a65d21","system_id":"levelo_inurba_marseille","lat":43.33715,"lon":5.37426,"is_reserved":false,"is_disabled":false,"rental_uris":{"android":"levelo://app?vid=c3ddbe4a-157d-4893-acf1-f1f626a65d21","ios":"levelo://app?vid=c3ddbe4a-157d-4893-acf1-f1f626a65d21"},"vehicle_type_id":"0","last_reported":1719353221,"current_range_meters":19200,"station_id":"","pricing_plan_id":"cebpf4jnsgd1na2vs0mg"},{"bike_id":"913cf5bf-6e38-42d1-8250-fcc2802e76b0","system_id":"levelo_inurba_marseille","lat":43.312609,"lon":5.401662,"is_reserved":false,"is_disabled":false,"rental_uris":{"android":"levelo://app?vid=913cf5bf-6e38-42d1-8250-fcc2802e76b0","ios":"levelo://app?vid=913cf5bf-6e38-42d1-8250-fcc2802e76b0"},"vehicle_type_id":"4","last_reported":1719353221,"current_range_meters":13200,"station_id":"ce4bh092rcd13ifvqd30","pricing_plan_id":"cebpf4jnsgd1na2vs0mg"},{"bike_id":"bb65fb70-df82-47d8-b27f-438620895501","system_id":"levelo_inurba_marseille","lat":43.337364,"lon":5.374628,"is_reserved":false,"is_disabled":false,"rental_uris":{"android":"levelo://app?vid=bb65fb70-df82-47d8-b27f-438620895501","ios":"levelo://app?vid=bb65fb70-df82-47d8-b27f-438620895501"},"vehicle_type_id":"0","last_reported":1719353221,"current_range_meters":16000,"station_id":"","pricing_plan_id":"cebpf4jnsgd1na2vs0mg"},{"bike_id":"c25a3696-e1cc-43ba-8656-23d4a118ee2e","system_id":"levelo_inurba_marseille","lat":43.337363,"lon":5.374666,"is_reserved":false,"is_disabled":false,"rental_uris":{"android":"levelo://app?vid=c25a3696-e1cc-43ba-8656-23d4a118ee2e","ios":"levelo://app?vid=c25a3696-e1cc-43ba-8656-23d4a118ee2e"},"vehicle_type_id":"4","last_reported":1719353221,"current_range_meters":22000,"station_id":"","pricing_plan_id":"cebpf4jnsgd1na2vs0mg"},{"bike_id":"8043cc8a-f702-4e45-9523-d56dfd7ee432","system_id":"levelo_inurba_marseille","lat":43.337374,"lon":5.374681,"is_reserved":false,"is_disabled":false,"rental_uris":{"android":"levelo://app?vid=8043cc8a-f702-4e45-9523-d56dfd7ee432","ios":"levelo://app?vid=8043cc8a-f702-4e45-9523-d56dfd7ee432"},"vehicle_type_id":"0","last_reported":1719353221,"current_range_meters":21200,"station_id":"","pricing_plan_id":"cebpf4jnsgd1na2vs0mg"},{"bike_id":"2bffac18-a8fe-485f-be52-f67a471a544f","system_id":"levelo_inurba_marseille","lat":43.31274,"lon":5.40166,"is_reserved":false,"is_disabled":false,"rental_uris":{"android":"levelo://app?vid=2bffac18-a8fe-485f-be52-f67a471a544f","ios":"levelo://app?vid=2bffac18-a8fe-485f-be52-f67a471a544f"},"vehicle_type_id":"4","last_reported":1719353221,"current_range_meters":0,"station_id":"ce4bh092rcd13ifvqd30","pricing_plan_id":"cebpf4jnsgd1na2vs0mg"},{"bike_id":"bd9a6c26-2db3-4e30-92c7-c85ae97147aa","system_id":"levelo_inurba_marseille","lat":43.33739,"lon":5.3746,"is_reserved":false,"is_disabled":false,"rental_uris":{"android":"levelo://app?vid=bd9a6c26-2db3-4e30-92c7-c85ae97147aa","ios":"levelo://app?vid=bd9a6c26-2db3-4e30-92c7-c85ae97147aa"},"vehicle_type_id":"0","last_reported":1719353221,"current_range_meters":24400,"station_id":"","pricing_plan_id":"cebpf4jnsgd1na2vs0mg"},{"bike_id":"aa527c2c-31a5-479b-bfbe-daae0d9bb514","system_id":"levelo_inurba_marseille","lat":43.337388,"lon":5.374653,"is_reserved":false,"is_disabled":false,"rental_uris":{"android":"levelo://app?vid=aa527c2c-31a5-479b-bfbe-daae0d9bb514","ios":"levelo://app?vid=aa527c2c-31a5-479b-bfbe-daae0d9bb514"},"vehicle_type_id":"0","last_reported":1719353221,"current_range_meters":11600,"station_id":"","pricing_plan_id":"cebpf4jnsgd1na2vs0mg"},{"bike_id":"70df0eff-7892-4d64-8b33-f9b25d3cdb77","system_id":"levelo_inurba_marseille","lat":43.337398,"lon":5.374648,"is_reserved":false,"is_disabled":false,"rental_uris":{"android":"levelo://app?vid=70df0eff-7892-4d64-8b33-f9b25d3cdb77","ios":"levelo://app?vid=70df0eff-7892-4d64-8b33-f9b25d3cdb77"},"vehicle_type_id":"4","last_reported":1719353221,"current_range_meters":22000,"station_id":"","pricing_plan_id":"cebpf4jnsgd1na2vs0mg"},{"bike_id":"9b81675f-44cd-4cbe-9733-2d36a516d8f7","system_id":"levelo_inurba_marseille","lat":43.337394,"lon":5.374696,"is_reserved":false,"is_disabled":false,"rental_uris":{"android":"levelo://app?vid=9b81675f-44cd-4cbe-9733-2d36a516d8f7","ios":"levelo://app?vid=9b81675f-44cd-4cbe-9733-2d36a516d8f7"},"vehicle_type_id":"0","last_reported":1719353221,"current_range_meters":22800,"station_id":"","pricing_plan_id":"cebpf4jnsgd1na2vs0mg"},{"bike_id":"985eda3a-8205-4c72-8b0d-a44593dd15b5","system_id":"levelo_inurba_marseille","lat":43.337403,"lon":5.374678,"is_reserved":false,"is_disabled":false,"rental_uris":{"android":"levelo://app?vid=985eda3a-8205-4c72-8b0d-a44593dd15b5","ios":"levelo://app?vid=985eda3a-8205-4c72-8b0d-a44593dd15b5"},"vehicle_type_id":"0","last_reported":1719353221,"current_range_meters":14800,"station_id":"","pricing_plan_id":"cebpf4jnsgd1na2vs0mg"},{"bike_id":"40303089-9364-42f8-af18-1cbafc447375","system_id":"levelo_inurba_marseille","lat":43.312609,"lon":5.401662,"is_reserved":false,"is_disabled":false,"rental_uris":{"android":"levelo://app?vid=40303089-9364-42f8-af18-1cbafc447375","ios":"levelo://app?vid=40303089-9364-42f8-af18-1cbafc447375"},"vehicle_type_id":"4","last_reported":1719353221,"current_range_meters":400,"station_id":"ce4bh092rcd13ifvqd30","pricing_plan_id":"cebpf4jnsgd1na2vs0mg"},{"bike_id":"11da98ef-d0c3-43c2-a7e4-890f2c23ccbc","system_id":"levelo_inurba_marseille","lat":43.337412,"lon":5.374648,"is_reserved":false,"is_disabled":false,"rental_uris":{"android":"levelo://app?vid=11da98ef-d0c3-43c2-a7e4-890f2c23ccbc","ios":"levelo://app?vid=11da98ef-d0c3-43c2-a7e4-890f2c23ccbc"},"vehicle_type_id":"4","last_reported":1719353221,"current_range_meters":15600,"station_id":"","pricing_plan_id":"cebpf4jnsgd1na2vs0mg"},{"bike_id":"cbff8e2e-87ad-4d9e-a09d-9b1fba1c0aeb","system_id":"levelo_inurba_marseille","lat":43.337412,"lon":5.37469,"is_reserved":false,"is_disabled":false,"rental_uris":{"android":"levelo://app?vid=cbff8e2e-87ad-4d9e-a09d-9b1fba1c0aeb","ios":"levelo://app?vid=cbff8e2e-87ad-4d9e-a09d-9b1fba1c0aeb"},"vehicle_type_id":"0","last_reported":1719353221,"current_range_meters":21600,"station_id":"","pricing_plan_id":"cebpf4jnsgd1na2vs0mg"},{"bike_id":"2a0fb516-a307-4861-b129-104556c40f00","system_id":"levelo_inurba_marseille","lat":43.337425,"lon":5.374654,"is_reserved":false,"is_disabled":false,"rental_uris":{"android":"levelo://app?vid=2a0fb516-a307-4861-b129-104556c40f00","ios":"levelo://app?vid=2a0fb516-a307-4861-b129-104556c40f00"},"vehicle_type_id":"0","last_reported":1719353221,"current_range_meters":13600,"station_id":"","pricing_plan_id":"cebpf4jnsgd1na2vs0mg"},{"bike_id":"bf709b1a-1e81-4c69-a36a-dfef45d67fee","system_id":"levelo_inurba_marseille","lat":43.337424,"lon":5.374686,"is_reserved":false,"is_disabled":false,"rental_uris":{"android":"levelo://app?vid=bf709b1a-1e81-4c69-a36a-dfef45d67fee","ios":"levelo://app?vid=bf709b1a-1e81-4c69-a36a-dfef45d67fee"},"vehicle_type_id":"4","last_reported":1719353221,"current_range_meters":22000,"station_id":"","pricing_plan_id":"cebpf4jnsgd1na2vs0mg"},{"bike_id":"fca805ad-50c8-4d3a-a519-54302aa506a6","system_id":"levelo_inurba_marseille","lat":43.309371,"lon":5.401449,"is_reserved":false,"is_disabled":false,"rental_uris":{"android":"levelo://app?vid=fca805ad-50c8-4d3a-a519-54302aa506a6","ios":"levelo://app?vid=fca805ad-50c8-4d3a-a519-54302aa506a6"},"vehicle_type_id":"4","last_reported":1719353221,"current_range_meters":0,"station_id":"ce4bgvp2rcd13ifvqct0","pricing_plan_id":"cebpf4jnsgd1na2vs0mg"},{"bike_id":"a02d2fd3-f401-4d61-ae41-297fd2281190","system_id":"levelo_inurba_marseille","lat":43.3093,"lon":5.40147,"is_reserved":false,"is_disabled":false,"rental_uris":{"android":"levelo://app?vid=a02d2fd3-f401-4d61-ae41-297fd2281190","ios":"levelo://app?vid=a02d2fd3-f401-4d61-ae41-297fd2281190"},"vehicle_type_id":"4","last_reported":1719353221,"current_range_meters":13600,"station_id":"ce4bgvp2rcd13ifvqct0","pricing_plan_id":"cebpf4jnsgd1na2vs0mg"},{"bike_id":"81f3b553-8793-429e-bdf8-35ca3752f904","system_id":"levelo_inurba_marseille","lat":43.309371,"lon":5.401449,"is_reserved":false,"is_disabled":false,"rental_uris":{"android":"levelo://app?vid=81f3b553-8793-429e-bdf8-35ca3752f904","ios":"levelo://app?vid=81f3b553-8793-429e-bdf8-35ca3752f904"},"vehicle_type_id":"4","last_reported":1719353221,"current_range_meters":24400,"station_id":"ce4bgvp2rcd13ifvqct0","pricing_plan_id":"cebpf4jnsgd1na2vs0mg"},{"bike_id":"f867320b-b3ee-4d44-8ef3-37d72db21942","system_id":"levelo_inurba_marseille","lat":43.33754,"lon":5.37456,"is_reserved":false,"is_disabled":false,"rental_uris":{"android":"levelo://app?vid=f867320b-b3ee-4d44-8ef3-37d72db21942","ios":"levelo://app?vid=f867320b-b3ee-4d44-8ef3-37d72db21942"},"vehicle_type_id":"4","last_reported":1719353221,"current_range_meters":25200,"station_id":"","pricing_plan_id":"cebpf4jnsgd1na2vs0mg"},{"bike_id":"448944b1-21d2-4705-987e-595e78c5a096","system_id":"levelo_inurba_marseille","lat":43.30642,"lon":5.401031,"is_reserved":false,"is_disabled":false,"rental_uris":{"android":"levelo://app?vid=448944b1-21d2-4705-987e-595e78c5a096","ios":"levelo://app?vid=448944b1-21d2-4705-987e-595e78c5a096"},"vehicle_type_id":"4","last_reported":1719353221,"current_range_meters":6800,"station_id":"ce4bh112rcd13ifvqda0","pricing_plan_id":"cebpf4jnsgd1na2vs0mg"},{"bike_id":"12471b9f-5fa3-4b9c-84f3-3b022f59d30d","system_id":"levelo_inurba_marseille","lat":43.3064,"lon":5.40089,"is_reserved":false,"is_disabled":false,"rental_uris":{"android":"levelo://app?vid=12471b9f-5fa3-4b9c-84f3-3b022f59d30d","ios":"levelo://app?vid=12471b9f-5fa3-4b9c-84f3-3b022f59d30d"},"vehicle_type_id":"4","last_reported":1719353221,"current_range_meters":0,"station_id":"ce4bh112rcd13ifvqda0","pricing_plan_id":"cebpf4jnsgd1na2vs0mg"},{"bike_id":"ae204f31-0c5d-44ba-953a-f9c7980ef124","system_id":"levelo_inurba_marseille","lat":43.3065,"lon":5.40093,"is_reserved":false,"is_disabled":false,"rental_uris":{"android":"levelo://app?vid=ae204f31-0c5d-44ba-953a-f9c7980ef124","ios":"levelo://app?vid=ae204f31-0c5d-44ba-953a-f9c7980ef124"},"vehicle_type_id":"4","last_reported":1719353221,"current_range_meters":8800,"station_id":"ce4bh112rcd13ifvqda0","pricing_plan_id":"cebpf4jnsgd1na2vs0mg"},{"bike_id":"322fefe1-3914-487b-9b1e-c8cb7feb04b8","system_id":"levelo_inurba_marseille","lat":43.3064,"lon":5.4009,"is_reserved":false,"is_disabled":false,"rental_uris":{"android":"levelo://app?vid=322fefe1-3914-487b-9b1e-c8cb7feb04b8","ios":"levelo://app?vid=322fefe1-3914-487b-9b1e-c8cb7feb04b8"},"vehicle_type_id":"4","last_reported":1719353221,"current_range_meters":1200,"station_id":"ce4bh112rcd13ifvqda0","pricing_plan_id":"cebpf4jnsgd1na2vs0mg"},{"bike_id":"19c239d3-5a4b-4aff-8085-66266dba085d","system_id":"levelo_inurba_marseille","lat":43.33765,"lon":5.37482,"is_reserved":false,"is_disabled":false,"rental_uris":{"android":"levelo://app?vid=19c239d3-5a4b-4aff-8085-66266dba085d","ios":"levelo://app?vid=19c239d3-5a4b-4aff-8085-66266dba085d"},"vehicle_type_id":"4","last_reported":1719353221,"current_range_meters":30800,"station_id":"","pricing_plan_id":"cebpf4jnsgd1na2vs0mg"},{"bike_id":"23bb476f-7747-4e06-997d-96f079a9abe0","system_id":"levelo_inurba_marseille","lat":43.30644,"lon":5.40113,"is_reserved":false,"is_disabled":false,"rental_uris":{"android":"levelo://app?vid=23bb476f-7747-4e06-997d-96f079a9abe0","ios":"levelo://app?vid=23bb476f-7747-4e06-997d-96f079a9abe0"},"vehicle_type_id":"4","last_reported":1719353221,"current_range_meters":0,"station_id":"ce4bh112rcd13ifvqda0","pricing_plan_id":"cebpf4jnsgd1na2vs0mg"},{"bike_id":"56de231d-7a6a-4959-9946-2978fa52f748","system_id":"levelo_inurba_marseille","lat":43.28727,"lon":5.36078,"is_reserved":false,"is_disabled":false,"rental_uris":{"android":"levelo://app?vid=56de231d-7a6a-4959-9946-2978fa52f748","ios":"levelo://app?vid=56de231d-7a6a-4959-9946-2978fa52f748"},"vehicle_type_id":"4","last_reported":1719353221,"current_range_meters":19200,"station_id":"cki0cbj6b192h4jlfktg","pricing_plan_id":"cebpf4jnsgd1na2vs0mg"},{"bike_id":"a208d7ac-b654-4559-95e4-d9d12b2abfe5","system_id":"levelo_inurba_marseille","lat":43.28727,"lon":5.36078,"is_reserved":false,"is_disabled":false,"rental_uris":{"android":"levelo://app?vid=a208d7ac-b654-4559-95e4-d9d12b2abfe5","ios":"levelo://app?vid=a208d7ac-b654-4559-95e4-d9d12b2abfe5"},"vehicle_type_id":"4","last_reported":1719353221,"current_range_meters":19200,"station_id":"cki0cbj6b192h4jlfktg","pricing_plan_id":"cebpf4jnsgd1na2vs0mg"},{"bike_id":"f57496f2-982f-4828-91cc-f9c2d9f2d9dc","system_id":"levelo_inurba_marseille","lat":43.28727,"lon":5.36078,"is_reserved":false,"is_disabled":false,"rental_uris":{"android":"levelo://app?vid=f57496f2-982f-4828-91cc-f9c2d9f2d9dc","ios":"levelo://app?vid=f57496f2-982f-4828-91cc-f9c2d9f2d9dc"},"vehicle_type_id":"4","last_reported":1719353221,"current_range_meters":20000,"station_id":"cki0cbj6b192h4jlfktg","pricing_plan_id":"cebpf4jnsgd1na2vs0mg"},{"bike_id":"ac4bcbb8-6129-4540-835f-1406d96c9858","system_id":"levelo_inurba_marseille","lat":43.286961,"lon":5.373785,"is_reserved":false,"is_disabled":false,"rental_uris":{"android":"levelo://app?vid=ac4bcbb8-6129-4540-835f-1406d96c9858","ios":"levelo://app?vid=ac4bcbb8-6129-4540-835f-1406d96c9858"},"vehicle_type_id":"4","last_reported":1719353221,"current_range_meters":0,"station_id":"ce4bh3p2rcd13ifvqdq0","pricing_plan_id":"cebpf4jnsgd1na2vs0mg"},{"bike_id":"4effb7bc-c907-48e9-8103-60027c7b72d5","system_id":"levelo_inurba_marseille","lat":43.298681,"lon":5.397225,"is_reserved":false,"is_disabled":false,"rental_uris":{"android":"levelo://app?vid=4effb7bc-c907-48e9-8103-60027c7b72d5","ios":"levelo://app?vid=4effb7bc-c907-48e9-8103-60027c7b72d5"},"vehicle_type_id":"4","last_reported":1719353221,"current_range_meters":14000,"station_id":"ce4bh0h2rcd13ifvqd50","pricing_plan_id":"cebpf4jnsgd1na2vs0mg"},{"bike_id":"8e25352b-6d6e-4498-9b30-4174b817c7a9","system_id":"levelo_inurba_marseille","lat":43.298681,"lon":5.397225,"is_reserved":false,"is_disabled":false,"rental_uris":{"android":"levelo://app?vid=8e25352b-6d6e-4498-9b30-4174b817c7a9","ios":"levelo://app?vid=8e25352b-6d6e-4498-9b30-4174b817c7a9"},"vehicle_type_id":"4","last_reported":1719353221,"current_range_meters":12400,"station_id":"ce4bh0h2rcd13ifvqd50","pricing_plan_id":"cebpf4jnsgd1na2vs0mg"},{"bike_id":"0674e4f3-ed35-4d31-8bd7-f0c80fbd4c49","system_id":"levelo_inurba_marseille","lat":43.298681,"lon":5.397225,"is_reserved":false,"is_disabled":false,"rental_uris":{"android":"levelo://app?vid=0674e4f3-ed35-4d31-8bd7-f0c80fbd4c49","ios":"levelo://app?vid=0674e4f3-ed35-4d31-8bd7-f0c80fbd4c49"},"vehicle_type_id":"4","last_reported":1719353221,"current_range_meters":12400,"station_id":"ce4bh0h2rcd13ifvqd50","pricing_plan_id":"cebpf4jnsgd1na2vs0mg"},{"bike_id":"6d7cb14e-d5bf-48e2-822f-140225e1bac9","system_id":"levelo_inurba_marseille","lat":43.286591,"lon":5.363346,"is_reserved":false,"is_disabled":false,"rental_uris":{"android":"levelo://app?vid=6d7cb14e-d5bf-48e2-822f-140225e1bac9","ios":"levelo://app?vid=6d7cb14e-d5bf-48e2-822f-140225e1bac9"},"vehicle_type_id":"4","last_reported":1719353221,"current_range_meters":15200,"station_id":"ce4bhah2rcd13ifvqej0","pricing_plan_id":"cebpf4jnsgd1na2vs0mg"},{"bike_id":"277dbe4e-e4d1-4d81-8619-f14ce9b5ef87","system_id":"levelo_inurba_marseille","lat":43.286961,"lon":5.373785,"is_reserved":false,"is_disabled":false,"rental_uris":{"android":"levelo://app?vid=277dbe4e-e4d1-4d81-8619-f14ce9b5ef87","ios":"levelo://app?vid=277dbe4e-e4d1-4d81-8619-f14ce9b5ef87"},"vehicle_type_id":"4","last_reported":1719353221,"current_range_meters":7600,"station_id":"ce4bh3p2rcd13ifvqdq0","pricing_plan_id":"cebpf4jnsgd1na2vs0mg"},{"bike_id":"935401f8-85b6-4ce6-8843-d2531e894295","system_id":"levelo_inurba_marseille","lat":43.29871,"lon":5.39734,"is_reserved":false,"is_disabled":false,"rental_uris":{"android":"levelo://app?vid=935401f8-85b6-4ce6-8843-d2531e894295","ios":"levelo://app?vid=935401f8-85b6-4ce6-8843-d2531e894295"},"vehicle_type_id":"4","last_reported":1719353221,"current_range_meters":27600,"station_id":"ce4bh0h2rcd13ifvqd50","pricing_plan_id":"cebpf4jnsgd1na2vs0mg"},{"bike_id":"f3951455-3009-48d3-85ee-d5febb93e3f2","system_id":"levelo_inurba_marseille","lat":43.286593,"lon":5.363346,"is_reserved":false,"is_disabled":false,"rental_uris":{"android":"levelo://app?vid=f3951455-3009-48d3-85ee-d5febb93e3f2","ios":"levelo://app?vid=f3951455-3009-48d3-85ee-d5febb93e3f2"},"vehicle_type_id":"4","last_reported":1719353221,"current_range_meters":16000,"station_id":"ce4bhah2rcd13ifvqej0","pricing_plan_id":"cebpf4jnsgd1na2vs0mg"},{"bike_id":"6ecc65de-be7b-4a65-bf85-637f433a056f","system_id":"levelo_inurba_marseille","lat":43.286591,"lon":5.363346,"is_reserved":false,"is_disabled":false,"rental_uris":{"android":"levelo://app?vid=6ecc65de-be7b-4a65-bf85-637f433a056f","ios":"levelo://app?vid=6ecc65de-be7b-4a65-bf85-637f433a056f"},"vehicle_type_id":"4","last_reported":1719353221,"current_range_meters":24000,"station_id":"ce4bhah2rcd13ifvqej0","pricing_plan_id":"cebpf4jnsgd1na2vs0mg"},{"bike_id":"7e679555-2786-4dd6-b0e1-d729e6f01f97","system_id":"levelo_inurba_marseille","lat":43.298681,"lon":5.397225,"is_reserved":false,"is_disabled":false,"rental_uris":{"android":"levelo://app?vid=7e679555-2786-4dd6-b0e1-d729e6f01f97","ios":"levelo://app?vid=7e679555-2786-4dd6-b0e1-d729e6f01f97"},"vehicle_type_id":"4","last_reported":1719353221,"current_range_meters":20000,"station_id":"ce4bh0h2rcd13ifvqd50","pricing_plan_id":"cebpf4jnsgd1na2vs0mg"},{"bike_id":"2c638ab5-9853-46de-8fb6-78132a23a47d","system_id":"levelo_inurba_marseille","lat":43.286961,"lon":5.373785,"is_reserved":false,"is_disabled":false,"rental_uris":{"android":"levelo://app?vid=2c638ab5-9853-46de-8fb6-78132a23a47d","ios":"levelo://app?vid=2c638ab5-9853-46de-8fb6-78132a23a47d"},"vehicle_type_id":"4","last_reported":1719353221,"current_range_meters":24000,"station_id":"ce4bh3p2rcd13ifvqdq0","pricing_plan_id":"cebpf4jnsgd1na2vs0mg"},{"bike_id":"63357f15-5aa9-4edb-89ba-e02b57372f45","system_id":"levelo_inurba_marseille","lat":43.298681,"lon":5.397225,"is_reserved":false,"is_disabled":false,"rental_uris":{"android":"levelo://app?vid=63357f15-5aa9-4edb-89ba-e02b57372f45","ios":"levelo://app?vid=63357f15-5aa9-4edb-89ba-e02b57372f45"},"vehicle_type_id":"4","last_reported":1719353221,"current_range_meters":26800,"station_id":"ce4bh0h2rcd13ifvqd50","pricing_plan_id":"cebpf4jnsgd1na2vs0mg"},{"bike_id":"f293968d-746f-413d-bb67-23610b0f6229","system_id":"levelo_inurba_marseille","lat":43.286593,"lon":5.363346,"is_reserved":false,"is_disabled":false,"rental_uris":{"android":"levelo://app?vid=f293968d-746f-413d-bb67-23610b0f6229","ios":"levelo://app?vid=f293968d-746f-413d-bb67-23610b0f6229"},"vehicle_type_id":"4","last_reported":1719353221,"current_range_meters":26800,"station_id":"ce4bhah2rcd13ifvqej0","pricing_plan_id":"cebpf4jnsgd1na2vs0mg"},{"bike_id":"3faf5b3d-c463-4417-bdff-50d710965ca4","system_id":"levelo_inurba_marseille","lat":43.286591,"lon":5.363346,"is_reserved":false,"is_disabled":false,"rental_uris":{"android":"levelo://app?vid=3faf5b3d-c463-4417-bdff-50d710965ca4","ios":"levelo://app?vid=3faf5b3d-c463-4417-bdff-50d710965ca4"},"vehicle_type_id":"4","last_reported":1719353221,"current_range_meters":15200,"station_id":"ce4bhah2rcd13ifvqej0","pricing_plan_id":"cebpf4jnsgd1na2vs0mg"},{"bike_id":"9197da40-16ca-438d-8608-1c5359165510","system_id":"levelo_inurba_marseille","lat":43.286593,"lon":5.363346,"is_reserved":false,"is_disabled":false,"rental_uris":{"android":"levelo://app?vid=9197da40-16ca-438d-8608-1c5359165510","ios":"levelo://app?vid=9197da40-16ca-438d-8608-1c5359165510"},"vehicle_type_id":"4","last_reported":1719353221,"current_range_meters":30400,"station_id":"ce4bhah2rcd13ifvqej0","pricing_plan_id":"cebpf4jnsgd1na2vs0mg"},{"bike_id":"b7b5fc6a-2ba2-489b-a832-07b2dddc688b","system_id":"levelo_inurba_marseille","lat":43.286984,"lon":5.373913,"is_reserved":false,"is_disabled":false,"rental_uris":{"android":"levelo://app?vid=b7b5fc6a-2ba2-489b-a832-07b2dddc688b","ios":"levelo://app?vid=b7b5fc6a-2ba2-489b-a832-07b2dddc688b"},"vehicle_type_id":"4","last_reported":1719353221,"current_range_meters":22400,"station_id":"ce4bh3p2rcd13ifvqdq0","pricing_plan_id":"cebpf4jnsgd1na2vs0mg"},{"bike_id":"b191e467-025a-448c-8b5c-85e0eb14ee72","system_id":"levelo_inurba_marseille","lat":43.286961,"lon":5.373785,"is_reserved":false,"is_disabled":false,"rental_uris":{"android":"levelo://app?vid=b191e467-025a-448c-8b5c-85e0eb14ee72","ios":"levelo://app?vid=b191e467-025a-448c-8b5c-85e0eb14ee72"},"vehicle_type_id":"4","last_reported":1719353221,"current_range_meters":10800,"station_id":"ce4bh3p2rcd13ifvqdq0","pricing_plan_id":"cebpf4jnsgd1na2vs0mg"},{"bike_id":"a222b7ff-c885-494b-abc5-acd2a1d2dcc8","system_id":"levelo_inurba_marseille","lat":43.295196,"lon":5.39397,"is_reserved":false,"is_disabled":false,"rental_uris":{"android":"levelo://app?vid=a222b7ff-c885-494b-abc5-acd2a1d2dcc8","ios":"levelo://app?vid=a222b7ff-c885-494b-abc5-acd2a1d2dcc8"},"vehicle_type_id":"4","last_reported":1719353221,"current_range_meters":0,"station_id":"ce4bh292rcd13ifvqdf0","pricing_plan_id":"cebpf4jnsgd1na2vs0mg"},{"bike_id":"79f59387-c26d-4f08-a43d-1531a07bfedd","system_id":"levelo_inurba_marseille","lat":43.28616,"lon":5.37057,"is_reserved":false,"is_disabled":false,"rental_uris":{"android":"levelo://app?vid=79f59387-c26d-4f08-a43d-1531a07bfedd","ios":"levelo://app?vid=79f59387-c26d-4f08-a43d-1531a07bfedd"},"vehicle_type_id":"4","last_reported":1719353221,"current_range_meters":31200,"station_id":"ce4bht12rcd13ifvqi60","pricing_plan_id":"cebpf4jnsgd1na2vs0mg"},{"bike_id":"910a04b2-7f54-4645-9cba-41cc5a7a342b","system_id":"levelo_inurba_marseille","lat":43.286137,"lon":5.370593,"is_reserved":false,"is_disabled":false,"rental_uris":{"android":"levelo://app?vid=910a04b2-7f54-4645-9cba-41cc5a7a342b","ios":"levelo://app?vid=910a04b2-7f54-4645-9cba-41cc5a7a342b"},"vehicle_type_id":"4","last_reported":1719353221,"current_range_meters":30800,"station_id":"ce4bht12rcd13ifvqi60","pricing_plan_id":"cebpf4jnsgd1na2vs0mg"},