{"last_updated":1749603323,"ttl":60,"version":"2.2","data":{"bikes":[{"bike_id":"dd67f108-95bf-4a1e-b619-4bb77e009c5b","system_id":"levelo_inurba_marseille","lat":43.29097,"lon":5.427,"is_reserved":false,"is_disabled":false,"rental_uris":{"android":"levelo://app?vid=dd67f108-95bf-4a1e-b619-4bb77e009c5b","ios":"levelo://app?vid=dd67f108-95bf-4a1e-b619-4bb77e009c5b"},"vehicle_type_id":"4","last_reported":1749603323,"current_range_meters":3600,"station_id":"","pricing_plan_id":"cebpf4jnsgd1na2vs0mg"},{"bike_id":"a82b6895-358a-426a-ab44-de0487817b5d","system_id":"levelo_inurba_marseille","lat":43.323327,"lon":5.406299,"is_reserved":false,"is_disabled":false,"rental_uris":{"android":"levelo://app?vid=a82b6895-358a-426a-ab44-de0487817b5d","ios":"levelo://app?vid=a82b6895-358a-426a-ab44-de0487817b5d"},"vehicle_type_id":"4","last_reported":1749603323,"current_range_meters":12400,"station_id":"ce4bhq92rcd13ifvqhjg","pricing_plan_id":"cebpf4jnsgd1na2vs0mg"},{"bike_id":"c555f70c-866d-4d56-b60f-fdd3434007cf","system_id":"levelo_inurba_marseille","lat":43.291,"lon":5.38155,"is_reserved":false,"is_disabled":true,"rental_uris":{"android":"levelo://app?vid=c555f70c-866d-4d56-b60f-fdd3434007cf","ios":"levelo://app?vid=c555f70c-866d-4d56-b60f-fdd3434007cf"},"vehicle_type_id":"4","last_reported":1749603323,"current_range_meters":4800,"station_id":"ce4bh512rcd13ifvqe2g","pricing_plan_id":"cebpf4jnsgd1na2vs0mg"},{"bike_id":"5280ee18-62aa-46f3-a8c7-bf82618b39b5","system_id":"levelo_inurba_marseille","lat":43.27053,"lon":5.40262,"is_reserved":false,"is_disabled":false,"rental_uris":{"android":"levelo://app?vid=5280ee18-62aa-46f3-a8c7-bf82618b39b5","ios":"levelo://app?vid=5280ee18-62aa-46f3-a8c7-bf82618b39b5"},"vehicle_type_id":"4","last_reported":1749603323,"current_range_meters":5600,"station_id":"ce4bhk92rcd13ifvqgc0","pricing_plan_id":"cebpf4jnsgd1na2vs0mg"},{"bike_id":"33e46029-55e9-44bf-9d19-d05b961e9471","system_id":"levelo_inurba_marseille","lat":43.2804,"lon":5.3696,"is_reserved":false,"is_disabled":false,"rental_uris":{"android":"levelo://app?vid=33e46029-55e9-44bf-9d19-d05b961e9471","ios":"levelo://app?vid=33e46029-55e9-44bf-9d19-d05b961e9471"},"vehicle_type_id":"4","last_reported":1749603323,"current_range_meters":6000,"station_id":"ce4bha12rcd13ifvqef0","pricing_plan_id":"cebpf4jnsgd1na2vs0mg"},{"bike_id":"88113087-f0bb-4133-ab2a-bbfce1f3d99a","system_id":"levelo_inurba_marseille","lat":43.31699,"lon":5.40482,"is_reserved":false,"is_disabled":true,"rental_uris":{"android":"levelo://app?vid=88113087-f0bb-4133-ab2a-bbfce1f3d99a","ios":"levelo://app?vid=88113087-f0bb-4133-ab2a-bbfce1f3d99a"},"vehicle_type_id":"4","last_reported":1749603323,"current_range_meters":6000,"station_id":"ce4bh012rcd13ifvqd00","pricing_plan_id":"cebpf4jnsgd1na2vs0mg"},{"bike_id":"4bbf18c4-952a-4eb4-8649-6803f058eaa5","system_id":"levelo_inurba_marseille","lat":43.331964,"lon":5.4289,"is_reserved":false,"is_disabled":false,"rental_uris":{"android":"levelo://app?vid=4bbf18c4-952a-4eb4-8649-6803f058eaa5","ios":"levelo://app?vid=4bbf18c4-952a-4eb4-8649-6803f058eaa5"},"vehicle_type_id":"4","last_reported":1749603323,"current_range_meters":6000,"station_id":"","pricing_plan_id":"cebpf4jnsgd1na2vs0mg"},{"bike_id":"076b5781-da6d-4df3-8708-1c305959a7c9","system_id":"levelo_inurba_marseille","lat":43.30324,"lon":5.40451,"is_reserved":false,"is_disabled":false,"rental_uris":{"android":"levelo://app?vid=076b5781-da6d-4df3-8708-1c305959a7c9","ios":"levelo://app?vid=076b5781-da6d-4df3-8708-1c305959a7c9"},"vehicle_type_id":"4","last_reported":1749603323,"current_range_meters":6000,"station_id":"ce4bh012rcd13ifvqd10","pricing_plan_id":"cebpf4jnsgd1na2vs0mg"},{"bike_id":"0ded99b9-4cdf-424a-98e9-ce0ae56b8c49","system_id":"levelo_inurba_marseille","lat":43.28396,"lon":5.37546,"is_reserved":false,"is_disabled":false,"rental_uris":{"android":"levelo://app?vid=0ded99b9-4cdf-424a-98e9-ce0ae56b8c49","ios":"levelo://app?vid=0ded99b9-4cdf-424a-98e9-ce0ae56b8c49"},"vehicle_type_id":"4","last_reported":1749603323,"current_range_meters":6400,"station_id":"ce4bh412rcd13ifvqds0","pricing_plan_id":"cebpf4jnsgd1na2vs0mg"},{"bike_id":"032a6e18-5dbb-4c70-9980-99b77182b61b","system_id":"levelo_inurba_marseille","lat":43.30806,"lon":5.38168,"is_reserved":false,"is_disabled":false,"rental_uris":{"android":"levelo://app?vid=032a6e18-5dbb-4c70-9980-99b77182b61b","ios":"levelo://app?vid=032a6e18-5dbb-4c70-9980-99b77182b61b"},"vehicle_type_id":"4","last_reported":1749603323,"current_range_meters":6400,"station_id":"ce4bgt12rcd13ifvqce0","pricing_plan_id":"cebpf4jnsgd1na2vs0mg"},{"bike_id":"783fb3e4-49e0-49bd-a00e-3b817dfa3d18","system_id":"levelo_inurba_marseille","lat":43.31484,"lon":5.37321,"is_reserved":false,"is_disabled":false,"rental_uris":{"android":"levelo://app?vid=783fb3e4-49e0-49bd-a00e-3b817dfa3d18","ios":"levelo://app?vid=783fb3e4-49e0-49bd-a00e-3b817dfa3d18"},"vehicle_type_id":"4","last_reported":1749603323,"current_range_meters":6800,"station_id":"ce4bgt12rcd13ifvqcd0","pricing_plan_id":"cebpf4jnsgd1na2vs0mg"},{"bike_id":"3924f8b3-f13b-4c6d-bf0e-03aef010c488","system_id":"levelo_inurba_marseille","lat":43.31481,"lon":5.373034,"is_reserved":false,"is_disabled":false,"rental_uris":{"android":"levelo://app?vid=3924f8b3-f13b-4c6d-bf0e-03aef010c488","ios":"levelo://app?vid=3924f8b3-f13b-4c6d-bf0e-03aef010c488"},"vehicle_type_id":"4","last_reported":1749603323,"current_range_meters":7200,"station_id":"ce4bgt12rcd13ifvqcd0","pricing_plan_id":"cebpf4jnsgd1na2vs0mg"},{"bike_id":"c480b01d-e74a-4e3d-8514-9b730d6c8c09","system_id":"levelo_inurba_marseille","lat":43.28715,"lon":5.39997,"is_reserved":false,"is_disabled":false,"rental_uris":{"android":"levelo://app?vid=c480b01d-e74a-4e3d-8514-9b730d6c8c09","ios":"levelo://app?vid=c480b01d-e74a-4e3d-8514-9b730d6c8c09"},"vehicle_type_id":"4","last_reported":1749603323,"current_range_meters":7200,"station_id":"ce4bho92rcd13ifvqh3g","pricing_plan_id":"cebpf4jnsgd1na2vs0mg"},{"bike_id":"33a7407a-f9ba-430d-abc6-01fe5e60108f","system_id":"levelo_inurba_marseille","lat":43.286884,"lon":5.400802,"is_reserved":false,"is_disabled":false,"rental_uris":{"android":"levelo://app?vid=33a7407a-f9ba-430d-abc6-01fe5e60108f","ios":"levelo://app?vid=33a7407a-f9ba-430d-abc6-01fe5e60108f"},"vehicle_type_id":"4","last_reported":1749603323,"current_range_meters":7200,"station_id":"","pricing_plan_id":"cebpf4jnsgd1na2vs0mg"},{"bike_id":"49938379-7218-4c9f-884c-7e199e43a101","system_id":"levelo_inurba_marseille","lat":43.31694,"lon":5.40471,"is_reserved":false,"is_disabled":false,"rental_uris":{"android":"levelo://app?vid=49938379-7218-4c9f-884c-7e199e43a101","ios":"levelo://app?vid=49938379-7218-4c9f-884c-7e199e43a101"},"vehicle_type_id":"4","last_reported":1749603323,"current_range_meters":8000,"station_id":"ce4bh012rcd13ifvqd00","pricing_plan_id":"cebpf4jnsgd1na2vs0mg"},{"bike_id":"8aaf160b-5145-4216-8d8a-dbabf43143b3","system_id":"levelo_inurba_marseille","lat":43.31165,"lon":5.38739,"is_reserved":false,"is_disabled":false,"rental_uris":{"android":"levelo://app?vid=8aaf160b-5145-4216-8d8a-dbabf43143b3","ios":"levelo://app?vid=8aaf160b-5145-4216-8d8a-dbabf43143b3"},"vehicle_type_id":"4","last_reported":1749603323,"current_range_meters":8000,"station_id":"ce4bgv12rcd13ifvqcp0","pricing_plan_id":"cebpf4jnsgd1na2vs0mg"},{"bike_id":"2d6c2d8f-e27c-4623-ad51-01be29de4af7","system_id":"levelo_inurba_marseille","lat":43.27942,"lon":5.41046,"is_reserved":false,"is_disabled":false,"rental_uris":{"android":"levelo://app?vid=2d6c2d8f-e27c-4623-ad51-01be29de4af7","ios":"levelo://app?vid=2d6c2d8f-e27c-4623-ad51-01be29de4af7"},"vehicle_type_id":"4","last_reported":1749603323,"current_range_meters":8000,"station_id":"ce4bhnp2rcd13ifvqh0g","pricing_plan_id":"cebpf4jnsgd1na2vs0mg"},{"bike_id":"b1e81a2d-39af-4690-852c-a2189509d737","system_id":"levelo_inurba_marseille","lat":43.30638,"lon":5.40075,"is_reserved":false,"is_disabled":false,"rental_uris":{"android":"levelo://app?vid=b1e81a2d-39af-4690-852c-a2189509d737","ios":"levelo://app?vid=b1e81a2d-39af-4690-852c-a2189509d737"},"vehicle_type_id":"4","last_reported":1749603323,"current_range_meters":8400,"station_id":"ce4bh112rcd13ifvqda0","pricing_plan_id":"cebpf4jnsgd1na2vs0mg"},{"bike_id":"b6285f6b-e9e7-470d-9b6d-1afe99ab71bf","system_id":"levelo_inurba_marseille","lat":43.26186,"lon":5.4208,"is_reserved":false,"is_disabled":false,"rental_uris":{"android":"levelo://app?vid=b6285f6b-e9e7-470d-9b6d-1afe99ab71bf","ios":"levelo://app?vid=b6285f6b-e9e7-470d-9b6d-1afe99ab71bf"},"vehicle_type_id":"4","last_reported":1749603323,"current_range_meters":8400,"station_id":"","pricing_plan_id":"cebpf4jnsgd1na2vs0mg"},{"bike_id":"3d59d2ec-b59a-43e8-abae-40ac02fdcdb8","system_id":"levelo_inurba_marseille","lat":43.295525,"lon":5.422799,"is_reserved":false,"is_disabled":false,"rental_uris":{"android":"levelo://app?vid=3d59d2ec-b59a-43e8-abae-40ac02fdcdb8","ios":"levelo://app?vid=3d59d2ec-b59a-43e8-abae-40ac02fdcdb8"},"vehicle_type_id":"4","last_reported":1749603323,"current_range_meters":8400,"station_id":"ce4bhph2rcd13ifvqhdg","pricing_plan_id":"cebpf4jnsgd1na2vs0mg"},{"bike_id":"39d32260-51d5-455a-ba53-6471389bd255","system_id":"levelo_inurba_marseille","lat":43.31977,"lon":5.37613,"is_reserved":false,"is_disabled":false,"rental_uris":{"android":"levelo://app?vid=39d32260-51d5-455a-ba53-6471389bd255","ios":"levelo://app?vid=39d32260-51d5-455a-ba53-6471389bd255"},"vehicle_type_id":"4","last_reported":1749603323,"current_range_meters":8400,"station_id":"","pricing_plan_id":"cebpf4jnsgd1na2vs0mg"},{"bike_id":"f2dbf428-afa2-41d8-bcf4-ffd85e948536","system_id":"levelo_inurba_marseille","lat":43.31089,"lon":5.38352,"is_reserved":false,"is_disabled":false,"rental_uris":{"android":"levelo://app?vid=f2dbf428-afa2-41d8-bcf4-ffd85e948536","ios":"levelo://app?vid=f2dbf428-afa2-41d8-bcf4-ffd85e948536"},"vehicle_type_id":"4","last_reported":1749603323,"current_range_meters":8400,"station_id":"ce4bgv92rcd13ifvqcr0","pricing_plan_id":"cebpf4jnsgd1na2vs0mg"},{"bike_id":"796770a8-91f4-4fb9-ab55-d72970417245","system_id":"levelo_inurba_marseille","lat":43.28697,"lon":5.39999,"is_reserved":false,"is_disabled":false,"rental_uris":{"android":"levelo://app?vid=796770a8-91f4-4fb9-ab55-d72970417245","ios":"levelo://app?vid=796770a8-91f4-4fb9-ab55-d72970417245"},"vehicle_type_id":"4","last_reported":1749603323,"current_range_meters":8400,"station_id":"ce4bho92rcd13ifvqh3g","pricing_plan_id":"cebpf4jnsgd1na2vs0mg"},{"bike_id":"89751972-2148-47e8-a9f5-6238a039cba7","system_id":"levelo_inurba_marseille","lat":43.30546,"lon":5.36539,"is_reserved":false,"is_disabled":true,"rental_uris":{"android":"levelo://app?vid=89751972-2148-47e8-a9f5-6238a039cba7","ios":"levelo://app?vid=89751972-2148-47e8-a9f5-6238a039cba7"},"vehicle_type_id":"4","last_reported":1749603323,"current_range_meters":8400,"station_id":"ce4bgs12rcd13ifvqcag","pricing_plan_id":"cebpf4jnsgd1na2vs0mg"},{"bike_id":"63b5796e-e5fa-4c08-b52b-4ffb68437406","system_id":"levelo_inurba_marseille","lat":43.3153,"lon":5.38387,"is_reserved":false,"is_disabled":false,"rental_uris":{"android":"levelo://app?vid=63b5796e-e5fa-4c08-b52b-4ffb68437406","ios":"levelo://app?vid=63b5796e-e5fa-4c08-b52b-4ffb68437406"},"vehicle_type_id":"4","last_reported":1749603323,"current_range_meters":8800,"station_id":"","pricing_plan_id":"cebpf4jnsgd1na2vs0mg"},{"bike_id":"66fac9ba-4e53-469d-8c0e-b15cb784136c","system_id":"levelo_inurba_marseille","lat":43.29068,"lon":5.37138,"is_reserved":false,"is_disabled":true,"rental_uris":{"android":"levelo://app?vid=66fac9ba-4e53-469d-8c0e-b15cb784136c","ios":"levelo://app?vid=66fac9ba-4e53-469d-8c0e-b15cb784136c"},"vehicle_type_id":"4","last_reported":1749603323,"current_range_meters":8800,"station_id":"ce4bh5p2rcd13ifvqe4g","pricing_plan_id":"cebpf4jnsgd1na2vs0mg"},{"bike_id":"381bbd8d-4642-44da-b7f4-6707e9272120","system_id":"levelo_inurba_marseille","lat":43.30873,"lon":5.39651,"is_reserved":false,"is_disabled":false,"rental_uris":{"android":"levelo://app?vid=381bbd8d-4642-44da-b7f4-6707e9272120","ios":"levelo://app?vid=381bbd8d-4642-44da-b7f4-6707e9272120"},"vehicle_type_id":"4","last_reported":1749603323,"current_range_meters":8800,"station_id":"ce4bh012rcd13ifvqcv0","pricing_plan_id":"cebpf4jnsgd1na2vs0mg"},{"bike_id":"01223f92-9a8a-44b1-a96e-0459a65a2d6e","system_id":"levelo_inurba_marseille","lat":43.30922,"lon":5.40165,"is_reserved":false,"is_disabled":false,"rental_uris":{"android":"levelo://app?vid=01223f92-9a8a-44b1-a96e-0459a65a2d6e","ios":"levelo://app?vid=01223f92-9a8a-44b1-a96e-0459a65a2d6e"},"vehicle_type_id":"4","last_reported":1749603323,"current_range_meters":8800,"station_id":"ce4bgvp2rcd13ifvqct0","pricing_plan_id":"cebpf4jnsgd1na2vs0mg"},{"bike_id":"955c930c-c336-417f-bb8a-3d2b0a0f3d0c","system_id":"levelo_inurba_marseille","lat":43.278363,"lon":5.391922,"is_reserved":false,"is_disabled":true,"rental_uris":{"android":"levelo://app?vid=955c930c-c336-417f-bb8a-3d2b0a0f3d0c","ios":"levelo://app?vid=955c930c-c336-417f-bb8a-3d2b0a0f3d0c"},"vehicle_type_id":"4","last_reported":1749603323,"current_range_meters":8800,"station_id":"ce4bhjp2rcd13ifvqga0","pricing_plan_id":"cebpf4jnsgd1na2vs0mg"},{"bike_id":"5e6b1e47-16fd-488b-b7eb-507767b76ee6","system_id":"levelo_inurba_marseille","lat":43.26822,"lon":5.39077,"is_reserved":false,"is_disabled":false,"rental_uris":{"android":"levelo://app?vid=5e6b1e47-16fd-488b-b7eb-507767b76ee6","ios":"levelo://app?vid=5e6b1e47-16fd-488b-b7eb-507767b76ee6"},"vehicle_type_id":"4","last_reported":1749603323,"current_range_meters":8800,"station_id":"","pricing_plan_id":"cebpf4jnsgd1na2vs0mg"},{"bike_id":"1b1beb17-e69e-45f4-833c-c85032cb1db7","system_id":"levelo_inurba_marseille","lat":43.29523,"lon":5.39422,"is_reserved":false,"is_disabled":false,"rental_uris":{"android":"levelo://app?vid=1b1beb17-e69e-45f4-833c-c85032cb1db7","ios":"levelo://app?vid=1b1beb17-e69e-45f4-833c-c85032cb1db7"},"vehicle_type_id":"4","last_reported":1749603323,"current_range_meters":9200,"station_id":"ce4bh292rcd13ifvqdf0","pricing_plan_id":"cebpf4jnsgd1na2vs0mg"},{"bike_id":"a81ca20d-3079-4982-aa6a-9b8ff70f8617","system_id":"levelo_inurba_marseille","lat":43.3138,"lon":5.36707,"is_reserved":false,"is_disabled":false,"rental_uris":{"android":"levelo://app?vid=a81ca20d-3079-4982-aa6a-9b8ff70f8617","ios":"levelo://app?vid=a81ca20d-3079-4982-aa6a-9b8ff70f8617"},"vehicle_type_id":"4","last_reported":1749603323,"current_range_meters":9200,"station_id":"ce4bgr92rcd13ifvqc6g","pricing_plan_id":"cebpf4jnsgd1na2vs0mg"},{"bike_id":"c96defc4-7d86-4a0a-9944-e593e4547d0e","system_id":"levelo_inurba_marseille","lat":43.32333,"lon":5.40614,"is_reserved":false,"is_disabled":false,"rental_uris":{"android":"levelo://app?vid=c96defc4-7d86-4a0a-9944-e593e4547d0e","ios":"levelo://app?vid=c96defc4-7d86-4a0a-9944-e593e4547d0e"},"vehicle_type_id":"4","last_reported":1749603323,"current_range_meters":9200,"station_id":"ce4bhq92rcd13ifvqhjg","pricing_plan_id":"cebpf4jnsgd1na2vs0mg"},{"bike_id":"7fff9681-113f-4808-9b13-4b12e7d19f2f","system_id":"levelo_inurba_marseille","lat":43.30549,"lon":5.38433,"is_reserved":false,"is_disabled":false,"rental_uris":{"android":"levelo://app?vid=7fff9681-113f-4808-9b13-4b12e7d19f2f","ios":"levelo://app?vid=7fff9681-113f-4808-9b13-4b12e7d19f2f"},"vehicle_type_id":"4","last_reported":1749603323,"current_range_meters":9200,"station_id":"ce4bgg92rcd13ifvqb30","pricing_plan_id":"cebpf4jnsgd1na2vs0mg"},{"bike_id":"6890b9e2-87e1-40b6-9e0f-8af99f456400","system_id":"levelo_inurba_marseille","lat":43.29621,"lon":5.38104,"is_reserved":false,"is_disabled":true,"rental_uris":{"android":"levelo://app?vid=6890b9e2-87e1-40b6-9e0f-8af99f456400","ios":"levelo://app?vid=6890b9e2-87e1-40b6-9e0f-8af99f456400"},"vehicle_type_id":"4","last_reported":1749603323,"current_range_meters":9200,"station_id":"ce4bgl12rcd13ifvqbo0","pricing_plan_id":"cebpf4jnsgd1na2vs0mg"},{"bike_id":"1ab048e4-d16d-4228-b804-d09de6f24b1e","system_id":"levelo_inurba_marseille","lat":43.28682,"lon":5.3742,"is_reserved":false,"is_disabled":true,"rental_uris":{"android":"levelo://app?vid=1ab048e4-d16d-4228-b804-d09de6f24b1e","ios":"levelo://app?vid=1ab048e4-d16d-4228-b804-d09de6f24b1e"},"vehicle_type_id":"4","last_reported":1749603323,"current_range_meters":9200,"station_id":"ce4bh3p2rcd13ifvqdq0","pricing_plan_id":"cebpf4jnsgd1na2vs0mg"},{"bike_id":"0c2648f4-0736-4cb5-a6c7-3bb452ef0a5b","system_id":"levelo_inurba_marseille","lat":43.29218,"lon":5.40967,"is_reserved":false,"is_disabled":false,"rental_uris":{"android":"levelo://app?vid=0c2648f4-0736-4cb5-a6c7-3bb452ef0a5b","ios":"levelo://app?vid=0c2648f4-0736-4cb5-a6c7-3bb452ef0a5b"},"vehicle_type_id":"4","last_reported":1749603323,"current_range_meters":9200,"station_id":"","pricing_plan_id":"cebpf4jnsgd1na2vs0mg"},{"bike_id":"125bd855-10ed-4a56-9707-403f3a8b58a0","system_id":"levelo_inurba_marseille","lat":43.33062,"lon":5.40513,"is_reserved":false,"is_disabled":false,"rental_uris":{"android":"levelo://app?vid=125bd855-10ed-4a56-9707-403f3a8b58a0","ios":"levelo://app?vid=125bd855-10ed-4a56-9707-403f3a8b58a0"},"vehicle_type_id":"4","last_reported":1749603323,"current_range_meters":9200,"station_id":"","pricing_plan_id":"cebpf4jnsgd1na2vs0mg"},{"bike_id":"a2bcab2a-6bfc-4b2e-8edc-c0755f556489","system_id":"levelo_inurba_marseille","lat":43.28277,"lon":5.35074,"is_reserved":false,"is_disabled":true,"rental_uris":{"android":"levelo://app?vid=a2bcab2a-6bfc-4b2e-8edc-c0755f556489","ios":"levelo://app?vid=a2bcab2a-6bfc-4b2e-8edc-c0755f556489"},"vehicle_type_id":"4","last_reported":1749603323,"current_range_meters":9600,"station_id":"ce4bhbp2rcd13ifvqerg","pricing_plan_id":"cebpf4jnsgd1na2vs0mg"},{"bike_id":"b2b091c7-ef42-4c06-871f-fd9e224b498e","system_id":"levelo_inurba_marseille","lat":43.30921,"lon":5.40155,"is_reserved":false,"is_disabled":false,"rental_uris":{"android":"levelo://app?vid=b2b091c7-ef42-4c06-871f-fd9e224b498e","ios":"levelo://app?vid=b2b091c7-ef42-4c06-871f-fd9e224b498e"},"vehicle_type_id":"4","last_reported":1749603323,"current_range_meters":9600,"station_id":"ce4bgvp2rcd13ifvqct0","pricing_plan_id":"cebpf4jnsgd1na2vs0mg"},{"bike_id":"5b87aa1a-6c1c-4e2d-8a20-f8fa27a536c2","system_id":"levelo_inurba_marseille","lat":43.28415,"lon":5.37531,"is_reserved":false,"is_disabled":false,"rental_uris":{"android":"levelo://app?vid=5b87aa1a-6c1c-4e2d-8a20-f8fa27a536c2","ios":"levelo://app?vid=5b87aa1a-6c1c-4e2d-8a20-f8fa27a536c2"},"vehicle_type_id":"4","last_reported":1749603323,"current_range_meters":9600,"station_id":"ce4bh412rcd13ifvqds0","pricing_plan_id":"cebpf4jnsgd1na2vs0mg"},{"bike_id":"5077581b-cebb-46fc-ba69-4fa8272d4810","system_id":"levelo_inurba_marseille","lat":43.21365,"lon":5.3551,"is_reserved":false,"is_disabled":false,"rental_uris":{"android":"levelo://app?vid=5077581b-cebb-46fc-ba69-4fa8272d4810","ios":"levelo://app?vid=5077581b-cebb-46fc-ba69-4fa8272d4810"},"vehicle_type_id":"4","last_reported":1749603323,"current_range_meters":9600,"station_id":"","pricing_plan_id":"cebpf4jnsgd1na2vs0mg"},{"bike_id":"d042db43-6dd7-4686-a0ba-8d1198f85bc1","system_id":"levelo_inurba_marseille","lat":43.297677,"lon":5.380987,"is_reserved":false,"is_disabled":false,"rental_uris":{"android":"levelo://app?vid=d042db43-6dd7-4686-a0ba-8d1198f85bc1","ios":"levelo://app?vid=d042db43-6dd7-4686-a0ba-8d1198f85bc1"},"vehicle_type_id":"4","last_reported":1749603323,"current_range_meters":9600,"station_id":"ce4bgip2rcd13ifvqbb0","pricing_plan_id":"cebpf4jnsgd1na2vs0mg"},{"bike_id":"a679cb80-4242-4d18-a97e-ea4a60dc83be","system_id":"levelo_inurba_marseille","lat":43.32201,"lon":5.41319,"is_reserved":false,"is_disabled":false,"rental_uris":{"android":"levelo://app?vid=a679cb80-4242-4d18-a97e-ea4a60dc83be","ios":"levelo://app?vid=a679cb80-4242-4d18-a97e-ea4a60dc83be"},"vehicle_type_id":"4","last_reported":1749603323,"current_range_meters":9600,"station_id":"","pricing_plan_id":"cebpf4jnsgd1na2vs0mg"},{"bike_id":"247bf4d1-ea2b-4e09-b584-ac3f9a91ae37","system_id":"levelo_inurba_marseille","lat":43.308058,"lon":5.435256,"is_reserved":false,"is_disabled":false,"rental_uris":{"android":"levelo://app?vid=247bf4d1-ea2b-4e09-b584-ac3f9a91ae37","ios":"levelo://app?vid=247bf4d1-ea2b-4e09-b584-ac3f9a91ae37"},"vehicle_type_id":"4","last_reported":1749603323,"current_range_meters":9600,"station_id":"ce4bhph2rcd13ifvqheg","pricing_plan_id":"cebpf4jnsgd1na2vs0mg"},{"bike_id":"9a6e0bfd-8a08-48d8-8290-696a41db3865","system_id":"levelo_inurba_marseille","lat":43.28407,"lon":5.37526,"is_reserved":false,"is_disabled":false,"rental_uris":{"android":"levelo://app?vid=9a6e0bfd-8a08-48d8-8290-696a41db3865","ios":"levelo://app?vid=9a6e0bfd-8a08-48d8-8290-696a41db3865"},"vehicle_type_id":"4","last_reported":1749603323,"current_range_meters":9600,"station_id":"ce4bh412rcd13ifvqds0","pricing_plan_id":"cebpf4jnsgd1na2vs0mg"},{"bike_id":"2fb82a4e-0ee1-4839-87e1-0819fb18ed3d","system_id":"levelo_inurba_marseille","lat":43.27091,"lon":5.42284,"is_reserved":false,"is_disabled":true,"rental_uris":{"android":"levelo://app?vid=2fb82a4e-0ee1-4839-87e1-0819fb18ed3d","ios":"levelo://app?vid=2fb82a4e-0ee1-4839-87e1-0819fb18ed3d"},"vehicle_type_id":"4","last_reported":1749603323,"current_range_meters":9600,"station_id":"ce4bhk92rcd13ifvqgb0","pricing_plan_id":"cebpf4jnsgd1na2vs0mg"},{"bike_id":"df0bf95e-b0d2-446e-9481-f5d66e904f86","system_id":"levelo_inurba_marseille","lat":43.30918,"lon":5.40166,"is_reserved":false,"is_disabled":false,"rental_uris":{"android":"levelo://app?vid=df0bf95e-b0d2-446e-9481-f5d66e904f86","ios":"levelo://app?vid=df0bf95e-b0d2-446e-9481-f5d66e904f86"},"vehicle_type_id":"4","last_reported":1749603323,"current_range_meters":9600,"station_id":"ce4bgvp2rcd13ifvqct0","pricing_plan_id":"cebpf4jnsgd1na2vs0mg"},{"bike_id":"dd8b25c2-186e-4ca8-bd03-de83f1be4fc8","system_id":"levelo_inurba_marseille","lat":43.29604,"lon":5.37727,"is_reserved":false,"is_disabled":false,"rental_uris":{"android":"levelo://app?vid=dd8b25c2-186e-4ca8-bd03-de83f1be4fc8","ios":"levelo://app?vid=dd8b25c2-186e-4ca8-bd03-de83f1be4fc8"},"vehicle_type_id":"4","last_reported":1749603323,"current_range_meters":10000,"station_id":"ce4bgi92rcd13ifvqb90","pricing_plan_id":"cebpf4jnsgd1na2vs0mg"},{"bike_id":"e0a2e34e-2b02-4b57-a9de-ce9d6b17e761","system_id":"levelo_inurba_marseille","lat":43.31066,"lon":5.38342,"is_reserved":false,"is_disabled":false,"rental_uris":{"android":"levelo://app?vid=e0a2e34e-2b02-4b57-a9de-ce9d6b17e761","ios":"levelo://app?vid=e0a2e34e-2b02-4b57-a9de-ce9d6b17e761"},"vehicle_type_id":"4","last_reported":1749603323,"current_range_meters":10000,"station_id":"ce4bgv92rcd13ifvqcr0","pricing_plan_id":"cebpf4jnsgd1na2vs0mg"},{"bike_id":"29453fc9-b720-4b8b-b038-78f17aac8faf","system_id":"levelo_inurba_marseille","lat":43.27066,"lon":5.40257,"is_reserved":false,"is_disabled":true,"rental_uris":{"android":"levelo://app?vid=29453fc9-b720-4b8b-b038-78f17aac8faf","ios":"levelo://app?vid=29453fc9-b720-4b8b-b038-78f17aac8faf"},"vehicle_type_id":"4","last_reported":1749603323,"current_range_meters":10000,"station_id":"ce4bhk92rcd13ifvqgc0","pricing_plan_id":"cebpf4jnsgd1na2vs0mg"},{"bike_id":"5a8aebc1-4b9f-40cd-af06-b2c2750a7146","system_id":"levelo_inurba_marseille","lat":43.31748,"lon":5.39008,"is_reserved":false,"is_disabled":false,"rental_uris":{"android":"levelo://app?vid=5a8aebc1-4b9f-40cd-af06-b2c2750a7146","ios":"levelo://app?vid=5a8aebc1-4b9f-40cd-af06-b2c2750a7146"},"vehicle_type_id":"4","last_reported":1749603323,"current_range_meters":10000,"station_id":"ce4bhqp2rcd13ifvqhng","pricing_plan_id":"cebpf4jnsgd1na2vs0mg"},{"bike_id":"ea3aa8cc-3da5-4c9f-b785-438f25aae8ad","system_id":"levelo_inurba_marseille","lat":43.30923,"lon":5.40165,"is_reserved":false,"is_disabled":false,"rental_uris":{"android":"levelo://app?vid=ea3aa8cc-3da5-4c9f-b785-438f25aae8ad","ios":"levelo://app?vid=ea3aa8cc-3da5-4c9f-b785-438f25aae8ad"},"vehicle_type_id":"4","last_reported":1749603323,"current_range_meters":10800,"station_id":"ce4bgvp2rcd13ifvqct0","pricing_plan_id":"cebpf4jnsgd1na2vs0mg"},{"bike_id":"f5e7b4d1-016d-4e5c-bdea-6b4bae0120ac","system_id":"levelo_inurba_marseille","lat":43.25714,"lon":5.41116,"is_reserved":false,"is_disabled":false,"rental_uris":{"android":"levelo://app?vid=f5e7b4d1-016d-4e5c-bdea-6b4bae0120ac","ios":"levelo://app?vid=f5e7b4d1-016d-4e5c-bdea-6b4bae0120ac"},"vehicle_type_id":"4","last_reported":1749603323,"current_range_meters":10800,"station_id":"ce4bhkp2rcd13ifvqgd0","pricing_plan_id":"cebpf4jnsgd1na2vs0mg"},{"bike_id":"ca27e12a-1f2d-4cf2-be29-12a2b9ff1547","system_id":"levelo_inurba_marseille","lat":43.31713,"lon":5.4242,"is_reserved":false,"is_disabled":false,"rental_uris":{"android":"levelo://app?vid=ca27e12a-1f2d-4cf2-be29-12a2b9ff1547","ios":"levelo://app?vid=ca27e12a-1f2d-4cf2-be29-12a2b9ff1547"},"vehicle_type_id":"4","last_reported":1749603323,"current_range_meters":10800,"station_id":"ce4bhp92rcd13ifvqhbg","pricing_plan_id":"cebpf4jnsgd1na2vs0mg"},{"bike_id":"187b0a7b-e256-4c19-9794-bb250a6c5653","system_id":"levelo_inurba_marseille","lat":43.31862,"lon":5.37951,"is_reserved":false,"is_disabled":false,"rental_uris":{"android":"levelo://app?vid=187b0a7b-e256-4c19-9794-bb250a6c5653","ios":"levelo://app?vid=187b0a7b-e256-4c19-9794-bb250a6c5653"},"vehicle_type_id":"4","last_reported":1749603323,"current_range_meters":10800,"station_id":"","pricing_plan_id":"cebpf4jnsgd1na2vs0mg"},{"bike_id":"357ba489-6fde-4265-a087-406fcaeb1fac","system_id":"levelo_inurba_marseille","lat":43.29248,"lon":5.40173,"is_reserved":false,"is_disabled":false,"rental_uris":{"android":"levelo://app?vid=357ba489-6fde-4265-a087-406fcaeb1fac","ios":"levelo://app?vid=357ba489-6fde-4265-a087-406fcaeb1fac"},"vehicle_type_id":"4","last_reported":1749603323,"current_range_meters":11200,"station_id":"ce4bh312rcd13ifvqdk0","pricing_plan_id":"cebpf4jnsgd1na2vs0mg"},{"bike_id":"092dcad3-5c24-489f-9804-9bda75f06bc8","system_id":"levelo_inurba_marseille","lat":43.30933,"lon":5.40167,"is_reserved":false,"is_disabled":false,"rental_uris":{"android":"levelo://app?vid=092dcad3-5c24-489f-9804-9bda75f06bc8","ios":"levelo://app?vid=092dcad3-5c24-489f-9804-9bda75f06bc8"},"vehicle_type_id":"4","last_reported":1749603323,"current_range_meters":11200,"station_id":"ce4bgvp2rcd13ifvqct0","pricing_plan_id":"cebpf4jnsgd1na2vs0mg"},{"bike_id":"70a1f7d6-d4e4-425e-8558-e073cabd3caf","system_id":"levelo_inurba_marseille","lat":43.302559,"lon":5.400499,"is_reserved":false,"is_disabled":false,"rental_uris":{"android":"levelo://app?vid=70a1f7d6-d4e4-425e-8558-e073cabd3caf","ios":"levelo://app?vid=70a1f7d6-d4e4-425e-8558-e073cabd3caf"},"vehicle_type_id":"4","last_reported":1749603323,"current_range_meters":11200,"station_id":"ce4bgvh2rcd13ifvqcs0","pricing_plan_id":"cebpf4jnsgd1na2vs0mg"},{"bike_id":"f1fb07d1-58fc-4a98-8566-d35611570f9f","system_id":"levelo_inurba_marseille","lat":43.31063,"lon":5.38353,"is_reserved":false,"is_disabled":false,"rental_uris":{"android":"levelo://app?vid=f1fb07d1-58fc-4a98-8566-d35611570f9f","ios":"levelo://app?vid=f1fb07d1-58fc-4a98-8566-d35611570f9f"},"vehicle_type_id":"4","last_reported":1749603323,"current_range_meters":11200,"station_id":"ce4bgv92rcd13ifvqcr0","pricing_plan_id":"cebpf4jnsgd1na2vs0mg"},{"bike_id":"ab5d796b-6f87-4b6e-a5bd-6ac051fcacd1","system_id":"levelo_inurba_marseille","lat":43.32492,"lon":5.36573,"is_reserved":false,"is_disabled":false,"rental_uris":{"android":"levelo://app?vid=ab5d796b-6f87-4b6e-a5bd-6ac051fcacd1","ios":"levelo://app?vid=ab5d796b-6f87-4b6e-a5bd-6ac051fcacd1"},"vehicle_type_id":"4","last_reported":1749603323,"current_range_meters":11200,"station_id":"ce4bhs12rcd13ifvqhvg","pricing_plan_id":"cebpf4jnsgd1na2vs0mg"},{"bike_id":"15138ce4-9850-4a09-9eb2-0da12393d0d8","system_id":"levelo_inurba_marseille","lat":43.317,"lon":5.4372,"is_reserved":false,"is_disabled":false,"rental_uris":{"android":"levelo://app?vid=15138ce4-9850-4a09-9eb2-0da12393d0d8","ios":"levelo://app?vid=15138ce4-9850-4a09-9eb2-0da12393d0d8"},"vehicle_type_id":"4","last_reported":1749603323,"current_range_meters":11200,"station_id":"ce4bhp92rcd13ifvqhcg","pricing_plan_id":"cebpf4jnsgd1na2vs0mg"},{"bike_id":"4e58bfc6-5a7c-406a-ab51-d831d6cc8676","system_id":"levelo_inurba_marseille","lat":43.33013,"lon":5.39033,"is_reserved":false,"is_disabled":true,"rental_uris":{"android":"levelo://app?vid=4e58bfc6-5a7c-406a-ab51-d831d6cc8676","ios":"levelo://app?vid=4e58bfc6-5a7c-406a-ab51-d831d6cc8676"},"vehicle_type_id":"4","last_reported":1749603323,"current_range_meters":11600,"station_id":"ce4bhr92rcd13ifvqhrg","pricing_plan_id":"cebpf4jnsgd1na2vs0mg"},{"bike_id":"55b7171e-3eba-4412-b568-99c2bd3afd38","system_id":"levelo_inurba_marseille","lat":43.31895,"lon":5.40743,"is_reserved":false,"is_disabled":true,"rental_uris":{"android":"levelo://app?vid=55b7171e-3eba-4412-b568-99c2bd3afd38","ios":"levelo://app?vid=55b7171e-3eba-4412-b568-99c2bd3afd38"},"vehicle_type_id":"4","last_reported":1749603323,"current_range_meters":11600,"station_id":"ce4bhq12rcd13ifvqhig","pricing_plan_id":"cebpf4jnsgd1na2vs0mg"},{"bike_id":"3ee6165b-b2c0-4036-a331-ec913cfc06b4","system_id":"levelo_inurba_marseille","lat":43.27911,"lon":5.38011,"is_reserved":false,"is_disabled":false,"rental_uris":{"android":"levelo://app?vid=3ee6165b-b2c0-4036-a331-ec913cfc06b4","ios":"levelo://app?vid=3ee6165b-b2c0-4036-a331-ec913cfc06b4"},"vehicle_type_id":"4","last_reported":1749603323,"current_range_meters":11600,"station_id":"ce4bhf92rcd13ifvqf50","pricing_plan_id":"cebpf4jnsgd1na2vs0mg"},{"bike_id":"c927c203-b3e1-4e64-9245-634d3011d058","system_id":"levelo_inurba_marseille","lat":43.3414,"lon":5.40904,"is_reserved":false,"is_disabled":false,"rental_uris":{"android":"levelo://app?vid=c927c203-b3e1-4e64-9245-634d3011d058","ios":"levelo://app?vid=c927c203-b3e1-4e64-9245-634d3011d058"},"vehicle_type_id":"4","last_reported":1749603323,"current_range_meters":11200,"station_id":"ce4bhqh2rcd13ifvqhlg","pricing_plan_id":"cebpf4jnsgd1na2vs0mg"},{"bike_id":"deffc81e-6587-424c-836b-c268a30049d8","system_id":"levelo_inurba_marseille","lat":43.29939,"lon":5.40127,"is_reserved":false,"is_disabled":false,"rental_uris":{"android":"levelo://app?vid=deffc81e-6587-424c-836b-c268a30049d8","ios":"levelo://app?vid=deffc81e-6587-424c-836b-c268a30049d8"},"vehicle_type_id":"4","last_reported":1749603323,"current_range_meters":11600,"station_id":"","pricing_plan_id":"cebpf4jnsgd1na2vs0mg"},{"bike_id":"6181a8f6-1227-49a1-9beb-bb1c37c1ae5c","system_id":"levelo_inurba_marseille","lat":43.28005,"lon":5.4159,"is_reserved":false,"is_disabled":true,"rental_uris":{"android":"levelo://app?vid=6181a8f6-1227-49a1-9beb-bb1c37c1ae5c","ios":"levelo://app?vid=6181a8f6-1227-49a1-9beb-bb1c37c1ae5c"},"vehicle_type_id":"4","last_reported":1749603323,"current_range_meters":12000,"station_id":"ce4bho12rcd13ifvqh1g","pricing_plan_id":"cebpf4jnsgd1na2vs0mg"},{"bike_id":"09fc93df-1b5b-4565-bebf-a33c16f5f13b","system_id":"levelo_inurba_marseille","lat":43.331527,"lon":5.38168,"is_reserved":false,"is_disabled":false,"rental_uris":{"android":"levelo://app?vid=09fc93df-1b5b-4565-bebf-a33c16f5f13b","ios":"levelo://app?vid=09fc93df-1b5b-4565-bebf-a33c16f5f13b"},"vehicle_type_id":"4","last_reported":1749603323,"current_range_meters":12000,"station_id":"","pricing_plan_id":"cebpf4jnsgd1na2vs0mg"},{"bike_id":"e5f8d087-4807-4adc-a802-7472588f944a","system_id":"levelo_inurba_marseille","lat":43.26502,"lon":5.39535,"is_reserved":false,"is_disabled":false,"rental_uris":{"android":"levelo://app?vid=e5f8d087-4807-4adc-a802-7472588f944a","ios":"levelo://app?vid=e5f8d087-4807-4adc-a802-7472588f944a"},"vehicle_type_id":"4","last_reported":1749603323,"current_range_meters":12000,"station_id":"ce4bhi12rcd13ifvqfq0","pricing_plan_id":"cebpf4jnsgd1na2vs0mg"},{"bike_id":"c30dbedc-c866-492b-a092-32c1ee0c1f22","system_id":"levelo_inurba_marseille","lat":43.29529,"lon":5.38557,"is_reserved":false,"is_disabled":true,"rental_uris":{"android":"levelo://app?vid=c30dbedc-c866-492b-a092-32c1ee0c1f22","ios":"levelo://app?vid=c30dbedc-c866-492b-a092-32c1ee0c1f22"},"vehicle_type_id":"4","last_reported":1749603323,"current_range_meters":12000,"station_id":"ce4bgih2rcd13ifvqba0","pricing_plan_id":"cebpf4jnsgd1na2vs0mg"},{"bike_id":"236e422e-563d-45a9-89dd-b134d86f6f50","system_id":"levelo_inurba_marseille","lat":43.29178,"lon":5.39596,"is_reserved":false,"is_disabled":false,"rental_uris":{"android":"levelo://app?vid=236e422e-563d-45a9-89dd-b134d86f6f50","ios":"levelo://app?vid=236e422e-563d-45a9-89dd-b134d86f6f50"},"vehicle_type_id":"4","last_reported":1749603323,"current_range_meters":12400,"station_id":"","pricing_plan_id":"cebpf4jnsgd1na2vs0mg"},{"bike_id":"1e20f032-0f6a-40b2-ad29-e4d2225496fa","system_id":"levelo_inurba_marseille","lat":43.30285,"lon":5.37083,"is_reserved":false,"is_disabled":false,"rental_uris":{"android":"levelo://app?vid=1e20f032-0f6a-40b2-ad29-e4d2225496fa","ios":"levelo://app?vid=1e20f032-0f6a-40b2-ad29-e4d2225496fa"},"vehicle_type_id":"4","last_reported":1749603323,"current_range_meters":12000,"station_id":"","pricing_plan_id":"cebpf4jnsgd1na2vs0mg"},{"bike_id":"7cb0b543-9cbd-4b05-9c7c-5ac5db7c6b78","system_id":"levelo_inurba_marseille","lat":43.3067,"lon":5.40053,"is_reserved":false,"is_disabled":false,"rental_uris":{"android":"levelo://app?vid=7cb0b543-9cbd-4b05-9c7c-5ac5db7c6b78","ios":"levelo://app?vid=7cb0b543-9cbd-4b05-9c7c-5ac5db7c6b78"},"vehicle_type_id":"4","last_reported":1749603323,"current_range_meters":12000,"station_id":"","pricing_plan_id":"cebpf4jnsgd1na2vs0mg"},{"bike_id":"2909fdf1-5de0-4015-965c-4039eac7212a","system_id":"levelo_inurba_marseille","lat":43.31683,"lon":5.4047,"is_reserved":false,"is_disabled":false,"rental_uris":{"android":"levelo://app?vid=2909fdf1-5de0-4015-965c-4039eac7212a","ios":"levelo://app?vid=2909fdf1-5de0-4015-965c-4039eac7212a"},"vehicle_type_id":"4","last_reported":1749603323,"current_range_meters":12400,"station_id":"ce4bh012rcd13ifvqd00","pricing_plan_id":"cebpf4jnsgd1na2vs0mg"},{"bike_id":"3c50889a-9a6c-4af0-a722-9cf082f51ee6","system_id":"levelo_inurba_marseille","lat":43.31245,"lon":5.40183,"is_reserved":false,"is_disabled":false,"rental_uris":{"android":"levelo://app?vid=3c50889a-9a6c-4af0-a722-9cf082f51ee6","ios":"levelo://app?vid=3c50889a-9a6c-4af0-a722-9cf082f51ee6"},"vehicle_type_id":"4","last_reported":1749603323,"current_range_meters":12400,"station_id":"ce4bh092rcd13ifvqd30","pricing_plan_id":"cebpf4jnsgd1na2vs0mg"},{"bike_id":"53a94670-e86d-41d7-97b1-7a71aac81e4c","system_id":"levelo_inurba_marseille","lat":43.30926,"lon":5.4015,"is_reserved":false,"is_disabled":false,"rental_uris":{"android":"levelo://app?vid=53a94670-e86d-41d7-97b1-7a71aac81e4c","ios":"levelo://app?vid=53a94670-e86d-41d7-97b1-7a71aac81e4c"},"vehicle_type_id":"4","last_reported":1749603323,"current_range_meters":12400,"station_id":"ce4bgvp2rcd13ifvqct0","pricing_plan_id":"cebpf4jnsgd1na2vs0mg"},{"bike_id":"5cede98f-b8f7-4349-88d6-3ef62b7fcf9e","system_id":"levelo_inurba_marseille","lat":43.27944,"lon":5.41031,"is_reserved":false,"is_disabled":false,"rental_uris":{"android":"levelo://app?vid=5cede98f-b8f7-4349-88d6-3ef62b7fcf9e","ios":"levelo://app?vid=5cede98f-b8f7-4349-88d6-3ef62b7fcf9e"},"vehicle_type_id":"4","last_reported":1749603323,"current_range_meters":12400,"station_id":"ce4bhnp2rcd13ifvqh0g","pricing_plan_id":"cebpf4jnsgd1na2vs0mg"},{"bike_id":"f840516d-f17b-447e-b7c7-a1e81a892e00","system_id":"levelo_inurba_marseille","lat":43.30923,"lon":5.40153,"is_reserved":false,"is_disabled":false,"rental_uris":{"android":"levelo://app?vid=f840516d-f17b-447e-b7c7-a1e81a892e00","ios":"levelo://app?vid=f840516d-f17b-447e-b7c7-a1e81a892e00"},"vehicle_type_id":"4","last_reported":1749603323,"current_range_meters":12800,"station_id":"ce4bgvp2rcd13ifvqct0","pricing_plan_id":"cebpf4jnsgd1na2vs0mg"},{"bike_id":"262903a9-22b9-4b2d-96c2-2e5dbd155090","system_id":"levelo_inurba_marseille","lat":43.32466,"lon":5.36593,"is_reserved":false,"is_disabled":false,"rental_uris":{"android":"levelo://app?vid=262903a9-22b9-4b2d-96c2-2e5dbd155090","ios":"levelo://app?vid=262903a9-22b9-4b2d-96c2-2e5dbd155090"},"vehicle_type_id":"4","last_reported":1749603323,"current_range_meters":13600,"station_id":"ce4bhs12rcd13ifvqhvg","pricing_plan_id":"cebpf4jnsgd1na2vs0mg"},{"bike_id":"ea3db42c-1bc7-40c9-b609-3062125a4bac","system_id":"levelo_inurba_marseille","lat":43.30805,"lon":5.43542,"is_reserved":false,"is_disabled":false,"rental_uris":{"android":"levelo://app?vid=ea3db42c-1bc7-40c9-b609-3062125a4bac","ios":"levelo://app?vid=ea3db42c-1bc7-40c9-b609-3062125a4bac"},"vehicle_type_id":"4","last_reported":1749603323,"current_range_meters":13600,"station_id":"ce4bhph2rcd13ifvqheg","pricing_plan_id":"cebpf4jnsgd1na2vs0mg"},{"bike_id":"e6d67648-0d34-4392-8e2c-f83f208c9d05","system_id":"levelo_inurba_marseille","lat":43.31675,"lon":5.40485,"is_reserved":false,"is_disabled":false,"rental_uris":{"android":"levelo://app?vid=e6d67648-0d34-4392-8e2c-f83f208c9d05","ios":"levelo://app?vid=e6d67648-0d34-4392-8e2c-f83f208c9d05"},"vehicle_type_id":"4","last_reported":1749603323,"current_range_meters":13600,"station_id":"ce4bh012rcd13ifvqd00","pricing_plan_id":"cebpf4jnsgd1na2vs0mg"},{"bike_id":"2fb77abd-3112-4fce-99a6-71b8052ec74f","system_id":"levelo_inurba_marseille","lat":43.27943,"lon":5.410322,"is_reserved":false,"is_disabled":false,"rental_uris":{"android":"levelo://app?vid=2fb77abd-3112-4fce-99a6-71b8052ec74f","ios":"levelo://app?vid=2fb77abd-3112-4fce-99a6-71b8052ec74f"},"vehicle_type_id":"4","last_reported":1749603323,"current_range_meters":13600,"station_id":"ce4bhnp2rcd13ifvqh0g","pricing_plan_id":"cebpf4jnsgd1na2vs0mg"},{"bike_id":"845b4b33-90f6-4121-89c1-207ae78499ae","system_id":"levelo_inurba_marseille","lat":43.308842,"lon":5.396492,"is_reserved":false,"is_disabled":false,"rental_uris":{"android":"levelo://app?vid=845b4b33-90f6-4121-89c1-207ae78499ae","ios":"levelo://app?vid=845b4b33-90f6-4121-89c1-207ae78499ae"},"vehicle_type_id":"4","last_reported":1749603323,"current_range_meters":13600,"station_id":"ce4bh012rcd13ifvqcv0","pricing_plan_id":"cebpf4jnsgd1na2vs0mg"},{"bike_id":"84f5a926-1dd6-4535-b647-2764ce0ca103","system_id":"levelo_inurba_marseille","lat":43.32064,"lon":5.3683,"is_reserved":false,"is_disabled":false,"rental_uris":{"android":"levelo://app?vid=84f5a926-1dd6-4535-b647-2764ce0ca103","ios":"levelo://app?vid=84f5a926-1dd6-4535-b647-2764ce0ca103"},"vehicle_type_id":"4","last_reported":1749603323,"current_range_meters":13600,"station_id":"ce4bhrh2rcd13ifvqhug","pricing_plan_id":"cebpf4jnsgd1na2vs0mg"},{"bike_id":"fd1d14a0-1a3e-4eb9-b19e-044738f5d1c3","system_id":"levelo_inurba_marseille","lat":43.28995,"lon":5.35616,"is_reserved":false,"is_disabled":true,"rental_uris":{"android":"levelo://app?vid=fd1d14a0-1a3e-4eb9-b19e-044738f5d1c3","ios":"levelo://app?vid=fd1d14a0-1a3e-4eb9-b19e-044738f5d1c3"},"vehicle_type_id":"4","last_reported":1749603323,"current_range_meters":13600,"station_id":"ce4bhb92rcd13ifvqen0","pricing_plan_id":"cebpf4jnsgd1na2vs0mg"},{"bike_id":"e6adfd8c-872e-4689-984e-b1a178abae5c","system_id":"levelo_inurba_marseille","lat":43.22933,"lon":5.35383,"is_reserved":false,"is_disabled":false,"rental_uris":{"android":"levelo://app?vid=e6adfd8c-872e-4689-984e-b1a178abae5c","ios":"levelo://app?vid=e6adfd8c-872e-4689-984e-b1a178abae5c"},"vehicle_type_id":"4","last_reported":1749603323,"current_range_meters":13600,"station_id":"cpo3532slgdg3j2ikp40","pricing_plan_id":"cebpf4jnsgd1na2vs0mg"},{"bike_id":"c4ac7a5c-c960-4c83-b776-b8ff573e7853","system_id":"levelo_inurba_marseille","lat":43.30382,"lon":5.42488,"is_reserved":false,"is_disabled":false,"rental_uris":{"android":"levelo://app?vid=c4ac7a5c-c960-4c83-b776-b8ff573e7853","ios":"levelo://app?vid=c4ac7a5c-c960-4c83-b776-b8ff573e7853"},"vehicle_type_id":"4","last_reported":1749603323,"current_range_meters":13600,"station_id":"ce4bhoh2rcd13ifvqh6g","pricing_plan_id":"cebpf4jnsgd1na2vs0mg"},{"bike_id":"72a94b25-2fe0-4919-8521-e8b66695aa46","system_id":"levelo_inurba_marseille","lat":43.286987,"lon":5.399945,"is_reserved":false,"is_disabled":false,"rental_uris":{"android":"levelo://app?vid=72a94b25-2fe0-4919-8521-e8b66695aa46","ios":"levelo://app?vid=72a94b25-2fe0-4919-8521-e8b66695aa46"},"vehicle_type_id":"4","last_reported":1749603323,"current_range_meters":14000,"station_id":"","pricing_plan_id":"cebpf4jnsgd1na2vs0mg"},{"bike_id":"e857b26f-e98d-4e5b-a472-9489934cc3bc","system_id":"levelo_inurba_marseille","lat":43.30853,"lon":5.40235,"is_reserved":false,"is_disabled":true,"rental_uris":{"android":"levelo://app?vid=e857b26f-e98d-4e5b-a472-9489934cc3bc","ios":"levelo://app?vid=e857b26f-e98d-4e5b-a472-9489934cc3bc"},"vehicle_type_id":"4","last_reported":1749603323,"current_range_meters":14000,"station_id":"ce4bgvp2rcd13ifvqct0","pricing_plan_id":"cebpf4jnsgd1na2vs0mg"},{"bike_id":"77f6f3b8-304d-45f4-909b-fe68944bc597","system_id":"levelo_inurba_marseille","lat":43.31693,"lon":5.40469,"is_reserved":false,"is_disabled":false,"rental_uris":{"android":"levelo://app?vid=77f6f3b8-304d-45f4-909b-fe68944bc597","ios":"levelo://app?vid=77f6f3b8-304d-45f4-909b-fe68944bc597"},"vehicle_type_id":"4","last_reported":1749603323,"current_range_meters":14000,"station_id":"ce4bh012rcd13ifvqd00","pricing_plan_id":"cebpf4jnsgd1na2vs0mg"},{"bike_id":"4d547f95-647f-41ae-aea4-9963a80c49f0","system_id":"levelo_inurba_marseille","lat":43.28157,"lon":5.42642,"is_reserved":false,"is_disabled":false,"rental_uris":{"android":"levelo://app?vid=4d547f95-647f-41ae-aea4-9963a80c49f0","ios":"levelo://app?vid=4d547f95-647f-41ae-aea4-9963a80c49f0"},"vehicle_type_id":"4","last_reported":1749603323,"current_range_meters":14000,"station_id":"ce4bhnh2rcd13ifvqgug","pricing_plan_id":"cebpf4jnsgd1na2vs0mg"},{"bike_id":"002ad4e8-6140-4bdd-b14b-f38ee707447e","system_id":"levelo_inurba_marseille","lat":43.31002,"lon":5.38609,"is_reserved":false,"is_disabled":false,"rental_uris":{"android":"levelo://app?vid=002ad4e8-6140-4bdd-b14b-f38ee707447e","ios":"levelo://app?vid=002ad4e8-6140-4bdd-b14b-f38ee707447e"},"vehicle_type_id":"4","last_reported":1749603323,"current_range_meters":14000,"station_id":"","pricing_plan_id":"cebpf4jnsgd1na2vs0mg"},{"bike_id":"4c1d17d4-327b-412a-b5fe-13fda86712c4","system_id":"levelo_inurba_marseille","lat":43.27492,"lon":5.42459,"is_reserved":false,"is_disabled":false,"rental_uris":{"android":"levelo://app?vid=4c1d17d4-327b-412a-b5fe-13fda86712c4","ios":"levelo://app?vid=4c1d17d4-327b-412a-b5fe-13fda86712c4"},"vehicle_type_id":"4","last_reported":1749603323,"current_range_meters":14000,"station_id":"ce4bhn92rcd13ifvqgrg","pricing_plan_id":"cebpf4jnsgd1na2vs0mg"},{"bike_id":"c43fe918-bbce-4c81-b905-f4ca5ca72e1a","system_id":"levelo_inurba_marseille","lat":43.3107,"lon":5.38351,"is_reserved":false,"is_disabled":false,"rental_uris":{"android":"levelo://app?vid=c43fe918-bbce-4c81-b905-f4ca5ca72e1a","ios":"levelo://app?vid=c43fe918-bbce-4c81-b905-f4ca5ca72e1a"},"vehicle_type_id":"4","last_reported":1749603323,"current_range_meters":14000,"station_id":"ce4bgv92rcd13ifvqcr0","pricing_plan_id":"cebpf4jnsgd1na2vs0mg"},{"bike_id":"51c791a7-9ff0-4c1f-ab28-bf7e9eafbec8","system_id":"levelo_inurba_marseille","lat":43.308831,"lon":5.39641,"is_reserved":false,"is_disabled":false,"rental_uris":{"android":"levelo://app?vid=51c791a7-9ff0-4c1f-ab28-bf7e9eafbec8","ios":"levelo://app?vid=51c791a7-9ff0-4c1f-ab28-bf7e9eafbec8"},"vehicle_type_id":"4","last_reported":1749603323,"current_range_meters":14000,"station_id":"ce4bh012rcd13ifvqcv0","pricing_plan_id":"cebpf4jnsgd1na2vs0mg"},{"bike_id":"4af71b73-0925-4852-8ab2-f2aab4a26d02","system_id":"levelo_inurba_marseille","lat":43.295677,"lon":5.399711,"is_reserved":false,"is_disabled":false,"rental_uris":{"android":"levelo://app?vid=4af71b73-0925-4852-8ab2-f2aab4a26d02","ios":"levelo://app?vid=4af71b73-0925-4852-8ab2-f2aab4a26d02"},"vehicle_type_id":"4","last_reported":1749603323,"current_range_meters":14400,"station_id":"ce4bh312rcd13ifvqdj0","pricing_plan_id":"cebpf4jnsgd1na2vs0mg"},{"bike_id":"53ad8fa1-d150-4303-9608-ed288946d58c","system_id":"levelo_inurba_marseille","lat":43.313037,"lon":5.397113,"is_reserved":false,"is_disabled":false,"rental_uris":{"android":"levelo://app?vid=53ad8fa1-d150-4303-9608-ed288946d58c","ios":"levelo://app?vid=53ad8fa1-d150-4303-9608-ed288946d58c"},"vehicle_type_id":"4","last_reported":1749603323,"current_range_meters":14400,"station_id":"ce4bgvp2rcd13ifvqcu0","pricing_plan_id":"cebpf4jnsgd1na2vs0mg"},{"bike_id":"8af7a101-05b7-4759-a494-bc58531d1583","system_id":"levelo_inurba_marseille","lat":43.29276,"lon":5.40128,"is_reserved":false,"is_disabled":false,"rental_uris":{"android":"levelo://app?vid=8af7a101-05b7-4759-a494-bc58531d1583","ios":"levelo://app?vid=8af7a101-05b7-4759-a494-bc58531d1583"},"vehicle_type_id":"4","last_reported":1749603323,"current_range_meters":14400,"station_id":"ce4bh312rcd13ifvqdk0","pricing_plan_id":"cebpf4jnsgd1na2vs0mg"},{"bike_id":"abac1aef-dbbd-4e20-b5da-a2236e654af5","system_id":"levelo_inurba_marseille","lat":43.26934,"lon":5.40277,"is_reserved":false,"is_disabled":false,"rental_uris":{"android":"levelo://app?vid=abac1aef-dbbd-4e20-b5da-a2236e654af5","ios":"levelo://app?vid=abac1aef-dbbd-4e20-b5da-a2236e654af5"},"vehicle_type_id":"4","last_reported":1749603323,"current_range_meters":14400,"station_id":"cjm6bp8fraef2m0cb0m0","pricing_plan_id":"cebpf4jnsgd1na2vs0mg"},{"bike_id":"91252cb4-db98-4cff-ba49-0337a6eacf8f","system_id":"levelo_inurba_marseille","lat":43.31989,"lon":5.38787,"is_reserved":false,"is_disabled":false,"rental_uris":{"android":"levelo://app?vid=91252cb4-db98-4cff-ba49-0337a6eacf8f","ios":"levelo://app?vid=91252cb4-db98-4cff-ba49-0337a6eacf8f"},"vehicle_type_id":"4","last_reported":1749603323,"current_range_meters":14400,"station_id":"","pricing_plan_id":"cebpf4jnsgd1na2vs0mg"},{"bike_id":"3ab83fea-df80-4413-887f-96261459d77c","system_id":"levelo_inurba_marseille","lat":43.308842,"lon":5.396525,"is_reserved":false,"is_disabled":false,"rental_uris":{"android":"levelo://app?vid=3ab83fea-df80-4413-887f-96261459d77c","ios":"levelo://app?vid=3ab83fea-df80-4413-887f-96261459d77c"},"vehicle_type_id":"4","last_reported":1749603323,"current_range_meters":14800,"station_id":"ce4bh012rcd13ifvqcv0","pricing_plan_id":"cebpf4jnsgd1na2vs0mg"},{"bike_id":"4727b314-3bd1-43f9-b43d-76c9166f290d","system_id":"levelo_inurba_marseille","lat":43.3234,"lon":5.40621,"is_reserved":false,"is_disabled":false,"rental_uris":{"android":"levelo://app?vid=4727b314-3bd1-43f9-b43d-76c9166f290d","ios":"levelo://app?vid=4727b314-3bd1-43f9-b43d-76c9166f290d"},"vehicle_type_id":"4","last_reported":1749603323,"current_range_meters":14800,"station_id":"ce4bhq92rcd13ifvqhjg","pricing_plan_id":"cebpf4jnsgd1na2vs0mg"},{"bike_id":"b350c8e9-ed32-4415-aae6-ec1b9bd87516","system_id":"levelo_inurba_marseille","lat":43.28675,"lon":5.36342,"is_reserved":false,"is_disabled":false,"rental_uris":{"android":"levelo://app?vid=b350c8e9-ed32-4415-aae6-ec1b9bd87516","ios":"levelo://app?vid=b350c8e9-ed32-4415-aae6-ec1b9bd87516"},"vehicle_type_id":"4","last_reported":1749603323,"current_range_meters":14800,"station_id":"ce4bhah2rcd13ifvqej0","pricing_plan_id":"cebpf4jnsgd1na2vs0mg"},{"bike_id":"459ca737-6f77-471f-8093-5a88355f5584","system_id":"levelo_inurba_marseille","lat":43.2748,"lon":5.42464,"is_reserved":false,"is_disabled":false,"rental_uris":{"android":"levelo://app?vid=459ca737-6f77-471f-8093-5a88355f5584","ios":"levelo://app?vid=459ca737-6f77-471f-8093-5a88355f5584"},"vehicle_type_id":"4","last_reported":1749603323,"current_range_meters":14800,"station_id":"ce4bhn92rcd13ifvqgrg","pricing_plan_id":"cebpf4jnsgd1na2vs0mg"},{"bike_id":"4024b6d9-ab85-494e-871b-cfe0f5feacba","system_id":"levelo_inurba_marseille","lat":43.31166,"lon":5.38714,"is_reserved":false,"is_disabled":false,"rental_uris":{"android":"levelo://app?vid=4024b6d9-ab85-494e-871b-cfe0f5feacba","ios":"levelo://app?vid=4024b6d9-ab85-494e-871b-cfe0f5feacba"},"vehicle_type_id":"4","last_reported":1749603323,"current_range_meters":14800,"station_id":"ce4bgv12rcd13ifvqcp0","pricing_plan_id":"cebpf4jnsgd1na2vs0mg"},{"bike_id":"1acfb620-cad7-48c0-8901-d7a5b74a5b65","system_id":"levelo_inurba_marseille","lat":43.33751,"lon":5.37456,"is_reserved":false,"is_disabled":false,"rental_uris":{"android":"levelo://app?vid=1acfb620-cad7-48c0-8901-d7a5b74a5b65","ios":"levelo://app?vid=1acfb620-cad7-48c0-8901-d7a5b74a5b65"},"vehicle_type_id":"4","last_reported":1749603323,"current_range_meters":14800,"station_id":"","pricing_plan_id":"cebpf4jnsgd1na2vs0mg"},{"bike_id":"514f3ce4-4675-4352-bc6b-a6afd14c005f","system_id":"levelo_inurba_marseille","lat":43.28383,"lon":5.38623,"is_reserved":false,"is_disabled":false,"rental_uris":{"android":"levelo://app?vid=514f3ce4-4675-4352-bc6b-a6afd14c005f","ios":"levelo://app?vid=514f3ce4-4675-4352-bc6b-a6afd14c005f"},"vehicle_type_id":"4","last_reported":1749603323,"current_range_meters":15200,"station_id":"ce4bh492rcd13ifvqdvg","pricing_plan_id":"cebpf4jnsgd1na2vs0mg"},{"bike_id":"a2652db9-6cfe-47a6-94f5-ea8f8860e9f9","system_id":"levelo_inurba_marseille","lat":43.280321,"lon":5.369516,"is_reserved":false,"is_disabled":false,"rental_uris":{"android":"levelo://app?vid=a2652db9-6cfe-47a6-94f5-ea8f8860e9f9","ios":"levelo://app?vid=a2652db9-6cfe-47a6-94f5-ea8f8860e9f9"},"vehicle_type_id":"4","last_reported":1749603323,"current_range_meters":15200,"station_id":"ce4bha12rcd13ifvqef0","pricing_plan_id":"cebpf4jnsgd1na2vs0mg"},{"bike_id":"f3341e7d-61d2-4f68-8615-26c29c7ce022","system_id":"levelo_inurba_marseille","lat":43.3122,"lon":5.36867,"is_reserved":false,"is_disabled":false,"rental_uris":{"android":"levelo://app?vid=f3341e7d-61d2-4f68-8615-26c29c7ce022","ios":"levelo://app?vid=f3341e7d-61d2-4f68-8615-26c29c7ce022"},"vehicle_type_id":"4","last_reported":1749603323,"current_range_meters":15200,"station_id":"ce4bgl92rcd13ifvqbq0","pricing_plan_id":"cebpf4jnsgd1na2vs0mg"},{"bike_id":"7130eafd-58ef-49e3-8296-da23b92ff172","system_id":"levelo_inurba_marseille","lat":43.24692,"lon":5.39415,"is_reserved":false,"is_disabled":true,"rental_uris":{"android":"levelo://app?vid=7130eafd-58ef-49e3-8296-da23b92ff172","ios":"levelo://app?vid=7130eafd-58ef-49e3-8296-da23b92ff172"},"vehicle_type_id":"4","last_reported":1749603323,"current_range_meters":16000,"station_id":"","pricing_plan_id":"cebpf4jnsgd1na2vs0mg"},{"bike_id":"f4984753-07b9-4a72-a931-49b18165efcc","system_id":"levelo_inurba_marseille","lat":43.24528,"lon":5.39551,"is_reserved":false,"is_disabled":false,"rental_uris":{"android":"levelo://app?vid=f4984753-07b9-4a72-a931-49b18165efcc","ios":"levelo://app?vid=f4984753-07b9-4a72-a931-49b18165efcc"},"vehicle_type_id":"4","last_reported":1749603323,"current_range_meters":16000,"station_id":"ce4bhlp2rcd13ifvqgjg","pricing_plan_id":"cebpf4jnsgd1na2vs0mg"},{"bike_id":"4ac55865-de56-42ff-9c2f-27be692fc73d","system_id":"levelo_inurba_marseille","lat":43.2703,"lon":5.38746,"is_reserved":false,"is_disabled":false,"rental_uris":{"android":"levelo://app?vid=4ac55865-de56-42ff-9c2f-27be692fc73d","ios":"levelo://app?vid=4ac55865-de56-42ff-9c2f-27be692fc73d"},"vehicle_type_id":"4","last_reported":1749603323,"current_range_meters":16000,"station_id":"","pricing_plan_id":"cebpf4jnsgd1na2vs0mg"},{"bike_id":"de72f9eb-2d25-46fd-a01e-32283733cde7","system_id":"levelo_inurba_marseille","lat":43.28963,"lon":5.36383,"is_reserved":false,"is_disabled":false,"rental_uris":{"android":"levelo://app?vid=de72f9eb-2d25-46fd-a01e-32283733cde7","ios":"levelo://app?vid=de72f9eb-2d25-46fd-a01e-32283733cde7"},"vehicle_type_id":"4","last_reported":1749603323,"current_range_meters":16000,"station_id":"ce4bhc92rcd13ifvqetg","pricing_plan_id":"cebpf4jnsgd1na2vs0mg"},{"bike_id":"65b4ff9e-3d90-4983-ac06-dc0994dce3e1","system_id":"levelo_inurba_marseille","lat":43.30832,"lon":5.43492,"is_reserved":false,"is_disabled":false,"rental_uris":{"android":"levelo://app?vid=65b4ff9e-3d90-4983-ac06-dc0994dce3e1","ios":"levelo://app?vid=65b4ff9e-3d90-4983-ac06-dc0994dce3e1"},"vehicle_type_id":"4","last_reported":1749603323,"current_range_meters":16000,"station_id":"ce4bhph2rcd13ifvqheg","pricing_plan_id":"cebpf4jnsgd1na2vs0mg"},{"bike_id":"c0059c6b-affa-4894-ad35-e029cf9a2a71","system_id":"levelo_inurba_marseille","lat":43.27573,"lon":5.38417,"is_reserved":false,"is_disabled":false,"rental_uris":{"android":"levelo://app?vid=c0059c6b-affa-4894-ad35-e029cf9a2a71","ios":"levelo://app?vid=c0059c6b-affa-4894-ad35-e029cf9a2a71"},"vehicle_type_id":"4","last_reported":1749603323,"current_range_meters":16000,"station_id":"ce4bhh92rcd13ifvqfi0","pricing_plan_id":"cebpf4jnsgd1na2vs0mg"},{"bike_id":"5fcbba76-7b36-4731-b5c8-e238a6970890","system_id":"levelo_inurba_marseille","lat":43.33598,"lon":5.4098,"is_reserved":false,"is_disabled":false,"rental_uris":{"android":"levelo://app?vid=5fcbba76-7b36-4731-b5c8-e238a6970890","ios":"levelo://app?vid=5fcbba76-7b36-4731-b5c8-e238a6970890"},"vehicle_type_id":"4","last_reported":1749603323,"current_range_meters":16000,"station_id":"ce4bhqh2rcd13ifvqhmg","pricing_plan_id":"cebpf4jnsgd1na2vs0mg"},{"bike_id":"aa9085db-88fc-49be-aad8-9551ff3c1877","system_id":"levelo_inurba_marseille","lat":43.27945,"lon":5.41052,"is_reserved":false,"is_disabled":false,"rental_uris":{"android":"levelo://app?vid=aa9085db-88fc-49be-aad8-9551ff3c1877","ios":"levelo://app?vid=aa9085db-88fc-49be-aad8-9551ff3c1877"},"vehicle_type_id":"4","last_reported":1749603323,"current_range_meters":16000,"station_id":"ce4bhnp2rcd13ifvqh0g","pricing_plan_id":"cebpf4jnsgd1na2vs0mg"},{"bike_id":"b9dce34d-aeb2-409b-9fbd-9266ac903aaa","system_id":"levelo_inurba_marseille","lat":43.28969,"lon":5.37865,"is_reserved":false,"is_disabled":true,"rental_uris":{"android":"levelo://app?vid=b9dce34d-aeb2-409b-9fbd-9266ac903aaa","ios":"levelo://app?vid=b9dce34d-aeb2-409b-9fbd-9266ac903aaa"},"vehicle_type_id":"4","last_reported":1749603323,"current_range_meters":16000,"station_id":"ce4bh9p2rcd13ifvqed0","pricing_plan_id":"cebpf4jnsgd1na2vs0mg"},{"bike_id":"0c050ed5-a0c9-42a9-b23d-3c426fdc0025","system_id":"levelo_inurba_marseille","lat":43.24074,"lon":5.3776,"is_reserved":false,"is_disabled":false,"rental_uris":{"android":"levelo://app?vid=0c050ed5-a0c9-42a9-b23d-3c426fdc0025","ios":"levelo://app?vid=0c050ed5-a0c9-42a9-b23d-3c426fdc0025"},"vehicle_type_id":"4","last_reported":1749603323,"current_range_meters":16400,"station_id":"ce4bhnp2rcd13ifvqgvg","pricing_plan_id":"cebpf4jnsgd1na2vs0mg"},{"bike_id":"813663ce-3733-4eb5-a4b1-4afc95a56122","system_id":"levelo_inurba_marseille","lat":43.28846,"lon":5.39328,"is_reserved":false,"is_disabled":false,"rental_uris":{"android":"levelo://app?vid=813663ce-3733-4eb5-a4b1-4afc95a56122","ios":"levelo://app?vid=813663ce-3733-4eb5-a4b1-4afc95a56122"},"vehicle_type_id":"4","last_reported":1749603323,"current_range_meters":16400,"station_id":"ce4bh2p2rcd13ifvqdi0","pricing_plan_id":"cebpf4jnsgd1na2vs0mg"},{"bike_id":"0b0e2438-4263-43eb-819b-4dc7f21a29b4","system_id":"levelo_inurba_marseille","lat":43.30889,"lon":5.39654,"is_reserved":false,"is_disabled":false,"rental_uris":{"android":"levelo://app?vid=0b0e2438-4263-43eb-819b-4dc7f21a29b4","ios":"levelo://app?vid=0b0e2438-4263-43eb-819b-4dc7f21a29b4"},"vehicle_type_id":"4","last_reported":1749603323,"current_range_meters":16400,"station_id":"ce4bh012rcd13ifvqcv0","pricing_plan_id":"cebpf4jnsgd1na2vs0mg"},{"bike_id":"09f5c3fe-c3e6-4078-bacd-3de91c46ed76","system_id":"levelo_inurba_marseille","lat":43.28713,"lon":5.37951,"is_reserved":false,"is_disabled":false,"rental_uris":{"android":"levelo://app?vid=09f5c3fe-c3e6-4078-bacd-3de91c46ed76","ios":"levelo://app?vid=09f5c3fe-c3e6-4078-bacd-3de91c46ed76"},"vehicle_type_id":"4","last_reported":1749603323,"current_range_meters":16400,"station_id":"ce4bh9p2rcd13ifvqec0","pricing_plan_id":"cebpf4jnsgd1na2vs0mg"},{"bike_id":"9231f021-d06e-4dc9-b555-e59bf1d45ecd","system_id":"levelo_inurba_marseille","lat":43.32108,"lon":5.36787,"is_reserved":false,"is_disabled":false,"rental_uris":{"android":"levelo://app?vid=9231f021-d06e-4dc9-b555-e59bf1d45ecd","ios":"levelo://app?vid=9231f021-d06e-4dc9-b555-e59bf1d45ecd"},"vehicle_type_id":"4","last_reported":1749603323,"current_range_meters":16400,"station_id":"ce4bhrh2rcd13ifvqhug","pricing_plan_id":"cebpf4jnsgd1na2vs0mg"},{"bike_id":"3a739672-c67e-4a21-a7cf-272409c07aa5","system_id":"levelo_inurba_marseille","lat":43.27565,"lon":5.38423,"is_reserved":false,"is_disabled":false,"rental_uris":{"android":"levelo://app?vid=3a739672-c67e-4a21-a7cf-272409c07aa5","ios":"levelo://app?vid=3a739672-c67e-4a21-a7cf-272409c07aa5"},"vehicle_type_id":"4","last_reported":1749603323,"current_range_meters":16400,"station_id":"ce4bhh92rcd13ifvqfi0","pricing_plan_id":"cebpf4jnsgd1na2vs0mg"},{"bike_id":"1f42e774-0b65-4738-b3e3-0aae7ec0e65c","system_id":"levelo_inurba_marseille","lat":43.29561,"lon":5.3755,"is_reserved":false,"is_disabled":true,"rental_uris":{"android":"levelo://app?vid=1f42e774-0b65-4738-b3e3-0aae7ec0e65c","ios":"levelo://app?vid=1f42e774-0b65-4738-b3e3-0aae7ec0e65c"},"vehicle_type_id":"4","last_reported":1749603323,"current_range_meters":16400,"station_id":"ce4bgh92rcd13ifvqb50","pricing_plan_id":"cebpf4jnsgd1na2vs0mg"},{"bike_id":"8ff811ea-f688-4c56-8b61-1084846cf6c9","system_id":"levelo_inurba_marseille","lat":43.28357,"lon":5.38137,"is_reserved":false,"is_disabled":false,"rental_uris":{"android":"levelo://app?vid=8ff811ea-f688-4c56-8b61-1084846cf6c9","ios":"levelo://app?vid=8ff811ea-f688-4c56-8b61-1084846cf6c9"},"vehicle_type_id":"4","last_reported":1749603323,"current_range_meters":16400,"station_id":"ce4bh412rcd13ifvqdr0","pricing_plan_id":"cebpf4jnsgd1na2vs0mg"},{"bike_id":"6d3fde0b-9cca-478c-8fda-bb6b3bec651b","system_id":"levelo_inurba_marseille","lat":43.29936,"lon":5.36517,"is_reserved":false,"is_disabled":false,"rental_uris":{"android":"levelo://app?vid=6d3fde0b-9cca-478c-8fda-bb6b3bec651b","ios":"levelo://app?vid=6d3fde0b-9cca-478c-8fda-bb6b3bec651b"},"vehicle_type_id":"4","last_reported":1749603323,"current_range_meters":16400,"station_id":"ce4bgm92rcd13ifvqbr0","pricing_plan_id":"cebpf4jnsgd1na2vs0mg"},{"bike_id":"e591062d-e6af-42d6-b8c5-8323ee2cea64","system_id":"levelo_inurba_marseille","lat":43.31742,"lon":5.40453,"is_reserved":false,"is_disabled":false,"rental_uris":{"android":"levelo://app?vid=e591062d-e6af-42d6-b8c5-8323ee2cea64","ios":"levelo://app?vid=e591062d-e6af-42d6-b8c5-8323ee2cea64"},"vehicle_type_id":"4","last_reported":1749603323,"current_range_meters":16800,"station_id":"","pricing_plan_id":"cebpf4jnsgd1na2vs0mg"},{"bike_id":"5fff7fbf-49f1-40cb-855e-fedb6332ede0","system_id":"levelo_inurba_marseille","lat":43.27831,"lon":5.39212,"is_reserved":false,"is_disabled":false,"rental_uris":{"android":"levelo://app?vid=5fff7fbf-49f1-40cb-855e-fedb6332ede0","ios":"levelo://app?vid=5fff7fbf-49f1-40cb-855e-fedb6332ede0"},"vehicle_type_id":"4","last_reported":1749603323,"current_range_meters":16800,"station_id":"ce4bhjp2rcd13ifvqga0","pricing_plan_id":"cebpf4jnsgd1na2vs0mg"},{"bike_id":"af225b33-8362-4424-9216-f142b83b3fb0","system_id":"levelo_inurba_marseille","lat":43.309233,"lon":5.401489,"is_reserved":false,"is_disabled":false,"rental_uris":{"android":"levelo://app?vid=af225b33-8362-4424-9216-f142b83b3fb0","ios":"levelo://app?vid=af225b33-8362-4424-9216-f142b83b3fb0"},"vehicle_type_id":"4","last_reported":1749603323,"current_range_meters":16800,"station_id":"ce4bgvp2rcd13ifvqct0","pricing_plan_id":"cebpf4jnsgd1na2vs0mg"},{"bike_id":"38f50f9a-b344-4f2f-8799-90ea853fdead","system_id":"levelo_inurba_marseille","lat":43.28437,"lon":5.39202,"is_reserved":false,"is_disabled":false,"rental_uris":{"android":"levelo://app?vid=38f50f9a-b344-4f2f-8799-90ea853fdead","ios":"levelo://app?vid=38f50f9a-b344-4f2f-8799-90ea853fdead"},"vehicle_type_id":"4","last_reported":1749603323,"current_range_meters":16800,"station_id":"ce4bhoh2rcd13ifvqh5g","pricing_plan_id":"cebpf4jnsgd1na2vs0mg"},{"bike_id":"2bf26c1a-8fa6-467e-8650-a8e7ea1bb594","system_id":"levelo_inurba_marseille","lat":43.3066,"lon":5.4008,"is_reserved":false,"is_disabled":false,"rental_uris":{"android":"levelo://app?vid=2bf26c1a-8fa6-467e-8650-a8e7ea1bb594","ios":"levelo://app?vid=2bf26c1a-8fa6-467e-8650-a8e7ea1bb594"},"vehicle_type_id":"4","last_reported":1749603323,"current_range_meters":16800,"station_id":"ce4bh112rcd13ifvqda0","pricing_plan_id":"cebpf4jnsgd1na2vs0mg"},{"bike_id":"d6515318-ac2c-47f0-b0e4-ac5ab2c5d151","system_id":"levelo_inurba_marseille","lat":43.24168,"lon":5.36394,"is_reserved":false,"is_disabled":false,"rental_uris":{"android":"levelo://app?vid=d6515318-ac2c-47f0-b0e4-ac5ab2c5d151","ios":"levelo://app?vid=d6515318-ac2c-47f0-b0e4-ac5ab2c5d151"},"vehicle_type_id":"4","last_reported":1749603323,"current_range_meters":16800,"station_id":"cpo36qri1sfpv3e86is0","pricing_plan_id":"cebpf4jnsgd1na2vs0mg"},{"bike_id":"03ff7327-9d80-465b-bc3e-d109526df4c5","system_id":"levelo_inurba_marseille","lat":43.262251,"lon":5.404626,"is_reserved":false,"is_disabled":false,"rental_uris":{"android":"levelo://app?vid=03ff7327-9d80-465b-bc3e-d109526df4c5","ios":"levelo://app?vid=03ff7327-9d80-465b-bc3e-d109526df4c5"},"vehicle_type_id":"4","last_reported":1749603323,"current_range_meters":16800,"station_id":"ce4bhmh2rcd13ifvqgmg","pricing_plan_id":"cebpf4jnsgd1na2vs0mg"},{"bike_id":"5a1d050c-2159-4454-9a9b-40cab73aa2fb","system_id":"levelo_inurba_marseille","lat":43.32341,"lon":5.40613,"is_reserved":false,"is_disabled":false,"rental_uris":{"android":"levelo://app?vid=5a1d050c-2159-4454-9a9b-40cab73aa2fb","ios":"levelo://app?vid=5a1d050c-2159-4454-9a9b-40cab73aa2fb"},"vehicle_type_id":"4","last_reported":1749603323,"current_range_meters":16800,"station_id":"ce4bhq92rcd13ifvqhjg","pricing_plan_id":"cebpf4jnsgd1na2vs0mg"},{"bike_id":"b918f339-a33d-489c-826a-8fffafca2d2e","system_id":"levelo_inurba_marseille","lat":43.32361,"lon":5.38906,"is_reserved":false,"is_disabled":false,"rental_uris":{"android":"levelo://app?vid=b918f339-a33d-489c-826a-8fffafca2d2e","ios":"levelo://app?vid=b918f339-a33d-489c-826a-8fffafca2d2e"},"vehicle_type_id":"4","last_reported":1749603323,"current_range_meters":16800,"station_id":"ce4bhqp2rcd13ifvqhog","pricing_plan_id":"cebpf4jnsgd1na2vs0mg"},{"bike_id":"13be9a68-fd40-4f5d-b876-2f46b37c1388","system_id":"levelo_inurba_marseille","lat":43.31485,"lon":5.37314,"is_reserved":false,"is_disabled":false,"rental_uris":{"android":"levelo://app?vid=13be9a68-fd40-4f5d-b876-2f46b37c1388","ios":"levelo://app?vid=13be9a68-fd40-4f5d-b876-2f46b37c1388"},"vehicle_type_id":"4","last_reported":1749603323,"current_range_meters":16800,"station_id":"ce4bgt12rcd13ifvqcd0","pricing_plan_id":"cebpf4jnsgd1na2vs0mg"},{"bike_id":"b2625ca3-17ed-4835-b3d7-616838023877","system_id":"levelo_inurba_marseille","lat":43.29789,"lon":5.39326,"is_reserved":false,"is_disabled":false,"rental_uris":{"android":"levelo://app?vid=b2625ca3-17ed-4835-b3d7-616838023877","ios":"levelo://app?vid=b2625ca3-17ed-4835-b3d7-616838023877"},"vehicle_type_id":"4","last_reported":1749603323,"current_range_meters":16800,"station_id":"chh1huq6cuj3fo74tm60","pricing_plan_id":"cebpf4jnsgd1na2vs0mg"},{"bike_id":"314bac2c-e47f-46cd-afcd-53cd84a7d142","system_id":"levelo_inurba_marseille","lat":43.27614,"lon":5.3613,"is_reserved":false,"is_disabled":true,"rental_uris":{"android":"levelo://app?vid=314bac2c-e47f-46cd-afcd-53cd84a7d142","ios":"levelo://app?vid=314bac2c-e47f-46cd-afcd-53cd84a7d142"},"vehicle_type_id":"4","last_reported":1749603323,"current_range_meters":16800,"station_id":"ce4bgj92rcd13ifvqbe0","pricing_plan_id":"cebpf4jnsgd1na2vs0mg"},{"bike_id":"a2421370-e442-436f-a98a-844d44299694","system_id":"levelo_inurba_marseille","lat":43.32376,"lon":5.36739,"is_reserved":false,"is_disabled":false,"rental_uris":{"android":"levelo://app?vid=a2421370-e442-436f-a98a-844d44299694","ios":"levelo://app?vid=a2421370-e442-436f-a98a-844d44299694"},"vehicle_type_id":"4","last_reported":1749603323,"current_range_meters":17200,"station_id":"ce4bhsh2rcd13ifvqi2g","pricing_plan_id":"cebpf4jnsgd1na2vs0mg"},{"bike_id":"c5b3dfca-3c73-4004-8fba-15a03d548f9f","system_id":"levelo_inurba_marseille","lat":43.29231,"lon":5.40926,"is_reserved":false,"is_disabled":false,"rental_uris":{"android":"levelo://app?vid=c5b3dfca-3c73-4004-8fba-15a03d548f9f","ios":"levelo://app?vid=c5b3dfca-3c73-4004-8fba-15a03d548f9f"},"vehicle_type_id":"4","last_reported":1749603323,"current_range_meters":17200,"station_id":"ce4bh192rcd13ifvqdc0","pricing_plan_id":"cebpf4jnsgd1na2vs0mg"},{"bike_id":"f35a7651-f30c-47cd-91f6-9220617a9209","system_id":"levelo_inurba_marseille","lat":43.27842,"lon":5.39197,"is_reserved":false,"is_disabled":false,"rental_uris":{"android":"levelo://app?vid=f35a7651-f30c-47cd-91f6-9220617a9209","ios":"levelo://app?vid=f35a7651-f30c-47cd-91f6-9220617a9209"},"vehicle_type_id":"4","last_reported":1749603323,"current_range_meters":17200,"station_id":"ce4bhjp2rcd13ifvqga0","pricing_plan_id":"cebpf4jnsgd1na2vs0mg"},{"bike_id":"d7d56aec-5899-491c-a447-fc9ac7391843","system_id":"levelo_inurba_marseille","lat":43.29352,"lon":5.37865,"is_reserved":false,"is_disabled":false,"rental_uris":{"android":"levelo://app?vid=d7d56aec-5899-491c-a447-fc9ac7391843","ios":"levelo://app?vid=d7d56aec-5899-491c-a447-fc9ac7391843"},"vehicle_type_id":"4","last_reported":1749603323,"current_range_meters":17200,"station_id":"ce4bgjh2rcd13ifvqbf0","pricing_plan_id":"cebpf4jnsgd1na2vs0mg"},{"bike_id":"43cd7455-df1b-41fc-8965-f3963657a200","system_id":"levelo_inurba_marseille","lat":43.30415,"lon":5.41281,"is_reserved":false,"is_disabled":false,"rental_uris":{"android":"levelo://app?vid=43cd7455-df1b-41fc-8965-f3963657a200","ios":"levelo://app?vid=43cd7455-df1b-41fc-8965-f3963657a200"},"vehicle_type_id":"4","last_reported":1749603323,"current_range_meters":17200,"station_id":"ce4bhop2rcd13ifvqh8g","pricing_plan_id":"cebpf4jnsgd1na2vs0mg"},{"bike_id":"3a98ae74-12c9-4599-b86a-85da1d64030f","system_id":"levelo_inurba_marseille","lat":43.284399,"lon":5.391851,"is_reserved":false,"is_disabled":false,"rental_uris":{"android":"levelo://app?vid=3a98ae74-12c9-4599-b86a-85da1d64030f","ios":"levelo://app?vid=3a98ae74-12c9-4599-b86a-85da1d64030f"},"vehicle_type_id":"4","last_reported":1749603323,"current_range_meters":17200,"station_id":"ce4bhoh2rcd13ifvqh5g","pricing_plan_id":"cebpf4jnsgd1na2vs0mg"},{"bike_id":"a172b0cf-62c4-4c52-a818-ce564350df02","system_id":"levelo_inurba_marseille","lat":43.21186,"lon":5.35086,"is_reserved":false,"is_disabled":false,"rental_uris":{"android":"levelo://app?vid=a172b0cf-62c4-4c52-a818-ce564350df02","ios":"levelo://app?vid=a172b0cf-62c4-4c52-a818-ce564350df02"},"vehicle_type_id":"4","last_reported":1749603323,"current_range_meters":17200,"station_id":"st_cvj6sg6p6f1abm77japg","pricing_plan_id":"cebpf4jnsgd1na2vs0mg"},{"bike_id":"5f200347-d4a0-4b0b-8dea-d323dd48bdbb","system_id":"levelo_inurba_marseille","lat":43.30929,"lon":5.40165,"is_reserved":false,"is_disabled":false,"rental_uris":{"android":"levelo://app?vid=5f200347-d4a0-4b0b-8dea-d323dd48bdbb","ios":"levelo://app?vid=5f200347-d4a0-4b0b-8dea-d323dd48bdbb"},"vehicle_type_id":"4","last_reported":1749603323,"current_range_meters":17200,"station_id":"ce4bgvp2rcd13ifvqct0","pricing_plan_id":"cebpf4jnsgd1na2vs0mg"},{"bike_id":"d49963c9-4a74-4b7c-ae71-2e7f71f19deb","system_id":"levelo_inurba_marseille","lat":43.29594,"lon":5.36752,"is_reserved":false,"is_disabled":true,"rental_uris":{"android":"levelo://app?vid=d49963c9-4a74-4b7c-ae71-2e7f71f19deb","ios":"levelo://app?vid=d49963c9-4a74-4b7c-ae71-2e7f71f19deb"},"vehicle_type_id":"4","last_reported":1749603323,"current_range_meters":17600,"station_id":"ce4bgph2rcd13ifvqc2g","pricing_plan_id":"cebpf4jnsgd1na2vs0mg"},{"bike_id":"122899e6-7e09-495a-be69-af0902766ffc","system_id":"levelo_inurba_marseille","lat":43.288577,"lon":5.393177,"is_reserved":false,"is_disabled":false,"rental_uris":{"android":"levelo://app?vid=122899e6-7e09-495a-be69-af0902766ffc","ios":"levelo://app?vid=122899e6-7e09-495a-be69-af0902766ffc"},"vehicle_type_id":"4","last_reported":1749603323,"current_range_meters":17600,"station_id":"ce4bh2p2rcd13ifvqdi0","pricing_plan_id":"cebpf4jnsgd1na2vs0mg"},{"bike_id":"65066ef9-1c39-47d6-b104-be1d784d3bad","system_id":"levelo_inurba_marseille","lat":43.26225,"lon":5.40461,"is_reserved":false,"is_disabled":false,"rental_uris":{"android":"levelo://app?vid=65066ef9-1c39-47d6-b104-be1d784d3bad","ios":"levelo://app?vid=65066ef9-1c39-47d6-b104-be1d784d3bad"},"vehicle_type_id":"4","last_reported":1749603323,"current_range_meters":17600,"station_id":"ce4bhmh2rcd13ifvqgmg","pricing_plan_id":"cebpf4jnsgd1na2vs0mg"},{"bike_id":"7819eaaa-3f58-4c23-a5d9-18bda87e0b16","system_id":"levelo_inurba_marseille","lat":43.31372,"lon":5.38264,"is_reserved":false,"is_disabled":false,"rental_uris":{"android":"levelo://app?vid=7819eaaa-3f58-4c23-a5d9-18bda87e0b16","ios":"levelo://app?vid=7819eaaa-3f58-4c23-a5d9-18bda87e0b16"},"vehicle_type_id":"4","last_reported":1749603323,"current_range_meters":17600,"station_id":"","pricing_plan_id":"cebpf4jnsgd1na2vs0mg"},{"bike_id":"7e465627-ff3e-415d-9b80-dbdfeed5492b","system_id":"levelo_inurba_marseille","lat":43.30888,"lon":5.39606,"is_reserved":false,"is_disabled":false,"rental_uris":{"android":"levelo://app?vid=7e465627-ff3e-415d-9b80-dbdfeed5492b","ios":"levelo://app?vid=7e465627-ff3e-415d-9b80-dbdfeed5492b"},"vehicle_type_id":"4","last_reported":1749603323,"current_range_meters":17600,"station_id":"ce4bh012rcd13ifvqcv0","pricing_plan_id":"cebpf4jnsgd1na2vs0mg"},{"bike_id":"cf31a56d-c3cf-4a18-84a2-3db492cc4534","system_id":"levelo_inurba_marseille","lat":43.31291,"lon":5.39728,"is_reserved":false,"is_disabled":false,"rental_uris":{"android":"levelo://app?vid=cf31a56d-c3cf-4a18-84a2-3db492cc4534","ios":"levelo://app?vid=cf31a56d-c3cf-4a18-84a2-3db492cc4534"},"vehicle_type_id":"4","last_reported":1749603323,"current_range_meters":17600,"station_id":"","pricing_plan_id":"cebpf4jnsgd1na2vs0mg"},{"bike_id":"2ba498aa-84fe-4463-b182-f88913fd5e77","system_id":"levelo_inurba_marseille","lat":43.2873,"lon":5.36088,"is_reserved":false,"is_disabled":false,"rental_uris":{"android":"levelo://app?vid=2ba498aa-84fe-4463-b182-f88913fd5e77","ios":"levelo://app?vid=2ba498aa-84fe-4463-b182-f88913fd5e77"},"vehicle_type_id":"4","last_reported":1749603323,"current_range_meters":17600,"station_id":"cki0cbj6b192h4jlfktg","pricing_plan_id":"cebpf4jnsgd1na2vs0mg"},{"bike_id":"812e4842-d011-45eb-9f3e-65d6a7b1e1f0","system_id":"levelo_inurba_marseille","lat":43.30924,"lon":5.4014,"is_reserved":false,"is_disabled":false,"rental_uris":{"android":"levelo://app?vid=812e4842-d011-45eb-9f3e-65d6a7b1e1f0","ios":"levelo://app?vid=812e4842-d011-45eb-9f3e-65d6a7b1e1f0"},"vehicle_type_id":"4","last_reported":1749603323,"current_range_meters":17600,"station_id":"ce4bgvp2rcd13ifvqct0","pricing_plan_id":"cebpf4jnsgd1na2vs0mg"},{"bike_id":"f10adc7e-6a3a-4a5d-9515-dc52fefe2058","system_id":"levelo_inurba_marseille","lat":43.32361,"lon":5.36772,"is_reserved":false,"is_disabled":false,"rental_uris":{"android":"levelo://app?vid=f10adc7e-6a3a-4a5d-9515-dc52fefe2058","ios":"levelo://app?vid=f10adc7e-6a3a-4a5d-9515-dc52fefe2058"},"vehicle_type_id":"4","last_reported":1749603323,"current_range_meters":17600,"station_id":"ce4bhsh2rcd13ifvqi2g","pricing_plan_id":"cebpf4jnsgd1na2vs0mg"},{"bike_id":"e52167b8-b978-4996-b457-39e378d310f5","system_id":"levelo_inurba_marseille","lat":43.30449,"lon":5.38886,"is_reserved":false,"is_disabled":false,"rental_uris":{"android":"levelo://app?vid=e52167b8-b978-4996-b457-39e378d310f5","ios":"levelo://app?vid=e52167b8-b978-4996-b457-39e378d310f5"},"vehicle_type_id":"4","last_reported":1749603323,"current_range_meters":17600,"station_id":"ce4bgk12rcd13ifvqbi0","pricing_plan_id":"cebpf4jnsgd1na2vs0mg"},{"bike_id":"e5544675-2264-4872-bca5-7dfec0b1bf90","system_id":"levelo_inurba_marseille","lat":43.28526,"lon":5.40488,"is_reserved":false,"is_disabled":false,"rental_uris":{"android":"levelo://app?vid=e5544675-2264-4872-bca5-7dfec0b1bf90","ios":"levelo://app?vid=e5544675-2264-4872-bca5-7dfec0b1bf90"},"vehicle_type_id":"4","last_reported":1749603323,"current_range_meters":17600,"station_id":"","pricing_plan_id":"cebpf4jnsgd1na2vs0mg"},{"bike_id":"757cced2-69fc-4019-81bc-6eaad8e07fd7","system_id":"levelo_inurba_marseille","lat":43.231823,"lon":5.399895,"is_reserved":false,"is_disabled":false,"rental_uris":{"android":"levelo://app?vid=757cced2-69fc-4019-81bc-6eaad8e07fd7","ios":"levelo://app?vid=757cced2-69fc-4019-81bc-6eaad8e07fd7"},"vehicle_type_id":"4","last_reported":1749603323,"current_range_meters":18000,"station_id":"ce4bhn12rcd13ifvqgqg","pricing_plan_id":"cebpf4jnsgd1na2vs0mg"},{"bike_id":"645e0d47-935a-4360-99e6-6ef38dd101d1","system_id":"levelo_inurba_marseille","lat":43.28071,"lon":5.3965,"is_reserved":false,"is_disabled":false,"rental_uris":{"android":"levelo://app?vid=645e0d47-935a-4360-99e6-6ef38dd101d1","ios":"levelo://app?vid=645e0d47-935a-4360-99e6-6ef38dd101d1"},"vehicle_type_id":"4","last_reported":1749603323,"current_range_meters":18000,"station_id":"ce4bho12rcd13ifvqh2g","pricing_plan_id":"cebpf4jnsgd1na2vs0mg"},{"bike_id":"b547720b-b726-4541-aca7-fc30879a4e94","system_id":"levelo_inurba_marseille","lat":43.27566,"lon":5.3842,"is_reserved":false,"is_disabled":false,"rental_uris":{"android":"levelo://app?vid=b547720b-b726-4541-aca7-fc30879a4e94","ios":"levelo://app?vid=b547720b-b726-4541-aca7-fc30879a4e94"},"vehicle_type_id":"4","last_reported":1749603323,"current_range_meters":18000,"station_id":"ce4bhh92rcd13ifvqfi0","pricing_plan_id":"cebpf4jnsgd1na2vs0mg"},{"bike_id":"ba74330e-e7e1-47b7-aac8-f61ede63b89c","system_id":"levelo_inurba_marseille","lat":43.281497,"lon":5.426385,"is_reserved":false,"is_disabled":false,"rental_uris":{"android":"levelo://app?vid=ba74330e-e7e1-47b7-aac8-f61ede63b89c","ios":"levelo://app?vid=ba74330e-e7e1-47b7-aac8-f61ede63b89c"},"vehicle_type_id":"4","last_reported":1749603323,"current_range_meters":18000,"station_id":"ce4bhnh2rcd13ifvqgug","pricing_plan_id":"cebpf4jnsgd1na2vs0mg"},{"bike_id":"1f946e20-d142-4cbb-9385-f87ae2569b7b","system_id":"levelo_inurba_marseille","lat":43.28148,"lon":5.42639,"is_reserved":false,"is_disabled":false,"rental_uris":{"android":"levelo://app?vid=1f946e20-d142-4cbb-9385-f87ae2569b7b","ios":"levelo://app?vid=1f946e20-d142-4cbb-9385-f87ae2569b7b"},"vehicle_type_id":"4","last_reported":1749603323,"current_range_meters":18000,"station_id":"ce4bhnh2rcd13ifvqgug","pricing_plan_id":"cebpf4jnsgd1na2vs0mg"},{"bike_id":"19d24005-baf1-421a-8496-f02c35c17c50","system_id":"levelo_inurba_marseille","lat":43.30178,"lon":5.36632,"is_reserved":false,"is_disabled":false,"rental_uris":{"android":"levelo://app?vid=19d24005-baf1-421a-8496-f02c35c17c50","ios":"levelo://app?vid=19d24005-baf1-421a-8496-f02c35c17c50"},"vehicle_type_id":"4","last_reported":1749603323,"current_range_meters":18800,"station_id":"ce4bgrh2rcd13ifvqc8g","pricing_plan_id":"cebpf4jnsgd1na2vs0mg"},{"bike_id":"7d030959-b934-40a7-9c11-4e30c7be4879","system_id":"levelo_inurba_marseille","lat":43.31384,"lon":5.38503,"is_reserved":false,"is_disabled":false,"rental_uris":{"android":"levelo://app?vid=7d030959-b934-40a7-9c11-4e30c7be4879","ios":"levelo://app?vid=7d030959-b934-40a7-9c11-4e30c7be4879"},"vehicle_type_id":"4","last_reported":1749603323,"current_range_meters":18800,"station_id":"ce4bgt92rcd13ifvqcf0","pricing_plan_id":"cebpf4jnsgd1na2vs0mg"},{"bike_id":"04f107b7-020e-49a3-8513-6c594c244cad","system_id":"levelo_inurba_marseille","lat":43.31367,"lon":5.385,"is_reserved":false,"is_disabled":false,"rental_uris":{"android":"levelo://app?vid=04f107b7-020e-49a3-8513-6c594c244cad","ios":"levelo://app?vid=04f107b7-020e-49a3-8513-6c594c244cad"},"vehicle_type_id":"4","last_reported":1749603323,"current_range_meters":18800,"station_id":"ce4bgt92rcd13ifvqcf0","pricing_plan_id":"cebpf4jnsgd1na2vs0mg"},{"bike_id":"43d06fb2-37ef-4f7f-bea3-608ee6d0f3e3","system_id":"levelo_inurba_marseille","lat":43.26479,"lon":5.39574,"is_reserved":false,"is_disabled":true,"rental_uris":{"android":"levelo://app?vid=43d06fb2-37ef-4f7f-bea3-608ee6d0f3e3","ios":"levelo://app?vid=43d06fb2-37ef-4f7f-bea3-608ee6d0f3e3"},"vehicle_type_id":"4","last_reported":1749603323,"current_range_meters":19200,"station_id":"ce4bhi12rcd13ifvqfq0","pricing_plan_id":"cebpf4jnsgd1na2vs0mg"},{"bike_id":"71bbf359-9fd1-423f-a7b9-9134e73c1ef0","system_id":"levelo_inurba_marseille","lat":43.29945,"lon":5.36573,"is_reserved":false,"is_disabled":false,"rental_uris":{"android":"levelo://app?vid=71bbf359-9fd1-423f-a7b9-9134e73c1ef0","ios":"levelo://app?vid=71bbf359-9fd1-423f-a7b9-9134e73c1ef0"},"vehicle_type_id":"4","last_reported":1749603323,"current_range_meters":19200,"station_id":"ce4bgm92rcd13ifvqbr0","pricing_plan_id":"cebpf4jnsgd1na2vs0mg"},{"bike_id":"fb6eccf4-9903-4008-ab3b-d3df46689d9a","system_id":"levelo_inurba_marseille","lat":43.23185,"lon":5.400065,"is_reserved":false,"is_disabled":false,"rental_uris":{"android":"levelo://app?vid=fb6eccf4-9903-4008-ab3b-d3df46689d9a","ios":"levelo://app?vid=fb6eccf4-9903-4008-ab3b-d3df46689d9a"},"vehicle_type_id":"4","last_reported":1749603323,"current_range_meters":19200,"station_id":"ce4bhn12rcd13ifvqgqg","pricing_plan_id":"cebpf4jnsgd1na2vs0mg"},{"bike_id":"2e4810f4-82ca-41f2-83c9-f0db31584815","system_id":"levelo_inurba_marseille","lat":43.28734,"lon":5.36082,"is_reserved":false,"is_disabled":false,"rental_uris":{"android":"levelo://app?vid=2e4810f4-82ca-41f2-83c9-f0db31584815","ios":"levelo://app?vid=2e4810f4-82ca-41f2-83c9-f0db31584815"},"vehicle_type_id":"4","last_reported":1749603323,"current_range_meters":19200,"station_id":"cki0cbj6b192h4jlfktg","pricing_plan_id":"cebpf4jnsgd1na2vs0mg"},{"bike_id":"8d2b645a-ffdf-4b68-949a-2a4281616e96","system_id":"levelo_inurba_marseille","lat":43.30433,"lon":5.38894,"is_reserved":false,"is_disabled":false,"rental_uris":{"android":"levelo://app?vid=8d2b645a-ffdf-4b68-949a-2a4281616e96","ios":"levelo://app?vid=8d2b645a-ffdf-4b68-949a-2a4281616e96"},"vehicle_type_id":"4","last_reported":1749603323,"current_range_meters":19200,"station_id":"ce4bgk12rcd13ifvqbi0","pricing_plan_id":"cebpf4jnsgd1na2vs0mg"},{"bike_id":"c5eddcdc-05cb-4e8a-a104-e4e9c1d4cff2","system_id":"levelo_inurba_marseille","lat":43.30545,"lon":5.38433,"is_reserved":false,"is_disabled":false,"rental_uris":{"android":"levelo://app?vid=c5eddcdc-05cb-4e8a-a104-e4e9c1d4cff2","ios":"levelo://app?vid=c5eddcdc-05cb-4e8a-a104-e4e9c1d4cff2"},"vehicle_type_id":"4","last_reported":1749603323,"current_range_meters":19200,"station_id":"ce4bgg92rcd13ifvqb30","pricing_plan_id":"cebpf4jnsgd1na2vs0mg"},{"bike_id":"355cf286-0b63-4ba5-8fd3-08f2449a771d","system_id":"levelo_inurba_marseille","lat":43.27491,"lon":5.42466,"is_reserved":false,"is_disabled":false,"rental_uris":{"android":"levelo://app?vid=355cf286-0b63-4ba5-8fd3-08f2449a771d","ios":"levelo://app?vid=355cf286-0b63-4ba5-8fd3-08f2449a771d"},"vehicle_type_id":"4","last_reported":1749603323,"current_range_meters":19200,"station_id":"ce4bhn92rcd13ifvqgrg","pricing_plan_id":"cebpf4jnsgd1na2vs0mg"},{"bike_id":"85745811-9868-416e-a163-ad50e1831125","system_id":"levelo_inurba_marseille","lat":43.28445,"lon":5.35891,"is_reserved":false,"is_disabled":false,"rental_uris":{"android":"levelo://app?vid=85745811-9868-416e-a163-ad50e1831125","ios":"levelo://app?vid=85745811-9868-416e-a163-ad50e1831125"},"vehicle_type_id":"4","last_reported":1749603323,"current_range_meters":19200,"station_id":"ce4bhah2rcd13ifvqei0","pricing_plan_id":"cebpf4jnsgd1na2vs0mg"},{"bike_id":"26188140-1807-466a-b47c-9cde473e1f96","system_id":"levelo_inurba_marseille","lat":43.299821,"lon":5.371742,"is_reserved":false,"is_disabled":true,"rental_uris":{"android":"levelo://app?vid=26188140-1807-466a-b47c-9cde473e1f96","ios":"levelo://app?vid=26188140-1807-466a-b47c-9cde473e1f96"},"vehicle_type_id":"4","last_reported":1749603323,"current_range_meters":19200,"station_id":"ce4bgr92rcd13ifvqc7g","pricing_plan_id":"cebpf4jnsgd1na2vs0mg"},{"bike_id":"9b27829e-5332-4f5a-9e45-aad00442a969","system_id":"levelo_inurba_marseille","lat":43.27921,"lon":5.38264,"is_reserved":false,"is_disabled":false,"rental_uris":{"android":"levelo://app?vid=9b27829e-5332-4f5a-9e45-aad00442a969","ios":"levelo://app?vid=9b27829e-5332-4f5a-9e45-aad00442a969"},"vehicle_type_id":"4","last_reported":1749603323,"current_range_meters":19200,"station_id":"","pricing_plan_id":"cebpf4jnsgd1na2vs0mg"},{"bike_id":"99ccb411-d7f9-4fcb-b612-4d8582e16182","system_id":"levelo_inurba_marseille","lat":43.33738,"lon":5.39186,"is_reserved":false,"is_disabled":false,"rental_uris":{"android":"levelo://app?vid=99ccb411-d7f9-4fcb-b612-4d8582e16182","ios":"levelo://app?vid=99ccb411-d7f9-4fcb-b612-4d8582e16182"},"vehicle_type_id":"4","last_reported":1749603323,"current_range_meters":19200,"station_id":"ce4bhr92rcd13ifvqhsg","pricing_plan_id":"cebpf4jnsgd1na2vs0mg"},{"bike_id":"823a98c9-232c-4093-9191-c4731217f2c7","system_id":"levelo_inurba_marseille","lat":43.30245,"lon":5.40034,"is_reserved":false,"is_disabled":false,"rental_uris":{"android":"levelo://app?vid=823a98c9-232c-4093-9191-c4731217f2c7","ios":"levelo://app?vid=823a98c9-232c-4093-9191-c4731217f2c7"},"vehicle_type_id":"4","last_reported":1749603323,"current_range_meters":19600,"station_id":"","pricing_plan_id":"cebpf4jnsgd1na2vs0mg"},{"bike_id":"1ffe6267-ffee-48b5-9a1a-8fe4f3a18bb0","system_id":"levelo_inurba_marseille","lat":43.31487,"lon":5.373163,"is_reserved":false,"is_disabled":false,"rental_uris":{"android":"levelo://app?vid=1ffe6267-ffee-48b5-9a1a-8fe4f3a18bb0","ios":"levelo://app?vid=1ffe6267-ffee-48b5-9a1a-8fe4f3a18bb0"},"vehicle_type_id":"4","last_reported":1749603323,"current_range_meters":19600,"station_id":"ce4bgt12rcd13ifvqcd0","pricing_plan_id":"cebpf4jnsgd1na2vs0mg"},{"bike_id":"b0648502-35c7-4d48-abe0-8ab6c3d841fa","system_id":"levelo_inurba_marseille","lat":43.27937,"lon":5.41048,"is_reserved":false,"is_disabled":false,"rental_uris":{"android":"levelo://app?vid=b0648502-35c7-4d48-abe0-8ab6c3d841fa","ios":"levelo://app?vid=b0648502-35c7-4d48-abe0-8ab6c3d841fa"},"vehicle_type_id":"4","last_reported":1749603323,"current_range_meters":19600,"station_id":"ce4bhnp2rcd13ifvqh0g","pricing_plan_id":"cebpf4jnsgd1na2vs0mg"},{"bike_id":"2582e4e6-eee3-41b6-8789-7cc9471e4fb4","system_id":"levelo_inurba_marseille","lat":43.307304,"lon":5.424451,"is_reserved":false,"is_disabled":false,"rental_uris":{"android":"levelo://app?vid=2582e4e6-eee3-41b6-8789-7cc9471e4fb4","ios":"levelo://app?vid=2582e4e6-eee3-41b6-8789-7cc9471e4fb4"},"vehicle_type_id":"4","last_reported":1749603323,"current_range_meters":19600,"station_id":"st_cvj6ca6bvosntc0bfgr0","pricing_plan_id":"cebpf4jnsgd1na2vs0mg"},{"bike_id":"00c94cd1-33f1-4483-8d50-d32717f9fe3e","system_id":"levelo_inurba_marseille","lat":43.317265,"lon":5.424053,"is_reserved":false,"is_disabled":false,"rental_uris":{"android":"levelo://app?vid=00c94cd1-33f1-4483-8d50-d32717f9fe3e","ios":"levelo://app?vid=00c94cd1-33f1-4483-8d50-d32717f9fe3e"},"vehicle_type_id":"4","last_reported":1749603323,"current_range_meters":19600,"station_id":"ce4bhp92rcd13ifvqhbg","pricing_plan_id":"cebpf4jnsgd1na2vs0mg"},{"bike_id":"6c7d34d3-c6bd-4add-80c3-539a4460ae1e","system_id":"levelo_inurba_marseille","lat":43.31166,"lon":5.38715,"is_reserved":false,"is_disabled":false,"rental_uris":{"android":"levelo://app?vid=6c7d34d3-c6bd-4add-80c3-539a4460ae1e","ios":"levelo://app?vid=6c7d34d3-c6bd-4add-80c3-539a4460ae1e"},"vehicle_type_id":"4","last_reported":1749603323,"current_range_meters":19600,"station_id":"ce4bgv12rcd13ifvqcp0","pricing_plan_id":"cebpf4jnsgd1na2vs0mg"},{"bike_id":"136a956b-c67e-4ee7-bafc-f4953a39f893","system_id":"levelo_inurba_marseille","lat":43.25131,"lon":5.39661,"is_reserved":false,"is_disabled":false,"rental_uris":{"android":"levelo://app?vid=136a956b-c67e-4ee7-bafc-f4953a39f893","ios":"levelo://app?vid=136a956b-c67e-4ee7-bafc-f4953a39f893"},"vehicle_type_id":"4","last_reported":1749603323,"current_range_meters":19600,"station_id":"","pricing_plan_id":"cebpf4jnsgd1na2vs0mg"},{"bike_id":"7b1cfe02-109e-4836-ae59-8aad9c4f2698","system_id":"levelo_inurba_marseille","lat":43.32324,"lon":5.40609,"is_reserved":false,"is_disabled":false,"rental_uris":{"android":"levelo://app?vid=7b1cfe02-109e-4836-ae59-8aad9c4f2698","ios":"levelo://app?vid=7b1cfe02-109e-4836-ae59-8aad9c4f2698"},"vehicle_type_id":"4","last_reported":1749603323,"current_range_meters":19600,"station_id":"ce4bhq92rcd13ifvqhjg","pricing_plan_id":"cebpf4jnsgd1na2vs0mg"},{"bike_id":"5cd55621-a46b-4861-9b0a-eaf6e6a41dd0","system_id":"levelo_inurba_marseille","lat":43.29269,"lon":5.40895,"is_reserved":false,"is_disabled":false,"rental_uris":{"android":"levelo://app?vid=5cd55621-a46b-4861-9b0a-eaf6e6a41dd0","ios":"levelo://app?vid=5cd55621-a46b-4861-9b0a-eaf6e6a41dd0"},"vehicle_type_id":"4","last_reported":1749603323,"current_range_meters":19600,"station_id":"ce4bh192rcd13ifvqdc0","pricing_plan_id":"cebpf4jnsgd1na2vs0mg"},{"bike_id":"1f01b44c-5f74-458f-bd4e-74f1314b1ea9","system_id":"levelo_inurba_marseille","lat":43.2724,"lon":5.39154,"is_reserved":false,"is_disabled":true,"rental_uris":{"android":"levelo://app?vid=1f01b44c-5f74-458f-bd4e-74f1314b1ea9","ios":"levelo://app?vid=1f01b44c-5f74-458f-bd4e-74f1314b1ea9"},"vehicle_type_id":"4","last_reported":1749603323,"current_range_meters":19600,"station_id":"ce4bhhp2rcd13ifvqfm0","pricing_plan_id":"cebpf4jnsgd1na2vs0mg"},{"bike_id":"ea9fe97b-04b3-4826-ae12-d22cd9e3b82e","system_id":"levelo_inurba_marseille","lat":43.28481,"lon":5.38439,"is_reserved":false,"is_disabled":false,"rental_uris":{"android":"levelo://app?vid=ea9fe97b-04b3-4826-ae12-d22cd9e3b82e","ios":"levelo://app?vid=ea9fe97b-04b3-4826-ae12-d22cd9e3b82e"},"vehicle_type_id":"4","last_reported":1749603323,"current_range_meters":19600,"station_id":"ce4bh512rcd13ifvqe3g","pricing_plan_id":"cebpf4jnsgd1na2vs0mg"},{"bike_id":"c6bbdb40-7d37-4f26-80b4-818e8018c364","system_id":"levelo_inurba_marseille","lat":43.26486,"lon":5.39554,"is_reserved":false,"is_disabled":false,"rental_uris":{"android":"levelo://app?vid=c6bbdb40-7d37-4f26-80b4-818e8018c364","ios":"levelo://app?vid=c6bbdb40-7d37-4f26-80b4-818e8018c364"},"vehicle_type_id":"4","last_reported":1749603323,"current_range_meters":19600,"station_id":"ce4bhi12rcd13ifvqfq0","pricing_plan_id":"cebpf4jnsgd1na2vs0mg"},{"bike_id":"07496176-d4c7-444e-b485-13025cec7453","system_id":"levelo_inurba_marseille","lat":43.25116,"lon":5.40324,"is_reserved":false,"is_disabled":false,"rental_uris":{"android":"levelo://app?vid=07496176-d4c7-444e-b485-13025cec7453","ios":"levelo://app?vid=07496176-d4c7-444e-b485-13025cec7453"},"vehicle_type_id":"4","last_reported":1749603323,"current_range_meters":20000,"station_id":"ce4bhlh2rcd13ifvqgig","pricing_plan_id":"cebpf4jnsgd1na2vs0mg"},{"bike_id":"c9fce19b-bd54-4522-bdc7-aa26a9be634a","system_id":"levelo_inurba_marseille","lat":43.273177,"lon":5.391043,"is_reserved":false,"is_disabled":true,"rental_uris":{"android":"levelo://app?vid=c9fce19b-bd54-4522-bdc7-aa26a9be634a","ios":"levelo://app?vid=c9fce19b-bd54-4522-bdc7-aa26a9be634a"},"vehicle_type_id":"4","last_reported":1749603323,"current_range_meters":20000,"station_id":"ce4bhgp2rcd13ifvqfe0","pricing_plan_id":"cebpf4jnsgd1na2vs0mg"},{"bike_id":"0cca0fb4-40bd-49d5-b602-b222ca284a67","system_id":"levelo_inurba_marseille","lat":43.27171,"lon":5.409922,"is_reserved":false,"is_disabled":false,"rental_uris":{"android":"levelo://app?vid=0cca0fb4-40bd-49d5-b602-b222ca284a67","ios":"levelo://app?vid=0cca0fb4-40bd-49d5-b602-b222ca284a67"},"vehicle_type_id":"4","last_reported":1749603323,"current_range_meters":20000,"station_id":"ce4bhl12rcd13ifvqgf0","pricing_plan_id":"cebpf4jnsgd1na2vs0mg"},{"bike_id":"df40d743-ca7b-4f7c-882e-6472a0df34cc","system_id":"levelo_inurba_marseille","lat":43.23199,"lon":5.35554,"is_reserved":false,"is_disabled":false,"rental_uris":{"android":"levelo://app?vid=df40d743-ca7b-4f7c-882e-6472a0df34cc","ios":"levelo://app?vid=df40d743-ca7b-4f7c-882e-6472a0df34cc"},"vehicle_type_id":"4","last_reported":1749603323,"current_range_meters":20000,"station_id":"ce4bhu92rcd13ifvqi70","pricing_plan_id":"cebpf4jnsgd1na2vs0mg"},{"bike_id":"929c0d1a-61d0-4797-aab5-b8531e32d169","system_id":"levelo_inurba_marseille","lat":43.28354,"lon":5.38136,"is_reserved":false,"is_disabled":false,"rental_uris":{"android":"levelo://app?vid=929c0d1a-61d0-4797-aab5-b8531e32d169","ios":"levelo://app?vid=929c0d1a-61d0-4797-aab5-b8531e32d169"},"vehicle_type_id":"4","last_reported":1749603323,"current_range_meters":20000,"station_id":"ce4bh412rcd13ifvqdr0","pricing_plan_id":"cebpf4jnsgd1na2vs0mg"},{"bike_id":"a9ce25a4-35df-4997-8a9b-85ea21eaee89","system_id":"levelo_inurba_marseille","lat":43.289414,"lon":5.363952,"is_reserved":false,"is_disabled":false,"rental_uris":{"android":"levelo://app?vid=a9ce25a4-35df-4997-8a9b-85ea21eaee89","ios":"levelo://app?vid=a9ce25a4-35df-4997-8a9b-85ea21eaee89"},"vehicle_type_id":"4","last_reported":1749603323,"current_range_meters":20000,"station_id":"ce4bhc92rcd13ifvqetg","pricing_plan_id":"cebpf4jnsgd1na2vs0mg"},{"bike_id":"8eb78b18-26d5-4c38-bb0a-61b9c45e7a4d","system_id":"levelo_inurba_marseille","lat":43.30416,"lon":5.39768,"is_reserved":false,"is_disabled":false,"rental_uris":{"android":"levelo://app?vid=8eb78b18-26d5-4c38-bb0a-61b9c45e7a4d","ios":"levelo://app?vid=8eb78b18-26d5-4c38-bb0a-61b9c45e7a4d"},"vehicle_type_id":"4","last_reported":1749603323,"current_range_meters":20000,"station_id":"ce4bh092rcd13ifvqd20","pricing_plan_id":"cebpf4jnsgd1na2vs0mg"},{"bike_id":"9cf2e2c0-8c8a-4772-b5e0-42561336bb8a","system_id":"levelo_inurba_marseille","lat":43.30923,"lon":5.4017,"is_reserved":false,"is_disabled":false,"rental_uris":{"android":"levelo://app?vid=9cf2e2c0-8c8a-4772-b5e0-42561336bb8a","ios":"levelo://app?vid=9cf2e2c0-8c8a-4772-b5e0-42561336bb8a"},"vehicle_type_id":"4","last_reported":1749603323,"current_range_meters":20400,"station_id":"ce4bgvp2rcd13ifvqct0","pricing_plan_id":"cebpf4jnsgd1na2vs0mg"},{"bike_id":"556ea021-f173-497b-9607-7375aef62e86","system_id":"levelo_inurba_marseille","lat":43.292278,"lon":5.379214,"is_reserved":false,"is_disabled":false,"rental_uris":{"android":"levelo://app?vid=556ea021-f173-497b-9607-7375aef62e86","ios":"levelo://app?vid=556ea021-f173-497b-9607-7375aef62e86"},"vehicle_type_id":"4","last_reported":1749603323,"current_range_meters":20000,"station_id":"","pricing_plan_id":"cebpf4jnsgd1na2vs0mg"},{"bike_id":"27c3ce4c-2f83-41ff-abde-3fb4e2e068fb","system_id":"levelo_inurba_marseille","lat":43.30912,"lon":5.37603,"is_reserved":false,"is_disabled":false,"rental_uris":{"android":"levelo://app?vid=27c3ce4c-2f83-41ff-abde-3fb4e2e068fb","ios":"levelo://app?vid=27c3ce4c-2f83-41ff-abde-3fb4e2e068fb"},"vehicle_type_id":"4","last_reported":1749603323,"current_range_meters":20000,"station_id":"","pricing_plan_id":"cebpf4jnsgd1na2vs0mg"},{"bike_id":"dbb3b8fb-fe6b-468a-b993-7c9487b6c88c","system_id":"levelo_inurba_marseille","lat":43.24071,"lon":5.37758,"is_reserved":false,"is_disabled":false,"rental_uris":{"android":"levelo://app?vid=dbb3b8fb-fe6b-468a-b993-7c9487b6c88c","ios":"levelo://app?vid=dbb3b8fb-fe6b-468a-b993-7c9487b6c88c"},"vehicle_type_id":"4","last_reported":1749603323,"current_range_meters":20000,"station_id":"ce4bhnp2rcd13ifvqgvg","pricing_plan_id":"cebpf4jnsgd1na2vs0mg"},{"bike_id":"f247d1c8-41f9-4d35-a31d-cfe3be064909","system_id":"levelo_inurba_marseille","lat":43.2922,"lon":5.40983,"is_reserved":false,"is_disabled":false,"rental_uris":{"android":"levelo://app?vid=f247d1c8-41f9-4d35-a31d-cfe3be064909","ios":"levelo://app?vid=f247d1c8-41f9-4d35-a31d-cfe3be064909"},"vehicle_type_id":"4","last_reported":1749603323,"current_range_meters":20400,"station_id":"","pricing_plan_id":"cebpf4jnsgd1na2vs0mg"},{"bike_id":"cc8a35c4-f433-4e90-8212-c6ec2af8be06","system_id":"levelo_inurba_marseille","lat":43.28081,"lon":5.39638,"is_reserved":false,"is_disabled":false,"rental_uris":{"android":"levelo://app?vid=cc8a35c4-f433-4e90-8212-c6ec2af8be06","ios":"levelo://app?vid=cc8a35c4-f433-4e90-8212-c6ec2af8be06"},"vehicle_type_id":"4","last_reported":1749603323,"current_range_meters":20400,"station_id":"ce4bho12rcd13ifvqh2g","pricing_plan_id":"cebpf4jnsgd1na2vs0mg"},{"bike_id":"867895a7-e623-4b44-a75d-b080304609b9","system_id":"levelo_inurba_marseille","lat":43.30925,"lon":5.40181,"is_reserved":false,"is_disabled":false,"rental_uris":{"android":"levelo://app?vid=867895a7-e623-4b44-a75d-b080304609b9","ios":"levelo://app?vid=867895a7-e623-4b44-a75d-b080304609b9"},"vehicle_type_id":"4","last_reported":1749603323,"current_range_meters":20800,"station_id":"ce4bgvp2rcd13ifvqct0","pricing_plan_id":"cebpf4jnsgd1na2vs0mg"},{"bike_id":"a9684eae-989e-46c2-9a36-7b96a5cf8b47","system_id":"levelo_inurba_marseille","lat":43.278332,"lon":5.392065,"is_reserved":false,"is_disabled":false,"rental_uris":{"android":"levelo://app?vid=a9684eae-989e-46c2-9a36-7b96a5cf8b47","ios":"levelo://app?vid=a9684eae-989e-46c2-9a36-7b96a5cf8b47"},"vehicle_type_id":"4","last_reported":1749603323,"current_range_meters":20800,"station_id":"chh1huq6cuj3fo74tm60","pricing_plan_id":"cebpf4jnsgd1na2vs0mg"},{"bike_id":"164947f5-28b6-4cf4-8317-48d1a9e832e9","system_id":"levelo_inurba_marseille","lat":43.262173,"lon":5.404454,"is_reserved":false,"is_disabled":false,"rental_uris":{"android":"levelo://app?vid=164947f5-28b6-4cf4-8317-48d1a9e832e9","ios":"levelo://app?vid=164947f5-28b6-4cf4-8317-48d1a9e832e9"},"vehicle_type_id":"4","last_reported":1749603323,"current_range_meters":20800,"station_id":"ce4bhmh2rcd13ifvqgmg","pricing_plan_id":"cebpf4jnsgd1na2vs0mg"},{"bike_id":"1b986ab5-899b-45c0-ae8f-5234203e90af","system_id":"levelo_inurba_marseille","lat":43.32089,"lon":5.36802,"is_reserved":false,"is_disabled":false,"rental_uris":{"android":"levelo://app?vid=1b986ab5-899b-45c0-ae8f-5234203e90af","ios":"levelo://app?vid=1b986ab5-899b-45c0-ae8f-5234203e90af"},"vehicle_type_id":"4","last_reported":1749603323,"current_range_meters":20800,"station_id":"ce4bhrh2rcd13ifvqhug","pricing_plan_id":"cebpf4jnsgd1na2vs0mg"},{"bike_id":"88edc3d5-a0de-42f9-bff2-17c7c9b02822","system_id":"levelo_inurba_marseille","lat":43.25102,"lon":5.40335,"is_reserved":false,"is_disabled":false,"rental_uris":{"android":"levelo://app?vid=88edc3d5-a0de-42f9-bff2-17c7c9b02822","ios":"levelo://app?vid=88edc3d5-a0de-42f9-bff2-17c7c9b02822"},"vehicle_type_id":"4","last_reported":1749603323,"current_range_meters":20800,"station_id":"ce4bhlh2rcd13ifvqgig","pricing_plan_id":"cebpf4jnsgd1na2vs0mg"},{"bike_id":"2f4766e0-426e-494a-a365-aecb39956a08","system_id":"levelo_inurba_marseille","lat":43.3067,"lon":5.40082,"is_reserved":false,"is_disabled":false,"rental_uris":{"android":"levelo://app?vid=2f4766e0-426e-494a-a365-aecb39956a08","ios":"levelo://app?vid=2f4766e0-426e-494a-a365-aecb39956a08"},"vehicle_type_id":"4","last_reported":1749603323,"current_range_meters":20800,"station_id":"ce4bh112rcd13ifvqda0","pricing_plan_id":"cebpf4jnsgd1na2vs0mg"},{"bike_id":"9cc09854-d27d-4772-a587-4e62b3e1423f","system_id":"levelo_inurba_marseille","lat":43.25105,"lon":5.40302,"is_reserved":false,"is_disabled":false,"rental_uris":{"android":"levelo://app?vid=9cc09854-d27d-4772-a587-4e62b3e1423f","ios":"levelo://app?vid=9cc09854-d27d-4772-a587-4e62b3e1423f"},"vehicle_type_id":"4","last_reported":1749603323,"current_range_meters":20800,"station_id":"ce4bhlh2rcd13ifvqgig","pricing_plan_id":"cebpf4jnsgd1na2vs0mg"},{"bike_id":"d6bd24a5-0420-4d7e-abbb-40c7a817dcf7","system_id":"levelo_inurba_marseille","lat":43.27986,"lon":5.41657,"is_reserved":false,"is_disabled":false,"rental_uris":{"android":"levelo://app?vid=d6bd24a5-0420-4d7e-abbb-40c7a817dcf7","ios":"levelo://app?vid=d6bd24a5-0420-4d7e-abbb-40c7a817dcf7"},"vehicle_type_id":"4","last_reported":1749603323,"current_range_meters":20800,"station_id":"ce4bho12rcd13ifvqh1g","pricing_plan_id":"cebpf4jnsgd1na2vs0mg"},{"bike_id":"3db8fde5-dc25-47f9-adb5-1429f5338e31","system_id":"levelo_inurba_marseille","lat":43.31743,"lon":5.38478,"is_reserved":false,"is_disabled":false,"rental_uris":{"android":"levelo://app?vid=3db8fde5-dc25-47f9-adb5-1429f5338e31","ios":"levelo://app?vid=3db8fde5-dc25-47f9-adb5-1429f5338e31"},"vehicle_type_id":"4","last_reported":1749603323,"current_range_meters":20800,"station_id":"","pricing_plan_id":"cebpf4jnsgd1na2vs0mg"},{"bike_id":"4c7d11cc-361d-4c0a-b7b6-b403260380b1","system_id":"levelo_inurba_marseille","lat":43.30115,"lon":5.38795,"is_reserved":false,"is_disabled":true,"rental_uris":{"android":"levelo://app?vid=4c7d11cc-361d-4c0a-b7b6-b403260380b1","ios":"levelo://app?vid=4c7d11cc-361d-4c0a-b7b6-b403260380b1"},"vehicle_type_id":"4","last_reported":1749603323,"current_range_meters":21600,"station_id":"ce4bghh2rcd13ifvqb60","pricing_plan_id":"cebpf4jnsgd1na2vs0mg"},{"bike_id":"43905188-6755-4fcf-a1e5-419d01155020","system_id":"levelo_inurba_marseille","lat":43.26218,"lon":5.40461,"is_reserved":false,"is_disabled":false,"rental_uris":{"android":"levelo://app?vid=43905188-6755-4fcf-a1e5-419d01155020","ios":"levelo://app?vid=43905188-6755-4fcf-a1e5-419d01155020"},"vehicle_type_id":"4","last_reported":1749603323,"current_range_meters":21600,"station_id":"ce4bhmh2rcd13ifvqgmg","pricing_plan_id":"cebpf4jnsgd1na2vs0mg"},{"bike_id":"2a7344b5-7126-4cc1-bbd1-a9bb0e44b7bd","system_id":"levelo_inurba_marseille","lat":43.23053,"lon":5.35496,"is_reserved":false,"is_disabled":false,"rental_uris":{"android":"levelo://app?vid=2a7344b5-7126-4cc1-bbd1-a9bb0e44b7bd","ios":"levelo://app?vid=2a7344b5-7126-4cc1-bbd1-a9bb0e44b7bd"},"vehicle_type_id":"4","last_reported":1749603323,"current_range_meters":21600,"station_id":"cpo3342slgdg3j2ifvpg","pricing_plan_id":"cebpf4jnsgd1na2vs0mg"},{"bike_id":"3f1574d6-fc40-4341-9dac-b195059ec68d","system_id":"levelo_inurba_marseille","lat":43.27212,"lon":5.39169,"is_reserved":false,"is_disabled":true,"rental_uris":{"android":"levelo://app?vid=3f1574d6-fc40-4341-9dac-b195059ec68d","ios":"levelo://app?vid=3f1574d6-fc40-4341-9dac-b195059ec68d"},"vehicle_type_id":"4","last_reported":1749603323,"current_range_meters":21600,"station_id":"ce4bhhp2rcd13ifvqfm0","pricing_plan_id":"cebpf4jnsgd1na2vs0mg"},{"bike_id":"ea10a0c6-3ddf-42e5-97b0-69a1037504de","system_id":"levelo_inurba_marseille","lat":43.2927,"lon":5.38443,"is_reserved":false,"is_disabled":true,"rental_uris":{"android":"levelo://app?vid=ea10a0c6-3ddf-42e5-97b0-69a1037504de","ios":"levelo://app?vid=ea10a0c6-3ddf-42e5-97b0-69a1037504de"},"vehicle_type_id":"4","last_reported":1749603323,"current_range_meters":21600,"station_id":"ce4bh692rcd13ifvqea0","pricing_plan_id":"cebpf4jnsgd1na2vs0mg"},{"bike_id":"f61fedfe-dd1b-4d4f-a41d-ed2e8059b1e7","system_id":"levelo_inurba_marseille","lat":43.30891,"lon":5.39642,"is_reserved":false,"is_disabled":false,"rental_uris":{"android":"levelo://app?vid=f61fedfe-dd1b-4d4f-a41d-ed2e8059b1e7","ios":"levelo://app?vid=f61fedfe-dd1b-4d4f-a41d-ed2e8059b1e7"},"vehicle_type_id":"4","last_reported":1749603323,"current_range_meters":22000,"station_id":"ce4bh012rcd13ifvqcv0","pricing_plan_id":"cebpf4jnsgd1na2vs0mg"},{"bike_id":"199978a5-d5a4-49e7-ad67-bb91c097cd3c","system_id":"levelo_inurba_marseille","lat":43.24556,"lon":5.39538,"is_reserved":false,"is_disabled":false,"rental_uris":{"android":"levelo://app?vid=199978a5-d5a4-49e7-ad67-bb91c097cd3c","ios":"levelo://app?vid=199978a5-d5a4-49e7-ad67-bb91c097cd3c"},"vehicle_type_id":"4","last_reported":1749603323,"current_range_meters":22000,"station_id":"ce4bhlp2rcd13ifvqgjg","pricing_plan_id":"cebpf4jnsgd1na2vs0mg"},{"bike_id":"09eda147-ba5d-4f75-813b-8736cdbf337e","system_id":"levelo_inurba_marseille","lat":43.251148,"lon":5.40315,"is_reserved":false,"is_disabled":false,"rental_uris":{"android":"levelo://app?vid=09eda147-ba5d-4f75-813b-8736cdbf337e","ios":"levelo://app?vid=09eda147-ba5d-4f75-813b-8736cdbf337e"},"vehicle_type_id":"4","last_reported":1749603323,"current_range_meters":22000,"station_id":"ce4bhlh2rcd13ifvqgig","pricing_plan_id":"cebpf4jnsgd1na2vs0mg"},