{"last_updated":1757751091,"ttl":60,"version":"2.2","data":{"bikes":[{"bike_id":"a0316f33-2541-48f6-b738-9efac7c3c48c","system_id":"levelo_inurba_marseille","lat":43.262,"lon":5.37932,"is_reserved":false,"is_disabled":false,"rental_uris":{"android":"levelo://app?vid=a0316f33-2541-48f6-b738-9efac7c3c48c","ios":"levelo://app?vid=a0316f33-2541-48f6-b738-9efac7c3c48c"},"vehicle_type_id":"4","last_reported":1757751092,"current_range_meters":2800,"station_id":"ce4bhjp2rcd13ifvqg90","pricing_plan_id":"cebpf4jnsgd1na2vs0mg"},{"bike_id":"42a5bc1e-233e-4d1d-8156-ea908421be63","system_id":"levelo_inurba_marseille","lat":43.24075,"lon":5.37767,"is_reserved":false,"is_disabled":false,"rental_uris":{"android":"levelo://app?vid=42a5bc1e-233e-4d1d-8156-ea908421be63","ios":"levelo://app?vid=42a5bc1e-233e-4d1d-8156-ea908421be63"},"vehicle_type_id":"4","last_reported":1757751092,"current_range_meters":2800,"station_id":"ce4bhnp2rcd13ifvqgvg","pricing_plan_id":"cebpf4jnsgd1na2vs0mg"},{"bike_id":"3d158a28-bece-4b10-9f82-ab3eb3313408","system_id":"levelo_inurba_marseille","lat":43.337608,"lon":5.374356,"is_reserved":false,"is_disabled":false,"rental_uris":{"android":"levelo://app?vid=3d158a28-bece-4b10-9f82-ab3eb3313408","ios":"levelo://app?vid=3d158a28-bece-4b10-9f82-ab3eb3313408"},"vehicle_type_id":"4","last_reported":1757751092,"current_range_meters":2800,"station_id":"","pricing_plan_id":"cebpf4jnsgd1na2vs0mg"},{"bike_id":"9c3a2073-bc98-42a1-a691-0a7b7be57bf8","system_id":"levelo_inurba_marseille","lat":43.29526,"lon":5.36379,"is_reserved":false,"is_disabled":false,"rental_uris":{"android":"levelo://app?vid=9c3a2073-bc98-42a1-a691-0a7b7be57bf8","ios":"levelo://app?vid=9c3a2073-bc98-42a1-a691-0a7b7be57bf8"},"vehicle_type_id":"4","last_reported":1757751092,"current_range_meters":2800,"station_id":"","pricing_plan_id":"cebpf4jnsgd1na2vs0mg"},{"bike_id":"983520b3-4d8a-40f7-869a-73f920304320","system_id":"levelo_inurba_marseille","lat":43.2315,"lon":5.43697,"is_reserved":false,"is_disabled":true,"rental_uris":{"android":"levelo://app?vid=983520b3-4d8a-40f7-869a-73f920304320","ios":"levelo://app?vid=983520b3-4d8a-40f7-869a-73f920304320"},"vehicle_type_id":"4","last_reported":1757751092,"current_range_meters":2800,"station_id":"ce4bhmp2rcd13ifvqgog","pricing_plan_id":"cebpf4jnsgd1na2vs0mg"},{"bike_id":"c14ddda8-05f2-4275-9b78-7f7a5455b6b9","system_id":"levelo_inurba_marseille","lat":43.30855,"lon":5.37408,"is_reserved":false,"is_disabled":false,"rental_uris":{"android":"levelo://app?vid=c14ddda8-05f2-4275-9b78-7f7a5455b6b9","ios":"levelo://app?vid=c14ddda8-05f2-4275-9b78-7f7a5455b6b9"},"vehicle_type_id":"4","last_reported":1757751092,"current_range_meters":3200,"station_id":"","pricing_plan_id":"cebpf4jnsgd1na2vs0mg"},{"bike_id":"6627b7c8-d245-498c-97ae-1bca49ecd6d9","system_id":"levelo_inurba_marseille","lat":43.32078,"lon":5.44776,"is_reserved":false,"is_disabled":false,"rental_uris":{"android":"levelo://app?vid=6627b7c8-d245-498c-97ae-1bca49ecd6d9","ios":"levelo://app?vid=6627b7c8-d245-498c-97ae-1bca49ecd6d9"},"vehicle_type_id":"4","last_reported":1757751092,"current_range_meters":3200,"station_id":"","pricing_plan_id":"cebpf4jnsgd1na2vs0mg"},{"bike_id":"7ca9c8c0-0ba1-46c1-82d7-00280a54cffe","system_id":"levelo_inurba_marseille","lat":43.304582,"lon":5.375194,"is_reserved":false,"is_disabled":false,"rental_uris":{"android":"levelo://app?vid=7ca9c8c0-0ba1-46c1-82d7-00280a54cffe","ios":"levelo://app?vid=7ca9c8c0-0ba1-46c1-82d7-00280a54cffe"},"vehicle_type_id":"4","last_reported":1757751092,"current_range_meters":3200,"station_id":"","pricing_plan_id":"cebpf4jnsgd1na2vs0mg"},{"bike_id":"2f90fbdf-e2db-444f-928b-42e117670f18","system_id":"levelo_inurba_marseille","lat":43.337608,"lon":5.374358,"is_reserved":false,"is_disabled":false,"rental_uris":{"android":"levelo://app?vid=2f90fbdf-e2db-444f-928b-42e117670f18","ios":"levelo://app?vid=2f90fbdf-e2db-444f-928b-42e117670f18"},"vehicle_type_id":"4","last_reported":1757751092,"current_range_meters":3600,"station_id":"","pricing_plan_id":"cebpf4jnsgd1na2vs0mg"},{"bike_id":"97514a44-1f4d-4ae1-a270-04ca7b75c621","system_id":"levelo_inurba_marseille","lat":43.28856,"lon":5.42522,"is_reserved":false,"is_disabled":false,"rental_uris":{"android":"levelo://app?vid=97514a44-1f4d-4ae1-a270-04ca7b75c621","ios":"levelo://app?vid=97514a44-1f4d-4ae1-a270-04ca7b75c621"},"vehicle_type_id":"4","last_reported":1757751092,"current_range_meters":3600,"station_id":"","pricing_plan_id":"cebpf4jnsgd1na2vs0mg"},{"bike_id":"d8ead69a-aff8-459b-bb65-1189cb519221","system_id":"levelo_inurba_marseille","lat":43.24168,"lon":5.36398,"is_reserved":false,"is_disabled":false,"rental_uris":{"android":"levelo://app?vid=d8ead69a-aff8-459b-bb65-1189cb519221","ios":"levelo://app?vid=d8ead69a-aff8-459b-bb65-1189cb519221"},"vehicle_type_id":"4","last_reported":1757751092,"current_range_meters":3600,"station_id":"cpo36qri1sfpv3e86is0","pricing_plan_id":"cebpf4jnsgd1na2vs0mg"},{"bike_id":"2148486c-3076-4b77-bb39-dd24a873d5aa","system_id":"levelo_inurba_marseille","lat":43.30132,"lon":5.39868,"is_reserved":false,"is_disabled":false,"rental_uris":{"android":"levelo://app?vid=2148486c-3076-4b77-bb39-dd24a873d5aa","ios":"levelo://app?vid=2148486c-3076-4b77-bb39-dd24a873d5aa"},"vehicle_type_id":"4","last_reported":1757751092,"current_range_meters":3600,"station_id":"ce4bh0h2rcd13ifvqd40","pricing_plan_id":"cebpf4jnsgd1na2vs0mg"},{"bike_id":"3970e572-099d-45ee-bf41-4fc242e0f0e4","system_id":"levelo_inurba_marseille","lat":43.30415,"lon":5.41297,"is_reserved":false,"is_disabled":false,"rental_uris":{"android":"levelo://app?vid=3970e572-099d-45ee-bf41-4fc242e0f0e4","ios":"levelo://app?vid=3970e572-099d-45ee-bf41-4fc242e0f0e4"},"vehicle_type_id":"4","last_reported":1757751092,"current_range_meters":4000,"station_id":"ce4bhop2rcd13ifvqh8g","pricing_plan_id":"cebpf4jnsgd1na2vs0mg"},{"bike_id":"9d78e28e-45b1-4ff9-b6a3-05c3507831af","system_id":"levelo_inurba_marseille","lat":43.306269,"lon":5.366471,"is_reserved":false,"is_disabled":false,"rental_uris":{"android":"levelo://app?vid=9d78e28e-45b1-4ff9-b6a3-05c3507831af","ios":"levelo://app?vid=9d78e28e-45b1-4ff9-b6a3-05c3507831af"},"vehicle_type_id":"4","last_reported":1757751092,"current_range_meters":4000,"station_id":"","pricing_plan_id":"cebpf4jnsgd1na2vs0mg"},{"bike_id":"794979d7-71c6-460c-ba47-f6e6760f7270","system_id":"levelo_inurba_marseille","lat":43.31082,"lon":5.42471,"is_reserved":false,"is_disabled":false,"rental_uris":{"android":"levelo://app?vid=794979d7-71c6-460c-ba47-f6e6760f7270","ios":"levelo://app?vid=794979d7-71c6-460c-ba47-f6e6760f7270"},"vehicle_type_id":"4","last_reported":1757751092,"current_range_meters":4400,"station_id":"ce4bhp92rcd13ifvqhag","pricing_plan_id":"cebpf4jnsgd1na2vs0mg"},{"bike_id":"9ef26e0c-6f01-4b10-90fe-cec11146e852","system_id":"levelo_inurba_marseille","lat":43.31058,"lon":5.37286,"is_reserved":false,"is_disabled":false,"rental_uris":{"android":"levelo://app?vid=9ef26e0c-6f01-4b10-90fe-cec11146e852","ios":"levelo://app?vid=9ef26e0c-6f01-4b10-90fe-cec11146e852"},"vehicle_type_id":"4","last_reported":1757751092,"current_range_meters":4400,"station_id":"","pricing_plan_id":"cebpf4jnsgd1na2vs0mg"},{"bike_id":"8691b91f-dbab-4a51-8957-76b87cc674e4","system_id":"levelo_inurba_marseille","lat":43.31485,"lon":5.37309,"is_reserved":false,"is_disabled":false,"rental_uris":{"android":"levelo://app?vid=8691b91f-dbab-4a51-8957-76b87cc674e4","ios":"levelo://app?vid=8691b91f-dbab-4a51-8957-76b87cc674e4"},"vehicle_type_id":"4","last_reported":1757751092,"current_range_meters":4800,"station_id":"ce4bgt12rcd13ifvqcd0","pricing_plan_id":"cebpf4jnsgd1na2vs0mg"},{"bike_id":"738a1141-4bff-4bed-ab58-9f74036b33ab","system_id":"levelo_inurba_marseille","lat":43.29312,"lon":5.38764,"is_reserved":false,"is_disabled":false,"rental_uris":{"android":"levelo://app?vid=738a1141-4bff-4bed-ab58-9f74036b33ab","ios":"levelo://app?vid=738a1141-4bff-4bed-ab58-9f74036b33ab"},"vehicle_type_id":"4","last_reported":1757751092,"current_range_meters":5600,"station_id":"","pricing_plan_id":"cebpf4jnsgd1na2vs0mg"},{"bike_id":"f54274c6-0ecd-4812-8a10-f08e5e6a9621","system_id":"levelo_inurba_marseille","lat":43.288678,"lon":5.425283,"is_reserved":false,"is_disabled":false,"rental_uris":{"android":"levelo://app?vid=f54274c6-0ecd-4812-8a10-f08e5e6a9621","ios":"levelo://app?vid=f54274c6-0ecd-4812-8a10-f08e5e6a9621"},"vehicle_type_id":"4","last_reported":1757751092,"current_range_meters":5600,"station_id":"","pricing_plan_id":"cebpf4jnsgd1na2vs0mg"},{"bike_id":"54868907-63ea-40a5-8f3a-4ac6edb4c05c","system_id":"levelo_inurba_marseille","lat":43.292,"lon":5.37778,"is_reserved":false,"is_disabled":false,"rental_uris":{"android":"levelo://app?vid=54868907-63ea-40a5-8f3a-4ac6edb4c05c","ios":"levelo://app?vid=54868907-63ea-40a5-8f3a-4ac6edb4c05c"},"vehicle_type_id":"4","last_reported":1757751092,"current_range_meters":6000,"station_id":"","pricing_plan_id":"cebpf4jnsgd1na2vs0mg"},{"bike_id":"d1de2b7d-3583-4df3-8bfa-43eda5116068","system_id":"levelo_inurba_marseille","lat":43.3374,"lon":5.37468,"is_reserved":false,"is_disabled":false,"rental_uris":{"android":"levelo://app?vid=d1de2b7d-3583-4df3-8bfa-43eda5116068","ios":"levelo://app?vid=d1de2b7d-3583-4df3-8bfa-43eda5116068"},"vehicle_type_id":"4","last_reported":1757751092,"current_range_meters":6000,"station_id":"","pricing_plan_id":"cebpf4jnsgd1na2vs0mg"},{"bike_id":"9f12ee84-2583-459d-9326-b86b3d47bd92","system_id":"levelo_inurba_marseille","lat":43.30888,"lon":5.39675,"is_reserved":false,"is_disabled":false,"rental_uris":{"android":"levelo://app?vid=9f12ee84-2583-459d-9326-b86b3d47bd92","ios":"levelo://app?vid=9f12ee84-2583-459d-9326-b86b3d47bd92"},"vehicle_type_id":"4","last_reported":1757751092,"current_range_meters":6400,"station_id":"ce4bh012rcd13ifvqcv0","pricing_plan_id":"cebpf4jnsgd1na2vs0mg"},{"bike_id":"8e823669-a05c-4f14-a05f-6373bb94f16b","system_id":"levelo_inurba_marseille","lat":43.307288,"lon":5.372792,"is_reserved":false,"is_disabled":false,"rental_uris":{"android":"levelo://app?vid=8e823669-a05c-4f14-a05f-6373bb94f16b","ios":"levelo://app?vid=8e823669-a05c-4f14-a05f-6373bb94f16b"},"vehicle_type_id":"4","last_reported":1757751092,"current_range_meters":6400,"station_id":"","pricing_plan_id":"cebpf4jnsgd1na2vs0mg"},{"bike_id":"25b06ca6-59f6-4cab-9a2f-ece142030779","system_id":"levelo_inurba_marseille","lat":43.25076,"lon":5.39502,"is_reserved":false,"is_disabled":false,"rental_uris":{"android":"levelo://app?vid=25b06ca6-59f6-4cab-9a2f-ece142030779","ios":"levelo://app?vid=25b06ca6-59f6-4cab-9a2f-ece142030779"},"vehicle_type_id":"4","last_reported":1757751092,"current_range_meters":6400,"station_id":"ce4bhm12rcd13ifvqgkg","pricing_plan_id":"cebpf4jnsgd1na2vs0mg"},{"bike_id":"fe8d88d6-81c3-42a8-85bb-3d0aa4841db3","system_id":"levelo_inurba_marseille","lat":43.337444,"lon":5.374475,"is_reserved":false,"is_disabled":false,"rental_uris":{"android":"levelo://app?vid=fe8d88d6-81c3-42a8-85bb-3d0aa4841db3","ios":"levelo://app?vid=fe8d88d6-81c3-42a8-85bb-3d0aa4841db3"},"vehicle_type_id":"4","last_reported":1757751092,"current_range_meters":6400,"station_id":"","pricing_plan_id":"cebpf4jnsgd1na2vs0mg"},{"bike_id":"d1208639-5703-4ac3-a303-6e72a5788218","system_id":"levelo_inurba_marseille","lat":43.33753,"lon":5.37475,"is_reserved":false,"is_disabled":false,"rental_uris":{"android":"levelo://app?vid=d1208639-5703-4ac3-a303-6e72a5788218","ios":"levelo://app?vid=d1208639-5703-4ac3-a303-6e72a5788218"},"vehicle_type_id":"4","last_reported":1757751092,"current_range_meters":6400,"station_id":"","pricing_plan_id":"cebpf4jnsgd1na2vs0mg"},{"bike_id":"999df056-799c-417e-807e-52608d0b797e","system_id":"levelo_inurba_marseille","lat":43.297101,"lon":5.377007,"is_reserved":false,"is_disabled":false,"rental_uris":{"android":"levelo://app?vid=999df056-799c-417e-807e-52608d0b797e","ios":"levelo://app?vid=999df056-799c-417e-807e-52608d0b797e"},"vehicle_type_id":"4","last_reported":1757751092,"current_range_meters":6800,"station_id":"","pricing_plan_id":"cebpf4jnsgd1na2vs0mg"},{"bike_id":"5a292930-92a9-468b-a446-4f40dfd975cb","system_id":"levelo_inurba_marseille","lat":43.25124,"lon":5.40318,"is_reserved":false,"is_disabled":false,"rental_uris":{"android":"levelo://app?vid=5a292930-92a9-468b-a446-4f40dfd975cb","ios":"levelo://app?vid=5a292930-92a9-468b-a446-4f40dfd975cb"},"vehicle_type_id":"4","last_reported":1757751092,"current_range_meters":6800,"station_id":"ce4bhlh2rcd13ifvqgig","pricing_plan_id":"cebpf4jnsgd1na2vs0mg"},{"bike_id":"96e259ac-64d9-4cf7-81fe-9077e2e7bec8","system_id":"levelo_inurba_marseille","lat":43.29558,"lon":5.39968,"is_reserved":false,"is_disabled":false,"rental_uris":{"android":"levelo://app?vid=96e259ac-64d9-4cf7-81fe-9077e2e7bec8","ios":"levelo://app?vid=96e259ac-64d9-4cf7-81fe-9077e2e7bec8"},"vehicle_type_id":"4","last_reported":1757751092,"current_range_meters":6800,"station_id":"ce4bh312rcd13ifvqdj0","pricing_plan_id":"cebpf4jnsgd1na2vs0mg"},{"bike_id":"9f42d920-70ef-40f5-8a56-79f71c89e389","system_id":"levelo_inurba_marseille","lat":43.30421,"lon":5.41307,"is_reserved":false,"is_disabled":false,"rental_uris":{"android":"levelo://app?vid=9f42d920-70ef-40f5-8a56-79f71c89e389","ios":"levelo://app?vid=9f42d920-70ef-40f5-8a56-79f71c89e389"},"vehicle_type_id":"4","last_reported":1757751092,"current_range_meters":7200,"station_id":"ce4bhop2rcd13ifvqh8g","pricing_plan_id":"cebpf4jnsgd1na2vs0mg"},{"bike_id":"966fccfb-edf5-45b0-8efd-ce67125d4a08","system_id":"levelo_inurba_marseille","lat":43.30014,"lon":5.37837,"is_reserved":false,"is_disabled":false,"rental_uris":{"android":"levelo://app?vid=966fccfb-edf5-45b0-8efd-ce67125d4a08","ios":"levelo://app?vid=966fccfb-edf5-45b0-8efd-ce67125d4a08"},"vehicle_type_id":"4","last_reported":1757751092,"current_range_meters":7200,"station_id":"","pricing_plan_id":"cebpf4jnsgd1na2vs0mg"},{"bike_id":"799195ec-b884-46fa-8e8e-94f3a290a369","system_id":"levelo_inurba_marseille","lat":43.30881,"lon":5.39656,"is_reserved":false,"is_disabled":false,"rental_uris":{"android":"levelo://app?vid=799195ec-b884-46fa-8e8e-94f3a290a369","ios":"levelo://app?vid=799195ec-b884-46fa-8e8e-94f3a290a369"},"vehicle_type_id":"4","last_reported":1757751092,"current_range_meters":8000,"station_id":"ce4bh012rcd13ifvqcv0","pricing_plan_id":"cebpf4jnsgd1na2vs0mg"},{"bike_id":"7db384a7-4267-4cd8-b9e7-7ca132b3d121","system_id":"levelo_inurba_marseille","lat":43.33885,"lon":5.3555,"is_reserved":false,"is_disabled":false,"rental_uris":{"android":"levelo://app?vid=7db384a7-4267-4cd8-b9e7-7ca132b3d121","ios":"levelo://app?vid=7db384a7-4267-4cd8-b9e7-7ca132b3d121"},"vehicle_type_id":"4","last_reported":1757751092,"current_range_meters":8000,"station_id":"","pricing_plan_id":"cebpf4jnsgd1na2vs0mg"},{"bike_id":"be9aca03-15e3-4c8f-924c-bd9c835f0f8f","system_id":"levelo_inurba_marseille","lat":43.239628,"lon":5.366326,"is_reserved":false,"is_disabled":false,"rental_uris":{"android":"levelo://app?vid=be9aca03-15e3-4c8f-924c-bd9c835f0f8f","ios":"levelo://app?vid=be9aca03-15e3-4c8f-924c-bd9c835f0f8f"},"vehicle_type_id":"4","last_reported":1757751092,"current_range_meters":8000,"station_id":"ce4bhi12rcd13ifvqfp0","pricing_plan_id":"cebpf4jnsgd1na2vs0mg"},{"bike_id":"5d0cd144-b10f-406c-80ec-f92f1626f000","system_id":"levelo_inurba_marseille","lat":43.30919,"lon":5.40167,"is_reserved":false,"is_disabled":false,"rental_uris":{"android":"levelo://app?vid=5d0cd144-b10f-406c-80ec-f92f1626f000","ios":"levelo://app?vid=5d0cd144-b10f-406c-80ec-f92f1626f000"},"vehicle_type_id":"4","last_reported":1757751092,"current_range_meters":8400,"station_id":"ce4bgvp2rcd13ifvqct0","pricing_plan_id":"cebpf4jnsgd1na2vs0mg"},{"bike_id":"e5c8c08c-00c4-4390-8693-409e206118ae","system_id":"levelo_inurba_marseille","lat":43.28957,"lon":5.39619,"is_reserved":false,"is_disabled":false,"rental_uris":{"android":"levelo://app?vid=e5c8c08c-00c4-4390-8693-409e206118ae","ios":"levelo://app?vid=e5c8c08c-00c4-4390-8693-409e206118ae"},"vehicle_type_id":"4","last_reported":1757751092,"current_range_meters":8400,"station_id":"ce4bh3h2rcd13ifvqdn0","pricing_plan_id":"cebpf4jnsgd1na2vs0mg"},{"bike_id":"ac568d9b-aa32-4551-90e7-9697d0dfd168","system_id":"levelo_inurba_marseille","lat":43.323564,"lon":5.367062,"is_reserved":false,"is_disabled":false,"rental_uris":{"android":"levelo://app?vid=ac568d9b-aa32-4551-90e7-9697d0dfd168","ios":"levelo://app?vid=ac568d9b-aa32-4551-90e7-9697d0dfd168"},"vehicle_type_id":"4","last_reported":1757751092,"current_range_meters":8400,"station_id":"ce4bhsh2rcd13ifvqi2g","pricing_plan_id":"cebpf4jnsgd1na2vs0mg"},{"bike_id":"a04909f0-8cf2-4881-9eb9-dc7d2fda7c17","system_id":"levelo_inurba_marseille","lat":43.2892,"lon":5.36402,"is_reserved":false,"is_disabled":false,"rental_uris":{"android":"levelo://app?vid=a04909f0-8cf2-4881-9eb9-dc7d2fda7c17","ios":"levelo://app?vid=a04909f0-8cf2-4881-9eb9-dc7d2fda7c17"},"vehicle_type_id":"4","last_reported":1757751092,"current_range_meters":8400,"station_id":"ce4bhc92rcd13ifvqetg","pricing_plan_id":"cebpf4jnsgd1na2vs0mg"},{"bike_id":"89aef2a0-36d5-4b76-98d9-cb3558669938","system_id":"levelo_inurba_marseille","lat":43.24962,"lon":5.40506,"is_reserved":false,"is_disabled":false,"rental_uris":{"android":"levelo://app?vid=89aef2a0-36d5-4b76-98d9-cb3558669938","ios":"levelo://app?vid=89aef2a0-36d5-4b76-98d9-cb3558669938"},"vehicle_type_id":"4","last_reported":1757751092,"current_range_meters":8400,"station_id":"st_d2ngiaodas8pm72gd1h0","pricing_plan_id":"cebpf4jnsgd1na2vs0mg"},{"bike_id":"7ac2807f-33ac-4acb-9577-ac6b38f1feba","system_id":"levelo_inurba_marseille","lat":43.298058,"lon":5.38085,"is_reserved":false,"is_disabled":false,"rental_uris":{"android":"levelo://app?vid=7ac2807f-33ac-4acb-9577-ac6b38f1feba","ios":"levelo://app?vid=7ac2807f-33ac-4acb-9577-ac6b38f1feba"},"vehicle_type_id":"4","last_reported":1757751092,"current_range_meters":9200,"station_id":"ce4bgip2rcd13ifvqbb0","pricing_plan_id":"cebpf4jnsgd1na2vs0mg"},{"bike_id":"7474d631-da14-44c6-af0e-b1a867b3896c","system_id":"levelo_inurba_marseille","lat":43.24946,"lon":5.40494,"is_reserved":false,"is_disabled":false,"rental_uris":{"android":"levelo://app?vid=7474d631-da14-44c6-af0e-b1a867b3896c","ios":"levelo://app?vid=7474d631-da14-44c6-af0e-b1a867b3896c"},"vehicle_type_id":"4","last_reported":1757751092,"current_range_meters":8800,"station_id":"st_d2ngiaodas8pm72gd1h0","pricing_plan_id":"cebpf4jnsgd1na2vs0mg"},{"bike_id":"069b0fee-af69-4958-a06e-d0bd95d527ee","system_id":"levelo_inurba_marseille","lat":43.211914,"lon":5.350787,"is_reserved":false,"is_disabled":false,"rental_uris":{"android":"levelo://app?vid=069b0fee-af69-4958-a06e-d0bd95d527ee","ios":"levelo://app?vid=069b0fee-af69-4958-a06e-d0bd95d527ee"},"vehicle_type_id":"4","last_reported":1757751092,"current_range_meters":8800,"station_id":"st_cvj6sg6p6f1abm77japg","pricing_plan_id":"cebpf4jnsgd1na2vs0mg"},{"bike_id":"48dafd79-a279-4aee-b644-866e2228ffdd","system_id":"levelo_inurba_marseille","lat":43.30151,"lon":5.38087,"is_reserved":false,"is_disabled":false,"rental_uris":{"android":"levelo://app?vid=48dafd79-a279-4aee-b644-866e2228ffdd","ios":"levelo://app?vid=48dafd79-a279-4aee-b644-866e2228ffdd"},"vehicle_type_id":"4","last_reported":1757751092,"current_range_meters":8800,"station_id":"ce4bgjp2rcd13ifvqbh0","pricing_plan_id":"cebpf4jnsgd1na2vs0mg"},{"bike_id":"7fa34ec0-a293-418f-bfd5-6e8a3d326e13","system_id":"levelo_inurba_marseille","lat":43.309927,"lon":5.37533,"is_reserved":false,"is_disabled":false,"rental_uris":{"android":"levelo://app?vid=7fa34ec0-a293-418f-bfd5-6e8a3d326e13","ios":"levelo://app?vid=7fa34ec0-a293-418f-bfd5-6e8a3d326e13"},"vehicle_type_id":"4","last_reported":1757751092,"current_range_meters":8800,"station_id":"","pricing_plan_id":"cebpf4jnsgd1na2vs0mg"},{"bike_id":"b497a9d0-efaf-4f6a-b16a-6a0494bdfd11","system_id":"levelo_inurba_marseille","lat":43.28467,"lon":5.3842,"is_reserved":false,"is_disabled":false,"rental_uris":{"android":"levelo://app?vid=b497a9d0-efaf-4f6a-b16a-6a0494bdfd11","ios":"levelo://app?vid=b497a9d0-efaf-4f6a-b16a-6a0494bdfd11"},"vehicle_type_id":"4","last_reported":1757751092,"current_range_meters":8800,"station_id":"ce4bh512rcd13ifvqe3g","pricing_plan_id":"cebpf4jnsgd1na2vs0mg"},{"bike_id":"3dcfc684-b652-4cb0-aa15-d29459bae59b","system_id":"levelo_inurba_marseille","lat":43.29222,"lon":5.36063,"is_reserved":false,"is_disabled":false,"rental_uris":{"android":"levelo://app?vid=3dcfc684-b652-4cb0-aa15-d29459bae59b","ios":"levelo://app?vid=3dcfc684-b652-4cb0-aa15-d29459bae59b"},"vehicle_type_id":"4","last_reported":1757751092,"current_range_meters":9200,"station_id":"ce4bhbh2rcd13ifvqeqg","pricing_plan_id":"cebpf4jnsgd1na2vs0mg"},{"bike_id":"d28372dc-72c1-4139-8adb-ec96ca36acdc","system_id":"levelo_inurba_marseille","lat":43.29571,"lon":5.37525,"is_reserved":false,"is_disabled":false,"rental_uris":{"android":"levelo://app?vid=d28372dc-72c1-4139-8adb-ec96ca36acdc","ios":"levelo://app?vid=d28372dc-72c1-4139-8adb-ec96ca36acdc"},"vehicle_type_id":"4","last_reported":1757751092,"current_range_meters":9200,"station_id":"ce4bgh92rcd13ifvqb50","pricing_plan_id":"cebpf4jnsgd1na2vs0mg"},{"bike_id":"8d156254-22bc-4e70-b344-be1b38d6ced7","system_id":"levelo_inurba_marseille","lat":43.31331,"lon":5.39747,"is_reserved":false,"is_disabled":false,"rental_uris":{"android":"levelo://app?vid=8d156254-22bc-4e70-b344-be1b38d6ced7","ios":"levelo://app?vid=8d156254-22bc-4e70-b344-be1b38d6ced7"},"vehicle_type_id":"4","last_reported":1757751092,"current_range_meters":9200,"station_id":"","pricing_plan_id":"cebpf4jnsgd1na2vs0mg"},{"bike_id":"68422fda-945c-402d-b886-a4fecef0c346","system_id":"levelo_inurba_marseille","lat":43.291712,"lon":5.371451,"is_reserved":false,"is_disabled":true,"rental_uris":{"android":"levelo://app?vid=68422fda-945c-402d-b886-a4fecef0c346","ios":"levelo://app?vid=68422fda-945c-402d-b886-a4fecef0c346"},"vehicle_type_id":"4","last_reported":1757751092,"current_range_meters":9200,"station_id":"ce4bha92rcd13ifvqeh0","pricing_plan_id":"cebpf4jnsgd1na2vs0mg"},{"bike_id":"51e9eeea-270a-4052-ae23-1c52965089f9","system_id":"levelo_inurba_marseille","lat":43.30664,"lon":5.40093,"is_reserved":false,"is_disabled":false,"rental_uris":{"android":"levelo://app?vid=51e9eeea-270a-4052-ae23-1c52965089f9","ios":"levelo://app?vid=51e9eeea-270a-4052-ae23-1c52965089f9"},"vehicle_type_id":"4","last_reported":1757751092,"current_range_meters":9200,"station_id":"ce4bh112rcd13ifvqda0","pricing_plan_id":"cebpf4jnsgd1na2vs0mg"},{"bike_id":"0e0c8dec-1a42-46dd-bb35-7088192ded70","system_id":"levelo_inurba_marseille","lat":43.297268,"lon":5.371447,"is_reserved":false,"is_disabled":false,"rental_uris":{"android":"levelo://app?vid=0e0c8dec-1a42-46dd-bb35-7088192ded70","ios":"levelo://app?vid=0e0c8dec-1a42-46dd-bb35-7088192ded70"},"vehicle_type_id":"4","last_reported":1757751092,"current_range_meters":9600,"station_id":"","pricing_plan_id":"cebpf4jnsgd1na2vs0mg"},{"bike_id":"e77461fd-9a53-40b2-b8aa-bd1c93db50c1","system_id":"levelo_inurba_marseille","lat":43.3236,"lon":5.38195,"is_reserved":false,"is_disabled":false,"rental_uris":{"android":"levelo://app?vid=e77461fd-9a53-40b2-b8aa-bd1c93db50c1","ios":"levelo://app?vid=e77461fd-9a53-40b2-b8aa-bd1c93db50c1"},"vehicle_type_id":"4","last_reported":1757751092,"current_range_meters":9600,"station_id":"","pricing_plan_id":"cebpf4jnsgd1na2vs0mg"},{"bike_id":"3bd595b7-af3b-43b1-8697-1bcb2a61af6f","system_id":"levelo_inurba_marseille","lat":43.27986,"lon":5.40014,"is_reserved":false,"is_disabled":true,"rental_uris":{"android":"levelo://app?vid=3bd595b7-af3b-43b1-8697-1bcb2a61af6f","ios":"levelo://app?vid=3bd595b7-af3b-43b1-8697-1bcb2a61af6f"},"vehicle_type_id":"4","last_reported":1757751092,"current_range_meters":9600,"station_id":"ce4bho92rcd13ifvqh4g","pricing_plan_id":"cebpf4jnsgd1na2vs0mg"},{"bike_id":"b55a68f1-2e50-4879-8e92-1d0ddbfda594","system_id":"levelo_inurba_marseille","lat":43.30442,"lon":5.39767,"is_reserved":false,"is_disabled":false,"rental_uris":{"android":"levelo://app?vid=b55a68f1-2e50-4879-8e92-1d0ddbfda594","ios":"levelo://app?vid=b55a68f1-2e50-4879-8e92-1d0ddbfda594"},"vehicle_type_id":"4","last_reported":1757751092,"current_range_meters":9600,"station_id":"ce4bh092rcd13ifvqd20","pricing_plan_id":"cebpf4jnsgd1na2vs0mg"},{"bike_id":"90bff353-82c7-441a-9eff-f25eb8d012b8","system_id":"levelo_inurba_marseille","lat":43.24954,"lon":5.40509,"is_reserved":false,"is_disabled":false,"rental_uris":{"android":"levelo://app?vid=90bff353-82c7-441a-9eff-f25eb8d012b8","ios":"levelo://app?vid=90bff353-82c7-441a-9eff-f25eb8d012b8"},"vehicle_type_id":"4","last_reported":1757751092,"current_range_meters":9600,"station_id":"st_d2ngiaodas8pm72gd1h0","pricing_plan_id":"cebpf4jnsgd1na2vs0mg"},{"bike_id":"b468df8b-ffb2-4882-bf13-e4a81f7a0984","system_id":"levelo_inurba_marseille","lat":43.24173,"lon":5.3641,"is_reserved":false,"is_disabled":false,"rental_uris":{"android":"levelo://app?vid=b468df8b-ffb2-4882-bf13-e4a81f7a0984","ios":"levelo://app?vid=b468df8b-ffb2-4882-bf13-e4a81f7a0984"},"vehicle_type_id":"4","last_reported":1757751092,"current_range_meters":9600,"station_id":"cpo36qri1sfpv3e86is0","pricing_plan_id":"cebpf4jnsgd1na2vs0mg"},{"bike_id":"e80fe6e2-abfd-4485-aee0-8455c35e458e","system_id":"levelo_inurba_marseille","lat":43.29572,"lon":5.37518,"is_reserved":false,"is_disabled":false,"rental_uris":{"android":"levelo://app?vid=e80fe6e2-abfd-4485-aee0-8455c35e458e","ios":"levelo://app?vid=e80fe6e2-abfd-4485-aee0-8455c35e458e"},"vehicle_type_id":"4","last_reported":1757751092,"current_range_meters":9600,"station_id":"ce4bgh92rcd13ifvqb50","pricing_plan_id":"cebpf4jnsgd1na2vs0mg"},{"bike_id":"7283f511-322a-43c1-aa27-0111315bc0d3","system_id":"levelo_inurba_marseille","lat":43.23203,"lon":5.35564,"is_reserved":false,"is_disabled":false,"rental_uris":{"android":"levelo://app?vid=7283f511-322a-43c1-aa27-0111315bc0d3","ios":"levelo://app?vid=7283f511-322a-43c1-aa27-0111315bc0d3"},"vehicle_type_id":"4","last_reported":1757751092,"current_range_meters":10000,"station_id":"ce4bhu92rcd13ifvqi70","pricing_plan_id":"cebpf4jnsgd1na2vs0mg"},{"bike_id":"5f2c0397-404f-46d4-b455-199285197a5d","system_id":"levelo_inurba_marseille","lat":43.2465,"lon":5.43131,"is_reserved":false,"is_disabled":false,"rental_uris":{"android":"levelo://app?vid=5f2c0397-404f-46d4-b455-199285197a5d","ios":"levelo://app?vid=5f2c0397-404f-46d4-b455-199285197a5d"},"vehicle_type_id":"4","last_reported":1757751092,"current_range_meters":10000,"station_id":"st_d2m6c4gdas8pm72e190g","pricing_plan_id":"cebpf4jnsgd1na2vs0mg"},{"bike_id":"b677a153-860e-4df8-a1f6-19f0a9d140a7","system_id":"levelo_inurba_marseille","lat":43.30158,"lon":5.3808,"is_reserved":false,"is_disabled":false,"rental_uris":{"android":"levelo://app?vid=b677a153-860e-4df8-a1f6-19f0a9d140a7","ios":"levelo://app?vid=b677a153-860e-4df8-a1f6-19f0a9d140a7"},"vehicle_type_id":"4","last_reported":1757751092,"current_range_meters":10000,"station_id":"ce4bgjp2rcd13ifvqbh0","pricing_plan_id":"cebpf4jnsgd1na2vs0mg"},{"bike_id":"a003d342-8960-4f67-b945-081eb2dbeb27","system_id":"levelo_inurba_marseille","lat":43.27056,"lon":5.40259,"is_reserved":false,"is_disabled":false,"rental_uris":{"android":"levelo://app?vid=a003d342-8960-4f67-b945-081eb2dbeb27","ios":"levelo://app?vid=a003d342-8960-4f67-b945-081eb2dbeb27"},"vehicle_type_id":"4","last_reported":1757751092,"current_range_meters":10000,"station_id":"ce4bhk92rcd13ifvqgc0","pricing_plan_id":"cebpf4jnsgd1na2vs0mg"},{"bike_id":"972b4c5f-3a00-4bb2-9116-b81f2cecc9f2","system_id":"levelo_inurba_marseille","lat":43.33764,"lon":5.37483,"is_reserved":false,"is_disabled":false,"rental_uris":{"android":"levelo://app?vid=972b4c5f-3a00-4bb2-9116-b81f2cecc9f2","ios":"levelo://app?vid=972b4c5f-3a00-4bb2-9116-b81f2cecc9f2"},"vehicle_type_id":"4","last_reported":1757751092,"current_range_meters":10000,"station_id":"","pricing_plan_id":"cebpf4jnsgd1na2vs0mg"},{"bike_id":"b558f3d9-0976-438a-9dec-f10977a5d937","system_id":"levelo_inurba_marseille","lat":43.26052,"lon":5.39392,"is_reserved":false,"is_disabled":false,"rental_uris":{"android":"levelo://app?vid=b558f3d9-0976-438a-9dec-f10977a5d937","ios":"levelo://app?vid=b558f3d9-0976-438a-9dec-f10977a5d937"},"vehicle_type_id":"4","last_reported":1757751092,"current_range_meters":10000,"station_id":"ce4bhh92rcd13ifvqfj0","pricing_plan_id":"cebpf4jnsgd1na2vs0mg"},{"bike_id":"32fcfe27-9e6b-472f-b15f-1f97904444ae","system_id":"levelo_inurba_marseille","lat":43.23142,"lon":5.4373,"is_reserved":false,"is_disabled":false,"rental_uris":{"android":"levelo://app?vid=32fcfe27-9e6b-472f-b15f-1f97904444ae","ios":"levelo://app?vid=32fcfe27-9e6b-472f-b15f-1f97904444ae"},"vehicle_type_id":"4","last_reported":1757751092,"current_range_meters":10000,"station_id":"ce4bhmp2rcd13ifvqgog","pricing_plan_id":"cebpf4jnsgd1na2vs0mg"},{"bike_id":"7d654f95-df32-4d2d-8a09-880ff72e6e5e","system_id":"levelo_inurba_marseille","lat":43.29559,"lon":5.375,"is_reserved":false,"is_disabled":false,"rental_uris":{"android":"levelo://app?vid=7d654f95-df32-4d2d-8a09-880ff72e6e5e","ios":"levelo://app?vid=7d654f95-df32-4d2d-8a09-880ff72e6e5e"},"vehicle_type_id":"4","last_reported":1757751092,"current_range_meters":10800,"station_id":"ce4bgh92rcd13ifvqb50","pricing_plan_id":"cebpf4jnsgd1na2vs0mg"},{"bike_id":"aec7673c-8723-4019-92d4-dbced6b69152","system_id":"levelo_inurba_marseille","lat":43.29268,"lon":5.37627,"is_reserved":false,"is_disabled":false,"rental_uris":{"android":"levelo://app?vid=aec7673c-8723-4019-92d4-dbced6b69152","ios":"levelo://app?vid=aec7673c-8723-4019-92d4-dbced6b69152"},"vehicle_type_id":"4","last_reported":1757751092,"current_range_meters":10800,"station_id":"ce4bgi12rcd13ifvqb80","pricing_plan_id":"cebpf4jnsgd1na2vs0mg"},{"bike_id":"0f25d523-7df0-46a9-a7c6-e984fe228d86","system_id":"levelo_inurba_marseille","lat":43.29529,"lon":5.38545,"is_reserved":false,"is_disabled":true,"rental_uris":{"android":"levelo://app?vid=0f25d523-7df0-46a9-a7c6-e984fe228d86","ios":"levelo://app?vid=0f25d523-7df0-46a9-a7c6-e984fe228d86"},"vehicle_type_id":"4","last_reported":1757751092,"current_range_meters":10800,"station_id":"ce4bgih2rcd13ifvqba0","pricing_plan_id":"cebpf4jnsgd1na2vs0mg"},{"bike_id":"0f646e1b-1523-4646-9814-cb68b8738000","system_id":"levelo_inurba_marseille","lat":43.290068,"lon":5.356143,"is_reserved":false,"is_disabled":false,"rental_uris":{"android":"levelo://app?vid=0f646e1b-1523-4646-9814-cb68b8738000","ios":"levelo://app?vid=0f646e1b-1523-4646-9814-cb68b8738000"},"vehicle_type_id":"4","last_reported":1757751092,"current_range_meters":11200,"station_id":"","pricing_plan_id":"cebpf4jnsgd1na2vs0mg"},{"bike_id":"d1a2d227-a72b-48f9-803e-12a9db38892f","system_id":"levelo_inurba_marseille","lat":43.30781,"lon":5.37115,"is_reserved":false,"is_disabled":false,"rental_uris":{"android":"levelo://app?vid=d1a2d227-a72b-48f9-803e-12a9db38892f","ios":"levelo://app?vid=d1a2d227-a72b-48f9-803e-12a9db38892f"},"vehicle_type_id":"4","last_reported":1757751092,"current_range_meters":11200,"station_id":"","pricing_plan_id":"cebpf4jnsgd1na2vs0mg"},{"bike_id":"985c4f56-c378-4f55-b5bf-d2ba1346b657","system_id":"levelo_inurba_marseille","lat":43.2892,"lon":5.38416,"is_reserved":false,"is_disabled":false,"rental_uris":{"android":"levelo://app?vid=985c4f56-c378-4f55-b5bf-d2ba1346b657","ios":"levelo://app?vid=985c4f56-c378-4f55-b5bf-d2ba1346b657"},"vehicle_type_id":"4","last_reported":1757751092,"current_range_meters":11200,"station_id":"ce4bh612rcd13ifvqe6g","pricing_plan_id":"cebpf4jnsgd1na2vs0mg"},{"bike_id":"a9dd239d-c821-4547-a71f-93364a17f0be","system_id":"levelo_inurba_marseille","lat":43.24671,"lon":5.38165,"is_reserved":false,"is_disabled":false,"rental_uris":{"android":"levelo://app?vid=a9dd239d-c821-4547-a71f-93364a17f0be","ios":"levelo://app?vid=a9dd239d-c821-4547-a71f-93364a17f0be"},"vehicle_type_id":"4","last_reported":1757751092,"current_range_meters":11200,"station_id":"ce4bhih2rcd13ifvqfr0","pricing_plan_id":"cebpf4jnsgd1na2vs0mg"},{"bike_id":"92f19319-f485-4a8f-bbcf-8e354baa2dbd","system_id":"levelo_inurba_marseille","lat":43.286143,"lon":5.351079,"is_reserved":false,"is_disabled":false,"rental_uris":{"android":"levelo://app?vid=92f19319-f485-4a8f-bbcf-8e354baa2dbd","ios":"levelo://app?vid=92f19319-f485-4a8f-bbcf-8e354baa2dbd"},"vehicle_type_id":"4","last_reported":1757751092,"current_range_meters":11200,"station_id":"ce4bhbh2rcd13ifvqeo0","pricing_plan_id":"cebpf4jnsgd1na2vs0mg"},{"bike_id":"9ea214cd-c5f8-441b-9338-7fcf595de156","system_id":"levelo_inurba_marseille","lat":43.21204,"lon":5.35086,"is_reserved":false,"is_disabled":false,"rental_uris":{"android":"levelo://app?vid=9ea214cd-c5f8-441b-9338-7fcf595de156","ios":"levelo://app?vid=9ea214cd-c5f8-441b-9338-7fcf595de156"},"vehicle_type_id":"4","last_reported":1757751092,"current_range_meters":11600,"station_id":"st_cvj6sg6p6f1abm77japg","pricing_plan_id":"cebpf4jnsgd1na2vs0mg"},{"bike_id":"ed4a1810-713c-451b-a9be-ca12c153d54f","system_id":"levelo_inurba_marseille","lat":43.3027,"lon":5.37695,"is_reserved":false,"is_disabled":false,"rental_uris":{"android":"levelo://app?vid=ed4a1810-713c-451b-a9be-ca12c153d54f","ios":"levelo://app?vid=ed4a1810-713c-451b-a9be-ca12c153d54f"},"vehicle_type_id":"4","last_reported":1757751092,"current_range_meters":11600,"station_id":"ce4bguh2rcd13ifvqcj0","pricing_plan_id":"cebpf4jnsgd1na2vs0mg"},{"bike_id":"53f10107-b156-4409-8459-04eec8976b56","system_id":"levelo_inurba_marseille","lat":43.31115,"lon":5.37778,"is_reserved":false,"is_disabled":false,"rental_uris":{"android":"levelo://app?vid=53f10107-b156-4409-8459-04eec8976b56","ios":"levelo://app?vid=53f10107-b156-4409-8459-04eec8976b56"},"vehicle_type_id":"4","last_reported":1757751092,"current_range_meters":11600,"station_id":"ce4bgt92rcd13ifvqcg0","pricing_plan_id":"cebpf4jnsgd1na2vs0mg"},{"bike_id":"775af279-8ac9-4585-9121-809be9b13265","system_id":"levelo_inurba_marseille","lat":43.337775,"lon":5.374412,"is_reserved":false,"is_disabled":false,"rental_uris":{"android":"levelo://app?vid=775af279-8ac9-4585-9121-809be9b13265","ios":"levelo://app?vid=775af279-8ac9-4585-9121-809be9b13265"},"vehicle_type_id":"4","last_reported":1757751092,"current_range_meters":11600,"station_id":"","pricing_plan_id":"cebpf4jnsgd1na2vs0mg"},{"bike_id":"f24cd637-2a13-4120-b81f-882de2ef79b6","system_id":"levelo_inurba_marseille","lat":43.30936,"lon":5.40147,"is_reserved":false,"is_disabled":false,"rental_uris":{"android":"levelo://app?vid=f24cd637-2a13-4120-b81f-882de2ef79b6","ios":"levelo://app?vid=f24cd637-2a13-4120-b81f-882de2ef79b6"},"vehicle_type_id":"4","last_reported":1757751092,"current_range_meters":11600,"station_id":"ce4bgvp2rcd13ifvqct0","pricing_plan_id":"cebpf4jnsgd1na2vs0mg"},{"bike_id":"4266b374-d4bf-4fd2-bb94-51b2d7d40946","system_id":"levelo_inurba_marseille","lat":43.22571,"lon":5.4164,"is_reserved":false,"is_disabled":false,"rental_uris":{"android":"levelo://app?vid=4266b374-d4bf-4fd2-bb94-51b2d7d40946","ios":"levelo://app?vid=4266b374-d4bf-4fd2-bb94-51b2d7d40946"},"vehicle_type_id":"4","last_reported":1757751092,"current_range_meters":11600,"station_id":"st_d2o4gvlbi1j2169b742g","pricing_plan_id":"cebpf4jnsgd1na2vs0mg"},{"bike_id":"a37d0c3c-724b-4eb5-a021-7ff04e8ca677","system_id":"levelo_inurba_marseille","lat":43.28267,"lon":5.35063,"is_reserved":false,"is_disabled":false,"rental_uris":{"android":"levelo://app?vid=a37d0c3c-724b-4eb5-a021-7ff04e8ca677","ios":"levelo://app?vid=a37d0c3c-724b-4eb5-a021-7ff04e8ca677"},"vehicle_type_id":"4","last_reported":1757751092,"current_range_meters":11600,"station_id":"ce4bhbp2rcd13ifvqerg","pricing_plan_id":"cebpf4jnsgd1na2vs0mg"},{"bike_id":"b2aeb6a5-74a2-46fb-ba9a-314058d95425","system_id":"levelo_inurba_marseille","lat":43.231942,"lon":5.355506,"is_reserved":false,"is_disabled":false,"rental_uris":{"android":"levelo://app?vid=b2aeb6a5-74a2-46fb-ba9a-314058d95425","ios":"levelo://app?vid=b2aeb6a5-74a2-46fb-ba9a-314058d95425"},"vehicle_type_id":"4","last_reported":1757751092,"current_range_meters":12000,"station_id":"ce4bhu92rcd13ifvqi70","pricing_plan_id":"cebpf4jnsgd1na2vs0mg"},{"bike_id":"99e898d4-594b-4c6f-a556-7a9c7c5c178f","system_id":"levelo_inurba_marseille","lat":43.2695,"lon":5.38634,"is_reserved":false,"is_disabled":false,"rental_uris":{"android":"levelo://app?vid=99e898d4-594b-4c6f-a556-7a9c7c5c178f","ios":"levelo://app?vid=99e898d4-594b-4c6f-a556-7a9c7c5c178f"},"vehicle_type_id":"4","last_reported":1757751092,"current_range_meters":12000,"station_id":"ce4bhh92rcd13ifvqfh0","pricing_plan_id":"cebpf4jnsgd1na2vs0mg"},{"bike_id":"2a0498a5-6d5b-4727-9d06-c8b9f99bca29","system_id":"levelo_inurba_marseille","lat":43.28441,"lon":5.392,"is_reserved":false,"is_disabled":false,"rental_uris":{"android":"levelo://app?vid=2a0498a5-6d5b-4727-9d06-c8b9f99bca29","ios":"levelo://app?vid=2a0498a5-6d5b-4727-9d06-c8b9f99bca29"},"vehicle_type_id":"4","last_reported":1757751092,"current_range_meters":12000,"station_id":"ce4bhoh2rcd13ifvqh5g","pricing_plan_id":"cebpf4jnsgd1na2vs0mg"},{"bike_id":"49672130-5e5d-4bd8-b10c-10c3bec7a880","system_id":"levelo_inurba_marseille","lat":43.35024,"lon":5.35023,"is_reserved":false,"is_disabled":false,"rental_uris":{"android":"levelo://app?vid=49672130-5e5d-4bd8-b10c-10c3bec7a880","ios":"levelo://app?vid=49672130-5e5d-4bd8-b10c-10c3bec7a880"},"vehicle_type_id":"4","last_reported":1757751092,"current_range_meters":12400,"station_id":"","pricing_plan_id":"cebpf4jnsgd1na2vs0mg"},{"bike_id":"a24c4696-920b-4645-847f-87e0b46915a6","system_id":"levelo_inurba_marseille","lat":43.324307,"lon":5.424973,"is_reserved":false,"is_disabled":false,"rental_uris":{"android":"levelo://app?vid=a24c4696-920b-4645-847f-87e0b46915a6","ios":"levelo://app?vid=a24c4696-920b-4645-847f-87e0b46915a6"},"vehicle_type_id":"4","last_reported":1757751092,"current_range_meters":12400,"station_id":"","pricing_plan_id":"cebpf4jnsgd1na2vs0mg"},{"bike_id":"6515536f-56de-4109-b7a1-24c742aed225","system_id":"levelo_inurba_marseille","lat":43.320185,"lon":5.372329,"is_reserved":false,"is_disabled":false,"rental_uris":{"android":"levelo://app?vid=6515536f-56de-4109-b7a1-24c742aed225","ios":"levelo://app?vid=6515536f-56de-4109-b7a1-24c742aed225"},"vehicle_type_id":"4","last_reported":1757751092,"current_range_meters":12400,"station_id":"","pricing_plan_id":"cebpf4jnsgd1na2vs0mg"},{"bike_id":"468b29b7-c0e4-4fb5-98d3-7139e8424f60","system_id":"levelo_inurba_marseille","lat":43.32129,"lon":5.36779,"is_reserved":false,"is_disabled":false,"rental_uris":{"android":"levelo://app?vid=468b29b7-c0e4-4fb5-98d3-7139e8424f60","ios":"levelo://app?vid=468b29b7-c0e4-4fb5-98d3-7139e8424f60"},"vehicle_type_id":"4","last_reported":1757751092,"current_range_meters":12400,"station_id":"ce4bhrh2rcd13ifvqhug","pricing_plan_id":"cebpf4jnsgd1na2vs0mg"},{"bike_id":"9fdce098-492a-40f9-ae29-95caf53fef79","system_id":"levelo_inurba_marseille","lat":43.32684,"lon":5.39159,"is_reserved":false,"is_disabled":false,"rental_uris":{"android":"levelo://app?vid=9fdce098-492a-40f9-ae29-95caf53fef79","ios":"levelo://app?vid=9fdce098-492a-40f9-ae29-95caf53fef79"},"vehicle_type_id":"4","last_reported":1757751092,"current_range_meters":12400,"station_id":"","pricing_plan_id":"cebpf4jnsgd1na2vs0mg"},{"bike_id":"7f696ba1-833f-412e-8b5d-d4d815a574fc","system_id":"levelo_inurba_marseille","lat":43.298316,"lon":5.371525,"is_reserved":false,"is_disabled":false,"rental_uris":{"android":"levelo://app?vid=7f696ba1-833f-412e-8b5d-d4d815a574fc","ios":"levelo://app?vid=7f696ba1-833f-412e-8b5d-d4d815a574fc"},"vehicle_type_id":"4","last_reported":1757751092,"current_range_meters":12400,"station_id":"","pricing_plan_id":"cebpf4jnsgd1na2vs0mg"},{"bike_id":"b824b1f3-fc55-4cbb-b558-a85522ab1ebf","system_id":"levelo_inurba_marseille","lat":43.24074,"lon":5.37761,"is_reserved":false,"is_disabled":false,"rental_uris":{"android":"levelo://app?vid=b824b1f3-fc55-4cbb-b558-a85522ab1ebf","ios":"levelo://app?vid=b824b1f3-fc55-4cbb-b558-a85522ab1ebf"},"vehicle_type_id":"4","last_reported":1757751092,"current_range_meters":12400,"station_id":"ce4bhnp2rcd13ifvqgvg","pricing_plan_id":"cebpf4jnsgd1na2vs0mg"},{"bike_id":"edd0e726-ae0f-45c5-bc4f-7c39851caeb7","system_id":"levelo_inurba_marseille","lat":43.281528,"lon":5.426463,"is_reserved":false,"is_disabled":false,"rental_uris":{"android":"levelo://app?vid=edd0e726-ae0f-45c5-bc4f-7c39851caeb7","ios":"levelo://app?vid=edd0e726-ae0f-45c5-bc4f-7c39851caeb7"},"vehicle_type_id":"4","last_reported":1757751092,"current_range_meters":12800,"station_id":"ce4bhnh2rcd13ifvqgug","pricing_plan_id":"cebpf4jnsgd1na2vs0mg"},{"bike_id":"88ab0cf5-ee14-4a46-aa4f-6ad0287841a6","system_id":"levelo_inurba_marseille","lat":43.26684,"lon":5.38269,"is_reserved":false,"is_disabled":false,"rental_uris":{"android":"levelo://app?vid=88ab0cf5-ee14-4a46-aa4f-6ad0287841a6","ios":"levelo://app?vid=88ab0cf5-ee14-4a46-aa4f-6ad0287841a6"},"vehicle_type_id":"4","last_reported":1757751092,"current_range_meters":12800,"station_id":"ce4bhg92rcd13ifvqf90","pricing_plan_id":"cebpf4jnsgd1na2vs0mg"},{"bike_id":"85e137ee-ba02-4875-8407-865445509c75","system_id":"levelo_inurba_marseille","lat":43.28147,"lon":5.4265,"is_reserved":false,"is_disabled":true,"rental_uris":{"android":"levelo://app?vid=85e137ee-ba02-4875-8407-865445509c75","ios":"levelo://app?vid=85e137ee-ba02-4875-8407-865445509c75"},"vehicle_type_id":"4","last_reported":1757751092,"current_range_meters":12800,"station_id":"ce4bhnh2rcd13ifvqgug","pricing_plan_id":"cebpf4jnsgd1na2vs0mg"},{"bike_id":"a8200689-d7b2-4d2e-b5a2-52cc95231e31","system_id":"levelo_inurba_marseille","lat":43.241642,"lon":5.364122,"is_reserved":false,"is_disabled":false,"rental_uris":{"android":"levelo://app?vid=a8200689-d7b2-4d2e-b5a2-52cc95231e31","ios":"levelo://app?vid=a8200689-d7b2-4d2e-b5a2-52cc95231e31"},"vehicle_type_id":"4","last_reported":1757751092,"current_range_meters":12800,"station_id":"cpo36qri1sfpv3e86is0","pricing_plan_id":"cebpf4jnsgd1na2vs0mg"},{"bike_id":"58bed1fe-a58e-4ed9-b96a-7b9df80d52ee","system_id":"levelo_inurba_marseille","lat":43.30201,"lon":5.39461,"is_reserved":false,"is_disabled":false,"rental_uris":{"android":"levelo://app?vid=58bed1fe-a58e-4ed9-b96a-7b9df80d52ee","ios":"levelo://app?vid=58bed1fe-a58e-4ed9-b96a-7b9df80d52ee"},"vehicle_type_id":"4","last_reported":1757751092,"current_range_meters":11200,"station_id":"ce4bh0p2rcd13ifvqd70","pricing_plan_id":"cebpf4jnsgd1na2vs0mg"},{"bike_id":"00315b5c-364c-4d8e-8ede-685d3a19db1a","system_id":"levelo_inurba_marseille","lat":43.26198,"lon":5.37923,"is_reserved":false,"is_disabled":false,"rental_uris":{"android":"levelo://app?vid=00315b5c-364c-4d8e-8ede-685d3a19db1a","ios":"levelo://app?vid=00315b5c-364c-4d8e-8ede-685d3a19db1a"},"vehicle_type_id":"4","last_reported":1757751092,"current_range_meters":12800,"station_id":"ce4bhjp2rcd13ifvqg90","pricing_plan_id":"cebpf4jnsgd1na2vs0mg"},{"bike_id":"858374bb-59c5-4ecc-9916-a26e9e545707","system_id":"levelo_inurba_marseille","lat":43.25399,"lon":5.41909,"is_reserved":false,"is_disabled":false,"rental_uris":{"android":"levelo://app?vid=858374bb-59c5-4ecc-9916-a26e9e545707","ios":"levelo://app?vid=858374bb-59c5-4ecc-9916-a26e9e545707"},"vehicle_type_id":"4","last_reported":1757751092,"current_range_meters":12800,"station_id":"","pricing_plan_id":"cebpf4jnsgd1na2vs0mg"},{"bike_id":"afa5b270-1b82-4b90-8fe4-7ae439ce006b","system_id":"levelo_inurba_marseille","lat":43.279856,"lon":5.416586,"is_reserved":false,"is_disabled":false,"rental_uris":{"android":"levelo://app?vid=afa5b270-1b82-4b90-8fe4-7ae439ce006b","ios":"levelo://app?vid=afa5b270-1b82-4b90-8fe4-7ae439ce006b"},"vehicle_type_id":"4","last_reported":1757751092,"current_range_meters":12800,"station_id":"ce4bho12rcd13ifvqh1g","pricing_plan_id":"cebpf4jnsgd1na2vs0mg"},{"bike_id":"eb63930d-877a-441f-b341-64b2d52383d4","system_id":"levelo_inurba_marseille","lat":43.33022,"lon":5.39032,"is_reserved":false,"is_disabled":true,"rental_uris":{"android":"levelo://app?vid=eb63930d-877a-441f-b341-64b2d52383d4","ios":"levelo://app?vid=eb63930d-877a-441f-b341-64b2d52383d4"},"vehicle_type_id":"4","last_reported":1757751092,"current_range_meters":12800,"station_id":"ce4bhr92rcd13ifvqhrg","pricing_plan_id":"cebpf4jnsgd1na2vs0mg"},{"bike_id":"0c78ed8a-2af8-4f2c-895d-0de884f1c9f2","system_id":"levelo_inurba_marseille","lat":43.29896,"lon":5.43687,"is_reserved":false,"is_disabled":false,"rental_uris":{"android":"levelo://app?vid=0c78ed8a-2af8-4f2c-895d-0de884f1c9f2","ios":"levelo://app?vid=0c78ed8a-2af8-4f2c-895d-0de884f1c9f2"},"vehicle_type_id":"4","last_reported":1757751092,"current_range_meters":12800,"station_id":"ce4bhpp2rcd13ifvqhfg","pricing_plan_id":"cebpf4jnsgd1na2vs0mg"},{"bike_id":"632aebbe-57f3-4a25-a3fa-627ea489a09f","system_id":"levelo_inurba_marseille","lat":43.26575,"lon":5.39011,"is_reserved":false,"is_disabled":false,"rental_uris":{"android":"levelo://app?vid=632aebbe-57f3-4a25-a3fa-627ea489a09f","ios":"levelo://app?vid=632aebbe-57f3-4a25-a3fa-627ea489a09f"},"vehicle_type_id":"4","last_reported":1757751092,"current_range_meters":12800,"station_id":"ce4bhe12rcd13ifvqf30","pricing_plan_id":"cebpf4jnsgd1na2vs0mg"},{"bike_id":"10dfb71d-b4fe-4c66-9e42-a774a54e4626","system_id":"levelo_inurba_marseille","lat":43.25116,"lon":5.40315,"is_reserved":false,"is_disabled":false,"rental_uris":{"android":"levelo://app?vid=10dfb71d-b4fe-4c66-9e42-a774a54e4626","ios":"levelo://app?vid=10dfb71d-b4fe-4c66-9e42-a774a54e4626"},"vehicle_type_id":"4","last_reported":1757751092,"current_range_meters":12800,"station_id":"ce4bhlh2rcd13ifvqgig","pricing_plan_id":"cebpf4jnsgd1na2vs0mg"},{"bike_id":"e43fdc27-4283-4e61-97ff-9c2689a8903a","system_id":"levelo_inurba_marseille","lat":43.246598,"lon":5.381612,"is_reserved":false,"is_disabled":false,"rental_uris":{"android":"levelo://app?vid=e43fdc27-4283-4e61-97ff-9c2689a8903a","ios":"levelo://app?vid=e43fdc27-4283-4e61-97ff-9c2689a8903a"},"vehicle_type_id":"4","last_reported":1757751092,"current_range_meters":13600,"station_id":"ce4bhih2rcd13ifvqfr0","pricing_plan_id":"cebpf4jnsgd1na2vs0mg"},{"bike_id":"d987f56d-76e3-4f7b-9b84-5022d38036d0","system_id":"levelo_inurba_marseille","lat":43.25347,"lon":5.42162,"is_reserved":false,"is_disabled":false,"rental_uris":{"android":"levelo://app?vid=d987f56d-76e3-4f7b-9b84-5022d38036d0","ios":"levelo://app?vid=d987f56d-76e3-4f7b-9b84-5022d38036d0"},"vehicle_type_id":"4","last_reported":1757751092,"current_range_meters":13600,"station_id":"st_d2m65c5bi1j21697t3ng","pricing_plan_id":"cebpf4jnsgd1na2vs0mg"},{"bike_id":"140f33b8-1102-4f7e-b0ef-d83c5cd8bb96","system_id":"levelo_inurba_marseille","lat":43.23198,"lon":5.35587,"is_reserved":false,"is_disabled":false,"rental_uris":{"android":"levelo://app?vid=140f33b8-1102-4f7e-b0ef-d83c5cd8bb96","ios":"levelo://app?vid=140f33b8-1102-4f7e-b0ef-d83c5cd8bb96"},"vehicle_type_id":"4","last_reported":1757751092,"current_range_meters":13600,"station_id":"ce4bhu92rcd13ifvqi70","pricing_plan_id":"cebpf4jnsgd1na2vs0mg"},{"bike_id":"8a4d2a94-6dcc-48a7-bce6-1f6f98746be6","system_id":"levelo_inurba_marseille","lat":43.275064,"lon":5.424387,"is_reserved":false,"is_disabled":false,"rental_uris":{"android":"levelo://app?vid=8a4d2a94-6dcc-48a7-bce6-1f6f98746be6","ios":"levelo://app?vid=8a4d2a94-6dcc-48a7-bce6-1f6f98746be6"},"vehicle_type_id":"4","last_reported":1757751092,"current_range_meters":13600,"station_id":"ce4bhn92rcd13ifvqgrg","pricing_plan_id":"cebpf4jnsgd1na2vs0mg"},{"bike_id":"eaeb12b0-5ed8-4a35-a4d9-bcaf095470f8","system_id":"levelo_inurba_marseille","lat":43.24075,"lon":5.37754,"is_reserved":false,"is_disabled":false,"rental_uris":{"android":"levelo://app?vid=eaeb12b0-5ed8-4a35-a4d9-bcaf095470f8","ios":"levelo://app?vid=eaeb12b0-5ed8-4a35-a4d9-bcaf095470f8"},"vehicle_type_id":"4","last_reported":1757751092,"current_range_meters":13600,"station_id":"ce4bhnp2rcd13ifvqgvg","pricing_plan_id":"cebpf4jnsgd1na2vs0mg"},{"bike_id":"7068895e-81c5-46c1-85a7-fdbb8280530f","system_id":"levelo_inurba_marseille","lat":43.23965,"lon":5.36661,"is_reserved":false,"is_disabled":false,"rental_uris":{"android":"levelo://app?vid=7068895e-81c5-46c1-85a7-fdbb8280530f","ios":"levelo://app?vid=7068895e-81c5-46c1-85a7-fdbb8280530f"},"vehicle_type_id":"4","last_reported":1757751092,"current_range_meters":13600,"station_id":"ce4bhi12rcd13ifvqfp0","pricing_plan_id":"cebpf4jnsgd1na2vs0mg"},{"bike_id":"091601b3-3c5a-42ff-866e-cde10b59b3c0","system_id":"levelo_inurba_marseille","lat":43.30751,"lon":5.37435,"is_reserved":false,"is_disabled":false,"rental_uris":{"android":"levelo://app?vid=091601b3-3c5a-42ff-866e-cde10b59b3c0","ios":"levelo://app?vid=091601b3-3c5a-42ff-866e-cde10b59b3c0"},"vehicle_type_id":"4","last_reported":1757751092,"current_range_meters":13600,"station_id":"","pricing_plan_id":"cebpf4jnsgd1na2vs0mg"},{"bike_id":"5d2d49c3-df0a-4e43-a031-b4854d84eee8","system_id":"levelo_inurba_marseille","lat":43.23963,"lon":5.36628,"is_reserved":false,"is_disabled":false,"rental_uris":{"android":"levelo://app?vid=5d2d49c3-df0a-4e43-a031-b4854d84eee8","ios":"levelo://app?vid=5d2d49c3-df0a-4e43-a031-b4854d84eee8"},"vehicle_type_id":"4","last_reported":1757751092,"current_range_meters":14000,"station_id":"ce4bhi12rcd13ifvqfp0","pricing_plan_id":"cebpf4jnsgd1na2vs0mg"},{"bike_id":"e313b345-ef08-4d16-85af-9ecb95c2b843","system_id":"levelo_inurba_marseille","lat":43.306047,"lon":5.372207,"is_reserved":false,"is_disabled":false,"rental_uris":{"android":"levelo://app?vid=e313b345-ef08-4d16-85af-9ecb95c2b843","ios":"levelo://app?vid=e313b345-ef08-4d16-85af-9ecb95c2b843"},"vehicle_type_id":"4","last_reported":1757751092,"current_range_meters":14000,"station_id":"","pricing_plan_id":"cebpf4jnsgd1na2vs0mg"},{"bike_id":"9ed2787f-6c74-4b9b-bf2b-35d9ccea9b94","system_id":"levelo_inurba_marseille","lat":43.30548,"lon":5.36538,"is_reserved":false,"is_disabled":false,"rental_uris":{"android":"levelo://app?vid=9ed2787f-6c74-4b9b-bf2b-35d9ccea9b94","ios":"levelo://app?vid=9ed2787f-6c74-4b9b-bf2b-35d9ccea9b94"},"vehicle_type_id":"4","last_reported":1757751092,"current_range_meters":14000,"station_id":"ce4bgs12rcd13ifvqcag","pricing_plan_id":"cebpf4jnsgd1na2vs0mg"},{"bike_id":"9f13e3a4-d10f-4c9f-9d20-fdf23ab151a6","system_id":"levelo_inurba_marseille","lat":43.25572,"lon":5.38243,"is_reserved":false,"is_disabled":false,"rental_uris":{"android":"levelo://app?vid=9f13e3a4-d10f-4c9f-9d20-fdf23ab151a6","ios":"levelo://app?vid=9f13e3a4-d10f-4c9f-9d20-fdf23ab151a6"},"vehicle_type_id":"4","last_reported":1757751092,"current_range_meters":14000,"station_id":"ce4bhih2rcd13ifvqfs0","pricing_plan_id":"cebpf4jnsgd1na2vs0mg"},{"bike_id":"d5c98035-fc72-4062-a3ec-13203f68e8ed","system_id":"levelo_inurba_marseille","lat":43.28856,"lon":5.42519,"is_reserved":false,"is_disabled":false,"rental_uris":{"android":"levelo://app?vid=d5c98035-fc72-4062-a3ec-13203f68e8ed","ios":"levelo://app?vid=d5c98035-fc72-4062-a3ec-13203f68e8ed"},"vehicle_type_id":"4","last_reported":1757751092,"current_range_meters":14000,"station_id":"","pricing_plan_id":"cebpf4jnsgd1na2vs0mg"},{"bike_id":"dcae514d-9200-43c1-9267-dee91427cf46","system_id":"levelo_inurba_marseille","lat":43.25087,"lon":5.39516,"is_reserved":false,"is_disabled":false,"rental_uris":{"android":"levelo://app?vid=dcae514d-9200-43c1-9267-dee91427cf46","ios":"levelo://app?vid=dcae514d-9200-43c1-9267-dee91427cf46"},"vehicle_type_id":"4","last_reported":1757751092,"current_range_meters":14000,"station_id":"ce4bhm12rcd13ifvqgkg","pricing_plan_id":"cebpf4jnsgd1na2vs0mg"},{"bike_id":"6227a315-3436-4b35-be59-ce30ee280b83","system_id":"levelo_inurba_marseille","lat":43.29225,"lon":5.36067,"is_reserved":false,"is_disabled":false,"rental_uris":{"android":"levelo://app?vid=6227a315-3436-4b35-be59-ce30ee280b83","ios":"levelo://app?vid=6227a315-3436-4b35-be59-ce30ee280b83"},"vehicle_type_id":"4","last_reported":1757751092,"current_range_meters":14000,"station_id":"ce4bhbh2rcd13ifvqeqg","pricing_plan_id":"cebpf4jnsgd1na2vs0mg"},{"bike_id":"e213f39e-a4d8-4608-9f3f-d29cabced392","system_id":"levelo_inurba_marseille","lat":43.30239,"lon":5.40046,"is_reserved":false,"is_disabled":false,"rental_uris":{"android":"levelo://app?vid=e213f39e-a4d8-4608-9f3f-d29cabced392","ios":"levelo://app?vid=e213f39e-a4d8-4608-9f3f-d29cabced392"},"vehicle_type_id":"4","last_reported":1757751092,"current_range_meters":14400,"station_id":"ce4bgvh2rcd13ifvqcs0","pricing_plan_id":"cebpf4jnsgd1na2vs0mg"},{"bike_id":"1f361235-877f-4750-ae21-f35369fb4a6c","system_id":"levelo_inurba_marseille","lat":43.30913,"lon":5.40139,"is_reserved":false,"is_disabled":false,"rental_uris":{"android":"levelo://app?vid=1f361235-877f-4750-ae21-f35369fb4a6c","ios":"levelo://app?vid=1f361235-877f-4750-ae21-f35369fb4a6c"},"vehicle_type_id":"4","last_reported":1757751092,"current_range_meters":14400,"station_id":"ce4bgvp2rcd13ifvqct0","pricing_plan_id":"cebpf4jnsgd1na2vs0mg"},{"bike_id":"84be000e-b186-4e60-8aaa-b7a0f42a7175","system_id":"levelo_inurba_marseille","lat":43.337616,"lon":5.374353,"is_reserved":false,"is_disabled":false,"rental_uris":{"android":"levelo://app?vid=84be000e-b186-4e60-8aaa-b7a0f42a7175","ios":"levelo://app?vid=84be000e-b186-4e60-8aaa-b7a0f42a7175"},"vehicle_type_id":"4","last_reported":1757751092,"current_range_meters":14400,"station_id":"","pricing_plan_id":"cebpf4jnsgd1na2vs0mg"},{"bike_id":"e6dbd8d1-7a74-451d-9178-83799810b765","system_id":"levelo_inurba_marseille","lat":43.26575,"lon":5.3903,"is_reserved":false,"is_disabled":false,"rental_uris":{"android":"levelo://app?vid=e6dbd8d1-7a74-451d-9178-83799810b765","ios":"levelo://app?vid=e6dbd8d1-7a74-451d-9178-83799810b765"},"vehicle_type_id":"4","last_reported":1757751092,"current_range_meters":14400,"station_id":"ce4bhe12rcd13ifvqf30","pricing_plan_id":"cebpf4jnsgd1na2vs0mg"},{"bike_id":"50c1903d-ab01-40a9-b508-9d8175c268e3","system_id":"levelo_inurba_marseille","lat":43.304801,"lon":5.378959,"is_reserved":false,"is_disabled":false,"rental_uris":{"android":"levelo://app?vid=50c1903d-ab01-40a9-b508-9d8175c268e3","ios":"levelo://app?vid=50c1903d-ab01-40a9-b508-9d8175c268e3"},"vehicle_type_id":"4","last_reported":1757751092,"current_range_meters":14800,"station_id":"ce4bgup2rcd13ifvqcn0","pricing_plan_id":"cebpf4jnsgd1na2vs0mg"},{"bike_id":"d5fe8587-d577-4927-9f03-bf5f1fa338f3","system_id":"levelo_inurba_marseille","lat":43.32623,"lon":5.37511,"is_reserved":false,"is_disabled":false,"rental_uris":{"android":"levelo://app?vid=d5fe8587-d577-4927-9f03-bf5f1fa338f3","ios":"levelo://app?vid=d5fe8587-d577-4927-9f03-bf5f1fa338f3"},"vehicle_type_id":"4","last_reported":1757751092,"current_range_meters":14800,"station_id":"","pricing_plan_id":"cebpf4jnsgd1na2vs0mg"},{"bike_id":"7dc00165-e583-4bd0-bbf8-f77743c96ba8","system_id":"levelo_inurba_marseille","lat":43.323622,"lon":5.36757,"is_reserved":false,"is_disabled":false,"rental_uris":{"android":"levelo://app?vid=7dc00165-e583-4bd0-bbf8-f77743c96ba8","ios":"levelo://app?vid=7dc00165-e583-4bd0-bbf8-f77743c96ba8"},"vehicle_type_id":"4","last_reported":1757751092,"current_range_meters":14800,"station_id":"ce4bhsh2rcd13ifvqi2g","pricing_plan_id":"cebpf4jnsgd1na2vs0mg"},{"bike_id":"9a11c21b-9b3d-4290-80bc-98d07a66af7b","system_id":"levelo_inurba_marseille","lat":43.2602,"lon":5.37558,"is_reserved":false,"is_disabled":false,"rental_uris":{"android":"levelo://app?vid=9a11c21b-9b3d-4290-80bc-98d07a66af7b","ios":"levelo://app?vid=9a11c21b-9b3d-4290-80bc-98d07a66af7b"},"vehicle_type_id":"4","last_reported":1757751092,"current_range_meters":14800,"station_id":"ce4bhgh2rcd13ifvqfa0","pricing_plan_id":"cebpf4jnsgd1na2vs0mg"},{"bike_id":"a18d488d-bc79-4ae3-9700-f844975e97be","system_id":"levelo_inurba_marseille","lat":43.31076,"lon":5.42452,"is_reserved":false,"is_disabled":false,"rental_uris":{"android":"levelo://app?vid=a18d488d-bc79-4ae3-9700-f844975e97be","ios":"levelo://app?vid=a18d488d-bc79-4ae3-9700-f844975e97be"},"vehicle_type_id":"4","last_reported":1757751092,"current_range_meters":14800,"station_id":"ce4bhp92rcd13ifvqhag","pricing_plan_id":"cebpf4jnsgd1na2vs0mg"},{"bike_id":"12b9c958-ee1d-4a7e-b063-6648532a7910","system_id":"levelo_inurba_marseille","lat":43.30407,"lon":5.41255,"is_reserved":false,"is_disabled":false,"rental_uris":{"android":"levelo://app?vid=12b9c958-ee1d-4a7e-b063-6648532a7910","ios":"levelo://app?vid=12b9c958-ee1d-4a7e-b063-6648532a7910"},"vehicle_type_id":"4","last_reported":1757751092,"current_range_meters":14800,"station_id":"ce4bhop2rcd13ifvqh8g","pricing_plan_id":"cebpf4jnsgd1na2vs0mg"},{"bike_id":"7f12dff3-66b1-4cdb-8300-f4f38c60cff5","system_id":"levelo_inurba_marseille","lat":43.27999,"lon":5.40019,"is_reserved":false,"is_disabled":false,"rental_uris":{"android":"levelo://app?vid=7f12dff3-66b1-4cdb-8300-f4f38c60cff5","ios":"levelo://app?vid=7f12dff3-66b1-4cdb-8300-f4f38c60cff5"},"vehicle_type_id":"4","last_reported":1757751092,"current_range_meters":14800,"station_id":"ce4bho92rcd13ifvqh4g","pricing_plan_id":"cebpf4jnsgd1na2vs0mg"},{"bike_id":"02dbb44c-70e3-4a7a-b86e-6159cc35ba47","system_id":"levelo_inurba_marseille","lat":43.29587,"lon":5.38689,"is_reserved":false,"is_disabled":false,"rental_uris":{"android":"levelo://app?vid=02dbb44c-70e3-4a7a-b86e-6159cc35ba47","ios":"levelo://app?vid=02dbb44c-70e3-4a7a-b86e-6159cc35ba47"},"vehicle_type_id":"4","last_reported":1757751092,"current_range_meters":14800,"station_id":"ce4bgih2rcd13ifvqba0","pricing_plan_id":"cebpf4jnsgd1na2vs0mg"},{"bike_id":"55d59e02-f5a5-4e1a-9360-556e842fa2a4","system_id":"levelo_inurba_marseille","lat":43.33764,"lon":5.37496,"is_reserved":false,"is_disabled":false,"rental_uris":{"android":"levelo://app?vid=55d59e02-f5a5-4e1a-9360-556e842fa2a4","ios":"levelo://app?vid=55d59e02-f5a5-4e1a-9360-556e842fa2a4"},"vehicle_type_id":"4","last_reported":1757751092,"current_range_meters":15200,"station_id":"","pricing_plan_id":"cebpf4jnsgd1na2vs0mg"},{"bike_id":"ba130961-8fba-495b-b802-0f3495419d49","system_id":"levelo_inurba_marseille","lat":43.30924,"lon":5.40142,"is_reserved":false,"is_disabled":false,"rental_uris":{"android":"levelo://app?vid=ba130961-8fba-495b-b802-0f3495419d49","ios":"levelo://app?vid=ba130961-8fba-495b-b802-0f3495419d49"},"vehicle_type_id":"4","last_reported":1757751092,"current_range_meters":15200,"station_id":"ce4bgvp2rcd13ifvqct0","pricing_plan_id":"cebpf4jnsgd1na2vs0mg"},{"bike_id":"22056c1f-5a5a-4970-84ab-9172106e8c1b","system_id":"levelo_inurba_marseille","lat":43.26256,"lon":5.39785,"is_reserved":false,"is_disabled":false,"rental_uris":{"android":"levelo://app?vid=22056c1f-5a5a-4970-84ab-9172106e8c1b","ios":"levelo://app?vid=22056c1f-5a5a-4970-84ab-9172106e8c1b"},"vehicle_type_id":"4","last_reported":1757751092,"current_range_meters":15200,"station_id":"","pricing_plan_id":"cebpf4jnsgd1na2vs0mg"},{"bike_id":"68489bd7-5f5c-4661-bada-ef101f8e01b1","system_id":"levelo_inurba_marseille","lat":43.32363,"lon":5.38899,"is_reserved":false,"is_disabled":false,"rental_uris":{"android":"levelo://app?vid=68489bd7-5f5c-4661-bada-ef101f8e01b1","ios":"levelo://app?vid=68489bd7-5f5c-4661-bada-ef101f8e01b1"},"vehicle_type_id":"4","last_reported":1757751092,"current_range_meters":15200,"station_id":"ce4bhqp2rcd13ifvqhog","pricing_plan_id":"cebpf4jnsgd1na2vs0mg"},{"bike_id":"60b20111-d70a-48d1-ba01-5390d3d420b5","system_id":"levelo_inurba_marseille","lat":43.29549,"lon":5.42282,"is_reserved":false,"is_disabled":false,"rental_uris":{"android":"levelo://app?vid=60b20111-d70a-48d1-ba01-5390d3d420b5","ios":"levelo://app?vid=60b20111-d70a-48d1-ba01-5390d3d420b5"},"vehicle_type_id":"4","last_reported":1757751092,"current_range_meters":15200,"station_id":"ce4bhph2rcd13ifvqhdg","pricing_plan_id":"cebpf4jnsgd1na2vs0mg"},{"bike_id":"0c9cd741-73ed-4113-b317-375adb047d53","system_id":"levelo_inurba_marseille","lat":43.29009,"lon":5.35614,"is_reserved":false,"is_disabled":false,"rental_uris":{"android":"levelo://app?vid=0c9cd741-73ed-4113-b317-375adb047d53","ios":"levelo://app?vid=0c9cd741-73ed-4113-b317-375adb047d53"},"vehicle_type_id":"4","last_reported":1757751092,"current_range_meters":15200,"station_id":"ce4bhb92rcd13ifvqen0","pricing_plan_id":"cebpf4jnsgd1na2vs0mg"},{"bike_id":"f8ffd399-b74b-428b-b8c5-652d37f4b22c","system_id":"levelo_inurba_marseille","lat":43.24939,"lon":5.40513,"is_reserved":false,"is_disabled":false,"rental_uris":{"android":"levelo://app?vid=f8ffd399-b74b-428b-b8c5-652d37f4b22c","ios":"levelo://app?vid=f8ffd399-b74b-428b-b8c5-652d37f4b22c"},"vehicle_type_id":"4","last_reported":1757751092,"current_range_meters":16000,"station_id":"st_d2ngiaodas8pm72gd1h0","pricing_plan_id":"cebpf4jnsgd1na2vs0mg"},{"bike_id":"d9c66413-fc0c-4d58-b9df-c55859e73212","system_id":"levelo_inurba_marseille","lat":43.28468,"lon":5.35908,"is_reserved":false,"is_disabled":true,"rental_uris":{"android":"levelo://app?vid=d9c66413-fc0c-4d58-b9df-c55859e73212","ios":"levelo://app?vid=d9c66413-fc0c-4d58-b9df-c55859e73212"},"vehicle_type_id":"4","last_reported":1757751092,"current_range_meters":16000,"station_id":"ce4bhah2rcd13ifvqei0","pricing_plan_id":"cebpf4jnsgd1na2vs0mg"},{"bike_id":"beb6189c-c21e-4836-b631-6b5c31a632d8","system_id":"levelo_inurba_marseille","lat":43.22568,"lon":5.41621,"is_reserved":false,"is_disabled":false,"rental_uris":{"android":"levelo://app?vid=beb6189c-c21e-4836-b631-6b5c31a632d8","ios":"levelo://app?vid=beb6189c-c21e-4836-b631-6b5c31a632d8"},"vehicle_type_id":"4","last_reported":1757751092,"current_range_meters":16000,"station_id":"st_d2o4gvlbi1j2169b742g","pricing_plan_id":"cebpf4jnsgd1na2vs0mg"},{"bike_id":"71256f8f-9c24-475f-8b40-70467fb356a3","system_id":"levelo_inurba_marseille","lat":43.29243,"lon":5.40033,"is_reserved":false,"is_disabled":false,"rental_uris":{"android":"levelo://app?vid=71256f8f-9c24-475f-8b40-70467fb356a3","ios":"levelo://app?vid=71256f8f-9c24-475f-8b40-70467fb356a3"},"vehicle_type_id":"4","last_reported":1757751092,"current_range_meters":16000,"station_id":"","pricing_plan_id":"cebpf4jnsgd1na2vs0mg"},{"bike_id":"d9c11a94-d122-4240-b95b-24fdee8810ac","system_id":"levelo_inurba_marseille","lat":43.282719,"lon":5.399118,"is_reserved":false,"is_disabled":false,"rental_uris":{"android":"levelo://app?vid=d9c11a94-d122-4240-b95b-24fdee8810ac","ios":"levelo://app?vid=d9c11a94-d122-4240-b95b-24fdee8810ac"},"vehicle_type_id":"4","last_reported":1757751092,"current_range_meters":16000,"station_id":"","pricing_plan_id":"cebpf4jnsgd1na2vs0mg"},{"bike_id":"f07d1a34-6972-4c1d-8ed8-100dd0fc1e78","system_id":"levelo_inurba_marseille","lat":43.33024,"lon":5.39037,"is_reserved":false,"is_disabled":false,"rental_uris":{"android":"levelo://app?vid=f07d1a34-6972-4c1d-8ed8-100dd0fc1e78","ios":"levelo://app?vid=f07d1a34-6972-4c1d-8ed8-100dd0fc1e78"},"vehicle_type_id":"4","last_reported":1757751092,"current_range_meters":16000,"station_id":"ce4bhr92rcd13ifvqhrg","pricing_plan_id":"cebpf4jnsgd1na2vs0mg"},{"bike_id":"376baea5-e7f1-4019-a146-212aa533341d","system_id":"levelo_inurba_marseille","lat":43.28841,"lon":5.39313,"is_reserved":false,"is_disabled":false,"rental_uris":{"android":"levelo://app?vid=376baea5-e7f1-4019-a146-212aa533341d","ios":"levelo://app?vid=376baea5-e7f1-4019-a146-212aa533341d"},"vehicle_type_id":"4","last_reported":1757751092,"current_range_meters":15200,"station_id":"ce4bh2p2rcd13ifvqdi0","pricing_plan_id":"cebpf4jnsgd1na2vs0mg"},{"bike_id":"31195751-bbc1-4ea5-8068-c21d8881b649","system_id":"levelo_inurba_marseille","lat":43.240849,"lon":5.377427,"is_reserved":false,"is_disabled":false,"rental_uris":{"android":"levelo://app?vid=31195751-bbc1-4ea5-8068-c21d8881b649","ios":"levelo://app?vid=31195751-bbc1-4ea5-8068-c21d8881b649"},"vehicle_type_id":"4","last_reported":1757751092,"current_range_meters":16400,"station_id":"ce4bhnp2rcd13ifvqgvg","pricing_plan_id":"cebpf4jnsgd1na2vs0mg"},{"bike_id":"cd104b68-7370-4e88-ba9c-1edeee0f6c77","system_id":"levelo_inurba_marseille","lat":43.25207,"lon":5.42437,"is_reserved":false,"is_disabled":false,"rental_uris":{"android":"levelo://app?vid=cd104b68-7370-4e88-ba9c-1edeee0f6c77","ios":"levelo://app?vid=cd104b68-7370-4e88-ba9c-1edeee0f6c77"},"vehicle_type_id":"4","last_reported":1757751092,"current_range_meters":16400,"station_id":"","pricing_plan_id":"cebpf4jnsgd1na2vs0mg"},{"bike_id":"e7a329bd-ed66-4ac7-aaba-63f2810ddd86","system_id":"levelo_inurba_marseille","lat":43.31898,"lon":5.37201,"is_reserved":false,"is_disabled":false,"rental_uris":{"android":"levelo://app?vid=e7a329bd-ed66-4ac7-aaba-63f2810ddd86","ios":"levelo://app?vid=e7a329bd-ed66-4ac7-aaba-63f2810ddd86"},"vehicle_type_id":"4","last_reported":1757751092,"current_range_meters":16400,"station_id":"","pricing_plan_id":"cebpf4jnsgd1na2vs0mg"},{"bike_id":"b81ac566-30ab-45f4-a917-e0cb422aff7d","system_id":"levelo_inurba_marseille","lat":43.25143,"lon":5.40328,"is_reserved":false,"is_disabled":false,"rental_uris":{"android":"levelo://app?vid=b81ac566-30ab-45f4-a917-e0cb422aff7d","ios":"levelo://app?vid=b81ac566-30ab-45f4-a917-e0cb422aff7d"},"vehicle_type_id":"4","last_reported":1757751092,"current_range_meters":16400,"station_id":"ce4bhlh2rcd13ifvqgig","pricing_plan_id":"cebpf4jnsgd1na2vs0mg"},{"bike_id":"c7237af1-fd65-41a7-8ae9-294ff1539f0b","system_id":"levelo_inurba_marseille","lat":43.25342,"lon":5.42184,"is_reserved":false,"is_disabled":false,"rental_uris":{"android":"levelo://app?vid=c7237af1-fd65-41a7-8ae9-294ff1539f0b","ios":"levelo://app?vid=c7237af1-fd65-41a7-8ae9-294ff1539f0b"},"vehicle_type_id":"4","last_reported":1757751092,"current_range_meters":16400,"station_id":"st_d2m65c5bi1j21697t3ng","pricing_plan_id":"cebpf4jnsgd1na2vs0mg"},{"bike_id":"566b1f71-e6f7-4b45-845a-581254de6061","system_id":"levelo_inurba_marseille","lat":43.27494,"lon":5.42464,"is_reserved":false,"is_disabled":false,"rental_uris":{"android":"levelo://app?vid=566b1f71-e6f7-4b45-845a-581254de6061","ios":"levelo://app?vid=566b1f71-e6f7-4b45-845a-581254de6061"},"vehicle_type_id":"4","last_reported":1757751092,"current_range_meters":16400,"station_id":"ce4bhn92rcd13ifvqgrg","pricing_plan_id":"cebpf4jnsgd1na2vs0mg"},{"bike_id":"c5cba6d7-e282-4417-a818-5fc0802dcb08","system_id":"levelo_inurba_marseille","lat":43.33761,"lon":5.3745,"is_reserved":false,"is_disabled":false,"rental_uris":{"android":"levelo://app?vid=c5cba6d7-e282-4417-a818-5fc0802dcb08","ios":"levelo://app?vid=c5cba6d7-e282-4417-a818-5fc0802dcb08"},"vehicle_type_id":"4","last_reported":1757751092,"current_range_meters":16400,"station_id":"","pricing_plan_id":"cebpf4jnsgd1na2vs0mg"},{"bike_id":"7bcf5696-fe61-42d3-ae68-2c2622f35a4d","system_id":"levelo_inurba_marseille","lat":43.29014,"lon":5.35611,"is_reserved":false,"is_disabled":false,"rental_uris":{"android":"levelo://app?vid=7bcf5696-fe61-42d3-ae68-2c2622f35a4d","ios":"levelo://app?vid=7bcf5696-fe61-42d3-ae68-2c2622f35a4d"},"vehicle_type_id":"4","last_reported":1757751092,"current_range_meters":16400,"station_id":"ce4bhb92rcd13ifvqen0","pricing_plan_id":"cebpf4jnsgd1na2vs0mg"},{"bike_id":"0698b43c-1f5f-4fe9-bc60-835539c760ec","system_id":"levelo_inurba_marseille","lat":43.287471,"lon":5.370109,"is_reserved":false,"is_disabled":false,"rental_uris":{"android":"levelo://app?vid=0698b43c-1f5f-4fe9-bc60-835539c760ec","ios":"levelo://app?vid=0698b43c-1f5f-4fe9-bc60-835539c760ec"},"vehicle_type_id":"4","last_reported":1757751092,"current_range_meters":16800,"station_id":"","pricing_plan_id":"cebpf4jnsgd1na2vs0mg"},{"bike_id":"7f3327a2-114b-44a9-b064-b2a89b4e6c39","system_id":"levelo_inurba_marseille","lat":43.24148,"lon":5.39719,"is_reserved":false,"is_disabled":false,"rental_uris":{"android":"levelo://app?vid=7f3327a2-114b-44a9-b064-b2a89b4e6c39","ios":"levelo://app?vid=7f3327a2-114b-44a9-b064-b2a89b4e6c39"},"vehicle_type_id":"4","last_reported":1757751092,"current_range_meters":16800,"station_id":"ce4bhn12rcd13ifvqgpg","pricing_plan_id":"cebpf4jnsgd1na2vs0mg"},{"bike_id":"b07aa0c5-a394-4147-825d-d46f5f93430a","system_id":"levelo_inurba_marseille","lat":43.26557,"lon":5.37288,"is_reserved":false,"is_disabled":false,"rental_uris":{"android":"levelo://app?vid=b07aa0c5-a394-4147-825d-d46f5f93430a","ios":"levelo://app?vid=b07aa0c5-a394-4147-825d-d46f5f93430a"},"vehicle_type_id":"4","last_reported":1757751092,"current_range_meters":16800,"station_id":"ce4bhg12rcd13ifvqf70","pricing_plan_id":"cebpf4jnsgd1na2vs0mg"},{"bike_id":"1eaf7d24-f23e-4e79-b6f5-17176bccc028","system_id":"levelo_inurba_marseille","lat":43.279543,"lon":5.387345,"is_reserved":false,"is_disabled":true,"rental_uris":{"android":"levelo://app?vid=1eaf7d24-f23e-4e79-b6f5-17176bccc028","ios":"levelo://app?vid=1eaf7d24-f23e-4e79-b6f5-17176bccc028"},"vehicle_type_id":"4","last_reported":1757751092,"current_range_meters":16800,"station_id":"ce4bhg12rcd13ifvqf80","pricing_plan_id":"cebpf4jnsgd1na2vs0mg"},{"bike_id":"ee42c31a-b74b-4b2d-917a-cd50dc10c6ce","system_id":"levelo_inurba_marseille","lat":43.33091,"lon":5.39049,"is_reserved":false,"is_disabled":false,"rental_uris":{"android":"levelo://app?vid=ee42c31a-b74b-4b2d-917a-cd50dc10c6ce","ios":"levelo://app?vid=ee42c31a-b74b-4b2d-917a-cd50dc10c6ce"},"vehicle_type_id":"4","last_reported":1757751092,"current_range_meters":16800,"station_id":"","pricing_plan_id":"cebpf4jnsgd1na2vs0mg"},{"bike_id":"40207740-3997-48f7-a3a9-b19ccf0a0c3b","system_id":"levelo_inurba_marseille","lat":43.30428,"lon":5.41307,"is_reserved":false,"is_disabled":false,"rental_uris":{"android":"levelo://app?vid=40207740-3997-48f7-a3a9-b19ccf0a0c3b","ios":"levelo://app?vid=40207740-3997-48f7-a3a9-b19ccf0a0c3b"},"vehicle_type_id":"4","last_reported":1757751092,"current_range_meters":16800,"station_id":"ce4bhop2rcd13ifvqh8g","pricing_plan_id":"cebpf4jnsgd1na2vs0mg"},{"bike_id":"c682ef70-00bc-4415-9b10-9a35bd5ddcc1","system_id":"levelo_inurba_marseille","lat":43.275,"lon":5.42477,"is_reserved":false,"is_disabled":false,"rental_uris":{"android":"levelo://app?vid=c682ef70-00bc-4415-9b10-9a35bd5ddcc1","ios":"levelo://app?vid=c682ef70-00bc-4415-9b10-9a35bd5ddcc1"},"vehicle_type_id":"4","last_reported":1757751092,"current_range_meters":17200,"station_id":"ce4bhn92rcd13ifvqgrg","pricing_plan_id":"cebpf4jnsgd1na2vs0mg"},{"bike_id":"f25e3bda-5e1a-43ac-81fa-872411454589","system_id":"levelo_inurba_marseille","lat":43.2463,"lon":5.39251,"is_reserved":false,"is_disabled":false,"rental_uris":{"android":"levelo://app?vid=f25e3bda-5e1a-43ac-81fa-872411454589","ios":"levelo://app?vid=f25e3bda-5e1a-43ac-81fa-872411454589"},"vehicle_type_id":"4","last_reported":1757751092,"current_range_meters":17200,"station_id":"","pricing_plan_id":"cebpf4jnsgd1na2vs0mg"},{"bike_id":"39a5770b-4a4d-4691-a011-808b644e6c2b","system_id":"levelo_inurba_marseille","lat":43.275852,"lon":5.417641,"is_reserved":false,"is_disabled":false,"rental_uris":{"android":"levelo://app?vid=39a5770b-4a4d-4691-a011-808b644e6c2b","ios":"levelo://app?vid=39a5770b-4a4d-4691-a011-808b644e6c2b"},"vehicle_type_id":"4","last_reported":1757751092,"current_range_meters":17200,"station_id":"","pricing_plan_id":"cebpf4jnsgd1na2vs0mg"},{"bike_id":"9df52c70-6127-40c8-b57a-28a090e0499a","system_id":"levelo_inurba_marseille","lat":43.312869,"lon":5.401889,"is_reserved":false,"is_disabled":false,"rental_uris":{"android":"levelo://app?vid=9df52c70-6127-40c8-b57a-28a090e0499a","ios":"levelo://app?vid=9df52c70-6127-40c8-b57a-28a090e0499a"},"vehicle_type_id":"4","last_reported":1757751092,"current_range_meters":17200,"station_id":"ce4bh092rcd13ifvqd30","pricing_plan_id":"cebpf4jnsgd1na2vs0mg"},{"bike_id":"986f11d8-1003-4830-932e-a59ca28f5df3","system_id":"levelo_inurba_marseille","lat":43.22935,"lon":5.35391,"is_reserved":false,"is_disabled":false,"rental_uris":{"android":"levelo://app?vid=986f11d8-1003-4830-932e-a59ca28f5df3","ios":"levelo://app?vid=986f11d8-1003-4830-932e-a59ca28f5df3"},"vehicle_type_id":"4","last_reported":1757751092,"current_range_meters":17200,"station_id":"cpo3532slgdg3j2ikp40","pricing_plan_id":"cebpf4jnsgd1na2vs0mg"},{"bike_id":"d03e163c-0dbb-4837-a032-3c84056be2de","system_id":"levelo_inurba_marseille","lat":43.24546,"lon":5.3952,"is_reserved":false,"is_disabled":false,"rental_uris":{"android":"levelo://app?vid=d03e163c-0dbb-4837-a032-3c84056be2de","ios":"levelo://app?vid=d03e163c-0dbb-4837-a032-3c84056be2de"},"vehicle_type_id":"4","last_reported":1757751092,"current_range_meters":17200,"station_id":"ce4bhlp2rcd13ifvqgjg","pricing_plan_id":"cebpf4jnsgd1na2vs0mg"},{"bike_id":"0418ed23-d4c6-49db-b310-d4f985bd3bc3","system_id":"levelo_inurba_marseille","lat":43.32119,"lon":5.36782,"is_reserved":false,"is_disabled":false,"rental_uris":{"android":"levelo://app?vid=0418ed23-d4c6-49db-b310-d4f985bd3bc3","ios":"levelo://app?vid=0418ed23-d4c6-49db-b310-d4f985bd3bc3"},"vehicle_type_id":"4","last_reported":1757751092,"current_range_meters":17600,"station_id":"ce4bhrh2rcd13ifvqhug","pricing_plan_id":"cebpf4jnsgd1na2vs0mg"},{"bike_id":"bf63aad8-dedf-479f-beb1-66de6615be39","system_id":"levelo_inurba_marseille","lat":43.27949,"lon":5.41048,"is_reserved":false,"is_disabled":false,"rental_uris":{"android":"levelo://app?vid=bf63aad8-dedf-479f-beb1-66de6615be39","ios":"levelo://app?vid=bf63aad8-dedf-479f-beb1-66de6615be39"},"vehicle_type_id":"4","last_reported":1757751092,"current_range_meters":17600,"station_id":"ce4bhnp2rcd13ifvqh0g","pricing_plan_id":"cebpf4jnsgd1na2vs0mg"},{"bike_id":"f8ad3736-8f54-4135-b93f-10a1e8c61748","system_id":"levelo_inurba_marseille","lat":43.295838,"lon":5.375046,"is_reserved":false,"is_disabled":false,"rental_uris":{"android":"levelo://app?vid=f8ad3736-8f54-4135-b93f-10a1e8c61748","ios":"levelo://app?vid=f8ad3736-8f54-4135-b93f-10a1e8c61748"},"vehicle_type_id":"4","last_reported":1757751092,"current_range_meters":17200,"station_id":"ce4bgh92rcd13ifvqb50","pricing_plan_id":"cebpf4jnsgd1na2vs0mg"},{"bike_id":"a5c5de9d-d203-409f-b07e-87974e4d4f08","system_id":"levelo_inurba_marseille","lat":43.24811,"lon":5.37453,"is_reserved":false,"is_disabled":false,"rental_uris":{"android":"levelo://app?vid=a5c5de9d-d203-409f-b07e-87974e4d4f08","ios":"levelo://app?vid=a5c5de9d-d203-409f-b07e-87974e4d4f08"},"vehicle_type_id":"4","last_reported":1757751092,"current_range_meters":17600,"station_id":"ce4bhgh2rcd13ifvqfb0","pricing_plan_id":"cebpf4jnsgd1na2vs0mg"},{"bike_id":"6e6bd1a0-db6c-4b77-aedc-ec1b54ba104c","system_id":"levelo_inurba_marseille","lat":43.29011,"lon":5.38147,"is_reserved":false,"is_disabled":false,"rental_uris":{"android":"levelo://app?vid=6e6bd1a0-db6c-4b77-aedc-ec1b54ba104c","ios":"levelo://app?vid=6e6bd1a0-db6c-4b77-aedc-ec1b54ba104c"},"vehicle_type_id":"4","last_reported":1757751092,"current_range_meters":19200,"station_id":"ce4bh4p2rcd13ifvqe1g","pricing_plan_id":"cebpf4jnsgd1na2vs0mg"},{"bike_id":"3edab8b5-08ab-4bd7-a8e3-46e14fec2b69","system_id":"levelo_inurba_marseille","lat":43.22579,"lon":5.41626,"is_reserved":false,"is_disabled":false,"rental_uris":{"android":"levelo://app?vid=3edab8b5-08ab-4bd7-a8e3-46e14fec2b69","ios":"levelo://app?vid=3edab8b5-08ab-4bd7-a8e3-46e14fec2b69"},"vehicle_type_id":"4","last_reported":1757751092,"current_range_meters":17600,"station_id":"st_d2o4gvlbi1j2169b742g","pricing_plan_id":"cebpf4jnsgd1na2vs0mg"},{"bike_id":"9613ee4d-bd84-40ec-a183-9abb4af6a1b6","system_id":"levelo_inurba_marseille","lat":43.3238,"lon":5.3681,"is_reserved":false,"is_disabled":false,"rental_uris":{"android":"levelo://app?vid=9613ee4d-bd84-40ec-a183-9abb4af6a1b6","ios":"levelo://app?vid=9613ee4d-bd84-40ec-a183-9abb4af6a1b6"},"vehicle_type_id":"4","last_reported":1757751092,"current_range_meters":17600,"station_id":"","pricing_plan_id":"cebpf4jnsgd1na2vs0mg"},{"bike_id":"3bc338fd-b3c5-4caa-b6e6-3c70a52689ba","system_id":"levelo_inurba_marseille","lat":43.315895,"lon":5.389057,"is_reserved":false,"is_disabled":false,"rental_uris":{"android":"levelo://app?vid=3bc338fd-b3c5-4caa-b6e6-3c70a52689ba","ios":"levelo://app?vid=3bc338fd-b3c5-4caa-b6e6-3c70a52689ba"},"vehicle_type_id":"4","last_reported":1757751092,"current_range_meters":17600,"station_id":"","pricing_plan_id":"cebpf4jnsgd1na2vs0mg"},{"bike_id":"c46e027d-1242-40df-a940-179f6a1fc97d","system_id":"levelo_inurba_marseille","lat":43.302815,"lon":5.400729,"is_reserved":false,"is_disabled":false,"rental_uris":{"android":"levelo://app?vid=c46e027d-1242-40df-a940-179f6a1fc97d","ios":"levelo://app?vid=c46e027d-1242-40df-a940-179f6a1fc97d"},"vehicle_type_id":"4","last_reported":1757751092,"current_range_meters":18000,"station_id":"ce4bgvh2rcd13ifvqcs0","pricing_plan_id":"cebpf4jnsgd1na2vs0mg"},{"bike_id":"1bd07d49-9ddf-47b9-97ed-19427f874804","system_id":"levelo_inurba_marseille","lat":43.30117,"lon":5.39874,"is_reserved":false,"is_disabled":false,"rental_uris":{"android":"levelo://app?vid=1bd07d49-9ddf-47b9-97ed-19427f874804","ios":"levelo://app?vid=1bd07d49-9ddf-47b9-97ed-19427f874804"},"vehicle_type_id":"4","last_reported":1757751092,"current_range_meters":18000,"station_id":"ce4bh0h2rcd13ifvqd40","pricing_plan_id":"cebpf4jnsgd1na2vs0mg"},{"bike_id":"099dc754-cf09-4145-b6fa-59b333ab25e3","system_id":"levelo_inurba_marseille","lat":43.246269,"lon":5.43154,"is_reserved":false,"is_disabled":false,"rental_uris":{"android":"levelo://app?vid=099dc754-cf09-4145-b6fa-59b333ab25e3","ios":"levelo://app?vid=099dc754-cf09-4145-b6fa-59b333ab25e3"},"vehicle_type_id":"4","last_reported":1757751092,"current_range_meters":18000,"station_id":"st_d2m6c4gdas8pm72e190g","pricing_plan_id":"cebpf4jnsgd1na2vs0mg"},{"bike_id":"4d6e6605-7f16-44fa-a19a-c138ee7cb360","system_id":"levelo_inurba_marseille","lat":43.33758,"lon":5.37489,"is_reserved":false,"is_disabled":false,"rental_uris":{"android":"levelo://app?vid=4d6e6605-7f16-44fa-a19a-c138ee7cb360","ios":"levelo://app?vid=4d6e6605-7f16-44fa-a19a-c138ee7cb360"},"vehicle_type_id":"4","last_reported":1757751092,"current_range_meters":18000,"station_id":"","pricing_plan_id":"cebpf4jnsgd1na2vs0mg"},{"bike_id":"cb612bf1-232d-427f-a7c5-ad1c79970661","system_id":"levelo_inurba_marseille","lat":43.29034,"lon":5.39964,"is_reserved":false,"is_disabled":false,"rental_uris":{"android":"levelo://app?vid=cb612bf1-232d-427f-a7c5-ad1c79970661","ios":"levelo://app?vid=cb612bf1-232d-427f-a7c5-ad1c79970661"},"vehicle_type_id":"4","last_reported":1757751092,"current_range_meters":18000,"station_id":"ce4bh392rcd13ifvqdm0","pricing_plan_id":"cebpf4jnsgd1na2vs0mg"},{"bike_id":"c75bfa20-483b-42f7-8a25-5f10e08a57b0","system_id":"levelo_inurba_marseille","lat":43.321167,"lon":5.367763,"is_reserved":false,"is_disabled":false,"rental_uris":{"android":"levelo://app?vid=c75bfa20-483b-42f7-8a25-5f10e08a57b0","ios":"levelo://app?vid=c75bfa20-483b-42f7-8a25-5f10e08a57b0"},"vehicle_type_id":"4","last_reported":1757751092,"current_range_meters":18000,"station_id":"ce4bhrh2rcd13ifvqhug","pricing_plan_id":"cebpf4jnsgd1na2vs0mg"},{"bike_id":"5ff67dcb-67c2-4e6b-99e6-4a30642a3d9a","system_id":"levelo_inurba_marseille","lat":43.24379,"lon":5.37046,"is_reserved":false,"is_disabled":false,"rental_uris":{"android":"levelo://app?vid=5ff67dcb-67c2-4e6b-99e6-4a30642a3d9a","ios":"levelo://app?vid=5ff67dcb-67c2-4e6b-99e6-4a30642a3d9a"},"vehicle_type_id":"4","last_reported":1757751092,"current_range_meters":18800,"station_id":"ce4bhhh2rcd13ifvqfk0","pricing_plan_id":"cebpf4jnsgd1na2vs0mg"},{"bike_id":"1fa9cf8a-cbc2-4f66-a5af-49139eedcffa","system_id":"levelo_inurba_marseille","lat":43.31701,"lon":5.40473,"is_reserved":false,"is_disabled":false,"rental_uris":{"android":"levelo://app?vid=1fa9cf8a-cbc2-4f66-a5af-49139eedcffa","ios":"levelo://app?vid=1fa9cf8a-cbc2-4f66-a5af-49139eedcffa"},"vehicle_type_id":"4","last_reported":1757751092,"current_range_meters":18800,"station_id":"ce4bh012rcd13ifvqd00","pricing_plan_id":"cebpf4jnsgd1na2vs0mg"},{"bike_id":"0993bc77-02b3-4f58-9048-8039fd513152","system_id":"levelo_inurba_marseille","lat":43.3299,"lon":5.39009,"is_reserved":false,"is_disabled":false,"rental_uris":{"android":"levelo://app?vid=0993bc77-02b3-4f58-9048-8039fd513152","ios":"levelo://app?vid=0993bc77-02b3-4f58-9048-8039fd513152"},"vehicle_type_id":"4","last_reported":1757751092,"current_range_meters":18800,"station_id":"ce4bhr92rcd13ifvqhrg","pricing_plan_id":"cebpf4jnsgd1na2vs0mg"},{"bike_id":"4de2e286-2aa2-4b64-acc2-1b608ab4b806","system_id":"levelo_inurba_marseille","lat":43.290368,"lon":5.399373,"is_reserved":false,"is_disabled":false,"rental_uris":{"android":"levelo://app?vid=4de2e286-2aa2-4b64-acc2-1b608ab4b806","ios":"levelo://app?vid=4de2e286-2aa2-4b64-acc2-1b608ab4b806"},"vehicle_type_id":"4","last_reported":1757751092,"current_range_meters":18800,"station_id":"ce4bh392rcd13ifvqdm0","pricing_plan_id":"cebpf4jnsgd1na2vs0mg"},{"bike_id":"5476d906-b0c2-4d37-81e0-6fc56d7abe48","system_id":"levelo_inurba_marseille","lat":43.31704,"lon":5.376868,"is_reserved":false,"is_disabled":false,"rental_uris":{"android":"levelo://app?vid=5476d906-b0c2-4d37-81e0-6fc56d7abe48","ios":"levelo://app?vid=5476d906-b0c2-4d37-81e0-6fc56d7abe48"},"vehicle_type_id":"4","last_reported":1757751092,"current_range_meters":18800,"station_id":"ce4bgth2rcd13ifvqch0","pricing_plan_id":"cebpf4jnsgd1na2vs0mg"},{"bike_id":"8cba11da-a32c-4855-bd62-3db08b7c1962","system_id":"levelo_inurba_marseille","lat":43.29041,"lon":5.40002,"is_reserved":false,"is_disabled":false,"rental_uris":{"android":"levelo://app?vid=8cba11da-a32c-4855-bd62-3db08b7c1962","ios":"levelo://app?vid=8cba11da-a32c-4855-bd62-3db08b7c1962"},"vehicle_type_id":"4","last_reported":1757751092,"current_range_meters":18800,"station_id":"ce4bh392rcd13ifvqdm0","pricing_plan_id":"cebpf4jnsgd1na2vs0mg"},{"bike_id":"695bc73c-02f9-4c78-a8d4-70d9461761ac","system_id":"levelo_inurba_marseille","lat":43.2815,"lon":5.42659,"is_reserved":false,"is_disabled":false,"rental_uris":{"android":"levelo://app?vid=695bc73c-02f9-4c78-a8d4-70d9461761ac","ios":"levelo://app?vid=695bc73c-02f9-4c78-a8d4-70d9461761ac"},"vehicle_type_id":"4","last_reported":1757751092,"current_range_meters":18800,"station_id":"ce4bhnh2rcd13ifvqgug","pricing_plan_id":"cebpf4jnsgd1na2vs0mg"},{"bike_id":"9b49ad0c-cd5f-42fa-bf89-dc07fc8b3cb8","system_id":"levelo_inurba_marseille","lat":43.30212,"lon":5.39471,"is_reserved":false,"is_disabled":false,"rental_uris":{"android":"levelo://app?vid=9b49ad0c-cd5f-42fa-bf89-dc07fc8b3cb8","ios":"levelo://app?vid=9b49ad0c-cd5f-42fa-bf89-dc07fc8b3cb8"},"vehicle_type_id":"4","last_reported":1757751092,"current_range_meters":18800,"station_id":"ce4bh0p2rcd13ifvqd70","pricing_plan_id":"cebpf4jnsgd1na2vs0mg"},{"bike_id":"14e2496b-54f5-4a71-8a7b-f668d23f2674","system_id":"levelo_inurba_marseille","lat":43.257303,"lon":5.411074,"is_reserved":false,"is_disabled":false,"rental_uris":{"android":"levelo://app?vid=14e2496b-54f5-4a71-8a7b-f668d23f2674","ios":"levelo://app?vid=14e2496b-54f5-4a71-8a7b-f668d23f2674"},"vehicle_type_id":"4","last_reported":1757751092,"current_range_meters":18800,"station_id":"ce4bhkp2rcd13ifvqgd0","pricing_plan_id":"cebpf4jnsgd1na2vs0mg"},{"bike_id":"cf598a45-3e64-4164-b570-1a150a235702","system_id":"levelo_inurba_marseille","lat":43.30888,"lon":5.396307,"is_reserved":false,"is_disabled":false,"rental_uris":{"android":"levelo://app?vid=cf598a45-3e64-4164-b570-1a150a235702","ios":"levelo://app?vid=cf598a45-3e64-4164-b570-1a150a235702"},"vehicle_type_id":"4","last_reported":1757751092,"current_range_meters":18800,"station_id":"ce4bh012rcd13ifvqcv0","pricing_plan_id":"cebpf4jnsgd1na2vs0mg"},{"bike_id":"89344fbf-06a9-4232-835b-ae06a3e9451b","system_id":"levelo_inurba_marseille","lat":43.25338,"lon":5.4217,"is_reserved":false,"is_disabled":false,"rental_uris":{"android":"levelo://app?vid=89344fbf-06a9-4232-835b-ae06a3e9451b","ios":"levelo://app?vid=89344fbf-06a9-4232-835b-ae06a3e9451b"},"vehicle_type_id":"4","last_reported":1757751092,"current_range_meters":18800,"station_id":"st_d2m65c5bi1j21697t3ng","pricing_plan_id":"cebpf4jnsgd1na2vs0mg"},{"bike_id":"a0f985e7-7cd5-4441-b74c-336ec6b02b51","system_id":"levelo_inurba_marseille","lat":43.29065,"lon":5.37167,"is_reserved":false,"is_disabled":false,"rental_uris":{"android":"levelo://app?vid=a0f985e7-7cd5-4441-b74c-336ec6b02b51","ios":"levelo://app?vid=a0f985e7-7cd5-4441-b74c-336ec6b02b51"},"vehicle_type_id":"4","last_reported":1757751092,"current_range_meters":18800,"station_id":"ce4bh5p2rcd13ifvqe4g","pricing_plan_id":"cebpf4jnsgd1na2vs0mg"},{"bike_id":"085d1fc3-832e-4bb8-9dab-596c869e48fd","system_id":"levelo_inurba_marseille","lat":43.282138,"lon":5.390458,"is_reserved":false,"is_disabled":true,"rental_uris":{"android":"levelo://app?vid=085d1fc3-832e-4bb8-9dab-596c869e48fd","ios":"levelo://app?vid=085d1fc3-832e-4bb8-9dab-596c869e48fd"},"vehicle_type_id":"4","last_reported":1757751092,"current_range_meters":19200,"station_id":"ce4bhn92rcd13ifvqgsg","pricing_plan_id":"cebpf4jnsgd1na2vs0mg"},{"bike_id":"21a355ea-199f-49b4-9881-f8ede24bf5af","system_id":"levelo_inurba_marseille","lat":43.290333,"lon":5.35907,"is_reserved":false,"is_disabled":true,"rental_uris":{"android":"levelo://app?vid=21a355ea-199f-49b4-9881-f8ede24bf5af","ios":"levelo://app?vid=21a355ea-199f-49b4-9881-f8ede24bf5af"},"vehicle_type_id":"4","last_reported":1757751092,"current_range_meters":19200,"station_id":"ce4bha92rcd13ifvqeg0","pricing_plan_id":"cebpf4jnsgd1na2vs0mg"},{"bike_id":"fb7654a2-f2ec-4a94-93b8-2422c35d98a2","system_id":"levelo_inurba_marseille","lat":43.2852,"lon":5.35894,"is_reserved":false,"is_disabled":false,"rental_uris":{"android":"levelo://app?vid=fb7654a2-f2ec-4a94-93b8-2422c35d98a2","ios":"levelo://app?vid=fb7654a2-f2ec-4a94-93b8-2422c35d98a2"},"vehicle_type_id":"4","last_reported":1757751092,"current_range_meters":19200,"station_id":"","pricing_plan_id":"cebpf4jnsgd1na2vs0mg"},{"bike_id":"ff744283-21ef-4c65-9de5-27f50be3b9b0","system_id":"levelo_inurba_marseille","lat":43.29048,"lon":5.39971,"is_reserved":false,"is_disabled":false,"rental_uris":{"android":"levelo://app?vid=ff744283-21ef-4c65-9de5-27f50be3b9b0","ios":"levelo://app?vid=ff744283-21ef-4c65-9de5-27f50be3b9b0"},"vehicle_type_id":"4","last_reported":1757751092,"current_range_meters":19200,"station_id":"ce4bh392rcd13ifvqdm0","pricing_plan_id":"cebpf4jnsgd1na2vs0mg"},{"bike_id":"a1e80537-ba87-4c0c-9e2c-ec8e183fe66a","system_id":"levelo_inurba_marseille","lat":43.29859,"lon":5.363027,"is_reserved":false,"is_disabled":true,"rental_uris":{"android":"levelo://app?vid=a1e80537-ba87-4c0c-9e2c-ec8e183fe66a","ios":"levelo://app?vid=a1e80537-ba87-4c0c-9e2c-ec8e183fe66a"},"vehicle_type_id":"4","last_reported":1757751092,"current_range_meters":19600,"station_id":"ce4bgpp2rcd13ifvqc3g","pricing_plan_id":"cebpf4jnsgd1na2vs0mg"},{"bike_id":"5d66df86-a3b7-4823-89ca-7b28b24b8f9a","system_id":"levelo_inurba_marseille","lat":43.24065,"lon":5.37756,"is_reserved":false,"is_disabled":false,"rental_uris":{"android":"levelo://app?vid=5d66df86-a3b7-4823-89ca-7b28b24b8f9a","ios":"levelo://app?vid=5d66df86-a3b7-4823-89ca-7b28b24b8f9a"},"vehicle_type_id":"4","last_reported":1757751092,"current_range_meters":19600,"station_id":"ce4bhnp2rcd13ifvqgvg","pricing_plan_id":"cebpf4jnsgd1na2vs0mg"},{"bike_id":"b0c8e862-0755-4d99-8b90-7cc8c2360d44","system_id":"levelo_inurba_marseille","lat":43.30139,"lon":5.37415,"is_reserved":false,"is_disabled":false,"rental_uris":{"android":"levelo://app?vid=b0c8e862-0755-4d99-8b90-7cc8c2360d44","ios":"levelo://app?vid=b0c8e862-0755-4d99-8b90-7cc8c2360d44"},"vehicle_type_id":"4","last_reported":1757751092,"current_range_meters":22000,"station_id":"ce4bgs92rcd13ifvqcc0","pricing_plan_id":"cebpf4jnsgd1na2vs0mg"},{"bike_id":"ef94e107-b5fd-44f7-a023-fb0854a2be56","system_id":"levelo_inurba_marseille","lat":43.28639,"lon":5.351,"is_reserved":false,"is_disabled":true,"rental_uris":{"android":"levelo://app?vid=ef94e107-b5fd-44f7-a023-fb0854a2be56","ios":"levelo://app?vid=ef94e107-b5fd-44f7-a023-fb0854a2be56"},"vehicle_type_id":"4","last_reported":1757751092,"current_range_meters":19600,"station_id":"ce4bhch2rcd13ifvqeug","pricing_plan_id":"cebpf4jnsgd1na2vs0mg"},{"bike_id":"38fb07ef-d51a-4a81-a159-85cbf3466ec5","system_id":"levelo_inurba_marseille","lat":43.296064,"lon":5.377336,"is_reserved":false,"is_disabled":true,"rental_uris":{"android":"levelo://app?vid=38fb07ef-d51a-4a81-a159-85cbf3466ec5","ios":"levelo://app?vid=38fb07ef-d51a-4a81-a159-85cbf3466ec5"},"vehicle_type_id":"4","last_reported":1757751092,"current_range_meters":19600,"station_id":"ce4bgi92rcd13ifvqb90","pricing_plan_id":"cebpf4jnsgd1na2vs0mg"},{"bike_id":"95255b4e-4c62-4fc1-8ed0-ccd8e4f66b29","system_id":"levelo_inurba_marseille","lat":43.28145,"lon":5.42651,"is_reserved":false,"is_disabled":false,"rental_uris":{"android":"levelo://app?vid=95255b4e-4c62-4fc1-8ed0-ccd8e4f66b29","ios":"levelo://app?vid=95255b4e-4c62-4fc1-8ed0-ccd8e4f66b29"},"vehicle_type_id":"4","last_reported":1757751092,"current_range_meters":19600,"station_id":"ce4bhnh2rcd13ifvqgug","pricing_plan_id":"cebpf4jnsgd1na2vs0mg"},{"bike_id":"4e08e035-b29a-498d-b5b2-5e0b0ec897f1","system_id":"levelo_inurba_marseille","lat":43.29304,"lon":5.37455,"is_reserved":false,"is_disabled":false,"rental_uris":{"android":"levelo://app?vid=4e08e035-b29a-498d-b5b2-5e0b0ec897f1","ios":"levelo://app?vid=4e08e035-b29a-498d-b5b2-5e0b0ec897f1"},"vehicle_type_id":"4","last_reported":1757751092,"current_range_meters":19600,"station_id":"ce4bgi12rcd13ifvqb70","pricing_plan_id":"cebpf4jnsgd1na2vs0mg"},{"bike_id":"8ab60a89-bd14-40d7-b359-020ea126cfef","system_id":"levelo_inurba_marseille","lat":43.32364,"lon":5.36752,"is_reserved":false,"is_disabled":false,"rental_uris":{"android":"levelo://app?vid=8ab60a89-bd14-40d7-b359-020ea126cfef","ios":"levelo://app?vid=8ab60a89-bd14-40d7-b359-020ea126cfef"},"vehicle_type_id":"4","last_reported":1757751092,"current_range_meters":19600,"station_id":"ce4bhsh2rcd13ifvqi2g","pricing_plan_id":"cebpf4jnsgd1na2vs0mg"},{"bike_id":"875b53cc-d976-4652-b804-d3455d3ec7e0","system_id":"levelo_inurba_marseille","lat":43.28484,"lon":5.38414,"is_reserved":false,"is_disabled":false,"rental_uris":{"android":"levelo://app?vid=875b53cc-d976-4652-b804-d3455d3ec7e0","ios":"levelo://app?vid=875b53cc-d976-4652-b804-d3455d3ec7e0"},"vehicle_type_id":"4","last_reported":1757751092,"current_range_meters":19600,"station_id":"ce4bh512rcd13ifvqe3g","pricing_plan_id":"cebpf4jnsgd1na2vs0mg"},{"bike_id":"f9a13c36-133c-4fe2-9358-75a6762c885a","system_id":"levelo_inurba_marseille","lat":43.29036,"lon":5.35935,"is_reserved":false,"is_disabled":true,"rental_uris":{"android":"levelo://app?vid=f9a13c36-133c-4fe2-9358-75a6762c885a","ios":"levelo://app?vid=f9a13c36-133c-4fe2-9358-75a6762c885a"},"vehicle_type_id":"4","last_reported":1757751092,"current_range_meters":19600,"station_id":"ce4bha92rcd13ifvqeg0","pricing_plan_id":"cebpf4jnsgd1na2vs0mg"},{"bike_id":"d9e0c818-cda2-40f3-9d69-4d79eefe1a97","system_id":"levelo_inurba_marseille","lat":43.249454,"lon":5.404932,"is_reserved":false,"is_disabled":false,"rental_uris":{"android":"levelo://app?vid=d9e0c818-cda2-40f3-9d69-4d79eefe1a97","ios":"levelo://app?vid=d9e0c818-cda2-40f3-9d69-4d79eefe1a97"},"vehicle_type_id":"4","last_reported":1757751092,"current_range_meters":19600,"station_id":"st_d2ngiaodas8pm72gd1h0","pricing_plan_id":"cebpf4jnsgd1na2vs0mg"},{"bike_id":"6dc300f8-4c74-4a84-9e31-daec34120ce3","system_id":"levelo_inurba_marseille","lat":43.33375,"lon":5.41988,"is_reserved":false,"is_disabled":false,"rental_uris":{"android":"levelo://app?vid=6dc300f8-4c74-4a84-9e31-daec34120ce3","ios":"levelo://app?vid=6dc300f8-4c74-4a84-9e31-daec34120ce3"},"vehicle_type_id":"4","last_reported":1757751092,"current_range_meters":19600,"station_id":"","pricing_plan_id":"cebpf4jnsgd1na2vs0mg"},{"bike_id":"9904c001-78e8-4236-bd42-1976fab37afc","system_id":"levelo_inurba_marseille","lat":43.2984,"lon":5.3627,"is_reserved":false,"is_disabled":false,"rental_uris":{"android":"levelo://app?vid=9904c001-78e8-4236-bd42-1976fab37afc","ios":"levelo://app?vid=9904c001-78e8-4236-bd42-1976fab37afc"},"vehicle_type_id":"4","last_reported":1757751092,"current_range_meters":19600,"station_id":"ce4bgpp2rcd13ifvqc3g","pricing_plan_id":"cebpf4jnsgd1na2vs0mg"},{"bike_id":"1a4b03c8-c846-43eb-8943-ea26b2df1874","system_id":"levelo_inurba_marseille","lat":43.298544,"lon":5.362968,"is_reserved":false,"is_disabled":false,"rental_uris":{"android":"levelo://app?vid=1a4b03c8-c846-43eb-8943-ea26b2df1874","ios":"levelo://app?vid=1a4b03c8-c846-43eb-8943-ea26b2df1874"},"vehicle_type_id":"4","last_reported":1757751092,"current_range_meters":20000,"station_id":"ce4bgpp2rcd13ifvqc3g","pricing_plan_id":"cebpf4jnsgd1na2vs0mg"},{"bike_id":"a214e50e-5287-4c9c-8ef0-07c2e66199d9","system_id":"levelo_inurba_marseille","lat":43.2926,"lon":5.3762,"is_reserved":false,"is_disabled":false,"rental_uris":{"android":"levelo://app?vid=a214e50e-5287-4c9c-8ef0-07c2e66199d9","ios":"levelo://app?vid=a214e50e-5287-4c9c-8ef0-07c2e66199d9"},"vehicle_type_id":"4","last_reported":1757751092,"current_range_meters":20000,"station_id":"ce4bgi12rcd13ifvqb80","pricing_plan_id":"cebpf4jnsgd1na2vs0mg"},{"bike_id":"d9c4202c-de13-4428-8c40-40d90faf1618","system_id":"levelo_inurba_marseille","lat":43.31356,"lon":5.3707,"is_reserved":false,"is_disabled":false,"rental_uris":{"android":"levelo://app?vid=d9c4202c-de13-4428-8c40-40d90faf1618","ios":"levelo://app?vid=d9c4202c-de13-4428-8c40-40d90faf1618"},"vehicle_type_id":"4","last_reported":1757751092,"current_range_meters":20000,"station_id":"","pricing_plan_id":"cebpf4jnsgd1na2vs0mg"},{"bike_id":"314c54bf-6fda-45c7-9b81-07b2b61ac08b","system_id":"levelo_inurba_marseille","lat":43.31693,"lon":5.40467,"is_reserved":false,"is_disabled":false,"rental_uris":{"android":"levelo://app?vid=314c54bf-6fda-45c7-9b81-07b2b61ac08b","ios":"levelo://app?vid=314c54bf-6fda-45c7-9b81-07b2b61ac08b"},"vehicle_type_id":"4","last_reported":1757751092,"current_range_meters":20000,"station_id":"ce4bh012rcd13ifvqd00","pricing_plan_id":"cebpf4jnsgd1na2vs0mg"},{"bike_id":"20d08a36-fa04-454f-b381-5c66030c764a","system_id":"levelo_inurba_marseille","lat":43.31487,"lon":5.37307,"is_reserved":false,"is_disabled":false,"rental_uris":{"android":"levelo://app?vid=20d08a36-fa04-454f-b381-5c66030c764a","ios":"levelo://app?vid=20d08a36-fa04-454f-b381-5c66030c764a"},"vehicle_type_id":"4","last_reported":1757751092,"current_range_meters":20000,"station_id":"ce4bgt12rcd13ifvqcd0","pricing_plan_id":"cebpf4jnsgd1na2vs0mg"},{"bike_id":"6f0c4b8f-22cc-4421-8a05-265dd88e9f5a","system_id":"levelo_inurba_marseille","lat":43.30949,"lon":5.39067,"is_reserved":false,"is_disabled":false,"rental_uris":{"android":"levelo://app?vid=6f0c4b8f-22cc-4421-8a05-265dd88e9f5a","ios":"levelo://app?vid=6f0c4b8f-22cc-4421-8a05-265dd88e9f5a"},"vehicle_type_id":"4","last_reported":1757751092,"current_range_meters":20000,"station_id":"ce4bgup2rcd13ifvqco0","pricing_plan_id":"cebpf4jnsgd1na2vs0mg"},{"bike_id":"97e59ac0-fa91-4ea3-8eeb-17d2ec19f33f","system_id":"levelo_inurba_marseille","lat":43.31117,"lon":5.377872,"is_reserved":false,"is_disabled":false,"rental_uris":{"android":"levelo://app?vid=97e59ac0-fa91-4ea3-8eeb-17d2ec19f33f","ios":"levelo://app?vid=97e59ac0-fa91-4ea3-8eeb-17d2ec19f33f"},"vehicle_type_id":"4","last_reported":1757751092,"current_range_meters":20000,"station_id":"ce4bgt92rcd13ifvqcg0","pricing_plan_id":"cebpf4jnsgd1na2vs0mg"},{"bike_id":"bef6a46d-20af-48b1-9cca-8bc83307ad93","system_id":"levelo_inurba_marseille","lat":43.30881,"lon":5.372,"is_reserved":false,"is_disabled":false,"rental_uris":{"android":"levelo://app?vid=bef6a46d-20af-48b1-9cca-8bc83307ad93","ios":"levelo://app?vid=bef6a46d-20af-48b1-9cca-8bc83307ad93"},"vehicle_type_id":"4","last_reported":1757751092,"current_range_meters":20000,"station_id":"ce4bguh2rcd13ifvqckg","pricing_plan_id":"cebpf4jnsgd1na2vs0mg"},{"bike_id":"ef7455d2-1bd9-4da0-8ae3-528589066897","system_id":"levelo_inurba_marseille","lat":43.290032,"lon":5.35631,"is_reserved":false,"is_disabled":false,"rental_uris":{"android":"levelo://app?vid=ef7455d2-1bd9-4da0-8ae3-528589066897","ios":"levelo://app?vid=ef7455d2-1bd9-4da0-8ae3-528589066897"},"vehicle_type_id":"4","last_reported":1757751092,"current_range_meters":20400,"station_id":"ce4bhb92rcd13ifvqen0","pricing_plan_id":"cebpf4jnsgd1na2vs0mg"},{"bike_id":"9a866ff7-e7db-4340-831b-151f8cc7ab9d","system_id":"levelo_inurba_marseille","lat":43.26561,"lon":5.37283,"is_reserved":false,"is_disabled":false,"rental_uris":{"android":"levelo://app?vid=9a866ff7-e7db-4340-831b-151f8cc7ab9d","ios":"levelo://app?vid=9a866ff7-e7db-4340-831b-151f8cc7ab9d"},"vehicle_type_id":"4","last_reported":1757751092,"current_range_meters":20400,"station_id":"ce4bhg12rcd13ifvqf70","pricing_plan_id":"cebpf4jnsgd1na2vs0mg"},{"bike_id":"d0b51c92-8919-40a8-81c9-9ab53ac118e3","system_id":"levelo_inurba_marseille","lat":43.3302,"lon":5.39057,"is_reserved":false,"is_disabled":false,"rental_uris":{"android":"levelo://app?vid=d0b51c92-8919-40a8-81c9-9ab53ac118e3","ios":"levelo://app?vid=d0b51c92-8919-40a8-81c9-9ab53ac118e3"},"vehicle_type_id":"4","last_reported":1757751092,"current_range_meters":20400,"station_id":"ce4bhr92rcd13ifvqhrg","pricing_plan_id":"cebpf4jnsgd1na2vs0mg"},{"bike_id":"7a448e7d-e5e9-4ad8-bddd-8ad547e367a1","system_id":"levelo_inurba_marseille","lat":43.29031,"lon":5.39969,"is_reserved":false,"is_disabled":false,"rental_uris":{"android":"levelo://app?vid=7a448e7d-e5e9-4ad8-bddd-8ad547e367a1","ios":"levelo://app?vid=7a448e7d-e5e9-4ad8-bddd-8ad547e367a1"},"vehicle_type_id":"4","last_reported":1757751092,"current_range_meters":20400,"station_id":"ce4bh392rcd13ifvqdm0","pricing_plan_id":"cebpf4jnsgd1na2vs0mg"},{"bike_id":"69154674-8aaa-4d29-bdba-2ea7e7c4c005","system_id":"levelo_inurba_marseille","lat":43.31074,"lon":5.42469,"is_reserved":false,"is_disabled":false,"rental_uris":{"android":"levelo://app?vid=69154674-8aaa-4d29-bdba-2ea7e7c4c005","ios":"levelo://app?vid=69154674-8aaa-4d29-bdba-2ea7e7c4c005"},"vehicle_type_id":"4","last_reported":1757751092,"current_range_meters":20400,"station_id":"ce4bhp92rcd13ifvqhag","pricing_plan_id":"cebpf4jnsgd1na2vs0mg"},{"bike_id":"68fd2e8b-6ee9-47c8-81b0-0ce9190973e1","system_id":"levelo_inurba_marseille","lat":43.288422,"lon":5.393111,"is_reserved":false,"is_disabled":false,"rental_uris":{"android":"levelo://app?vid=68fd2e8b-6ee9-47c8-81b0-0ce9190973e1","ios":"levelo://app?vid=68fd2e8b-6ee9-47c8-81b0-0ce9190973e1"},"vehicle_type_id":"4","last_reported":1757751092,"current_range_meters":20800,"station_id":"ce4bh2p2rcd13ifvqdi0","pricing_plan_id":"cebpf4jnsgd1na2vs0mg"},{"bike_id":"c0742954-5191-4b3f-b8d1-08ba0100ad56","system_id":"levelo_inurba_marseille","lat":43.29249,"lon":5.40908,"is_reserved":false,"is_disabled":false,"rental_uris":{"android":"levelo://app?vid=c0742954-5191-4b3f-b8d1-08ba0100ad56","ios":"levelo://app?vid=c0742954-5191-4b3f-b8d1-08ba0100ad56"},"vehicle_type_id":"4","last_reported":1757751092,"current_range_meters":20400,"station_id":"ce4bh192rcd13ifvqdc0","pricing_plan_id":"cebpf4jnsgd1na2vs0mg"},{"bike_id":"3283b7c7-ca97-44fb-913e-ab5791ec7c6a","system_id":"levelo_inurba_marseille","lat":43.30364,"lon":5.42474,"is_reserved":false,"is_disabled":false,"rental_uris":{"android":"levelo://app?vid=3283b7c7-ca97-44fb-913e-ab5791ec7c6a","ios":"levelo://app?vid=3283b7c7-ca97-44fb-913e-ab5791ec7c6a"},"vehicle_type_id":"4","last_reported":1757751092,"current_range_meters":20800,"station_id":"ce4bhoh2rcd13ifvqh6g","pricing_plan_id":"cebpf4jnsgd1na2vs0mg"},{"bike_id":"19bb9ad9-ce5f-4ce5-8233-51f18b2bd485","system_id":"levelo_inurba_marseille","lat":43.29032,"lon":5.40003,"is_reserved":false,"is_disabled":false,"rental_uris":{"android":"levelo://app?vid=19bb9ad9-ce5f-4ce5-8233-51f18b2bd485","ios":"levelo://app?vid=19bb9ad9-ce5f-4ce5-8233-51f18b2bd485"},"vehicle_type_id":"4","last_reported":1757751092,"current_range_meters":20800,"station_id":"ce4bh392rcd13ifvqdm0","pricing_plan_id":"cebpf4jnsgd1na2vs0mg"},{"bike_id":"d5e6e4ba-5406-4b6a-be46-9880a485f04d","system_id":"levelo_inurba_marseille","lat":43.27057,"lon":5.40277,"is_reserved":false,"is_disabled":false,"rental_uris":{"android":"levelo://app?vid=d5e6e4ba-5406-4b6a-be46-9880a485f04d","ios":"levelo://app?vid=d5e6e4ba-5406-4b6a-be46-9880a485f04d"},"vehicle_type_id":"4","last_reported":1757751092,"current_range_meters":20800,"station_id":"ce4bhk92rcd13ifvqgc0","pricing_plan_id":"cebpf4jnsgd1na2vs0mg"},