{"last_updated":1701932805,"ttl":30,"version":"2.2","data":{"bikes":[{"bike_id":"1003807e-fea0-4095-9d0a-82664c3965ef","system_id":"levelo_inurba_marseille","lat":43.313391,"lon":5.36706,"is_reserved":false,"is_disabled":false,"rental_uris":{"android":"levelo://app?vid=1003807e-fea0-4095-9d0a-82664c3965ef","ios":"levelo://app?vid=1003807e-fea0-4095-9d0a-82664c3965ef"},"vehicle_type_id":"4","last_reported":1701932805,"current_range_meters":30800,"station_id":"ce4bgr92rcd13ifvqc6g","pricing_plan_id":"free"},{"bike_id":"ac102987-423d-488e-8967-2e21d757773d","system_id":"levelo_inurba_marseille","lat":43.31341,"lon":5.367098,"is_reserved":false,"is_disabled":false,"rental_uris":{"android":"levelo://app?vid=ac102987-423d-488e-8967-2e21d757773d","ios":"levelo://app?vid=ac102987-423d-488e-8967-2e21d757773d"},"vehicle_type_id":"4","last_reported":1701932805,"current_range_meters":0,"station_id":"ce4bgr92rcd13ifvqc6g","pricing_plan_id":"free"},{"bike_id":"8bb1cf9a-2a7d-44ad-96d1-4abef2cefa22","system_id":"levelo_inurba_marseille","lat":43.309076,"lon":5.368465,"is_reserved":false,"is_disabled":false,"rental_uris":{"android":"levelo://app?vid=8bb1cf9a-2a7d-44ad-96d1-4abef2cefa22","ios":"levelo://app?vid=8bb1cf9a-2a7d-44ad-96d1-4abef2cefa22"},"vehicle_type_id":"4","last_reported":1701932805,"current_range_meters":31600,"station_id":"ce4bgn92rcd13ifvqbvg","pricing_plan_id":"free"},{"bike_id":"5c49b4d1-b8e6-4763-8fb1-b3f8819fa983","system_id":"levelo_inurba_marseille","lat":43.309076,"lon":5.368465,"is_reserved":false,"is_disabled":false,"rental_uris":{"android":"levelo://app?vid=5c49b4d1-b8e6-4763-8fb1-b3f8819fa983","ios":"levelo://app?vid=5c49b4d1-b8e6-4763-8fb1-b3f8819fa983"},"vehicle_type_id":"4","last_reported":1701932805,"current_range_meters":25600,"station_id":"ce4bgn92rcd13ifvqbvg","pricing_plan_id":"free"},{"bike_id":"9635cede-26cd-4f4e-8cd2-13220ef3820c","system_id":"levelo_inurba_marseille","lat":43.309076,"lon":5.368465,"is_reserved":false,"is_disabled":false,"rental_uris":{"android":"levelo://app?vid=9635cede-26cd-4f4e-8cd2-13220ef3820c","ios":"levelo://app?vid=9635cede-26cd-4f4e-8cd2-13220ef3820c"},"vehicle_type_id":"4","last_reported":1701932805,"current_range_meters":24800,"station_id":"ce4bgn92rcd13ifvqbvg","pricing_plan_id":"free"},{"bike_id":"a5e74075-f518-4d0d-b662-356c7cdece66","system_id":"levelo_inurba_marseille","lat":43.309076,"lon":5.368465,"is_reserved":false,"is_disabled":false,"rental_uris":{"android":"levelo://app?vid=a5e74075-f518-4d0d-b662-356c7cdece66","ios":"levelo://app?vid=a5e74075-f518-4d0d-b662-356c7cdece66"},"vehicle_type_id":"4","last_reported":1701932805,"current_range_meters":31200,"station_id":"ce4bgn92rcd13ifvqbvg","pricing_plan_id":"free"},{"bike_id":"a7925edc-ad9a-488b-b971-1364fb7a2ffd","system_id":"levelo_inurba_marseille","lat":43.309076,"lon":5.368465,"is_reserved":false,"is_disabled":false,"rental_uris":{"android":"levelo://app?vid=a7925edc-ad9a-488b-b971-1364fb7a2ffd","ios":"levelo://app?vid=a7925edc-ad9a-488b-b971-1364fb7a2ffd"},"vehicle_type_id":"4","last_reported":1701932805,"current_range_meters":31200,"station_id":"ce4bgn92rcd13ifvqbvg","pricing_plan_id":"free"},{"bike_id":"e94c3050-0364-4bb9-8d86-cc49c5e2ab27","system_id":"levelo_inurba_marseille","lat":43.309076,"lon":5.368465,"is_reserved":false,"is_disabled":false,"rental_uris":{"android":"levelo://app?vid=e94c3050-0364-4bb9-8d86-cc49c5e2ab27","ios":"levelo://app?vid=e94c3050-0364-4bb9-8d86-cc49c5e2ab27"},"vehicle_type_id":"4","last_reported":1701932805,"current_range_meters":31200,"station_id":"ce4bgn92rcd13ifvqbvg","pricing_plan_id":"free"},{"bike_id":"a50ea77e-6623-4c6f-87f6-a0c366886c29","system_id":"levelo_inurba_marseille","lat":43.309076,"lon":5.368465,"is_reserved":false,"is_disabled":false,"rental_uris":{"android":"levelo://app?vid=a50ea77e-6623-4c6f-87f6-a0c366886c29","ios":"levelo://app?vid=a50ea77e-6623-4c6f-87f6-a0c366886c29"},"vehicle_type_id":"4","last_reported":1701932805,"current_range_meters":30400,"station_id":"ce4bgn92rcd13ifvqbvg","pricing_plan_id":"free"},{"bike_id":"7a8d74e0-e0ae-44ab-ace5-ad49dd19fd64","system_id":"levelo_inurba_marseille","lat":43.314811,"lon":5.373103,"is_reserved":false,"is_disabled":false,"rental_uris":{"android":"levelo://app?vid=7a8d74e0-e0ae-44ab-ace5-ad49dd19fd64","ios":"levelo://app?vid=7a8d74e0-e0ae-44ab-ace5-ad49dd19fd64"},"vehicle_type_id":"4","last_reported":1701932805,"current_range_meters":17200,"station_id":"ce4bgt12rcd13ifvqcd0","pricing_plan_id":"free"},{"bike_id":"fb0f7985-aae6-4b78-beb0-17b1922aa621","system_id":"levelo_inurba_marseille","lat":43.314811,"lon":5.373103,"is_reserved":false,"is_disabled":false,"rental_uris":{"android":"levelo://app?vid=fb0f7985-aae6-4b78-beb0-17b1922aa621","ios":"levelo://app?vid=fb0f7985-aae6-4b78-beb0-17b1922aa621"},"vehicle_type_id":"4","last_reported":1701932805,"current_range_meters":25600,"station_id":"ce4bgt12rcd13ifvqcd0","pricing_plan_id":"free"},{"bike_id":"8b936aaa-7840-410a-abf8-6a60d0ae57aa","system_id":"levelo_inurba_marseille","lat":43.314811,"lon":5.373103,"is_reserved":false,"is_disabled":false,"rental_uris":{"android":"levelo://app?vid=8b936aaa-7840-410a-abf8-6a60d0ae57aa","ios":"levelo://app?vid=8b936aaa-7840-410a-abf8-6a60d0ae57aa"},"vehicle_type_id":"4","last_reported":1701932805,"current_range_meters":29600,"station_id":"ce4bgt12rcd13ifvqcd0","pricing_plan_id":"free"},{"bike_id":"774c6322-d021-45e5-ac48-e055640bc8ef","system_id":"levelo_inurba_marseille","lat":43.314811,"lon":5.373103,"is_reserved":false,"is_disabled":false,"rental_uris":{"android":"levelo://app?vid=774c6322-d021-45e5-ac48-e055640bc8ef","ios":"levelo://app?vid=774c6322-d021-45e5-ac48-e055640bc8ef"},"vehicle_type_id":"4","last_reported":1701932805,"current_range_meters":29600,"station_id":"ce4bgt12rcd13ifvqcd0","pricing_plan_id":"free"},{"bike_id":"7dae9dc1-c5a5-4642-a03d-17f44199abb9","system_id":"levelo_inurba_marseille","lat":43.305627,"lon":5.367461,"is_reserved":false,"is_disabled":false,"rental_uris":{"android":"levelo://app?vid=7dae9dc1-c5a5-4642-a03d-17f44199abb9","ios":"levelo://app?vid=7dae9dc1-c5a5-4642-a03d-17f44199abb9"},"vehicle_type_id":"4","last_reported":1701932805,"current_range_meters":15600,"station_id":"ce4bgrp2rcd13ifvqc9g","pricing_plan_id":"free"},{"bike_id":"99904e98-6887-4e6a-89ff-b3d816ee0755","system_id":"levelo_inurba_marseille","lat":43.305706,"lon":5.365654,"is_reserved":false,"is_disabled":false,"rental_uris":{"android":"levelo://app?vid=99904e98-6887-4e6a-89ff-b3d816ee0755","ios":"levelo://app?vid=99904e98-6887-4e6a-89ff-b3d816ee0755"},"vehicle_type_id":"4","last_reported":1701932805,"current_range_meters":26800,"station_id":"ce4bgs12rcd13ifvqcag","pricing_plan_id":"free"},{"bike_id":"a1fd008e-bba2-4e72-9fb2-bcf3f00389e3","system_id":"levelo_inurba_marseille","lat":43.305989,"lon":5.37225,"is_reserved":false,"is_disabled":false,"rental_uris":{"android":"levelo://app?vid=a1fd008e-bba2-4e72-9fb2-bcf3f00389e3","ios":"levelo://app?vid=a1fd008e-bba2-4e72-9fb2-bcf3f00389e3"},"vehicle_type_id":"4","last_reported":1701932805,"current_range_meters":23200,"station_id":"ce4bgqh2rcd13ifvqc4g","pricing_plan_id":"free"},{"bike_id":"b010eac8-426c-4dd1-b83d-5745045b2bad","system_id":"levelo_inurba_marseille","lat":43.31099,"lon":5.37765,"is_reserved":false,"is_disabled":false,"rental_uris":{"android":"levelo://app?vid=b010eac8-426c-4dd1-b83d-5745045b2bad","ios":"levelo://app?vid=b010eac8-426c-4dd1-b83d-5745045b2bad"},"vehicle_type_id":"4","last_reported":1701932805,"current_range_meters":23200,"station_id":"","pricing_plan_id":"free"},{"bike_id":"14cd0391-dcc8-443a-a923-178e412f0b41","system_id":"levelo_inurba_marseille","lat":43.317075,"lon":5.377367,"is_reserved":false,"is_disabled":false,"rental_uris":{"android":"levelo://app?vid=14cd0391-dcc8-443a-a923-178e412f0b41","ios":"levelo://app?vid=14cd0391-dcc8-443a-a923-178e412f0b41"},"vehicle_type_id":"4","last_reported":1701932805,"current_range_meters":26000,"station_id":"ce4bgth2rcd13ifvqch0","pricing_plan_id":"free"},{"bike_id":"adf146c5-e4e1-4668-9a33-042940925130","system_id":"levelo_inurba_marseille","lat":43.31351,"lon":5.37909,"is_reserved":false,"is_disabled":false,"rental_uris":{"android":"levelo://app?vid=adf146c5-e4e1-4668-9a33-042940925130","ios":"levelo://app?vid=adf146c5-e4e1-4668-9a33-042940925130"},"vehicle_type_id":"4","last_reported":1701932805,"current_range_meters":3600,"station_id":"","pricing_plan_id":"free"},{"bike_id":"4cd07e63-10db-47e1-99c0-e5fad4539fee","system_id":"levelo_inurba_marseille","lat":43.301939,"lon":5.366286,"is_reserved":false,"is_disabled":false,"rental_uris":{"android":"levelo://app?vid=4cd07e63-10db-47e1-99c0-e5fad4539fee","ios":"levelo://app?vid=4cd07e63-10db-47e1-99c0-e5fad4539fee"},"vehicle_type_id":"4","last_reported":1701932805,"current_range_meters":27200,"station_id":"ce4bgrh2rcd13ifvqc8g","pricing_plan_id":"free"},{"bike_id":"1ea60f58-75f7-4484-b705-1156df4b02ad","system_id":"levelo_inurba_marseille","lat":43.302791,"lon":5.373442,"is_reserved":false,"is_disabled":false,"rental_uris":{"android":"levelo://app?vid=1ea60f58-75f7-4484-b705-1156df4b02ad","ios":"levelo://app?vid=1ea60f58-75f7-4484-b705-1156df4b02ad"},"vehicle_type_id":"4","last_reported":1701932805,"current_range_meters":6000,"station_id":"","pricing_plan_id":"free"},{"bike_id":"96fea6f2-e4f7-434a-8455-a23e8cff55e0","system_id":"levelo_inurba_marseille","lat":43.308049,"lon":5.381465,"is_reserved":false,"is_disabled":false,"rental_uris":{"android":"levelo://app?vid=96fea6f2-e4f7-434a-8455-a23e8cff55e0","ios":"levelo://app?vid=96fea6f2-e4f7-434a-8455-a23e8cff55e0"},"vehicle_type_id":"4","last_reported":1701932805,"current_range_meters":17600,"station_id":"ce4bgt12rcd13ifvqce0","pricing_plan_id":"free"},{"bike_id":"88bc9434-2a81-4b96-9a56-98c10b349f69","system_id":"levelo_inurba_marseille","lat":43.308006,"lon":5.381476,"is_reserved":false,"is_disabled":false,"rental_uris":{"android":"levelo://app?vid=88bc9434-2a81-4b96-9a56-98c10b349f69","ios":"levelo://app?vid=88bc9434-2a81-4b96-9a56-98c10b349f69"},"vehicle_type_id":"4","last_reported":1701932805,"current_range_meters":22000,"station_id":"ce4bgt12rcd13ifvqce0","pricing_plan_id":"free"},{"bike_id":"7038c1da-824a-4763-871e-6cdcf3be970f","system_id":"levelo_inurba_marseille","lat":43.304606,"lon":5.379026,"is_reserved":false,"is_disabled":false,"rental_uris":{"android":"levelo://app?vid=7038c1da-824a-4763-871e-6cdcf3be970f","ios":"levelo://app?vid=7038c1da-824a-4763-871e-6cdcf3be970f"},"vehicle_type_id":"4","last_reported":1701932805,"current_range_meters":3200,"station_id":"ce4bgup2rcd13ifvqcn0","pricing_plan_id":"free"},{"bike_id":"13be63d6-8a31-4840-bac9-bedd2f0d54d5","system_id":"levelo_inurba_marseille","lat":43.304652,"lon":5.379035,"is_reserved":false,"is_disabled":false,"rental_uris":{"android":"levelo://app?vid=13be63d6-8a31-4840-bac9-bedd2f0d54d5","ios":"levelo://app?vid=13be63d6-8a31-4840-bac9-bedd2f0d54d5"},"vehicle_type_id":"4","last_reported":1701932805,"current_range_meters":12400,"station_id":"","pricing_plan_id":"free"},{"bike_id":"5b99bc7c-a32d-48d0-849c-472c7f7f112b","system_id":"levelo_inurba_marseille","lat":43.304606,"lon":5.379026,"is_reserved":false,"is_disabled":false,"rental_uris":{"android":"levelo://app?vid=5b99bc7c-a32d-48d0-849c-472c7f7f112b","ios":"levelo://app?vid=5b99bc7c-a32d-48d0-849c-472c7f7f112b"},"vehicle_type_id":"4","last_reported":1701932805,"current_range_meters":23600,"station_id":"ce4bgup2rcd13ifvqcn0","pricing_plan_id":"free"},{"bike_id":"1c3409b6-3ef7-4201-9477-ace56ebe0ee1","system_id":"levelo_inurba_marseille","lat":43.30454,"lon":5.37896,"is_reserved":false,"is_disabled":false,"rental_uris":{"android":"levelo://app?vid=1c3409b6-3ef7-4201-9477-ace56ebe0ee1","ios":"levelo://app?vid=1c3409b6-3ef7-4201-9477-ace56ebe0ee1"},"vehicle_type_id":"4","last_reported":1701932805,"current_range_meters":0,"station_id":"ce4bgup2rcd13ifvqcn0","pricing_plan_id":"free"},{"bike_id":"d2468053-d832-4f61-962c-9ba2fd300339","system_id":"levelo_inurba_marseille","lat":43.304606,"lon":5.379026,"is_reserved":false,"is_disabled":false,"rental_uris":{"android":"levelo://app?vid=d2468053-d832-4f61-962c-9ba2fd300339","ios":"levelo://app?vid=d2468053-d832-4f61-962c-9ba2fd300339"},"vehicle_type_id":"4","last_reported":1701932805,"current_range_meters":19600,"station_id":"ce4bgup2rcd13ifvqcn0","pricing_plan_id":"free"},{"bike_id":"eb3ba6f0-eedf-4465-9936-8b461da8a39f","system_id":"levelo_inurba_marseille","lat":43.304606,"lon":5.379026,"is_reserved":false,"is_disabled":false,"rental_uris":{"android":"levelo://app?vid=eb3ba6f0-eedf-4465-9936-8b461da8a39f","ios":"levelo://app?vid=eb3ba6f0-eedf-4465-9936-8b461da8a39f"},"vehicle_type_id":"4","last_reported":1701932805,"current_range_meters":31600,"station_id":"ce4bgup2rcd13ifvqcn0","pricing_plan_id":"free"},{"bike_id":"869cc380-7af1-4035-869d-ad2afc9490bb","system_id":"levelo_inurba_marseille","lat":43.304539,"lon":5.379082,"is_reserved":false,"is_disabled":false,"rental_uris":{"android":"levelo://app?vid=869cc380-7af1-4035-869d-ad2afc9490bb","ios":"levelo://app?vid=869cc380-7af1-4035-869d-ad2afc9490bb"},"vehicle_type_id":"4","last_reported":1701932805,"current_range_meters":8400,"station_id":"ce4bgup2rcd13ifvqcn0","pricing_plan_id":"free"},{"bike_id":"e6a7946c-a7d5-4369-b254-577b631c8d1a","system_id":"levelo_inurba_marseille","lat":43.31717,"lon":5.38237,"is_reserved":false,"is_disabled":false,"rental_uris":{"android":"levelo://app?vid=e6a7946c-a7d5-4369-b254-577b631c8d1a","ios":"levelo://app?vid=e6a7946c-a7d5-4369-b254-577b631c8d1a"},"vehicle_type_id":"4","last_reported":1701932805,"current_range_meters":26000,"station_id":"","pricing_plan_id":"free"},{"bike_id":"44b639d4-c394-49b2-9e18-6098ae373bd6","system_id":"levelo_inurba_marseille","lat":43.31932,"lon":5.3813,"is_reserved":false,"is_disabled":false,"rental_uris":{"android":"levelo://app?vid=44b639d4-c394-49b2-9e18-6098ae373bd6","ios":"levelo://app?vid=44b639d4-c394-49b2-9e18-6098ae373bd6"},"vehicle_type_id":"4","last_reported":1701932805,"current_range_meters":30400,"station_id":"","pricing_plan_id":"free"},{"bike_id":"6ddf6a72-bee1-4f39-90e0-8c6e992ea399","system_id":"levelo_inurba_marseille","lat":43.30143,"lon":5.37413,"is_reserved":false,"is_disabled":false,"rental_uris":{"android":"levelo://app?vid=6ddf6a72-bee1-4f39-90e0-8c6e992ea399","ios":"levelo://app?vid=6ddf6a72-bee1-4f39-90e0-8c6e992ea399"},"vehicle_type_id":"4","last_reported":1701932805,"current_range_meters":28000,"station_id":"ce4bgs92rcd13ifvqcc0","pricing_plan_id":"free"},{"bike_id":"c58a2089-b67f-42c5-ac7a-21fc01aff172","system_id":"levelo_inurba_marseille","lat":43.316204,"lon":5.383356,"is_reserved":false,"is_disabled":false,"rental_uris":{"android":"levelo://app?vid=c58a2089-b67f-42c5-ac7a-21fc01aff172","ios":"levelo://app?vid=c58a2089-b67f-42c5-ac7a-21fc01aff172"},"vehicle_type_id":"4","last_reported":1701932805,"current_range_meters":4000,"station_id":"","pricing_plan_id":"free"},{"bike_id":"f45c67b3-3d69-4943-86fc-0b0a49e9b94e","system_id":"levelo_inurba_marseille","lat":43.30143,"lon":5.37413,"is_reserved":false,"is_disabled":false,"rental_uris":{"android":"levelo://app?vid=f45c67b3-3d69-4943-86fc-0b0a49e9b94e","ios":"levelo://app?vid=f45c67b3-3d69-4943-86fc-0b0a49e9b94e"},"vehicle_type_id":"4","last_reported":1701932805,"current_range_meters":12800,"station_id":"ce4bgs92rcd13ifvqcc0","pricing_plan_id":"free"},{"bike_id":"72937422-82b4-4f5a-84cf-8ca2fa6f77e0","system_id":"levelo_inurba_marseille","lat":43.30143,"lon":5.37413,"is_reserved":false,"is_disabled":false,"rental_uris":{"android":"levelo://app?vid=72937422-82b4-4f5a-84cf-8ca2fa6f77e0","ios":"levelo://app?vid=72937422-82b4-4f5a-84cf-8ca2fa6f77e0"},"vehicle_type_id":"4","last_reported":1701932805,"current_range_meters":20400,"station_id":"ce4bgs92rcd13ifvqcc0","pricing_plan_id":"free"},{"bike_id":"da79ea64-ceb1-4756-83da-1e00a21f075b","system_id":"levelo_inurba_marseille","lat":43.30143,"lon":5.37413,"is_reserved":false,"is_disabled":false,"rental_uris":{"android":"levelo://app?vid=da79ea64-ceb1-4756-83da-1e00a21f075b","ios":"levelo://app?vid=da79ea64-ceb1-4756-83da-1e00a21f075b"},"vehicle_type_id":"4","last_reported":1701932805,"current_range_meters":22800,"station_id":"ce4bgs92rcd13ifvqcc0","pricing_plan_id":"free"},{"bike_id":"81f1b603-e25f-4802-9b4e-1719f36cec2b","system_id":"levelo_inurba_marseille","lat":43.301429,"lon":5.37413,"is_reserved":false,"is_disabled":false,"rental_uris":{"android":"levelo://app?vid=81f1b603-e25f-4802-9b4e-1719f36cec2b","ios":"levelo://app?vid=81f1b603-e25f-4802-9b4e-1719f36cec2b"},"vehicle_type_id":"4","last_reported":1701932805,"current_range_meters":22800,"station_id":"ce4bgs92rcd13ifvqcc0","pricing_plan_id":"free"},{"bike_id":"0afbfb5c-336f-48af-9db7-72b1a5c0c0ff","system_id":"levelo_inurba_marseille","lat":43.301429,"lon":5.37413,"is_reserved":false,"is_disabled":false,"rental_uris":{"android":"levelo://app?vid=0afbfb5c-336f-48af-9db7-72b1a5c0c0ff","ios":"levelo://app?vid=0afbfb5c-336f-48af-9db7-72b1a5c0c0ff"},"vehicle_type_id":"4","last_reported":1701932805,"current_range_meters":29200,"station_id":"ce4bgs92rcd13ifvqcc0","pricing_plan_id":"free"},{"bike_id":"f4972286-e26c-4c59-a011-06950b53dae7","system_id":"levelo_inurba_marseille","lat":43.301429,"lon":5.37413,"is_reserved":false,"is_disabled":false,"rental_uris":{"android":"levelo://app?vid=f4972286-e26c-4c59-a011-06950b53dae7","ios":"levelo://app?vid=f4972286-e26c-4c59-a011-06950b53dae7"},"vehicle_type_id":"4","last_reported":1701932805,"current_range_meters":5200,"station_id":"ce4bgs92rcd13ifvqcc0","pricing_plan_id":"free"},{"bike_id":"9ee0ef7a-8d9c-4d78-8ae5-64e12b708d26","system_id":"levelo_inurba_marseille","lat":43.319997,"lon":5.381594,"is_reserved":false,"is_disabled":false,"rental_uris":{"android":"levelo://app?vid=9ee0ef7a-8d9c-4d78-8ae5-64e12b708d26","ios":"levelo://app?vid=9ee0ef7a-8d9c-4d78-8ae5-64e12b708d26"},"vehicle_type_id":"4","last_reported":1701932805,"current_range_meters":0,"station_id":"ce4bhr12rcd13ifvqhpg","pricing_plan_id":"free"},{"bike_id":"fb2eb3c0-4838-4d21-bafb-6e07f4581ec9","system_id":"levelo_inurba_marseille","lat":43.313571,"lon":5.384829,"is_reserved":false,"is_disabled":false,"rental_uris":{"android":"levelo://app?vid=fb2eb3c0-4838-4d21-bafb-6e07f4581ec9","ios":"levelo://app?vid=fb2eb3c0-4838-4d21-bafb-6e07f4581ec9"},"vehicle_type_id":"4","last_reported":1701932805,"current_range_meters":0,"station_id":"ce4bgt92rcd13ifvqcf0","pricing_plan_id":"free"},{"bike_id":"b66e05b6-9c8e-473f-b7e6-31430896511e","system_id":"levelo_inurba_marseille","lat":43.298433,"lon":5.362774,"is_reserved":false,"is_disabled":false,"rental_uris":{"android":"levelo://app?vid=b66e05b6-9c8e-473f-b7e6-31430896511e","ios":"levelo://app?vid=b66e05b6-9c8e-473f-b7e6-31430896511e"},"vehicle_type_id":"4","last_reported":1701932805,"current_range_meters":30000,"station_id":"ce4bgpp2rcd13ifvqc3g","pricing_plan_id":"free"},{"bike_id":"04134eb8-8839-4438-b85a-5f4bcddd7b88","system_id":"levelo_inurba_marseille","lat":43.305989,"lon":5.37225,"is_reserved":false,"is_disabled":false,"rental_uris":{"android":"levelo://app?vid=04134eb8-8839-4438-b85a-5f4bcddd7b88","ios":"levelo://app?vid=04134eb8-8839-4438-b85a-5f4bcddd7b88"},"vehicle_type_id":"4","last_reported":1701932805,"current_range_meters":27200,"station_id":"ce4bgqh2rcd13ifvqc4g","pricing_plan_id":"free"},{"bike_id":"55ccc96c-fa12-43da-ace3-cf5d15fb5429","system_id":"levelo_inurba_marseille","lat":43.298218,"lon":5.374416,"is_reserved":false,"is_disabled":false,"rental_uris":{"android":"levelo://app?vid=55ccc96c-fa12-43da-ace3-cf5d15fb5429","ios":"levelo://app?vid=55ccc96c-fa12-43da-ace3-cf5d15fb5429"},"vehicle_type_id":"4","last_reported":1701932805,"current_range_meters":10800,"station_id":"","pricing_plan_id":"free"},{"bike_id":"9190eb99-d6ca-4501-a2a4-7ed7fc8df97e","system_id":"levelo_inurba_marseille","lat":43.328371,"lon":5.366909,"is_reserved":false,"is_disabled":false,"rental_uris":{"android":"levelo://app?vid=9190eb99-d6ca-4501-a2a4-7ed7fc8df97e","ios":"levelo://app?vid=9190eb99-d6ca-4501-a2a4-7ed7fc8df97e"},"vehicle_type_id":"4","last_reported":1701932805,"current_range_meters":20000,"station_id":"ce4bhs92rcd13ifvqi0g","pricing_plan_id":"free"},{"bike_id":"55311dec-ec61-4646-8d1a-4ddd89532043","system_id":"levelo_inurba_marseille","lat":43.328371,"lon":5.366909,"is_reserved":false,"is_disabled":false,"rental_uris":{"android":"levelo://app?vid=55311dec-ec61-4646-8d1a-4ddd89532043","ios":"levelo://app?vid=55311dec-ec61-4646-8d1a-4ddd89532043"},"vehicle_type_id":"4","last_reported":1701932805,"current_range_meters":24800,"station_id":"ce4bhs92rcd13ifvqi0g","pricing_plan_id":"free"},{"bike_id":"bf7465b9-9391-45a1-b923-fa08af301f36","system_id":"levelo_inurba_marseille","lat":43.297163,"lon":5.365866,"is_reserved":false,"is_disabled":false,"rental_uris":{"android":"levelo://app?vid=bf7465b9-9391-45a1-b923-fa08af301f36","ios":"levelo://app?vid=bf7465b9-9391-45a1-b923-fa08af301f36"},"vehicle_type_id":"4","last_reported":1701932805,"current_range_meters":22800,"station_id":"ce4bgn12rcd13ifvqbt0","pricing_plan_id":"free"},{"bike_id":"c9e8c329-feb8-473c-a9d8-45480099d849","system_id":"levelo_inurba_marseille","lat":43.328371,"lon":5.366909,"is_reserved":false,"is_disabled":false,"rental_uris":{"android":"levelo://app?vid=c9e8c329-feb8-473c-a9d8-45480099d849","ios":"levelo://app?vid=c9e8c329-feb8-473c-a9d8-45480099d849"},"vehicle_type_id":"4","last_reported":1701932805,"current_range_meters":0,"station_id":"ce4bhs92rcd13ifvqi0g","pricing_plan_id":"free"},{"bike_id":"2424b203-2bfa-46d0-8b7b-b616d11edac6","system_id":"levelo_inurba_marseille","lat":43.328446,"lon":5.36238,"is_reserved":false,"is_disabled":false,"rental_uris":{"android":"levelo://app?vid=2424b203-2bfa-46d0-8b7b-b616d11edac6","ios":"levelo://app?vid=2424b203-2bfa-46d0-8b7b-b616d11edac6"},"vehicle_type_id":"4","last_reported":1701932805,"current_range_meters":7600,"station_id":"","pricing_plan_id":"free"},{"bike_id":"59708d3d-dec0-46d2-b377-d664bca60d5e","system_id":"levelo_inurba_marseille","lat":43.2968,"lon":5.37291,"is_reserved":false,"is_disabled":false,"rental_uris":{"android":"levelo://app?vid=59708d3d-dec0-46d2-b377-d664bca60d5e","ios":"levelo://app?vid=59708d3d-dec0-46d2-b377-d664bca60d5e"},"vehicle_type_id":"4","last_reported":1701932805,"current_range_meters":30000,"station_id":"ce4bgk12rcd13ifvqbj0","pricing_plan_id":"free"},{"bike_id":"92dc65d6-6823-4de3-93d4-056f738f090c","system_id":"levelo_inurba_marseille","lat":43.316538,"lon":5.38954,"is_reserved":false,"is_disabled":false,"rental_uris":{"android":"levelo://app?vid=92dc65d6-6823-4de3-93d4-056f738f090c","ios":"levelo://app?vid=92dc65d6-6823-4de3-93d4-056f738f090c"},"vehicle_type_id":"4","last_reported":1701932805,"current_range_meters":6400,"station_id":"","pricing_plan_id":"free"},{"bike_id":"07186551-da8a-42fe-8168-036aa4b8b9d4","system_id":"levelo_inurba_marseille","lat":43.299028,"lon":5.381509,"is_reserved":false,"is_disabled":false,"rental_uris":{"android":"levelo://app?vid=07186551-da8a-42fe-8168-036aa4b8b9d4","ios":"levelo://app?vid=07186551-da8a-42fe-8168-036aa4b8b9d4"},"vehicle_type_id":"4","last_reported":1701932805,"current_range_meters":29200,"station_id":"ce4bgj12rcd13ifvqbc0","pricing_plan_id":"free"},{"bike_id":"09b65d96-d3fc-4e03-be86-5defe0cb2ebf","system_id":"levelo_inurba_marseille","lat":43.309589,"lon":5.390258,"is_reserved":false,"is_disabled":false,"rental_uris":{"android":"levelo://app?vid=09b65d96-d3fc-4e03-be86-5defe0cb2ebf","ios":"levelo://app?vid=09b65d96-d3fc-4e03-be86-5defe0cb2ebf"},"vehicle_type_id":"4","last_reported":1701932805,"current_range_meters":18000,"station_id":"ce4bgup2rcd13ifvqco0","pricing_plan_id":"free"},{"bike_id":"a7829151-06d1-45f9-b8ac-dfdcce467612","system_id":"levelo_inurba_marseille","lat":43.309589,"lon":5.390258,"is_reserved":false,"is_disabled":false,"rental_uris":{"android":"levelo://app?vid=a7829151-06d1-45f9-b8ac-dfdcce467612","ios":"levelo://app?vid=a7829151-06d1-45f9-b8ac-dfdcce467612"},"vehicle_type_id":"4","last_reported":1701932805,"current_range_meters":29200,"station_id":"ce4bgup2rcd13ifvqco0","pricing_plan_id":"free"},{"bike_id":"f933def7-c07d-45b0-8542-d8994d9378d8","system_id":"levelo_inurba_marseille","lat":43.317557,"lon":5.390173,"is_reserved":false,"is_disabled":false,"rental_uris":{"android":"levelo://app?vid=f933def7-c07d-45b0-8542-d8994d9378d8","ios":"levelo://app?vid=f933def7-c07d-45b0-8542-d8994d9378d8"},"vehicle_type_id":"4","last_reported":1701932805,"current_range_meters":2800,"station_id":"ce4bhqp2rcd13ifvqhng","pricing_plan_id":"free"},{"bike_id":"19ac1b5c-8a61-4016-bf0f-cea66a6501b9","system_id":"levelo_inurba_marseille","lat":43.298037,"lon":5.381066,"is_reserved":false,"is_disabled":false,"rental_uris":{"android":"levelo://app?vid=19ac1b5c-8a61-4016-bf0f-cea66a6501b9","ios":"levelo://app?vid=19ac1b5c-8a61-4016-bf0f-cea66a6501b9"},"vehicle_type_id":"4","last_reported":1701932805,"current_range_meters":22800,"station_id":"ce4bgip2rcd13ifvqbb0","pricing_plan_id":"free"},{"bike_id":"edb61f27-dc3a-41dc-ba8d-cb8f4e7533db","system_id":"levelo_inurba_marseille","lat":43.298037,"lon":5.381066,"is_reserved":false,"is_disabled":false,"rental_uris":{"android":"levelo://app?vid=edb61f27-dc3a-41dc-ba8d-cb8f4e7533db","ios":"levelo://app?vid=edb61f27-dc3a-41dc-ba8d-cb8f4e7533db"},"vehicle_type_id":"4","last_reported":1701932805,"current_range_meters":10400,"station_id":"ce4bgip2rcd13ifvqbb0","pricing_plan_id":"free"},{"bike_id":"4b02f333-db69-4109-9111-6cf7de9050f9","system_id":"levelo_inurba_marseille","lat":43.29605,"lon":5.37708,"is_reserved":false,"is_disabled":false,"rental_uris":{"android":"levelo://app?vid=4b02f333-db69-4109-9111-6cf7de9050f9","ios":"levelo://app?vid=4b02f333-db69-4109-9111-6cf7de9050f9"},"vehicle_type_id":"4","last_reported":1701932805,"current_range_meters":30800,"station_id":"ce4bgi92rcd13ifvqb90","pricing_plan_id":"free"},{"bike_id":"14bb4e0e-db49-4284-963e-30c105e10dbf","system_id":"levelo_inurba_marseille","lat":43.29737,"lon":5.381135,"is_reserved":false,"is_disabled":false,"rental_uris":{"android":"levelo://app?vid=14bb4e0e-db49-4284-963e-30c105e10dbf","ios":"levelo://app?vid=14bb4e0e-db49-4284-963e-30c105e10dbf"},"vehicle_type_id":"4","last_reported":1701932805,"current_range_meters":1600,"station_id":"","pricing_plan_id":"free"},{"bike_id":"1cc17343-b5de-4b16-966d-05f8473003fb","system_id":"levelo_inurba_marseille","lat":43.32367,"lon":5.388836,"is_reserved":false,"is_disabled":false,"rental_uris":{"android":"levelo://app?vid=1cc17343-b5de-4b16-966d-05f8473003fb","ios":"levelo://app?vid=1cc17343-b5de-4b16-966d-05f8473003fb"},"vehicle_type_id":"4","last_reported":1701932805,"current_range_meters":7600,"station_id":"ce4bhqp2rcd13ifvqhog","pricing_plan_id":"free"},{"bike_id":"92e194fd-3977-4210-9e0b-0607ab3c1fba","system_id":"levelo_inurba_marseille","lat":43.29601,"lon":5.381084,"is_reserved":false,"is_disabled":false,"rental_uris":{"android":"levelo://app?vid=92e194fd-3977-4210-9e0b-0607ab3c1fba","ios":"levelo://app?vid=92e194fd-3977-4210-9e0b-0607ab3c1fba"},"vehicle_type_id":"4","last_reported":1701932805,"current_range_meters":22800,"station_id":"ce4bgl12rcd13ifvqbo0","pricing_plan_id":"free"},{"bike_id":"d513d67d-977f-4dd1-b1ec-578b31dcd612","system_id":"levelo_inurba_marseille","lat":43.292749,"lon":5.368402,"is_reserved":false,"is_disabled":false,"rental_uris":{"android":"levelo://app?vid=d513d67d-977f-4dd1-b1ec-578b31dcd612","ios":"levelo://app?vid=d513d67d-977f-4dd1-b1ec-578b31dcd612"},"vehicle_type_id":"4","last_reported":1701932805,"current_range_meters":5200,"station_id":"ce4bhbp2rcd13ifvqesg","pricing_plan_id":"free"},{"bike_id":"cd6b1a84-ea53-4fa2-9b2d-efd95d9bb6d4","system_id":"levelo_inurba_marseille","lat":43.292749,"lon":5.368402,"is_reserved":false,"is_disabled":false,"rental_uris":{"android":"levelo://app?vid=cd6b1a84-ea53-4fa2-9b2d-efd95d9bb6d4","ios":"levelo://app?vid=cd6b1a84-ea53-4fa2-9b2d-efd95d9bb6d4"},"vehicle_type_id":"4","last_reported":1701932805,"current_range_meters":4400,"station_id":"ce4bhbp2rcd13ifvqesg","pricing_plan_id":"free"},{"bike_id":"72714644-a730-462a-b220-6837667c5de6","system_id":"levelo_inurba_marseille","lat":43.31822,"lon":5.39409,"is_reserved":false,"is_disabled":false,"rental_uris":{"android":"levelo://app?vid=72714644-a730-462a-b220-6837667c5de6","ios":"levelo://app?vid=72714644-a730-462a-b220-6837667c5de6"},"vehicle_type_id":"4","last_reported":1701932805,"current_range_meters":15200,"station_id":"","pricing_plan_id":"free"},{"bike_id":"9ca6effc-8249-4077-97d5-92eec54e443c","system_id":"levelo_inurba_marseille","lat":43.305994,"lon":5.393687,"is_reserved":false,"is_disabled":false,"rental_uris":{"android":"levelo://app?vid=9ca6effc-8249-4077-97d5-92eec54e443c","ios":"levelo://app?vid=9ca6effc-8249-4077-97d5-92eec54e443c"},"vehicle_type_id":"4","last_reported":1701932805,"current_range_meters":20400,"station_id":"ce4bh0p2rcd13ifvqd80","pricing_plan_id":"free"},{"bike_id":"a1d476a7-a55b-46df-a29d-7ce5cab17469","system_id":"levelo_inurba_marseille","lat":43.2936,"lon":5.37835,"is_reserved":false,"is_disabled":false,"rental_uris":{"android":"levelo://app?vid=a1d476a7-a55b-46df-a29d-7ce5cab17469","ios":"levelo://app?vid=a1d476a7-a55b-46df-a29d-7ce5cab17469"},"vehicle_type_id":"4","last_reported":1701932805,"current_range_meters":21600,"station_id":"ce4bgjh2rcd13ifvqbf0","pricing_plan_id":"free"},{"bike_id":"a8612d1b-6e8f-4db7-b2d7-ce13a82daa6c","system_id":"levelo_inurba_marseille","lat":43.2936,"lon":5.37835,"is_reserved":false,"is_disabled":false,"rental_uris":{"android":"levelo://app?vid=a8612d1b-6e8f-4db7-b2d7-ce13a82daa6c","ios":"levelo://app?vid=a8612d1b-6e8f-4db7-b2d7-ce13a82daa6c"},"vehicle_type_id":"4","last_reported":1701932805,"current_range_meters":27600,"station_id":"ce4bgjh2rcd13ifvqbf0","pricing_plan_id":"free"},{"bike_id":"ede6fe5b-63a6-43f9-8e75-3345ec91c5e6","system_id":"levelo_inurba_marseille","lat":43.2936,"lon":5.37835,"is_reserved":false,"is_disabled":false,"rental_uris":{"android":"levelo://app?vid=ede6fe5b-63a6-43f9-8e75-3345ec91c5e6","ios":"levelo://app?vid=ede6fe5b-63a6-43f9-8e75-3345ec91c5e6"},"vehicle_type_id":"4","last_reported":1701932805,"current_range_meters":29200,"station_id":"ce4bgjh2rcd13ifvqbf0","pricing_plan_id":"free"},{"bike_id":"96a23088-39d9-44ac-91fc-2b30a64fc555","system_id":"levelo_inurba_marseille","lat":43.298764,"lon":5.388973,"is_reserved":false,"is_disabled":false,"rental_uris":{"android":"levelo://app?vid=96a23088-39d9-44ac-91fc-2b30a64fc555","ios":"levelo://app?vid=96a23088-39d9-44ac-91fc-2b30a64fc555"},"vehicle_type_id":"4","last_reported":1701932805,"current_range_meters":31200,"station_id":"ce4bh392rcd13ifvqdl0","pricing_plan_id":"free"},{"bike_id":"2c1986b2-b7c2-4af7-b67a-7bd61b44dc85","system_id":"levelo_inurba_marseille","lat":43.29247,"lon":5.377163,"is_reserved":false,"is_disabled":false,"rental_uris":{"android":"levelo://app?vid=2c1986b2-b7c2-4af7-b67a-7bd61b44dc85","ios":"levelo://app?vid=2c1986b2-b7c2-4af7-b67a-7bd61b44dc85"},"vehicle_type_id":"4","last_reported":1701932805,"current_range_meters":0,"station_id":"","pricing_plan_id":"free"},{"bike_id":"6c08ee3a-5174-447c-adf4-77b720e0feef","system_id":"levelo_inurba_marseille","lat":43.29529,"lon":5.385581,"is_reserved":false,"is_disabled":false,"rental_uris":{"android":"levelo://app?vid=6c08ee3a-5174-447c-adf4-77b720e0feef","ios":"levelo://app?vid=6c08ee3a-5174-447c-adf4-77b720e0feef"},"vehicle_type_id":"4","last_reported":1701932805,"current_range_meters":3600,"station_id":"ce4bgih2rcd13ifvqba0","pricing_plan_id":"free"},{"bike_id":"cc0ba309-7040-4f83-b10d-79266ebc1bb5","system_id":"levelo_inurba_marseille","lat":43.29529,"lon":5.385581,"is_reserved":false,"is_disabled":false,"rental_uris":{"android":"levelo://app?vid=cc0ba309-7040-4f83-b10d-79266ebc1bb5","ios":"levelo://app?vid=cc0ba309-7040-4f83-b10d-79266ebc1bb5"},"vehicle_type_id":"4","last_reported":1701932805,"current_range_meters":5600,"station_id":"ce4bgih2rcd13ifvqba0","pricing_plan_id":"free"},{"bike_id":"5edf3fc9-95f5-4f9a-a65d-a143f6dd5322","system_id":"levelo_inurba_marseille","lat":43.291994,"lon":5.357886,"is_reserved":false,"is_disabled":false,"rental_uris":{"android":"levelo://app?vid=5edf3fc9-95f5-4f9a-a65d-a143f6dd5322","ios":"levelo://app?vid=5edf3fc9-95f5-4f9a-a65d-a143f6dd5322"},"vehicle_type_id":"4","last_reported":1701932805,"current_range_meters":11200,"station_id":"ce4bhb12rcd13ifvqel0","pricing_plan_id":"free"},{"bike_id":"064f7106-d186-4a16-a793-ead810df8e5c","system_id":"levelo_inurba_marseille","lat":43.290327,"lon":5.375711,"is_reserved":false,"is_disabled":false,"rental_uris":{"android":"levelo://app?vid=064f7106-d186-4a16-a793-ead810df8e5c","ios":"levelo://app?vid=064f7106-d186-4a16-a793-ead810df8e5c"},"vehicle_type_id":"4","last_reported":1701932805,"current_range_meters":5600,"station_id":"ce4bh692rcd13ifvqe90","pricing_plan_id":"free"},{"bike_id":"b599414d-483c-4e66-89a3-ac94eb69df73","system_id":"levelo_inurba_marseille","lat":43.28941,"lon":5.36406,"is_reserved":false,"is_disabled":false,"rental_uris":{"android":"levelo://app?vid=b599414d-483c-4e66-89a3-ac94eb69df73","ios":"levelo://app?vid=b599414d-483c-4e66-89a3-ac94eb69df73"},"vehicle_type_id":"4","last_reported":1701932805,"current_range_meters":23600,"station_id":"ce4bhc92rcd13ifvqetg","pricing_plan_id":"free"},{"bike_id":"a02a1b20-1fb1-4951-988a-77389649024d","system_id":"levelo_inurba_marseille","lat":43.289259,"lon":5.366364,"is_reserved":false,"is_disabled":false,"rental_uris":{"android":"levelo://app?vid=a02a1b20-1fb1-4951-988a-77389649024d","ios":"levelo://app?vid=a02a1b20-1fb1-4951-988a-77389649024d"},"vehicle_type_id":"4","last_reported":1701932805,"current_range_meters":20800,"station_id":"","pricing_plan_id":"free"},{"bike_id":"bfe09fb5-b7fd-4712-9ecb-2f86b0385710","system_id":"levelo_inurba_marseille","lat":43.290995,"lon":5.381361,"is_reserved":false,"is_disabled":false,"rental_uris":{"android":"levelo://app?vid=bfe09fb5-b7fd-4712-9ecb-2f86b0385710","ios":"levelo://app?vid=bfe09fb5-b7fd-4712-9ecb-2f86b0385710"},"vehicle_type_id":"4","last_reported":1701932805,"current_range_meters":23600,"station_id":"ce4bh512rcd13ifvqe2g","pricing_plan_id":"free"},{"bike_id":"0d4a2b76-292d-4da0-80a8-f48afdd61b1b","system_id":"levelo_inurba_marseille","lat":43.289743,"lon":5.378304,"is_reserved":false,"is_disabled":false,"rental_uris":{"android":"levelo://app?vid=0d4a2b76-292d-4da0-80a8-f48afdd61b1b","ios":"levelo://app?vid=0d4a2b76-292d-4da0-80a8-f48afdd61b1b"},"vehicle_type_id":"4","last_reported":1701932805,"current_range_meters":22800,"station_id":"ce4bh9p2rcd13ifvqed0","pricing_plan_id":"free"},{"bike_id":"01a134a1-5aa7-4ee0-838f-64ab1accbed6","system_id":"levelo_inurba_marseille","lat":43.288596,"lon":5.358654,"is_reserved":false,"is_disabled":false,"rental_uris":{"android":"levelo://app?vid=01a134a1-5aa7-4ee0-838f-64ab1accbed6","ios":"levelo://app?vid=01a134a1-5aa7-4ee0-838f-64ab1accbed6"},"vehicle_type_id":"4","last_reported":1701932805,"current_range_meters":28800,"station_id":"ce4bhb12rcd13ifvqem0","pricing_plan_id":"free"},{"bike_id":"0a2e1bad-dc1f-4bf1-a280-3db21d31ebee","system_id":"levelo_inurba_marseille","lat":43.309383,"lon":5.401481,"is_reserved":false,"is_disabled":false,"rental_uris":{"android":"levelo://app?vid=0a2e1bad-dc1f-4bf1-a280-3db21d31ebee","ios":"levelo://app?vid=0a2e1bad-dc1f-4bf1-a280-3db21d31ebee"},"vehicle_type_id":"4","last_reported":1701932805,"current_range_meters":28400,"station_id":"ce4bgvp2rcd13ifvqct0","pricing_plan_id":"free"},{"bike_id":"80b1ceb3-5d95-433d-8476-db1bb80da766","system_id":"levelo_inurba_marseille","lat":43.290345,"lon":5.38646,"is_reserved":false,"is_disabled":false,"rental_uris":{"android":"levelo://app?vid=80b1ceb3-5d95-433d-8476-db1bb80da766","ios":"levelo://app?vid=80b1ceb3-5d95-433d-8476-db1bb80da766"},"vehicle_type_id":"4","last_reported":1701932805,"current_range_meters":4000,"station_id":"ce4bh4p2rcd13ifvqe0g","pricing_plan_id":"free"},{"bike_id":"e39faf4c-893a-4340-99ed-136055fb590b","system_id":"levelo_inurba_marseille","lat":43.302759,"lon":5.400793,"is_reserved":false,"is_disabled":false,"rental_uris":{"android":"levelo://app?vid=e39faf4c-893a-4340-99ed-136055fb590b","ios":"levelo://app?vid=e39faf4c-893a-4340-99ed-136055fb590b"},"vehicle_type_id":"4","last_reported":1701932805,"current_range_meters":28800,"station_id":"ce4bgvh2rcd13ifvqcs0","pricing_plan_id":"free"},{"bike_id":"92a24054-0a7c-4baa-91b4-d16d24e86aee","system_id":"levelo_inurba_marseille","lat":43.286039,"lon":5.370679,"is_reserved":false,"is_disabled":false,"rental_uris":{"android":"levelo://app?vid=92a24054-0a7c-4baa-91b4-d16d24e86aee","ios":"levelo://app?vid=92a24054-0a7c-4baa-91b4-d16d24e86aee"},"vehicle_type_id":"4","last_reported":1701932805,"current_range_meters":29200,"station_id":"ce4bht12rcd13ifvqi60","pricing_plan_id":"free"},{"bike_id":"a86cb40d-13c6-46dc-a047-607f347e5381","system_id":"levelo_inurba_marseille","lat":43.286039,"lon":5.370679,"is_reserved":false,"is_disabled":false,"rental_uris":{"android":"levelo://app?vid=a86cb40d-13c6-46dc-a047-607f347e5381","ios":"levelo://app?vid=a86cb40d-13c6-46dc-a047-607f347e5381"},"vehicle_type_id":"4","last_reported":1701932805,"current_range_meters":8400,"station_id":"ce4bht12rcd13ifvqi60","pricing_plan_id":"free"},{"bike_id":"17fc7531-c4fe-4a9e-b6ae-f07f92bf9180","system_id":"levelo_inurba_marseille","lat":43.287185,"lon":5.379373,"is_reserved":false,"is_disabled":false,"rental_uris":{"android":"levelo://app?vid=17fc7531-c4fe-4a9e-b6ae-f07f92bf9180","ios":"levelo://app?vid=17fc7531-c4fe-4a9e-b6ae-f07f92bf9180"},"vehicle_type_id":"4","last_reported":1701932805,"current_range_meters":23600,"station_id":"ce4bh9p2rcd13ifvqec0","pricing_plan_id":"free"},{"bike_id":"c27e06ef-e923-4d80-82dc-b26a00b595d6","system_id":"levelo_inurba_marseille","lat":43.287185,"lon":5.379373,"is_reserved":false,"is_disabled":false,"rental_uris":{"android":"levelo://app?vid=c27e06ef-e923-4d80-82dc-b26a00b595d6","ios":"levelo://app?vid=c27e06ef-e923-4d80-82dc-b26a00b595d6"},"vehicle_type_id":"4","last_reported":1701932805,"current_range_meters":21600,"station_id":"ce4bh9p2rcd13ifvqec0","pricing_plan_id":"free"},{"bike_id":"5a89d607-8475-4062-bf85-c1ceaa2b661b","system_id":"levelo_inurba_marseille","lat":43.287184,"lon":5.37937,"is_reserved":false,"is_disabled":false,"rental_uris":{"android":"levelo://app?vid=5a89d607-8475-4062-bf85-c1ceaa2b661b","ios":"levelo://app?vid=5a89d607-8475-4062-bf85-c1ceaa2b661b"},"vehicle_type_id":"4","last_reported":1701932805,"current_range_meters":24000,"station_id":"ce4bh9p2rcd13ifvqec0","pricing_plan_id":"free"},{"bike_id":"182b3b34-9009-4467-8323-d01cee649e5c","system_id":"levelo_inurba_marseille","lat":43.31645,"lon":5.4043,"is_reserved":false,"is_disabled":false,"rental_uris":{"android":"levelo://app?vid=182b3b34-9009-4467-8323-d01cee649e5c","ios":"levelo://app?vid=182b3b34-9009-4467-8323-d01cee649e5c"},"vehicle_type_id":"4","last_reported":1701932805,"current_range_meters":18400,"station_id":"ce4bh012rcd13ifvqd00","pricing_plan_id":"free"},{"bike_id":"469b992c-6630-42b5-b8f5-f398c3409905","system_id":"levelo_inurba_marseille","lat":43.291994,"lon":5.392907,"is_reserved":false,"is_disabled":false,"rental_uris":{"android":"levelo://app?vid=469b992c-6630-42b5-b8f5-f398c3409905","ios":"levelo://app?vid=469b992c-6630-42b5-b8f5-f398c3409905"},"vehicle_type_id":"4","last_reported":1701932805,"current_range_meters":24000,"station_id":"ce4bh192rcd13ifvqdd0","pricing_plan_id":"free"},{"bike_id":"66b1a3de-80f6-4076-bf4b-48ac0240c26d","system_id":"levelo_inurba_marseille","lat":43.29191,"lon":5.39422,"is_reserved":false,"is_disabled":false,"rental_uris":{"android":"levelo://app?vid=66b1a3de-80f6-4076-bf4b-48ac0240c26d","ios":"levelo://app?vid=66b1a3de-80f6-4076-bf4b-48ac0240c26d"},"vehicle_type_id":"4","last_reported":1701932805,"current_range_meters":18000,"station_id":"","pricing_plan_id":"free"},{"bike_id":"ad184858-c2e7-4ace-9b30-f7ba21c3221e","system_id":"levelo_inurba_marseille","lat":43.28624,"lon":5.35102,"is_reserved":false,"is_disabled":false,"rental_uris":{"android":"levelo://app?vid=ad184858-c2e7-4ace-9b30-f7ba21c3221e","ios":"levelo://app?vid=ad184858-c2e7-4ace-9b30-f7ba21c3221e"},"vehicle_type_id":"4","last_reported":1701932805,"current_range_meters":28000,"station_id":"ce4bhch2rcd13ifvqeug","pricing_plan_id":"free"},{"bike_id":"1bdfa5e1-2933-4603-9ec6-ee838e380cb8","system_id":"levelo_inurba_marseille","lat":43.28619,"lon":5.351,"is_reserved":false,"is_disabled":false,"rental_uris":{"android":"levelo://app?vid=1bdfa5e1-2933-4603-9ec6-ee838e380cb8","ios":"levelo://app?vid=1bdfa5e1-2933-4603-9ec6-ee838e380cb8"},"vehicle_type_id":"4","last_reported":1701932805,"current_range_meters":27200,"station_id":"ce4bhch2rcd13ifvqeug","pricing_plan_id":"free"},{"bike_id":"5807cbb2-704a-4325-ab63-2ae22087c7b9","system_id":"levelo_inurba_marseille","lat":43.286163,"lon":5.351054,"is_reserved":false,"is_disabled":false,"rental_uris":{"android":"levelo://app?vid=5807cbb2-704a-4325-ab63-2ae22087c7b9","ios":"levelo://app?vid=5807cbb2-704a-4325-ab63-2ae22087c7b9"},"vehicle_type_id":"4","last_reported":1701932805,"current_range_meters":26800,"station_id":"ce4bhch2rcd13ifvqeug","pricing_plan_id":"free"},{"bike_id":"54e068a2-2a07-4adf-9c11-56db2f1c3506","system_id":"levelo_inurba_marseille","lat":43.28617,"lon":5.351,"is_reserved":false,"is_disabled":false,"rental_uris":{"android":"levelo://app?vid=54e068a2-2a07-4adf-9c11-56db2f1c3506","ios":"levelo://app?vid=54e068a2-2a07-4adf-9c11-56db2f1c3506"},"vehicle_type_id":"4","last_reported":1701932805,"current_range_meters":31200,"station_id":"ce4bhch2rcd13ifvqeug","pricing_plan_id":"free"},{"bike_id":"bc2277f2-661c-42e6-afe7-748d58637e48","system_id":"levelo_inurba_marseille","lat":43.28615,"lon":5.35101,"is_reserved":false,"is_disabled":false,"rental_uris":{"android":"levelo://app?vid=bc2277f2-661c-42e6-afe7-748d58637e48","ios":"levelo://app?vid=bc2277f2-661c-42e6-afe7-748d58637e48"},"vehicle_type_id":"4","last_reported":1701932805,"current_range_meters":28800,"station_id":"ce4bhch2rcd13ifvqeug","pricing_plan_id":"free"},{"bike_id":"f2e3f41d-99e2-435c-ab41-e2e49e618a7e","system_id":"levelo_inurba_marseille","lat":43.286147,"lon":5.350964,"is_reserved":false,"is_disabled":false,"rental_uris":{"android":"levelo://app?vid=f2e3f41d-99e2-435c-ab41-e2e49e618a7e","ios":"levelo://app?vid=f2e3f41d-99e2-435c-ab41-e2e49e618a7e"},"vehicle_type_id":"4","last_reported":1701932805,"current_range_meters":31200,"station_id":"ce4bhch2rcd13ifvqeug","pricing_plan_id":"free"},{"bike_id":"0e2dabed-6da7-4a4b-8e7d-2badd16cab7e","system_id":"levelo_inurba_marseille","lat":43.285856,"lon":5.350771,"is_reserved":false,"is_disabled":false,"rental_uris":{"android":"levelo://app?vid=0e2dabed-6da7-4a4b-8e7d-2badd16cab7e","ios":"levelo://app?vid=0e2dabed-6da7-4a4b-8e7d-2badd16cab7e"},"vehicle_type_id":"4","last_reported":1701932805,"current_range_meters":24000,"station_id":"ce4bhch2rcd13ifvqeug","pricing_plan_id":"free"},{"bike_id":"7fd6dc78-2ac6-4c12-a99e-2dd8cbacb740","system_id":"levelo_inurba_marseille","lat":43.283998,"lon":5.375062,"is_reserved":false,"is_disabled":false,"rental_uris":{"android":"levelo://app?vid=7fd6dc78-2ac6-4c12-a99e-2dd8cbacb740","ios":"levelo://app?vid=7fd6dc78-2ac6-4c12-a99e-2dd8cbacb740"},"vehicle_type_id":"4","last_reported":1701932805,"current_range_meters":9600,"station_id":"ce4bh412rcd13ifvqds0","pricing_plan_id":"free"},{"bike_id":"6db55031-df47-4fb6-8b80-a9e9fa62b66a","system_id":"levelo_inurba_marseille","lat":43.337168,"lon":5.391825,"is_reserved":false,"is_disabled":false,"rental_uris":{"android":"levelo://app?vid=6db55031-df47-4fb6-8b80-a9e9fa62b66a","ios":"levelo://app?vid=6db55031-df47-4fb6-8b80-a9e9fa62b66a"},"vehicle_type_id":"4","last_reported":1701932805,"current_range_meters":25200,"station_id":"ce4bhr92rcd13ifvqhsg","pricing_plan_id":"free"},{"bike_id":"caad947b-171d-4367-9652-0bec735b5d7a","system_id":"levelo_inurba_marseille","lat":43.33717,"lon":5.391857,"is_reserved":false,"is_disabled":false,"rental_uris":{"android":"levelo://app?vid=caad947b-171d-4367-9652-0bec735b5d7a","ios":"levelo://app?vid=caad947b-171d-4367-9652-0bec735b5d7a"},"vehicle_type_id":"4","last_reported":1701932805,"current_range_meters":24400,"station_id":"ce4bhr92rcd13ifvqhsg","pricing_plan_id":"free"},{"bike_id":"e1c40c0a-4f44-4186-a1bf-ac836247c469","system_id":"levelo_inurba_marseille","lat":43.297946,"lon":5.404063,"is_reserved":false,"is_disabled":false,"rental_uris":{"android":"levelo://app?vid=e1c40c0a-4f44-4186-a1bf-ac836247c469","ios":"levelo://app?vid=e1c40c0a-4f44-4186-a1bf-ac836247c469"},"vehicle_type_id":"4","last_reported":1701932805,"current_range_meters":22800,"station_id":"ce4bh112rcd13ifvqd90","pricing_plan_id":"free"},{"bike_id":"36bcb057-d637-4054-b47f-47dfe72cd1d3","system_id":"levelo_inurba_marseille","lat":43.288501,"lon":5.393087,"is_reserved":false,"is_disabled":false,"rental_uris":{"android":"levelo://app?vid=36bcb057-d637-4054-b47f-47dfe72cd1d3","ios":"levelo://app?vid=36bcb057-d637-4054-b47f-47dfe72cd1d3"},"vehicle_type_id":"4","last_reported":1701932805,"current_range_meters":0,"station_id":"ce4bh2p2rcd13ifvqdi0","pricing_plan_id":"free"},{"bike_id":"bd2987d0-68c5-4bc9-9fff-b1f7ecef84bc","system_id":"levelo_inurba_marseille","lat":43.283494,"lon":5.380945,"is_reserved":false,"is_disabled":false,"rental_uris":{"android":"levelo://app?vid=bd2987d0-68c5-4bc9-9fff-b1f7ecef84bc","ios":"levelo://app?vid=bd2987d0-68c5-4bc9-9fff-b1f7ecef84bc"},"vehicle_type_id":"4","last_reported":1701932805,"current_range_meters":17200,"station_id":"ce4bh412rcd13ifvqdr0","pricing_plan_id":"free"},{"bike_id":"ecb3cc4a-abbc-4a98-8e94-ecded8839d91","system_id":"levelo_inurba_marseille","lat":43.283437,"lon":5.381003,"is_reserved":false,"is_disabled":false,"rental_uris":{"android":"levelo://app?vid=ecb3cc4a-abbc-4a98-8e94-ecded8839d91","ios":"levelo://app?vid=ecb3cc4a-abbc-4a98-8e94-ecded8839d91"},"vehicle_type_id":"4","last_reported":1701932805,"current_range_meters":25600,"station_id":"","pricing_plan_id":"free"},{"bike_id":"ac86ca37-eaeb-4e9c-aa8b-9ab1d03931e1","system_id":"levelo_inurba_marseille","lat":43.284219,"lon":5.3497,"is_reserved":false,"is_disabled":false,"rental_uris":{"android":"levelo://app?vid=ac86ca37-eaeb-4e9c-aa8b-9ab1d03931e1","ios":"levelo://app?vid=ac86ca37-eaeb-4e9c-aa8b-9ab1d03931e1"},"vehicle_type_id":"4","last_reported":1701932805,"current_range_meters":27600,"station_id":"ce4bhbh2rcd13ifvqepg","pricing_plan_id":"free"},{"bike_id":"d7b82d80-015d-4f0c-b86b-c79bbe468469","system_id":"levelo_inurba_marseille","lat":43.282744,"lon":5.350533,"is_reserved":false,"is_disabled":false,"rental_uris":{"android":"levelo://app?vid=d7b82d80-015d-4f0c-b86b-c79bbe468469","ios":"levelo://app?vid=d7b82d80-015d-4f0c-b86b-c79bbe468469"},"vehicle_type_id":"4","last_reported":1701932805,"current_range_meters":30400,"station_id":"ce4bhbp2rcd13ifvqerg","pricing_plan_id":"free"},{"bike_id":"e0ea0d63-1a19-4c89-b4ca-9e15175af6f0","system_id":"levelo_inurba_marseille","lat":43.283502,"lon":5.386471,"is_reserved":false,"is_disabled":false,"rental_uris":{"android":"levelo://app?vid=e0ea0d63-1a19-4c89-b4ca-9e15175af6f0","ios":"levelo://app?vid=e0ea0d63-1a19-4c89-b4ca-9e15175af6f0"},"vehicle_type_id":"4","last_reported":1701932805,"current_range_meters":18800,"station_id":"ce4bh492rcd13ifvqdvg","pricing_plan_id":"free"},{"bike_id":"675b66d2-b3ba-4c4f-bc48-cbbcbf6d9622","system_id":"levelo_inurba_marseille","lat":43.282754,"lon":5.350519,"is_reserved":false,"is_disabled":false,"rental_uris":{"android":"levelo://app?vid=675b66d2-b3ba-4c4f-bc48-cbbcbf6d9622","ios":"levelo://app?vid=675b66d2-b3ba-4c4f-bc48-cbbcbf6d9622"},"vehicle_type_id":"4","last_reported":1701932805,"current_range_meters":1600,"station_id":"ce4bhbp2rcd13ifvqerg","pricing_plan_id":"free"},{"bike_id":"f2d499b8-6e62-451e-820f-5edacdec98ee","system_id":"levelo_inurba_marseille","lat":43.316788,"lon":5.412271,"is_reserved":false,"is_disabled":false,"rental_uris":{"android":"levelo://app?vid=f2d499b8-6e62-451e-820f-5edacdec98ee","ios":"levelo://app?vid=f2d499b8-6e62-451e-820f-5edacdec98ee"},"vehicle_type_id":"4","last_reported":1701932805,"current_range_meters":15200,"station_id":"","pricing_plan_id":"free"},{"bike_id":"245b52c8-06b7-4693-be63-dd6a8b8680f8","system_id":"levelo_inurba_marseille","lat":43.308012,"lon":5.381511,"is_reserved":false,"is_disabled":false,"rental_uris":{"android":"levelo://app?vid=245b52c8-06b7-4693-be63-dd6a8b8680f8","ios":"levelo://app?vid=245b52c8-06b7-4693-be63-dd6a8b8680f8"},"vehicle_type_id":"4","last_reported":1701932805,"current_range_meters":24800,"station_id":"ce4bgt12rcd13ifvqce0","pricing_plan_id":"free"},{"bike_id":"45b71588-e5ca-4f32-b26d-73da4fb9347b","system_id":"levelo_inurba_marseille","lat":43.325233,"lon":5.414318,"is_reserved":false,"is_disabled":false,"rental_uris":{"android":"levelo://app?vid=45b71588-e5ca-4f32-b26d-73da4fb9347b","ios":"levelo://app?vid=45b71588-e5ca-4f32-b26d-73da4fb9347b"},"vehicle_type_id":"4","last_reported":1701932805,"current_range_meters":23200,"station_id":"ce4bhq12rcd13ifvqhhg","pricing_plan_id":"free"},{"bike_id":"f32150cc-8575-4fe8-97c1-11e164d807ed","system_id":"levelo_inurba_marseille","lat":43.325233,"lon":5.414318,"is_reserved":false,"is_disabled":false,"rental_uris":{"android":"levelo://app?vid=f32150cc-8575-4fe8-97c1-11e164d807ed","ios":"levelo://app?vid=f32150cc-8575-4fe8-97c1-11e164d807ed"},"vehicle_type_id":"4","last_reported":1701932805,"current_range_meters":26800,"station_id":"ce4bhq12rcd13ifvqhhg","pricing_plan_id":"free"},{"bike_id":"9627cd81-489b-45b1-8f06-cdad1494f1e2","system_id":"levelo_inurba_marseille","lat":43.28185,"lon":5.39618,"is_reserved":false,"is_disabled":false,"rental_uris":{"android":"levelo://app?vid=9627cd81-489b-45b1-8f06-cdad1494f1e2","ios":"levelo://app?vid=9627cd81-489b-45b1-8f06-cdad1494f1e2"},"vehicle_type_id":"4","last_reported":1701932805,"current_range_meters":3600,"station_id":"","pricing_plan_id":"free"},{"bike_id":"7584eaea-cabb-4224-8787-187b54f519a4","system_id":"levelo_inurba_marseille","lat":43.336134,"lon":5.410341,"is_reserved":false,"is_disabled":false,"rental_uris":{"android":"levelo://app?vid=7584eaea-cabb-4224-8787-187b54f519a4","ios":"levelo://app?vid=7584eaea-cabb-4224-8787-187b54f519a4"},"vehicle_type_id":"4","last_reported":1701932805,"current_range_meters":13200,"station_id":"ce4bhqh2rcd13ifvqhmg","pricing_plan_id":"free"},{"bike_id":"7dafde9a-a1ce-4d7a-9b03-00bb6e24aeb5","system_id":"levelo_inurba_marseille","lat":43.336148,"lon":5.410349,"is_reserved":false,"is_disabled":false,"rental_uris":{"android":"levelo://app?vid=7dafde9a-a1ce-4d7a-9b03-00bb6e24aeb5","ios":"levelo://app?vid=7dafde9a-a1ce-4d7a-9b03-00bb6e24aeb5"},"vehicle_type_id":"4","last_reported":1701932805,"current_range_meters":20400,"station_id":"ce4bhqh2rcd13ifvqhmg","pricing_plan_id":"free"},{"bike_id":"46a947f2-afe0-4501-af70-1cee6b287e29","system_id":"levelo_inurba_marseille","lat":43.275625,"lon":5.384392,"is_reserved":false,"is_disabled":false,"rental_uris":{"android":"levelo://app?vid=46a947f2-afe0-4501-af70-1cee6b287e29","ios":"levelo://app?vid=46a947f2-afe0-4501-af70-1cee6b287e29"},"vehicle_type_id":"4","last_reported":1701932805,"current_range_meters":6000,"station_id":"ce4bhh92rcd13ifvqfi0","pricing_plan_id":"free"},{"bike_id":"38f7dfdd-a917-470f-99eb-6efc57f2c5c0","system_id":"levelo_inurba_marseille","lat":43.27498,"lon":5.38967,"is_reserved":false,"is_disabled":false,"rental_uris":{"android":"levelo://app?vid=38f7dfdd-a917-470f-99eb-6efc57f2c5c0","ios":"levelo://app?vid=38f7dfdd-a917-470f-99eb-6efc57f2c5c0"},"vehicle_type_id":"4","last_reported":1701932805,"current_range_meters":18000,"station_id":"","pricing_plan_id":"free"},{"bike_id":"283b1518-47c4-4c7a-aece-e76435d9d17e","system_id":"levelo_inurba_marseille","lat":43.27622,"lon":5.39483,"is_reserved":false,"is_disabled":false,"rental_uris":{"android":"levelo://app?vid=283b1518-47c4-4c7a-aece-e76435d9d17e","ios":"levelo://app?vid=283b1518-47c4-4c7a-aece-e76435d9d17e"},"vehicle_type_id":"4","last_reported":1701932805,"current_range_meters":6000,"station_id":"","pricing_plan_id":"free"},{"bike_id":"3e0432a5-c7e1-4b04-9752-a38feef39b38","system_id":"levelo_inurba_marseille","lat":43.340804,"lon":5.410219,"is_reserved":false,"is_disabled":false,"rental_uris":{"android":"levelo://app?vid=3e0432a5-c7e1-4b04-9752-a38feef39b38","ios":"levelo://app?vid=3e0432a5-c7e1-4b04-9752-a38feef39b38"},"vehicle_type_id":"4","last_reported":1701932805,"current_range_meters":28800,"station_id":"ce4bhqh2rcd13ifvqhlg","pricing_plan_id":"free"},{"bike_id":"30356625-443d-4050-b183-09849e33c23c","system_id":"levelo_inurba_marseille","lat":43.340804,"lon":5.410219,"is_reserved":false,"is_disabled":false,"rental_uris":{"android":"levelo://app?vid=30356625-443d-4050-b183-09849e33c23c","ios":"levelo://app?vid=30356625-443d-4050-b183-09849e33c23c"},"vehicle_type_id":"4","last_reported":1701932805,"current_range_meters":28800,"station_id":"ce4bhqh2rcd13ifvqhlg","pricing_plan_id":"free"},{"bike_id":"cd8412f3-dfd9-46f4-bdc7-8ea525f14339","system_id":"levelo_inurba_marseille","lat":43.340804,"lon":5.410219,"is_reserved":false,"is_disabled":false,"rental_uris":{"android":"levelo://app?vid=cd8412f3-dfd9-46f4-bdc7-8ea525f14339","ios":"levelo://app?vid=cd8412f3-dfd9-46f4-bdc7-8ea525f14339"},"vehicle_type_id":"4","last_reported":1701932805,"current_range_meters":30400,"station_id":"ce4bhqh2rcd13ifvqhlg","pricing_plan_id":"free"},{"bike_id":"7697bdca-20d2-48ca-8482-4bd9796d7a4a","system_id":"levelo_inurba_marseille","lat":43.273125,"lon":5.390731,"is_reserved":false,"is_disabled":false,"rental_uris":{"android":"levelo://app?vid=7697bdca-20d2-48ca-8482-4bd9796d7a4a","ios":"levelo://app?vid=7697bdca-20d2-48ca-8482-4bd9796d7a4a"},"vehicle_type_id":"4","last_reported":1701932805,"current_range_meters":20400,"station_id":"ce4bhgp2rcd13ifvqfe0","pricing_plan_id":"free"},{"bike_id":"fc452a7a-a221-40ab-bc47-a38b73e93524","system_id":"levelo_inurba_marseille","lat":43.304096,"lon":5.425385,"is_reserved":false,"is_disabled":false,"rental_uris":{"android":"levelo://app?vid=fc452a7a-a221-40ab-bc47-a38b73e93524","ios":"levelo://app?vid=fc452a7a-a221-40ab-bc47-a38b73e93524"},"vehicle_type_id":"4","last_reported":1701932805,"current_range_meters":400,"station_id":"ce4bhoh2rcd13ifvqh6g","pricing_plan_id":"free"},{"bike_id":"e0756567-7870-49b5-9af8-73e51703da33","system_id":"levelo_inurba_marseille","lat":43.295523,"lon":5.422926,"is_reserved":false,"is_disabled":false,"rental_uris":{"android":"levelo://app?vid=e0756567-7870-49b5-9af8-73e51703da33","ios":"levelo://app?vid=e0756567-7870-49b5-9af8-73e51703da33"},"vehicle_type_id":"4","last_reported":1701932805,"current_range_meters":20800,"station_id":"ce4bhph2rcd13ifvqhdg","pricing_plan_id":"free"},{"bike_id":"77e2df1b-d75a-48fe-a6ad-744dfbe91f1d","system_id":"levelo_inurba_marseille","lat":43.27214,"lon":5.3925,"is_reserved":false,"is_disabled":false,"rental_uris":{"android":"levelo://app?vid=77e2df1b-d75a-48fe-a6ad-744dfbe91f1d","ios":"levelo://app?vid=77e2df1b-d75a-48fe-a6ad-744dfbe91f1d"},"vehicle_type_id":"4","last_reported":1701932805,"current_range_meters":10400,"station_id":"","pricing_plan_id":"free"},{"bike_id":"c2ad1788-482c-4de1-972a-bcee4be5739c","system_id":"levelo_inurba_marseille","lat":43.278128,"lon":5.407195,"is_reserved":false,"is_disabled":false,"rental_uris":{"android":"levelo://app?vid=c2ad1788-482c-4de1-972a-bcee4be5739c","ios":"levelo://app?vid=c2ad1788-482c-4de1-972a-bcee4be5739c"},"vehicle_type_id":"4","last_reported":1701932805,"current_range_meters":0,"station_id":"ce4bhnh2rcd13ifvqgtg","pricing_plan_id":"free"},{"bike_id":"242bd624-0ce0-4739-b821-21d97bdd99e9","system_id":"levelo_inurba_marseille","lat":43.269319,"lon":5.389397,"is_reserved":false,"is_disabled":false,"rental_uris":{"android":"levelo://app?vid=242bd624-0ce0-4739-b821-21d97bdd99e9","ios":"levelo://app?vid=242bd624-0ce0-4739-b821-21d97bdd99e9"},"vehicle_type_id":"4","last_reported":1701932805,"current_range_meters":17600,"station_id":"ce4bhhh2rcd13ifvqfl0","pricing_plan_id":"free"},{"bike_id":"de465f51-1b26-4768-bc85-43054527cc2a","system_id":"levelo_inurba_marseille","lat":43.26681,"lon":5.382694,"is_reserved":false,"is_disabled":false,"rental_uris":{"android":"levelo://app?vid=de465f51-1b26-4768-bc85-43054527cc2a","ios":"levelo://app?vid=de465f51-1b26-4768-bc85-43054527cc2a"},"vehicle_type_id":"4","last_reported":1701932805,"current_range_meters":25200,"station_id":"ce4bhg92rcd13ifvqf90","pricing_plan_id":"free"},{"bike_id":"340cd333-a54b-4ca9-97f8-3b37dd4510a4","system_id":"levelo_inurba_marseille","lat":43.26681,"lon":5.382694,"is_reserved":false,"is_disabled":false,"rental_uris":{"android":"levelo://app?vid=340cd333-a54b-4ca9-97f8-3b37dd4510a4","ios":"levelo://app?vid=340cd333-a54b-4ca9-97f8-3b37dd4510a4"},"vehicle_type_id":"4","last_reported":1701932805,"current_range_meters":30400,"station_id":"ce4bhg92rcd13ifvqf90","pricing_plan_id":"free"},{"bike_id":"17e36978-ddbd-4ff7-a89d-2f0a90d785e2","system_id":"levelo_inurba_marseille","lat":43.265714,"lon":5.372891,"is_reserved":false,"is_disabled":false,"rental_uris":{"android":"levelo://app?vid=17e36978-ddbd-4ff7-a89d-2f0a90d785e2","ios":"levelo://app?vid=17e36978-ddbd-4ff7-a89d-2f0a90d785e2"},"vehicle_type_id":"4","last_reported":1701932805,"current_range_meters":25200,"station_id":"ce4bhg12rcd13ifvqf70","pricing_plan_id":"free"},{"bike_id":"5c62f0fe-2a68-4f0e-8c5e-1c3be35b64ff","system_id":"levelo_inurba_marseille","lat":43.29285,"lon":5.428407,"is_reserved":false,"is_disabled":false,"rental_uris":{"android":"levelo://app?vid=5c62f0fe-2a68-4f0e-8c5e-1c3be35b64ff","ios":"levelo://app?vid=5c62f0fe-2a68-4f0e-8c5e-1c3be35b64ff"},"vehicle_type_id":"4","last_reported":1701932805,"current_range_meters":17200,"station_id":"","pricing_plan_id":"free"},{"bike_id":"5cee7d6f-db25-4b67-b158-bafe84b1e34b","system_id":"levelo_inurba_marseille","lat":43.267966,"lon":5.393976,"is_reserved":false,"is_disabled":false,"rental_uris":{"android":"levelo://app?vid=5cee7d6f-db25-4b67-b158-bafe84b1e34b","ios":"levelo://app?vid=5cee7d6f-db25-4b67-b158-bafe84b1e34b"},"vehicle_type_id":"4","last_reported":1701932805,"current_range_meters":28000,"station_id":"ce4bhh12rcd13ifvqfg0","pricing_plan_id":"free"},{"bike_id":"42f81118-a85b-4a29-aa2e-0fbc2d581e77","system_id":"levelo_inurba_marseille","lat":43.26188,"lon":5.37448,"is_reserved":false,"is_disabled":false,"rental_uris":{"android":"levelo://app?vid=42f81118-a85b-4a29-aa2e-0fbc2d581e77","ios":"levelo://app?vid=42f81118-a85b-4a29-aa2e-0fbc2d581e77"},"vehicle_type_id":"4","last_reported":1701932805,"current_range_meters":0,"station_id":"ce4bhgp2rcd13ifvqfc0","pricing_plan_id":"free"},{"bike_id":"f06f2dfa-c30b-44cc-b60e-97c87bab3c78","system_id":"levelo_inurba_marseille","lat":43.31709,"lon":5.43701,"is_reserved":false,"is_disabled":false,"rental_uris":{"android":"levelo://app?vid=f06f2dfa-c30b-44cc-b60e-97c87bab3c78","ios":"levelo://app?vid=f06f2dfa-c30b-44cc-b60e-97c87bab3c78"},"vehicle_type_id":"4","last_reported":1701932805,"current_range_meters":4000,"station_id":"ce4bhp92rcd13ifvqhcg","pricing_plan_id":"free"},{"bike_id":"bf58fee8-dca1-4d87-bbbb-9a3f7035f1b0","system_id":"levelo_inurba_marseille","lat":43.317104,"lon":5.436818,"is_reserved":false,"is_disabled":false,"rental_uris":{"android":"levelo://app?vid=bf58fee8-dca1-4d87-bbbb-9a3f7035f1b0","ios":"levelo://app?vid=bf58fee8-dca1-4d87-bbbb-9a3f7035f1b0"},"vehicle_type_id":"4","last_reported":1701932805,"current_range_meters":30400,"station_id":"ce4bhp92rcd13ifvqhcg","pricing_plan_id":"free"},{"bike_id":"80af4581-c051-42c9-9e6a-9a4302dcf950","system_id":"levelo_inurba_marseille","lat":43.298768,"lon":5.43643,"is_reserved":false,"is_disabled":false,"rental_uris":{"android":"levelo://app?vid=80af4581-c051-42c9-9e6a-9a4302dcf950","ios":"levelo://app?vid=80af4581-c051-42c9-9e6a-9a4302dcf950"},"vehicle_type_id":"4","last_reported":1701932805,"current_range_meters":8400,"station_id":"ce4bhpp2rcd13ifvqhfg","pricing_plan_id":"free"},{"bike_id":"c240149f-81a1-434b-9a49-eed71c478725","system_id":"levelo_inurba_marseille","lat":43.298768,"lon":5.43643,"is_reserved":false,"is_disabled":false,"rental_uris":{"android":"levelo://app?vid=c240149f-81a1-434b-9a49-eed71c478725","ios":"levelo://app?vid=c240149f-81a1-434b-9a49-eed71c478725"},"vehicle_type_id":"4","last_reported":1701932805,"current_range_meters":0,"station_id":"ce4bhpp2rcd13ifvqhfg","pricing_plan_id":"free"},{"bike_id":"15516f19-6688-4602-81b1-7032ebea46f1","system_id":"levelo_inurba_marseille","lat":43.298768,"lon":5.43643,"is_reserved":false,"is_disabled":false,"rental_uris":{"android":"levelo://app?vid=15516f19-6688-4602-81b1-7032ebea46f1","ios":"levelo://app?vid=15516f19-6688-4602-81b1-7032ebea46f1"},"vehicle_type_id":"4","last_reported":1701932805,"current_range_meters":3200,"station_id":"ce4bhpp2rcd13ifvqhfg","pricing_plan_id":"free"},{"bike_id":"4f68f183-a711-4386-a731-e8ea8e2f115e","system_id":"levelo_inurba_marseille","lat":43.298768,"lon":5.43643,"is_reserved":false,"is_disabled":false,"rental_uris":{"android":"levelo://app?vid=4f68f183-a711-4386-a731-e8ea8e2f115e","ios":"levelo://app?vid=4f68f183-a711-4386-a731-e8ea8e2f115e"},"vehicle_type_id":"4","last_reported":1701932805,"current_range_meters":26400,"station_id":"ce4bhpp2rcd13ifvqhfg","pricing_plan_id":"free"},{"bike_id":"8c066ef0-8e33-4692-81e9-53a96288cf19","system_id":"levelo_inurba_marseille","lat":43.298768,"lon":5.43643,"is_reserved":false,"is_disabled":false,"rental_uris":{"android":"levelo://app?vid=8c066ef0-8e33-4692-81e9-53a96288cf19","ios":"levelo://app?vid=8c066ef0-8e33-4692-81e9-53a96288cf19"},"vehicle_type_id":"4","last_reported":1701932805,"current_range_meters":31200,"station_id":"ce4bhpp2rcd13ifvqhfg","pricing_plan_id":"free"},{"bike_id":"43d7ad5e-7fd7-45ef-ae6a-4d0d45c72d41","system_id":"levelo_inurba_marseille","lat":43.281548,"lon":5.42643,"is_reserved":false,"is_disabled":false,"rental_uris":{"android":"levelo://app?vid=43d7ad5e-7fd7-45ef-ae6a-4d0d45c72d41","ios":"levelo://app?vid=43d7ad5e-7fd7-45ef-ae6a-4d0d45c72d41"},"vehicle_type_id":"4","last_reported":1701932805,"current_range_meters":25200,"station_id":"ce4bhnh2rcd13ifvqgug","pricing_plan_id":"free"},{"bike_id":"6e20df36-92d9-444e-b60f-21790aa68ee7","system_id":"levelo_inurba_marseille","lat":43.27498,"lon":5.42448,"is_reserved":false,"is_disabled":false,"rental_uris":{"android":"levelo://app?vid=6e20df36-92d9-444e-b60f-21790aa68ee7","ios":"levelo://app?vid=6e20df36-92d9-444e-b60f-21790aa68ee7"},"vehicle_type_id":"4","last_reported":1701932805,"current_range_meters":0,"station_id":"ce4bhn92rcd13ifvqgrg","pricing_plan_id":"free"},{"bike_id":"6f9fadbb-d4c1-4d03-887b-944a2f8751fb","system_id":"levelo_inurba_marseille","lat":43.275028,"lon":5.424534,"is_reserved":false,"is_disabled":false,"rental_uris":{"android":"levelo://app?vid=6f9fadbb-d4c1-4d03-887b-944a2f8751fb","ios":"levelo://app?vid=6f9fadbb-d4c1-4d03-887b-944a2f8751fb"},"vehicle_type_id":"4","last_reported":1701932805,"current_range_meters":0,"station_id":"ce4bhn92rcd13ifvqgrg","pricing_plan_id":"free"},{"bike_id":"2afdb14a-f123-49b4-bbb7-0628ca801b55","system_id":"levelo_inurba_marseille","lat":43.275028,"lon":5.424534,"is_reserved":false,"is_disabled":false,"rental_uris":{"android":"levelo://app?vid=2afdb14a-f123-49b4-bbb7-0628ca801b55","ios":"levelo://app?vid=2afdb14a-f123-49b4-bbb7-0628ca801b55"},"vehicle_type_id":"4","last_reported":1701932805,"current_range_meters":12800,"station_id":"ce4bhn92rcd13ifvqgrg","pricing_plan_id":"free"},{"bike_id":"326f2809-3868-42eb-a6cd-fa970db0e745","system_id":"levelo_inurba_marseille","lat":43.258224,"lon":5.394369,"is_reserved":false,"is_disabled":false,"rental_uris":{"android":"levelo://app?vid=326f2809-3868-42eb-a6cd-fa970db0e745","ios":"levelo://app?vid=326f2809-3868-42eb-a6cd-fa970db0e745"},"vehicle_type_id":"4","last_reported":1701932805,"current_range_meters":19200,"station_id":"ce4bhip2rcd13ifvqft0","pricing_plan_id":"free"},{"bike_id":"5705e3fe-de13-42da-89d5-2722adee54fe","system_id":"levelo_inurba_marseille","lat":43.254947,"lon":5.376454,"is_reserved":false,"is_disabled":false,"rental_uris":{"android":"levelo://app?vid=5705e3fe-de13-42da-89d5-2722adee54fe","ios":"levelo://app?vid=5705e3fe-de13-42da-89d5-2722adee54fe"},"vehicle_type_id":"4","last_reported":1701932805,"current_range_meters":15200,"station_id":"ce4bhh12rcd13ifvqff0","pricing_plan_id":"free"},{"bike_id":"d7c2e738-a6f0-4b41-a8b2-efe4c7597b55","system_id":"levelo_inurba_marseille","lat":43.270721,"lon":5.422764,"is_reserved":false,"is_disabled":false,"rental_uris":{"android":"levelo://app?vid=d7c2e738-a6f0-4b41-a8b2-efe4c7597b55","ios":"levelo://app?vid=d7c2e738-a6f0-4b41-a8b2-efe4c7597b55"},"vehicle_type_id":"4","last_reported":1701932805,"current_range_meters":400,"station_id":"ce4bhk92rcd13ifvqgb0","pricing_plan_id":"free"},{"bike_id":"46c122df-37ab-4053-ad9f-fdecd031d3be","system_id":"levelo_inurba_marseille","lat":43.250009,"lon":5.389195,"is_reserved":false,"is_disabled":false,"rental_uris":{"android":"levelo://app?vid=46c122df-37ab-4053-ad9f-fdecd031d3be","ios":"levelo://app?vid=46c122df-37ab-4053-ad9f-fdecd031d3be"},"vehicle_type_id":"4","last_reported":1701932805,"current_range_meters":26400,"station_id":"ce4bhgp2rcd13ifvqfd0","pricing_plan_id":"free"},{"bike_id":"57bcd131-b6f3-49d1-9880-e08fa6fff4ac","system_id":"levelo_inurba_marseille","lat":43.250009,"lon":5.389195,"is_reserved":false,"is_disabled":false,"rental_uris":{"android":"levelo://app?vid=57bcd131-b6f3-49d1-9880-e08fa6fff4ac","ios":"levelo://app?vid=57bcd131-b6f3-49d1-9880-e08fa6fff4ac"},"vehicle_type_id":"4","last_reported":1701932805,"current_range_meters":17600,"station_id":"ce4bhgp2rcd13ifvqfd0","pricing_plan_id":"free"},{"bike_id":"5afaa82a-9039-4736-a4ff-5509250d3b44","system_id":"levelo_inurba_marseille","lat":43.25102,"lon":5.403214,"is_reserved":false,"is_disabled":false,"rental_uris":{"android":"levelo://app?vid=5afaa82a-9039-4736-a4ff-5509250d3b44","ios":"levelo://app?vid=5afaa82a-9039-4736-a4ff-5509250d3b44"},"vehicle_type_id":"4","last_reported":1701932805,"current_range_meters":27200,"station_id":"ce4bhlh2rcd13ifvqgig","pricing_plan_id":"free"},{"bike_id":"100cff8a-5a0b-4bf6-b662-b3cda46b99c8","system_id":"levelo_inurba_marseille","lat":43.25102,"lon":5.403214,"is_reserved":false,"is_disabled":false,"rental_uris":{"android":"levelo://app?vid=100cff8a-5a0b-4bf6-b662-b3cda46b99c8","ios":"levelo://app?vid=100cff8a-5a0b-4bf6-b662-b3cda46b99c8"},"vehicle_type_id":"4","last_reported":1701932805,"current_range_meters":28000,"station_id":"ce4bhlh2rcd13ifvqgig","pricing_plan_id":"free"},{"bike_id":"561a1ce2-c2bc-4ad8-ae38-40bb1ded7562","system_id":"levelo_inurba_marseille","lat":43.25102,"lon":5.403214,"is_reserved":false,"is_disabled":false,"rental_uris":{"android":"levelo://app?vid=561a1ce2-c2bc-4ad8-ae38-40bb1ded7562","ios":"levelo://app?vid=561a1ce2-c2bc-4ad8-ae38-40bb1ded7562"},"vehicle_type_id":"4","last_reported":1701932805,"current_range_meters":23600,"station_id":"ce4bhlh2rcd13ifvqgig","pricing_plan_id":"free"},{"bike_id":"8fac2414-d8f0-4541-afe3-60718a61b2a7","system_id":"levelo_inurba_marseille","lat":43.24547,"lon":5.39521,"is_reserved":false,"is_disabled":false,"rental_uris":{"android":"levelo://app?vid=8fac2414-d8f0-4541-afe3-60718a61b2a7","ios":"levelo://app?vid=8fac2414-d8f0-4541-afe3-60718a61b2a7"},"vehicle_type_id":"4","last_reported":1701932805,"current_range_meters":1600,"station_id":"ce4bhlp2rcd13ifvqgjg","pricing_plan_id":"free"},{"bike_id":"c81b493d-96c8-4674-ba43-e8b2738bcac8","system_id":"levelo_inurba_marseille","lat":43.240623,"lon":5.377642,"is_reserved":false,"is_disabled":false,"rental_uris":{"android":"levelo://app?vid=c81b493d-96c8-4674-ba43-e8b2738bcac8","ios":"levelo://app?vid=c81b493d-96c8-4674-ba43-e8b2738bcac8"},"vehicle_type_id":"4","last_reported":1701932805,"current_range_meters":26400,"station_id":"ce4bhnp2rcd13ifvqgvg","pricing_plan_id":"free"},{"bike_id":"21d64070-be5a-4b98-8cd2-4956101ead67","system_id":"levelo_inurba_marseille","lat":43.24072,"lon":5.37761,"is_reserved":false,"is_disabled":false,"rental_uris":{"android":"levelo://app?vid=21d64070-be5a-4b98-8cd2-4956101ead67","ios":"levelo://app?vid=21d64070-be5a-4b98-8cd2-4956101ead67"},"vehicle_type_id":"4","last_reported":1701932805,"current_range_meters":0,"station_id":"ce4bhnp2rcd13ifvqgvg","pricing_plan_id":"free"},{"bike_id":"5d256e14-9142-49ae-ab2b-761d85c4eedd","system_id":"levelo_inurba_marseille","lat":43.240623,"lon":5.377642,"is_reserved":false,"is_disabled":false,"rental_uris":{"android":"levelo://app?vid=5d256e14-9142-49ae-ab2b-761d85c4eedd","ios":"levelo://app?vid=5d256e14-9142-49ae-ab2b-761d85c4eedd"},"vehicle_type_id":"4","last_reported":1701932805,"current_range_meters":27200,"station_id":"ce4bhnp2rcd13ifvqgvg","pricing_plan_id":"free"},{"bike_id":"15edf42f-357e-43b5-a730-d7535bf4660b","system_id":"levelo_inurba_marseille","lat":43.2407,"lon":5.37763,"is_reserved":false,"is_disabled":false,"rental_uris":{"android":"levelo://app?vid=15edf42f-357e-43b5-a730-d7535bf4660b","ios":"levelo://app?vid=15edf42f-357e-43b5-a730-d7535bf4660b"},"vehicle_type_id":"4","last_reported":1701932805,"current_range_meters":19600,"station_id":"ce4bhnp2rcd13ifvqgvg","pricing_plan_id":"free"},{"bike_id":"8744163e-a457-4a9e-9e9c-1dcc62e6464c","system_id":"levelo_inurba_marseille","lat":43.240623,"lon":5.377642,"is_reserved":false,"is_disabled":false,"rental_uris":{"android":"levelo://app?vid=8744163e-a457-4a9e-9e9c-1dcc62e6464c","ios":"levelo://app?vid=8744163e-a457-4a9e-9e9c-1dcc62e6464c"},"vehicle_type_id":"4","last_reported":1701932805,"current_range_meters":14800,"station_id":"ce4bhnp2rcd13ifvqgvg","pricing_plan_id":"free"},{"bike_id":"53c92b3f-4350-4462-96a1-8330b3f314a2","system_id":"levelo_inurba_marseille","lat":43.240623,"lon":5.377642,"is_reserved":false,"is_disabled":false,"rental_uris":{"android":"levelo://app?vid=53c92b3f-4350-4462-96a1-8330b3f314a2","ios":"levelo://app?vid=53c92b3f-4350-4462-96a1-8330b3f314a2"},"vehicle_type_id":"4","last_reported":1701932805,"current_range_meters":5600,"station_id":"ce4bhnp2rcd13ifvqgvg","pricing_plan_id":"free"},{"bike_id":"ef74d0a8-e99a-4445-8ea8-b107bd6237c5","system_id":"levelo_inurba_marseille","lat":43.240623,"lon":5.377642,"is_reserved":false,"is_disabled":false,"rental_uris":{"android":"levelo://app?vid=ef74d0a8-e99a-4445-8ea8-b107bd6237c5","ios":"levelo://app?vid=ef74d0a8-e99a-4445-8ea8-b107bd6237c5"},"vehicle_type_id":"4","last_reported":1701932805,"current_range_meters":19600,"station_id":"ce4bhnp2rcd13ifvqgvg","pricing_plan_id":"free"},{"bike_id":"972aeed4-3a1a-44dc-ab01-e3bfcfc5654d","system_id":"levelo_inurba_marseille","lat":43.240623,"lon":5.377642,"is_reserved":false,"is_disabled":false,"rental_uris":{"android":"levelo://app?vid=972aeed4-3a1a-44dc-ab01-e3bfcfc5654d","ios":"levelo://app?vid=972aeed4-3a1a-44dc-ab01-e3bfcfc5654d"},"vehicle_type_id":"4","last_reported":1701932805,"current_range_meters":22400,"station_id":"ce4bhnp2rcd13ifvqgvg","pricing_plan_id":"free"},{"bike_id":"99e5c3d8-4232-480f-afd1-eb53f2db185d","system_id":"levelo_inurba_marseille","lat":43.240623,"lon":5.377642,"is_reserved":false,"is_disabled":false,"rental_uris":{"android":"levelo://app?vid=99e5c3d8-4232-480f-afd1-eb53f2db185d","ios":"levelo://app?vid=99e5c3d8-4232-480f-afd1-eb53f2db185d"},"vehicle_type_id":"4","last_reported":1701932805,"current_range_meters":26000,"station_id":"ce4bhnp2rcd13ifvqgvg","pricing_plan_id":"free"},{"bike_id":"2a73e8fa-c92c-487d-afb8-ed18138423a5","system_id":"levelo_inurba_marseille","lat":43.231794,"lon":5.400052,"is_reserved":false,"is_disabled":false,"rental_uris":{"android":"levelo://app?vid=2a73e8fa-c92c-487d-afb8-ed18138423a5","ios":"levelo://app?vid=2a73e8fa-c92c-487d-afb8-ed18138423a5"},"vehicle_type_id":"4","last_reported":1701932805,"current_range_meters":30400,"station_id":"ce4bhn12rcd13ifvqgqg","pricing_plan_id":"free"},{"bike_id":"b95bd059-db79-4290-bca3-5a38eb6a8b00","system_id":"levelo_inurba_marseille","lat":43.231793,"lon":5.399759,"is_reserved":false,"is_disabled":false,"rental_uris":{"android":"levelo://app?vid=b95bd059-db79-4290-bca3-5a38eb6a8b00","ios":"levelo://app?vid=b95bd059-db79-4290-bca3-5a38eb6a8b00"},"vehicle_type_id":"4","last_reported":1701932805,"current_range_meters":13600,"station_id":"ce4bhn12rcd13ifvqgqg","pricing_plan_id":"free"},{"bike_id":"dafb76d3-48a3-4e10-8abe-6207ac6827bf","system_id":"levelo_inurba_marseille","lat":43.231562,"lon":5.436933,"is_reserved":false,"is_disabled":false,"rental_uris":{"android":"levelo://app?vid=dafb76d3-48a3-4e10-8abe-6207ac6827bf","ios":"levelo://app?vid=dafb76d3-48a3-4e10-8abe-6207ac6827bf"},"vehicle_type_id":"4","last_reported":1701932805,"current_range_meters":13600,"station_id":"ce4bhmp2rcd13ifvqgog","pricing_plan_id":"free"},{"bike_id":"c585371d-774a-418b-8733-b9524d911113","system_id":"levelo_inurba_marseille","lat":43.231562,"lon":5.436933,"is_reserved":false,"is_disabled":false,"rental_uris":{"android":"levelo://app?vid=c585371d-774a-418b-8733-b9524d911113","ios":"levelo://app?vid=c585371d-774a-418b-8733-b9524d911113"},"vehicle_type_id":"4","last_reported":1701932805,"current_range_meters":16400,"station_id":"ce4bhmp2rcd13ifvqgog","pricing_plan_id":"free"},{"bike_id":"32b30606-14b9-41e6-a49f-da3543c8206c","system_id":"levelo_inurba_marseille","lat":43.231562,"lon":5.436933,"is_reserved":false,"is_disabled":false,"rental_uris":{"android":"levelo://app?vid=32b30606-14b9-41e6-a49f-da3543c8206c","ios":"levelo://app?vid=32b30606-14b9-41e6-a49f-da3543c8206c"},"vehicle_type_id":"4","last_reported":1701932805,"current_range_meters":25600,"station_id":"ce4bhmp2rcd13ifvqgog","pricing_plan_id":"free"}]}}